{"last_updated":1713819970,"ttl":30,"version":"2.2","data":{"bikes":[{"bike_id":"940d36da-a6d9-4b42-88b3-353115d68638","system_id":"levelo_inurba_marseille","lat":43.312239,"lon":5.368562,"is_reserved":false,"is_disabled":false,"rental_uris":{"android":"levelo://app?vid=940d36da-a6d9-4b42-88b3-353115d68638","ios":"levelo://app?vid=940d36da-a6d9-4b42-88b3-353115d68638"},"vehicle_type_id":"4","last_reported":1713819970,"current_range_meters":17200,"station_id":"ce4bgl92rcd13ifvqbq0","pricing_plan_id":"cebpf4jnsgd1na2vs0mg"},{"bike_id":"0be82b9a-1561-4044-8322-fe06b1711dd0","system_id":"levelo_inurba_marseille","lat":43.314811,"lon":5.373103,"is_reserved":false,"is_disabled":false,"rental_uris":{"android":"levelo://app?vid=0be82b9a-1561-4044-8322-fe06b1711dd0","ios":"levelo://app?vid=0be82b9a-1561-4044-8322-fe06b1711dd0"},"vehicle_type_id":"4","last_reported":1713819970,"current_range_meters":0,"station_id":"ce4bgt12rcd13ifvqcd0","pricing_plan_id":"cebpf4jnsgd1na2vs0mg"},{"bike_id":"cb5e7be0-9e24-4c02-90c4-dfc813bad657","system_id":"levelo_inurba_marseille","lat":43.309039,"lon":5.371797,"is_reserved":false,"is_disabled":false,"rental_uris":{"android":"levelo://app?vid=cb5e7be0-9e24-4c02-90c4-dfc813bad657","ios":"levelo://app?vid=cb5e7be0-9e24-4c02-90c4-dfc813bad657"},"vehicle_type_id":"4","last_reported":1713819970,"current_range_meters":25200,"station_id":"ce4bguh2rcd13ifvqckg","pricing_plan_id":"cebpf4jnsgd1na2vs0mg"},{"bike_id":"01297242-f819-4e00-9e6e-24e4b3ee8d60","system_id":"levelo_inurba_marseille","lat":43.308852,"lon":5.372032,"is_reserved":false,"is_disabled":false,"rental_uris":{"android":"levelo://app?vid=01297242-f819-4e00-9e6e-24e4b3ee8d60","ios":"levelo://app?vid=01297242-f819-4e00-9e6e-24e4b3ee8d60"},"vehicle_type_id":"4","last_reported":1713819970,"current_range_meters":18800,"station_id":"ce4bguh2rcd13ifvqckg","pricing_plan_id":"cebpf4jnsgd1na2vs0mg"},{"bike_id":"f3c8e660-adb7-448d-9d5d-55a0433da1f6","system_id":"levelo_inurba_marseille","lat":43.309039,"lon":5.371797,"is_reserved":false,"is_disabled":false,"rental_uris":{"android":"levelo://app?vid=f3c8e660-adb7-448d-9d5d-55a0433da1f6","ios":"levelo://app?vid=f3c8e660-adb7-448d-9d5d-55a0433da1f6"},"vehicle_type_id":"4","last_reported":1713819970,"current_range_meters":23200,"station_id":"ce4bguh2rcd13ifvqckg","pricing_plan_id":"cebpf4jnsgd1na2vs0mg"},{"bike_id":"58af6cf7-b2ef-47fc-860e-a9d856175888","system_id":"levelo_inurba_marseille","lat":43.305368,"lon":5.367343,"is_reserved":false,"is_disabled":false,"rental_uris":{"android":"levelo://app?vid=58af6cf7-b2ef-47fc-860e-a9d856175888","ios":"levelo://app?vid=58af6cf7-b2ef-47fc-860e-a9d856175888"},"vehicle_type_id":"4","last_reported":1713819970,"current_range_meters":15200,"station_id":"ce4bgrp2rcd13ifvqc9g","pricing_plan_id":"cebpf4jnsgd1na2vs0mg"},{"bike_id":"778c898c-f7d3-4180-bd35-0fcd07bee9bb","system_id":"levelo_inurba_marseille","lat":43.305706,"lon":5.365654,"is_reserved":false,"is_disabled":false,"rental_uris":{"android":"levelo://app?vid=778c898c-f7d3-4180-bd35-0fcd07bee9bb","ios":"levelo://app?vid=778c898c-f7d3-4180-bd35-0fcd07bee9bb"},"vehicle_type_id":"4","last_reported":1713819970,"current_range_meters":30400,"station_id":"ce4bgs12rcd13ifvqcag","pricing_plan_id":"cebpf4jnsgd1na2vs0mg"},{"bike_id":"71339a0a-08ec-4af2-bb75-3a1a55362bf3","system_id":"levelo_inurba_marseille","lat":43.306033,"lon":5.372203,"is_reserved":false,"is_disabled":false,"rental_uris":{"android":"levelo://app?vid=71339a0a-08ec-4af2-bb75-3a1a55362bf3","ios":"levelo://app?vid=71339a0a-08ec-4af2-bb75-3a1a55362bf3"},"vehicle_type_id":"4","last_reported":1713819970,"current_range_meters":5200,"station_id":"ce4bgqh2rcd13ifvqc4g","pricing_plan_id":"cebpf4jnsgd1na2vs0mg"},{"bike_id":"d4eb8c8b-5f5f-4917-b4b4-3e5b23cd30e6","system_id":"levelo_inurba_marseille","lat":43.311164,"lon":5.377525,"is_reserved":false,"is_disabled":false,"rental_uris":{"android":"levelo://app?vid=d4eb8c8b-5f5f-4917-b4b4-3e5b23cd30e6","ios":"levelo://app?vid=d4eb8c8b-5f5f-4917-b4b4-3e5b23cd30e6"},"vehicle_type_id":"4","last_reported":1713819970,"current_range_meters":8000,"station_id":"ce4bgt92rcd13ifvqcg0","pricing_plan_id":"cebpf4jnsgd1na2vs0mg"},{"bike_id":"dcfecac2-b489-4626-94db-e5d718ef3cba","system_id":"levelo_inurba_marseille","lat":43.311125,"lon":5.377624,"is_reserved":false,"is_disabled":false,"rental_uris":{"android":"levelo://app?vid=dcfecac2-b489-4626-94db-e5d718ef3cba","ios":"levelo://app?vid=dcfecac2-b489-4626-94db-e5d718ef3cba"},"vehicle_type_id":"4","last_reported":1713819970,"current_range_meters":27600,"station_id":"ce4bgt92rcd13ifvqcg0","pricing_plan_id":"cebpf4jnsgd1na2vs0mg"},{"bike_id":"b0c32b44-feaf-435c-a091-c44b0cb45308","system_id":"levelo_inurba_marseille","lat":43.311125,"lon":5.377624,"is_reserved":false,"is_disabled":false,"rental_uris":{"android":"levelo://app?vid=b0c32b44-feaf-435c-a091-c44b0cb45308","ios":"levelo://app?vid=b0c32b44-feaf-435c-a091-c44b0cb45308"},"vehicle_type_id":"4","last_reported":1713819970,"current_range_meters":20000,"station_id":"ce4bgt92rcd13ifvqcg0","pricing_plan_id":"cebpf4jnsgd1na2vs0mg"},{"bike_id":"1efb7fcd-1ce0-466d-a565-06410a114519","system_id":"levelo_inurba_marseille","lat":43.30588,"lon":5.37237,"is_reserved":false,"is_disabled":false,"rental_uris":{"android":"levelo://app?vid=1efb7fcd-1ce0-466d-a565-06410a114519","ios":"levelo://app?vid=1efb7fcd-1ce0-466d-a565-06410a114519"},"vehicle_type_id":"4","last_reported":1713819970,"current_range_meters":0,"station_id":"ce4bgqh2rcd13ifvqc4g","pricing_plan_id":"cebpf4jnsgd1na2vs0mg"},{"bike_id":"9e7fa7fa-e832-4a66-9ea8-a96a9a07110c","system_id":"levelo_inurba_marseille","lat":43.31116,"lon":5.377654,"is_reserved":false,"is_disabled":false,"rental_uris":{"android":"levelo://app?vid=9e7fa7fa-e832-4a66-9ea8-a96a9a07110c","ios":"levelo://app?vid=9e7fa7fa-e832-4a66-9ea8-a96a9a07110c"},"vehicle_type_id":"4","last_reported":1713819970,"current_range_meters":800,"station_id":"ce4bgt92rcd13ifvqcg0","pricing_plan_id":"cebpf4jnsgd1na2vs0mg"},{"bike_id":"704f465e-073b-4f67-ae7e-676bb1da07e1","system_id":"levelo_inurba_marseille","lat":43.311125,"lon":5.377624,"is_reserved":false,"is_disabled":false,"rental_uris":{"android":"levelo://app?vid=704f465e-073b-4f67-ae7e-676bb1da07e1","ios":"levelo://app?vid=704f465e-073b-4f67-ae7e-676bb1da07e1"},"vehicle_type_id":"4","last_reported":1713819970,"current_range_meters":26800,"station_id":"ce4bgt92rcd13ifvqcg0","pricing_plan_id":"cebpf4jnsgd1na2vs0mg"},{"bike_id":"2577fb2a-9dc6-4b39-abe2-3b818e9d97a9","system_id":"levelo_inurba_marseille","lat":43.30784,"lon":5.37657,"is_reserved":false,"is_disabled":false,"rental_uris":{"android":"levelo://app?vid=2577fb2a-9dc6-4b39-abe2-3b818e9d97a9","ios":"levelo://app?vid=2577fb2a-9dc6-4b39-abe2-3b818e9d97a9"},"vehicle_type_id":"4","last_reported":1713819970,"current_range_meters":0,"station_id":"ce4bgv92rcd13ifvqcq0","pricing_plan_id":"cebpf4jnsgd1na2vs0mg"},{"bike_id":"3323d6d1-2c29-498a-8296-4f9ee876f2f8","system_id":"levelo_inurba_marseille","lat":43.307945,"lon":5.376487,"is_reserved":false,"is_disabled":false,"rental_uris":{"android":"levelo://app?vid=3323d6d1-2c29-498a-8296-4f9ee876f2f8","ios":"levelo://app?vid=3323d6d1-2c29-498a-8296-4f9ee876f2f8"},"vehicle_type_id":"4","last_reported":1713819970,"current_range_meters":10800,"station_id":"ce4bgv92rcd13ifvqcq0","pricing_plan_id":"cebpf4jnsgd1na2vs0mg"},{"bike_id":"1ab46602-bb84-4af3-9b14-417959bb5e64","system_id":"levelo_inurba_marseille","lat":43.307945,"lon":5.376487,"is_reserved":false,"is_disabled":false,"rental_uris":{"android":"levelo://app?vid=1ab46602-bb84-4af3-9b14-417959bb5e64","ios":"levelo://app?vid=1ab46602-bb84-4af3-9b14-417959bb5e64"},"vehicle_type_id":"4","last_reported":1713819970,"current_range_meters":24800,"station_id":"ce4bgv92rcd13ifvqcq0","pricing_plan_id":"cebpf4jnsgd1na2vs0mg"},{"bike_id":"3385ee2a-c550-4633-ade2-dfbb928c531a","system_id":"levelo_inurba_marseille","lat":43.317075,"lon":5.377367,"is_reserved":false,"is_disabled":false,"rental_uris":{"android":"levelo://app?vid=3385ee2a-c550-4633-ade2-dfbb928c531a","ios":"levelo://app?vid=3385ee2a-c550-4633-ade2-dfbb928c531a"},"vehicle_type_id":"4","last_reported":1713819970,"current_range_meters":31200,"station_id":"ce4bgth2rcd13ifvqch0","pricing_plan_id":"cebpf4jnsgd1na2vs0mg"},{"bike_id":"56b503c4-5488-4eaa-851e-cb5063c7be13","system_id":"levelo_inurba_marseille","lat":43.317075,"lon":5.377367,"is_reserved":false,"is_disabled":false,"rental_uris":{"android":"levelo://app?vid=56b503c4-5488-4eaa-851e-cb5063c7be13","ios":"levelo://app?vid=56b503c4-5488-4eaa-851e-cb5063c7be13"},"vehicle_type_id":"4","last_reported":1713819970,"current_range_meters":10000,"station_id":"ce4bgth2rcd13ifvqch0","pricing_plan_id":"cebpf4jnsgd1na2vs0mg"},{"bike_id":"7bd9dcd7-cfa4-4720-b545-724872c01541","system_id":"levelo_inurba_marseille","lat":43.317075,"lon":5.377367,"is_reserved":false,"is_disabled":false,"rental_uris":{"android":"levelo://app?vid=7bd9dcd7-cfa4-4720-b545-724872c01541","ios":"levelo://app?vid=7bd9dcd7-cfa4-4720-b545-724872c01541"},"vehicle_type_id":"4","last_reported":1713819970,"current_range_meters":25600,"station_id":"ce4bgth2rcd13ifvqch0","pricing_plan_id":"cebpf4jnsgd1na2vs0mg"},{"bike_id":"19f25d95-5e6f-4551-b0a3-5110d01f16de","system_id":"levelo_inurba_marseille","lat":43.303046,"lon":5.368981,"is_reserved":false,"is_disabled":false,"rental_uris":{"android":"levelo://app?vid=19f25d95-5e6f-4551-b0a3-5110d01f16de","ios":"levelo://app?vid=19f25d95-5e6f-4551-b0a3-5110d01f16de"},"vehicle_type_id":"4","last_reported":1713819970,"current_range_meters":28400,"station_id":"ce4bgqh2rcd13ifvqc5g","pricing_plan_id":"cebpf4jnsgd1na2vs0mg"},{"bike_id":"b15ef6e5-3a5b-45cf-bee8-70335f3d5f34","system_id":"levelo_inurba_marseille","lat":43.303,"lon":5.369053,"is_reserved":false,"is_disabled":false,"rental_uris":{"android":"levelo://app?vid=b15ef6e5-3a5b-45cf-bee8-70335f3d5f34","ios":"levelo://app?vid=b15ef6e5-3a5b-45cf-bee8-70335f3d5f34"},"vehicle_type_id":"4","last_reported":1713819970,"current_range_meters":31200,"station_id":"ce4bgqh2rcd13ifvqc5g","pricing_plan_id":"cebpf4jnsgd1na2vs0mg"},{"bike_id":"206a6d29-401f-46b3-b878-6d387e8710ad","system_id":"levelo_inurba_marseille","lat":43.30304,"lon":5.368987,"is_reserved":false,"is_disabled":false,"rental_uris":{"android":"levelo://app?vid=206a6d29-401f-46b3-b878-6d387e8710ad","ios":"levelo://app?vid=206a6d29-401f-46b3-b878-6d387e8710ad"},"vehicle_type_id":"4","last_reported":1713819970,"current_range_meters":24000,"station_id":"ce4bgqh2rcd13ifvqc5g","pricing_plan_id":"cebpf4jnsgd1na2vs0mg"},{"bike_id":"83bf7651-e56e-4c73-b2df-f0860658554c","system_id":"levelo_inurba_marseille","lat":43.315289,"lon":5.380349,"is_reserved":false,"is_disabled":false,"rental_uris":{"android":"levelo://app?vid=83bf7651-e56e-4c73-b2df-f0860658554c","ios":"levelo://app?vid=83bf7651-e56e-4c73-b2df-f0860658554c"},"vehicle_type_id":"4","last_reported":1713819970,"current_range_meters":8400,"station_id":"ce4bhsp2rcd13ifvqi50","pricing_plan_id":"cebpf4jnsgd1na2vs0mg"},{"bike_id":"04a52809-4714-4f3c-866f-faa7c2ffb546","system_id":"levelo_inurba_marseille","lat":43.315289,"lon":5.380349,"is_reserved":false,"is_disabled":false,"rental_uris":{"android":"levelo://app?vid=04a52809-4714-4f3c-866f-faa7c2ffb546","ios":"levelo://app?vid=04a52809-4714-4f3c-866f-faa7c2ffb546"},"vehicle_type_id":"4","last_reported":1713819970,"current_range_meters":0,"station_id":"ce4bhsp2rcd13ifvqi50","pricing_plan_id":"cebpf4jnsgd1na2vs0mg"},{"bike_id":"cf8ba942-38b6-49bf-a232-6f94025c7074","system_id":"levelo_inurba_marseille","lat":43.315293,"lon":5.380349,"is_reserved":false,"is_disabled":false,"rental_uris":{"android":"levelo://app?vid=cf8ba942-38b6-49bf-a232-6f94025c7074","ios":"levelo://app?vid=cf8ba942-38b6-49bf-a232-6f94025c7074"},"vehicle_type_id":"4","last_reported":1713819970,"current_range_meters":26000,"station_id":"ce4bhsp2rcd13ifvqi50","pricing_plan_id":"cebpf4jnsgd1na2vs0mg"},{"bike_id":"3fe57c5f-ad80-4997-b059-460e086c908f","system_id":"levelo_inurba_marseille","lat":43.315289,"lon":5.380349,"is_reserved":false,"is_disabled":false,"rental_uris":{"android":"levelo://app?vid=3fe57c5f-ad80-4997-b059-460e086c908f","ios":"levelo://app?vid=3fe57c5f-ad80-4997-b059-460e086c908f"},"vehicle_type_id":"4","last_reported":1713819970,"current_range_meters":31600,"station_id":"ce4bhsp2rcd13ifvqi50","pricing_plan_id":"cebpf4jnsgd1na2vs0mg"},{"bike_id":"a9e8ec94-fa8e-4599-a1e2-aca13c0d132e","system_id":"levelo_inurba_marseille","lat":43.315289,"lon":5.380349,"is_reserved":false,"is_disabled":false,"rental_uris":{"android":"levelo://app?vid=a9e8ec94-fa8e-4599-a1e2-aca13c0d132e","ios":"levelo://app?vid=a9e8ec94-fa8e-4599-a1e2-aca13c0d132e"},"vehicle_type_id":"4","last_reported":1713819970,"current_range_meters":15200,"station_id":"ce4bhsp2rcd13ifvqi50","pricing_plan_id":"cebpf4jnsgd1na2vs0mg"},{"bike_id":"25d3b51a-ac6d-477a-bf4f-16b642a53050","system_id":"levelo_inurba_marseille","lat":43.306626,"lon":5.380278,"is_reserved":false,"is_disabled":false,"rental_uris":{"android":"levelo://app?vid=25d3b51a-ac6d-477a-bf4f-16b642a53050","ios":"levelo://app?vid=25d3b51a-ac6d-477a-bf4f-16b642a53050"},"vehicle_type_id":"4","last_reported":1713819970,"current_range_meters":13600,"station_id":"","pricing_plan_id":"cebpf4jnsgd1na2vs0mg"},{"bike_id":"7d3296cb-aef5-4cae-9c4e-a8c8385105cf","system_id":"levelo_inurba_marseille","lat":43.308012,"lon":5.381511,"is_reserved":false,"is_disabled":false,"rental_uris":{"android":"levelo://app?vid=7d3296cb-aef5-4cae-9c4e-a8c8385105cf","ios":"levelo://app?vid=7d3296cb-aef5-4cae-9c4e-a8c8385105cf"},"vehicle_type_id":"4","last_reported":1713819970,"current_range_meters":3200,"station_id":"ce4bgt12rcd13ifvqce0","pricing_plan_id":"cebpf4jnsgd1na2vs0mg"},{"bike_id":"1a381db4-22a6-421a-ac6d-49290ac3bbb1","system_id":"levelo_inurba_marseille","lat":43.301939,"lon":5.366286,"is_reserved":false,"is_disabled":false,"rental_uris":{"android":"levelo://app?vid=1a381db4-22a6-421a-ac6d-49290ac3bbb1","ios":"levelo://app?vid=1a381db4-22a6-421a-ac6d-49290ac3bbb1"},"vehicle_type_id":"4","last_reported":1713819970,"current_range_meters":16800,"station_id":"ce4bgrh2rcd13ifvqc8g","pricing_plan_id":"cebpf4jnsgd1na2vs0mg"},{"bike_id":"e0cdcb96-978b-4817-bf99-0988adc41113","system_id":"levelo_inurba_marseille","lat":43.304606,"lon":5.379026,"is_reserved":false,"is_disabled":false,"rental_uris":{"android":"levelo://app?vid=e0cdcb96-978b-4817-bf99-0988adc41113","ios":"levelo://app?vid=e0cdcb96-978b-4817-bf99-0988adc41113"},"vehicle_type_id":"4","last_reported":1713819970,"current_range_meters":11200,"station_id":"ce4bgup2rcd13ifvqcn0","pricing_plan_id":"cebpf4jnsgd1na2vs0mg"},{"bike_id":"446414bd-fc0e-47c7-9693-79adaafb9dcd","system_id":"levelo_inurba_marseille","lat":43.324771,"lon":5.36557,"is_reserved":false,"is_disabled":false,"rental_uris":{"android":"levelo://app?vid=446414bd-fc0e-47c7-9693-79adaafb9dcd","ios":"levelo://app?vid=446414bd-fc0e-47c7-9693-79adaafb9dcd"},"vehicle_type_id":"4","last_reported":1713819970,"current_range_meters":4800,"station_id":"ce4bhs12rcd13ifvqhvg","pricing_plan_id":"cebpf4jnsgd1na2vs0mg"},{"bike_id":"bef39e5f-69ef-4fe8-9684-4cf76d6fb47e","system_id":"levelo_inurba_marseille","lat":43.324771,"lon":5.36557,"is_reserved":false,"is_disabled":false,"rental_uris":{"android":"levelo://app?vid=bef39e5f-69ef-4fe8-9684-4cf76d6fb47e","ios":"levelo://app?vid=bef39e5f-69ef-4fe8-9684-4cf76d6fb47e"},"vehicle_type_id":"4","last_reported":1713819970,"current_range_meters":9200,"station_id":"ce4bhs12rcd13ifvqhvg","pricing_plan_id":"cebpf4jnsgd1na2vs0mg"},{"bike_id":"93cf05cf-247c-44fd-8239-5459e93ea3ed","system_id":"levelo_inurba_marseille","lat":43.324771,"lon":5.36557,"is_reserved":false,"is_disabled":false,"rental_uris":{"android":"levelo://app?vid=93cf05cf-247c-44fd-8239-5459e93ea3ed","ios":"levelo://app?vid=93cf05cf-247c-44fd-8239-5459e93ea3ed"},"vehicle_type_id":"4","last_reported":1713819970,"current_range_meters":16000,"station_id":"ce4bhs12rcd13ifvqhvg","pricing_plan_id":"cebpf4jnsgd1na2vs0mg"},{"bike_id":"4de203a6-e210-4aa0-bcb0-972d5a213134","system_id":"levelo_inurba_marseille","lat":43.324771,"lon":5.36557,"is_reserved":false,"is_disabled":false,"rental_uris":{"android":"levelo://app?vid=4de203a6-e210-4aa0-bcb0-972d5a213134","ios":"levelo://app?vid=4de203a6-e210-4aa0-bcb0-972d5a213134"},"vehicle_type_id":"4","last_reported":1713819970,"current_range_meters":3200,"station_id":"ce4bhs12rcd13ifvqhvg","pricing_plan_id":"cebpf4jnsgd1na2vs0mg"},{"bike_id":"48b28b8f-2f67-4919-8312-15a2fdeddf74","system_id":"levelo_inurba_marseille","lat":43.310804,"lon":5.38359,"is_reserved":false,"is_disabled":false,"rental_uris":{"android":"levelo://app?vid=48b28b8f-2f67-4919-8312-15a2fdeddf74","ios":"levelo://app?vid=48b28b8f-2f67-4919-8312-15a2fdeddf74"},"vehicle_type_id":"4","last_reported":1713819970,"current_range_meters":21200,"station_id":"ce4bgv92rcd13ifvqcr0","pricing_plan_id":"cebpf4jnsgd1na2vs0mg"},{"bike_id":"9a2582e0-1fbb-4d17-b655-e7559755ded6","system_id":"levelo_inurba_marseille","lat":43.310804,"lon":5.38359,"is_reserved":false,"is_disabled":false,"rental_uris":{"android":"levelo://app?vid=9a2582e0-1fbb-4d17-b655-e7559755ded6","ios":"levelo://app?vid=9a2582e0-1fbb-4d17-b655-e7559755ded6"},"vehicle_type_id":"4","last_reported":1713819970,"current_range_meters":5200,"station_id":"ce4bgv92rcd13ifvqcr0","pricing_plan_id":"cebpf4jnsgd1na2vs0mg"},{"bike_id":"2d7bb7db-4c2b-4bdc-97f6-3fd892a30a65","system_id":"levelo_inurba_marseille","lat":43.302784,"lon":5.377158,"is_reserved":false,"is_disabled":false,"rental_uris":{"android":"levelo://app?vid=2d7bb7db-4c2b-4bdc-97f6-3fd892a30a65","ios":"levelo://app?vid=2d7bb7db-4c2b-4bdc-97f6-3fd892a30a65"},"vehicle_type_id":"4","last_reported":1713819970,"current_range_meters":26000,"station_id":"ce4bguh2rcd13ifvqcj0","pricing_plan_id":"cebpf4jnsgd1na2vs0mg"},{"bike_id":"aaf8d498-5549-4291-8c6d-8d9762700596","system_id":"levelo_inurba_marseille","lat":43.30143,"lon":5.37413,"is_reserved":false,"is_disabled":false,"rental_uris":{"android":"levelo://app?vid=aaf8d498-5549-4291-8c6d-8d9762700596","ios":"levelo://app?vid=aaf8d498-5549-4291-8c6d-8d9762700596"},"vehicle_type_id":"4","last_reported":1713819970,"current_range_meters":10400,"station_id":"ce4bgs92rcd13ifvqcc0","pricing_plan_id":"cebpf4jnsgd1na2vs0mg"},{"bike_id":"e98ff55c-d476-4c76-9547-8e69149d11ab","system_id":"levelo_inurba_marseille","lat":43.30143,"lon":5.37413,"is_reserved":false,"is_disabled":false,"rental_uris":{"android":"levelo://app?vid=e98ff55c-d476-4c76-9547-8e69149d11ab","ios":"levelo://app?vid=e98ff55c-d476-4c76-9547-8e69149d11ab"},"vehicle_type_id":"4","last_reported":1713819970,"current_range_meters":3600,"station_id":"ce4bgs92rcd13ifvqcc0","pricing_plan_id":"cebpf4jnsgd1na2vs0mg"},{"bike_id":"7e34a868-f7f5-4cc8-ad38-12f475d2e78e","system_id":"levelo_inurba_marseille","lat":43.319935,"lon":5.381699,"is_reserved":false,"is_disabled":false,"rental_uris":{"android":"levelo://app?vid=7e34a868-f7f5-4cc8-ad38-12f475d2e78e","ios":"levelo://app?vid=7e34a868-f7f5-4cc8-ad38-12f475d2e78e"},"vehicle_type_id":"4","last_reported":1713819970,"current_range_meters":25200,"station_id":"ce4bhr12rcd13ifvqhpg","pricing_plan_id":"cebpf4jnsgd1na2vs0mg"},{"bike_id":"36e6c597-4c9b-44fd-b549-5a94fcfa18a9","system_id":"levelo_inurba_marseille","lat":43.319935,"lon":5.381699,"is_reserved":false,"is_disabled":false,"rental_uris":{"android":"levelo://app?vid=36e6c597-4c9b-44fd-b549-5a94fcfa18a9","ios":"levelo://app?vid=36e6c597-4c9b-44fd-b549-5a94fcfa18a9"},"vehicle_type_id":"4","last_reported":1713819970,"current_range_meters":18400,"station_id":"ce4bhr12rcd13ifvqhpg","pricing_plan_id":"cebpf4jnsgd1na2vs0mg"},{"bike_id":"b6448e4e-bc8c-4096-befe-00e7d7b27d86","system_id":"levelo_inurba_marseille","lat":43.319935,"lon":5.381699,"is_reserved":false,"is_disabled":false,"rental_uris":{"android":"levelo://app?vid=b6448e4e-bc8c-4096-befe-00e7d7b27d86","ios":"levelo://app?vid=b6448e4e-bc8c-4096-befe-00e7d7b27d86"},"vehicle_type_id":"4","last_reported":1713819970,"current_range_meters":11200,"station_id":"ce4bhr12rcd13ifvqhpg","pricing_plan_id":"cebpf4jnsgd1na2vs0mg"},{"bike_id":"71adbe34-2f9a-470e-9db9-22e3f5446b00","system_id":"levelo_inurba_marseille","lat":43.319935,"lon":5.381699,"is_reserved":false,"is_disabled":false,"rental_uris":{"android":"levelo://app?vid=71adbe34-2f9a-470e-9db9-22e3f5446b00","ios":"levelo://app?vid=71adbe34-2f9a-470e-9db9-22e3f5446b00"},"vehicle_type_id":"4","last_reported":1713819970,"current_range_meters":18400,"station_id":"ce4bhr12rcd13ifvqhpg","pricing_plan_id":"cebpf4jnsgd1na2vs0mg"},{"bike_id":"fec8dffa-10ef-4635-82bc-fa57de892e01","system_id":"levelo_inurba_marseille","lat":43.319935,"lon":5.381699,"is_reserved":false,"is_disabled":false,"rental_uris":{"android":"levelo://app?vid=fec8dffa-10ef-4635-82bc-fa57de892e01","ios":"levelo://app?vid=fec8dffa-10ef-4635-82bc-fa57de892e01"},"vehicle_type_id":"4","last_reported":1713819970,"current_range_meters":1200,"station_id":"ce4bhr12rcd13ifvqhpg","pricing_plan_id":"cebpf4jnsgd1na2vs0mg"},{"bike_id":"433458f1-4592-4f2a-9af5-551c5a82a6c5","system_id":"levelo_inurba_marseille","lat":43.3199,"lon":5.38152,"is_reserved":false,"is_disabled":false,"rental_uris":{"android":"levelo://app?vid=433458f1-4592-4f2a-9af5-551c5a82a6c5","ios":"levelo://app?vid=433458f1-4592-4f2a-9af5-551c5a82a6c5"},"vehicle_type_id":"4","last_reported":1713819970,"current_range_meters":25200,"station_id":"ce4bhr12rcd13ifvqhpg","pricing_plan_id":"cebpf4jnsgd1na2vs0mg"},{"bike_id":"f93eef6b-628d-49e2-addc-56cb17903cdc","system_id":"levelo_inurba_marseille","lat":43.319935,"lon":5.381699,"is_reserved":false,"is_disabled":false,"rental_uris":{"android":"levelo://app?vid=f93eef6b-628d-49e2-addc-56cb17903cdc","ios":"levelo://app?vid=f93eef6b-628d-49e2-addc-56cb17903cdc"},"vehicle_type_id":"4","last_reported":1713819970,"current_range_meters":8800,"station_id":"ce4bhr12rcd13ifvqhpg","pricing_plan_id":"cebpf4jnsgd1na2vs0mg"},{"bike_id":"70ad4208-4ea1-48bc-a19d-39f226fe0387","system_id":"levelo_inurba_marseille","lat":43.31992,"lon":5.381546,"is_reserved":false,"is_disabled":false,"rental_uris":{"android":"levelo://app?vid=70ad4208-4ea1-48bc-a19d-39f226fe0387","ios":"levelo://app?vid=70ad4208-4ea1-48bc-a19d-39f226fe0387"},"vehicle_type_id":"4","last_reported":1713819970,"current_range_meters":0,"station_id":"ce4bhr12rcd13ifvqhpg","pricing_plan_id":"cebpf4jnsgd1na2vs0mg"},{"bike_id":"60497e5c-882c-4ac3-8384-449f8e5db08e","system_id":"levelo_inurba_marseille","lat":43.319935,"lon":5.381699,"is_reserved":false,"is_disabled":false,"rental_uris":{"android":"levelo://app?vid=60497e5c-882c-4ac3-8384-449f8e5db08e","ios":"levelo://app?vid=60497e5c-882c-4ac3-8384-449f8e5db08e"},"vehicle_type_id":"4","last_reported":1713819970,"current_range_meters":4400,"station_id":"ce4bhr12rcd13ifvqhpg","pricing_plan_id":"cebpf4jnsgd1na2vs0mg"},{"bike_id":"7081c296-2397-44cc-bede-aa5cee197285","system_id":"levelo_inurba_marseille","lat":43.319935,"lon":5.381699,"is_reserved":false,"is_disabled":false,"rental_uris":{"android":"levelo://app?vid=7081c296-2397-44cc-bede-aa5cee197285","ios":"levelo://app?vid=7081c296-2397-44cc-bede-aa5cee197285"},"vehicle_type_id":"4","last_reported":1713819970,"current_range_meters":6800,"station_id":"ce4bhr12rcd13ifvqhpg","pricing_plan_id":"cebpf4jnsgd1na2vs0mg"},{"bike_id":"e1519999-3512-414c-9b48-8555e785cef0","system_id":"levelo_inurba_marseille","lat":43.319935,"lon":5.381699,"is_reserved":false,"is_disabled":false,"rental_uris":{"android":"levelo://app?vid=e1519999-3512-414c-9b48-8555e785cef0","ios":"levelo://app?vid=e1519999-3512-414c-9b48-8555e785cef0"},"vehicle_type_id":"4","last_reported":1713819970,"current_range_meters":0,"station_id":"ce4bhr12rcd13ifvqhpg","pricing_plan_id":"cebpf4jnsgd1na2vs0mg"},{"bike_id":"318ec6c5-8346-481d-896c-62ac1aff7688","system_id":"levelo_inurba_marseille","lat":43.313571,"lon":5.384829,"is_reserved":false,"is_disabled":false,"rental_uris":{"android":"levelo://app?vid=318ec6c5-8346-481d-896c-62ac1aff7688","ios":"levelo://app?vid=318ec6c5-8346-481d-896c-62ac1aff7688"},"vehicle_type_id":"4","last_reported":1713819970,"current_range_meters":6400,"station_id":"ce4bgt92rcd13ifvqcf0","pricing_plan_id":"cebpf4jnsgd1na2vs0mg"},{"bike_id":"db31ee4d-d5e8-4aa9-b189-dfc4e67cb12e","system_id":"levelo_inurba_marseille","lat":43.313571,"lon":5.384829,"is_reserved":false,"is_disabled":false,"rental_uris":{"android":"levelo://app?vid=db31ee4d-d5e8-4aa9-b189-dfc4e67cb12e","ios":"levelo://app?vid=db31ee4d-d5e8-4aa9-b189-dfc4e67cb12e"},"vehicle_type_id":"4","last_reported":1713819970,"current_range_meters":4000,"station_id":"ce4bgt92rcd13ifvqcf0","pricing_plan_id":"cebpf4jnsgd1na2vs0mg"},{"bike_id":"2f73fa7d-8585-43f6-a5cc-beadb8b66cec","system_id":"levelo_inurba_marseille","lat":43.313571,"lon":5.384829,"is_reserved":false,"is_disabled":false,"rental_uris":{"android":"levelo://app?vid=2f73fa7d-8585-43f6-a5cc-beadb8b66cec","ios":"levelo://app?vid=2f73fa7d-8585-43f6-a5cc-beadb8b66cec"},"vehicle_type_id":"4","last_reported":1713819970,"current_range_meters":12400,"station_id":"ce4bgt92rcd13ifvqcf0","pricing_plan_id":"cebpf4jnsgd1na2vs0mg"},{"bike_id":"267f4927-f82e-46f4-bdd6-8b2057f1868d","system_id":"levelo_inurba_marseille","lat":43.313571,"lon":5.384829,"is_reserved":false,"is_disabled":false,"rental_uris":{"android":"levelo://app?vid=267f4927-f82e-46f4-bdd6-8b2057f1868d","ios":"levelo://app?vid=267f4927-f82e-46f4-bdd6-8b2057f1868d"},"vehicle_type_id":"4","last_reported":1713819970,"current_range_meters":4400,"station_id":"ce4bgt92rcd13ifvqcf0","pricing_plan_id":"cebpf4jnsgd1na2vs0mg"},{"bike_id":"3255c556-24c3-48ea-9443-245d28292754","system_id":"levelo_inurba_marseille","lat":43.31368,"lon":5.38494,"is_reserved":false,"is_disabled":false,"rental_uris":{"android":"levelo://app?vid=3255c556-24c3-48ea-9443-245d28292754","ios":"levelo://app?vid=3255c556-24c3-48ea-9443-245d28292754"},"vehicle_type_id":"4","last_reported":1713819970,"current_range_meters":6800,"station_id":"ce4bgt92rcd13ifvqcf0","pricing_plan_id":"cebpf4jnsgd1na2vs0mg"},{"bike_id":"7102c219-a9d7-4e22-af83-f5be2cd3cbfd","system_id":"levelo_inurba_marseille","lat":43.313571,"lon":5.384829,"is_reserved":false,"is_disabled":false,"rental_uris":{"android":"levelo://app?vid=7102c219-a9d7-4e22-af83-f5be2cd3cbfd","ios":"levelo://app?vid=7102c219-a9d7-4e22-af83-f5be2cd3cbfd"},"vehicle_type_id":"4","last_reported":1713819970,"current_range_meters":18400,"station_id":"ce4bgt92rcd13ifvqcf0","pricing_plan_id":"cebpf4jnsgd1na2vs0mg"},{"bike_id":"1febad8b-55e4-4046-ba42-c9e193dbc955","system_id":"levelo_inurba_marseille","lat":43.31357,"lon":5.38497,"is_reserved":false,"is_disabled":false,"rental_uris":{"android":"levelo://app?vid=1febad8b-55e4-4046-ba42-c9e193dbc955","ios":"levelo://app?vid=1febad8b-55e4-4046-ba42-c9e193dbc955"},"vehicle_type_id":"4","last_reported":1713819970,"current_range_meters":5600,"station_id":"ce4bgt92rcd13ifvqcf0","pricing_plan_id":"cebpf4jnsgd1na2vs0mg"},{"bike_id":"fd8375f8-eaab-4fca-80eb-97be54e62b6b","system_id":"levelo_inurba_marseille","lat":43.313571,"lon":5.384829,"is_reserved":false,"is_disabled":false,"rental_uris":{"android":"levelo://app?vid=fd8375f8-eaab-4fca-80eb-97be54e62b6b","ios":"levelo://app?vid=fd8375f8-eaab-4fca-80eb-97be54e62b6b"},"vehicle_type_id":"4","last_reported":1713819970,"current_range_meters":6400,"station_id":"ce4bgt92rcd13ifvqcf0","pricing_plan_id":"cebpf4jnsgd1na2vs0mg"},{"bike_id":"5b591945-1a12-4923-a79a-ccf3e314a38d","system_id":"levelo_inurba_marseille","lat":43.299222,"lon":5.365554,"is_reserved":false,"is_disabled":false,"rental_uris":{"android":"levelo://app?vid=5b591945-1a12-4923-a79a-ccf3e314a38d","ios":"levelo://app?vid=5b591945-1a12-4923-a79a-ccf3e314a38d"},"vehicle_type_id":"4","last_reported":1713819970,"current_range_meters":26400,"station_id":"ce4bgm92rcd13ifvqbr0","pricing_plan_id":"cebpf4jnsgd1na2vs0mg"},{"bike_id":"f6db29db-a363-4b73-bb40-78d7db60206b","system_id":"levelo_inurba_marseille","lat":43.29973,"lon":5.37177,"is_reserved":false,"is_disabled":false,"rental_uris":{"android":"levelo://app?vid=f6db29db-a363-4b73-bb40-78d7db60206b","ios":"levelo://app?vid=f6db29db-a363-4b73-bb40-78d7db60206b"},"vehicle_type_id":"4","last_reported":1713819970,"current_range_meters":13600,"station_id":"ce4bgr92rcd13ifvqc7g","pricing_plan_id":"cebpf4jnsgd1na2vs0mg"},{"bike_id":"fc24baa2-04fa-4a61-a5b5-98acf0dbcc90","system_id":"levelo_inurba_marseille","lat":43.29968,"lon":5.37171,"is_reserved":false,"is_disabled":false,"rental_uris":{"android":"levelo://app?vid=fc24baa2-04fa-4a61-a5b5-98acf0dbcc90","ios":"levelo://app?vid=fc24baa2-04fa-4a61-a5b5-98acf0dbcc90"},"vehicle_type_id":"4","last_reported":1713819970,"current_range_meters":14000,"station_id":"ce4bgr92rcd13ifvqc7g","pricing_plan_id":"cebpf4jnsgd1na2vs0mg"},{"bike_id":"4827db55-4324-4678-a0a1-641358df0595","system_id":"levelo_inurba_marseille","lat":43.313571,"lon":5.384829,"is_reserved":false,"is_disabled":false,"rental_uris":{"android":"levelo://app?vid=4827db55-4324-4678-a0a1-641358df0595","ios":"levelo://app?vid=4827db55-4324-4678-a0a1-641358df0595"},"vehicle_type_id":"4","last_reported":1713819970,"current_range_meters":14000,"station_id":"ce4bgt92rcd13ifvqcf0","pricing_plan_id":"cebpf4jnsgd1na2vs0mg"},{"bike_id":"282a0637-f50e-40cb-9b67-bb3b8a56d2a3","system_id":"levelo_inurba_marseille","lat":43.298433,"lon":5.362774,"is_reserved":false,"is_disabled":false,"rental_uris":{"android":"levelo://app?vid=282a0637-f50e-40cb-9b67-bb3b8a56d2a3","ios":"levelo://app?vid=282a0637-f50e-40cb-9b67-bb3b8a56d2a3"},"vehicle_type_id":"4","last_reported":1713819970,"current_range_meters":3200,"station_id":"ce4bgpp2rcd13ifvqc3g","pricing_plan_id":"cebpf4jnsgd1na2vs0mg"},{"bike_id":"9b31c5cc-0e04-41b6-acaf-075e374232fa","system_id":"levelo_inurba_marseille","lat":43.298433,"lon":5.362774,"is_reserved":false,"is_disabled":false,"rental_uris":{"android":"levelo://app?vid=9b31c5cc-0e04-41b6-acaf-075e374232fa","ios":"levelo://app?vid=9b31c5cc-0e04-41b6-acaf-075e374232fa"},"vehicle_type_id":"4","last_reported":1713819970,"current_range_meters":31200,"station_id":"ce4bgpp2rcd13ifvqc3g","pricing_plan_id":"cebpf4jnsgd1na2vs0mg"},{"bike_id":"abadb87e-d6c9-4594-a4cb-277a49d5fa89","system_id":"levelo_inurba_marseille","lat":43.298433,"lon":5.362774,"is_reserved":false,"is_disabled":false,"rental_uris":{"android":"levelo://app?vid=abadb87e-d6c9-4594-a4cb-277a49d5fa89","ios":"levelo://app?vid=abadb87e-d6c9-4594-a4cb-277a49d5fa89"},"vehicle_type_id":"4","last_reported":1713819970,"current_range_meters":23200,"station_id":"ce4bgpp2rcd13ifvqc3g","pricing_plan_id":"cebpf4jnsgd1na2vs0mg"},{"bike_id":"ebd4ffba-8f1c-4255-b8ef-c58319fe81e3","system_id":"levelo_inurba_marseille","lat":43.305364,"lon":5.384119,"is_reserved":false,"is_disabled":false,"rental_uris":{"android":"levelo://app?vid=ebd4ffba-8f1c-4255-b8ef-c58319fe81e3","ios":"levelo://app?vid=ebd4ffba-8f1c-4255-b8ef-c58319fe81e3"},"vehicle_type_id":"4","last_reported":1713819970,"current_range_meters":18400,"station_id":"ce4bgg92rcd13ifvqb30","pricing_plan_id":"cebpf4jnsgd1na2vs0mg"},{"bike_id":"bea8eece-a67d-4e27-8c47-5b0be0a8092a","system_id":"levelo_inurba_marseille","lat":43.298433,"lon":5.362774,"is_reserved":false,"is_disabled":false,"rental_uris":{"android":"levelo://app?vid=bea8eece-a67d-4e27-8c47-5b0be0a8092a","ios":"levelo://app?vid=bea8eece-a67d-4e27-8c47-5b0be0a8092a"},"vehicle_type_id":"4","last_reported":1713819970,"current_range_meters":15600,"station_id":"ce4bgpp2rcd13ifvqc3g","pricing_plan_id":"cebpf4jnsgd1na2vs0mg"},{"bike_id":"793de283-510f-4469-b523-cd758663af6c","system_id":"levelo_inurba_marseille","lat":43.305364,"lon":5.384119,"is_reserved":false,"is_disabled":false,"rental_uris":{"android":"levelo://app?vid=793de283-510f-4469-b523-cd758663af6c","ios":"levelo://app?vid=793de283-510f-4469-b523-cd758663af6c"},"vehicle_type_id":"4","last_reported":1713819970,"current_range_meters":24000,"station_id":"ce4bgg92rcd13ifvqb30","pricing_plan_id":"cebpf4jnsgd1na2vs0mg"},{"bike_id":"643e7544-ed44-49d1-bedd-1acc1f430305","system_id":"levelo_inurba_marseille","lat":43.299228,"lon":5.374574,"is_reserved":false,"is_disabled":false,"rental_uris":{"android":"levelo://app?vid=643e7544-ed44-49d1-bedd-1acc1f430305","ios":"levelo://app?vid=643e7544-ed44-49d1-bedd-1acc1f430305"},"vehicle_type_id":"4","last_reported":1713819970,"current_range_meters":19200,"station_id":"ce4bgjh2rcd13ifvqbg0","pricing_plan_id":"cebpf4jnsgd1na2vs0mg"},{"bike_id":"8b0e6261-1240-4e33-86ea-3401ae8bb71b","system_id":"levelo_inurba_marseille","lat":43.299182,"lon":5.374672,"is_reserved":false,"is_disabled":false,"rental_uris":{"android":"levelo://app?vid=8b0e6261-1240-4e33-86ea-3401ae8bb71b","ios":"levelo://app?vid=8b0e6261-1240-4e33-86ea-3401ae8bb71b"},"vehicle_type_id":"4","last_reported":1713819970,"current_range_meters":12800,"station_id":"ce4bgjh2rcd13ifvqbg0","pricing_plan_id":"cebpf4jnsgd1na2vs0mg"},{"bike_id":"a67ec7d1-7d4b-49a4-82a3-8397af389996","system_id":"levelo_inurba_marseille","lat":43.299243,"lon":5.374807,"is_reserved":false,"is_disabled":false,"rental_uris":{"android":"levelo://app?vid=a67ec7d1-7d4b-49a4-82a3-8397af389996","ios":"levelo://app?vid=a67ec7d1-7d4b-49a4-82a3-8397af389996"},"vehicle_type_id":"4","last_reported":1713819970,"current_range_meters":30800,"station_id":"ce4bgjh2rcd13ifvqbg0","pricing_plan_id":"cebpf4jnsgd1na2vs0mg"},{"bike_id":"636e7dbe-79ec-4fb8-abe5-a37fde335aac","system_id":"levelo_inurba_marseille","lat":43.311722,"lon":5.387247,"is_reserved":false,"is_disabled":false,"rental_uris":{"android":"levelo://app?vid=636e7dbe-79ec-4fb8-abe5-a37fde335aac","ios":"levelo://app?vid=636e7dbe-79ec-4fb8-abe5-a37fde335aac"},"vehicle_type_id":"4","last_reported":1713819970,"current_range_meters":13200,"station_id":"ce4bgv12rcd13ifvqcp0","pricing_plan_id":"cebpf4jnsgd1na2vs0mg"},{"bike_id":"f5d9fdf2-f008-4de3-9d56-6b0d667caa18","system_id":"levelo_inurba_marseille","lat":43.29917,"lon":5.37486,"is_reserved":false,"is_disabled":false,"rental_uris":{"android":"levelo://app?vid=f5d9fdf2-f008-4de3-9d56-6b0d667caa18","ios":"levelo://app?vid=f5d9fdf2-f008-4de3-9d56-6b0d667caa18"},"vehicle_type_id":"4","last_reported":1713819970,"current_range_meters":0,"station_id":"ce4bgjh2rcd13ifvqbg0","pricing_plan_id":"cebpf4jnsgd1na2vs0mg"},{"bike_id":"8e5691c8-5135-4bc9-bf01-ff8828d7b2b8","system_id":"levelo_inurba_marseille","lat":43.311722,"lon":5.387247,"is_reserved":false,"is_disabled":false,"rental_uris":{"android":"levelo://app?vid=8e5691c8-5135-4bc9-bf01-ff8828d7b2b8","ios":"levelo://app?vid=8e5691c8-5135-4bc9-bf01-ff8828d7b2b8"},"vehicle_type_id":"4","last_reported":1713819970,"current_range_meters":6800,"station_id":"ce4bgv12rcd13ifvqcp0","pricing_plan_id":"cebpf4jnsgd1na2vs0mg"},{"bike_id":"dc4ab206-ddd1-4511-a5f8-9bb3d316d2a2","system_id":"levelo_inurba_marseille","lat":43.311722,"lon":5.387247,"is_reserved":false,"is_disabled":false,"rental_uris":{"android":"levelo://app?vid=dc4ab206-ddd1-4511-a5f8-9bb3d316d2a2","ios":"levelo://app?vid=dc4ab206-ddd1-4511-a5f8-9bb3d316d2a2"},"vehicle_type_id":"4","last_reported":1713819970,"current_range_meters":16800,"station_id":"ce4bgv12rcd13ifvqcp0","pricing_plan_id":"cebpf4jnsgd1na2vs0mg"},{"bike_id":"5e1d7550-0168-4317-a9e6-bf664418a24f","system_id":"levelo_inurba_marseille","lat":43.2991,"lon":5.37481,"is_reserved":false,"is_disabled":false,"rental_uris":{"android":"levelo://app?vid=5e1d7550-0168-4317-a9e6-bf664418a24f","ios":"levelo://app?vid=5e1d7550-0168-4317-a9e6-bf664418a24f"},"vehicle_type_id":"4","last_reported":1713819970,"current_range_meters":0,"station_id":"ce4bgjh2rcd13ifvqbg0","pricing_plan_id":"cebpf4jnsgd1na2vs0mg"},{"bike_id":"ef50abf0-737a-41a9-bb30-a102f009ca5f","system_id":"levelo_inurba_marseille","lat":43.311722,"lon":5.387247,"is_reserved":false,"is_disabled":false,"rental_uris":{"android":"levelo://app?vid=ef50abf0-737a-41a9-bb30-a102f009ca5f","ios":"levelo://app?vid=ef50abf0-737a-41a9-bb30-a102f009ca5f"},"vehicle_type_id":"4","last_reported":1713819970,"current_range_meters":13600,"station_id":"ce4bgv12rcd13ifvqcp0","pricing_plan_id":"cebpf4jnsgd1na2vs0mg"},{"bike_id":"5f28bfb9-95a1-4b86-b760-c2815aa87a5a","system_id":"levelo_inurba_marseille","lat":43.311722,"lon":5.387247,"is_reserved":false,"is_disabled":false,"rental_uris":{"android":"levelo://app?vid=5f28bfb9-95a1-4b86-b760-c2815aa87a5a","ios":"levelo://app?vid=5f28bfb9-95a1-4b86-b760-c2815aa87a5a"},"vehicle_type_id":"4","last_reported":1713819970,"current_range_meters":0,"station_id":"ce4bgv12rcd13ifvqcp0","pricing_plan_id":"cebpf4jnsgd1na2vs0mg"},{"bike_id":"0e334559-5ccc-43b7-976f-4a51550b7924","system_id":"levelo_inurba_marseille","lat":43.305364,"lon":5.384119,"is_reserved":false,"is_disabled":false,"rental_uris":{"android":"levelo://app?vid=0e334559-5ccc-43b7-976f-4a51550b7924","ios":"levelo://app?vid=0e334559-5ccc-43b7-976f-4a51550b7924"},"vehicle_type_id":"4","last_reported":1713819970,"current_range_meters":25200,"station_id":"ce4bgg92rcd13ifvqb30","pricing_plan_id":"cebpf4jnsgd1na2vs0mg"},{"bike_id":"df9d1796-d26a-49fb-ae6b-eec6b58b83aa","system_id":"levelo_inurba_marseille","lat":43.297794,"lon":5.370888,"is_reserved":false,"is_disabled":false,"rental_uris":{"android":"levelo://app?vid=df9d1796-d26a-49fb-ae6b-eec6b58b83aa","ios":"levelo://app?vid=df9d1796-d26a-49fb-ae6b-eec6b58b83aa"},"vehicle_type_id":"4","last_reported":1713819970,"current_range_meters":31200,"station_id":"ce4bgop2rcd13ifvqc1g","pricing_plan_id":"cebpf4jnsgd1na2vs0mg"},{"bike_id":"08c77b82-78ac-45b5-9bfd-95331d2becb0","system_id":"levelo_inurba_marseille","lat":43.297774,"lon":5.370875,"is_reserved":false,"is_disabled":false,"rental_uris":{"android":"levelo://app?vid=08c77b82-78ac-45b5-9bfd-95331d2becb0","ios":"levelo://app?vid=08c77b82-78ac-45b5-9bfd-95331d2becb0"},"vehicle_type_id":"4","last_reported":1713819970,"current_range_meters":27600,"station_id":"ce4bgop2rcd13ifvqc1g","pricing_plan_id":"cebpf4jnsgd1na2vs0mg"},{"bike_id":"0596a7bd-2488-4686-9e1b-913831b0e489","system_id":"levelo_inurba_marseille","lat":43.322872,"lon":5.382756,"is_reserved":false,"is_disabled":false,"rental_uris":{"android":"levelo://app?vid=0596a7bd-2488-4686-9e1b-913831b0e489","ios":"levelo://app?vid=0596a7bd-2488-4686-9e1b-913831b0e489"},"vehicle_type_id":"4","last_reported":1713819970,"current_range_meters":3200,"station_id":"ce4bhr12rcd13ifvqhqg","pricing_plan_id":"cebpf4jnsgd1na2vs0mg"},{"bike_id":"ac986629-7258-42ac-a852-81744f2603d8","system_id":"levelo_inurba_marseille","lat":43.322872,"lon":5.382756,"is_reserved":false,"is_disabled":false,"rental_uris":{"android":"levelo://app?vid=ac986629-7258-42ac-a852-81744f2603d8","ios":"levelo://app?vid=ac986629-7258-42ac-a852-81744f2603d8"},"vehicle_type_id":"4","last_reported":1713819970,"current_range_meters":6000,"station_id":"ce4bhr12rcd13ifvqhqg","pricing_plan_id":"cebpf4jnsgd1na2vs0mg"},{"bike_id":"b87c4180-08df-49c8-872f-4a266b5c0162","system_id":"levelo_inurba_marseille","lat":43.322872,"lon":5.382756,"is_reserved":false,"is_disabled":false,"rental_uris":{"android":"levelo://app?vid=b87c4180-08df-49c8-872f-4a266b5c0162","ios":"levelo://app?vid=b87c4180-08df-49c8-872f-4a266b5c0162"},"vehicle_type_id":"4","last_reported":1713819970,"current_range_meters":20000,"station_id":"ce4bhr12rcd13ifvqhqg","pricing_plan_id":"cebpf4jnsgd1na2vs0mg"},{"bike_id":"7681849e-7be2-4fda-ba51-fa157979a247","system_id":"levelo_inurba_marseille","lat":43.297774,"lon":5.370875,"is_reserved":false,"is_disabled":false,"rental_uris":{"android":"levelo://app?vid=7681849e-7be2-4fda-ba51-fa157979a247","ios":"levelo://app?vid=7681849e-7be2-4fda-ba51-fa157979a247"},"vehicle_type_id":"4","last_reported":1713819970,"current_range_meters":16800,"station_id":"ce4bgop2rcd13ifvqc1g","pricing_plan_id":"cebpf4jnsgd1na2vs0mg"},{"bike_id":"ef61a51c-36c6-4c2f-9a98-9ec3cb0d9ad4","system_id":"levelo_inurba_marseille","lat":43.322872,"lon":5.382756,"is_reserved":false,"is_disabled":false,"rental_uris":{"android":"levelo://app?vid=ef61a51c-36c6-4c2f-9a98-9ec3cb0d9ad4","ios":"levelo://app?vid=ef61a51c-36c6-4c2f-9a98-9ec3cb0d9ad4"},"vehicle_type_id":"4","last_reported":1713819970,"current_range_meters":20000,"station_id":"ce4bhr12rcd13ifvqhqg","pricing_plan_id":"cebpf4jnsgd1na2vs0mg"},{"bike_id":"a4cc2678-1ae4-4d41-a3d2-cbb8a9fd73ac","system_id":"levelo_inurba_marseille","lat":43.322872,"lon":5.382756,"is_reserved":false,"is_disabled":false,"rental_uris":{"android":"levelo://app?vid=a4cc2678-1ae4-4d41-a3d2-cbb8a9fd73ac","ios":"levelo://app?vid=a4cc2678-1ae4-4d41-a3d2-cbb8a9fd73ac"},"vehicle_type_id":"4","last_reported":1713819970,"current_range_meters":31600,"station_id":"ce4bhr12rcd13ifvqhqg","pricing_plan_id":"cebpf4jnsgd1na2vs0mg"},{"bike_id":"0b32fa2b-6e99-4115-bc6d-55694d0bf299","system_id":"levelo_inurba_marseille","lat":43.322872,"lon":5.382756,"is_reserved":false,"is_disabled":false,"rental_uris":{"android":"levelo://app?vid=0b32fa2b-6e99-4115-bc6d-55694d0bf299","ios":"levelo://app?vid=0b32fa2b-6e99-4115-bc6d-55694d0bf299"},"vehicle_type_id":"4","last_reported":1713819970,"current_range_meters":31600,"station_id":"ce4bhr12rcd13ifvqhqg","pricing_plan_id":"cebpf4jnsgd1na2vs0mg"},{"bike_id":"454f2963-a870-401a-a816-3704b04ea77e","system_id":"levelo_inurba_marseille","lat":43.322872,"lon":5.382756,"is_reserved":false,"is_disabled":false,"rental_uris":{"android":"levelo://app?vid=454f2963-a870-401a-a816-3704b04ea77e","ios":"levelo://app?vid=454f2963-a870-401a-a816-3704b04ea77e"},"vehicle_type_id":"4","last_reported":1713819970,"current_range_meters":5200,"station_id":"ce4bhr12rcd13ifvqhqg","pricing_plan_id":"cebpf4jnsgd1na2vs0mg"},{"bike_id":"92c24665-badb-4ed7-9129-70f50714ed40","system_id":"levelo_inurba_marseille","lat":43.322872,"lon":5.382756,"is_reserved":false,"is_disabled":false,"rental_uris":{"android":"levelo://app?vid=92c24665-badb-4ed7-9129-70f50714ed40","ios":"levelo://app?vid=92c24665-badb-4ed7-9129-70f50714ed40"},"vehicle_type_id":"4","last_reported":1713819970,"current_range_meters":12800,"station_id":"ce4bhr12rcd13ifvqhqg","pricing_plan_id":"cebpf4jnsgd1na2vs0mg"},{"bike_id":"4aa6bbb6-acfe-4a72-b7aa-c41f660e7dba","system_id":"levelo_inurba_marseille","lat":43.322872,"lon":5.382756,"is_reserved":false,"is_disabled":false,"rental_uris":{"android":"levelo://app?vid=4aa6bbb6-acfe-4a72-b7aa-c41f660e7dba","ios":"levelo://app?vid=4aa6bbb6-acfe-4a72-b7aa-c41f660e7dba"},"vehicle_type_id":"4","last_reported":1713819970,"current_range_meters":27600,"station_id":"ce4bhr12rcd13ifvqhqg","pricing_plan_id":"cebpf4jnsgd1na2vs0mg"},{"bike_id":"c46d9a8d-ee81-498e-bbb5-006f1b556bbe","system_id":"levelo_inurba_marseille","lat":43.322872,"lon":5.382756,"is_reserved":false,"is_disabled":false,"rental_uris":{"android":"levelo://app?vid=c46d9a8d-ee81-498e-bbb5-006f1b556bbe","ios":"levelo://app?vid=c46d9a8d-ee81-498e-bbb5-006f1b556bbe"},"vehicle_type_id":"4","last_reported":1713819970,"current_range_meters":12800,"station_id":"ce4bhr12rcd13ifvqhqg","pricing_plan_id":"cebpf4jnsgd1na2vs0mg"},{"bike_id":"77423322-5b97-4d45-a055-63655884e5c2","system_id":"levelo_inurba_marseille","lat":43.297183,"lon":5.366047,"is_reserved":false,"is_disabled":false,"rental_uris":{"android":"levelo://app?vid=77423322-5b97-4d45-a055-63655884e5c2","ios":"levelo://app?vid=77423322-5b97-4d45-a055-63655884e5c2"},"vehicle_type_id":"4","last_reported":1713819970,"current_range_meters":28000,"station_id":"ce4bgn12rcd13ifvqbt0","pricing_plan_id":"cebpf4jnsgd1na2vs0mg"},{"bike_id":"56d91149-6e86-4d7c-a134-c4517c20ecff","system_id":"levelo_inurba_marseille","lat":43.297164,"lon":5.366124,"is_reserved":false,"is_disabled":false,"rental_uris":{"android":"levelo://app?vid=56d91149-6e86-4d7c-a134-c4517c20ecff","ios":"levelo://app?vid=56d91149-6e86-4d7c-a134-c4517c20ecff"},"vehicle_type_id":"4","last_reported":1713819970,"current_range_meters":13600,"station_id":"ce4bgn12rcd13ifvqbt0","pricing_plan_id":"cebpf4jnsgd1na2vs0mg"},{"bike_id":"6a42c106-fd22-4527-b3fb-387f2a4e3b9e","system_id":"levelo_inurba_marseille","lat":43.29529,"lon":5.385581,"is_reserved":false,"is_disabled":false,"rental_uris":{"android":"levelo://app?vid=6a42c106-fd22-4527-b3fb-387f2a4e3b9e","ios":"levelo://app?vid=6a42c106-fd22-4527-b3fb-387f2a4e3b9e"},"vehicle_type_id":"4","last_reported":1713819970,"current_range_meters":10400,"station_id":"ce4bgih2rcd13ifvqba0","pricing_plan_id":"cebpf4jnsgd1na2vs0mg"},{"bike_id":"9906b685-ad7b-4943-a072-1d1d7218458f","system_id":"levelo_inurba_marseille","lat":43.2971,"lon":5.36604,"is_reserved":false,"is_disabled":false,"rental_uris":{"android":"levelo://app?vid=9906b685-ad7b-4943-a072-1d1d7218458f","ios":"levelo://app?vid=9906b685-ad7b-4943-a072-1d1d7218458f"},"vehicle_type_id":"4","last_reported":1713819970,"current_range_meters":28800,"station_id":"ce4bgn12rcd13ifvqbt0","pricing_plan_id":"cebpf4jnsgd1na2vs0mg"},{"bike_id":"2c8de765-155e-4a9b-93ca-42b2eee69667","system_id":"levelo_inurba_marseille","lat":43.297163,"lon":5.365866,"is_reserved":false,"is_disabled":false,"rental_uris":{"android":"levelo://app?vid=2c8de765-155e-4a9b-93ca-42b2eee69667","ios":"levelo://app?vid=2c8de765-155e-4a9b-93ca-42b2eee69667"},"vehicle_type_id":"4","last_reported":1713819970,"current_range_meters":14000,"station_id":"ce4bgn12rcd13ifvqbt0","pricing_plan_id":"cebpf4jnsgd1na2vs0mg"},{"bike_id":"2499b580-d075-4d02-8641-96baa79f9cad","system_id":"levelo_inurba_marseille","lat":43.297163,"lon":5.365866,"is_reserved":false,"is_disabled":false,"rental_uris":{"android":"levelo://app?vid=2499b580-d075-4d02-8641-96baa79f9cad","ios":"levelo://app?vid=2499b580-d075-4d02-8641-96baa79f9cad"},"vehicle_type_id":"4","last_reported":1713819970,"current_range_meters":10000,"station_id":"ce4bgn12rcd13ifvqbt0","pricing_plan_id":"cebpf4jnsgd1na2vs0mg"},{"bike_id":"5c01d95e-0405-4031-bb70-b05f42b28485","system_id":"levelo_inurba_marseille","lat":43.297163,"lon":5.365866,"is_reserved":false,"is_disabled":false,"rental_uris":{"android":"levelo://app?vid=5c01d95e-0405-4031-bb70-b05f42b28485","ios":"levelo://app?vid=5c01d95e-0405-4031-bb70-b05f42b28485"},"vehicle_type_id":"4","last_reported":1713819970,"current_range_meters":20400,"station_id":"ce4bgn12rcd13ifvqbt0","pricing_plan_id":"cebpf4jnsgd1na2vs0mg"},{"bike_id":"f5e06333-8642-4c26-8ed1-95e7b4374530","system_id":"levelo_inurba_marseille","lat":43.2968,"lon":5.37291,"is_reserved":false,"is_disabled":false,"rental_uris":{"android":"levelo://app?vid=f5e06333-8642-4c26-8ed1-95e7b4374530","ios":"levelo://app?vid=f5e06333-8642-4c26-8ed1-95e7b4374530"},"vehicle_type_id":"4","last_reported":1713819970,"current_range_meters":25200,"station_id":"ce4bgk12rcd13ifvqbj0","pricing_plan_id":"cebpf4jnsgd1na2vs0mg"},{"bike_id":"77e2e97c-2ddc-4b37-a291-c773bc266c90","system_id":"levelo_inurba_marseille","lat":43.2968,"lon":5.37291,"is_reserved":false,"is_disabled":false,"rental_uris":{"android":"levelo://app?vid=77e2e97c-2ddc-4b37-a291-c773bc266c90","ios":"levelo://app?vid=77e2e97c-2ddc-4b37-a291-c773bc266c90"},"vehicle_type_id":"4","last_reported":1713819970,"current_range_meters":27200,"station_id":"ce4bgk12rcd13ifvqbj0","pricing_plan_id":"cebpf4jnsgd1na2vs0mg"},{"bike_id":"d0083394-bba5-4cba-838c-461470d537c5","system_id":"levelo_inurba_marseille","lat":43.296131,"lon":5.370791,"is_reserved":false,"is_disabled":false,"rental_uris":{"android":"levelo://app?vid=d0083394-bba5-4cba-838c-461470d537c5","ios":"levelo://app?vid=d0083394-bba5-4cba-838c-461470d537c5"},"vehicle_type_id":"4","last_reported":1713819970,"current_range_meters":19600,"station_id":"ce4bgnh2rcd13ifvqc0g","pricing_plan_id":"cebpf4jnsgd1na2vs0mg"},{"bike_id":"3358b587-b36d-4542-9ce3-6a7a731d9758","system_id":"levelo_inurba_marseille","lat":43.29585,"lon":5.36745,"is_reserved":false,"is_disabled":false,"rental_uris":{"android":"levelo://app?vid=3358b587-b36d-4542-9ce3-6a7a731d9758","ios":"levelo://app?vid=3358b587-b36d-4542-9ce3-6a7a731d9758"},"vehicle_type_id":"4","last_reported":1713819970,"current_range_meters":19600,"station_id":"ce4bgph2rcd13ifvqc2g","pricing_plan_id":"cebpf4jnsgd1na2vs0mg"},{"bike_id":"22ee16ca-a245-4dc1-ad8a-db06da73955c","system_id":"levelo_inurba_marseille","lat":43.29589,"lon":5.36879,"is_reserved":false,"is_disabled":false,"rental_uris":{"android":"levelo://app?vid=22ee16ca-a245-4dc1-ad8a-db06da73955c","ios":"levelo://app?vid=22ee16ca-a245-4dc1-ad8a-db06da73955c"},"vehicle_type_id":"4","last_reported":1713819970,"current_range_meters":16800,"station_id":"","pricing_plan_id":"cebpf4jnsgd1na2vs0mg"},{"bike_id":"038b05c9-68b3-4e54-ac02-3ce374cfcdad","system_id":"levelo_inurba_marseille","lat":43.29579,"lon":5.36735,"is_reserved":false,"is_disabled":false,"rental_uris":{"android":"levelo://app?vid=038b05c9-68b3-4e54-ac02-3ce374cfcdad","ios":"levelo://app?vid=038b05c9-68b3-4e54-ac02-3ce374cfcdad"},"vehicle_type_id":"4","last_reported":1713819970,"current_range_meters":26800,"station_id":"ce4bgph2rcd13ifvqc2g","pricing_plan_id":"cebpf4jnsgd1na2vs0mg"},{"bike_id":"d5c340d0-87d8-492a-bc89-5d643cc2cb23","system_id":"levelo_inurba_marseille","lat":43.296921,"lon":5.376579,"is_reserved":false,"is_disabled":false,"rental_uris":{"android":"levelo://app?vid=d5c340d0-87d8-492a-bc89-5d643cc2cb23","ios":"levelo://app?vid=d5c340d0-87d8-492a-bc89-5d643cc2cb23"},"vehicle_type_id":"4","last_reported":1713819970,"current_range_meters":25200,"station_id":"ce4bgkh2rcd13ifvqbl0","pricing_plan_id":"cebpf4jnsgd1na2vs0mg"},{"bike_id":"ed259c38-4e96-43e8-b4eb-db630afcce31","system_id":"levelo_inurba_marseille","lat":43.309589,"lon":5.390258,"is_reserved":false,"is_disabled":false,"rental_uris":{"android":"levelo://app?vid=ed259c38-4e96-43e8-b4eb-db630afcce31","ios":"levelo://app?vid=ed259c38-4e96-43e8-b4eb-db630afcce31"},"vehicle_type_id":"4","last_reported":1713819970,"current_range_meters":16400,"station_id":"ce4bgup2rcd13ifvqco0","pricing_plan_id":"cebpf4jnsgd1na2vs0mg"},{"bike_id":"64de4753-224d-4bed-8152-d456d0a3b9ff","system_id":"levelo_inurba_marseille","lat":43.309589,"lon":5.390258,"is_reserved":false,"is_disabled":false,"rental_uris":{"android":"levelo://app?vid=64de4753-224d-4bed-8152-d456d0a3b9ff","ios":"levelo://app?vid=64de4753-224d-4bed-8152-d456d0a3b9ff"},"vehicle_type_id":"4","last_reported":1713819970,"current_range_meters":31200,"station_id":"ce4bgup2rcd13ifvqco0","pricing_plan_id":"cebpf4jnsgd1na2vs0mg"},{"bike_id":"a11edd83-c861-4820-a03f-3a22c642a4ee","system_id":"levelo_inurba_marseille","lat":43.309589,"lon":5.390258,"is_reserved":false,"is_disabled":false,"rental_uris":{"android":"levelo://app?vid=a11edd83-c861-4820-a03f-3a22c642a4ee","ios":"levelo://app?vid=a11edd83-c861-4820-a03f-3a22c642a4ee"},"vehicle_type_id":"4","last_reported":1713819970,"current_range_meters":5200,"station_id":"ce4bgup2rcd13ifvqco0","pricing_plan_id":"cebpf4jnsgd1na2vs0mg"},{"bike_id":"11246085-2ea5-4b58-b2e0-7e774ac54885","system_id":"levelo_inurba_marseille","lat":43.317557,"lon":5.390173,"is_reserved":false,"is_disabled":false,"rental_uris":{"android":"levelo://app?vid=11246085-2ea5-4b58-b2e0-7e774ac54885","ios":"levelo://app?vid=11246085-2ea5-4b58-b2e0-7e774ac54885"},"vehicle_type_id":"4","last_reported":1713819970,"current_range_meters":29200,"station_id":"ce4bhqp2rcd13ifvqhng","pricing_plan_id":"cebpf4jnsgd1na2vs0mg"},{"bike_id":"5e34793c-68ce-483c-ac6a-83b0cb5bfac7","system_id":"levelo_inurba_marseille","lat":43.31753,"lon":5.39019,"is_reserved":false,"is_disabled":false,"rental_uris":{"android":"levelo://app?vid=5e34793c-68ce-483c-ac6a-83b0cb5bfac7","ios":"levelo://app?vid=5e34793c-68ce-483c-ac6a-83b0cb5bfac7"},"vehicle_type_id":"4","last_reported":1713819970,"current_range_meters":400,"station_id":"ce4bhqp2rcd13ifvqhng","pricing_plan_id":"cebpf4jnsgd1na2vs0mg"},{"bike_id":"6d156540-28be-441b-be24-d4f7844984f2","system_id":"levelo_inurba_marseille","lat":43.317557,"lon":5.390173,"is_reserved":false,"is_disabled":false,"rental_uris":{"android":"levelo://app?vid=6d156540-28be-441b-be24-d4f7844984f2","ios":"levelo://app?vid=6d156540-28be-441b-be24-d4f7844984f2"},"vehicle_type_id":"4","last_reported":1713819970,"current_range_meters":7200,"station_id":"ce4bhqp2rcd13ifvqhng","pricing_plan_id":"cebpf4jnsgd1na2vs0mg"},{"bike_id":"bf43e937-eb51-45eb-ac20-30b2e164391c","system_id":"levelo_inurba_marseille","lat":43.298037,"lon":5.381066,"is_reserved":false,"is_disabled":false,"rental_uris":{"android":"levelo://app?vid=bf43e937-eb51-45eb-ac20-30b2e164391c","ios":"levelo://app?vid=bf43e937-eb51-45eb-ac20-30b2e164391c"},"vehicle_type_id":"4","last_reported":1713819970,"current_range_meters":25200,"station_id":"ce4bgip2rcd13ifvqbb0","pricing_plan_id":"cebpf4jnsgd1na2vs0mg"},{"bike_id":"13d82acc-f7af-4ddd-acfd-d155daed9fca","system_id":"levelo_inurba_marseille","lat":43.304278,"lon":5.388868,"is_reserved":false,"is_disabled":false,"rental_uris":{"android":"levelo://app?vid=13d82acc-f7af-4ddd-acfd-d155daed9fca","ios":"levelo://app?vid=13d82acc-f7af-4ddd-acfd-d155daed9fca"},"vehicle_type_id":"4","last_reported":1713819970,"current_range_meters":25600,"station_id":"ce4bgk12rcd13ifvqbi0","pricing_plan_id":"cebpf4jnsgd1na2vs0mg"},{"bike_id":"1a3e0ae4-9d31-4369-a452-5ae800f59226","system_id":"levelo_inurba_marseille","lat":43.304274,"lon":5.388873,"is_reserved":false,"is_disabled":false,"rental_uris":{"android":"levelo://app?vid=1a3e0ae4-9d31-4369-a452-5ae800f59226","ios":"levelo://app?vid=1a3e0ae4-9d31-4369-a452-5ae800f59226"},"vehicle_type_id":"4","last_reported":1713819970,"current_range_meters":29200,"station_id":"ce4bgk12rcd13ifvqbi0","pricing_plan_id":"cebpf4jnsgd1na2vs0mg"},{"bike_id":"49f2b2c8-2d0b-48aa-ba7c-4b6f6151fff0","system_id":"levelo_inurba_marseille","lat":43.304278,"lon":5.388868,"is_reserved":false,"is_disabled":false,"rental_uris":{"android":"levelo://app?vid=49f2b2c8-2d0b-48aa-ba7c-4b6f6151fff0","ios":"levelo://app?vid=49f2b2c8-2d0b-48aa-ba7c-4b6f6151fff0"},"vehicle_type_id":"4","last_reported":1713819970,"current_range_meters":0,"station_id":"ce4bgk12rcd13ifvqbi0","pricing_plan_id":"cebpf4jnsgd1na2vs0mg"},{"bike_id":"a9da207e-f4b6-4826-b095-d3c70f87df89","system_id":"levelo_inurba_marseille","lat":43.299707,"lon":5.384859,"is_reserved":false,"is_disabled":false,"rental_uris":{"android":"levelo://app?vid=a9da207e-f4b6-4826-b095-d3c70f87df89","ios":"levelo://app?vid=a9da207e-f4b6-4826-b095-d3c70f87df89"},"vehicle_type_id":"4","last_reported":1713819970,"current_range_meters":24800,"station_id":"ce4bgj92rcd13ifvqbd0","pricing_plan_id":"cebpf4jnsgd1na2vs0mg"},{"bike_id":"3f822cf7-8c8c-47e1-a564-19d34254c037","system_id":"levelo_inurba_marseille","lat":43.295327,"lon":5.37504,"is_reserved":false,"is_disabled":false,"rental_uris":{"android":"levelo://app?vid=3f822cf7-8c8c-47e1-a564-19d34254c037","ios":"levelo://app?vid=3f822cf7-8c8c-47e1-a564-19d34254c037"},"vehicle_type_id":"4","last_reported":1713819970,"current_range_meters":13200,"station_id":"ce4bgkp2rcd13ifvqbmg","pricing_plan_id":"cebpf4jnsgd1na2vs0mg"},{"bike_id":"c0ac32bf-50d1-46ba-9a99-0f7078803e94","system_id":"levelo_inurba_marseille","lat":43.299707,"lon":5.384859,"is_reserved":false,"is_disabled":false,"rental_uris":{"android":"levelo://app?vid=c0ac32bf-50d1-46ba-9a99-0f7078803e94","ios":"levelo://app?vid=c0ac32bf-50d1-46ba-9a99-0f7078803e94"},"vehicle_type_id":"4","last_reported":1713819970,"current_range_meters":10800,"station_id":"ce4bgj92rcd13ifvqbd0","pricing_plan_id":"cebpf4jnsgd1na2vs0mg"},{"bike_id":"d825b3eb-9a24-4b49-90d6-82ee8d59314a","system_id":"levelo_inurba_marseille","lat":43.295279,"lon":5.375048,"is_reserved":false,"is_disabled":false,"rental_uris":{"android":"levelo://app?vid=d825b3eb-9a24-4b49-90d6-82ee8d59314a","ios":"levelo://app?vid=d825b3eb-9a24-4b49-90d6-82ee8d59314a"},"vehicle_type_id":"4","last_reported":1713819970,"current_range_meters":26800,"station_id":"ce4bgkp2rcd13ifvqbmg","pricing_plan_id":"cebpf4jnsgd1na2vs0mg"},{"bike_id":"68bc849c-2044-4362-9517-a42e21b8fcd5","system_id":"levelo_inurba_marseille","lat":43.29974,"lon":5.38504,"is_reserved":false,"is_disabled":false,"rental_uris":{"android":"levelo://app?vid=68bc849c-2044-4362-9517-a42e21b8fcd5","ios":"levelo://app?vid=68bc849c-2044-4362-9517-a42e21b8fcd5"},"vehicle_type_id":"4","last_reported":1713819970,"current_range_meters":16800,"station_id":"ce4bgj92rcd13ifvqbd0","pricing_plan_id":"cebpf4jnsgd1na2vs0mg"},{"bike_id":"d05c76d1-e73f-4750-8754-054ff3a62a0d","system_id":"levelo_inurba_marseille","lat":43.29967,"lon":5.38498,"is_reserved":false,"is_disabled":false,"rental_uris":{"android":"levelo://app?vid=d05c76d1-e73f-4750-8754-054ff3a62a0d","ios":"levelo://app?vid=d05c76d1-e73f-4750-8754-054ff3a62a0d"},"vehicle_type_id":"4","last_reported":1713819970,"current_range_meters":3200,"station_id":"ce4bgj92rcd13ifvqbd0","pricing_plan_id":"cebpf4jnsgd1na2vs0mg"},{"bike_id":"38b78e98-b3af-4be2-a569-be6a015d94da","system_id":"levelo_inurba_marseille","lat":43.295185,"lon":5.375095,"is_reserved":false,"is_disabled":false,"rental_uris":{"android":"levelo://app?vid=38b78e98-b3af-4be2-a569-be6a015d94da","ios":"levelo://app?vid=38b78e98-b3af-4be2-a569-be6a015d94da"},"vehicle_type_id":"4","last_reported":1713819970,"current_range_meters":8000,"station_id":"ce4bh412rcd13ifvqds0","pricing_plan_id":"cebpf4jnsgd1na2vs0mg"},{"bike_id":"68cbb1c6-f6c8-485e-ba1a-c434c5170438","system_id":"levelo_inurba_marseille","lat":43.29963,"lon":5.38501,"is_reserved":false,"is_disabled":false,"rental_uris":{"android":"levelo://app?vid=68cbb1c6-f6c8-485e-ba1a-c434c5170438","ios":"levelo://app?vid=68cbb1c6-f6c8-485e-ba1a-c434c5170438"},"vehicle_type_id":"4","last_reported":1713819970,"current_range_meters":14400,"station_id":"ce4bgj92rcd13ifvqbd0","pricing_plan_id":"cebpf4jnsgd1na2vs0mg"},{"bike_id":"dd555aaa-6635-4b63-ac65-19dc72a50d95","system_id":"levelo_inurba_marseille","lat":43.299724,"lon":5.384848,"is_reserved":false,"is_disabled":false,"rental_uris":{"android":"levelo://app?vid=dd555aaa-6635-4b63-ac65-19dc72a50d95","ios":"levelo://app?vid=dd555aaa-6635-4b63-ac65-19dc72a50d95"},"vehicle_type_id":"4","last_reported":1713819970,"current_range_meters":29200,"station_id":"ce4bgj92rcd13ifvqbd0","pricing_plan_id":"cebpf4jnsgd1na2vs0mg"},{"bike_id":"824c2bbc-3525-4cf8-9df5-7889377e92ed","system_id":"levelo_inurba_marseille","lat":43.29961,"lon":5.38501,"is_reserved":false,"is_disabled":false,"rental_uris":{"android":"levelo://app?vid=824c2bbc-3525-4cf8-9df5-7889377e92ed","ios":"levelo://app?vid=824c2bbc-3525-4cf8-9df5-7889377e92ed"},"vehicle_type_id":"4","last_reported":1713819970,"current_range_meters":13200,"station_id":"ce4bgj92rcd13ifvqbd0","pricing_plan_id":"cebpf4jnsgd1na2vs0mg"},{"bike_id":"8bb3317e-96b1-4656-84ac-aa85834cc641","system_id":"levelo_inurba_marseille","lat":43.32368,"lon":5.38882,"is_reserved":false,"is_disabled":false,"rental_uris":{"android":"levelo://app?vid=8bb3317e-96b1-4656-84ac-aa85834cc641","ios":"levelo://app?vid=8bb3317e-96b1-4656-84ac-aa85834cc641"},"vehicle_type_id":"4","last_reported":1713819970,"current_range_meters":7600,"station_id":"","pricing_plan_id":"cebpf4jnsgd1na2vs0mg"},{"bike_id":"1a6bd6c7-b3f9-4395-8e6b-e8e23d214840","system_id":"levelo_inurba_marseille","lat":43.32367,"lon":5.388836,"is_reserved":false,"is_disabled":false,"rental_uris":{"android":"levelo://app?vid=1a6bd6c7-b3f9-4395-8e6b-e8e23d214840","ios":"levelo://app?vid=1a6bd6c7-b3f9-4395-8e6b-e8e23d214840"},"vehicle_type_id":"4","last_reported":1713819970,"current_range_meters":20000,"station_id":"ce4bhqp2rcd13ifvqhog","pricing_plan_id":"cebpf4jnsgd1na2vs0mg"},{"bike_id":"2c15739c-8d68-42c4-8011-89815c75044b","system_id":"levelo_inurba_marseille","lat":43.32367,"lon":5.388836,"is_reserved":false,"is_disabled":false,"rental_uris":{"android":"levelo://app?vid=2c15739c-8d68-42c4-8011-89815c75044b","ios":"levelo://app?vid=2c15739c-8d68-42c4-8011-89815c75044b"},"vehicle_type_id":"4","last_reported":1713819970,"current_range_meters":20000,"station_id":"ce4bhqp2rcd13ifvqhog","pricing_plan_id":"cebpf4jnsgd1na2vs0mg"},{"bike_id":"4fb23bfa-003a-4a6f-bb18-dc6e3c6c5f0c","system_id":"levelo_inurba_marseille","lat":43.29601,"lon":5.381,"is_reserved":false,"is_disabled":false,"rental_uris":{"android":"levelo://app?vid=4fb23bfa-003a-4a6f-bb18-dc6e3c6c5f0c","ios":"levelo://app?vid=4fb23bfa-003a-4a6f-bb18-dc6e3c6c5f0c"},"vehicle_type_id":"4","last_reported":1713819970,"current_range_meters":11600,"station_id":"ce4bgl12rcd13ifvqbo0","pricing_plan_id":"cebpf4jnsgd1na2vs0mg"},{"bike_id":"0d9f0a98-d895-410b-8342-af26d7f725ac","system_id":"levelo_inurba_marseille","lat":43.29596,"lon":5.38103,"is_reserved":false,"is_disabled":false,"rental_uris":{"android":"levelo://app?vid=0d9f0a98-d895-410b-8342-af26d7f725ac","ios":"levelo://app?vid=0d9f0a98-d895-410b-8342-af26d7f725ac"},"vehicle_type_id":"4","last_reported":1713819970,"current_range_meters":4400,"station_id":"ce4bgl12rcd13ifvqbo0","pricing_plan_id":"cebpf4jnsgd1na2vs0mg"},{"bike_id":"81c1857c-115f-41df-a6e1-c4e077e0ff46","system_id":"levelo_inurba_marseille","lat":43.29602,"lon":5.381084,"is_reserved":false,"is_disabled":false,"rental_uris":{"android":"levelo://app?vid=81c1857c-115f-41df-a6e1-c4e077e0ff46","ios":"levelo://app?vid=81c1857c-115f-41df-a6e1-c4e077e0ff46"},"vehicle_type_id":"4","last_reported":1713819970,"current_range_meters":26000,"station_id":"ce4bgl12rcd13ifvqbo0","pricing_plan_id":"cebpf4jnsgd1na2vs0mg"},{"bike_id":"53ca3e23-fe8b-46c7-bd98-bd08f69d7319","system_id":"levelo_inurba_marseille","lat":43.295917,"lon":5.381087,"is_reserved":false,"is_disabled":false,"rental_uris":{"android":"levelo://app?vid=53ca3e23-fe8b-46c7-bd98-bd08f69d7319","ios":"levelo://app?vid=53ca3e23-fe8b-46c7-bd98-bd08f69d7319"},"vehicle_type_id":"4","last_reported":1713819970,"current_range_meters":10800,"station_id":"ce4bgl12rcd13ifvqbo0","pricing_plan_id":"cebpf4jnsgd1na2vs0mg"},{"bike_id":"c05bb1fc-8fc1-4094-81e7-817ce78ca957","system_id":"levelo_inurba_marseille","lat":43.29267,"lon":5.36842,"is_reserved":false,"is_disabled":false,"rental_uris":{"android":"levelo://app?vid=c05bb1fc-8fc1-4094-81e7-817ce78ca957","ios":"levelo://app?vid=c05bb1fc-8fc1-4094-81e7-817ce78ca957"},"vehicle_type_id":"4","last_reported":1713819970,"current_range_meters":2800,"station_id":"ce4bhbp2rcd13ifvqesg","pricing_plan_id":"cebpf4jnsgd1na2vs0mg"},{"bike_id":"a4e9c45c-b9dc-45c1-94c2-ac11efe9d79b","system_id":"levelo_inurba_marseille","lat":43.318734,"lon":5.393488,"is_reserved":false,"is_disabled":false,"rental_uris":{"android":"levelo://app?vid=a4e9c45c-b9dc-45c1-94c2-ac11efe9d79b","ios":"levelo://app?vid=a4e9c45c-b9dc-45c1-94c2-ac11efe9d79b"},"vehicle_type_id":"4","last_reported":1713819970,"current_range_meters":25200,"station_id":"","pricing_plan_id":"cebpf4jnsgd1na2vs0mg"},{"bike_id":"cd8c8886-5d11-4c23-bf02-92236e7a9a85","system_id":"levelo_inurba_marseille","lat":43.305994,"lon":5.393687,"is_reserved":false,"is_disabled":false,"rental_uris":{"android":"levelo://app?vid=cd8c8886-5d11-4c23-bf02-92236e7a9a85","ios":"levelo://app?vid=cd8c8886-5d11-4c23-bf02-92236e7a9a85"},"vehicle_type_id":"4","last_reported":1713819970,"current_range_meters":20400,"station_id":"ce4bh0p2rcd13ifvqd80","pricing_plan_id":"cebpf4jnsgd1na2vs0mg"},{"bike_id":"c4bdfd23-a5ae-4735-b665-f671f0cad160","system_id":"levelo_inurba_marseille","lat":43.305994,"lon":5.393687,"is_reserved":false,"is_disabled":false,"rental_uris":{"android":"levelo://app?vid=c4bdfd23-a5ae-4735-b665-f671f0cad160","ios":"levelo://app?vid=c4bdfd23-a5ae-4735-b665-f671f0cad160"},"vehicle_type_id":"4","last_reported":1713819970,"current_range_meters":0,"station_id":"ce4bh0p2rcd13ifvqd80","pricing_plan_id":"cebpf4jnsgd1na2vs0mg"},{"bike_id":"8da290a0-c6ed-4f5f-a62f-eb888f6e8688","system_id":"levelo_inurba_marseille","lat":43.293009,"lon":5.374584,"is_reserved":false,"is_disabled":false,"rental_uris":{"android":"levelo://app?vid=8da290a0-c6ed-4f5f-a62f-eb888f6e8688","ios":"levelo://app?vid=8da290a0-c6ed-4f5f-a62f-eb888f6e8688"},"vehicle_type_id":"4","last_reported":1713819970,"current_range_meters":13600,"station_id":"ce4bgi12rcd13ifvqb70","pricing_plan_id":"cebpf4jnsgd1na2vs0mg"},{"bike_id":"4e4ac551-3f94-4885-822e-514ff792a317","system_id":"levelo_inurba_marseille","lat":43.305994,"lon":5.393687,"is_reserved":false,"is_disabled":false,"rental_uris":{"android":"levelo://app?vid=4e4ac551-3f94-4885-822e-514ff792a317","ios":"levelo://app?vid=4e4ac551-3f94-4885-822e-514ff792a317"},"vehicle_type_id":"4","last_reported":1713819970,"current_range_meters":22800,"station_id":"ce4bh0p2rcd13ifvqd80","pricing_plan_id":"cebpf4jnsgd1na2vs0mg"},{"bike_id":"d64eaff9-196a-4a0e-9e3f-97ad78c9964b","system_id":"levelo_inurba_marseille","lat":43.305994,"lon":5.393687,"is_reserved":false,"is_disabled":false,"rental_uris":{"android":"levelo://app?vid=d64eaff9-196a-4a0e-9e3f-97ad78c9964b","ios":"levelo://app?vid=d64eaff9-196a-4a0e-9e3f-97ad78c9964b"},"vehicle_type_id":"4","last_reported":1713819970,"current_range_meters":400,"station_id":"ce4bh0p2rcd13ifvqd80","pricing_plan_id":"cebpf4jnsgd1na2vs0mg"},{"bike_id":"1828883d-85a1-4992-ab58-4181a9502600","system_id":"levelo_inurba_marseille","lat":43.293009,"lon":5.374584,"is_reserved":false,"is_disabled":false,"rental_uris":{"android":"levelo://app?vid=1828883d-85a1-4992-ab58-4181a9502600","ios":"levelo://app?vid=1828883d-85a1-4992-ab58-4181a9502600"},"vehicle_type_id":"4","last_reported":1713819970,"current_range_meters":27600,"station_id":"ce4bgi12rcd13ifvqb70","pricing_plan_id":"cebpf4jnsgd1na2vs0mg"},{"bike_id":"50b79f1c-b835-4476-9f69-d8caf81e6656","system_id":"levelo_inurba_marseille","lat":43.303002,"lon":5.392142,"is_reserved":false,"is_disabled":false,"rental_uris":{"android":"levelo://app?vid=50b79f1c-b835-4476-9f69-d8caf81e6656","ios":"levelo://app?vid=50b79f1c-b835-4476-9f69-d8caf81e6656"},"vehicle_type_id":"4","last_reported":1713819970,"current_range_meters":3600,"station_id":"ce4bgkh2rcd13ifvqbk0","pricing_plan_id":"cebpf4jnsgd1na2vs0mg"},{"bike_id":"d5a2e3c0-7318-4ecf-961b-065c3c17c033","system_id":"levelo_inurba_marseille","lat":43.303002,"lon":5.392142,"is_reserved":false,"is_disabled":false,"rental_uris":{"android":"levelo://app?vid=d5a2e3c0-7318-4ecf-961b-065c3c17c033","ios":"levelo://app?vid=d5a2e3c0-7318-4ecf-961b-065c3c17c033"},"vehicle_type_id":"4","last_reported":1713819970,"current_range_meters":27200,"station_id":"ce4bgkh2rcd13ifvqbk0","pricing_plan_id":"cebpf4jnsgd1na2vs0mg"},{"bike_id":"cb6ba4c1-9e33-4f73-9215-d22be7dfb627","system_id":"levelo_inurba_marseille","lat":43.303002,"lon":5.392142,"is_reserved":false,"is_disabled":false,"rental_uris":{"android":"levelo://app?vid=cb6ba4c1-9e33-4f73-9215-d22be7dfb627","ios":"levelo://app?vid=cb6ba4c1-9e33-4f73-9215-d22be7dfb627"},"vehicle_type_id":"4","last_reported":1713819970,"current_range_meters":20800,"station_id":"ce4bgkh2rcd13ifvqbk0","pricing_plan_id":"cebpf4jnsgd1na2vs0mg"},{"bike_id":"e0c119ab-0767-4728-9700-000b4d2d4c42","system_id":"levelo_inurba_marseille","lat":43.2936,"lon":5.37835,"is_reserved":false,"is_disabled":false,"rental_uris":{"android":"levelo://app?vid=e0c119ab-0767-4728-9700-000b4d2d4c42","ios":"levelo://app?vid=e0c119ab-0767-4728-9700-000b4d2d4c42"},"vehicle_type_id":"4","last_reported":1713819970,"current_range_meters":26000,"station_id":"ce4bgjh2rcd13ifvqbf0","pricing_plan_id":"cebpf4jnsgd1na2vs0mg"},{"bike_id":"8db8589a-fe99-4b56-ba77-79f98cc3342b","system_id":"levelo_inurba_marseille","lat":43.303002,"lon":5.392142,"is_reserved":false,"is_disabled":false,"rental_uris":{"android":"levelo://app?vid=8db8589a-fe99-4b56-ba77-79f98cc3342b","ios":"levelo://app?vid=8db8589a-fe99-4b56-ba77-79f98cc3342b"},"vehicle_type_id":"4","last_reported":1713819970,"current_range_meters":19600,"station_id":"ce4bgkh2rcd13ifvqbk0","pricing_plan_id":"cebpf4jnsgd1na2vs0mg"},{"bike_id":"05b9291b-e4db-433e-b154-acf3f719e678","system_id":"levelo_inurba_marseille","lat":43.302992,"lon":5.392136,"is_reserved":false,"is_disabled":false,"rental_uris":{"android":"levelo://app?vid=05b9291b-e4db-433e-b154-acf3f719e678","ios":"levelo://app?vid=05b9291b-e4db-433e-b154-acf3f719e678"},"vehicle_type_id":"4","last_reported":1713819970,"current_range_meters":24800,"station_id":"ce4bgkh2rcd13ifvqbk0","pricing_plan_id":"cebpf4jnsgd1na2vs0mg"},{"bike_id":"80a66af7-df3b-4735-85de-f0dd031150fb","system_id":"levelo_inurba_marseille","lat":43.302992,"lon":5.392136,"is_reserved":false,"is_disabled":false,"rental_uris":{"android":"levelo://app?vid=80a66af7-df3b-4735-85de-f0dd031150fb","ios":"levelo://app?vid=80a66af7-df3b-4735-85de-f0dd031150fb"},"vehicle_type_id":"4","last_reported":1713819970,"current_range_meters":30800,"station_id":"ce4bgkh2rcd13ifvqbk0","pricing_plan_id":"cebpf4jnsgd1na2vs0mg"},{"bike_id":"73b62252-1ba6-433c-bcdb-59e25b43aa84","system_id":"levelo_inurba_marseille","lat":43.302992,"lon":5.392136,"is_reserved":false,"is_disabled":false,"rental_uris":{"android":"levelo://app?vid=73b62252-1ba6-433c-bcdb-59e25b43aa84","ios":"levelo://app?vid=73b62252-1ba6-433c-bcdb-59e25b43aa84"},"vehicle_type_id":"4","last_reported":1713819970,"current_range_meters":10000,"station_id":"ce4bgkh2rcd13ifvqbk0","pricing_plan_id":"cebpf4jnsgd1na2vs0mg"},{"bike_id":"6b1e4a69-8810-4368-8578-886f05c317a6","system_id":"levelo_inurba_marseille","lat":43.2936,"lon":5.37835,"is_reserved":false,"is_disabled":false,"rental_uris":{"android":"levelo://app?vid=6b1e4a69-8810-4368-8578-886f05c317a6","ios":"levelo://app?vid=6b1e4a69-8810-4368-8578-886f05c317a6"},"vehicle_type_id":"4","last_reported":1713819970,"current_range_meters":9600,"station_id":"ce4bgjh2rcd13ifvqbf0","pricing_plan_id":"cebpf4jnsgd1na2vs0mg"},{"bike_id":"2acc8d06-e0cc-48ee-b8fb-af1fe12ceffa","system_id":"levelo_inurba_marseille","lat":43.302992,"lon":5.392136,"is_reserved":false,"is_disabled":false,"rental_uris":{"android":"levelo://app?vid=2acc8d06-e0cc-48ee-b8fb-af1fe12ceffa","ios":"levelo://app?vid=2acc8d06-e0cc-48ee-b8fb-af1fe12ceffa"},"vehicle_type_id":"4","last_reported":1713819970,"current_range_meters":31600,"station_id":"ce4bgkh2rcd13ifvqbk0","pricing_plan_id":"cebpf4jnsgd1na2vs0mg"},{"bike_id":"0693c29f-2c46-406e-ba26-ed7aad9e1127","system_id":"levelo_inurba_marseille","lat":43.305994,"lon":5.393687,"is_reserved":false,"is_disabled":false,"rental_uris":{"android":"levelo://app?vid=0693c29f-2c46-406e-ba26-ed7aad9e1127","ios":"levelo://app?vid=0693c29f-2c46-406e-ba26-ed7aad9e1127"},"vehicle_type_id":"4","last_reported":1713819970,"current_range_meters":20400,"station_id":"ce4bh0p2rcd13ifvqd80","pricing_plan_id":"cebpf4jnsgd1na2vs0mg"},{"bike_id":"97e2f783-5470-408e-96ec-ee74d4e9234c","system_id":"levelo_inurba_marseille","lat":43.2936,"lon":5.37835,"is_reserved":false,"is_disabled":false,"rental_uris":{"android":"levelo://app?vid=97e2f783-5470-408e-96ec-ee74d4e9234c","ios":"levelo://app?vid=97e2f783-5470-408e-96ec-ee74d4e9234c"},"vehicle_type_id":"4","last_reported":1713819970,"current_range_meters":11600,"station_id":"ce4bgjh2rcd13ifvqbf0","pricing_plan_id":"cebpf4jnsgd1na2vs0mg"},{"bike_id":"46f80415-8b26-4cc9-94ca-3376583f72cc","system_id":"levelo_inurba_marseille","lat":43.292311,"lon":5.360731,"is_reserved":false,"is_disabled":false,"rental_uris":{"android":"levelo://app?vid=46f80415-8b26-4cc9-94ca-3376583f72cc","ios":"levelo://app?vid=46f80415-8b26-4cc9-94ca-3376583f72cc"},"vehicle_type_id":"4","last_reported":1713819970,"current_range_meters":30800,"station_id":"ce4bhbh2rcd13ifvqeqg","pricing_plan_id":"cebpf4jnsgd1na2vs0mg"},{"bike_id":"c38fc3fe-2580-4eef-86dc-cff4cdc8ffce","system_id":"levelo_inurba_marseille","lat":43.292311,"lon":5.360731,"is_reserved":false,"is_disabled":false,"rental_uris":{"android":"levelo://app?vid=c38fc3fe-2580-4eef-86dc-cff4cdc8ffce","ios":"levelo://app?vid=c38fc3fe-2580-4eef-86dc-cff4cdc8ffce"},"vehicle_type_id":"4","last_reported":1713819970,"current_range_meters":4400,"station_id":"ce4bhbh2rcd13ifvqeqg","pricing_plan_id":"cebpf4jnsgd1na2vs0mg"},{"bike_id":"d1437bb2-4748-488f-84a1-087801b9c4b1","system_id":"levelo_inurba_marseille","lat":43.292311,"lon":5.360731,"is_reserved":false,"is_disabled":false,"rental_uris":{"android":"levelo://app?vid=d1437bb2-4748-488f-84a1-087801b9c4b1","ios":"levelo://app?vid=d1437bb2-4748-488f-84a1-087801b9c4b1"},"vehicle_type_id":"4","last_reported":1713819970,"current_range_meters":9600,"station_id":"ce4bhbh2rcd13ifvqeqg","pricing_plan_id":"cebpf4jnsgd1na2vs0mg"},{"bike_id":"aedd9d1b-5b45-40ed-8a37-f74d73ffe4dc","system_id":"levelo_inurba_marseille","lat":43.300852,"lon":5.390859,"is_reserved":false,"is_disabled":false,"rental_uris":{"android":"levelo://app?vid=aedd9d1b-5b45-40ed-8a37-f74d73ffe4dc","ios":"levelo://app?vid=aedd9d1b-5b45-40ed-8a37-f74d73ffe4dc"},"vehicle_type_id":"4","last_reported":1713819970,"current_range_meters":17600,"station_id":"ce4bh192rcd13ifvqdb0","pricing_plan_id":"cebpf4jnsgd1na2vs0mg"},{"bike_id":"8eb5a9d6-9e6b-4e4f-9d88-04cfbca5fd37","system_id":"levelo_inurba_marseille","lat":43.292311,"lon":5.360731,"is_reserved":false,"is_disabled":false,"rental_uris":{"android":"levelo://app?vid=8eb5a9d6-9e6b-4e4f-9d88-04cfbca5fd37","ios":"levelo://app?vid=8eb5a9d6-9e6b-4e4f-9d88-04cfbca5fd37"},"vehicle_type_id":"4","last_reported":1713819970,"current_range_meters":14000,"station_id":"ce4bhbh2rcd13ifvqeqg","pricing_plan_id":"cebpf4jnsgd1na2vs0mg"},{"bike_id":"ff4a11d7-c845-474e-bdeb-effd267b7f71","system_id":"levelo_inurba_marseille","lat":43.298764,"lon":5.388973,"is_reserved":false,"is_disabled":false,"rental_uris":{"android":"levelo://app?vid=ff4a11d7-c845-474e-bdeb-effd267b7f71","ios":"levelo://app?vid=ff4a11d7-c845-474e-bdeb-effd267b7f71"},"vehicle_type_id":"4","last_reported":1713819970,"current_range_meters":6400,"station_id":"ce4bh392rcd13ifvqdl0","pricing_plan_id":"cebpf4jnsgd1na2vs0mg"},{"bike_id":"cb0ace6b-0781-490e-bbc1-4c2663761fdf","system_id":"levelo_inurba_marseille","lat":43.292311,"lon":5.360731,"is_reserved":false,"is_disabled":false,"rental_uris":{"android":"levelo://app?vid=cb0ace6b-0781-490e-bbc1-4c2663761fdf","ios":"levelo://app?vid=cb0ace6b-0781-490e-bbc1-4c2663761fdf"},"vehicle_type_id":"4","last_reported":1713819970,"current_range_meters":17600,"station_id":"ce4bhbh2rcd13ifvqeqg","pricing_plan_id":"cebpf4jnsgd1na2vs0mg"},{"bike_id":"ade1c4fe-f587-43fe-8d98-c2d7c9c559dc","system_id":"levelo_inurba_marseille","lat":43.29227,"lon":5.36051,"is_reserved":false,"is_disabled":false,"rental_uris":{"android":"levelo://app?vid=ade1c4fe-f587-43fe-8d98-c2d7c9c559dc","ios":"levelo://app?vid=ade1c4fe-f587-43fe-8d98-c2d7c9c559dc"},"vehicle_type_id":"4","last_reported":1713819970,"current_range_meters":30800,"station_id":"ce4bhbh2rcd13ifvqeqg","pricing_plan_id":"cebpf4jnsgd1na2vs0mg"},{"bike_id":"58f576a0-dc99-4b7a-8aa9-78df10e9f946","system_id":"levelo_inurba_marseille","lat":43.292311,"lon":5.360731,"is_reserved":false,"is_disabled":false,"rental_uris":{"android":"levelo://app?vid=58f576a0-dc99-4b7a-8aa9-78df10e9f946","ios":"levelo://app?vid=58f576a0-dc99-4b7a-8aa9-78df10e9f946"},"vehicle_type_id":"4","last_reported":1713819970,"current_range_meters":16800,"station_id":"ce4bhbh2rcd13ifvqeqg","pricing_plan_id":"cebpf4jnsgd1na2vs0mg"},{"bike_id":"18b8aa4d-2a47-4d61-aa9b-eb85f5120974","system_id":"levelo_inurba_marseille","lat":43.29529,"lon":5.385581,"is_reserved":false,"is_disabled":false,"rental_uris":{"android":"levelo://app?vid=18b8aa4d-2a47-4d61-aa9b-eb85f5120974","ios":"levelo://app?vid=18b8aa4d-2a47-4d61-aa9b-eb85f5120974"},"vehicle_type_id":"4","last_reported":1713819970,"current_range_meters":26800,"station_id":"ce4bgih2rcd13ifvqba0","pricing_plan_id":"cebpf4jnsgd1na2vs0mg"},{"bike_id":"5becfba2-544a-4552-8201-2d3f88bef667","system_id":"levelo_inurba_marseille","lat":43.298764,"lon":5.388973,"is_reserved":false,"is_disabled":false,"rental_uris":{"android":"levelo://app?vid=5becfba2-544a-4552-8201-2d3f88bef667","ios":"levelo://app?vid=5becfba2-544a-4552-8201-2d3f88bef667"},"vehicle_type_id":"4","last_reported":1713819970,"current_range_meters":21200,"station_id":"ce4bh392rcd13ifvqdl0","pricing_plan_id":"cebpf4jnsgd1na2vs0mg"},{"bike_id":"eda12945-f4f0-4453-9f72-fc5f48b025bb","system_id":"levelo_inurba_marseille","lat":43.298764,"lon":5.388973,"is_reserved":false,"is_disabled":false,"rental_uris":{"android":"levelo://app?vid=eda12945-f4f0-4453-9f72-fc5f48b025bb","ios":"levelo://app?vid=eda12945-f4f0-4453-9f72-fc5f48b025bb"},"vehicle_type_id":"4","last_reported":1713819970,"current_range_meters":30800,"station_id":"ce4bh392rcd13ifvqdl0","pricing_plan_id":"cebpf4jnsgd1na2vs0mg"},{"bike_id":"8f735605-e8cb-4490-b7b2-9d5e0967228c","system_id":"levelo_inurba_marseille","lat":43.298764,"lon":5.388973,"is_reserved":false,"is_disabled":false,"rental_uris":{"android":"levelo://app?vid=8f735605-e8cb-4490-b7b2-9d5e0967228c","ios":"levelo://app?vid=8f735605-e8cb-4490-b7b2-9d5e0967228c"},"vehicle_type_id":"4","last_reported":1713819970,"current_range_meters":4800,"station_id":"ce4bh392rcd13ifvqdl0","pricing_plan_id":"cebpf4jnsgd1na2vs0mg"},{"bike_id":"9d2e3e02-189b-4e75-a2e8-46c08345821e","system_id":"levelo_inurba_marseille","lat":43.298764,"lon":5.388973,"is_reserved":false,"is_disabled":false,"rental_uris":{"android":"levelo://app?vid=9d2e3e02-189b-4e75-a2e8-46c08345821e","ios":"levelo://app?vid=9d2e3e02-189b-4e75-a2e8-46c08345821e"},"vehicle_type_id":"4","last_reported":1713819970,"current_range_meters":6800,"station_id":"ce4bh392rcd13ifvqdl0","pricing_plan_id":"cebpf4jnsgd1na2vs0mg"},{"bike_id":"53b0e129-cf05-4059-b3b7-47df5a5e1cba","system_id":"levelo_inurba_marseille","lat":43.298764,"lon":5.388973,"is_reserved":false,"is_disabled":false,"rental_uris":{"android":"levelo://app?vid=53b0e129-cf05-4059-b3b7-47df5a5e1cba","ios":"levelo://app?vid=53b0e129-cf05-4059-b3b7-47df5a5e1cba"},"vehicle_type_id":"4","last_reported":1713819970,"current_range_meters":30000,"station_id":"ce4bh392rcd13ifvqdl0","pricing_plan_id":"cebpf4jnsgd1na2vs0mg"},{"bike_id":"cfc104ec-7e83-44fa-9395-e670234220fc","system_id":"levelo_inurba_marseille","lat":43.298764,"lon":5.388973,"is_reserved":false,"is_disabled":false,"rental_uris":{"android":"levelo://app?vid=cfc104ec-7e83-44fa-9395-e670234220fc","ios":"levelo://app?vid=cfc104ec-7e83-44fa-9395-e670234220fc"},"vehicle_type_id":"4","last_reported":1713819970,"current_range_meters":25200,"station_id":"ce4bh392rcd13ifvqdl0","pricing_plan_id":"cebpf4jnsgd1na2vs0mg"},{"bike_id":"7205650c-3746-4d37-85bd-2bdd8066b72d","system_id":"levelo_inurba_marseille","lat":43.291671,"lon":5.371575,"is_reserved":false,"is_disabled":false,"rental_uris":{"android":"levelo://app?vid=7205650c-3746-4d37-85bd-2bdd8066b72d","ios":"levelo://app?vid=7205650c-3746-4d37-85bd-2bdd8066b72d"},"vehicle_type_id":"4","last_reported":1713819970,"current_range_meters":27200,"station_id":"ce4bha92rcd13ifvqeh0","pricing_plan_id":"cebpf4jnsgd1na2vs0mg"},{"bike_id":"f563b70c-4252-4ce5-b0f2-340d01af7e4c","system_id":"levelo_inurba_marseille","lat":43.298764,"lon":5.388973,"is_reserved":false,"is_disabled":false,"rental_uris":{"android":"levelo://app?vid=f563b70c-4252-4ce5-b0f2-340d01af7e4c","ios":"levelo://app?vid=f563b70c-4252-4ce5-b0f2-340d01af7e4c"},"vehicle_type_id":"4","last_reported":1713819970,"current_range_meters":20800,"station_id":"ce4bh392rcd13ifvqdl0","pricing_plan_id":"cebpf4jnsgd1na2vs0mg"},{"bike_id":"cf629e27-8de9-40ab-976d-c9b32c91efb3","system_id":"levelo_inurba_marseille","lat":43.29869,"lon":5.38899,"is_reserved":false,"is_disabled":false,"rental_uris":{"android":"levelo://app?vid=cf629e27-8de9-40ab-976d-c9b32c91efb3","ios":"levelo://app?vid=cf629e27-8de9-40ab-976d-c9b32c91efb3"},"vehicle_type_id":"4","last_reported":1713819970,"current_range_meters":800,"station_id":"ce4bh392rcd13ifvqdl0","pricing_plan_id":"cebpf4jnsgd1na2vs0mg"},{"bike_id":"476d38b1-8516-4738-80c8-4dfd3a931dcc","system_id":"levelo_inurba_marseille","lat":43.291675,"lon":5.371583,"is_reserved":false,"is_disabled":false,"rental_uris":{"android":"levelo://app?vid=476d38b1-8516-4738-80c8-4dfd3a931dcc","ios":"levelo://app?vid=476d38b1-8516-4738-80c8-4dfd3a931dcc"},"vehicle_type_id":"4","last_reported":1713819970,"current_range_meters":20400,"station_id":"ce4bha92rcd13ifvqeh0","pricing_plan_id":"cebpf4jnsgd1na2vs0mg"},{"bike_id":"c094f232-1acc-426a-bb3b-2bca148e5c94","system_id":"levelo_inurba_marseille","lat":43.298764,"lon":5.388973,"is_reserved":false,"is_disabled":false,"rental_uris":{"android":"levelo://app?vid=c094f232-1acc-426a-bb3b-2bca148e5c94","ios":"levelo://app?vid=c094f232-1acc-426a-bb3b-2bca148e5c94"},"vehicle_type_id":"4","last_reported":1713819970,"current_range_meters":13600,"station_id":"ce4bh392rcd13ifvqdl0","pricing_plan_id":"cebpf4jnsgd1na2vs0mg"},{"bike_id":"203f080f-d10f-4e92-a802-a016c731af24","system_id":"levelo_inurba_marseille","lat":43.298764,"lon":5.388973,"is_reserved":false,"is_disabled":false,"rental_uris":{"android":"levelo://app?vid=203f080f-d10f-4e92-a802-a016c731af24","ios":"levelo://app?vid=203f080f-d10f-4e92-a802-a016c731af24"},"vehicle_type_id":"4","last_reported":1713819970,"current_range_meters":17200,"station_id":"ce4bh392rcd13ifvqdl0","pricing_plan_id":"cebpf4jnsgd1na2vs0mg"},{"bike_id":"bd9165c9-7583-4ef8-b055-4fc540c1d904","system_id":"levelo_inurba_marseille","lat":43.291675,"lon":5.371583,"is_reserved":false,"is_disabled":false,"rental_uris":{"android":"levelo://app?vid=bd9165c9-7583-4ef8-b055-4fc540c1d904","ios":"levelo://app?vid=bd9165c9-7583-4ef8-b055-4fc540c1d904"},"vehicle_type_id":"4","last_reported":1713819970,"current_range_meters":12800,"station_id":"ce4bha92rcd13ifvqeh0","pricing_plan_id":"cebpf4jnsgd1na2vs0mg"},{"bike_id":"93427828-bcb4-4daf-a087-6ac309dc4a38","system_id":"levelo_inurba_marseille","lat":43.2989,"lon":5.3894,"is_reserved":false,"is_disabled":false,"rental_uris":{"android":"levelo://app?vid=93427828-bcb4-4daf-a087-6ac309dc4a38","ios":"levelo://app?vid=93427828-bcb4-4daf-a087-6ac309dc4a38"},"vehicle_type_id":"4","last_reported":1713819970,"current_range_meters":4800,"station_id":"ce4bh392rcd13ifvqdl0","pricing_plan_id":"cebpf4jnsgd1na2vs0mg"},{"bike_id":"1d6d6e15-78ac-437a-af50-8d4896a6f365","system_id":"levelo_inurba_marseille","lat":43.309047,"lon":5.396551,"is_reserved":false,"is_disabled":false,"rental_uris":{"android":"levelo://app?vid=1d6d6e15-78ac-437a-af50-8d4896a6f365","ios":"levelo://app?vid=1d6d6e15-78ac-437a-af50-8d4896a6f365"},"vehicle_type_id":"4","last_reported":1713819970,"current_range_meters":23600,"station_id":"ce4bh012rcd13ifvqcv0","pricing_plan_id":"cebpf4jnsgd1na2vs0mg"},{"bike_id":"7818204f-615e-4ea6-af75-347098c6aefa","system_id":"levelo_inurba_marseille","lat":43.291675,"lon":5.371583,"is_reserved":false,"is_disabled":false,"rental_uris":{"android":"levelo://app?vid=7818204f-615e-4ea6-af75-347098c6aefa","ios":"levelo://app?vid=7818204f-615e-4ea6-af75-347098c6aefa"},"vehicle_type_id":"4","last_reported":1713819970,"current_range_meters":26000,"station_id":"ce4bha92rcd13ifvqeh0","pricing_plan_id":"cebpf4jnsgd1na2vs0mg"},{"bike_id":"7ba63e03-66ca-46b0-86b7-18bfdcfcf6d2","system_id":"levelo_inurba_marseille","lat":43.309047,"lon":5.396551,"is_reserved":false,"is_disabled":false,"rental_uris":{"android":"levelo://app?vid=7ba63e03-66ca-46b0-86b7-18bfdcfcf6d2","ios":"levelo://app?vid=7ba63e03-66ca-46b0-86b7-18bfdcfcf6d2"},"vehicle_type_id":"4","last_reported":1713819970,"current_range_meters":16000,"station_id":"ce4bh012rcd13ifvqcv0","pricing_plan_id":"cebpf4jnsgd1na2vs0mg"},{"bike_id":"fdf103d3-19e6-4467-8acc-7565ab271e21","system_id":"levelo_inurba_marseille","lat":43.308885,"lon":5.396382,"is_reserved":false,"is_disabled":false,"rental_uris":{"android":"levelo://app?vid=fdf103d3-19e6-4467-8acc-7565ab271e21","ios":"levelo://app?vid=fdf103d3-19e6-4467-8acc-7565ab271e21"},"vehicle_type_id":"4","last_reported":1713819970,"current_range_meters":0,"station_id":"ce4bh012rcd13ifvqcv0","pricing_plan_id":"cebpf4jnsgd1na2vs0mg"},{"bike_id":"89337a98-5f62-4891-886d-8731587e4e5e","system_id":"levelo_inurba_marseille","lat":43.313291,"lon":5.396838,"is_reserved":false,"is_disabled":false,"rental_uris":{"android":"levelo://app?vid=89337a98-5f62-4891-886d-8731587e4e5e","ios":"levelo://app?vid=89337a98-5f62-4891-886d-8731587e4e5e"},"vehicle_type_id":"4","last_reported":1713819970,"current_range_meters":14800,"station_id":"ce4bgvp2rcd13ifvqcu0","pricing_plan_id":"cebpf4jnsgd1na2vs0mg"},{"bike_id":"da93b63a-81fc-4591-8ce8-b96231a8fdc0","system_id":"levelo_inurba_marseille","lat":43.292005,"lon":5.357875,"is_reserved":false,"is_disabled":false,"rental_uris":{"android":"levelo://app?vid=da93b63a-81fc-4591-8ce8-b96231a8fdc0","ios":"levelo://app?vid=da93b63a-81fc-4591-8ce8-b96231a8fdc0"},"vehicle_type_id":"4","last_reported":1713819970,"current_range_meters":24000,"station_id":"ce4bhb12rcd13ifvqel0","pricing_plan_id":"cebpf4jnsgd1na2vs0mg"},{"bike_id":"8ca1668b-87c0-4300-8b62-8346ae23e915","system_id":"levelo_inurba_marseille","lat":43.292005,"lon":5.357875,"is_reserved":false,"is_disabled":false,"rental_uris":{"android":"levelo://app?vid=8ca1668b-87c0-4300-8b62-8346ae23e915","ios":"levelo://app?vid=8ca1668b-87c0-4300-8b62-8346ae23e915"},"vehicle_type_id":"4","last_reported":1713819970,"current_range_meters":21600,"station_id":"ce4bhb12rcd13ifvqel0","pricing_plan_id":"cebpf4jnsgd1na2vs0mg"},{"bike_id":"57654638-d33a-4678-a210-dc13e2d98f60","system_id":"levelo_inurba_marseille","lat":43.313291,"lon":5.396838,"is_reserved":false,"is_disabled":false,"rental_uris":{"android":"levelo://app?vid=57654638-d33a-4678-a210-dc13e2d98f60","ios":"levelo://app?vid=57654638-d33a-4678-a210-dc13e2d98f60"},"vehicle_type_id":"4","last_reported":1713819970,"current_range_meters":8400,"station_id":"ce4bgvp2rcd13ifvqcu0","pricing_plan_id":"cebpf4jnsgd1na2vs0mg"},{"bike_id":"430bdb4d-6b65-4f2e-92e4-512ef52ef177","system_id":"levelo_inurba_marseille","lat":43.313291,"lon":5.396838,"is_reserved":false,"is_disabled":false,"rental_uris":{"android":"levelo://app?vid=430bdb4d-6b65-4f2e-92e4-512ef52ef177","ios":"levelo://app?vid=430bdb4d-6b65-4f2e-92e4-512ef52ef177"},"vehicle_type_id":"4","last_reported":1713819970,"current_range_meters":22000,"station_id":"ce4bgvp2rcd13ifvqcu0","pricing_plan_id":"cebpf4jnsgd1na2vs0mg"},{"bike_id":"3164f708-d683-478a-a841-4be13c9b015e","system_id":"levelo_inurba_marseille","lat":43.313291,"lon":5.396838,"is_reserved":false,"is_disabled":false,"rental_uris":{"android":"levelo://app?vid=3164f708-d683-478a-a841-4be13c9b015e","ios":"levelo://app?vid=3164f708-d683-478a-a841-4be13c9b015e"},"vehicle_type_id":"4","last_reported":1713819970,"current_range_meters":22400,"station_id":"ce4bgvp2rcd13ifvqcu0","pricing_plan_id":"cebpf4jnsgd1na2vs0mg"},{"bike_id":"d9da1fbf-0f9b-4471-9c16-1b1c42a0f8f2","system_id":"levelo_inurba_marseille","lat":43.313291,"lon":5.396838,"is_reserved":false,"is_disabled":false,"rental_uris":{"android":"levelo://app?vid=d9da1fbf-0f9b-4471-9c16-1b1c42a0f8f2","ios":"levelo://app?vid=d9da1fbf-0f9b-4471-9c16-1b1c42a0f8f2"},"vehicle_type_id":"4","last_reported":1713819970,"current_range_meters":3200,"station_id":"ce4bgvp2rcd13ifvqcu0","pricing_plan_id":"cebpf4jnsgd1na2vs0mg"},{"bike_id":"b873b1ac-6da7-4615-98f6-af1714efe1a7","system_id":"levelo_inurba_marseille","lat":43.292005,"lon":5.357875,"is_reserved":false,"is_disabled":false,"rental_uris":{"android":"levelo://app?vid=b873b1ac-6da7-4615-98f6-af1714efe1a7","ios":"levelo://app?vid=b873b1ac-6da7-4615-98f6-af1714efe1a7"},"vehicle_type_id":"4","last_reported":1713819970,"current_range_meters":27200,"station_id":"ce4bhb12rcd13ifvqel0","pricing_plan_id":"cebpf4jnsgd1na2vs0mg"},{"bike_id":"ac326e32-31e6-4034-944e-7406030b5a57","system_id":"levelo_inurba_marseille","lat":43.309047,"lon":5.396551,"is_reserved":false,"is_disabled":false,"rental_uris":{"android":"levelo://app?vid=ac326e32-31e6-4034-944e-7406030b5a57","ios":"levelo://app?vid=ac326e32-31e6-4034-944e-7406030b5a57"},"vehicle_type_id":"4","last_reported":1713819970,"current_range_meters":19600,"station_id":"ce4bh012rcd13ifvqcv0","pricing_plan_id":"cebpf4jnsgd1na2vs0mg"},{"bike_id":"6efce0b7-a6e5-4e3f-90d6-0a45b465c914","system_id":"levelo_inurba_marseille","lat":43.30889,"lon":5.39647,"is_reserved":false,"is_disabled":false,"rental_uris":{"android":"levelo://app?vid=6efce0b7-a6e5-4e3f-90d6-0a45b465c914","ios":"levelo://app?vid=6efce0b7-a6e5-4e3f-90d6-0a45b465c914"},"vehicle_type_id":"4","last_reported":1713819970,"current_range_meters":0,"station_id":"ce4bh012rcd13ifvqcv0","pricing_plan_id":"cebpf4jnsgd1na2vs0mg"},{"bike_id":"c6c44270-f44e-4011-9e36-5b56fd688381","system_id":"levelo_inurba_marseille","lat":43.313291,"lon":5.396838,"is_reserved":false,"is_disabled":false,"rental_uris":{"android":"levelo://app?vid=c6c44270-f44e-4011-9e36-5b56fd688381","ios":"levelo://app?vid=c6c44270-f44e-4011-9e36-5b56fd688381"},"vehicle_type_id":"4","last_reported":1713819970,"current_range_meters":21200,"station_id":"ce4bgvp2rcd13ifvqcu0","pricing_plan_id":"cebpf4jnsgd1na2vs0mg"},{"bike_id":"47af96ca-c406-4057-a538-d02ebb28f1e2","system_id":"levelo_inurba_marseille","lat":43.31324,"lon":5.39694,"is_reserved":false,"is_disabled":false,"rental_uris":{"android":"levelo://app?vid=47af96ca-c406-4057-a538-d02ebb28f1e2","ios":"levelo://app?vid=47af96ca-c406-4057-a538-d02ebb28f1e2"},"vehicle_type_id":"4","last_reported":1713819970,"current_range_meters":1200,"station_id":"","pricing_plan_id":"cebpf4jnsgd1na2vs0mg"},{"bike_id":"57939d8d-f152-4244-84f4-766b3896623e","system_id":"levelo_inurba_marseille","lat":43.31331,"lon":5.396941,"is_reserved":false,"is_disabled":false,"rental_uris":{"android":"levelo://app?vid=57939d8d-f152-4244-84f4-766b3896623e","ios":"levelo://app?vid=57939d8d-f152-4244-84f4-766b3896623e"},"vehicle_type_id":"4","last_reported":1713819970,"current_range_meters":0,"station_id":"ce4bgvp2rcd13ifvqcu0","pricing_plan_id":"cebpf4jnsgd1na2vs0mg"},{"bike_id":"543a512c-c67f-45eb-ab93-2358117ca2fd","system_id":"levelo_inurba_marseille","lat":43.313291,"lon":5.396838,"is_reserved":false,"is_disabled":false,"rental_uris":{"android":"levelo://app?vid=543a512c-c67f-45eb-ab93-2358117ca2fd","ios":"levelo://app?vid=543a512c-c67f-45eb-ab93-2358117ca2fd"},"vehicle_type_id":"4","last_reported":1713819970,"current_range_meters":28000,"station_id":"ce4bgvp2rcd13ifvqcu0","pricing_plan_id":"cebpf4jnsgd1na2vs0mg"},{"bike_id":"f4f4da84-b06f-46c9-a7d8-c7d3aee46654","system_id":"levelo_inurba_marseille","lat":43.309038,"lon":5.396546,"is_reserved":false,"is_disabled":false,"rental_uris":{"android":"levelo://app?vid=f4f4da84-b06f-46c9-a7d8-c7d3aee46654","ios":"levelo://app?vid=f4f4da84-b06f-46c9-a7d8-c7d3aee46654"},"vehicle_type_id":"4","last_reported":1713819970,"current_range_meters":20000,"station_id":"ce4bh012rcd13ifvqcv0","pricing_plan_id":"cebpf4jnsgd1na2vs0mg"},{"bike_id":"61dd40a7-a13c-4654-87bc-b89f9c758d77","system_id":"levelo_inurba_marseille","lat":43.309038,"lon":5.396546,"is_reserved":false,"is_disabled":false,"rental_uris":{"android":"levelo://app?vid=61dd40a7-a13c-4654-87bc-b89f9c758d77","ios":"levelo://app?vid=61dd40a7-a13c-4654-87bc-b89f9c758d77"},"vehicle_type_id":"4","last_reported":1713819970,"current_range_meters":0,"station_id":"ce4bh012rcd13ifvqcv0","pricing_plan_id":"cebpf4jnsgd1na2vs0mg"},{"bike_id":"4af6fa97-1449-4043-88f9-389ddec88698","system_id":"levelo_inurba_marseille","lat":43.309047,"lon":5.396551,"is_reserved":false,"is_disabled":false,"rental_uris":{"android":"levelo://app?vid=4af6fa97-1449-4043-88f9-389ddec88698","ios":"levelo://app?vid=4af6fa97-1449-4043-88f9-389ddec88698"},"vehicle_type_id":"4","last_reported":1713819970,"current_range_meters":16400,"station_id":"ce4bh012rcd13ifvqcv0","pricing_plan_id":"cebpf4jnsgd1na2vs0mg"},{"bike_id":"5aac2d0a-5c91-4141-90a0-584e517051f4","system_id":"levelo_inurba_marseille","lat":43.313291,"lon":5.396838,"is_reserved":false,"is_disabled":false,"rental_uris":{"android":"levelo://app?vid=5aac2d0a-5c91-4141-90a0-584e517051f4","ios":"levelo://app?vid=5aac2d0a-5c91-4141-90a0-584e517051f4"},"vehicle_type_id":"4","last_reported":1713819970,"current_range_meters":24800,"station_id":"ce4bgvp2rcd13ifvqcu0","pricing_plan_id":"cebpf4jnsgd1na2vs0mg"},{"bike_id":"7a13027c-8b91-4647-9504-1c2c2d4155ce","system_id":"levelo_inurba_marseille","lat":43.291994,"lon":5.357886,"is_reserved":false,"is_disabled":false,"rental_uris":{"android":"levelo://app?vid=7a13027c-8b91-4647-9504-1c2c2d4155ce","ios":"levelo://app?vid=7a13027c-8b91-4647-9504-1c2c2d4155ce"},"vehicle_type_id":"4","last_reported":1713819970,"current_range_meters":26400,"station_id":"ce4bhb12rcd13ifvqel0","pricing_plan_id":"cebpf4jnsgd1na2vs0mg"},{"bike_id":"acf70660-b535-4129-bd9c-f476b7a642f2","system_id":"levelo_inurba_marseille","lat":43.31327,"lon":5.397,"is_reserved":false,"is_disabled":false,"rental_uris":{"android":"levelo://app?vid=acf70660-b535-4129-bd9c-f476b7a642f2","ios":"levelo://app?vid=acf70660-b535-4129-bd9c-f476b7a642f2"},"vehicle_type_id":"4","last_reported":1713819970,"current_range_meters":11200,"station_id":"ce4bgvp2rcd13ifvqcu0","pricing_plan_id":"cebpf4jnsgd1na2vs0mg"},{"bike_id":"1a43f498-88dd-4eed-b33d-508a8f02c184","system_id":"levelo_inurba_marseille","lat":43.313291,"lon":5.396838,"is_reserved":false,"is_disabled":false,"rental_uris":{"android":"levelo://app?vid=1a43f498-88dd-4eed-b33d-508a8f02c184","ios":"levelo://app?vid=1a43f498-88dd-4eed-b33d-508a8f02c184"},"vehicle_type_id":"4","last_reported":1713819970,"current_range_meters":26400,"station_id":"ce4bgvp2rcd13ifvqcu0","pricing_plan_id":"cebpf4jnsgd1na2vs0mg"},{"bike_id":"54aa5e6e-4858-4e0c-8e7a-0096639a71dd","system_id":"levelo_inurba_marseille","lat":43.309047,"lon":5.396551,"is_reserved":false,"is_disabled":false,"rental_uris":{"android":"levelo://app?vid=54aa5e6e-4858-4e0c-8e7a-0096639a71dd","ios":"levelo://app?vid=54aa5e6e-4858-4e0c-8e7a-0096639a71dd"},"vehicle_type_id":"4","last_reported":1713819970,"current_range_meters":0,"station_id":"ce4bh012rcd13ifvqcv0","pricing_plan_id":"cebpf4jnsgd1na2vs0mg"},{"bike_id":"ded4fa11-5719-4994-981d-2c88722e1ada","system_id":"levelo_inurba_marseille","lat":43.309038,"lon":5.396546,"is_reserved":false,"is_disabled":false,"rental_uris":{"android":"levelo://app?vid=ded4fa11-5719-4994-981d-2c88722e1ada","ios":"levelo://app?vid=ded4fa11-5719-4994-981d-2c88722e1ada"},"vehicle_type_id":"4","last_reported":1713819970,"current_range_meters":31200,"station_id":"ce4bh012rcd13ifvqcv0","pricing_plan_id":"cebpf4jnsgd1na2vs0mg"},{"bike_id":"3601e9bc-772b-4e07-b16e-f59e3060cb2c","system_id":"levelo_inurba_marseille","lat":43.291994,"lon":5.357886,"is_reserved":false,"is_disabled":false,"rental_uris":{"android":"levelo://app?vid=3601e9bc-772b-4e07-b16e-f59e3060cb2c","ios":"levelo://app?vid=3601e9bc-772b-4e07-b16e-f59e3060cb2c"},"vehicle_type_id":"4","last_reported":1713819970,"current_range_meters":11600,"station_id":"ce4bhb12rcd13ifvqel0","pricing_plan_id":"cebpf4jnsgd1na2vs0mg"},{"bike_id":"2a0b9bb5-be31-4af3-8b59-4e0bbe14632a","system_id":"levelo_inurba_marseille","lat":43.29529,"lon":5.385581,"is_reserved":false,"is_disabled":false,"rental_uris":{"android":"levelo://app?vid=2a0b9bb5-be31-4af3-8b59-4e0bbe14632a","ios":"levelo://app?vid=2a0b9bb5-be31-4af3-8b59-4e0bbe14632a"},"vehicle_type_id":"4","last_reported":1713819970,"current_range_meters":25600,"station_id":"ce4bgih2rcd13ifvqba0","pricing_plan_id":"cebpf4jnsgd1na2vs0mg"},{"bike_id":"d997fdc8-bdc7-453a-8a71-a3dcc5ead7c7","system_id":"levelo_inurba_marseille","lat":43.29529,"lon":5.385581,"is_reserved":false,"is_disabled":false,"rental_uris":{"android":"levelo://app?vid=d997fdc8-bdc7-453a-8a71-a3dcc5ead7c7","ios":"levelo://app?vid=d997fdc8-bdc7-453a-8a71-a3dcc5ead7c7"},"vehicle_type_id":"4","last_reported":1713819970,"current_range_meters":22800,"station_id":"ce4bgih2rcd13ifvqba0","pricing_plan_id":"cebpf4jnsgd1na2vs0mg"},{"bike_id":"cba84523-138e-4d2e-8585-b186507a7290","system_id":"levelo_inurba_marseille","lat":43.29529,"lon":5.385581,"is_reserved":false,"is_disabled":false,"rental_uris":{"android":"levelo://app?vid=cba84523-138e-4d2e-8585-b186507a7290","ios":"levelo://app?vid=cba84523-138e-4d2e-8585-b186507a7290"},"vehicle_type_id":"4","last_reported":1713819970,"current_range_meters":31200,"station_id":"ce4bgih2rcd13ifvqba0","pricing_plan_id":"cebpf4jnsgd1na2vs0mg"},{"bike_id":"fabde1d5-3423-4dce-a373-2193a0f5fe10","system_id":"levelo_inurba_marseille","lat":43.295333,"lon":5.385443,"is_reserved":false,"is_disabled":false,"rental_uris":{"android":"levelo://app?vid=fabde1d5-3423-4dce-a373-2193a0f5fe10","ios":"levelo://app?vid=fabde1d5-3423-4dce-a373-2193a0f5fe10"},"vehicle_type_id":"4","last_reported":1713819970,"current_range_meters":4400,"station_id":"ce4bgih2rcd13ifvqba0","pricing_plan_id":"cebpf4jnsgd1na2vs0mg"},{"bike_id":"12d06eee-d7d1-43ca-9860-c8c649d24523","system_id":"levelo_inurba_marseille","lat":43.29529,"lon":5.385581,"is_reserved":false,"is_disabled":false,"rental_uris":{"android":"levelo://app?vid=12d06eee-d7d1-43ca-9860-c8c649d24523","ios":"levelo://app?vid=12d06eee-d7d1-43ca-9860-c8c649d24523"},"vehicle_type_id":"4","last_reported":1713819970,"current_range_meters":15200,"station_id":"ce4bgih2rcd13ifvqba0","pricing_plan_id":"cebpf4jnsgd1na2vs0mg"},{"bike_id":"e14318c5-576f-445e-a834-70463dd282d4","system_id":"levelo_inurba_marseille","lat":43.2953,"lon":5.38548,"is_reserved":false,"is_disabled":false,"rental_uris":{"android":"levelo://app?vid=e14318c5-576f-445e-a834-70463dd282d4","ios":"levelo://app?vid=e14318c5-576f-445e-a834-70463dd282d4"},"vehicle_type_id":"4","last_reported":1713819970,"current_range_meters":11200,"station_id":"ce4bgih2rcd13ifvqba0","pricing_plan_id":"cebpf4jnsgd1na2vs0mg"},{"bike_id":"7a6f2d42-2113-4a9b-9698-a1f3e64018b7","system_id":"levelo_inurba_marseille","lat":43.29527,"lon":5.38543,"is_reserved":false,"is_disabled":false,"rental_uris":{"android":"levelo://app?vid=7a6f2d42-2113-4a9b-9698-a1f3e64018b7","ios":"levelo://app?vid=7a6f2d42-2113-4a9b-9698-a1f3e64018b7"},"vehicle_type_id":"4","last_reported":1713819970,"current_range_meters":0,"station_id":"ce4bgih2rcd13ifvqba0","pricing_plan_id":"cebpf4jnsgd1na2vs0mg"},{"bike_id":"a015bedf-471c-491f-9ad1-bfb68b6afbf9","system_id":"levelo_inurba_marseille","lat":43.29526,"lon":5.38542,"is_reserved":false,"is_disabled":false,"rental_uris":{"android":"levelo://app?vid=a015bedf-471c-491f-9ad1-bfb68b6afbf9","ios":"levelo://app?vid=a015bedf-471c-491f-9ad1-bfb68b6afbf9"},"vehicle_type_id":"4","last_reported":1713819970,"current_range_meters":2800,"station_id":"ce4bgih2rcd13ifvqba0","pricing_plan_id":"cebpf4jnsgd1na2vs0mg"},{"bike_id":"31bd6cdc-efe5-4ca3-9c9e-8f3d1b049627","system_id":"levelo_inurba_marseille","lat":43.29529,"lon":5.385581,"is_reserved":false,"is_disabled":false,"rental_uris":{"android":"levelo://app?vid=31bd6cdc-efe5-4ca3-9c9e-8f3d1b049627","ios":"levelo://app?vid=31bd6cdc-efe5-4ca3-9c9e-8f3d1b049627"},"vehicle_type_id":"4","last_reported":1713819970,"current_range_meters":16000,"station_id":"ce4bgih2rcd13ifvqba0","pricing_plan_id":"cebpf4jnsgd1na2vs0mg"},{"bike_id":"f14f65e2-a2da-41bf-bb29-15304c8f6ce5","system_id":"levelo_inurba_marseille","lat":43.290779,"lon":5.371482,"is_reserved":false,"is_disabled":false,"rental_uris":{"android":"levelo://app?vid=f14f65e2-a2da-41bf-bb29-15304c8f6ce5","ios":"levelo://app?vid=f14f65e2-a2da-41bf-bb29-15304c8f6ce5"},"vehicle_type_id":"4","last_reported":1713819970,"current_range_meters":27200,"station_id":"ce4bh5p2rcd13ifvqe4g","pricing_plan_id":"cebpf4jnsgd1na2vs0mg"},{"bike_id":"7716a5e3-4101-4adc-8a07-8b4562c20e58","system_id":"levelo_inurba_marseille","lat":43.290779,"lon":5.371482,"is_reserved":false,"is_disabled":false,"rental_uris":{"android":"levelo://app?vid=7716a5e3-4101-4adc-8a07-8b4562c20e58","ios":"levelo://app?vid=7716a5e3-4101-4adc-8a07-8b4562c20e58"},"vehicle_type_id":"4","last_reported":1713819970,"current_range_meters":31600,"station_id":"ce4bh5p2rcd13ifvqe4g","pricing_plan_id":"cebpf4jnsgd1na2vs0mg"},