{"last_updated":1742242258,"ttl":60,"version":"2.2","data":{"bikes":[{"bike_id":"3d6b7bdc-56b9-4d02-ace2-7fa09ad14a9c","system_id":"levelo_inurba_marseille","lat":43.29298,"lon":5.37179,"is_reserved":false,"is_disabled":false,"rental_uris":{"android":"levelo://app?vid=3d6b7bdc-56b9-4d02-ace2-7fa09ad14a9c","ios":"levelo://app?vid=3d6b7bdc-56b9-4d02-ace2-7fa09ad14a9c"},"vehicle_type_id":"4","last_reported":1742242258,"current_range_meters":2800,"station_id":"ce4bgh92rcd13ifvqb40","pricing_plan_id":"cebpf4jnsgd1na2vs0mg"},{"bike_id":"3075a92e-753c-44d4-95a7-61f6de873988","system_id":"levelo_inurba_marseille","lat":43.28568,"lon":5.3951,"is_reserved":false,"is_disabled":false,"rental_uris":{"android":"levelo://app?vid=3075a92e-753c-44d4-95a7-61f6de873988","ios":"levelo://app?vid=3075a92e-753c-44d4-95a7-61f6de873988"},"vehicle_type_id":"4","last_reported":1742242258,"current_range_meters":2800,"station_id":"ce4bh292rcd13ifvqdg0","pricing_plan_id":"cebpf4jnsgd1na2vs0mg"},{"bike_id":"13f565a9-ad77-42dd-bbcf-651900507196","system_id":"levelo_inurba_marseille","lat":43.32874,"lon":5.39217,"is_reserved":false,"is_disabled":false,"rental_uris":{"android":"levelo://app?vid=13f565a9-ad77-42dd-bbcf-651900507196","ios":"levelo://app?vid=13f565a9-ad77-42dd-bbcf-651900507196"},"vehicle_type_id":"4","last_reported":1742242258,"current_range_meters":2800,"station_id":"","pricing_plan_id":"cebpf4jnsgd1na2vs0mg"},{"bike_id":"0c573af3-8b0a-4a4f-870e-6c23c501aaa9","system_id":"levelo_inurba_marseille","lat":43.255035,"lon":5.376521,"is_reserved":false,"is_disabled":false,"rental_uris":{"android":"levelo://app?vid=0c573af3-8b0a-4a4f-870e-6c23c501aaa9","ios":"levelo://app?vid=0c573af3-8b0a-4a4f-870e-6c23c501aaa9"},"vehicle_type_id":"4","last_reported":1742242258,"current_range_meters":2800,"station_id":"ce4bh3h2rcd13ifvqdn0","pricing_plan_id":"cebpf4jnsgd1na2vs0mg"},{"bike_id":"4975d299-348f-4809-acfd-d71cef2c0b44","system_id":"levelo_inurba_marseille","lat":43.27824,"lon":5.40733,"is_reserved":false,"is_disabled":false,"rental_uris":{"android":"levelo://app?vid=4975d299-348f-4809-acfd-d71cef2c0b44","ios":"levelo://app?vid=4975d299-348f-4809-acfd-d71cef2c0b44"},"vehicle_type_id":"4","last_reported":1742242258,"current_range_meters":2800,"station_id":"ce4bhnh2rcd13ifvqgtg","pricing_plan_id":"cebpf4jnsgd1na2vs0mg"},{"bike_id":"80b8a29c-133d-45f7-a2fc-a7257c3a04f4","system_id":"levelo_inurba_marseille","lat":43.31073,"lon":5.38361,"is_reserved":false,"is_disabled":false,"rental_uris":{"android":"levelo://app?vid=80b8a29c-133d-45f7-a2fc-a7257c3a04f4","ios":"levelo://app?vid=80b8a29c-133d-45f7-a2fc-a7257c3a04f4"},"vehicle_type_id":"4","last_reported":1742242258,"current_range_meters":2800,"station_id":"ce4bgv92rcd13ifvqcr0","pricing_plan_id":"cebpf4jnsgd1na2vs0mg"},{"bike_id":"1227404b-ebca-448d-b5d5-ebf7b3f2595f","system_id":"levelo_inurba_marseille","lat":43.30607,"lon":5.383513,"is_reserved":false,"is_disabled":false,"rental_uris":{"android":"levelo://app?vid=1227404b-ebca-448d-b5d5-ebf7b3f2595f","ios":"levelo://app?vid=1227404b-ebca-448d-b5d5-ebf7b3f2595f"},"vehicle_type_id":"4","last_reported":1742242258,"current_range_meters":2800,"station_id":"ce4bgh92rcd13ifvqb40","pricing_plan_id":"cebpf4jnsgd1na2vs0mg"},{"bike_id":"6acf0107-45db-42a4-89b4-2f3823143881","system_id":"levelo_inurba_marseille","lat":43.28677,"lon":5.36358,"is_reserved":false,"is_disabled":false,"rental_uris":{"android":"levelo://app?vid=6acf0107-45db-42a4-89b4-2f3823143881","ios":"levelo://app?vid=6acf0107-45db-42a4-89b4-2f3823143881"},"vehicle_type_id":"4","last_reported":1742242258,"current_range_meters":2800,"station_id":"ce4bhah2rcd13ifvqej0","pricing_plan_id":"cebpf4jnsgd1na2vs0mg"},{"bike_id":"56bc3679-e780-4456-b538-e5e7fa1f9dee","system_id":"levelo_inurba_marseille","lat":43.30433,"lon":5.39751,"is_reserved":false,"is_disabled":false,"rental_uris":{"android":"levelo://app?vid=56bc3679-e780-4456-b538-e5e7fa1f9dee","ios":"levelo://app?vid=56bc3679-e780-4456-b538-e5e7fa1f9dee"},"vehicle_type_id":"4","last_reported":1742242258,"current_range_meters":2800,"station_id":"ce4bh092rcd13ifvqd20","pricing_plan_id":"cebpf4jnsgd1na2vs0mg"},{"bike_id":"d32c870a-ae92-4bba-a26b-e8fe0f61357c","system_id":"levelo_inurba_marseille","lat":43.27838,"lon":5.39211,"is_reserved":false,"is_disabled":false,"rental_uris":{"android":"levelo://app?vid=d32c870a-ae92-4bba-a26b-e8fe0f61357c","ios":"levelo://app?vid=d32c870a-ae92-4bba-a26b-e8fe0f61357c"},"vehicle_type_id":"4","last_reported":1742242258,"current_range_meters":2800,"station_id":"ce4bhjp2rcd13ifvqga0","pricing_plan_id":"cebpf4jnsgd1na2vs0mg"},{"bike_id":"fe535ac1-f859-4328-a553-181bec5165fc","system_id":"levelo_inurba_marseille","lat":43.25024,"lon":5.38938,"is_reserved":false,"is_disabled":false,"rental_uris":{"android":"levelo://app?vid=fe535ac1-f859-4328-a553-181bec5165fc","ios":"levelo://app?vid=fe535ac1-f859-4328-a553-181bec5165fc"},"vehicle_type_id":"4","last_reported":1742242258,"current_range_meters":2800,"station_id":"ce4bhgp2rcd13ifvqfd0","pricing_plan_id":"cebpf4jnsgd1na2vs0mg"},{"bike_id":"ee9521e8-e74f-458b-84ff-d769bdf1f28b","system_id":"levelo_inurba_marseille","lat":43.30281,"lon":5.36877,"is_reserved":false,"is_disabled":true,"rental_uris":{"android":"levelo://app?vid=ee9521e8-e74f-458b-84ff-d769bdf1f28b","ios":"levelo://app?vid=ee9521e8-e74f-458b-84ff-d769bdf1f28b"},"vehicle_type_id":"4","last_reported":1742242258,"current_range_meters":2800,"station_id":"ce4bgqh2rcd13ifvqc5g","pricing_plan_id":"cebpf4jnsgd1na2vs0mg"},{"bike_id":"6651670e-efbb-40ac-bf62-5fa0448669e6","system_id":"levelo_inurba_marseille","lat":43.31714,"lon":5.40464,"is_reserved":false,"is_disabled":false,"rental_uris":{"android":"levelo://app?vid=6651670e-efbb-40ac-bf62-5fa0448669e6","ios":"levelo://app?vid=6651670e-efbb-40ac-bf62-5fa0448669e6"},"vehicle_type_id":"4","last_reported":1742242258,"current_range_meters":2800,"station_id":"ce4bh012rcd13ifvqd00","pricing_plan_id":"cebpf4jnsgd1na2vs0mg"},{"bike_id":"6ce84f46-630b-4d68-9be7-7f0ba2898ae9","system_id":"levelo_inurba_marseille","lat":43.2884,"lon":5.3884,"is_reserved":false,"is_disabled":false,"rental_uris":{"android":"levelo://app?vid=6ce84f46-630b-4d68-9be7-7f0ba2898ae9","ios":"levelo://app?vid=6ce84f46-630b-4d68-9be7-7f0ba2898ae9"},"vehicle_type_id":"4","last_reported":1742242258,"current_range_meters":3200,"station_id":"ce4bh4p2rcd13ifvqe0g","pricing_plan_id":"cebpf4jnsgd1na2vs0mg"},{"bike_id":"95b00422-ec0d-4394-a3f8-bed487bc756a","system_id":"levelo_inurba_marseille","lat":43.27818,"lon":5.4071,"is_reserved":false,"is_disabled":false,"rental_uris":{"android":"levelo://app?vid=95b00422-ec0d-4394-a3f8-bed487bc756a","ios":"levelo://app?vid=95b00422-ec0d-4394-a3f8-bed487bc756a"},"vehicle_type_id":"4","last_reported":1742242258,"current_range_meters":3200,"station_id":"ce4bhnh2rcd13ifvqgtg","pricing_plan_id":"cebpf4jnsgd1na2vs0mg"},{"bike_id":"21166d41-4014-4bd8-ac69-731adebb5df7","system_id":"levelo_inurba_marseille","lat":43.2454,"lon":5.37318,"is_reserved":false,"is_disabled":false,"rental_uris":{"android":"levelo://app?vid=21166d41-4014-4bd8-ac69-731adebb5df7","ios":"levelo://app?vid=21166d41-4014-4bd8-ac69-731adebb5df7"},"vehicle_type_id":"4","last_reported":1742242258,"current_range_meters":3200,"station_id":"","pricing_plan_id":"cebpf4jnsgd1na2vs0mg"},{"bike_id":"4d93f1b7-63b9-4754-b732-c06b67140f34","system_id":"levelo_inurba_marseille","lat":43.28941,"lon":5.38418,"is_reserved":false,"is_disabled":false,"rental_uris":{"android":"levelo://app?vid=4d93f1b7-63b9-4754-b732-c06b67140f34","ios":"levelo://app?vid=4d93f1b7-63b9-4754-b732-c06b67140f34"},"vehicle_type_id":"4","last_reported":1742242258,"current_range_meters":3200,"station_id":"ce4bh612rcd13ifvqe6g","pricing_plan_id":"cebpf4jnsgd1na2vs0mg"},{"bike_id":"405730f2-f645-4c7b-8939-d08813767c59","system_id":"levelo_inurba_marseille","lat":43.28842,"lon":5.3931,"is_reserved":false,"is_disabled":false,"rental_uris":{"android":"levelo://app?vid=405730f2-f645-4c7b-8939-d08813767c59","ios":"levelo://app?vid=405730f2-f645-4c7b-8939-d08813767c59"},"vehicle_type_id":"4","last_reported":1742242258,"current_range_meters":3200,"station_id":"ce4bh2p2rcd13ifvqdi0","pricing_plan_id":"cebpf4jnsgd1na2vs0mg"},{"bike_id":"6cc1e6d7-1851-424e-9425-e0e834546306","system_id":"levelo_inurba_marseille","lat":43.26216,"lon":5.37441,"is_reserved":false,"is_disabled":true,"rental_uris":{"android":"levelo://app?vid=6cc1e6d7-1851-424e-9425-e0e834546306","ios":"levelo://app?vid=6cc1e6d7-1851-424e-9425-e0e834546306"},"vehicle_type_id":"4","last_reported":1742242258,"current_range_meters":3200,"station_id":"ce4bhgp2rcd13ifvqfc0","pricing_plan_id":"cebpf4jnsgd1na2vs0mg"},{"bike_id":"1e0e43b3-c183-4432-bb5f-a44127d08381","system_id":"levelo_inurba_marseille","lat":43.29308,"lon":5.37187,"is_reserved":false,"is_disabled":false,"rental_uris":{"android":"levelo://app?vid=1e0e43b3-c183-4432-bb5f-a44127d08381","ios":"levelo://app?vid=1e0e43b3-c183-4432-bb5f-a44127d08381"},"vehicle_type_id":"4","last_reported":1742242258,"current_range_meters":3600,"station_id":"ce4bgh92rcd13ifvqb40","pricing_plan_id":"cebpf4jnsgd1na2vs0mg"},{"bike_id":"944cb839-648c-4b7f-9ac9-18fd20ba18c8","system_id":"levelo_inurba_marseille","lat":43.28721,"lon":5.37399,"is_reserved":false,"is_disabled":false,"rental_uris":{"android":"levelo://app?vid=944cb839-648c-4b7f-9ac9-18fd20ba18c8","ios":"levelo://app?vid=944cb839-648c-4b7f-9ac9-18fd20ba18c8"},"vehicle_type_id":"4","last_reported":1742242258,"current_range_meters":3200,"station_id":"ce4bh3p2rcd13ifvqdq0","pricing_plan_id":"cebpf4jnsgd1na2vs0mg"},{"bike_id":"a43c4d68-6f78-44d4-87eb-c3a8bd6dd121","system_id":"levelo_inurba_marseille","lat":43.30141,"lon":5.39885,"is_reserved":false,"is_disabled":true,"rental_uris":{"android":"levelo://app?vid=a43c4d68-6f78-44d4-87eb-c3a8bd6dd121","ios":"levelo://app?vid=a43c4d68-6f78-44d4-87eb-c3a8bd6dd121"},"vehicle_type_id":"4","last_reported":1742242258,"current_range_meters":3600,"station_id":"ce4bh0h2rcd13ifvqd40","pricing_plan_id":"cebpf4jnsgd1na2vs0mg"},{"bike_id":"5d3dbd3a-1365-40c0-af69-8ba2c314a313","system_id":"levelo_inurba_marseille","lat":43.29901,"lon":5.43666,"is_reserved":false,"is_disabled":false,"rental_uris":{"android":"levelo://app?vid=5d3dbd3a-1365-40c0-af69-8ba2c314a313","ios":"levelo://app?vid=5d3dbd3a-1365-40c0-af69-8ba2c314a313"},"vehicle_type_id":"4","last_reported":1742242258,"current_range_meters":4000,"station_id":"ce4bhpp2rcd13ifvqhfg","pricing_plan_id":"cebpf4jnsgd1na2vs0mg"},{"bike_id":"46c5ae45-9fb3-435d-9654-b596e98e12d9","system_id":"levelo_inurba_marseille","lat":43.33035,"lon":5.39047,"is_reserved":false,"is_disabled":false,"rental_uris":{"android":"levelo://app?vid=46c5ae45-9fb3-435d-9654-b596e98e12d9","ios":"levelo://app?vid=46c5ae45-9fb3-435d-9654-b596e98e12d9"},"vehicle_type_id":"4","last_reported":1742242258,"current_range_meters":4000,"station_id":"ce4bhr92rcd13ifvqhrg","pricing_plan_id":"cebpf4jnsgd1na2vs0mg"},{"bike_id":"8d81fd92-75c7-4722-a341-29c2406a90ee","system_id":"levelo_inurba_marseille","lat":43.29874,"lon":5.39735,"is_reserved":false,"is_disabled":false,"rental_uris":{"android":"levelo://app?vid=8d81fd92-75c7-4722-a341-29c2406a90ee","ios":"levelo://app?vid=8d81fd92-75c7-4722-a341-29c2406a90ee"},"vehicle_type_id":"4","last_reported":1742242258,"current_range_meters":3600,"station_id":"ce4bh0h2rcd13ifvqd50","pricing_plan_id":"cebpf4jnsgd1na2vs0mg"},{"bike_id":"c4d087fa-f0a9-4eaa-97e1-d02ef2438303","system_id":"levelo_inurba_marseille","lat":43.32289,"lon":5.3827,"is_reserved":false,"is_disabled":false,"rental_uris":{"android":"levelo://app?vid=c4d087fa-f0a9-4eaa-97e1-d02ef2438303","ios":"levelo://app?vid=c4d087fa-f0a9-4eaa-97e1-d02ef2438303"},"vehicle_type_id":"4","last_reported":1742242258,"current_range_meters":4000,"station_id":"ce4bhr12rcd13ifvqhqg","pricing_plan_id":"cebpf4jnsgd1na2vs0mg"},{"bike_id":"66b8b5ba-a8f1-4fef-a69d-63069a93762b","system_id":"levelo_inurba_marseille","lat":43.3082,"lon":5.38165,"is_reserved":false,"is_disabled":false,"rental_uris":{"android":"levelo://app?vid=66b8b5ba-a8f1-4fef-a69d-63069a93762b","ios":"levelo://app?vid=66b8b5ba-a8f1-4fef-a69d-63069a93762b"},"vehicle_type_id":"4","last_reported":1742242258,"current_range_meters":4000,"station_id":"ce4bgt12rcd13ifvqce0","pricing_plan_id":"cebpf4jnsgd1na2vs0mg"},{"bike_id":"f47c5661-ec21-4eb6-9e89-29a7736904bf","system_id":"levelo_inurba_marseille","lat":43.30275,"lon":5.37697,"is_reserved":false,"is_disabled":false,"rental_uris":{"android":"levelo://app?vid=f47c5661-ec21-4eb6-9e89-29a7736904bf","ios":"levelo://app?vid=f47c5661-ec21-4eb6-9e89-29a7736904bf"},"vehicle_type_id":"4","last_reported":1742242258,"current_range_meters":4000,"station_id":"ce4bguh2rcd13ifvqcj0","pricing_plan_id":"cebpf4jnsgd1na2vs0mg"},{"bike_id":"8fde4101-f431-43cd-961d-a5ec7c656054","system_id":"levelo_inurba_marseille","lat":43.30888,"lon":5.39659,"is_reserved":false,"is_disabled":false,"rental_uris":{"android":"levelo://app?vid=8fde4101-f431-43cd-961d-a5ec7c656054","ios":"levelo://app?vid=8fde4101-f431-43cd-961d-a5ec7c656054"},"vehicle_type_id":"4","last_reported":1742242258,"current_range_meters":4000,"station_id":"ce4bh012rcd13ifvqcv0","pricing_plan_id":"cebpf4jnsgd1na2vs0mg"},{"bike_id":"a7a1f2ef-62c5-4cfe-91a9-995553a2394d","system_id":"levelo_inurba_marseille","lat":43.2841,"lon":5.37515,"is_reserved":false,"is_disabled":false,"rental_uris":{"android":"levelo://app?vid=a7a1f2ef-62c5-4cfe-91a9-995553a2394d","ios":"levelo://app?vid=a7a1f2ef-62c5-4cfe-91a9-995553a2394d"},"vehicle_type_id":"4","last_reported":1742242258,"current_range_meters":4000,"station_id":"ce4bh412rcd13ifvqds0","pricing_plan_id":"cebpf4jnsgd1na2vs0mg"},{"bike_id":"c1f596d5-155b-40a6-a50d-8a96f86de404","system_id":"levelo_inurba_marseille","lat":43.2693,"lon":5.40286,"is_reserved":false,"is_disabled":false,"rental_uris":{"android":"levelo://app?vid=c1f596d5-155b-40a6-a50d-8a96f86de404","ios":"levelo://app?vid=c1f596d5-155b-40a6-a50d-8a96f86de404"},"vehicle_type_id":"4","last_reported":1742242258,"current_range_meters":4000,"station_id":"cjm6bp8fraef2m0cb0m0","pricing_plan_id":"cebpf4jnsgd1na2vs0mg"},{"bike_id":"8e0775cb-a0e9-4f14-a459-6d5fb14553d0","system_id":"levelo_inurba_marseille","lat":43.32657,"lon":5.40997,"is_reserved":false,"is_disabled":false,"rental_uris":{"android":"levelo://app?vid=8e0775cb-a0e9-4f14-a459-6d5fb14553d0","ios":"levelo://app?vid=8e0775cb-a0e9-4f14-a459-6d5fb14553d0"},"vehicle_type_id":"4","last_reported":1742242258,"current_range_meters":1200,"station_id":"ce4bhpp2rcd13ifvqhgg","pricing_plan_id":"cebpf4jnsgd1na2vs0mg"},{"bike_id":"fca86df9-4b41-43f7-9eb8-23cb01f0cc73","system_id":"levelo_inurba_marseille","lat":43.30932,"lon":5.40145,"is_reserved":false,"is_disabled":false,"rental_uris":{"android":"levelo://app?vid=fca86df9-4b41-43f7-9eb8-23cb01f0cc73","ios":"levelo://app?vid=fca86df9-4b41-43f7-9eb8-23cb01f0cc73"},"vehicle_type_id":"4","last_reported":1742242258,"current_range_meters":4400,"station_id":"ce4bgvp2rcd13ifvqct0","pricing_plan_id":"cebpf4jnsgd1na2vs0mg"},{"bike_id":"f762fd6f-ca69-45f6-995f-65c0e25825a3","system_id":"levelo_inurba_marseille","lat":43.32555,"lon":5.41498,"is_reserved":false,"is_disabled":true,"rental_uris":{"android":"levelo://app?vid=f762fd6f-ca69-45f6-995f-65c0e25825a3","ios":"levelo://app?vid=f762fd6f-ca69-45f6-995f-65c0e25825a3"},"vehicle_type_id":"4","last_reported":1742242258,"current_range_meters":4400,"station_id":"ce4bhq12rcd13ifvqhhg","pricing_plan_id":"cebpf4jnsgd1na2vs0mg"},{"bike_id":"13889a94-2370-4a3c-8f74-8722c0c67926","system_id":"levelo_inurba_marseille","lat":43.29727,"lon":5.36287,"is_reserved":false,"is_disabled":false,"rental_uris":{"android":"levelo://app?vid=13889a94-2370-4a3c-8f74-8722c0c67926","ios":"levelo://app?vid=13889a94-2370-4a3c-8f74-8722c0c67926"},"vehicle_type_id":"4","last_reported":1742242258,"current_range_meters":4400,"station_id":"ce4bhah2rcd13ifvqej0","pricing_plan_id":"cebpf4jnsgd1na2vs0mg"},{"bike_id":"3b912517-0f77-48eb-9560-a44fd573bdc9","system_id":"levelo_inurba_marseille","lat":43.31286,"lon":5.40177,"is_reserved":false,"is_disabled":false,"rental_uris":{"android":"levelo://app?vid=3b912517-0f77-48eb-9560-a44fd573bdc9","ios":"levelo://app?vid=3b912517-0f77-48eb-9560-a44fd573bdc9"},"vehicle_type_id":"4","last_reported":1742242258,"current_range_meters":4400,"station_id":"ce4bhqh2rcd13ifvqhlg","pricing_plan_id":"cebpf4jnsgd1na2vs0mg"},{"bike_id":"acb3134f-a5b6-4efe-9a1c-f396d2d949a9","system_id":"levelo_inurba_marseille","lat":43.29885,"lon":5.38913,"is_reserved":false,"is_disabled":false,"rental_uris":{"android":"levelo://app?vid=acb3134f-a5b6-4efe-9a1c-f396d2d949a9","ios":"levelo://app?vid=acb3134f-a5b6-4efe-9a1c-f396d2d949a9"},"vehicle_type_id":"4","last_reported":1742242258,"current_range_meters":4400,"station_id":"ce4bh392rcd13ifvqdl0","pricing_plan_id":"cebpf4jnsgd1na2vs0mg"},{"bike_id":"89922dd7-6bae-4c41-9de0-e1b71614b8bc","system_id":"levelo_inurba_marseille","lat":43.28935,"lon":5.36644,"is_reserved":false,"is_disabled":false,"rental_uris":{"android":"levelo://app?vid=89922dd7-6bae-4c41-9de0-e1b71614b8bc","ios":"levelo://app?vid=89922dd7-6bae-4c41-9de0-e1b71614b8bc"},"vehicle_type_id":"4","last_reported":1742242258,"current_range_meters":4000,"station_id":"ce4bhap2rcd13ifvqek0","pricing_plan_id":"cebpf4jnsgd1na2vs0mg"},{"bike_id":"d8a7fcbd-d50c-4f79-904d-97d72e044c26","system_id":"levelo_inurba_marseille","lat":43.28667,"lon":5.36358,"is_reserved":false,"is_disabled":false,"rental_uris":{"android":"levelo://app?vid=d8a7fcbd-d50c-4f79-904d-97d72e044c26","ios":"levelo://app?vid=d8a7fcbd-d50c-4f79-904d-97d72e044c26"},"vehicle_type_id":"4","last_reported":1742242258,"current_range_meters":4400,"station_id":"ce4bhah2rcd13ifvqej0","pricing_plan_id":"cebpf4jnsgd1na2vs0mg"},{"bike_id":"d87d01b0-53bb-405d-a34e-24df13294a43","system_id":"levelo_inurba_marseille","lat":43.2919,"lon":5.39355,"is_reserved":false,"is_disabled":true,"rental_uris":{"android":"levelo://app?vid=d87d01b0-53bb-405d-a34e-24df13294a43","ios":"levelo://app?vid=d87d01b0-53bb-405d-a34e-24df13294a43"},"vehicle_type_id":"4","last_reported":1742242258,"current_range_meters":4400,"station_id":"","pricing_plan_id":"cebpf4jnsgd1na2vs0mg"},{"bike_id":"cdf78f28-ac5e-4450-aa2b-e865d389b0b0","system_id":"levelo_inurba_marseille","lat":43.32003,"lon":5.38147,"is_reserved":false,"is_disabled":false,"rental_uris":{"android":"levelo://app?vid=cdf78f28-ac5e-4450-aa2b-e865d389b0b0","ios":"levelo://app?vid=cdf78f28-ac5e-4450-aa2b-e865d389b0b0"},"vehicle_type_id":"4","last_reported":1742242258,"current_range_meters":4400,"station_id":"ce4bhr12rcd13ifvqhpg","pricing_plan_id":"cebpf4jnsgd1na2vs0mg"},{"bike_id":"dcf21b4d-8529-44dd-982b-b5bb454725cd","system_id":"levelo_inurba_marseille","lat":43.2323,"lon":5.40009,"is_reserved":false,"is_disabled":false,"rental_uris":{"android":"levelo://app?vid=dcf21b4d-8529-44dd-982b-b5bb454725cd","ios":"levelo://app?vid=dcf21b4d-8529-44dd-982b-b5bb454725cd"},"vehicle_type_id":"4","last_reported":1742242258,"current_range_meters":4400,"station_id":"ce4bhn12rcd13ifvqgqg","pricing_plan_id":"cebpf4jnsgd1na2vs0mg"},{"bike_id":"031c97e6-49a6-47c8-b6b3-0b7902913ccc","system_id":"levelo_inurba_marseille","lat":43.30195,"lon":5.36627,"is_reserved":false,"is_disabled":false,"rental_uris":{"android":"levelo://app?vid=031c97e6-49a6-47c8-b6b3-0b7902913ccc","ios":"levelo://app?vid=031c97e6-49a6-47c8-b6b3-0b7902913ccc"},"vehicle_type_id":"4","last_reported":1742242258,"current_range_meters":4400,"station_id":"ce4bgrh2rcd13ifvqc8g","pricing_plan_id":"cebpf4jnsgd1na2vs0mg"},{"bike_id":"045f973d-1925-435a-8292-d5911ec233bd","system_id":"levelo_inurba_marseille","lat":43.27659,"lon":5.38923,"is_reserved":false,"is_disabled":true,"rental_uris":{"android":"levelo://app?vid=045f973d-1925-435a-8292-d5911ec233bd","ios":"levelo://app?vid=045f973d-1925-435a-8292-d5911ec233bd"},"vehicle_type_id":"4","last_reported":1742242258,"current_range_meters":4400,"station_id":"ce4bhi12rcd13ifvqfo0","pricing_plan_id":"cebpf4jnsgd1na2vs0mg"},{"bike_id":"f21e3a9b-862d-4056-b21f-50f66db7cc4f","system_id":"levelo_inurba_marseille","lat":43.286011,"lon":5.384951,"is_reserved":false,"is_disabled":false,"rental_uris":{"android":"levelo://app?vid=f21e3a9b-862d-4056-b21f-50f66db7cc4f","ios":"levelo://app?vid=f21e3a9b-862d-4056-b21f-50f66db7cc4f"},"vehicle_type_id":"4","last_reported":1742242258,"current_range_meters":4400,"station_id":"ce4bgup2rcd13ifvqco0","pricing_plan_id":"cebpf4jnsgd1na2vs0mg"},{"bike_id":"259b2a62-eee3-46d4-9ba2-779b7755c371","system_id":"levelo_inurba_marseille","lat":43.26204,"lon":5.37442,"is_reserved":false,"is_disabled":false,"rental_uris":{"android":"levelo://app?vid=259b2a62-eee3-46d4-9ba2-779b7755c371","ios":"levelo://app?vid=259b2a62-eee3-46d4-9ba2-779b7755c371"},"vehicle_type_id":"4","last_reported":1742242258,"current_range_meters":4800,"station_id":"ce4bhgp2rcd13ifvqfc0","pricing_plan_id":"cebpf4jnsgd1na2vs0mg"},{"bike_id":"b1bb1329-d82a-4220-9791-08f3062a9231","system_id":"levelo_inurba_marseille","lat":43.28173,"lon":5.44542,"is_reserved":false,"is_disabled":false,"rental_uris":{"android":"levelo://app?vid=b1bb1329-d82a-4220-9791-08f3062a9231","ios":"levelo://app?vid=b1bb1329-d82a-4220-9791-08f3062a9231"},"vehicle_type_id":"4","last_reported":1742242258,"current_range_meters":4800,"station_id":"","pricing_plan_id":"cebpf4jnsgd1na2vs0mg"},{"bike_id":"5e7401c2-c372-430f-8491-0557cf6a4ff2","system_id":"levelo_inurba_marseille","lat":43.2455,"lon":5.37371,"is_reserved":false,"is_disabled":true,"rental_uris":{"android":"levelo://app?vid=5e7401c2-c372-430f-8491-0557cf6a4ff2","ios":"levelo://app?vid=5e7401c2-c372-430f-8491-0557cf6a4ff2"},"vehicle_type_id":"4","last_reported":1742242258,"current_range_meters":4800,"station_id":"","pricing_plan_id":"cebpf4jnsgd1na2vs0mg"},{"bike_id":"d404ae25-435d-4ee4-8bac-93d54310911e","system_id":"levelo_inurba_marseille","lat":43.31357,"lon":5.38494,"is_reserved":false,"is_disabled":false,"rental_uris":{"android":"levelo://app?vid=d404ae25-435d-4ee4-8bac-93d54310911e","ios":"levelo://app?vid=d404ae25-435d-4ee4-8bac-93d54310911e"},"vehicle_type_id":"4","last_reported":1742242258,"current_range_meters":4800,"station_id":"ce4bgt92rcd13ifvqcf0","pricing_plan_id":"cebpf4jnsgd1na2vs0mg"},{"bike_id":"2d556a99-912f-4137-9db2-dcc7180b7eb5","system_id":"levelo_inurba_marseille","lat":43.29188,"lon":5.3933,"is_reserved":false,"is_disabled":false,"rental_uris":{"android":"levelo://app?vid=2d556a99-912f-4137-9db2-dcc7180b7eb5","ios":"levelo://app?vid=2d556a99-912f-4137-9db2-dcc7180b7eb5"},"vehicle_type_id":"4","last_reported":1742242258,"current_range_meters":4800,"station_id":"ce4bh192rcd13ifvqdd0","pricing_plan_id":"cebpf4jnsgd1na2vs0mg"},{"bike_id":"38e7b6f9-0b7f-403d-8c56-856a9c52de52","system_id":"levelo_inurba_marseille","lat":43.23187,"lon":5.39993,"is_reserved":false,"is_disabled":false,"rental_uris":{"android":"levelo://app?vid=38e7b6f9-0b7f-403d-8c56-856a9c52de52","ios":"levelo://app?vid=38e7b6f9-0b7f-403d-8c56-856a9c52de52"},"vehicle_type_id":"4","last_reported":1742242258,"current_range_meters":4800,"station_id":"ce4bhn12rcd13ifvqgqg","pricing_plan_id":"cebpf4jnsgd1na2vs0mg"},{"bike_id":"0a226886-7099-437b-8bd1-bad0846b8fa3","system_id":"levelo_inurba_marseille","lat":43.27809,"lon":5.40703,"is_reserved":false,"is_disabled":false,"rental_uris":{"android":"levelo://app?vid=0a226886-7099-437b-8bd1-bad0846b8fa3","ios":"levelo://app?vid=0a226886-7099-437b-8bd1-bad0846b8fa3"},"vehicle_type_id":"4","last_reported":1742242258,"current_range_meters":4800,"station_id":"ce4bhnh2rcd13ifvqgtg","pricing_plan_id":"cebpf4jnsgd1na2vs0mg"},{"bike_id":"58f35344-24a1-4566-ad9e-06d295328247","system_id":"levelo_inurba_marseille","lat":43.25112,"lon":5.40321,"is_reserved":false,"is_disabled":false,"rental_uris":{"android":"levelo://app?vid=58f35344-24a1-4566-ad9e-06d295328247","ios":"levelo://app?vid=58f35344-24a1-4566-ad9e-06d295328247"},"vehicle_type_id":"4","last_reported":1742242258,"current_range_meters":4400,"station_id":"ce4bhlh2rcd13ifvqgig","pricing_plan_id":"cebpf4jnsgd1na2vs0mg"},{"bike_id":"5d33ee2e-ab8c-4d48-b2e3-8df7c0b816e1","system_id":"levelo_inurba_marseille","lat":43.23068,"lon":5.35504,"is_reserved":false,"is_disabled":false,"rental_uris":{"android":"levelo://app?vid=5d33ee2e-ab8c-4d48-b2e3-8df7c0b816e1","ios":"levelo://app?vid=5d33ee2e-ab8c-4d48-b2e3-8df7c0b816e1"},"vehicle_type_id":"4","last_reported":1742242258,"current_range_meters":5600,"station_id":"cpo3342slgdg3j2ifvpg","pricing_plan_id":"cebpf4jnsgd1na2vs0mg"},{"bike_id":"6ade1f5f-f388-4064-b121-12943024a161","system_id":"levelo_inurba_marseille","lat":43.284119,"lon":5.375139,"is_reserved":false,"is_disabled":false,"rental_uris":{"android":"levelo://app?vid=6ade1f5f-f388-4064-b121-12943024a161","ios":"levelo://app?vid=6ade1f5f-f388-4064-b121-12943024a161"},"vehicle_type_id":"4","last_reported":1742242258,"current_range_meters":5600,"station_id":"ce4bh012rcd13ifvqcv0","pricing_plan_id":"cebpf4jnsgd1na2vs0mg"},{"bike_id":"13015dac-33d1-4949-b8fd-f466fe852ec0","system_id":"levelo_inurba_marseille","lat":43.28846,"lon":5.39319,"is_reserved":false,"is_disabled":false,"rental_uris":{"android":"levelo://app?vid=13015dac-33d1-4949-b8fd-f466fe852ec0","ios":"levelo://app?vid=13015dac-33d1-4949-b8fd-f466fe852ec0"},"vehicle_type_id":"4","last_reported":1742242258,"current_range_meters":5600,"station_id":"ce4bh2p2rcd13ifvqdi0","pricing_plan_id":"cebpf4jnsgd1na2vs0mg"},{"bike_id":"f31da457-6e9b-4ad6-be1d-5ffba7cbc733","system_id":"levelo_inurba_marseille","lat":43.2501,"lon":5.38962,"is_reserved":false,"is_disabled":false,"rental_uris":{"android":"levelo://app?vid=f31da457-6e9b-4ad6-be1d-5ffba7cbc733","ios":"levelo://app?vid=f31da457-6e9b-4ad6-be1d-5ffba7cbc733"},"vehicle_type_id":"4","last_reported":1742242258,"current_range_meters":5600,"station_id":"ce4bhgp2rcd13ifvqfd0","pricing_plan_id":"cebpf4jnsgd1na2vs0mg"},{"bike_id":"7cdd56c3-bb37-4410-8e87-aed22dd798c8","system_id":"levelo_inurba_marseille","lat":43.29283,"lon":5.40124,"is_reserved":false,"is_disabled":false,"rental_uris":{"android":"levelo://app?vid=7cdd56c3-bb37-4410-8e87-aed22dd798c8","ios":"levelo://app?vid=7cdd56c3-bb37-4410-8e87-aed22dd798c8"},"vehicle_type_id":"4","last_reported":1742242258,"current_range_meters":5600,"station_id":"ce4bh312rcd13ifvqdk0","pricing_plan_id":"cebpf4jnsgd1na2vs0mg"},{"bike_id":"2db41d65-2c09-4782-9a2e-b558284c305a","system_id":"levelo_inurba_marseille","lat":43.2319,"lon":5.3998,"is_reserved":false,"is_disabled":false,"rental_uris":{"android":"levelo://app?vid=2db41d65-2c09-4782-9a2e-b558284c305a","ios":"levelo://app?vid=2db41d65-2c09-4782-9a2e-b558284c305a"},"vehicle_type_id":"4","last_reported":1742242258,"current_range_meters":6000,"station_id":"ce4bhn12rcd13ifvqgqg","pricing_plan_id":"cebpf4jnsgd1na2vs0mg"},{"bike_id":"88531a84-c602-42aa-9e4f-8f2ca29ef55c","system_id":"levelo_inurba_marseille","lat":43.25088,"lon":5.39504,"is_reserved":false,"is_disabled":false,"rental_uris":{"android":"levelo://app?vid=88531a84-c602-42aa-9e4f-8f2ca29ef55c","ios":"levelo://app?vid=88531a84-c602-42aa-9e4f-8f2ca29ef55c"},"vehicle_type_id":"4","last_reported":1742242258,"current_range_meters":5600,"station_id":"ce4bhm12rcd13ifvqgkg","pricing_plan_id":"cebpf4jnsgd1na2vs0mg"},{"bike_id":"2cad790d-8767-4dde-a366-83aeeac91662","system_id":"levelo_inurba_marseille","lat":43.24186,"lon":5.39744,"is_reserved":false,"is_disabled":false,"rental_uris":{"android":"levelo://app?vid=2cad790d-8767-4dde-a366-83aeeac91662","ios":"levelo://app?vid=2cad790d-8767-4dde-a366-83aeeac91662"},"vehicle_type_id":"4","last_reported":1742242258,"current_range_meters":5600,"station_id":"ce4bhn12rcd13ifvqgpg","pricing_plan_id":"cebpf4jnsgd1na2vs0mg"},{"bike_id":"5eb2b7ed-b1a2-44ca-9dff-3a419877d2a2","system_id":"levelo_inurba_marseille","lat":43.28322,"lon":5.35099,"is_reserved":false,"is_disabled":false,"rental_uris":{"android":"levelo://app?vid=5eb2b7ed-b1a2-44ca-9dff-3a419877d2a2","ios":"levelo://app?vid=5eb2b7ed-b1a2-44ca-9dff-3a419877d2a2"},"vehicle_type_id":"4","last_reported":1742242258,"current_range_meters":5600,"station_id":"","pricing_plan_id":"cebpf4jnsgd1na2vs0mg"},{"bike_id":"a156d38d-c587-49b6-879d-43f4f5296b6d","system_id":"levelo_inurba_marseille","lat":43.26585,"lon":5.39024,"is_reserved":false,"is_disabled":true,"rental_uris":{"android":"levelo://app?vid=a156d38d-c587-49b6-879d-43f4f5296b6d","ios":"levelo://app?vid=a156d38d-c587-49b6-879d-43f4f5296b6d"},"vehicle_type_id":"4","last_reported":1742242258,"current_range_meters":5600,"station_id":"ce4bhe12rcd13ifvqf30","pricing_plan_id":"cebpf4jnsgd1na2vs0mg"},{"bike_id":"f6607429-0363-4ebb-bd5d-ea7376bbc338","system_id":"levelo_inurba_marseille","lat":43.29248,"lon":5.40916,"is_reserved":false,"is_disabled":false,"rental_uris":{"android":"levelo://app?vid=f6607429-0363-4ebb-bd5d-ea7376bbc338","ios":"levelo://app?vid=f6607429-0363-4ebb-bd5d-ea7376bbc338"},"vehicle_type_id":"4","last_reported":1742242258,"current_range_meters":6000,"station_id":"ce4bh192rcd13ifvqdc0","pricing_plan_id":"cebpf4jnsgd1na2vs0mg"},{"bike_id":"5d51df14-5445-4b3b-b3a4-6797fe24bcaa","system_id":"levelo_inurba_marseille","lat":43.31753,"lon":5.3902,"is_reserved":false,"is_disabled":false,"rental_uris":{"android":"levelo://app?vid=5d51df14-5445-4b3b-b3a4-6797fe24bcaa","ios":"levelo://app?vid=5d51df14-5445-4b3b-b3a4-6797fe24bcaa"},"vehicle_type_id":"4","last_reported":1742242258,"current_range_meters":5600,"station_id":"ce4bhqp2rcd13ifvqhng","pricing_plan_id":"cebpf4jnsgd1na2vs0mg"},{"bike_id":"e2d1967e-5a56-406d-b78f-650a67b35429","system_id":"levelo_inurba_marseille","lat":43.25095,"lon":5.39528,"is_reserved":false,"is_disabled":false,"rental_uris":{"android":"levelo://app?vid=e2d1967e-5a56-406d-b78f-650a67b35429","ios":"levelo://app?vid=e2d1967e-5a56-406d-b78f-650a67b35429"},"vehicle_type_id":"4","last_reported":1742242258,"current_range_meters":6000,"station_id":"ce4bhm12rcd13ifvqgkg","pricing_plan_id":"cebpf4jnsgd1na2vs0mg"},{"bike_id":"74b30568-d9dc-4b6a-97c8-afdbd4caf854","system_id":"levelo_inurba_marseille","lat":43.29308,"lon":5.37171,"is_reserved":false,"is_disabled":false,"rental_uris":{"android":"levelo://app?vid=74b30568-d9dc-4b6a-97c8-afdbd4caf854","ios":"levelo://app?vid=74b30568-d9dc-4b6a-97c8-afdbd4caf854"},"vehicle_type_id":"4","last_reported":1742242258,"current_range_meters":6000,"station_id":"ce4bgh92rcd13ifvqb40","pricing_plan_id":"cebpf4jnsgd1na2vs0mg"},{"bike_id":"fc8b4acf-ea27-40f5-adda-508c10797a0d","system_id":"levelo_inurba_marseille","lat":43.284797,"lon":5.385614,"is_reserved":false,"is_disabled":false,"rental_uris":{"android":"levelo://app?vid=fc8b4acf-ea27-40f5-adda-508c10797a0d","ios":"levelo://app?vid=fc8b4acf-ea27-40f5-adda-508c10797a0d"},"vehicle_type_id":"4","last_reported":1742242258,"current_range_meters":6000,"station_id":"ce4bh8p2rcd13ifvqeb0","pricing_plan_id":"cebpf4jnsgd1na2vs0mg"},{"bike_id":"a1652038-ac69-46c1-96cf-f0a7292a55cd","system_id":"levelo_inurba_marseille","lat":43.28622,"lon":5.35101,"is_reserved":false,"is_disabled":false,"rental_uris":{"android":"levelo://app?vid=a1652038-ac69-46c1-96cf-f0a7292a55cd","ios":"levelo://app?vid=a1652038-ac69-46c1-96cf-f0a7292a55cd"},"vehicle_type_id":"4","last_reported":1742242258,"current_range_meters":6000,"station_id":"ce4bhch2rcd13ifvqeug","pricing_plan_id":"cebpf4jnsgd1na2vs0mg"},{"bike_id":"cd66ffee-f1cc-44aa-a2d4-ab9c30ed097f","system_id":"levelo_inurba_marseille","lat":43.31485,"lon":5.37282,"is_reserved":false,"is_disabled":false,"rental_uris":{"android":"levelo://app?vid=cd66ffee-f1cc-44aa-a2d4-ab9c30ed097f","ios":"levelo://app?vid=cd66ffee-f1cc-44aa-a2d4-ab9c30ed097f"},"vehicle_type_id":"4","last_reported":1742242258,"current_range_meters":6000,"station_id":"ce4bgt12rcd13ifvqcd0","pricing_plan_id":"cebpf4jnsgd1na2vs0mg"},{"bike_id":"bd95e462-c605-4bd6-b0a6-7ecc3176c361","system_id":"levelo_inurba_marseille","lat":43.271848,"lon":5.409903,"is_reserved":false,"is_disabled":false,"rental_uris":{"android":"levelo://app?vid=bd95e462-c605-4bd6-b0a6-7ecc3176c361","ios":"levelo://app?vid=bd95e462-c605-4bd6-b0a6-7ecc3176c361"},"vehicle_type_id":"4","last_reported":1742242258,"current_range_meters":6000,"station_id":"ce4bhl12rcd13ifvqgf0","pricing_plan_id":"cebpf4jnsgd1na2vs0mg"},{"bike_id":"e76090d8-9555-41bb-877a-c2c40bc3d834","system_id":"levelo_inurba_marseille","lat":43.32137,"lon":5.36796,"is_reserved":false,"is_disabled":false,"rental_uris":{"android":"levelo://app?vid=e76090d8-9555-41bb-877a-c2c40bc3d834","ios":"levelo://app?vid=e76090d8-9555-41bb-877a-c2c40bc3d834"},"vehicle_type_id":"4","last_reported":1742242258,"current_range_meters":6000,"station_id":"ce4bhrh2rcd13ifvqhug","pricing_plan_id":"cebpf4jnsgd1na2vs0mg"},{"bike_id":"3fb52932-5480-41a7-9647-c5a9100c3c67","system_id":"levelo_inurba_marseille","lat":43.32367,"lon":5.38905,"is_reserved":false,"is_disabled":false,"rental_uris":{"android":"levelo://app?vid=3fb52932-5480-41a7-9647-c5a9100c3c67","ios":"levelo://app?vid=3fb52932-5480-41a7-9647-c5a9100c3c67"},"vehicle_type_id":"4","last_reported":1742242258,"current_range_meters":6400,"station_id":"ce4bhqp2rcd13ifvqhog","pricing_plan_id":"cebpf4jnsgd1na2vs0mg"},{"bike_id":"3321b332-d0a2-4d1d-8681-1afa7f086e3f","system_id":"levelo_inurba_marseille","lat":43.26212,"lon":5.3793,"is_reserved":false,"is_disabled":false,"rental_uris":{"android":"levelo://app?vid=3321b332-d0a2-4d1d-8681-1afa7f086e3f","ios":"levelo://app?vid=3321b332-d0a2-4d1d-8681-1afa7f086e3f"},"vehicle_type_id":"4","last_reported":1742242258,"current_range_meters":6400,"station_id":"ce4bhjp2rcd13ifvqg90","pricing_plan_id":"cebpf4jnsgd1na2vs0mg"},{"bike_id":"6f8457d2-6d44-4f73-9a6a-45819482041d","system_id":"levelo_inurba_marseille","lat":43.2843,"lon":5.3754,"is_reserved":false,"is_disabled":true,"rental_uris":{"android":"levelo://app?vid=6f8457d2-6d44-4f73-9a6a-45819482041d","ios":"levelo://app?vid=6f8457d2-6d44-4f73-9a6a-45819482041d"},"vehicle_type_id":"4","last_reported":1742242258,"current_range_meters":6400,"station_id":"ce4bh412rcd13ifvqds0","pricing_plan_id":"cebpf4jnsgd1na2vs0mg"},{"bike_id":"ad137508-29ef-446f-a073-b9a3e8c83017","system_id":"levelo_inurba_marseille","lat":43.24073,"lon":5.37766,"is_reserved":false,"is_disabled":false,"rental_uris":{"android":"levelo://app?vid=ad137508-29ef-446f-a073-b9a3e8c83017","ios":"levelo://app?vid=ad137508-29ef-446f-a073-b9a3e8c83017"},"vehicle_type_id":"4","last_reported":1742242258,"current_range_meters":6400,"station_id":"ce4bhnp2rcd13ifvqgvg","pricing_plan_id":"cebpf4jnsgd1na2vs0mg"},{"bike_id":"2c4ee4ed-0bdd-4d7e-ac58-7a2b12dac02b","system_id":"levelo_inurba_marseille","lat":43.28931,"lon":5.38398,"is_reserved":false,"is_disabled":false,"rental_uris":{"android":"levelo://app?vid=2c4ee4ed-0bdd-4d7e-ac58-7a2b12dac02b","ios":"levelo://app?vid=2c4ee4ed-0bdd-4d7e-ac58-7a2b12dac02b"},"vehicle_type_id":"4","last_reported":1742242258,"current_range_meters":6000,"station_id":"ce4bh612rcd13ifvqe6g","pricing_plan_id":"cebpf4jnsgd1na2vs0mg"},{"bike_id":"14cd229a-e82f-4d5d-bc54-5bd7b491925a","system_id":"levelo_inurba_marseille","lat":43.23179,"lon":5.39978,"is_reserved":false,"is_disabled":false,"rental_uris":{"android":"levelo://app?vid=14cd229a-e82f-4d5d-bc54-5bd7b491925a","ios":"levelo://app?vid=14cd229a-e82f-4d5d-bc54-5bd7b491925a"},"vehicle_type_id":"4","last_reported":1742242258,"current_range_meters":6400,"station_id":"ce4bhn12rcd13ifvqgqg","pricing_plan_id":"cebpf4jnsgd1na2vs0mg"},{"bike_id":"ac4dc6ba-0617-458c-88d0-bf439bcb2146","system_id":"levelo_inurba_marseille","lat":43.31194,"lon":5.38664,"is_reserved":false,"is_disabled":false,"rental_uris":{"android":"levelo://app?vid=ac4dc6ba-0617-458c-88d0-bf439bcb2146","ios":"levelo://app?vid=ac4dc6ba-0617-458c-88d0-bf439bcb2146"},"vehicle_type_id":"4","last_reported":1742242258,"current_range_meters":6400,"station_id":"ce4bgv12rcd13ifvqcp0","pricing_plan_id":"cebpf4jnsgd1na2vs0mg"},{"bike_id":"1ef75c29-84c9-42ba-975c-78a3311d97a3","system_id":"levelo_inurba_marseille","lat":43.26806,"lon":5.40267,"is_reserved":false,"is_disabled":false,"rental_uris":{"android":"levelo://app?vid=1ef75c29-84c9-42ba-975c-78a3311d97a3","ios":"levelo://app?vid=1ef75c29-84c9-42ba-975c-78a3311d97a3"},"vehicle_type_id":"4","last_reported":1742242258,"current_range_meters":6400,"station_id":"ce501612rcd8frsf0b60","pricing_plan_id":"cebpf4jnsgd1na2vs0mg"},{"bike_id":"f549eecf-5f7f-4369-a759-7ecb7c2e7bfd","system_id":"levelo_inurba_marseille","lat":43.28156,"lon":5.4266,"is_reserved":false,"is_disabled":false,"rental_uris":{"android":"levelo://app?vid=f549eecf-5f7f-4369-a759-7ecb7c2e7bfd","ios":"levelo://app?vid=f549eecf-5f7f-4369-a759-7ecb7c2e7bfd"},"vehicle_type_id":"4","last_reported":1742242258,"current_range_meters":6000,"station_id":"ce4bhnh2rcd13ifvqgug","pricing_plan_id":"cebpf4jnsgd1na2vs0mg"},{"bike_id":"10c93e1f-e81e-4936-8264-8c4e6ec0186a","system_id":"levelo_inurba_marseille","lat":43.30891,"lon":5.39665,"is_reserved":false,"is_disabled":false,"rental_uris":{"android":"levelo://app?vid=10c93e1f-e81e-4936-8264-8c4e6ec0186a","ios":"levelo://app?vid=10c93e1f-e81e-4936-8264-8c4e6ec0186a"},"vehicle_type_id":"4","last_reported":1742242258,"current_range_meters":6000,"station_id":"ce4bh012rcd13ifvqcv0","pricing_plan_id":"cebpf4jnsgd1na2vs0mg"},{"bike_id":"427f8971-810b-41c5-adaa-7bb62f1efb21","system_id":"levelo_inurba_marseille","lat":43.24645,"lon":5.389,"is_reserved":false,"is_disabled":false,"rental_uris":{"android":"levelo://app?vid=427f8971-810b-41c5-adaa-7bb62f1efb21","ios":"levelo://app?vid=427f8971-810b-41c5-adaa-7bb62f1efb21"},"vehicle_type_id":"4","last_reported":1742242258,"current_range_meters":6400,"station_id":"ce4bhg12rcd13ifvqf60","pricing_plan_id":"cebpf4jnsgd1na2vs0mg"},{"bike_id":"998e5c7d-9f23-48fa-b1e7-84cb5ede670f","system_id":"levelo_inurba_marseille","lat":43.30246,"lon":5.40058,"is_reserved":false,"is_disabled":false,"rental_uris":{"android":"levelo://app?vid=998e5c7d-9f23-48fa-b1e7-84cb5ede670f","ios":"levelo://app?vid=998e5c7d-9f23-48fa-b1e7-84cb5ede670f"},"vehicle_type_id":"4","last_reported":1742242258,"current_range_meters":6000,"station_id":"ce4bgvh2rcd13ifvqcs0","pricing_plan_id":"cebpf4jnsgd1na2vs0mg"},{"bike_id":"37106548-c642-4825-8f6d-4169541d0641","system_id":"levelo_inurba_marseille","lat":43.282532,"lon":5.350677,"is_reserved":false,"is_disabled":false,"rental_uris":{"android":"levelo://app?vid=37106548-c642-4825-8f6d-4169541d0641","ios":"levelo://app?vid=37106548-c642-4825-8f6d-4169541d0641"},"vehicle_type_id":"4","last_reported":1742242258,"current_range_meters":6400,"station_id":"ce4bhbp2rcd13ifvqerg","pricing_plan_id":"cebpf4jnsgd1na2vs0mg"},{"bike_id":"823852a9-63c9-4771-840a-739b68dc9305","system_id":"levelo_inurba_marseille","lat":43.32294,"lon":5.38279,"is_reserved":false,"is_disabled":false,"rental_uris":{"android":"levelo://app?vid=823852a9-63c9-4771-840a-739b68dc9305","ios":"levelo://app?vid=823852a9-63c9-4771-840a-739b68dc9305"},"vehicle_type_id":"4","last_reported":1742242258,"current_range_meters":6800,"station_id":"ce4bhr12rcd13ifvqhqg","pricing_plan_id":"cebpf4jnsgd1na2vs0mg"},{"bike_id":"d0e26193-8410-406b-9f54-f9888485bddc","system_id":"levelo_inurba_marseille","lat":43.28709,"lon":5.37413,"is_reserved":false,"is_disabled":false,"rental_uris":{"android":"levelo://app?vid=d0e26193-8410-406b-9f54-f9888485bddc","ios":"levelo://app?vid=d0e26193-8410-406b-9f54-f9888485bddc"},"vehicle_type_id":"4","last_reported":1742242258,"current_range_meters":6400,"station_id":"ce4bh3p2rcd13ifvqdq0","pricing_plan_id":"cebpf4jnsgd1na2vs0mg"},{"bike_id":"33c42da6-b1d9-4920-a121-4c36b7719b24","system_id":"levelo_inurba_marseille","lat":43.32539,"lon":5.40027,"is_reserved":false,"is_disabled":false,"rental_uris":{"android":"levelo://app?vid=33c42da6-b1d9-4920-a121-4c36b7719b24","ios":"levelo://app?vid=33c42da6-b1d9-4920-a121-4c36b7719b24"},"vehicle_type_id":"4","last_reported":1742242258,"current_range_meters":8800,"station_id":"","pricing_plan_id":"cebpf4jnsgd1na2vs0mg"},{"bike_id":"ad444683-b04a-47a8-8bc7-20777d82fe90","system_id":"levelo_inurba_marseille","lat":43.28687,"lon":5.3637,"is_reserved":false,"is_disabled":false,"rental_uris":{"android":"levelo://app?vid=ad444683-b04a-47a8-8bc7-20777d82fe90","ios":"levelo://app?vid=ad444683-b04a-47a8-8bc7-20777d82fe90"},"vehicle_type_id":"4","last_reported":1742242258,"current_range_meters":6800,"station_id":"ce4bhah2rcd13ifvqej0","pricing_plan_id":"cebpf4jnsgd1na2vs0mg"},{"bike_id":"cd6bd228-ec34-418f-8538-14abbf44a6a3","system_id":"levelo_inurba_marseille","lat":43.3195,"lon":5.37375,"is_reserved":false,"is_disabled":false,"rental_uris":{"android":"levelo://app?vid=cd6bd228-ec34-418f-8538-14abbf44a6a3","ios":"levelo://app?vid=cd6bd228-ec34-418f-8538-14abbf44a6a3"},"vehicle_type_id":"4","last_reported":1742242258,"current_range_meters":6800,"station_id":"","pricing_plan_id":"cebpf4jnsgd1na2vs0mg"},{"bike_id":"abd48a52-c8cc-4abb-a801-8dce64155a4a","system_id":"levelo_inurba_marseille","lat":43.24999,"lon":5.38934,"is_reserved":false,"is_disabled":false,"rental_uris":{"android":"levelo://app?vid=abd48a52-c8cc-4abb-a801-8dce64155a4a","ios":"levelo://app?vid=abd48a52-c8cc-4abb-a801-8dce64155a4a"},"vehicle_type_id":"4","last_reported":1742242258,"current_range_meters":6800,"station_id":"ce4bhgp2rcd13ifvqfd0","pricing_plan_id":"cebpf4jnsgd1na2vs0mg"},{"bike_id":"e39f083d-4542-4f7b-9173-1e8fe9e09597","system_id":"levelo_inurba_marseille","lat":43.27499,"lon":5.42477,"is_reserved":false,"is_disabled":true,"rental_uris":{"android":"levelo://app?vid=e39f083d-4542-4f7b-9173-1e8fe9e09597","ios":"levelo://app?vid=e39f083d-4542-4f7b-9173-1e8fe9e09597"},"vehicle_type_id":"4","last_reported":1742242258,"current_range_meters":6800,"station_id":"ce4bhn92rcd13ifvqgrg","pricing_plan_id":"cebpf4jnsgd1na2vs0mg"},{"bike_id":"042222c5-bd93-4f8e-9048-81cb0f840b6d","system_id":"levelo_inurba_marseille","lat":43.26558,"lon":5.3728,"is_reserved":false,"is_disabled":false,"rental_uris":{"android":"levelo://app?vid=042222c5-bd93-4f8e-9048-81cb0f840b6d","ios":"levelo://app?vid=042222c5-bd93-4f8e-9048-81cb0f840b6d"},"vehicle_type_id":"4","last_reported":1742242258,"current_range_meters":6800,"station_id":"ce4bhg12rcd13ifvqf70","pricing_plan_id":"cebpf4jnsgd1na2vs0mg"},{"bike_id":"7ee2813e-69f6-4265-9419-65f92f72b34c","system_id":"levelo_inurba_marseille","lat":43.29529,"lon":5.38545,"is_reserved":false,"is_disabled":false,"rental_uris":{"android":"levelo://app?vid=7ee2813e-69f6-4265-9419-65f92f72b34c","ios":"levelo://app?vid=7ee2813e-69f6-4265-9419-65f92f72b34c"},"vehicle_type_id":"4","last_reported":1742242258,"current_range_meters":6800,"station_id":"ce4bgih2rcd13ifvqba0","pricing_plan_id":"cebpf4jnsgd1na2vs0mg"},{"bike_id":"a561f3af-dc1c-4af4-b9a4-ead55b35e495","system_id":"levelo_inurba_marseille","lat":43.23209,"lon":5.3558,"is_reserved":false,"is_disabled":false,"rental_uris":{"android":"levelo://app?vid=a561f3af-dc1c-4af4-b9a4-ead55b35e495","ios":"levelo://app?vid=a561f3af-dc1c-4af4-b9a4-ead55b35e495"},"vehicle_type_id":"4","last_reported":1742242258,"current_range_meters":6800,"station_id":"ce4bhu92rcd13ifvqi70","pricing_plan_id":"cebpf4jnsgd1na2vs0mg"},{"bike_id":"3538692b-7b4d-4b93-bb2c-51fc7db76067","system_id":"levelo_inurba_marseille","lat":43.29429,"lon":5.39757,"is_reserved":false,"is_disabled":false,"rental_uris":{"android":"levelo://app?vid=3538692b-7b4d-4b93-bb2c-51fc7db76067","ios":"levelo://app?vid=3538692b-7b4d-4b93-bb2c-51fc7db76067"},"vehicle_type_id":"4","last_reported":1742242258,"current_range_meters":6400,"station_id":"ce4bh3h2rcd13ifvqdo0","pricing_plan_id":"cebpf4jnsgd1na2vs0mg"},{"bike_id":"4e194969-b722-4cd5-91e4-365eec50b295","system_id":"levelo_inurba_marseille","lat":43.308,"lon":5.38162,"is_reserved":false,"is_disabled":false,"rental_uris":{"android":"levelo://app?vid=4e194969-b722-4cd5-91e4-365eec50b295","ios":"levelo://app?vid=4e194969-b722-4cd5-91e4-365eec50b295"},"vehicle_type_id":"4","last_reported":1742242258,"current_range_meters":6800,"station_id":"ce4bgt12rcd13ifvqce0","pricing_plan_id":"cebpf4jnsgd1na2vs0mg"},{"bike_id":"ab45430f-544a-49d4-b0d3-544a9d16b38e","system_id":"levelo_inurba_marseille","lat":43.29704,"lon":5.36596,"is_reserved":false,"is_disabled":false,"rental_uris":{"android":"levelo://app?vid=ab45430f-544a-49d4-b0d3-544a9d16b38e","ios":"levelo://app?vid=ab45430f-544a-49d4-b0d3-544a9d16b38e"},"vehicle_type_id":"4","last_reported":1742242258,"current_range_meters":6800,"station_id":"ce4bgn12rcd13ifvqbt0","pricing_plan_id":"cebpf4jnsgd1na2vs0mg"},{"bike_id":"39a279e7-f4d5-4437-90a8-72a9c6ddb649","system_id":"levelo_inurba_marseille","lat":43.28009,"lon":5.41675,"is_reserved":false,"is_disabled":false,"rental_uris":{"android":"levelo://app?vid=39a279e7-f4d5-4437-90a8-72a9c6ddb649","ios":"levelo://app?vid=39a279e7-f4d5-4437-90a8-72a9c6ddb649"},"vehicle_type_id":"4","last_reported":1742242258,"current_range_meters":6800,"station_id":"ce4bho12rcd13ifvqh1g","pricing_plan_id":"cebpf4jnsgd1na2vs0mg"},{"bike_id":"5fd22f49-6a13-4e1c-8d15-51aa2b4f997a","system_id":"levelo_inurba_marseille","lat":43.2923,"lon":5.36077,"is_reserved":false,"is_disabled":false,"rental_uris":{"android":"levelo://app?vid=5fd22f49-6a13-4e1c-8d15-51aa2b4f997a","ios":"levelo://app?vid=5fd22f49-6a13-4e1c-8d15-51aa2b4f997a"},"vehicle_type_id":"4","last_reported":1742242258,"current_range_meters":6800,"station_id":"ce4bhbh2rcd13ifvqeqg","pricing_plan_id":"cebpf4jnsgd1na2vs0mg"},{"bike_id":"4d1a8aeb-f96d-43ff-911b-66984650da28","system_id":"levelo_inurba_marseille","lat":43.27512,"lon":5.42485,"is_reserved":false,"is_disabled":true,"rental_uris":{"android":"levelo://app?vid=4d1a8aeb-f96d-43ff-911b-66984650da28","ios":"levelo://app?vid=4d1a8aeb-f96d-43ff-911b-66984650da28"},"vehicle_type_id":"4","last_reported":1742242258,"current_range_meters":6800,"station_id":"ce4bhn92rcd13ifvqgrg","pricing_plan_id":"cebpf4jnsgd1na2vs0mg"},{"bike_id":"3892f3b2-aaae-4739-afe1-be38e6d2b02b","system_id":"levelo_inurba_marseille","lat":43.29525,"lon":5.39047,"is_reserved":false,"is_disabled":false,"rental_uris":{"android":"levelo://app?vid=3892f3b2-aaae-4739-afe1-be38e6d2b02b","ios":"levelo://app?vid=3892f3b2-aaae-4739-afe1-be38e6d2b02b"},"vehicle_type_id":"4","last_reported":1742242258,"current_range_meters":6800,"station_id":"ce4bh3p2rcd13ifvqdp0","pricing_plan_id":"cebpf4jnsgd1na2vs0mg"},{"bike_id":"74620aff-b1f0-4b60-8841-bc8a0a2edc3e","system_id":"levelo_inurba_marseille","lat":43.23193,"lon":5.35561,"is_reserved":false,"is_disabled":false,"rental_uris":{"android":"levelo://app?vid=74620aff-b1f0-4b60-8841-bc8a0a2edc3e","ios":"levelo://app?vid=74620aff-b1f0-4b60-8841-bc8a0a2edc3e"},"vehicle_type_id":"4","last_reported":1742242258,"current_range_meters":7200,"station_id":"ce4bhu92rcd13ifvqi70","pricing_plan_id":"cebpf4jnsgd1na2vs0mg"},{"bike_id":"ef9b20c2-24a5-462d-8f71-a0b89cbc915f","system_id":"levelo_inurba_marseille","lat":43.26038,"lon":5.41754,"is_reserved":false,"is_disabled":false,"rental_uris":{"android":"levelo://app?vid=ef9b20c2-24a5-462d-8f71-a0b89cbc915f","ios":"levelo://app?vid=ef9b20c2-24a5-462d-8f71-a0b89cbc915f"},"vehicle_type_id":"4","last_reported":1742242258,"current_range_meters":7200,"station_id":"","pricing_plan_id":"cebpf4jnsgd1na2vs0mg"},{"bike_id":"32885cbe-fe22-4609-9df0-91896a5b0c0e","system_id":"levelo_inurba_marseille","lat":43.28507,"lon":5.38453,"is_reserved":false,"is_disabled":false,"rental_uris":{"android":"levelo://app?vid=32885cbe-fe22-4609-9df0-91896a5b0c0e","ios":"levelo://app?vid=32885cbe-fe22-4609-9df0-91896a5b0c0e"},"vehicle_type_id":"4","last_reported":1742242258,"current_range_meters":7200,"station_id":"ce4bh512rcd13ifvqe3g","pricing_plan_id":"cebpf4jnsgd1na2vs0mg"},{"bike_id":"2fe6b5d4-c6f7-40d2-9a0b-4798d57f392b","system_id":"levelo_inurba_marseille","lat":43.23062,"lon":5.35493,"is_reserved":false,"is_disabled":false,"rental_uris":{"android":"levelo://app?vid=2fe6b5d4-c6f7-40d2-9a0b-4798d57f392b","ios":"levelo://app?vid=2fe6b5d4-c6f7-40d2-9a0b-4798d57f392b"},"vehicle_type_id":"4","last_reported":1742242258,"current_range_meters":7200,"station_id":"cpo3342slgdg3j2ifvpg","pricing_plan_id":"cebpf4jnsgd1na2vs0mg"},{"bike_id":"eb2324ae-6d73-4dfe-93dc-cd4f0dffd928","system_id":"levelo_inurba_marseille","lat":43.27981,"lon":5.41657,"is_reserved":false,"is_disabled":false,"rental_uris":{"android":"levelo://app?vid=eb2324ae-6d73-4dfe-93dc-cd4f0dffd928","ios":"levelo://app?vid=eb2324ae-6d73-4dfe-93dc-cd4f0dffd928"},"vehicle_type_id":"4","last_reported":1742242258,"current_range_meters":7200,"station_id":"ce4bho12rcd13ifvqh1g","pricing_plan_id":"cebpf4jnsgd1na2vs0mg"},{"bike_id":"021238b5-2b9d-46d2-b80c-a5e816fdc135","system_id":"levelo_inurba_marseille","lat":43.29517,"lon":5.42489,"is_reserved":false,"is_disabled":false,"rental_uris":{"android":"levelo://app?vid=021238b5-2b9d-46d2-b80c-a5e816fdc135","ios":"levelo://app?vid=021238b5-2b9d-46d2-b80c-a5e816fdc135"},"vehicle_type_id":"4","last_reported":1742242258,"current_range_meters":7200,"station_id":"","pricing_plan_id":"cebpf4jnsgd1na2vs0mg"},{"bike_id":"8f8fc798-3452-42ff-9082-05d2395291b8","system_id":"levelo_inurba_marseille","lat":43.31528,"lon":5.38038,"is_reserved":false,"is_disabled":false,"rental_uris":{"android":"levelo://app?vid=8f8fc798-3452-42ff-9082-05d2395291b8","ios":"levelo://app?vid=8f8fc798-3452-42ff-9082-05d2395291b8"},"vehicle_type_id":"4","last_reported":1742242258,"current_range_meters":7200,"station_id":"ce4bhsp2rcd13ifvqi50","pricing_plan_id":"cebpf4jnsgd1na2vs0mg"},{"bike_id":"4a82e9fa-897e-4db9-9848-eca7bdecdfdc","system_id":"levelo_inurba_marseille","lat":43.27903,"lon":5.38228,"is_reserved":false,"is_disabled":false,"rental_uris":{"android":"levelo://app?vid=4a82e9fa-897e-4db9-9848-eca7bdecdfdc","ios":"levelo://app?vid=4a82e9fa-897e-4db9-9848-eca7bdecdfdc"},"vehicle_type_id":"4","last_reported":1742242258,"current_range_meters":7200,"station_id":"","pricing_plan_id":"cebpf4jnsgd1na2vs0mg"},{"bike_id":"6b8ffa9f-0e09-4bfb-a7c9-f730a8d18a65","system_id":"levelo_inurba_marseille","lat":43.24379,"lon":5.37053,"is_reserved":false,"is_disabled":false,"rental_uris":{"android":"levelo://app?vid=6b8ffa9f-0e09-4bfb-a7c9-f730a8d18a65","ios":"levelo://app?vid=6b8ffa9f-0e09-4bfb-a7c9-f730a8d18a65"},"vehicle_type_id":"4","last_reported":1742242258,"current_range_meters":7200,"station_id":"ce4bhhh2rcd13ifvqfk0","pricing_plan_id":"cebpf4jnsgd1na2vs0mg"},{"bike_id":"2b7011fc-7dee-42c2-86d6-7293fa23c29b","system_id":"levelo_inurba_marseille","lat":43.286136,"lon":5.35108,"is_reserved":false,"is_disabled":true,"rental_uris":{"android":"levelo://app?vid=2b7011fc-7dee-42c2-86d6-7293fa23c29b","ios":"levelo://app?vid=2b7011fc-7dee-42c2-86d6-7293fa23c29b"},"vehicle_type_id":"4","last_reported":1742242258,"current_range_meters":7200,"station_id":"","pricing_plan_id":"cebpf4jnsgd1na2vs0mg"},{"bike_id":"27feb242-bd74-463b-8638-acb781391fc8","system_id":"levelo_inurba_marseille","lat":43.29263,"lon":5.38454,"is_reserved":false,"is_disabled":false,"rental_uris":{"android":"levelo://app?vid=27feb242-bd74-463b-8638-acb781391fc8","ios":"levelo://app?vid=27feb242-bd74-463b-8638-acb781391fc8"},"vehicle_type_id":"4","last_reported":1742242258,"current_range_meters":7200,"station_id":"ce4bh692rcd13ifvqea0","pricing_plan_id":"cebpf4jnsgd1na2vs0mg"},{"bike_id":"9dcb622a-e621-4cef-b659-02a845217b91","system_id":"levelo_inurba_marseille","lat":43.32364,"lon":5.38917,"is_reserved":false,"is_disabled":false,"rental_uris":{"android":"levelo://app?vid=9dcb622a-e621-4cef-b659-02a845217b91","ios":"levelo://app?vid=9dcb622a-e621-4cef-b659-02a845217b91"},"vehicle_type_id":"4","last_reported":1742242258,"current_range_meters":8000,"station_id":"ce4bhqp2rcd13ifvqhog","pricing_plan_id":"cebpf4jnsgd1na2vs0mg"},{"bike_id":"807d1c46-1543-4f63-8003-0d789a8aaaa9","system_id":"levelo_inurba_marseille","lat":43.27951,"lon":5.41069,"is_reserved":false,"is_disabled":false,"rental_uris":{"android":"levelo://app?vid=807d1c46-1543-4f63-8003-0d789a8aaaa9","ios":"levelo://app?vid=807d1c46-1543-4f63-8003-0d789a8aaaa9"},"vehicle_type_id":"4","last_reported":1742242258,"current_range_meters":8000,"station_id":"ce4bhnp2rcd13ifvqh0g","pricing_plan_id":"cebpf4jnsgd1na2vs0mg"},{"bike_id":"b6a4cbb2-eca5-452d-adc3-e3b8db76a433","system_id":"levelo_inurba_marseille","lat":43.30798,"lon":5.38154,"is_reserved":false,"is_disabled":false,"rental_uris":{"android":"levelo://app?vid=b6a4cbb2-eca5-452d-adc3-e3b8db76a433","ios":"levelo://app?vid=b6a4cbb2-eca5-452d-adc3-e3b8db76a433"},"vehicle_type_id":"4","last_reported":1742242258,"current_range_meters":8000,"station_id":"ce4bgt12rcd13ifvqce0","pricing_plan_id":"cebpf4jnsgd1na2vs0mg"},{"bike_id":"e30db461-2896-49e3-9534-e748842ec47f","system_id":"levelo_inurba_marseille","lat":43.27828,"lon":5.3921,"is_reserved":false,"is_disabled":false,"rental_uris":{"android":"levelo://app?vid=e30db461-2896-49e3-9534-e748842ec47f","ios":"levelo://app?vid=e30db461-2896-49e3-9534-e748842ec47f"},"vehicle_type_id":"4","last_reported":1742242258,"current_range_meters":8000,"station_id":"ce4bhjp2rcd13ifvqga0","pricing_plan_id":"cebpf4jnsgd1na2vs0mg"},{"bike_id":"f20a4cac-a22f-44f0-9f0d-5ab44aaa6009","system_id":"levelo_inurba_marseille","lat":43.30766,"lon":5.38161,"is_reserved":false,"is_disabled":false,"rental_uris":{"android":"levelo://app?vid=f20a4cac-a22f-44f0-9f0d-5ab44aaa6009","ios":"levelo://app?vid=f20a4cac-a22f-44f0-9f0d-5ab44aaa6009"},"vehicle_type_id":"4","last_reported":1742242258,"current_range_meters":8000,"station_id":"ce4bgt12rcd13ifvqce0","pricing_plan_id":"cebpf4jnsgd1na2vs0mg"},{"bike_id":"1eef6fe9-8462-4804-b1c7-1b92116f17de","system_id":"levelo_inurba_marseille","lat":43.31756,"lon":5.39015,"is_reserved":false,"is_disabled":false,"rental_uris":{"android":"levelo://app?vid=1eef6fe9-8462-4804-b1c7-1b92116f17de","ios":"levelo://app?vid=1eef6fe9-8462-4804-b1c7-1b92116f17de"},"vehicle_type_id":"4","last_reported":1742242258,"current_range_meters":8000,"station_id":"ce4bhqp2rcd13ifvqhng","pricing_plan_id":"cebpf4jnsgd1na2vs0mg"},{"bike_id":"9ee8265a-0fdc-4849-933f-8351e6c3b1de","system_id":"levelo_inurba_marseille","lat":43.23197,"lon":5.4,"is_reserved":false,"is_disabled":false,"rental_uris":{"android":"levelo://app?vid=9ee8265a-0fdc-4849-933f-8351e6c3b1de","ios":"levelo://app?vid=9ee8265a-0fdc-4849-933f-8351e6c3b1de"},"vehicle_type_id":"4","last_reported":1742242258,"current_range_meters":8000,"station_id":"ce4bhn12rcd13ifvqgqg","pricing_plan_id":"cebpf4jnsgd1na2vs0mg"},{"bike_id":"0a018086-283c-4259-a1ff-a9304b066761","system_id":"levelo_inurba_marseille","lat":43.25036,"lon":5.38936,"is_reserved":false,"is_disabled":false,"rental_uris":{"android":"levelo://app?vid=0a018086-283c-4259-a1ff-a9304b066761","ios":"levelo://app?vid=0a018086-283c-4259-a1ff-a9304b066761"},"vehicle_type_id":"4","last_reported":1742242258,"current_range_meters":8000,"station_id":"ce4bhgp2rcd13ifvqfd0","pricing_plan_id":"cebpf4jnsgd1na2vs0mg"},{"bike_id":"504058d3-8b58-4662-bea1-d081350dc179","system_id":"levelo_inurba_marseille","lat":43.30808,"lon":5.37661,"is_reserved":false,"is_disabled":false,"rental_uris":{"android":"levelo://app?vid=504058d3-8b58-4662-bea1-d081350dc179","ios":"levelo://app?vid=504058d3-8b58-4662-bea1-d081350dc179"},"vehicle_type_id":"4","last_reported":1742242258,"current_range_meters":8400,"station_id":"ce4bgv92rcd13ifvqcq0","pricing_plan_id":"cebpf4jnsgd1na2vs0mg"},{"bike_id":"53ab00e4-31d4-4dc9-89ac-04c49d2b883d","system_id":"levelo_inurba_marseille","lat":43.25722,"lon":5.41114,"is_reserved":false,"is_disabled":false,"rental_uris":{"android":"levelo://app?vid=53ab00e4-31d4-4dc9-89ac-04c49d2b883d","ios":"levelo://app?vid=53ab00e4-31d4-4dc9-89ac-04c49d2b883d"},"vehicle_type_id":"4","last_reported":1742242258,"current_range_meters":8400,"station_id":"ce4bhkp2rcd13ifvqgd0","pricing_plan_id":"cebpf4jnsgd1na2vs0mg"},{"bike_id":"43ac644e-f900-485f-a519-d690d528fa1f","system_id":"levelo_inurba_marseille","lat":43.27815,"lon":5.40717,"is_reserved":false,"is_disabled":false,"rental_uris":{"android":"levelo://app?vid=43ac644e-f900-485f-a519-d690d528fa1f","ios":"levelo://app?vid=43ac644e-f900-485f-a519-d690d528fa1f"},"vehicle_type_id":"4","last_reported":1742242258,"current_range_meters":8400,"station_id":"ce4bhnh2rcd13ifvqgtg","pricing_plan_id":"cebpf4jnsgd1na2vs0mg"},{"bike_id":"4486e4c1-2e70-4b23-83ce-b997339a97bb","system_id":"levelo_inurba_marseille","lat":43.24078,"lon":5.37761,"is_reserved":false,"is_disabled":false,"rental_uris":{"android":"levelo://app?vid=4486e4c1-2e70-4b23-83ce-b997339a97bb","ios":"levelo://app?vid=4486e4c1-2e70-4b23-83ce-b997339a97bb"},"vehicle_type_id":"4","last_reported":1742242258,"current_range_meters":8400,"station_id":"ce4bhnp2rcd13ifvqgvg","pricing_plan_id":"cebpf4jnsgd1na2vs0mg"},{"bike_id":"0d126537-def7-47c3-bba6-892f83e3c00f","system_id":"levelo_inurba_marseille","lat":43.24997,"lon":5.38936,"is_reserved":false,"is_disabled":false,"rental_uris":{"android":"levelo://app?vid=0d126537-def7-47c3-bba6-892f83e3c00f","ios":"levelo://app?vid=0d126537-def7-47c3-bba6-892f83e3c00f"},"vehicle_type_id":"4","last_reported":1742242258,"current_range_meters":8400,"station_id":"ce4bhgp2rcd13ifvqfd0","pricing_plan_id":"cebpf4jnsgd1na2vs0mg"},{"bike_id":"02934310-0268-4638-988d-60c999bc8dee","system_id":"levelo_inurba_marseille","lat":43.29168,"lon":5.37167,"is_reserved":false,"is_disabled":false,"rental_uris":{"android":"levelo://app?vid=02934310-0268-4638-988d-60c999bc8dee","ios":"levelo://app?vid=02934310-0268-4638-988d-60c999bc8dee"},"vehicle_type_id":"4","last_reported":1742242258,"current_range_meters":8400,"station_id":"ce4bha92rcd13ifvqeh0","pricing_plan_id":"cebpf4jnsgd1na2vs0mg"},{"bike_id":"b8daf430-b3ea-455f-bfd8-56a8ee5673d2","system_id":"levelo_inurba_marseille","lat":43.28436,"lon":5.35005,"is_reserved":false,"is_disabled":false,"rental_uris":{"android":"levelo://app?vid=b8daf430-b3ea-455f-bfd8-56a8ee5673d2","ios":"levelo://app?vid=b8daf430-b3ea-455f-bfd8-56a8ee5673d2"},"vehicle_type_id":"4","last_reported":1742242258,"current_range_meters":8400,"station_id":"ce4bhbh2rcd13ifvqepg","pricing_plan_id":"cebpf4jnsgd1na2vs0mg"},{"bike_id":"4d46e037-8954-462a-b34f-64963174e243","system_id":"levelo_inurba_marseille","lat":43.28151,"lon":5.4265,"is_reserved":false,"is_disabled":false,"rental_uris":{"android":"levelo://app?vid=4d46e037-8954-462a-b34f-64963174e243","ios":"levelo://app?vid=4d46e037-8954-462a-b34f-64963174e243"},"vehicle_type_id":"4","last_reported":1742242258,"current_range_meters":8400,"station_id":"ce4bhnh2rcd13ifvqgug","pricing_plan_id":"cebpf4jnsgd1na2vs0mg"},{"bike_id":"73ba6054-b256-49f9-a881-8617a962027d","system_id":"levelo_inurba_marseille","lat":43.23055,"lon":5.35506,"is_reserved":false,"is_disabled":false,"rental_uris":{"android":"levelo://app?vid=73ba6054-b256-49f9-a881-8617a962027d","ios":"levelo://app?vid=73ba6054-b256-49f9-a881-8617a962027d"},"vehicle_type_id":"4","last_reported":1742242258,"current_range_meters":8400,"station_id":"cpo3342slgdg3j2ifvpg","pricing_plan_id":"cebpf4jnsgd1na2vs0mg"},{"bike_id":"d1676c12-45d0-460a-ab7d-e6bd42a8628c","system_id":"levelo_inurba_marseille","lat":43.25944,"lon":5.40914,"is_reserved":false,"is_disabled":false,"rental_uris":{"android":"levelo://app?vid=d1676c12-45d0-460a-ab7d-e6bd42a8628c","ios":"levelo://app?vid=d1676c12-45d0-460a-ab7d-e6bd42a8628c"},"vehicle_type_id":"4","last_reported":1742242258,"current_range_meters":8400,"station_id":"ce4bhm92rcd13ifvqglg","pricing_plan_id":"cebpf4jnsgd1na2vs0mg"},{"bike_id":"e95151cd-abc4-4dae-8ab5-1de4cba734f5","system_id":"levelo_inurba_marseille","lat":43.24216,"lon":5.39734,"is_reserved":false,"is_disabled":false,"rental_uris":{"android":"levelo://app?vid=e95151cd-abc4-4dae-8ab5-1de4cba734f5","ios":"levelo://app?vid=e95151cd-abc4-4dae-8ab5-1de4cba734f5"},"vehicle_type_id":"4","last_reported":1742242258,"current_range_meters":8400,"station_id":"ce4bhn12rcd13ifvqgpg","pricing_plan_id":"cebpf4jnsgd1na2vs0mg"},{"bike_id":"b0d4f5f0-79ce-4a3f-92ac-2959ecb2dee0","system_id":"levelo_inurba_marseille","lat":43.33019,"lon":5.39037,"is_reserved":false,"is_disabled":false,"rental_uris":{"android":"levelo://app?vid=b0d4f5f0-79ce-4a3f-92ac-2959ecb2dee0","ios":"levelo://app?vid=b0d4f5f0-79ce-4a3f-92ac-2959ecb2dee0"},"vehicle_type_id":"4","last_reported":1742242258,"current_range_meters":8400,"station_id":"ce4bhr92rcd13ifvqhrg","pricing_plan_id":"cebpf4jnsgd1na2vs0mg"},{"bike_id":"439992a4-19b5-451a-a31f-1abe11c36874","system_id":"levelo_inurba_marseille","lat":43.29568,"lon":5.3998,"is_reserved":false,"is_disabled":false,"rental_uris":{"android":"levelo://app?vid=439992a4-19b5-451a-a31f-1abe11c36874","ios":"levelo://app?vid=439992a4-19b5-451a-a31f-1abe11c36874"},"vehicle_type_id":"4","last_reported":1742242258,"current_range_meters":8400,"station_id":"ce4bh312rcd13ifvqdj0","pricing_plan_id":"cebpf4jnsgd1na2vs0mg"},{"bike_id":"43242342-73bc-4a76-a912-16362c9b752f","system_id":"levelo_inurba_marseille","lat":43.2408,"lon":5.3776,"is_reserved":false,"is_disabled":false,"rental_uris":{"android":"levelo://app?vid=43242342-73bc-4a76-a912-16362c9b752f","ios":"levelo://app?vid=43242342-73bc-4a76-a912-16362c9b752f"},"vehicle_type_id":"4","last_reported":1742242258,"current_range_meters":8400,"station_id":"ce4bhnp2rcd13ifvqgvg","pricing_plan_id":"cebpf4jnsgd1na2vs0mg"},{"bike_id":"6bdcc57c-a96e-4660-9fb4-5ebbf0121221","system_id":"levelo_inurba_marseille","lat":43.29792,"lon":5.38102,"is_reserved":false,"is_disabled":false,"rental_uris":{"android":"levelo://app?vid=6bdcc57c-a96e-4660-9fb4-5ebbf0121221","ios":"levelo://app?vid=6bdcc57c-a96e-4660-9fb4-5ebbf0121221"},"vehicle_type_id":"4","last_reported":1742242258,"current_range_meters":8400,"station_id":"ce4bgip2rcd13ifvqbb0","pricing_plan_id":"cebpf4jnsgd1na2vs0mg"},{"bike_id":"ad83eb77-dce3-4da6-bf0f-c4e4e7949433","system_id":"levelo_inurba_marseille","lat":43.27827,"lon":5.40713,"is_reserved":false,"is_disabled":false,"rental_uris":{"android":"levelo://app?vid=ad83eb77-dce3-4da6-bf0f-c4e4e7949433","ios":"levelo://app?vid=ad83eb77-dce3-4da6-bf0f-c4e4e7949433"},"vehicle_type_id":"4","last_reported":1742242258,"current_range_meters":8400,"station_id":"ce4bhnh2rcd13ifvqgtg","pricing_plan_id":"cebpf4jnsgd1na2vs0mg"},{"bike_id":"8dbb26b9-36b3-4302-a5f4-aedc5ce193db","system_id":"levelo_inurba_marseille","lat":43.27947,"lon":5.41049,"is_reserved":false,"is_disabled":false,"rental_uris":{"android":"levelo://app?vid=8dbb26b9-36b3-4302-a5f4-aedc5ce193db","ios":"levelo://app?vid=8dbb26b9-36b3-4302-a5f4-aedc5ce193db"},"vehicle_type_id":"4","last_reported":1742242258,"current_range_meters":8400,"station_id":"ce4bhnp2rcd13ifvqh0g","pricing_plan_id":"cebpf4jnsgd1na2vs0mg"},{"bike_id":"dd117a7c-a536-40a1-91af-43693b0b8fe5","system_id":"levelo_inurba_marseille","lat":43.25941,"lon":5.40896,"is_reserved":false,"is_disabled":false,"rental_uris":{"android":"levelo://app?vid=dd117a7c-a536-40a1-91af-43693b0b8fe5","ios":"levelo://app?vid=dd117a7c-a536-40a1-91af-43693b0b8fe5"},"vehicle_type_id":"4","last_reported":1742242258,"current_range_meters":8400,"station_id":"ce4bhm92rcd13ifvqglg","pricing_plan_id":"cebpf4jnsgd1na2vs0mg"},{"bike_id":"ee6fabc2-7f33-4574-877a-5df1fea178f3","system_id":"levelo_inurba_marseille","lat":43.27831,"lon":5.39215,"is_reserved":false,"is_disabled":false,"rental_uris":{"android":"levelo://app?vid=ee6fabc2-7f33-4574-877a-5df1fea178f3","ios":"levelo://app?vid=ee6fabc2-7f33-4574-877a-5df1fea178f3"},"vehicle_type_id":"4","last_reported":1742242258,"current_range_meters":8400,"station_id":"ce4bhjp2rcd13ifvqga0","pricing_plan_id":"cebpf4jnsgd1na2vs0mg"},{"bike_id":"8bb506b9-7de1-4374-8919-0b5fa658ee3d","system_id":"levelo_inurba_marseille","lat":43.29732,"lon":5.37715,"is_reserved":false,"is_disabled":false,"rental_uris":{"android":"levelo://app?vid=8bb506b9-7de1-4374-8919-0b5fa658ee3d","ios":"levelo://app?vid=8bb506b9-7de1-4374-8919-0b5fa658ee3d"},"vehicle_type_id":"4","last_reported":1742242258,"current_range_meters":8400,"station_id":"ce4bgkh2rcd13ifvqbl0","pricing_plan_id":"cebpf4jnsgd1na2vs0mg"},{"bike_id":"4d35af38-e078-4d87-8ec4-ceb367e0ff1d","system_id":"levelo_inurba_marseille","lat":43.25865,"lon":5.399,"is_reserved":false,"is_disabled":false,"rental_uris":{"android":"levelo://app?vid=4d35af38-e078-4d87-8ec4-ceb367e0ff1d","ios":"levelo://app?vid=4d35af38-e078-4d87-8ec4-ceb367e0ff1d"},"vehicle_type_id":"4","last_reported":1742242258,"current_range_meters":8400,"station_id":"ce4bhl92rcd13ifvqghg","pricing_plan_id":"cebpf4jnsgd1na2vs0mg"},{"bike_id":"5e31fbed-d4b7-49e5-97ef-d23adbdbc443","system_id":"levelo_inurba_marseille","lat":43.25735,"lon":5.41142,"is_reserved":false,"is_disabled":false,"rental_uris":{"android":"levelo://app?vid=5e31fbed-d4b7-49e5-97ef-d23adbdbc443","ios":"levelo://app?vid=5e31fbed-d4b7-49e5-97ef-d23adbdbc443"},"vehicle_type_id":"4","last_reported":1742242258,"current_range_meters":8400,"station_id":"ce4bhkp2rcd13ifvqgd0","pricing_plan_id":"cebpf4jnsgd1na2vs0mg"},{"bike_id":"b63375e6-a141-4d31-bc4f-d983a9fde0aa","system_id":"levelo_inurba_marseille","lat":43.28921,"lon":5.38412,"is_reserved":false,"is_disabled":false,"rental_uris":{"android":"levelo://app?vid=b63375e6-a141-4d31-bc4f-d983a9fde0aa","ios":"levelo://app?vid=b63375e6-a141-4d31-bc4f-d983a9fde0aa"},"vehicle_type_id":"4","last_reported":1742242258,"current_range_meters":8400,"station_id":"ce4bh612rcd13ifvqe6g","pricing_plan_id":"cebpf4jnsgd1na2vs0mg"},{"bike_id":"b192fb9f-b5c2-40b6-937d-ef4443407780","system_id":"levelo_inurba_marseille","lat":43.29933,"lon":5.38154,"is_reserved":false,"is_disabled":false,"rental_uris":{"android":"levelo://app?vid=b192fb9f-b5c2-40b6-937d-ef4443407780","ios":"levelo://app?vid=b192fb9f-b5c2-40b6-937d-ef4443407780"},"vehicle_type_id":"4","last_reported":1742242258,"current_range_meters":8800,"station_id":"ce4bgj12rcd13ifvqbc0","pricing_plan_id":"cebpf4jnsgd1na2vs0mg"},{"bike_id":"ba22b769-c7e4-474a-a7e5-3ff558251ffd","system_id":"levelo_inurba_marseille","lat":43.25558,"lon":5.38222,"is_reserved":false,"is_disabled":false,"rental_uris":{"android":"levelo://app?vid=ba22b769-c7e4-474a-a7e5-3ff558251ffd","ios":"levelo://app?vid=ba22b769-c7e4-474a-a7e5-3ff558251ffd"},"vehicle_type_id":"4","last_reported":1742242258,"current_range_meters":8800,"station_id":"ce4bhih2rcd13ifvqfs0","pricing_plan_id":"cebpf4jnsgd1na2vs0mg"},{"bike_id":"83ceee1d-1616-4f83-944f-c35e764db95d","system_id":"levelo_inurba_marseille","lat":43.29909,"lon":5.38152,"is_reserved":false,"is_disabled":true,"rental_uris":{"android":"levelo://app?vid=83ceee1d-1616-4f83-944f-c35e764db95d","ios":"levelo://app?vid=83ceee1d-1616-4f83-944f-c35e764db95d"},"vehicle_type_id":"4","last_reported":1742242258,"current_range_meters":8800,"station_id":"ce4bgj12rcd13ifvqbc0","pricing_plan_id":"cebpf4jnsgd1na2vs0mg"},{"bike_id":"fa5f15ab-8994-45e1-84de-31aa4c8b3ced","system_id":"levelo_inurba_marseille","lat":43.232,"lon":5.35564,"is_reserved":false,"is_disabled":false,"rental_uris":{"android":"levelo://app?vid=fa5f15ab-8994-45e1-84de-31aa4c8b3ced","ios":"levelo://app?vid=fa5f15ab-8994-45e1-84de-31aa4c8b3ced"},"vehicle_type_id":"4","last_reported":1742242258,"current_range_meters":8800,"station_id":"ce4bhu92rcd13ifvqi70","pricing_plan_id":"cebpf4jnsgd1na2vs0mg"},{"bike_id":"2ce0b431-e8c7-4fef-8776-b9362a59ef66","system_id":"levelo_inurba_marseille","lat":43.31707,"lon":5.37745,"is_reserved":false,"is_disabled":false,"rental_uris":{"android":"levelo://app?vid=2ce0b431-e8c7-4fef-8776-b9362a59ef66","ios":"levelo://app?vid=2ce0b431-e8c7-4fef-8776-b9362a59ef66"},"vehicle_type_id":"4","last_reported":1742242258,"current_range_meters":8800,"station_id":"ce4bgth2rcd13ifvqch0","pricing_plan_id":"cebpf4jnsgd1na2vs0mg"},{"bike_id":"9f8a2eb4-a661-42c3-8b1d-1593d1b5f4b1","system_id":"levelo_inurba_marseille","lat":43.29511,"lon":5.37495,"is_reserved":false,"is_disabled":false,"rental_uris":{"android":"levelo://app?vid=9f8a2eb4-a661-42c3-8b1d-1593d1b5f4b1","ios":"levelo://app?vid=9f8a2eb4-a661-42c3-8b1d-1593d1b5f4b1"},"vehicle_type_id":"4","last_reported":1742242258,"current_range_meters":8800,"station_id":"ce4bgkp2rcd13ifvqbmg","pricing_plan_id":"cebpf4jnsgd1na2vs0mg"},{"bike_id":"b54a649d-2707-4569-87ee-d2c230e19409","system_id":"levelo_inurba_marseille","lat":43.27477,"lon":5.4087,"is_reserved":false,"is_disabled":false,"rental_uris":{"android":"levelo://app?vid=b54a649d-2707-4569-87ee-d2c230e19409","ios":"levelo://app?vid=b54a649d-2707-4569-87ee-d2c230e19409"},"vehicle_type_id":"4","last_reported":1742242258,"current_range_meters":8800,"station_id":"","pricing_plan_id":"cebpf4jnsgd1na2vs0mg"},{"bike_id":"394f8b36-a3b6-4c32-83d2-d04c4d8f0b46","system_id":"levelo_inurba_marseille","lat":43.30433,"lon":5.39744,"is_reserved":false,"is_disabled":false,"rental_uris":{"android":"levelo://app?vid=394f8b36-a3b6-4c32-83d2-d04c4d8f0b46","ios":"levelo://app?vid=394f8b36-a3b6-4c32-83d2-d04c4d8f0b46"},"vehicle_type_id":"4","last_reported":1742242258,"current_range_meters":8800,"station_id":"ce4bh092rcd13ifvqd20","pricing_plan_id":"cebpf4jnsgd1na2vs0mg"},{"bike_id":"9b4044b9-a073-4c83-980a-fa6ed0189d7d","system_id":"levelo_inurba_marseille","lat":43.27818,"lon":5.40733,"is_reserved":false,"is_disabled":false,"rental_uris":{"android":"levelo://app?vid=9b4044b9-a073-4c83-980a-fa6ed0189d7d","ios":"levelo://app?vid=9b4044b9-a073-4c83-980a-fa6ed0189d7d"},"vehicle_type_id":"4","last_reported":1742242258,"current_range_meters":8800,"station_id":"ce4bhnh2rcd13ifvqgtg","pricing_plan_id":"cebpf4jnsgd1na2vs0mg"},{"bike_id":"e82a3408-305a-4b4a-bfb6-332dccb0aa32","system_id":"levelo_inurba_marseille","lat":43.28473,"lon":5.35903,"is_reserved":false,"is_disabled":false,"rental_uris":{"android":"levelo://app?vid=e82a3408-305a-4b4a-bfb6-332dccb0aa32","ios":"levelo://app?vid=e82a3408-305a-4b4a-bfb6-332dccb0aa32"},"vehicle_type_id":"4","last_reported":1742242258,"current_range_meters":8800,"station_id":"ce4bhah2rcd13ifvqei0","pricing_plan_id":"cebpf4jnsgd1na2vs0mg"},{"bike_id":"9e2fcf04-35eb-4c39-98a4-f9f808ee3610","system_id":"levelo_inurba_marseille","lat":43.27852,"lon":5.39212,"is_reserved":false,"is_disabled":false,"rental_uris":{"android":"levelo://app?vid=9e2fcf04-35eb-4c39-98a4-f9f808ee3610","ios":"levelo://app?vid=9e2fcf04-35eb-4c39-98a4-f9f808ee3610"},"vehicle_type_id":"4","last_reported":1742242258,"current_range_meters":8800,"station_id":"ce4bhjp2rcd13ifvqga0","pricing_plan_id":"cebpf4jnsgd1na2vs0mg"},{"bike_id":"7b969302-c4c7-49a3-afd2-c0a6e3dcb856","system_id":"levelo_inurba_marseille","lat":43.29209,"lon":5.3933,"is_reserved":false,"is_disabled":false,"rental_uris":{"android":"levelo://app?vid=7b969302-c4c7-49a3-afd2-c0a6e3dcb856","ios":"levelo://app?vid=7b969302-c4c7-49a3-afd2-c0a6e3dcb856"},"vehicle_type_id":"4","last_reported":1742242258,"current_range_meters":8800,"station_id":"ce4bh192rcd13ifvqdd0","pricing_plan_id":"cebpf4jnsgd1na2vs0mg"},{"bike_id":"607496c0-5a33-47b9-ad9d-59952d6063d6","system_id":"levelo_inurba_marseille","lat":43.31077,"lon":5.38368,"is_reserved":false,"is_disabled":false,"rental_uris":{"android":"levelo://app?vid=607496c0-5a33-47b9-ad9d-59952d6063d6","ios":"levelo://app?vid=607496c0-5a33-47b9-ad9d-59952d6063d6"},"vehicle_type_id":"4","last_reported":1742242258,"current_range_meters":8800,"station_id":"ce4bgv92rcd13ifvqcr0","pricing_plan_id":"cebpf4jnsgd1na2vs0mg"},{"bike_id":"816a761f-a362-4c6e-9624-317fe8f16587","system_id":"levelo_inurba_marseille","lat":43.25117,"lon":5.40326,"is_reserved":false,"is_disabled":false,"rental_uris":{"android":"levelo://app?vid=816a761f-a362-4c6e-9624-317fe8f16587","ios":"levelo://app?vid=816a761f-a362-4c6e-9624-317fe8f16587"},"vehicle_type_id":"4","last_reported":1742242258,"current_range_meters":9200,"station_id":"ce4bhlh2rcd13ifvqgig","pricing_plan_id":"cebpf4jnsgd1na2vs0mg"},{"bike_id":"6d8e8090-a4c7-4966-a3f4-a833922b9e5a","system_id":"levelo_inurba_marseille","lat":43.23205,"lon":5.35535,"is_reserved":false,"is_disabled":false,"rental_uris":{"android":"levelo://app?vid=6d8e8090-a4c7-4966-a3f4-a833922b9e5a","ios":"levelo://app?vid=6d8e8090-a4c7-4966-a3f4-a833922b9e5a"},"vehicle_type_id":"4","last_reported":1742242258,"current_range_meters":9200,"station_id":"ce4bhu92rcd13ifvqi70","pricing_plan_id":"cebpf4jnsgd1na2vs0mg"},{"bike_id":"121ccfdf-ff3f-4ce5-ab38-ffc9f2511c64","system_id":"levelo_inurba_marseille","lat":43.28083,"lon":5.39633,"is_reserved":false,"is_disabled":false,"rental_uris":{"android":"levelo://app?vid=121ccfdf-ff3f-4ce5-ab38-ffc9f2511c64","ios":"levelo://app?vid=121ccfdf-ff3f-4ce5-ab38-ffc9f2511c64"},"vehicle_type_id":"4","last_reported":1742242258,"current_range_meters":8800,"station_id":"ce4bho12rcd13ifvqh2g","pricing_plan_id":"cebpf4jnsgd1na2vs0mg"},{"bike_id":"d155b6d7-4f04-4869-a663-a1baa5b8f97e","system_id":"levelo_inurba_marseille","lat":43.23204,"lon":5.35583,"is_reserved":false,"is_disabled":false,"rental_uris":{"android":"levelo://app?vid=d155b6d7-4f04-4869-a663-a1baa5b8f97e","ios":"levelo://app?vid=d155b6d7-4f04-4869-a663-a1baa5b8f97e"},"vehicle_type_id":"4","last_reported":1742242258,"current_range_meters":9200,"station_id":"ce4bhu92rcd13ifvqi70","pricing_plan_id":"cebpf4jnsgd1na2vs0mg"},{"bike_id":"41b53e7b-5dba-4a0b-aba9-556d92f28fd6","system_id":"levelo_inurba_marseille","lat":43.28705,"lon":5.374,"is_reserved":false,"is_disabled":false,"rental_uris":{"android":"levelo://app?vid=41b53e7b-5dba-4a0b-aba9-556d92f28fd6","ios":"levelo://app?vid=41b53e7b-5dba-4a0b-aba9-556d92f28fd6"},"vehicle_type_id":"4","last_reported":1742242258,"current_range_meters":9200,"station_id":"ce4bh3p2rcd13ifvqdq0","pricing_plan_id":"cebpf4jnsgd1na2vs0mg"},{"bike_id":"4ceeea38-5a8d-41a3-9779-51cedc4b44a8","system_id":"levelo_inurba_marseille","lat":43.315041,"lon":5.37314,"is_reserved":false,"is_disabled":false,"rental_uris":{"android":"levelo://app?vid=4ceeea38-5a8d-41a3-9779-51cedc4b44a8","ios":"levelo://app?vid=4ceeea38-5a8d-41a3-9779-51cedc4b44a8"},"vehicle_type_id":"4","last_reported":1742242258,"current_range_meters":8800,"station_id":"ce4bgs12rcd13ifvqcag","pricing_plan_id":"cebpf4jnsgd1na2vs0mg"},{"bike_id":"ce4f518f-36ef-4b94-b18a-9bf3313e3b57","system_id":"levelo_inurba_marseille","lat":43.25503,"lon":5.37647,"is_reserved":false,"is_disabled":false,"rental_uris":{"android":"levelo://app?vid=ce4f518f-36ef-4b94-b18a-9bf3313e3b57","ios":"levelo://app?vid=ce4f518f-36ef-4b94-b18a-9bf3313e3b57"},"vehicle_type_id":"4","last_reported":1742242258,"current_range_meters":9200,"station_id":"ce4bhh12rcd13ifvqff0","pricing_plan_id":"cebpf4jnsgd1na2vs0mg"},{"bike_id":"136e3224-78fe-49f0-ab83-398238bd4c97","system_id":"levelo_inurba_marseille","lat":43.26241,"lon":5.37466,"is_reserved":false,"is_disabled":false,"rental_uris":{"android":"levelo://app?vid=136e3224-78fe-49f0-ab83-398238bd4c97","ios":"levelo://app?vid=136e3224-78fe-49f0-ab83-398238bd4c97"},"vehicle_type_id":"4","last_reported":1742242258,"current_range_meters":9200,"station_id":"ce4bhgp2rcd13ifvqfc0","pricing_plan_id":"cebpf4jnsgd1na2vs0mg"},{"bike_id":"f726d16a-5cce-4273-b849-56297f73384d","system_id":"levelo_inurba_marseille","lat":43.28016,"lon":5.41705,"is_reserved":false,"is_disabled":false,"rental_uris":{"android":"levelo://app?vid=f726d16a-5cce-4273-b849-56297f73384d","ios":"levelo://app?vid=f726d16a-5cce-4273-b849-56297f73384d"},"vehicle_type_id":"4","last_reported":1742242258,"current_range_meters":9200,"station_id":"ce4bho12rcd13ifvqh1g","pricing_plan_id":"cebpf4jnsgd1na2vs0mg"},{"bike_id":"4fd0d6b1-80a9-4a00-a0f5-a410ce25c312","system_id":"levelo_inurba_marseille","lat":43.31083,"lon":5.42441,"is_reserved":false,"is_disabled":false,"rental_uris":{"android":"levelo://app?vid=4fd0d6b1-80a9-4a00-a0f5-a410ce25c312","ios":"levelo://app?vid=4fd0d6b1-80a9-4a00-a0f5-a410ce25c312"},"vehicle_type_id":"4","last_reported":1742242258,"current_range_meters":9200,"station_id":"ce4bhp92rcd13ifvqhag","pricing_plan_id":"cebpf4jnsgd1na2vs0mg"},{"bike_id":"836e6160-43fb-4e74-bca4-6228c501760e","system_id":"levelo_inurba_marseille","lat":43.25519,"lon":5.37659,"is_reserved":false,"is_disabled":false,"rental_uris":{"android":"levelo://app?vid=836e6160-43fb-4e74-bca4-6228c501760e","ios":"levelo://app?vid=836e6160-43fb-4e74-bca4-6228c501760e"},"vehicle_type_id":"4","last_reported":1742242258,"current_range_meters":9200,"station_id":"ce4bhh12rcd13ifvqff0","pricing_plan_id":"cebpf4jnsgd1na2vs0mg"},{"bike_id":"b1b41327-66f3-4983-ac80-93a6af2a034d","system_id":"levelo_inurba_marseille","lat":43.23067,"lon":5.35509,"is_reserved":false,"is_disabled":false,"rental_uris":{"android":"levelo://app?vid=b1b41327-66f3-4983-ac80-93a6af2a034d","ios":"levelo://app?vid=b1b41327-66f3-4983-ac80-93a6af2a034d"},"vehicle_type_id":"4","last_reported":1742242258,"current_range_meters":9600,"station_id":"cpo3342slgdg3j2ifvpg","pricing_plan_id":"cebpf4jnsgd1na2vs0mg"},{"bike_id":"78b0d8cf-d242-4572-9051-577991051df8","system_id":"levelo_inurba_marseille","lat":43.24167,"lon":5.36403,"is_reserved":false,"is_disabled":false,"rental_uris":{"android":"levelo://app?vid=78b0d8cf-d242-4572-9051-577991051df8","ios":"levelo://app?vid=78b0d8cf-d242-4572-9051-577991051df8"},"vehicle_type_id":"4","last_reported":1742242258,"current_range_meters":9600,"station_id":"cpo36qri1sfpv3e86is0","pricing_plan_id":"cebpf4jnsgd1na2vs0mg"},{"bike_id":"885c677d-9212-4154-b31b-f0b26ae107b0","system_id":"levelo_inurba_marseille","lat":43.28418,"lon":5.37518,"is_reserved":false,"is_disabled":false,"rental_uris":{"android":"levelo://app?vid=885c677d-9212-4154-b31b-f0b26ae107b0","ios":"levelo://app?vid=885c677d-9212-4154-b31b-f0b26ae107b0"},"vehicle_type_id":"4","last_reported":1742242258,"current_range_meters":9600,"station_id":"ce4bh412rcd13ifvqds0","pricing_plan_id":"cebpf4jnsgd1na2vs0mg"},{"bike_id":"3f586dc4-4ecd-4ffa-a218-b64592744960","system_id":"levelo_inurba_marseille","lat":43.28666,"lon":5.3635,"is_reserved":false,"is_disabled":false,"rental_uris":{"android":"levelo://app?vid=3f586dc4-4ecd-4ffa-a218-b64592744960","ios":"levelo://app?vid=3f586dc4-4ecd-4ffa-a218-b64592744960"},"vehicle_type_id":"4","last_reported":1742242258,"current_range_meters":9600,"station_id":"ce4bhah2rcd13ifvqej0","pricing_plan_id":"cebpf4jnsgd1na2vs0mg"},{"bike_id":"0d3accb9-853e-4df0-b9d8-4607b8048f46","system_id":"levelo_inurba_marseille","lat":43.24166,"lon":5.36405,"is_reserved":false,"is_disabled":false,"rental_uris":{"android":"levelo://app?vid=0d3accb9-853e-4df0-b9d8-4607b8048f46","ios":"levelo://app?vid=0d3accb9-853e-4df0-b9d8-4607b8048f46"},"vehicle_type_id":"4","last_reported":1742242258,"current_range_meters":9600,"station_id":"cpo36qri1sfpv3e86is0","pricing_plan_id":"cebpf4jnsgd1na2vs0mg"},{"bike_id":"a484158f-66dc-48d6-a932-a39b9a8d1878","system_id":"levelo_inurba_marseille","lat":43.28174,"lon":5.42654,"is_reserved":false,"is_disabled":false,"rental_uris":{"android":"levelo://app?vid=a484158f-66dc-48d6-a932-a39b9a8d1878","ios":"levelo://app?vid=a484158f-66dc-48d6-a932-a39b9a8d1878"},"vehicle_type_id":"4","last_reported":1742242258,"current_range_meters":9600,"station_id":"ce4bhnh2rcd13ifvqgug","pricing_plan_id":"cebpf4jnsgd1na2vs0mg"},{"bike_id":"21638bcc-8550-446a-ad34-9eb7012a4609","system_id":"levelo_inurba_marseille","lat":43.27945,"lon":5.41051,"is_reserved":false,"is_disabled":false,"rental_uris":{"android":"levelo://app?vid=21638bcc-8550-446a-ad34-9eb7012a4609","ios":"levelo://app?vid=21638bcc-8550-446a-ad34-9eb7012a4609"},"vehicle_type_id":"4","last_reported":1742242258,"current_range_meters":9600,"station_id":"ce4bhnp2rcd13ifvqh0g","pricing_plan_id":"cebpf4jnsgd1na2vs0mg"},{"bike_id":"aca98cc2-d9d9-46bd-ad99-3eafb16b2572","system_id":"levelo_inurba_marseille","lat":43.30274,"lon":5.40071,"is_reserved":false,"is_disabled":false,"rental_uris":{"android":"levelo://app?vid=aca98cc2-d9d9-46bd-ad99-3eafb16b2572","ios":"levelo://app?vid=aca98cc2-d9d9-46bd-ad99-3eafb16b2572"},"vehicle_type_id":"4","last_reported":1742242258,"current_range_meters":8000,"station_id":"ce4bgvh2rcd13ifvqcs0","pricing_plan_id":"cebpf4jnsgd1na2vs0mg"},{"bike_id":"737a1d64-a21d-4452-b1f9-a22f87a8d6bd","system_id":"levelo_inurba_marseille","lat":43.23064,"lon":5.35501,"is_reserved":false,"is_disabled":false,"rental_uris":{"android":"levelo://app?vid=737a1d64-a21d-4452-b1f9-a22f87a8d6bd","ios":"levelo://app?vid=737a1d64-a21d-4452-b1f9-a22f87a8d6bd"},"vehicle_type_id":"4","last_reported":1742242258,"current_range_meters":9600,"station_id":"cpo3342slgdg3j2ifvpg","pricing_plan_id":"cebpf4jnsgd1na2vs0mg"},{"bike_id":"8fe7e33b-57fc-439c-ba02-015988635c80","system_id":"levelo_inurba_marseille","lat":43.27066,"lon":5.42274,"is_reserved":false,"is_disabled":true,"rental_uris":{"android":"levelo://app?vid=8fe7e33b-57fc-439c-ba02-015988635c80","ios":"levelo://app?vid=8fe7e33b-57fc-439c-ba02-015988635c80"},"vehicle_type_id":"4","last_reported":1742242258,"current_range_meters":9600,"station_id":"ce4bhk92rcd13ifvqgb0","pricing_plan_id":"cebpf4jnsgd1na2vs0mg"},{"bike_id":"3be7af56-03d7-4d5d-8330-3d203ddc0f49","system_id":"levelo_inurba_marseille","lat":43.28654,"lon":5.36349,"is_reserved":false,"is_disabled":false,"rental_uris":{"android":"levelo://app?vid=3be7af56-03d7-4d5d-8330-3d203ddc0f49","ios":"levelo://app?vid=3be7af56-03d7-4d5d-8330-3d203ddc0f49"},"vehicle_type_id":"4","last_reported":1742242258,"current_range_meters":9600,"station_id":"ce4bhah2rcd13ifvqej0","pricing_plan_id":"cebpf4jnsgd1na2vs0mg"},{"bike_id":"f8ff1f0a-d757-4c37-82f8-9f24d4a4ee7d","system_id":"levelo_inurba_marseille","lat":43.23185,"lon":5.39989,"is_reserved":false,"is_disabled":false,"rental_uris":{"android":"levelo://app?vid=f8ff1f0a-d757-4c37-82f8-9f24d4a4ee7d","ios":"levelo://app?vid=f8ff1f0a-d757-4c37-82f8-9f24d4a4ee7d"},"vehicle_type_id":"4","last_reported":1742242258,"current_range_meters":9600,"station_id":"ce4bhn12rcd13ifvqgqg","pricing_plan_id":"cebpf4jnsgd1na2vs0mg"},{"bike_id":"53ecfbf4-14ee-42ec-ad1f-4476cdac0020","system_id":"levelo_inurba_marseille","lat":43.27801,"lon":5.40718,"is_reserved":false,"is_disabled":false,"rental_uris":{"android":"levelo://app?vid=53ecfbf4-14ee-42ec-ad1f-4476cdac0020","ios":"levelo://app?vid=53ecfbf4-14ee-42ec-ad1f-4476cdac0020"},"vehicle_type_id":"4","last_reported":1742242258,"current_range_meters":10000,"station_id":"ce4bhnh2rcd13ifvqgtg","pricing_plan_id":"cebpf4jnsgd1na2vs0mg"},{"bike_id":"621d1759-73a7-43df-8571-31397a28a675","system_id":"levelo_inurba_marseille","lat":43.25109,"lon":5.40322,"is_reserved":false,"is_disabled":false,"rental_uris":{"android":"levelo://app?vid=621d1759-73a7-43df-8571-31397a28a675","ios":"levelo://app?vid=621d1759-73a7-43df-8571-31397a28a675"},"vehicle_type_id":"4","last_reported":1742242258,"current_range_meters":10000,"station_id":"ce4bhlh2rcd13ifvqgig","pricing_plan_id":"cebpf4jnsgd1na2vs0mg"},{"bike_id":"01834f64-e1fb-4e78-b730-3bf71560ee35","system_id":"levelo_inurba_marseille","lat":43.30434,"lon":5.39741,"is_reserved":false,"is_disabled":false,"rental_uris":{"android":"levelo://app?vid=01834f64-e1fb-4e78-b730-3bf71560ee35","ios":"levelo://app?vid=01834f64-e1fb-4e78-b730-3bf71560ee35"},"vehicle_type_id":"4","last_reported":1742242258,"current_range_meters":10000,"station_id":"ce4bh092rcd13ifvqd20","pricing_plan_id":"cebpf4jnsgd1na2vs0mg"},{"bike_id":"2665cc4b-07ed-4ae6-a66f-2b09983c709d","system_id":"levelo_inurba_marseille","lat":43.33761,"lon":5.37489,"is_reserved":false,"is_disabled":false,"rental_uris":{"android":"levelo://app?vid=2665cc4b-07ed-4ae6-a66f-2b09983c709d","ios":"levelo://app?vid=2665cc4b-07ed-4ae6-a66f-2b09983c709d"},"vehicle_type_id":"4","last_reported":1742242258,"current_range_meters":10000,"station_id":"","pricing_plan_id":"cebpf4jnsgd1na2vs0mg"},{"bike_id":"8f998cdf-46e6-4e80-b10b-dab92d6e0813","system_id":"levelo_inurba_marseille","lat":43.298684,"lon":5.397445,"is_reserved":false,"is_disabled":false,"rental_uris":{"android":"levelo://app?vid=8f998cdf-46e6-4e80-b10b-dab92d6e0813","ios":"levelo://app?vid=8f998cdf-46e6-4e80-b10b-dab92d6e0813"},"vehicle_type_id":"4","last_reported":1742242258,"current_range_meters":9600,"station_id":"ce4bh0h2rcd13ifvqd50","pricing_plan_id":"cebpf4jnsgd1na2vs0mg"},{"bike_id":"e912061d-458d-4c1c-bf0e-ce7e2d0b0601","system_id":"levelo_inurba_marseille","lat":43.29211,"lon":5.3933,"is_reserved":false,"is_disabled":false,"rental_uris":{"android":"levelo://app?vid=e912061d-458d-4c1c-bf0e-ce7e2d0b0601","ios":"levelo://app?vid=e912061d-458d-4c1c-bf0e-ce7e2d0b0601"},"vehicle_type_id":"4","last_reported":1742242258,"current_range_meters":10000,"station_id":"ce4bh192rcd13ifvqdd0","pricing_plan_id":"cebpf4jnsgd1na2vs0mg"},{"bike_id":"ac767398-3a37-4b25-a151-49e4b1e3ef78","system_id":"levelo_inurba_marseille","lat":43.25086,"lon":5.3952,"is_reserved":false,"is_disabled":false,"rental_uris":{"android":"levelo://app?vid=ac767398-3a37-4b25-a151-49e4b1e3ef78","ios":"levelo://app?vid=ac767398-3a37-4b25-a151-49e4b1e3ef78"},"vehicle_type_id":"4","last_reported":1742242258,"current_range_meters":10000,"station_id":"ce4bhm12rcd13ifvqgkg","pricing_plan_id":"cebpf4jnsgd1na2vs0mg"},{"bike_id":"0677992e-e762-4cc3-a8e0-bef1b7c26cbf","system_id":"levelo_inurba_marseille","lat":43.2465,"lon":5.38903,"is_reserved":false,"is_disabled":false,"rental_uris":{"android":"levelo://app?vid=0677992e-e762-4cc3-a8e0-bef1b7c26cbf","ios":"levelo://app?vid=0677992e-e762-4cc3-a8e0-bef1b7c26cbf"},"vehicle_type_id":"4","last_reported":1742242258,"current_range_meters":10000,"station_id":"ce4bhg12rcd13ifvqf60","pricing_plan_id":"cebpf4jnsgd1na2vs0mg"},{"bike_id":"7a8a8ccb-b5ee-4bab-9535-af226cc12302","system_id":"levelo_inurba_marseille","lat":43.29084,"lon":5.42352,"is_reserved":false,"is_disabled":false,"rental_uris":{"android":"levelo://app?vid=7a8a8ccb-b5ee-4bab-9535-af226cc12302","ios":"levelo://app?vid=7a8a8ccb-b5ee-4bab-9535-af226cc12302"},"vehicle_type_id":"4","last_reported":1742242258,"current_range_meters":10000,"station_id":"","pricing_plan_id":"cebpf4jnsgd1na2vs0mg"},{"bike_id":"ba17eb78-f062-4f77-b8b0-1a4a31d62a9e","system_id":"levelo_inurba_marseille","lat":43.25684,"lon":5.41093,"is_reserved":false,"is_disabled":true,"rental_uris":{"android":"levelo://app?vid=ba17eb78-f062-4f77-b8b0-1a4a31d62a9e","ios":"levelo://app?vid=ba17eb78-f062-4f77-b8b0-1a4a31d62a9e"},"vehicle_type_id":"4","last_reported":1742242258,"current_range_meters":10000,"station_id":"ce4bhkp2rcd13ifvqgd0","pricing_plan_id":"cebpf4jnsgd1na2vs0mg"},{"bike_id":"25349df8-9a91-45e5-9802-681f8d4d74fb","system_id":"levelo_inurba_marseille","lat":43.3065,"lon":5.40084,"is_reserved":false,"is_disabled":false,"rental_uris":{"android":"levelo://app?vid=25349df8-9a91-45e5-9802-681f8d4d74fb","ios":"levelo://app?vid=25349df8-9a91-45e5-9802-681f8d4d74fb"},"vehicle_type_id":"4","last_reported":1742242258,"current_range_meters":10800,"station_id":"ce4bh112rcd13ifvqda0","pricing_plan_id":"cebpf4jnsgd1na2vs0mg"},{"bike_id":"06e6eede-4ecb-4319-9d79-1a567e57af49","system_id":"levelo_inurba_marseille","lat":43.26036,"lon":5.41753,"is_reserved":false,"is_disabled":false,"rental_uris":{"android":"levelo://app?vid=06e6eede-4ecb-4319-9d79-1a567e57af49","ios":"levelo://app?vid=06e6eede-4ecb-4319-9d79-1a567e57af49"},"vehicle_type_id":"4","last_reported":1742242258,"current_range_meters":10800,"station_id":"","pricing_plan_id":"cebpf4jnsgd1na2vs0mg"},{"bike_id":"c6f0a2f3-d142-4b3e-bc0a-4b621d29452c","system_id":"levelo_inurba_marseille","lat":43.25106,"lon":5.40314,"is_reserved":false,"is_disabled":false,"rental_uris":{"android":"levelo://app?vid=c6f0a2f3-d142-4b3e-bc0a-4b621d29452c","ios":"levelo://app?vid=c6f0a2f3-d142-4b3e-bc0a-4b621d29452c"},"vehicle_type_id":"4","last_reported":1742242258,"current_range_meters":10800,"station_id":"ce4bhlh2rcd13ifvqgig","pricing_plan_id":"cebpf4jnsgd1na2vs0mg"},{"bike_id":"71444a67-dfbc-4a22-b971-5a542271d1aa","system_id":"levelo_inurba_marseille","lat":43.28692,"lon":5.3868,"is_reserved":false,"is_disabled":false,"rental_uris":{"android":"levelo://app?vid=71444a67-dfbc-4a22-b971-5a542271d1aa","ios":"levelo://app?vid=71444a67-dfbc-4a22-b971-5a542271d1aa"},"vehicle_type_id":"4","last_reported":1742242258,"current_range_meters":10800,"station_id":"ce4bh492rcd13ifvqdug","pricing_plan_id":"cebpf4jnsgd1na2vs0mg"},{"bike_id":"44a21830-c381-4feb-8507-268f8f152fe6","system_id":"levelo_inurba_marseille","lat":43.26056,"lon":5.39396,"is_reserved":false,"is_disabled":false,"rental_uris":{"android":"levelo://app?vid=44a21830-c381-4feb-8507-268f8f152fe6","ios":"levelo://app?vid=44a21830-c381-4feb-8507-268f8f152fe6"},"vehicle_type_id":"4","last_reported":1742242258,"current_range_meters":10800,"station_id":"ce4bhh92rcd13ifvqfj0","pricing_plan_id":"cebpf4jnsgd1na2vs0mg"},{"bike_id":"b15ed008-a268-40dc-b3f0-643a65282b55","system_id":"levelo_inurba_marseille","lat":43.28656,"lon":5.36348,"is_reserved":false,"is_disabled":false,"rental_uris":{"android":"levelo://app?vid=b15ed008-a268-40dc-b3f0-643a65282b55","ios":"levelo://app?vid=b15ed008-a268-40dc-b3f0-643a65282b55"},"vehicle_type_id":"4","last_reported":1742242258,"current_range_meters":10000,"station_id":"ce4bhah2rcd13ifvqej0","pricing_plan_id":"cebpf4jnsgd1na2vs0mg"},{"bike_id":"42e35520-f310-4cc9-afe0-cc69621e6853","system_id":"levelo_inurba_marseille","lat":43.32364,"lon":5.38889,"is_reserved":false,"is_disabled":false,"rental_uris":{"android":"levelo://app?vid=42e35520-f310-4cc9-afe0-cc69621e6853","ios":"levelo://app?vid=42e35520-f310-4cc9-afe0-cc69621e6853"},"vehicle_type_id":"4","last_reported":1742242258,"current_range_meters":10800,"station_id":"ce4bhqp2rcd13ifvqhog","pricing_plan_id":"cebpf4jnsgd1na2vs0mg"},{"bike_id":"733d57f2-9aef-4716-838c-6f6af72a3687","system_id":"levelo_inurba_marseille","lat":43.27822,"lon":5.407,"is_reserved":false,"is_disabled":false,"rental_uris":{"android":"levelo://app?vid=733d57f2-9aef-4716-838c-6f6af72a3687","ios":"levelo://app?vid=733d57f2-9aef-4716-838c-6f6af72a3687"},"vehicle_type_id":"4","last_reported":1742242258,"current_range_meters":10800,"station_id":"ce4bhnh2rcd13ifvqgtg","pricing_plan_id":"cebpf4jnsgd1na2vs0mg"},{"bike_id":"2f62e76d-0056-4257-afeb-ccdadeefdf49","system_id":"levelo_inurba_marseille","lat":43.301392,"lon":5.398593,"is_reserved":false,"is_disabled":false,"rental_uris":{"android":"levelo://app?vid=2f62e76d-0056-4257-afeb-ccdadeefdf49","ios":"levelo://app?vid=2f62e76d-0056-4257-afeb-ccdadeefdf49"},"vehicle_type_id":"4","last_reported":1742242258,"current_range_meters":10800,"station_id":"ce4bh0h2rcd13ifvqd40","pricing_plan_id":"cebpf4jnsgd1na2vs0mg"},{"bike_id":"bf53558a-323c-40e3-9c37-ac64ba388e1c","system_id":"levelo_inurba_marseille","lat":43.23957,"lon":5.36639,"is_reserved":false,"is_disabled":false,"rental_uris":{"android":"levelo://app?vid=bf53558a-323c-40e3-9c37-ac64ba388e1c","ios":"levelo://app?vid=bf53558a-323c-40e3-9c37-ac64ba388e1c"},"vehicle_type_id":"4","last_reported":1742242258,"current_range_meters":10800,"station_id":"ce4bhi12rcd13ifvqfp0","pricing_plan_id":"cebpf4jnsgd1na2vs0mg"},{"bike_id":"6fa0c50b-fe8b-45cb-8e1c-2658173d24b6","system_id":"levelo_inurba_marseille","lat":43.27813,"lon":5.40726,"is_reserved":false,"is_disabled":false,"rental_uris":{"android":"levelo://app?vid=6fa0c50b-fe8b-45cb-8e1c-2658173d24b6","ios":"levelo://app?vid=6fa0c50b-fe8b-45cb-8e1c-2658173d24b6"},"vehicle_type_id":"4","last_reported":1742242258,"current_range_meters":10800,"station_id":"ce4bhnh2rcd13ifvqgtg","pricing_plan_id":"cebpf4jnsgd1na2vs0mg"},{"bike_id":"60d12603-bd75-4f52-ac4f-8e30182f6ffa","system_id":"levelo_inurba_marseille","lat":43.29803,"lon":5.38084,"is_reserved":false,"is_disabled":false,"rental_uris":{"android":"levelo://app?vid=60d12603-bd75-4f52-ac4f-8e30182f6ffa","ios":"levelo://app?vid=60d12603-bd75-4f52-ac4f-8e30182f6ffa"},"vehicle_type_id":"4","last_reported":1742242258,"current_range_meters":10000,"station_id":"ce4bgip2rcd13ifvqbb0","pricing_plan_id":"cebpf4jnsgd1na2vs0mg"},{"bike_id":"e9b52e70-e9fd-498a-9c89-05314149732a","system_id":"levelo_inurba_marseille","lat":43.26822,"lon":5.40261,"is_reserved":false,"is_disabled":false,"rental_uris":{"android":"levelo://app?vid=e9b52e70-e9fd-498a-9c89-05314149732a","ios":"levelo://app?vid=e9b52e70-e9fd-498a-9c89-05314149732a"},"vehicle_type_id":"4","last_reported":1742242258,"current_range_meters":10800,"station_id":"ce501612rcd8frsf0b60","pricing_plan_id":"cebpf4jnsgd1na2vs0mg"},{"bike_id":"d1a1f4bb-5e54-42dc-a6de-ebfbe222acb5","system_id":"levelo_inurba_marseille","lat":43.27957,"lon":5.41049,"is_reserved":false,"is_disabled":false,"rental_uris":{"android":"levelo://app?vid=d1a1f4bb-5e54-42dc-a6de-ebfbe222acb5","ios":"levelo://app?vid=d1a1f4bb-5e54-42dc-a6de-ebfbe222acb5"},"vehicle_type_id":"4","last_reported":1742242258,"current_range_meters":10800,"station_id":"ce4bhnp2rcd13ifvqh0g","pricing_plan_id":"cebpf4jnsgd1na2vs0mg"},{"bike_id":"cc127605-97f5-449d-ad23-12b6f80c9639","system_id":"levelo_inurba_marseille","lat":43.29319,"lon":5.37458,"is_reserved":false,"is_disabled":true,"rental_uris":{"android":"levelo://app?vid=cc127605-97f5-449d-ad23-12b6f80c9639","ios":"levelo://app?vid=cc127605-97f5-449d-ad23-12b6f80c9639"},"vehicle_type_id":"4","last_reported":1742242258,"current_range_meters":11200,"station_id":"ce4bgi12rcd13ifvqb70","pricing_plan_id":"cebpf4jnsgd1na2vs0mg"},{"bike_id":"c1559a2b-2078-4ce3-9977-68410892ac00","system_id":"levelo_inurba_marseille","lat":43.30259,"lon":5.37704,"is_reserved":false,"is_disabled":false,"rental_uris":{"android":"levelo://app?vid=c1559a2b-2078-4ce3-9977-68410892ac00","ios":"levelo://app?vid=c1559a2b-2078-4ce3-9977-68410892ac00"},"vehicle_type_id":"4","last_reported":1742242258,"current_range_meters":10800,"station_id":"ce4bguh2rcd13ifvqcj0","pricing_plan_id":"cebpf4jnsgd1na2vs0mg"},{"bike_id":"13cf58df-5147-4d91-a162-42dc98b9d75b","system_id":"levelo_inurba_marseille","lat":43.31056,"lon":5.3807,"is_reserved":false,"is_disabled":false,"rental_uris":{"android":"levelo://app?vid=13cf58df-5147-4d91-a162-42dc98b9d75b","ios":"levelo://app?vid=13cf58df-5147-4d91-a162-42dc98b9d75b"},"vehicle_type_id":"4","last_reported":1742242258,"current_range_meters":11200,"station_id":"","pricing_plan_id":"cebpf4jnsgd1na2vs0mg"},{"bike_id":"12527f85-a72e-4be2-af47-5cdf2494e740","system_id":"levelo_inurba_marseille","lat":43.32463,"lon":5.39384,"is_reserved":false,"is_disabled":false,"rental_uris":{"android":"levelo://app?vid=12527f85-a72e-4be2-af47-5cdf2494e740","ios":"levelo://app?vid=12527f85-a72e-4be2-af47-5cdf2494e740"},"vehicle_type_id":"4","last_reported":1742242258,"current_range_meters":11200,"station_id":"","pricing_plan_id":"cebpf4jnsgd1na2vs0mg"},{"bike_id":"92806b7d-59b9-44f9-8bc3-642701f2cb0c","system_id":"levelo_inurba_marseille","lat":43.27818,"lon":5.40709,"is_reserved":false,"is_disabled":false,"rental_uris":{"android":"levelo://app?vid=92806b7d-59b9-44f9-8bc3-642701f2cb0c","ios":"levelo://app?vid=92806b7d-59b9-44f9-8bc3-642701f2cb0c"},"vehicle_type_id":"4","last_reported":1742242258,"current_range_meters":11600,"station_id":"ce4bhnh2rcd13ifvqgtg","pricing_plan_id":"cebpf4jnsgd1na2vs0mg"},{"bike_id":"68ed4dca-b5f5-450f-b48d-1e32c9ce1b21","system_id":"levelo_inurba_marseille","lat":43.33023,"lon":5.39042,"is_reserved":false,"is_disabled":false,"rental_uris":{"android":"levelo://app?vid=68ed4dca-b5f5-450f-b48d-1e32c9ce1b21","ios":"levelo://app?vid=68ed4dca-b5f5-450f-b48d-1e32c9ce1b21"},"vehicle_type_id":"4","last_reported":1742242258,"current_range_meters":11600,"station_id":"ce4bhr92rcd13ifvqhrg","pricing_plan_id":"cebpf4jnsgd1na2vs0mg"},{"bike_id":"7f25335e-8a99-4e95-b965-87863b23f80c","system_id":"levelo_inurba_marseille","lat":43.2842,"lon":5.37527,"is_reserved":false,"is_disabled":false,"rental_uris":{"android":"levelo://app?vid=7f25335e-8a99-4e95-b965-87863b23f80c","ios":"levelo://app?vid=7f25335e-8a99-4e95-b965-87863b23f80c"},"vehicle_type_id":"4","last_reported":1742242258,"current_range_meters":11600,"station_id":"ce4bh412rcd13ifvqds0","pricing_plan_id":"cebpf4jnsgd1na2vs0mg"},{"bike_id":"6c786f69-7fcb-42dd-8726-daa7bdae9d01","system_id":"levelo_inurba_marseille","lat":43.30804,"lon":5.38162,"is_reserved":false,"is_disabled":false,"rental_uris":{"android":"levelo://app?vid=6c786f69-7fcb-42dd-8726-daa7bdae9d01","ios":"levelo://app?vid=6c786f69-7fcb-42dd-8726-daa7bdae9d01"},"vehicle_type_id":"4","last_reported":1742242258,"current_range_meters":11600,"station_id":"ce4bgt12rcd13ifvqce0","pricing_plan_id":"cebpf4jnsgd1na2vs0mg"},{"bike_id":"09be20b3-ccfa-43d5-8616-036d82fe33a0","system_id":"levelo_inurba_marseille","lat":43.25079,"lon":5.38977,"is_reserved":false,"is_disabled":false,"rental_uris":{"android":"levelo://app?vid=09be20b3-ccfa-43d5-8616-036d82fe33a0","ios":"levelo://app?vid=09be20b3-ccfa-43d5-8616-036d82fe33a0"},"vehicle_type_id":"4","last_reported":1742242258,"current_range_meters":11600,"station_id":"","pricing_plan_id":"cebpf4jnsgd1na2vs0mg"},{"bike_id":"ed49c088-1280-43c1-b4d7-20619ebb2070","system_id":"levelo_inurba_marseille","lat":43.29527,"lon":5.39405,"is_reserved":false,"is_disabled":false,"rental_uris":{"android":"levelo://app?vid=ed49c088-1280-43c1-b4d7-20619ebb2070","ios":"levelo://app?vid=ed49c088-1280-43c1-b4d7-20619ebb2070"},"vehicle_type_id":"4","last_reported":1742242258,"current_range_meters":12000,"station_id":"ce4bh292rcd13ifvqdf0","pricing_plan_id":"cebpf4jnsgd1na2vs0mg"},{"bike_id":"e4303b35-118c-4328-8b67-b1b0a664041a","system_id":"levelo_inurba_marseille","lat":43.28361,"lon":5.38644,"is_reserved":false,"is_disabled":false,"rental_uris":{"android":"levelo://app?vid=e4303b35-118c-4328-8b67-b1b0a664041a","ios":"levelo://app?vid=e4303b35-118c-4328-8b67-b1b0a664041a"},"vehicle_type_id":"4","last_reported":1742242258,"current_range_meters":12000,"station_id":"ce4bh492rcd13ifvqdvg","pricing_plan_id":"cebpf4jnsgd1na2vs0mg"},{"bike_id":"ab41cf47-a77a-43ed-9eba-0876e5f137eb","system_id":"levelo_inurba_marseille","lat":43.3117,"lon":5.38735,"is_reserved":false,"is_disabled":false,"rental_uris":{"android":"levelo://app?vid=ab41cf47-a77a-43ed-9eba-0876e5f137eb","ios":"levelo://app?vid=ab41cf47-a77a-43ed-9eba-0876e5f137eb"},"vehicle_type_id":"4","last_reported":1742242258,"current_range_meters":11600,"station_id":"ce4bgv12rcd13ifvqcp0","pricing_plan_id":"cebpf4jnsgd1na2vs0mg"},{"bike_id":"8264681e-b969-498b-82f6-6e5a7d895fd0","system_id":"levelo_inurba_marseille","lat":43.25511,"lon":5.37673,"is_reserved":false,"is_disabled":false,"rental_uris":{"android":"levelo://app?vid=8264681e-b969-498b-82f6-6e5a7d895fd0","ios":"levelo://app?vid=8264681e-b969-498b-82f6-6e5a7d895fd0"},"vehicle_type_id":"4","last_reported":1742242258,"current_range_meters":12000,"station_id":"ce4bhh12rcd13ifvqff0","pricing_plan_id":"cebpf4jnsgd1na2vs0mg"},{"bike_id":"ed4e9bb0-f29d-4b17-9c61-c0536263a5a7","system_id":"levelo_inurba_marseille","lat":43.31232,"lon":5.36877,"is_reserved":false,"is_disabled":false,"rental_uris":{"android":"levelo://app?vid=ed4e9bb0-f29d-4b17-9c61-c0536263a5a7","ios":"levelo://app?vid=ed4e9bb0-f29d-4b17-9c61-c0536263a5a7"},"vehicle_type_id":"4","last_reported":1742242258,"current_range_meters":11600,"station_id":"ce4bgl92rcd13ifvqbq0","pricing_plan_id":"cebpf4jnsgd1na2vs0mg"},{"bike_id":"16d9e186-8bba-4682-b2b1-d0a625c9702d","system_id":"levelo_inurba_marseille","lat":43.27997,"lon":5.40047,"is_reserved":false,"is_disabled":false,"rental_uris":{"android":"levelo://app?vid=16d9e186-8bba-4682-b2b1-d0a625c9702d","ios":"levelo://app?vid=16d9e186-8bba-4682-b2b1-d0a625c9702d"},"vehicle_type_id":"4","last_reported":1742242258,"current_range_meters":12000,"station_id":"ce4bho92rcd13ifvqh4g","pricing_plan_id":"cebpf4jnsgd1na2vs0mg"},{"bike_id":"f2cdcecb-1057-4065-b784-edae18f059b7","system_id":"levelo_inurba_marseille","lat":43.29312,"lon":5.37177,"is_reserved":false,"is_disabled":false,"rental_uris":{"android":"levelo://app?vid=f2cdcecb-1057-4065-b784-edae18f059b7","ios":"levelo://app?vid=f2cdcecb-1057-4065-b784-edae18f059b7"},"vehicle_type_id":"4","last_reported":1742242258,"current_range_meters":12000,"station_id":"ce4bgh92rcd13ifvqb40","pricing_plan_id":"cebpf4jnsgd1na2vs0mg"},