{"last_updated":1732003965,"ttl":60,"version":"2.2","data":{"bikes":[{"bike_id":"0e1c2a5a-9d09-47c3-98ea-6ec79f6c76a5","system_id":"levelo_inurba_marseille","lat":43.3134,"lon":5.3673,"is_reserved":false,"is_disabled":true,"rental_uris":{"android":"levelo://app?vid=0e1c2a5a-9d09-47c3-98ea-6ec79f6c76a5","ios":"levelo://app?vid=0e1c2a5a-9d09-47c3-98ea-6ec79f6c76a5"},"vehicle_type_id":"4","last_reported":1732003965,"current_range_meters":0,"station_id":"ce4bgr92rcd13ifvqc6g","pricing_plan_id":"cebpf4jnsgd1na2vs0mg"},{"bike_id":"4ef715f0-7087-4d61-93c6-b8bd2a0b34d5","system_id":"levelo_inurba_marseille","lat":43.30149,"lon":5.38074,"is_reserved":false,"is_disabled":true,"rental_uris":{"android":"levelo://app?vid=4ef715f0-7087-4d61-93c6-b8bd2a0b34d5","ios":"levelo://app?vid=4ef715f0-7087-4d61-93c6-b8bd2a0b34d5"},"vehicle_type_id":"4","last_reported":1732003965,"current_range_meters":22800,"station_id":"ce4bgjp2rcd13ifvqbh0","pricing_plan_id":"cebpf4jnsgd1na2vs0mg"},{"bike_id":"4c3bc8d5-1707-441c-8c80-b94b50a7df1a","system_id":"levelo_inurba_marseille","lat":43.27942,"lon":5.41038,"is_reserved":false,"is_disabled":false,"rental_uris":{"android":"levelo://app?vid=4c3bc8d5-1707-441c-8c80-b94b50a7df1a","ios":"levelo://app?vid=4c3bc8d5-1707-441c-8c80-b94b50a7df1a"},"vehicle_type_id":"4","last_reported":1732003965,"current_range_meters":30000,"station_id":"ce4bhnp2rcd13ifvqh0g","pricing_plan_id":"cebpf4jnsgd1na2vs0mg"},{"bike_id":"75cc8757-90ec-44a2-b070-b9cc134f750e","system_id":"levelo_inurba_marseille","lat":43.25023,"lon":5.38048,"is_reserved":false,"is_disabled":false,"rental_uris":{"android":"levelo://app?vid=75cc8757-90ec-44a2-b070-b9cc134f750e","ios":"levelo://app?vid=75cc8757-90ec-44a2-b070-b9cc134f750e"},"vehicle_type_id":"4","last_reported":1732003965,"current_range_meters":34800,"station_id":"","pricing_plan_id":"cebpf4jnsgd1na2vs0mg"},{"bike_id":"56b1e23a-a8b6-4eed-a858-f200a5a0a62a","system_id":"levelo_inurba_marseille","lat":43.23148,"lon":5.43727,"is_reserved":false,"is_disabled":false,"rental_uris":{"android":"levelo://app?vid=56b1e23a-a8b6-4eed-a858-f200a5a0a62a","ios":"levelo://app?vid=56b1e23a-a8b6-4eed-a858-f200a5a0a62a"},"vehicle_type_id":"4","last_reported":1732003965,"current_range_meters":8400,"station_id":"ce4bhmp2rcd13ifvqgog","pricing_plan_id":"cebpf4jnsgd1na2vs0mg"},{"bike_id":"bb9ea763-6e93-4922-b0c2-ce9421dca49b","system_id":"levelo_inurba_marseille","lat":43.25932,"lon":5.40911,"is_reserved":false,"is_disabled":true,"rental_uris":{"android":"levelo://app?vid=bb9ea763-6e93-4922-b0c2-ce9421dca49b","ios":"levelo://app?vid=bb9ea763-6e93-4922-b0c2-ce9421dca49b"},"vehicle_type_id":"4","last_reported":1732003965,"current_range_meters":1600,"station_id":"ce4bhm92rcd13ifvqglg","pricing_plan_id":"cebpf4jnsgd1na2vs0mg"},{"bike_id":"696dad62-b035-4843-b522-aad62f104751","system_id":"levelo_inurba_marseille","lat":43.34279,"lon":5.39963,"is_reserved":false,"is_disabled":false,"rental_uris":{"android":"levelo://app?vid=696dad62-b035-4843-b522-aad62f104751","ios":"levelo://app?vid=696dad62-b035-4843-b522-aad62f104751"},"vehicle_type_id":"4","last_reported":1732003965,"current_range_meters":26800,"station_id":"","pricing_plan_id":"cebpf4jnsgd1na2vs0mg"},{"bike_id":"9502eb2d-3d88-47b6-823d-d0a9ae92ce64","system_id":"levelo_inurba_marseille","lat":43.29916,"lon":5.37474,"is_reserved":false,"is_disabled":false,"rental_uris":{"android":"levelo://app?vid=9502eb2d-3d88-47b6-823d-d0a9ae92ce64","ios":"levelo://app?vid=9502eb2d-3d88-47b6-823d-d0a9ae92ce64"},"vehicle_type_id":"4","last_reported":1732003965,"current_range_meters":16000,"station_id":"ce4bgjh2rcd13ifvqbg0","pricing_plan_id":"cebpf4jnsgd1na2vs0mg"},{"bike_id":"0bc2b4da-31a7-4cb4-95e9-3aa3825f7da9","system_id":"levelo_inurba_marseille","lat":43.279944,"lon":5.400096,"is_reserved":false,"is_disabled":false,"rental_uris":{"android":"levelo://app?vid=0bc2b4da-31a7-4cb4-95e9-3aa3825f7da9","ios":"levelo://app?vid=0bc2b4da-31a7-4cb4-95e9-3aa3825f7da9"},"vehicle_type_id":"4","last_reported":1732003965,"current_range_meters":11200,"station_id":"ce4bho92rcd13ifvqh4g","pricing_plan_id":"cebpf4jnsgd1na2vs0mg"},{"bike_id":"ab8b3dcb-d33d-4854-a37e-2243fffa6f29","system_id":"levelo_inurba_marseille","lat":43.30148,"lon":5.38079,"is_reserved":false,"is_disabled":false,"rental_uris":{"android":"levelo://app?vid=ab8b3dcb-d33d-4854-a37e-2243fffa6f29","ios":"levelo://app?vid=ab8b3dcb-d33d-4854-a37e-2243fffa6f29"},"vehicle_type_id":"4","last_reported":1732003965,"current_range_meters":36000,"station_id":"ce4bgjp2rcd13ifvqbh0","pricing_plan_id":"cebpf4jnsgd1na2vs0mg"},{"bike_id":"0699f1c2-b7e4-449f-b358-06a7b93e0378","system_id":"levelo_inurba_marseille","lat":43.3091,"lon":5.3685,"is_reserved":false,"is_disabled":false,"rental_uris":{"android":"levelo://app?vid=0699f1c2-b7e4-449f-b358-06a7b93e0378","ios":"levelo://app?vid=0699f1c2-b7e4-449f-b358-06a7b93e0378"},"vehicle_type_id":"4","last_reported":1732003965,"current_range_meters":19200,"station_id":"ce4bgn92rcd13ifvqbvg","pricing_plan_id":"cebpf4jnsgd1na2vs0mg"},{"bike_id":"0483f6b4-b1f7-4f03-b703-9a41aa209a04","system_id":"levelo_inurba_marseille","lat":43.30474,"lon":5.37907,"is_reserved":false,"is_disabled":false,"rental_uris":{"android":"levelo://app?vid=0483f6b4-b1f7-4f03-b703-9a41aa209a04","ios":"levelo://app?vid=0483f6b4-b1f7-4f03-b703-9a41aa209a04"},"vehicle_type_id":"4","last_reported":1732003965,"current_range_meters":28000,"station_id":"ce4bgup2rcd13ifvqcn0","pricing_plan_id":"cebpf4jnsgd1na2vs0mg"},{"bike_id":"6c926eef-89ef-4421-9c04-3c9899f3173b","system_id":"levelo_inurba_marseille","lat":43.29901,"lon":5.43653,"is_reserved":false,"is_disabled":true,"rental_uris":{"android":"levelo://app?vid=6c926eef-89ef-4421-9c04-3c9899f3173b","ios":"levelo://app?vid=6c926eef-89ef-4421-9c04-3c9899f3173b"},"vehicle_type_id":"4","last_reported":1732003965,"current_range_meters":0,"station_id":"ce4bhpp2rcd13ifvqhfg","pricing_plan_id":"cebpf4jnsgd1na2vs0mg"},{"bike_id":"127efe80-b451-4258-b40a-516220894345","system_id":"levelo_inurba_marseille","lat":43.30888,"lon":5.37185,"is_reserved":false,"is_disabled":true,"rental_uris":{"android":"levelo://app?vid=127efe80-b451-4258-b40a-516220894345","ios":"levelo://app?vid=127efe80-b451-4258-b40a-516220894345"},"vehicle_type_id":"4","last_reported":1732003965,"current_range_meters":38800,"station_id":"ce4bguh2rcd13ifvqckg","pricing_plan_id":"cebpf4jnsgd1na2vs0mg"},{"bike_id":"164cdfa8-0ac9-4adb-a845-d99ce6084a86","system_id":"levelo_inurba_marseille","lat":43.2894,"lon":5.36639,"is_reserved":false,"is_disabled":false,"rental_uris":{"android":"levelo://app?vid=164cdfa8-0ac9-4adb-a845-d99ce6084a86","ios":"levelo://app?vid=164cdfa8-0ac9-4adb-a845-d99ce6084a86"},"vehicle_type_id":"4","last_reported":1732003965,"current_range_meters":14400,"station_id":"ce4bhap2rcd13ifvqek0","pricing_plan_id":"cebpf4jnsgd1na2vs0mg"},{"bike_id":"e08875d1-5eda-43a9-a5b5-ee3ebd16c83c","system_id":"levelo_inurba_marseille","lat":43.25006,"lon":5.38912,"is_reserved":false,"is_disabled":false,"rental_uris":{"android":"levelo://app?vid=e08875d1-5eda-43a9-a5b5-ee3ebd16c83c","ios":"levelo://app?vid=e08875d1-5eda-43a9-a5b5-ee3ebd16c83c"},"vehicle_type_id":"4","last_reported":1732003965,"current_range_meters":36800,"station_id":"ce4bhgp2rcd13ifvqfd0","pricing_plan_id":"cebpf4jnsgd1na2vs0mg"},{"bike_id":"b1879da0-4952-4a10-8d90-fd2192536eda","system_id":"levelo_inurba_marseille","lat":43.23148,"lon":5.4371,"is_reserved":false,"is_disabled":false,"rental_uris":{"android":"levelo://app?vid=b1879da0-4952-4a10-8d90-fd2192536eda","ios":"levelo://app?vid=b1879da0-4952-4a10-8d90-fd2192536eda"},"vehicle_type_id":"4","last_reported":1732003965,"current_range_meters":38800,"station_id":"ce4bhmp2rcd13ifvqgog","pricing_plan_id":"cebpf4jnsgd1na2vs0mg"},{"bike_id":"2f2740e1-ad4a-4efb-b1f1-826e784f47c8","system_id":"levelo_inurba_marseille","lat":43.2594,"lon":5.40904,"is_reserved":false,"is_disabled":false,"rental_uris":{"android":"levelo://app?vid=2f2740e1-ad4a-4efb-b1f1-826e784f47c8","ios":"levelo://app?vid=2f2740e1-ad4a-4efb-b1f1-826e784f47c8"},"vehicle_type_id":"4","last_reported":1732003965,"current_range_meters":17600,"station_id":"ce4bhm92rcd13ifvqglg","pricing_plan_id":"cebpf4jnsgd1na2vs0mg"},{"bike_id":"2fd3a9ee-4c1e-43ad-a34b-a2a15537ba5c","system_id":"levelo_inurba_marseille","lat":43.29036,"lon":5.3756,"is_reserved":false,"is_disabled":true,"rental_uris":{"android":"levelo://app?vid=2fd3a9ee-4c1e-43ad-a34b-a2a15537ba5c","ios":"levelo://app?vid=2fd3a9ee-4c1e-43ad-a34b-a2a15537ba5c"},"vehicle_type_id":"4","last_reported":1732003965,"current_range_meters":0,"station_id":"ce4bh692rcd13ifvqe90","pricing_plan_id":"cebpf4jnsgd1na2vs0mg"},{"bike_id":"8e7e7187-e587-44ac-886b-f69ece72d624","system_id":"levelo_inurba_marseille","lat":43.30959,"lon":5.39042,"is_reserved":false,"is_disabled":false,"rental_uris":{"android":"levelo://app?vid=8e7e7187-e587-44ac-886b-f69ece72d624","ios":"levelo://app?vid=8e7e7187-e587-44ac-886b-f69ece72d624"},"vehicle_type_id":"4","last_reported":1732003965,"current_range_meters":32000,"station_id":"ce4bgup2rcd13ifvqco0","pricing_plan_id":"cebpf4jnsgd1na2vs0mg"},{"bike_id":"1dc270f8-c0fd-4cd3-abb0-026fecbae2de","system_id":"levelo_inurba_marseille","lat":43.24087,"lon":5.37749,"is_reserved":false,"is_disabled":true,"rental_uris":{"android":"levelo://app?vid=1dc270f8-c0fd-4cd3-abb0-026fecbae2de","ios":"levelo://app?vid=1dc270f8-c0fd-4cd3-abb0-026fecbae2de"},"vehicle_type_id":"4","last_reported":1732003965,"current_range_meters":26000,"station_id":"ce4bhnp2rcd13ifvqgvg","pricing_plan_id":"cebpf4jnsgd1na2vs0mg"},{"bike_id":"0b9afa91-a3b6-4479-81bb-34538d7f0de1","system_id":"levelo_inurba_marseille","lat":43.30876,"lon":5.39622,"is_reserved":false,"is_disabled":false,"rental_uris":{"android":"levelo://app?vid=0b9afa91-a3b6-4479-81bb-34538d7f0de1","ios":"levelo://app?vid=0b9afa91-a3b6-4479-81bb-34538d7f0de1"},"vehicle_type_id":"4","last_reported":1732003965,"current_range_meters":8400,"station_id":"ce4bh012rcd13ifvqcv0","pricing_plan_id":"cebpf4jnsgd1na2vs0mg"},{"bike_id":"1ceca4c0-e64b-47cd-84e8-4eaf493a34ff","system_id":"levelo_inurba_marseille","lat":43.30351,"lon":5.40225,"is_reserved":false,"is_disabled":true,"rental_uris":{"android":"levelo://app?vid=1ceca4c0-e64b-47cd-84e8-4eaf493a34ff","ios":"levelo://app?vid=1ceca4c0-e64b-47cd-84e8-4eaf493a34ff"},"vehicle_type_id":"4","last_reported":1732003965,"current_range_meters":0,"station_id":"","pricing_plan_id":"cebpf4jnsgd1na2vs0mg"},{"bike_id":"67e7be22-2de4-40ec-8f9a-2c37035192f6","system_id":"levelo_inurba_marseille","lat":43.24073,"lon":5.37764,"is_reserved":false,"is_disabled":false,"rental_uris":{"android":"levelo://app?vid=67e7be22-2de4-40ec-8f9a-2c37035192f6","ios":"levelo://app?vid=67e7be22-2de4-40ec-8f9a-2c37035192f6"},"vehicle_type_id":"4","last_reported":1732003965,"current_range_meters":25600,"station_id":"ce4bhnp2rcd13ifvqgvg","pricing_plan_id":"cebpf4jnsgd1na2vs0mg"},{"bike_id":"908589c7-0195-46e2-9635-c2a80000b35f","system_id":"levelo_inurba_marseille","lat":43.23187,"lon":5.39987,"is_reserved":false,"is_disabled":false,"rental_uris":{"android":"levelo://app?vid=908589c7-0195-46e2-9635-c2a80000b35f","ios":"levelo://app?vid=908589c7-0195-46e2-9635-c2a80000b35f"},"vehicle_type_id":"4","last_reported":1732003965,"current_range_meters":6400,"station_id":"ce4bhn12rcd13ifvqgqg","pricing_plan_id":"cebpf4jnsgd1na2vs0mg"},{"bike_id":"636ad6ad-7ea2-4a54-b125-0c397f6550f8","system_id":"levelo_inurba_marseille","lat":43.28439,"lon":5.39179,"is_reserved":false,"is_disabled":true,"rental_uris":{"android":"levelo://app?vid=636ad6ad-7ea2-4a54-b125-0c397f6550f8","ios":"levelo://app?vid=636ad6ad-7ea2-4a54-b125-0c397f6550f8"},"vehicle_type_id":"4","last_reported":1732003965,"current_range_meters":39200,"station_id":"ce4bhoh2rcd13ifvqh5g","pricing_plan_id":"cebpf4jnsgd1na2vs0mg"},{"bike_id":"c909d17a-6117-477e-a413-6471255f018b","system_id":"levelo_inurba_marseille","lat":43.2696,"lon":5.38622,"is_reserved":false,"is_disabled":false,"rental_uris":{"android":"levelo://app?vid=c909d17a-6117-477e-a413-6471255f018b","ios":"levelo://app?vid=c909d17a-6117-477e-a413-6471255f018b"},"vehicle_type_id":"4","last_reported":1732003965,"current_range_meters":38400,"station_id":"ce4bhh92rcd13ifvqfh0","pricing_plan_id":"cebpf4jnsgd1na2vs0mg"},{"bike_id":"84add2cf-62bd-431a-a84a-5e6a04aef983","system_id":"levelo_inurba_marseille","lat":43.27672,"lon":5.38881,"is_reserved":false,"is_disabled":false,"rental_uris":{"android":"levelo://app?vid=84add2cf-62bd-431a-a84a-5e6a04aef983","ios":"levelo://app?vid=84add2cf-62bd-431a-a84a-5e6a04aef983"},"vehicle_type_id":"4","last_reported":1732003965,"current_range_meters":33200,"station_id":"ce4bhi12rcd13ifvqfo0","pricing_plan_id":"cebpf4jnsgd1na2vs0mg"},{"bike_id":"74a095eb-1835-47a0-a475-28dc99d16ff9","system_id":"levelo_inurba_marseille","lat":43.29303,"lon":5.37462,"is_reserved":false,"is_disabled":false,"rental_uris":{"android":"levelo://app?vid=74a095eb-1835-47a0-a475-28dc99d16ff9","ios":"levelo://app?vid=74a095eb-1835-47a0-a475-28dc99d16ff9"},"vehicle_type_id":"4","last_reported":1732003965,"current_range_meters":37600,"station_id":"ce4bgi12rcd13ifvqb70","pricing_plan_id":"cebpf4jnsgd1na2vs0mg"},{"bike_id":"3e89d28f-51c8-41c4-8b09-ee3fc9f6be6f","system_id":"levelo_inurba_marseille","lat":43.32479,"lon":5.36566,"is_reserved":false,"is_disabled":false,"rental_uris":{"android":"levelo://app?vid=3e89d28f-51c8-41c4-8b09-ee3fc9f6be6f","ios":"levelo://app?vid=3e89d28f-51c8-41c4-8b09-ee3fc9f6be6f"},"vehicle_type_id":"4","last_reported":1732003965,"current_range_meters":4400,"station_id":"ce4bhs12rcd13ifvqhvg","pricing_plan_id":"cebpf4jnsgd1na2vs0mg"},{"bike_id":"56a1fbe8-7cb5-4a8f-81a8-27692ae76a70","system_id":"levelo_inurba_marseille","lat":43.27067,"lon":5.42278,"is_reserved":false,"is_disabled":false,"rental_uris":{"android":"levelo://app?vid=56a1fbe8-7cb5-4a8f-81a8-27692ae76a70","ios":"levelo://app?vid=56a1fbe8-7cb5-4a8f-81a8-27692ae76a70"},"vehicle_type_id":"4","last_reported":1732003965,"current_range_meters":31200,"station_id":"ce4bhk92rcd13ifvqgb0","pricing_plan_id":"cebpf4jnsgd1na2vs0mg"},{"bike_id":"f5281387-7beb-4094-9db7-698f09e48d93","system_id":"levelo_inurba_marseille","lat":43.31758,"lon":5.39014,"is_reserved":false,"is_disabled":false,"rental_uris":{"android":"levelo://app?vid=f5281387-7beb-4094-9db7-698f09e48d93","ios":"levelo://app?vid=f5281387-7beb-4094-9db7-698f09e48d93"},"vehicle_type_id":"4","last_reported":1732003965,"current_range_meters":39200,"station_id":"ce4bhqp2rcd13ifvqhng","pricing_plan_id":"cebpf4jnsgd1na2vs0mg"},{"bike_id":"9ce67508-8b06-4b57-9464-c2d28878484d","system_id":"levelo_inurba_marseille","lat":43.34137,"lon":5.40902,"is_reserved":false,"is_disabled":false,"rental_uris":{"android":"levelo://app?vid=9ce67508-8b06-4b57-9464-c2d28878484d","ios":"levelo://app?vid=9ce67508-8b06-4b57-9464-c2d28878484d"},"vehicle_type_id":"4","last_reported":1732003965,"current_range_meters":17200,"station_id":"ce4bhqh2rcd13ifvqhlg","pricing_plan_id":"cebpf4jnsgd1na2vs0mg"},{"bike_id":"92ea0f93-f2e1-4e5d-abfa-d16e0edcd1e6","system_id":"levelo_inurba_marseille","lat":43.30902,"lon":5.36855,"is_reserved":false,"is_disabled":false,"rental_uris":{"android":"levelo://app?vid=92ea0f93-f2e1-4e5d-abfa-d16e0edcd1e6","ios":"levelo://app?vid=92ea0f93-f2e1-4e5d-abfa-d16e0edcd1e6"},"vehicle_type_id":"4","last_reported":1732003965,"current_range_meters":36800,"station_id":"ce4bgn92rcd13ifvqbvg","pricing_plan_id":"cebpf4jnsgd1na2vs0mg"},{"bike_id":"45949901-07a0-4edb-9e1b-0e2169a074dc","system_id":"levelo_inurba_marseille","lat":43.30542,"lon":5.36696,"is_reserved":false,"is_disabled":false,"rental_uris":{"android":"levelo://app?vid=45949901-07a0-4edb-9e1b-0e2169a074dc","ios":"levelo://app?vid=45949901-07a0-4edb-9e1b-0e2169a074dc"},"vehicle_type_id":"4","last_reported":1732003965,"current_range_meters":39200,"station_id":"ce4bgrp2rcd13ifvqc9g","pricing_plan_id":"cebpf4jnsgd1na2vs0mg"},{"bike_id":"1341a828-b981-4198-a789-8a5791ca7539","system_id":"levelo_inurba_marseille","lat":43.25011,"lon":5.38915,"is_reserved":false,"is_disabled":false,"rental_uris":{"android":"levelo://app?vid=1341a828-b981-4198-a789-8a5791ca7539","ios":"levelo://app?vid=1341a828-b981-4198-a789-8a5791ca7539"},"vehicle_type_id":"4","last_reported":1732003965,"current_range_meters":36800,"station_id":"ce4bhgp2rcd13ifvqfd0","pricing_plan_id":"cebpf4jnsgd1na2vs0mg"},{"bike_id":"14cd65f8-ea69-403d-80b1-321d9cfc6988","system_id":"levelo_inurba_marseille","lat":43.29071,"lon":5.3718,"is_reserved":false,"is_disabled":false,"rental_uris":{"android":"levelo://app?vid=14cd65f8-ea69-403d-80b1-321d9cfc6988","ios":"levelo://app?vid=14cd65f8-ea69-403d-80b1-321d9cfc6988"},"vehicle_type_id":"4","last_reported":1732003965,"current_range_meters":38400,"station_id":"ce4bh5p2rcd13ifvqe4g","pricing_plan_id":"cebpf4jnsgd1na2vs0mg"},{"bike_id":"e3511c0c-eb2b-4100-bb2d-c5ebcd644bea","system_id":"levelo_inurba_marseille","lat":43.23963,"lon":5.36623,"is_reserved":false,"is_disabled":true,"rental_uris":{"android":"levelo://app?vid=e3511c0c-eb2b-4100-bb2d-c5ebcd644bea","ios":"levelo://app?vid=e3511c0c-eb2b-4100-bb2d-c5ebcd644bea"},"vehicle_type_id":"4","last_reported":1732003965,"current_range_meters":36800,"station_id":"ce4bhi12rcd13ifvqfp0","pricing_plan_id":"cebpf4jnsgd1na2vs0mg"},{"bike_id":"08ffd31c-fe78-416e-b527-8f7725b133f1","system_id":"levelo_inurba_marseille","lat":43.27994,"lon":5.40011,"is_reserved":false,"is_disabled":true,"rental_uris":{"android":"levelo://app?vid=08ffd31c-fe78-416e-b527-8f7725b133f1","ios":"levelo://app?vid=08ffd31c-fe78-416e-b527-8f7725b133f1"},"vehicle_type_id":"4","last_reported":1732003965,"current_range_meters":35200,"station_id":"ce4bho92rcd13ifvqh4g","pricing_plan_id":"cebpf4jnsgd1na2vs0mg"},{"bike_id":"ef31495f-6a34-4d74-a72b-91bbac7371df","system_id":"levelo_inurba_marseille","lat":43.25926,"lon":5.40902,"is_reserved":false,"is_disabled":true,"rental_uris":{"android":"levelo://app?vid=ef31495f-6a34-4d74-a72b-91bbac7371df","ios":"levelo://app?vid=ef31495f-6a34-4d74-a72b-91bbac7371df"},"vehicle_type_id":"4","last_reported":1732003965,"current_range_meters":21600,"station_id":"ce4bhm92rcd13ifvqglg","pricing_plan_id":"cebpf4jnsgd1na2vs0mg"},{"bike_id":"d10c90fd-3c70-4bb6-bcaa-6d62b6ce4770","system_id":"levelo_inurba_marseille","lat":43.26069,"lon":5.39391,"is_reserved":false,"is_disabled":true,"rental_uris":{"android":"levelo://app?vid=d10c90fd-3c70-4bb6-bcaa-6d62b6ce4770","ios":"levelo://app?vid=d10c90fd-3c70-4bb6-bcaa-6d62b6ce4770"},"vehicle_type_id":"4","last_reported":1732003965,"current_range_meters":8400,"station_id":"ce4bhh92rcd13ifvqfj0","pricing_plan_id":"cebpf4jnsgd1na2vs0mg"},{"bike_id":"5917a06d-1a89-42ee-9c96-70b3e49f2520","system_id":"levelo_inurba_marseille","lat":43.31696,"lon":5.4047,"is_reserved":false,"is_disabled":true,"rental_uris":{"android":"levelo://app?vid=5917a06d-1a89-42ee-9c96-70b3e49f2520","ios":"levelo://app?vid=5917a06d-1a89-42ee-9c96-70b3e49f2520"},"vehicle_type_id":"4","last_reported":1732003965,"current_range_meters":14000,"station_id":"ce4bh012rcd13ifvqd00","pricing_plan_id":"cebpf4jnsgd1na2vs0mg"},{"bike_id":"10054413-060a-4207-ba06-a2815c99b8a5","system_id":"levelo_inurba_marseille","lat":43.29622,"lon":5.37166,"is_reserved":false,"is_disabled":false,"rental_uris":{"android":"levelo://app?vid=10054413-060a-4207-ba06-a2815c99b8a5","ios":"levelo://app?vid=10054413-060a-4207-ba06-a2815c99b8a5"},"vehicle_type_id":"4","last_reported":1732003965,"current_range_meters":38800,"station_id":"ce4bgnh2rcd13ifvqc0g","pricing_plan_id":"cebpf4jnsgd1na2vs0mg"},{"bike_id":"0ae43ad8-7108-4495-908e-f716a5c3355b","system_id":"levelo_inurba_marseille","lat":43.25942,"lon":5.40905,"is_reserved":false,"is_disabled":false,"rental_uris":{"android":"levelo://app?vid=0ae43ad8-7108-4495-908e-f716a5c3355b","ios":"levelo://app?vid=0ae43ad8-7108-4495-908e-f716a5c3355b"},"vehicle_type_id":"4","last_reported":1732003965,"current_range_meters":36400,"station_id":"ce4bhm92rcd13ifvqglg","pricing_plan_id":"cebpf4jnsgd1na2vs0mg"},{"bike_id":"6632161b-3478-4ba6-816c-c608384a7a88","system_id":"levelo_inurba_marseille","lat":43.30209,"lon":5.39465,"is_reserved":false,"is_disabled":false,"rental_uris":{"android":"levelo://app?vid=6632161b-3478-4ba6-816c-c608384a7a88","ios":"levelo://app?vid=6632161b-3478-4ba6-816c-c608384a7a88"},"vehicle_type_id":"4","last_reported":1732003965,"current_range_meters":3600,"station_id":"ce4bh0p2rcd13ifvqd70","pricing_plan_id":"cebpf4jnsgd1na2vs0mg"},{"bike_id":"dfe87f03-1889-41d1-9df1-6e138109ca46","system_id":"levelo_inurba_marseille","lat":43.29277,"lon":5.36848,"is_reserved":false,"is_disabled":false,"rental_uris":{"android":"levelo://app?vid=dfe87f03-1889-41d1-9df1-6e138109ca46","ios":"levelo://app?vid=dfe87f03-1889-41d1-9df1-6e138109ca46"},"vehicle_type_id":"4","last_reported":1732003965,"current_range_meters":14800,"station_id":"ce4bhbp2rcd13ifvqesg","pricing_plan_id":"cebpf4jnsgd1na2vs0mg"},{"bike_id":"9f48a3fa-abf8-448c-86ff-07a542626bbd","system_id":"levelo_inurba_marseille","lat":43.30278,"lon":5.3769,"is_reserved":false,"is_disabled":false,"rental_uris":{"android":"levelo://app?vid=9f48a3fa-abf8-448c-86ff-07a542626bbd","ios":"levelo://app?vid=9f48a3fa-abf8-448c-86ff-07a542626bbd"},"vehicle_type_id":"4","last_reported":1732003965,"current_range_meters":38800,"station_id":"ce4bguh2rcd13ifvqcj0","pricing_plan_id":"cebpf4jnsgd1na2vs0mg"},{"bike_id":"e4897b49-0f0e-49bf-9a7a-51d7117eac38","system_id":"levelo_inurba_marseille","lat":43.25929,"lon":5.40916,"is_reserved":false,"is_disabled":false,"rental_uris":{"android":"levelo://app?vid=e4897b49-0f0e-49bf-9a7a-51d7117eac38","ios":"levelo://app?vid=e4897b49-0f0e-49bf-9a7a-51d7117eac38"},"vehicle_type_id":"4","last_reported":1732003965,"current_range_meters":18000,"station_id":"ce4bhm92rcd13ifvqglg","pricing_plan_id":"cebpf4jnsgd1na2vs0mg"},{"bike_id":"51c281f9-e557-4f1c-b246-019f7086d38f","system_id":"levelo_inurba_marseille","lat":43.29796,"lon":5.38102,"is_reserved":false,"is_disabled":false,"rental_uris":{"android":"levelo://app?vid=51c281f9-e557-4f1c-b246-019f7086d38f","ios":"levelo://app?vid=51c281f9-e557-4f1c-b246-019f7086d38f"},"vehicle_type_id":"4","last_reported":1732003965,"current_range_meters":25200,"station_id":"ce4bgip2rcd13ifvqbb0","pricing_plan_id":"cebpf4jnsgd1na2vs0mg"},{"bike_id":"3f095bc8-9af8-4b0b-a298-157d8e949f36","system_id":"levelo_inurba_marseille","lat":43.27676,"lon":5.38888,"is_reserved":false,"is_disabled":true,"rental_uris":{"android":"levelo://app?vid=3f095bc8-9af8-4b0b-a298-157d8e949f36","ios":"levelo://app?vid=3f095bc8-9af8-4b0b-a298-157d8e949f36"},"vehicle_type_id":"4","last_reported":1732003965,"current_range_meters":7200,"station_id":"ce4bhi12rcd13ifvqfo0","pricing_plan_id":"cebpf4jnsgd1na2vs0mg"},{"bike_id":"d9191eb3-d044-4aba-ba0e-dd3c3b6c8bb3","system_id":"levelo_inurba_marseille","lat":43.31344,"lon":5.36732,"is_reserved":false,"is_disabled":false,"rental_uris":{"android":"levelo://app?vid=d9191eb3-d044-4aba-ba0e-dd3c3b6c8bb3","ios":"levelo://app?vid=d9191eb3-d044-4aba-ba0e-dd3c3b6c8bb3"},"vehicle_type_id":"4","last_reported":1732003965,"current_range_meters":39200,"station_id":"ce4bgr92rcd13ifvqc6g","pricing_plan_id":"cebpf4jnsgd1na2vs0mg"},{"bike_id":"e9591178-cdc3-434f-a4e8-8a21a67ac277","system_id":"levelo_inurba_marseille","lat":43.30532,"lon":5.36712,"is_reserved":false,"is_disabled":false,"rental_uris":{"android":"levelo://app?vid=e9591178-cdc3-434f-a4e8-8a21a67ac277","ios":"levelo://app?vid=e9591178-cdc3-434f-a4e8-8a21a67ac277"},"vehicle_type_id":"4","last_reported":1732003965,"current_range_meters":20400,"station_id":"ce4bgrp2rcd13ifvqc9g","pricing_plan_id":"cebpf4jnsgd1na2vs0mg"},{"bike_id":"d674a550-723f-4e20-a0c2-89aa344c2ade","system_id":"levelo_inurba_marseille","lat":43.28204,"lon":5.4438,"is_reserved":false,"is_disabled":false,"rental_uris":{"android":"levelo://app?vid=d674a550-723f-4e20-a0c2-89aa344c2ade","ios":"levelo://app?vid=d674a550-723f-4e20-a0c2-89aa344c2ade"},"vehicle_type_id":"4","last_reported":1732003965,"current_range_meters":3600,"station_id":"","pricing_plan_id":"cebpf4jnsgd1na2vs0mg"},{"bike_id":"0d25af95-f20e-4c1c-a4e5-a9f3d0d3ac3b","system_id":"levelo_inurba_marseille","lat":43.29513,"lon":5.39021,"is_reserved":false,"is_disabled":false,"rental_uris":{"android":"levelo://app?vid=0d25af95-f20e-4c1c-a4e5-a9f3d0d3ac3b","ios":"levelo://app?vid=0d25af95-f20e-4c1c-a4e5-a9f3d0d3ac3b"},"vehicle_type_id":"4","last_reported":1732003965,"current_range_meters":35600,"station_id":"ce4bh3p2rcd13ifvqdp0","pricing_plan_id":"cebpf4jnsgd1na2vs0mg"},{"bike_id":"f26f9ff4-6d82-459d-bc98-b8addb7fa0b2","system_id":"levelo_inurba_marseille","lat":43.28941,"lon":5.3662,"is_reserved":false,"is_disabled":true,"rental_uris":{"android":"levelo://app?vid=f26f9ff4-6d82-459d-bc98-b8addb7fa0b2","ios":"levelo://app?vid=f26f9ff4-6d82-459d-bc98-b8addb7fa0b2"},"vehicle_type_id":"4","last_reported":1732003965,"current_range_meters":0,"station_id":"ce4bhap2rcd13ifvqek0","pricing_plan_id":"cebpf4jnsgd1na2vs0mg"},{"bike_id":"0673a5e9-d4f0-4d6b-8283-83502a25cb80","system_id":"levelo_inurba_marseille","lat":43.29623,"lon":5.37712,"is_reserved":false,"is_disabled":false,"rental_uris":{"android":"levelo://app?vid=0673a5e9-d4f0-4d6b-8283-83502a25cb80","ios":"levelo://app?vid=0673a5e9-d4f0-4d6b-8283-83502a25cb80"},"vehicle_type_id":"4","last_reported":1732003965,"current_range_meters":26800,"station_id":"ce4bgi92rcd13ifvqb90","pricing_plan_id":"cebpf4jnsgd1na2vs0mg"},{"bike_id":"ac64a796-d7b1-47d0-b983-c899b55f648c","system_id":"levelo_inurba_marseille","lat":43.290216,"lon":5.386543,"is_reserved":false,"is_disabled":false,"rental_uris":{"android":"levelo://app?vid=ac64a796-d7b1-47d0-b983-c899b55f648c","ios":"levelo://app?vid=ac64a796-d7b1-47d0-b983-c899b55f648c"},"vehicle_type_id":"4","last_reported":1732003965,"current_range_meters":16400,"station_id":"ce4bh4p2rcd13ifvqe0g","pricing_plan_id":"cebpf4jnsgd1na2vs0mg"},{"bike_id":"635decf1-5dc5-4e2d-ac5d-53dd7b3ea0ae","system_id":"levelo_inurba_marseille","lat":43.291041,"lon":5.372116,"is_reserved":false,"is_disabled":false,"rental_uris":{"android":"levelo://app?vid=635decf1-5dc5-4e2d-ac5d-53dd7b3ea0ae","ios":"levelo://app?vid=635decf1-5dc5-4e2d-ac5d-53dd7b3ea0ae"},"vehicle_type_id":"4","last_reported":1732003965,"current_range_meters":28000,"station_id":"ce4bh5p2rcd13ifvqe4g","pricing_plan_id":"cebpf4jnsgd1na2vs0mg"},{"bike_id":"76b26817-8a0e-47d4-9818-68227ec46540","system_id":"levelo_inurba_marseille","lat":43.29069,"lon":5.3715,"is_reserved":false,"is_disabled":true,"rental_uris":{"android":"levelo://app?vid=76b26817-8a0e-47d4-9818-68227ec46540","ios":"levelo://app?vid=76b26817-8a0e-47d4-9818-68227ec46540"},"vehicle_type_id":"4","last_reported":1732003965,"current_range_meters":38000,"station_id":"ce4bh5p2rcd13ifvqe4g","pricing_plan_id":"cebpf4jnsgd1na2vs0mg"},{"bike_id":"26cebf06-260c-4863-8cb4-8027a65a5ba0","system_id":"levelo_inurba_marseille","lat":43.33611,"lon":5.41039,"is_reserved":false,"is_disabled":false,"rental_uris":{"android":"levelo://app?vid=26cebf06-260c-4863-8cb4-8027a65a5ba0","ios":"levelo://app?vid=26cebf06-260c-4863-8cb4-8027a65a5ba0"},"vehicle_type_id":"4","last_reported":1732003965,"current_range_meters":24800,"station_id":"ce4bhqh2rcd13ifvqhmg","pricing_plan_id":"cebpf4jnsgd1na2vs0mg"},{"bike_id":"12c8677a-15d9-47d1-87e9-a1ab341be635","system_id":"levelo_inurba_marseille","lat":43.26213,"lon":5.3744,"is_reserved":false,"is_disabled":false,"rental_uris":{"android":"levelo://app?vid=12c8677a-15d9-47d1-87e9-a1ab341be635","ios":"levelo://app?vid=12c8677a-15d9-47d1-87e9-a1ab341be635"},"vehicle_type_id":"4","last_reported":1732003965,"current_range_meters":28000,"station_id":"ce4bhgp2rcd13ifvqfc0","pricing_plan_id":"cebpf4jnsgd1na2vs0mg"},{"bike_id":"9c82aec4-b25e-4e2d-90e6-c4e64e936483","system_id":"levelo_inurba_marseille","lat":43.24656,"lon":5.38899,"is_reserved":false,"is_disabled":false,"rental_uris":{"android":"levelo://app?vid=9c82aec4-b25e-4e2d-90e6-c4e64e936483","ios":"levelo://app?vid=9c82aec4-b25e-4e2d-90e6-c4e64e936483"},"vehicle_type_id":"4","last_reported":1732003965,"current_range_meters":19200,"station_id":"ce4bhg12rcd13ifvqf60","pricing_plan_id":"cebpf4jnsgd1na2vs0mg"},{"bike_id":"8ab51df3-54e3-48e6-ac3c-2636173c43e1","system_id":"levelo_inurba_marseille","lat":43.31344,"lon":5.36736,"is_reserved":false,"is_disabled":false,"rental_uris":{"android":"levelo://app?vid=8ab51df3-54e3-48e6-ac3c-2636173c43e1","ios":"levelo://app?vid=8ab51df3-54e3-48e6-ac3c-2636173c43e1"},"vehicle_type_id":"4","last_reported":1732003965,"current_range_meters":36800,"station_id":"ce4bgr92rcd13ifvqc6g","pricing_plan_id":"cebpf4jnsgd1na2vs0mg"},{"bike_id":"6629913a-26f5-4857-b4a3-47777c95f83a","system_id":"levelo_inurba_marseille","lat":43.25932,"lon":5.40911,"is_reserved":false,"is_disabled":true,"rental_uris":{"android":"levelo://app?vid=6629913a-26f5-4857-b4a3-47777c95f83a","ios":"levelo://app?vid=6629913a-26f5-4857-b4a3-47777c95f83a"},"vehicle_type_id":"4","last_reported":1732003965,"current_range_meters":30000,"station_id":"ce4bhm92rcd13ifvqglg","pricing_plan_id":"cebpf4jnsgd1na2vs0mg"},{"bike_id":"eb347754-5eb7-4052-ba24-35f586931020","system_id":"levelo_inurba_marseille","lat":43.290405,"lon":5.399684,"is_reserved":false,"is_disabled":true,"rental_uris":{"android":"levelo://app?vid=eb347754-5eb7-4052-ba24-35f586931020","ios":"levelo://app?vid=eb347754-5eb7-4052-ba24-35f586931020"},"vehicle_type_id":"4","last_reported":1732003965,"current_range_meters":1200,"station_id":"ce4bh392rcd13ifvqdm0","pricing_plan_id":"cebpf4jnsgd1na2vs0mg"},{"bike_id":"ae2400e2-f3e7-4866-8508-eafa26d0549c","system_id":"levelo_inurba_marseille","lat":43.30354,"lon":5.41874,"is_reserved":false,"is_disabled":false,"rental_uris":{"android":"levelo://app?vid=ae2400e2-f3e7-4866-8508-eafa26d0549c","ios":"levelo://app?vid=ae2400e2-f3e7-4866-8508-eafa26d0549c"},"vehicle_type_id":"4","last_reported":1732003965,"current_range_meters":27600,"station_id":"ce4bhop2rcd13ifvqh7g","pricing_plan_id":"cebpf4jnsgd1na2vs0mg"},{"bike_id":"bc249293-6395-4334-b84a-652f70f197fc","system_id":"levelo_inurba_marseille","lat":43.27633,"lon":5.42643,"is_reserved":false,"is_disabled":true,"rental_uris":{"android":"levelo://app?vid=bc249293-6395-4334-b84a-652f70f197fc","ios":"levelo://app?vid=bc249293-6395-4334-b84a-652f70f197fc"},"vehicle_type_id":"4","last_reported":1732003965,"current_range_meters":800,"station_id":"","pricing_plan_id":"cebpf4jnsgd1na2vs0mg"},{"bike_id":"a7bb5b78-16a3-4812-900d-1d34843b7aaa","system_id":"levelo_inurba_marseille","lat":43.30948,"lon":5.39031,"is_reserved":false,"is_disabled":false,"rental_uris":{"android":"levelo://app?vid=a7bb5b78-16a3-4812-900d-1d34843b7aaa","ios":"levelo://app?vid=a7bb5b78-16a3-4812-900d-1d34843b7aaa"},"vehicle_type_id":"4","last_reported":1732003965,"current_range_meters":32000,"station_id":"ce4bgup2rcd13ifvqco0","pricing_plan_id":"cebpf4jnsgd1na2vs0mg"},{"bike_id":"5203ab47-a9f6-48ae-bdd3-3c5a5ab6ee25","system_id":"levelo_inurba_marseille","lat":43.29972,"lon":5.38492,"is_reserved":false,"is_disabled":true,"rental_uris":{"android":"levelo://app?vid=5203ab47-a9f6-48ae-bdd3-3c5a5ab6ee25","ios":"levelo://app?vid=5203ab47-a9f6-48ae-bdd3-3c5a5ab6ee25"},"vehicle_type_id":"4","last_reported":1732003965,"current_range_meters":36400,"station_id":"ce4bgj92rcd13ifvqbd0","pricing_plan_id":"cebpf4jnsgd1na2vs0mg"},{"bike_id":"be1dd5f8-91fc-4786-8461-76cd869dae13","system_id":"levelo_inurba_marseille","lat":43.31982,"lon":5.41584,"is_reserved":false,"is_disabled":false,"rental_uris":{"android":"levelo://app?vid=be1dd5f8-91fc-4786-8461-76cd869dae13","ios":"levelo://app?vid=be1dd5f8-91fc-4786-8461-76cd869dae13"},"vehicle_type_id":"4","last_reported":1732003965,"current_range_meters":27200,"station_id":"","pricing_plan_id":"cebpf4jnsgd1na2vs0mg"},{"bike_id":"faa3accd-82ad-4ab4-8459-e7f3d78bab6c","system_id":"levelo_inurba_marseille","lat":43.28153,"lon":5.4264,"is_reserved":false,"is_disabled":false,"rental_uris":{"android":"levelo://app?vid=faa3accd-82ad-4ab4-8459-e7f3d78bab6c","ios":"levelo://app?vid=faa3accd-82ad-4ab4-8459-e7f3d78bab6c"},"vehicle_type_id":"4","last_reported":1732003965,"current_range_meters":40000,"station_id":"ce4bhnh2rcd13ifvqgug","pricing_plan_id":"cebpf4jnsgd1na2vs0mg"},{"bike_id":"ee5ad2bc-dd93-4a60-9deb-ff629596020e","system_id":"levelo_inurba_marseille","lat":43.24183,"lon":5.39728,"is_reserved":false,"is_disabled":false,"rental_uris":{"android":"levelo://app?vid=ee5ad2bc-dd93-4a60-9deb-ff629596020e","ios":"levelo://app?vid=ee5ad2bc-dd93-4a60-9deb-ff629596020e"},"vehicle_type_id":"4","last_reported":1732003965,"current_range_meters":38800,"station_id":"ce4bhn12rcd13ifvqgpg","pricing_plan_id":"cebpf4jnsgd1na2vs0mg"},{"bike_id":"040df864-1d44-4716-9bba-b89e08f6be00","system_id":"levelo_inurba_marseille","lat":43.28622,"lon":5.35102,"is_reserved":false,"is_disabled":false,"rental_uris":{"android":"levelo://app?vid=040df864-1d44-4716-9bba-b89e08f6be00","ios":"levelo://app?vid=040df864-1d44-4716-9bba-b89e08f6be00"},"vehicle_type_id":"4","last_reported":1732003965,"current_range_meters":10800,"station_id":"ce4bhch2rcd13ifvqeug","pricing_plan_id":"cebpf4jnsgd1na2vs0mg"},{"bike_id":"e5e2248a-03d3-4b07-b4f7-fd61796e9419","system_id":"levelo_inurba_marseille","lat":43.299793,"lon":5.380768,"is_reserved":false,"is_disabled":true,"rental_uris":{"android":"levelo://app?vid=e5e2248a-03d3-4b07-b4f7-fd61796e9419","ios":"levelo://app?vid=e5e2248a-03d3-4b07-b4f7-fd61796e9419"},"vehicle_type_id":"4","last_reported":1732003965,"current_range_meters":0,"station_id":"","pricing_plan_id":"cebpf4jnsgd1na2vs0mg"},{"bike_id":"6ceef664-acd2-42e1-b843-e993f58ca8f0","system_id":"levelo_inurba_marseille","lat":43.33605,"lon":5.41019,"is_reserved":false,"is_disabled":false,"rental_uris":{"android":"levelo://app?vid=6ceef664-acd2-42e1-b843-e993f58ca8f0","ios":"levelo://app?vid=6ceef664-acd2-42e1-b843-e993f58ca8f0"},"vehicle_type_id":"4","last_reported":1732003965,"current_range_meters":18000,"station_id":"ce4bhqh2rcd13ifvqhmg","pricing_plan_id":"cebpf4jnsgd1na2vs0mg"},{"bike_id":"56edd46b-d236-45f1-ba2f-1f7d8acc3af2","system_id":"levelo_inurba_marseille","lat":43.337444,"lon":5.374475,"is_reserved":false,"is_disabled":false,"rental_uris":{"android":"levelo://app?vid=56edd46b-d236-45f1-ba2f-1f7d8acc3af2","ios":"levelo://app?vid=56edd46b-d236-45f1-ba2f-1f7d8acc3af2"},"vehicle_type_id":"4","last_reported":1732003965,"current_range_meters":35200,"station_id":"","pricing_plan_id":"cebpf4jnsgd1na2vs0mg"},{"bike_id":"30138194-e7d6-4c19-82b2-d04d8b33f235","system_id":"levelo_inurba_marseille","lat":43.24071,"lon":5.37762,"is_reserved":false,"is_disabled":false,"rental_uris":{"android":"levelo://app?vid=30138194-e7d6-4c19-82b2-d04d8b33f235","ios":"levelo://app?vid=30138194-e7d6-4c19-82b2-d04d8b33f235"},"vehicle_type_id":"4","last_reported":1732003965,"current_range_meters":27600,"station_id":"ce4bhnp2rcd13ifvqgvg","pricing_plan_id":"cebpf4jnsgd1na2vs0mg"},{"bike_id":"60d82f17-39c7-4ba1-b220-bb76bbe03509","system_id":"levelo_inurba_marseille","lat":43.25933,"lon":5.40906,"is_reserved":false,"is_disabled":true,"rental_uris":{"android":"levelo://app?vid=60d82f17-39c7-4ba1-b220-bb76bbe03509","ios":"levelo://app?vid=60d82f17-39c7-4ba1-b220-bb76bbe03509"},"vehicle_type_id":"4","last_reported":1732003965,"current_range_meters":6400,"station_id":"ce4bhm92rcd13ifvqglg","pricing_plan_id":"cebpf4jnsgd1na2vs0mg"},{"bike_id":"a1bbca6e-55c9-4e70-9956-b9e44ef3e4fc","system_id":"levelo_inurba_marseille","lat":43.26792,"lon":5.39414,"is_reserved":false,"is_disabled":false,"rental_uris":{"android":"levelo://app?vid=a1bbca6e-55c9-4e70-9956-b9e44ef3e4fc","ios":"levelo://app?vid=a1bbca6e-55c9-4e70-9956-b9e44ef3e4fc"},"vehicle_type_id":"4","last_reported":1732003965,"current_range_meters":13600,"station_id":"ce4bhh12rcd13ifvqfg0","pricing_plan_id":"cebpf4jnsgd1na2vs0mg"},{"bike_id":"9039b419-d8b7-40b0-a69f-5b37a09d6a52","system_id":"levelo_inurba_marseille","lat":43.31361,"lon":5.3671,"is_reserved":false,"is_disabled":false,"rental_uris":{"android":"levelo://app?vid=9039b419-d8b7-40b0-a69f-5b37a09d6a52","ios":"levelo://app?vid=9039b419-d8b7-40b0-a69f-5b37a09d6a52"},"vehicle_type_id":"4","last_reported":1732003965,"current_range_meters":17200,"station_id":"ce4bgr92rcd13ifvqc6g","pricing_plan_id":"cebpf4jnsgd1na2vs0mg"},{"bike_id":"d6efe9b0-b4e9-4e49-baf5-57e7580b2300","system_id":"levelo_inurba_marseille","lat":43.26683,"lon":5.3827,"is_reserved":false,"is_disabled":false,"rental_uris":{"android":"levelo://app?vid=d6efe9b0-b4e9-4e49-baf5-57e7580b2300","ios":"levelo://app?vid=d6efe9b0-b4e9-4e49-baf5-57e7580b2300"},"vehicle_type_id":"4","last_reported":1732003965,"current_range_meters":14800,"station_id":"ce4bhg92rcd13ifvqf90","pricing_plan_id":"cebpf4jnsgd1na2vs0mg"},{"bike_id":"f70a9a44-35ee-457d-8714-c0fe48fe409e","system_id":"levelo_inurba_marseille","lat":43.30138,"lon":5.38776,"is_reserved":false,"is_disabled":true,"rental_uris":{"android":"levelo://app?vid=f70a9a44-35ee-457d-8714-c0fe48fe409e","ios":"levelo://app?vid=f70a9a44-35ee-457d-8714-c0fe48fe409e"},"vehicle_type_id":"4","last_reported":1732003965,"current_range_meters":35200,"station_id":"ce4bghh2rcd13ifvqb60","pricing_plan_id":"cebpf4jnsgd1na2vs0mg"},{"bike_id":"fc17ff97-0220-4805-85da-62a3c731d502","system_id":"levelo_inurba_marseille","lat":43.30549,"lon":5.38434,"is_reserved":false,"is_disabled":true,"rental_uris":{"android":"levelo://app?vid=fc17ff97-0220-4805-85da-62a3c731d502","ios":"levelo://app?vid=fc17ff97-0220-4805-85da-62a3c731d502"},"vehicle_type_id":"4","last_reported":1732003965,"current_range_meters":0,"station_id":"ce4bgg92rcd13ifvqb30","pricing_plan_id":"cebpf4jnsgd1na2vs0mg"},{"bike_id":"d6a55675-38e9-4993-b62a-c8b613e92295","system_id":"levelo_inurba_marseille","lat":43.27498,"lon":5.42443,"is_reserved":false,"is_disabled":false,"rental_uris":{"android":"levelo://app?vid=d6a55675-38e9-4993-b62a-c8b613e92295","ios":"levelo://app?vid=d6a55675-38e9-4993-b62a-c8b613e92295"},"vehicle_type_id":"4","last_reported":1732003965,"current_range_meters":18000,"station_id":"ce4bhn92rcd13ifvqgrg","pricing_plan_id":"cebpf4jnsgd1na2vs0mg"},{"bike_id":"756bb2aa-068f-463e-9297-6710d258bf29","system_id":"levelo_inurba_marseille","lat":43.26959,"lon":5.38636,"is_reserved":false,"is_disabled":false,"rental_uris":{"android":"levelo://app?vid=756bb2aa-068f-463e-9297-6710d258bf29","ios":"levelo://app?vid=756bb2aa-068f-463e-9297-6710d258bf29"},"vehicle_type_id":"4","last_reported":1732003965,"current_range_meters":26000,"station_id":"ce4bhh92rcd13ifvqfh0","pricing_plan_id":"cebpf4jnsgd1na2vs0mg"},{"bike_id":"1ff970a9-d231-4bbd-92a9-fc25fa1a5bc7","system_id":"levelo_inurba_marseille","lat":43.30156,"lon":5.3808,"is_reserved":false,"is_disabled":false,"rental_uris":{"android":"levelo://app?vid=1ff970a9-d231-4bbd-92a9-fc25fa1a5bc7","ios":"levelo://app?vid=1ff970a9-d231-4bbd-92a9-fc25fa1a5bc7"},"vehicle_type_id":"4","last_reported":1732003965,"current_range_meters":38400,"station_id":"ce4bgjp2rcd13ifvqbh0","pricing_plan_id":"cebpf4jnsgd1na2vs0mg"},{"bike_id":"f1888b1a-22ac-4f8d-8a07-bea9e3e6d605","system_id":"levelo_inurba_marseille","lat":43.30907,"lon":5.36845,"is_reserved":false,"is_disabled":false,"rental_uris":{"android":"levelo://app?vid=f1888b1a-22ac-4f8d-8a07-bea9e3e6d605","ios":"levelo://app?vid=f1888b1a-22ac-4f8d-8a07-bea9e3e6d605"},"vehicle_type_id":"4","last_reported":1732003965,"current_range_meters":22800,"station_id":"ce4bgn92rcd13ifvqbvg","pricing_plan_id":"cebpf4jnsgd1na2vs0mg"},{"bike_id":"08e5ab45-b337-4a2f-9261-ecef53f26147","system_id":"levelo_inurba_marseille","lat":43.30271,"lon":5.377,"is_reserved":false,"is_disabled":false,"rental_uris":{"android":"levelo://app?vid=08e5ab45-b337-4a2f-9261-ecef53f26147","ios":"levelo://app?vid=08e5ab45-b337-4a2f-9261-ecef53f26147"},"vehicle_type_id":"4","last_reported":1732003965,"current_range_meters":10000,"station_id":"ce4bguh2rcd13ifvqcj0","pricing_plan_id":"cebpf4jnsgd1na2vs0mg"},{"bike_id":"24b2c3eb-8b9b-40a7-8aad-177c7a5a5f47","system_id":"levelo_inurba_marseille","lat":43.2693,"lon":5.38919,"is_reserved":false,"is_disabled":true,"rental_uris":{"android":"levelo://app?vid=24b2c3eb-8b9b-40a7-8aad-177c7a5a5f47","ios":"levelo://app?vid=24b2c3eb-8b9b-40a7-8aad-177c7a5a5f47"},"vehicle_type_id":"4","last_reported":1732003965,"current_range_meters":0,"station_id":"ce4bhhh2rcd13ifvqfl0","pricing_plan_id":"cebpf4jnsgd1na2vs0mg"},{"bike_id":"b1bed0ee-c59c-4678-9177-0346d385505e","system_id":"levelo_inurba_marseille","lat":43.29006,"lon":5.35606,"is_reserved":false,"is_disabled":false,"rental_uris":{"android":"levelo://app?vid=b1bed0ee-c59c-4678-9177-0346d385505e","ios":"levelo://app?vid=b1bed0ee-c59c-4678-9177-0346d385505e"},"vehicle_type_id":"4","last_reported":1732003965,"current_range_meters":14000,"station_id":"ce4bhb92rcd13ifvqen0","pricing_plan_id":"cebpf4jnsgd1na2vs0mg"},{"bike_id":"0c21866d-64a6-48bd-84ec-2cdb016bb953","system_id":"levelo_inurba_marseille","lat":43.24391,"lon":5.37056,"is_reserved":false,"is_disabled":true,"rental_uris":{"android":"levelo://app?vid=0c21866d-64a6-48bd-84ec-2cdb016bb953","ios":"levelo://app?vid=0c21866d-64a6-48bd-84ec-2cdb016bb953"},"vehicle_type_id":"4","last_reported":1732003965,"current_range_meters":0,"station_id":"ce4bhhh2rcd13ifvqfk0","pricing_plan_id":"cebpf4jnsgd1na2vs0mg"},{"bike_id":"08d0498f-3ee0-4f75-a4d5-e1844ec1aa5c","system_id":"levelo_inurba_marseille","lat":43.3136,"lon":5.36729,"is_reserved":false,"is_disabled":false,"rental_uris":{"android":"levelo://app?vid=08d0498f-3ee0-4f75-a4d5-e1844ec1aa5c","ios":"levelo://app?vid=08d0498f-3ee0-4f75-a4d5-e1844ec1aa5c"},"vehicle_type_id":"4","last_reported":1732003965,"current_range_meters":37600,"station_id":"ce4bgr92rcd13ifvqc6g","pricing_plan_id":"cebpf4jnsgd1na2vs0mg"},{"bike_id":"8d9c7874-6ecd-4ea0-a9e8-ef53041c8d83","system_id":"levelo_inurba_marseille","lat":43.31361,"lon":5.385,"is_reserved":false,"is_disabled":true,"rental_uris":{"android":"levelo://app?vid=8d9c7874-6ecd-4ea0-a9e8-ef53041c8d83","ios":"levelo://app?vid=8d9c7874-6ecd-4ea0-a9e8-ef53041c8d83"},"vehicle_type_id":"4","last_reported":1732003965,"current_range_meters":36800,"station_id":"ce4bgt92rcd13ifvqcf0","pricing_plan_id":"cebpf4jnsgd1na2vs0mg"},{"bike_id":"70a7a40a-cf33-4180-9e3f-8df2be4ab403","system_id":"levelo_inurba_marseille","lat":43.31352,"lon":5.3677,"is_reserved":false,"is_disabled":false,"rental_uris":{"android":"levelo://app?vid=70a7a40a-cf33-4180-9e3f-8df2be4ab403","ios":"levelo://app?vid=70a7a40a-cf33-4180-9e3f-8df2be4ab403"},"vehicle_type_id":"4","last_reported":1732003965,"current_range_meters":32800,"station_id":"","pricing_plan_id":"cebpf4jnsgd1na2vs0mg"},{"bike_id":"d6e54eb8-b569-4670-b12b-fc7e345ccec9","system_id":"levelo_inurba_marseille","lat":43.29737,"lon":5.37678,"is_reserved":false,"is_disabled":true,"rental_uris":{"android":"levelo://app?vid=d6e54eb8-b569-4670-b12b-fc7e345ccec9","ios":"levelo://app?vid=d6e54eb8-b569-4670-b12b-fc7e345ccec9"},"vehicle_type_id":"4","last_reported":1732003965,"current_range_meters":37600,"station_id":"ce4bgkh2rcd13ifvqbl0","pricing_plan_id":"cebpf4jnsgd1na2vs0mg"},{"bike_id":"7e66154f-c0d1-48da-b15a-17821824e4b2","system_id":"levelo_inurba_marseille","lat":43.31365,"lon":5.36704,"is_reserved":false,"is_disabled":false,"rental_uris":{"android":"levelo://app?vid=7e66154f-c0d1-48da-b15a-17821824e4b2","ios":"levelo://app?vid=7e66154f-c0d1-48da-b15a-17821824e4b2"},"vehicle_type_id":"4","last_reported":1732003965,"current_range_meters":17200,"station_id":"ce4bgr92rcd13ifvqc6g","pricing_plan_id":"cebpf4jnsgd1na2vs0mg"},{"bike_id":"cd75eccf-6644-4ce9-b3ae-17a02a26ec35","system_id":"levelo_inurba_marseille","lat":43.31359,"lon":5.36703,"is_reserved":false,"is_disabled":false,"rental_uris":{"android":"levelo://app?vid=cd75eccf-6644-4ce9-b3ae-17a02a26ec35","ios":"levelo://app?vid=cd75eccf-6644-4ce9-b3ae-17a02a26ec35"},"vehicle_type_id":"4","last_reported":1732003965,"current_range_meters":38800,"station_id":"ce4bgr92rcd13ifvqc6g","pricing_plan_id":"cebpf4jnsgd1na2vs0mg"},{"bike_id":"51bc85ab-9612-44a0-8e50-5ed5da90e43e","system_id":"levelo_inurba_marseille","lat":43.2319,"lon":5.39987,"is_reserved":false,"is_disabled":false,"rental_uris":{"android":"levelo://app?vid=51bc85ab-9612-44a0-8e50-5ed5da90e43e","ios":"levelo://app?vid=51bc85ab-9612-44a0-8e50-5ed5da90e43e"},"vehicle_type_id":"4","last_reported":1732003965,"current_range_meters":24000,"station_id":"ce4bhn12rcd13ifvqgqg","pricing_plan_id":"cebpf4jnsgd1na2vs0mg"},{"bike_id":"75d1e700-ca8a-461a-8bf6-49b59d5bd718","system_id":"levelo_inurba_marseille","lat":43.291017,"lon":5.372271,"is_reserved":false,"is_disabled":false,"rental_uris":{"android":"levelo://app?vid=75d1e700-ca8a-461a-8bf6-49b59d5bd718","ios":"levelo://app?vid=75d1e700-ca8a-461a-8bf6-49b59d5bd718"},"vehicle_type_id":"4","last_reported":1732003965,"current_range_meters":17200,"station_id":"ce4bha92rcd13ifvqeh0","pricing_plan_id":"cebpf4jnsgd1na2vs0mg"},{"bike_id":"6f8c8a03-a3ac-433d-8ff0-b00910417904","system_id":"levelo_inurba_marseille","lat":43.24078,"lon":5.37758,"is_reserved":false,"is_disabled":false,"rental_uris":{"android":"levelo://app?vid=6f8c8a03-a3ac-433d-8ff0-b00910417904","ios":"levelo://app?vid=6f8c8a03-a3ac-433d-8ff0-b00910417904"},"vehicle_type_id":"4","last_reported":1732003965,"current_range_meters":8400,"station_id":"ce4bhnp2rcd13ifvqgvg","pricing_plan_id":"cebpf4jnsgd1na2vs0mg"},{"bike_id":"10cdeb80-91be-444c-9ab8-8730d872b06d","system_id":"levelo_inurba_marseille","lat":43.29047,"lon":5.39941,"is_reserved":false,"is_disabled":true,"rental_uris":{"android":"levelo://app?vid=10cdeb80-91be-444c-9ab8-8730d872b06d","ios":"levelo://app?vid=10cdeb80-91be-444c-9ab8-8730d872b06d"},"vehicle_type_id":"4","last_reported":1732003965,"current_range_meters":20000,"station_id":"ce4bh392rcd13ifvqdm0","pricing_plan_id":"cebpf4jnsgd1na2vs0mg"},{"bike_id":"0b733133-03c9-4766-961e-92b775b50bbc","system_id":"levelo_inurba_marseille","lat":43.28193,"lon":5.44267,"is_reserved":false,"is_disabled":true,"rental_uris":{"android":"levelo://app?vid=0b733133-03c9-4766-961e-92b775b50bbc","ios":"levelo://app?vid=0b733133-03c9-4766-961e-92b775b50bbc"},"vehicle_type_id":"4","last_reported":1732003965,"current_range_meters":0,"station_id":"","pricing_plan_id":"cebpf4jnsgd1na2vs0mg"},{"bike_id":"74eb70e9-b94e-49a5-9a48-368b4be133db","system_id":"levelo_inurba_marseille","lat":43.30795,"lon":5.43513,"is_reserved":false,"is_disabled":false,"rental_uris":{"android":"levelo://app?vid=74eb70e9-b94e-49a5-9a48-368b4be133db","ios":"levelo://app?vid=74eb70e9-b94e-49a5-9a48-368b4be133db"},"vehicle_type_id":"4","last_reported":1732003965,"current_range_meters":38800,"station_id":"ce4bhph2rcd13ifvqheg","pricing_plan_id":"cebpf4jnsgd1na2vs0mg"},{"bike_id":"4cba050b-d851-4ee5-8ce0-ea7f25d9c27b","system_id":"levelo_inurba_marseille","lat":43.27494,"lon":5.42451,"is_reserved":false,"is_disabled":true,"rental_uris":{"android":"levelo://app?vid=4cba050b-d851-4ee5-8ce0-ea7f25d9c27b","ios":"levelo://app?vid=4cba050b-d851-4ee5-8ce0-ea7f25d9c27b"},"vehicle_type_id":"4","last_reported":1732003965,"current_range_meters":38400,"station_id":"ce4bhn92rcd13ifvqgrg","pricing_plan_id":"cebpf4jnsgd1na2vs0mg"},{"bike_id":"c4c95739-ad31-423c-a98a-2aaceff657a2","system_id":"levelo_inurba_marseille","lat":43.30955,"lon":5.39041,"is_reserved":false,"is_disabled":false,"rental_uris":{"android":"levelo://app?vid=c4c95739-ad31-423c-a98a-2aaceff657a2","ios":"levelo://app?vid=c4c95739-ad31-423c-a98a-2aaceff657a2"},"vehicle_type_id":"4","last_reported":1732003965,"current_range_meters":12000,"station_id":"ce4bgup2rcd13ifvqco0","pricing_plan_id":"cebpf4jnsgd1na2vs0mg"},{"bike_id":"9082f350-f064-4220-a24a-7c400d315f3b","system_id":"levelo_inurba_marseille","lat":43.24078,"lon":5.37756,"is_reserved":false,"is_disabled":false,"rental_uris":{"android":"levelo://app?vid=9082f350-f064-4220-a24a-7c400d315f3b","ios":"levelo://app?vid=9082f350-f064-4220-a24a-7c400d315f3b"},"vehicle_type_id":"4","last_reported":1732003965,"current_range_meters":37600,"station_id":"ce4bhnp2rcd13ifvqgvg","pricing_plan_id":"cebpf4jnsgd1na2vs0mg"},{"bike_id":"8c0f7771-880b-4614-abc8-3e41755a48fc","system_id":"levelo_inurba_marseille","lat":43.29048,"lon":5.39951,"is_reserved":false,"is_disabled":true,"rental_uris":{"android":"levelo://app?vid=8c0f7771-880b-4614-abc8-3e41755a48fc","ios":"levelo://app?vid=8c0f7771-880b-4614-abc8-3e41755a48fc"},"vehicle_type_id":"4","last_reported":1732003965,"current_range_meters":400,"station_id":"ce4bh392rcd13ifvqdm0","pricing_plan_id":"cebpf4jnsgd1na2vs0mg"},{"bike_id":"ff78d3fd-1323-4be7-9b8e-cca0330f5550","system_id":"levelo_inurba_marseille","lat":43.30552,"lon":5.36701,"is_reserved":false,"is_disabled":false,"rental_uris":{"android":"levelo://app?vid=ff78d3fd-1323-4be7-9b8e-cca0330f5550","ios":"levelo://app?vid=ff78d3fd-1323-4be7-9b8e-cca0330f5550"},"vehicle_type_id":"4","last_reported":1732003965,"current_range_meters":34800,"station_id":"ce4bgrp2rcd13ifvqc9g","pricing_plan_id":"cebpf4jnsgd1na2vs0mg"},{"bike_id":"bf616fda-0885-4bcf-8258-bc47aa3041a1","system_id":"levelo_inurba_marseille","lat":43.32482,"lon":5.36567,"is_reserved":false,"is_disabled":false,"rental_uris":{"android":"levelo://app?vid=bf616fda-0885-4bcf-8258-bc47aa3041a1","ios":"levelo://app?vid=bf616fda-0885-4bcf-8258-bc47aa3041a1"},"vehicle_type_id":"4","last_reported":1732003965,"current_range_meters":38800,"station_id":"ce4bhs12rcd13ifvqhvg","pricing_plan_id":"cebpf4jnsgd1na2vs0mg"},{"bike_id":"f52431c3-a0fa-4826-a02b-0d71a6a0f875","system_id":"levelo_inurba_marseille","lat":43.30278,"lon":5.37712,"is_reserved":false,"is_disabled":false,"rental_uris":{"android":"levelo://app?vid=f52431c3-a0fa-4826-a02b-0d71a6a0f875","ios":"levelo://app?vid=f52431c3-a0fa-4826-a02b-0d71a6a0f875"},"vehicle_type_id":"4","last_reported":1732003965,"current_range_meters":14800,"station_id":"ce4bguh2rcd13ifvqcj0","pricing_plan_id":"cebpf4jnsgd1na2vs0mg"},{"bike_id":"71324b49-1f17-4af6-89f7-e3218a4d4e19","system_id":"levelo_inurba_marseille","lat":43.240681,"lon":5.377626,"is_reserved":false,"is_disabled":false,"rental_uris":{"android":"levelo://app?vid=71324b49-1f17-4af6-89f7-e3218a4d4e19","ios":"levelo://app?vid=71324b49-1f17-4af6-89f7-e3218a4d4e19"},"vehicle_type_id":"4","last_reported":1732003965,"current_range_meters":39200,"station_id":"ce4bhnp2rcd13ifvqgvg","pricing_plan_id":"cebpf4jnsgd1na2vs0mg"},{"bike_id":"6799c54c-4cd6-4d25-a1cb-a4067a584a72","system_id":"levelo_inurba_marseille","lat":43.33721,"lon":5.39185,"is_reserved":false,"is_disabled":false,"rental_uris":{"android":"levelo://app?vid=6799c54c-4cd6-4d25-a1cb-a4067a584a72","ios":"levelo://app?vid=6799c54c-4cd6-4d25-a1cb-a4067a584a72"},"vehicle_type_id":"4","last_reported":1732003965,"current_range_meters":14400,"station_id":"ce4bhr92rcd13ifvqhsg","pricing_plan_id":"cebpf4jnsgd1na2vs0mg"},{"bike_id":"2382df88-68dc-46c4-b023-9ef3ddb7d632","system_id":"levelo_inurba_marseille","lat":43.28943,"lon":5.36632,"is_reserved":false,"is_disabled":true,"rental_uris":{"android":"levelo://app?vid=2382df88-68dc-46c4-b023-9ef3ddb7d632","ios":"levelo://app?vid=2382df88-68dc-46c4-b023-9ef3ddb7d632"},"vehicle_type_id":"4","last_reported":1732003965,"current_range_meters":12400,"station_id":"ce4bhap2rcd13ifvqek0","pricing_plan_id":"cebpf4jnsgd1na2vs0mg"},{"bike_id":"20d43469-0b35-4110-9c40-be0f1a781705","system_id":"levelo_inurba_marseille","lat":43.26203,"lon":5.37441,"is_reserved":false,"is_disabled":false,"rental_uris":{"android":"levelo://app?vid=20d43469-0b35-4110-9c40-be0f1a781705","ios":"levelo://app?vid=20d43469-0b35-4110-9c40-be0f1a781705"},"vehicle_type_id":"4","last_reported":1732003965,"current_range_meters":28000,"station_id":"ce4bhgp2rcd13ifvqfc0","pricing_plan_id":"cebpf4jnsgd1na2vs0mg"},{"bike_id":"66010a32-01cb-4e8c-b4d4-e9efb6ebfb75","system_id":"levelo_inurba_marseille","lat":43.31225,"lon":5.36867,"is_reserved":false,"is_disabled":false,"rental_uris":{"android":"levelo://app?vid=66010a32-01cb-4e8c-b4d4-e9efb6ebfb75","ios":"levelo://app?vid=66010a32-01cb-4e8c-b4d4-e9efb6ebfb75"},"vehicle_type_id":"4","last_reported":1732003965,"current_range_meters":6800,"station_id":"ce4bgl92rcd13ifvqbq0","pricing_plan_id":"cebpf4jnsgd1na2vs0mg"},{"bike_id":"9f1dfffb-1213-4f6e-84d3-a2f0789a9ef3","system_id":"levelo_inurba_marseille","lat":43.27619,"lon":5.35872,"is_reserved":false,"is_disabled":true,"rental_uris":{"android":"levelo://app?vid=9f1dfffb-1213-4f6e-84d3-a2f0789a9ef3","ios":"levelo://app?vid=9f1dfffb-1213-4f6e-84d3-a2f0789a9ef3"},"vehicle_type_id":"4","last_reported":1732003965,"current_range_meters":0,"station_id":"","pricing_plan_id":"cebpf4jnsgd1na2vs0mg"},{"bike_id":"8dfe3502-1a44-41d0-93ec-2f8847296f61","system_id":"levelo_inurba_marseille","lat":43.29194,"lon":5.358,"is_reserved":false,"is_disabled":true,"rental_uris":{"android":"levelo://app?vid=8dfe3502-1a44-41d0-93ec-2f8847296f61","ios":"levelo://app?vid=8dfe3502-1a44-41d0-93ec-2f8847296f61"},"vehicle_type_id":"4","last_reported":1732003965,"current_range_meters":38400,"station_id":"ce4bhb12rcd13ifvqel0","pricing_plan_id":"cebpf4jnsgd1na2vs0mg"},{"bike_id":"954054ad-77ac-46c3-a1b5-c8fc266a522b","system_id":"levelo_inurba_marseille","lat":43.31725,"lon":5.42397,"is_reserved":false,"is_disabled":false,"rental_uris":{"android":"levelo://app?vid=954054ad-77ac-46c3-a1b5-c8fc266a522b","ios":"levelo://app?vid=954054ad-77ac-46c3-a1b5-c8fc266a522b"},"vehicle_type_id":"4","last_reported":1732003965,"current_range_meters":38800,"station_id":"ce4bhp92rcd13ifvqhbg","pricing_plan_id":"cebpf4jnsgd1na2vs0mg"},{"bike_id":"abe11c8b-c810-4533-ba86-dc4e2368bb2a","system_id":"levelo_inurba_marseille","lat":43.30167,"lon":5.36615,"is_reserved":false,"is_disabled":false,"rental_uris":{"android":"levelo://app?vid=abe11c8b-c810-4533-ba86-dc4e2368bb2a","ios":"levelo://app?vid=abe11c8b-c810-4533-ba86-dc4e2368bb2a"},"vehicle_type_id":"4","last_reported":1732003965,"current_range_meters":25600,"station_id":"ce4bgrh2rcd13ifvqc8g","pricing_plan_id":"cebpf4jnsgd1na2vs0mg"},{"bike_id":"353c6a8d-965b-4c4e-afca-3ed0328c2d2e","system_id":"levelo_inurba_marseille","lat":43.26967,"lon":5.39036,"is_reserved":false,"is_disabled":false,"rental_uris":{"android":"levelo://app?vid=353c6a8d-965b-4c4e-afca-3ed0328c2d2e","ios":"levelo://app?vid=353c6a8d-965b-4c4e-afca-3ed0328c2d2e"},"vehicle_type_id":"4","last_reported":1732003965,"current_range_meters":30400,"station_id":"ce4bhh92rcd13ifvqfj0","pricing_plan_id":"cebpf4jnsgd1na2vs0mg"},{"bike_id":"2d983866-913c-4390-ae48-1873d10c9730","system_id":"levelo_inurba_marseille","lat":43.24812,"lon":5.37457,"is_reserved":false,"is_disabled":true,"rental_uris":{"android":"levelo://app?vid=2d983866-913c-4390-ae48-1873d10c9730","ios":"levelo://app?vid=2d983866-913c-4390-ae48-1873d10c9730"},"vehicle_type_id":"4","last_reported":1732003965,"current_range_meters":17200,"station_id":"ce4bhgh2rcd13ifvqfb0","pricing_plan_id":"cebpf4jnsgd1na2vs0mg"},{"bike_id":"adbc8abd-06e0-4835-a2e5-f45aac7ecb0a","system_id":"levelo_inurba_marseille","lat":43.30462,"lon":5.37897,"is_reserved":false,"is_disabled":false,"rental_uris":{"android":"levelo://app?vid=adbc8abd-06e0-4835-a2e5-f45aac7ecb0a","ios":"levelo://app?vid=adbc8abd-06e0-4835-a2e5-f45aac7ecb0a"},"vehicle_type_id":"4","last_reported":1732003965,"current_range_meters":28800,"station_id":"ce4bgup2rcd13ifvqcn0","pricing_plan_id":"cebpf4jnsgd1na2vs0mg"},{"bike_id":"d7b9d27e-fc4c-4617-af5f-dc76fe8cfae8","system_id":"levelo_inurba_marseille","lat":43.31353,"lon":5.3673,"is_reserved":false,"is_disabled":false,"rental_uris":{"android":"levelo://app?vid=d7b9d27e-fc4c-4617-af5f-dc76fe8cfae8","ios":"levelo://app?vid=d7b9d27e-fc4c-4617-af5f-dc76fe8cfae8"},"vehicle_type_id":"4","last_reported":1732003965,"current_range_meters":32400,"station_id":"ce4bgr92rcd13ifvqc6g","pricing_plan_id":"cebpf4jnsgd1na2vs0mg"},{"bike_id":"23652d48-f01f-4bbf-a184-4995db5230ae","system_id":"levelo_inurba_marseille","lat":43.30157,"lon":5.38081,"is_reserved":false,"is_disabled":false,"rental_uris":{"android":"levelo://app?vid=23652d48-f01f-4bbf-a184-4995db5230ae","ios":"levelo://app?vid=23652d48-f01f-4bbf-a184-4995db5230ae"},"vehicle_type_id":"4","last_reported":1732003965,"current_range_meters":24400,"station_id":"ce4bgjp2rcd13ifvqbh0","pricing_plan_id":"cebpf4jnsgd1na2vs0mg"},{"bike_id":"88196073-5d79-4eef-8b98-5b6c67eee457","system_id":"levelo_inurba_marseille","lat":43.31083,"lon":5.4243,"is_reserved":false,"is_disabled":false,"rental_uris":{"android":"levelo://app?vid=88196073-5d79-4eef-8b98-5b6c67eee457","ios":"levelo://app?vid=88196073-5d79-4eef-8b98-5b6c67eee457"},"vehicle_type_id":"4","last_reported":1732003965,"current_range_meters":18800,"station_id":"ce4bhp92rcd13ifvqhag","pricing_plan_id":"cebpf4jnsgd1na2vs0mg"},{"bike_id":"e2552533-ff42-49e1-bc04-27ec8fbf6c28","system_id":"levelo_inurba_marseille","lat":43.30459,"lon":5.37905,"is_reserved":false,"is_disabled":true,"rental_uris":{"android":"levelo://app?vid=e2552533-ff42-49e1-bc04-27ec8fbf6c28","ios":"levelo://app?vid=e2552533-ff42-49e1-bc04-27ec8fbf6c28"},"vehicle_type_id":"4","last_reported":1732003965,"current_range_meters":28400,"station_id":"ce4bgup2rcd13ifvqcn0","pricing_plan_id":"cebpf4jnsgd1na2vs0mg"},{"bike_id":"4fc8ad14-ec32-4e5d-98b7-e83e64c4feb7","system_id":"levelo_inurba_marseille","lat":43.24076,"lon":5.37758,"is_reserved":false,"is_disabled":false,"rental_uris":{"android":"levelo://app?vid=4fc8ad14-ec32-4e5d-98b7-e83e64c4feb7","ios":"levelo://app?vid=4fc8ad14-ec32-4e5d-98b7-e83e64c4feb7"},"vehicle_type_id":"4","last_reported":1732003965,"current_range_meters":6000,"station_id":"ce4bhnp2rcd13ifvqgvg","pricing_plan_id":"cebpf4jnsgd1na2vs0mg"},{"bike_id":"dc6d24e2-2777-4e90-a873-656596156e63","system_id":"levelo_inurba_marseille","lat":43.33597,"lon":5.41017,"is_reserved":false,"is_disabled":false,"rental_uris":{"android":"levelo://app?vid=dc6d24e2-2777-4e90-a873-656596156e63","ios":"levelo://app?vid=dc6d24e2-2777-4e90-a873-656596156e63"},"vehicle_type_id":"4","last_reported":1732003965,"current_range_meters":18000,"station_id":"ce4bhqh2rcd13ifvqhmg","pricing_plan_id":"cebpf4jnsgd1na2vs0mg"},{"bike_id":"3f2535ef-a383-4045-9ba4-aa662bf8b063","system_id":"levelo_inurba_marseille","lat":43.29898,"lon":5.4367,"is_reserved":false,"is_disabled":false,"rental_uris":{"android":"levelo://app?vid=3f2535ef-a383-4045-9ba4-aa662bf8b063","ios":"levelo://app?vid=3f2535ef-a383-4045-9ba4-aa662bf8b063"},"vehicle_type_id":"4","last_reported":1732003965,"current_range_meters":37600,"station_id":"ce4bhpp2rcd13ifvqhfg","pricing_plan_id":"cebpf4jnsgd1na2vs0mg"},{"bike_id":"4430c7fe-75c4-4750-ade5-2860cae79f17","system_id":"levelo_inurba_marseille","lat":43.23154,"lon":5.43699,"is_reserved":false,"is_disabled":false,"rental_uris":{"android":"levelo://app?vid=4430c7fe-75c4-4750-ade5-2860cae79f17","ios":"levelo://app?vid=4430c7fe-75c4-4750-ade5-2860cae79f17"},"vehicle_type_id":"4","last_reported":1732003965,"current_range_meters":9600,"station_id":"ce4bhmp2rcd13ifvqgog","pricing_plan_id":"cebpf4jnsgd1na2vs0mg"},{"bike_id":"bbe3cfb0-911d-4bbf-8512-7ffa0cb97a72","system_id":"levelo_inurba_marseille","lat":43.27324,"lon":5.39076,"is_reserved":false,"is_disabled":false,"rental_uris":{"android":"levelo://app?vid=bbe3cfb0-911d-4bbf-8512-7ffa0cb97a72","ios":"levelo://app?vid=bbe3cfb0-911d-4bbf-8512-7ffa0cb97a72"},"vehicle_type_id":"4","last_reported":1732003965,"current_range_meters":26000,"station_id":"ce4bhgp2rcd13ifvqfe0","pricing_plan_id":"cebpf4jnsgd1na2vs0mg"},{"bike_id":"e264033a-f915-4b27-a08a-2f42cfcf052a","system_id":"levelo_inurba_marseille","lat":43.337444,"lon":5.374475,"is_reserved":false,"is_disabled":false,"rental_uris":{"android":"levelo://app?vid=e264033a-f915-4b27-a08a-2f42cfcf052a","ios":"levelo://app?vid=e264033a-f915-4b27-a08a-2f42cfcf052a"},"vehicle_type_id":"4","last_reported":1732003965,"current_range_meters":34000,"station_id":"","pricing_plan_id":"cebpf4jnsgd1na2vs0mg"},{"bike_id":"affc6a42-c87f-4640-9297-4a4ea6bc3ad3","system_id":"levelo_inurba_marseille","lat":43.29557,"lon":5.42275,"is_reserved":false,"is_disabled":false,"rental_uris":{"android":"levelo://app?vid=affc6a42-c87f-4640-9297-4a4ea6bc3ad3","ios":"levelo://app?vid=affc6a42-c87f-4640-9297-4a4ea6bc3ad3"},"vehicle_type_id":"4","last_reported":1732003965,"current_range_meters":38800,"station_id":"ce4bhph2rcd13ifvqhdg","pricing_plan_id":"cebpf4jnsgd1na2vs0mg"},{"bike_id":"3c5b6169-0108-4049-9524-584d62f6c0ac","system_id":"levelo_inurba_marseille","lat":43.33718,"lon":5.39172,"is_reserved":false,"is_disabled":false,"rental_uris":{"android":"levelo://app?vid=3c5b6169-0108-4049-9524-584d62f6c0ac","ios":"levelo://app?vid=3c5b6169-0108-4049-9524-584d62f6c0ac"},"vehicle_type_id":"4","last_reported":1732003965,"current_range_meters":38800,"station_id":"ce4bhr92rcd13ifvqhsg","pricing_plan_id":"cebpf4jnsgd1na2vs0mg"},{"bike_id":"df900be8-2c12-453f-bc2b-7090adc12272","system_id":"levelo_inurba_marseille","lat":43.30136,"lon":5.38765,"is_reserved":false,"is_disabled":true,"rental_uris":{"android":"levelo://app?vid=df900be8-2c12-453f-bc2b-7090adc12272","ios":"levelo://app?vid=df900be8-2c12-453f-bc2b-7090adc12272"},"vehicle_type_id":"4","last_reported":1732003965,"current_range_meters":22800,"station_id":"ce4bghh2rcd13ifvqb60","pricing_plan_id":"cebpf4jnsgd1na2vs0mg"},{"bike_id":"123862ba-68e2-48f6-a477-31ab9dae8bd5","system_id":"levelo_inurba_marseille","lat":43.337444,"lon":5.374475,"is_reserved":false,"is_disabled":true,"rental_uris":{"android":"levelo://app?vid=123862ba-68e2-48f6-a477-31ab9dae8bd5","ios":"levelo://app?vid=123862ba-68e2-48f6-a477-31ab9dae8bd5"},"vehicle_type_id":"4","last_reported":1732003965,"current_range_meters":16800,"station_id":"","pricing_plan_id":"cebpf4jnsgd1na2vs0mg"},{"bike_id":"25ddf417-8230-4dbc-b38a-2b2cb1ba9d73","system_id":"levelo_inurba_marseille","lat":43.30281,"lon":5.37684,"is_reserved":false,"is_disabled":true,"rental_uris":{"android":"levelo://app?vid=25ddf417-8230-4dbc-b38a-2b2cb1ba9d73","ios":"levelo://app?vid=25ddf417-8230-4dbc-b38a-2b2cb1ba9d73"},"vehicle_type_id":"4","last_reported":1732003965,"current_range_meters":11200,"station_id":"ce4bguh2rcd13ifvqcj0","pricing_plan_id":"cebpf4jnsgd1na2vs0mg"},{"bike_id":"9f6f45f4-ac0d-4056-b187-c460fe086bcd","system_id":"levelo_inurba_marseille","lat":43.30907,"lon":5.36845,"is_reserved":false,"is_disabled":true,"rental_uris":{"android":"levelo://app?vid=9f6f45f4-ac0d-4056-b187-c460fe086bcd","ios":"levelo://app?vid=9f6f45f4-ac0d-4056-b187-c460fe086bcd"},"vehicle_type_id":"4","last_reported":1732003965,"current_range_meters":38400,"station_id":"ce4bgn92rcd13ifvqbvg","pricing_plan_id":"cebpf4jnsgd1na2vs0mg"},{"bike_id":"c0414705-628e-4ecb-a390-6a6747dfe975","system_id":"levelo_inurba_marseille","lat":43.28972,"lon":5.37817,"is_reserved":false,"is_disabled":false,"rental_uris":{"android":"levelo://app?vid=c0414705-628e-4ecb-a390-6a6747dfe975","ios":"levelo://app?vid=c0414705-628e-4ecb-a390-6a6747dfe975"},"vehicle_type_id":"4","last_reported":1732003965,"current_range_meters":36000,"station_id":"ce4bh9p2rcd13ifvqed0","pricing_plan_id":"cebpf4jnsgd1na2vs0mg"},{"bike_id":"c9d38752-0196-4fdb-8e87-b59e624cbbe6","system_id":"levelo_inurba_marseille","lat":43.24078,"lon":5.37756,"is_reserved":false,"is_disabled":false,"rental_uris":{"android":"levelo://app?vid=c9d38752-0196-4fdb-8e87-b59e624cbbe6","ios":"levelo://app?vid=c9d38752-0196-4fdb-8e87-b59e624cbbe6"},"vehicle_type_id":"4","last_reported":1732003965,"current_range_meters":4400,"station_id":"ce4bhnp2rcd13ifvqgvg","pricing_plan_id":"cebpf4jnsgd1na2vs0mg"},{"bike_id":"f0f17b7f-3dc4-4e68-ab2f-b5ca340ead61","system_id":"levelo_inurba_marseille","lat":43.284998,"lon":5.384527,"is_reserved":false,"is_disabled":false,"rental_uris":{"android":"levelo://app?vid=f0f17b7f-3dc4-4e68-ab2f-b5ca340ead61","ios":"levelo://app?vid=f0f17b7f-3dc4-4e68-ab2f-b5ca340ead61"},"vehicle_type_id":"4","last_reported":1732003965,"current_range_meters":24400,"station_id":"ce4bh512rcd13ifvqe3g","pricing_plan_id":"cebpf4jnsgd1na2vs0mg"},{"bike_id":"611ce1d1-8049-472d-9623-d4ffd429639f","system_id":"levelo_inurba_marseille","lat":43.29792,"lon":5.38091,"is_reserved":false,"is_disabled":true,"rental_uris":{"android":"levelo://app?vid=611ce1d1-8049-472d-9623-d4ffd429639f","ios":"levelo://app?vid=611ce1d1-8049-472d-9623-d4ffd429639f"},"vehicle_type_id":"4","last_reported":1732003965,"current_range_meters":35600,"station_id":"ce4bgip2rcd13ifvqbb0","pricing_plan_id":"cebpf4jnsgd1na2vs0mg"},{"bike_id":"32cea7ef-7e0d-489f-ad2f-1128114cbf70","system_id":"levelo_inurba_marseille","lat":43.30148,"lon":5.38075,"is_reserved":false,"is_disabled":false,"rental_uris":{"android":"levelo://app?vid=32cea7ef-7e0d-489f-ad2f-1128114cbf70","ios":"levelo://app?vid=32cea7ef-7e0d-489f-ad2f-1128114cbf70"},"vehicle_type_id":"4","last_reported":1732003965,"current_range_meters":35200,"station_id":"ce4bgjp2rcd13ifvqbh0","pricing_plan_id":"cebpf4jnsgd1na2vs0mg"},{"bike_id":"9fb8e333-2100-417e-aa99-7cd335414c81","system_id":"levelo_inurba_marseille","lat":43.283479,"lon":5.381071,"is_reserved":false,"is_disabled":false,"rental_uris":{"android":"levelo://app?vid=9fb8e333-2100-417e-aa99-7cd335414c81","ios":"levelo://app?vid=9fb8e333-2100-417e-aa99-7cd335414c81"},"vehicle_type_id":"4","last_reported":1732003965,"current_range_meters":30000,"station_id":"ce4bh412rcd13ifvqdr0","pricing_plan_id":"cebpf4jnsgd1na2vs0mg"},{"bike_id":"f607b28d-9e50-460d-a0de-f11022c1a7fe","system_id":"levelo_inurba_marseille","lat":43.26506,"lon":5.39535,"is_reserved":false,"is_disabled":false,"rental_uris":{"android":"levelo://app?vid=f607b28d-9e50-460d-a0de-f11022c1a7fe","ios":"levelo://app?vid=f607b28d-9e50-460d-a0de-f11022c1a7fe"},"vehicle_type_id":"4","last_reported":1732003965,"current_range_meters":32000,"station_id":"ce4bhi12rcd13ifvqfq0","pricing_plan_id":"cebpf4jnsgd1na2vs0mg"},{"bike_id":"efaa20f7-d2fb-4778-9ca3-b17e9193d440","system_id":"levelo_inurba_marseille","lat":43.33711,"lon":5.39192,"is_reserved":false,"is_disabled":false,"rental_uris":{"android":"levelo://app?vid=efaa20f7-d2fb-4778-9ca3-b17e9193d440","ios":"levelo://app?vid=efaa20f7-d2fb-4778-9ca3-b17e9193d440"},"vehicle_type_id":"4","last_reported":1732003965,"current_range_meters":38000,"station_id":"ce4bhr92rcd13ifvqhsg","pricing_plan_id":"cebpf4jnsgd1na2vs0mg"},{"bike_id":"4b1089fa-7b1e-4c9e-b4cc-042056d6026b","system_id":"levelo_inurba_marseille","lat":43.30208,"lon":5.3946,"is_reserved":false,"is_disabled":true,"rental_uris":{"android":"levelo://app?vid=4b1089fa-7b1e-4c9e-b4cc-042056d6026b","ios":"levelo://app?vid=4b1089fa-7b1e-4c9e-b4cc-042056d6026b"},"vehicle_type_id":"4","last_reported":1732003965,"current_range_meters":28800,"station_id":"ce4bh0p2rcd13ifvqd70","pricing_plan_id":"cebpf4jnsgd1na2vs0mg"},{"bike_id":"acaa269a-6487-4dfd-9f5c-ef753051bdb9","system_id":"levelo_inurba_marseille","lat":43.31115,"lon":5.37766,"is_reserved":false,"is_disabled":false,"rental_uris":{"android":"levelo://app?vid=acaa269a-6487-4dfd-9f5c-ef753051bdb9","ios":"levelo://app?vid=acaa269a-6487-4dfd-9f5c-ef753051bdb9"},"vehicle_type_id":"4","last_reported":1732003965,"current_range_meters":22800,"station_id":"ce4bgt92rcd13ifvqcg0","pricing_plan_id":"cebpf4jnsgd1na2vs0mg"},{"bike_id":"d5d93423-8b59-49ff-a38f-f9112bad0624","system_id":"levelo_inurba_marseille","lat":43.23153,"lon":5.43707,"is_reserved":false,"is_disabled":true,"rental_uris":{"android":"levelo://app?vid=d5d93423-8b59-49ff-a38f-f9112bad0624","ios":"levelo://app?vid=d5d93423-8b59-49ff-a38f-f9112bad0624"},"vehicle_type_id":"4","last_reported":1732003965,"current_range_meters":20400,"station_id":"ce4bhmp2rcd13ifvqgog","pricing_plan_id":"cebpf4jnsgd1na2vs0mg"},{"bike_id":"03ed0041-1fdf-4b06-afdf-60708b213f8a","system_id":"levelo_inurba_marseille","lat":43.27205,"lon":5.39178,"is_reserved":false,"is_disabled":false,"rental_uris":{"android":"levelo://app?vid=03ed0041-1fdf-4b06-afdf-60708b213f8a","ios":"levelo://app?vid=03ed0041-1fdf-4b06-afdf-60708b213f8a"},"vehicle_type_id":"4","last_reported":1732003965,"current_range_meters":38800,"station_id":"ce4bhhp2rcd13ifvqfm0","pricing_plan_id":"cebpf4jnsgd1na2vs0mg"},{"bike_id":"fbf50743-a751-4d22-8d7f-9047b9d72787","system_id":"levelo_inurba_marseille","lat":43.3064,"lon":5.38,"is_reserved":false,"is_disabled":false,"rental_uris":{"android":"levelo://app?vid=fbf50743-a751-4d22-8d7f-9047b9d72787","ios":"levelo://app?vid=fbf50743-a751-4d22-8d7f-9047b9d72787"},"vehicle_type_id":"4","last_reported":1732003965,"current_range_meters":36400,"station_id":"","pricing_plan_id":"cebpf4jnsgd1na2vs0mg"},{"bike_id":"807d3beb-ce66-4cda-89ca-e8abb8943457","system_id":"levelo_inurba_marseille","lat":43.28935,"lon":5.39631,"is_reserved":false,"is_disabled":true,"rental_uris":{"android":"levelo://app?vid=807d3beb-ce66-4cda-89ca-e8abb8943457","ios":"levelo://app?vid=807d3beb-ce66-4cda-89ca-e8abb8943457"},"vehicle_type_id":"4","last_reported":1732003965,"current_range_meters":400,"station_id":"ce4bh3h2rcd13ifvqdn0","pricing_plan_id":"cebpf4jnsgd1na2vs0mg"},{"bike_id":"cb123ec7-9c9a-45f2-96dd-c41aaa4b749b","system_id":"levelo_inurba_marseille","lat":43.26471,"lon":5.3954,"is_reserved":false,"is_disabled":false,"rental_uris":{"android":"levelo://app?vid=cb123ec7-9c9a-45f2-96dd-c41aaa4b749b","ios":"levelo://app?vid=cb123ec7-9c9a-45f2-96dd-c41aaa4b749b"},"vehicle_type_id":"4","last_reported":1732003965,"current_range_meters":16000,"station_id":"ce4bhi12rcd13ifvqfq0","pricing_plan_id":"cebpf4jnsgd1na2vs0mg"},{"bike_id":"724ecfa1-b209-4088-aacd-29eba6ced0a7","system_id":"levelo_inurba_marseille","lat":43.29917,"lon":5.36538,"is_reserved":false,"is_disabled":false,"rental_uris":{"android":"levelo://app?vid=724ecfa1-b209-4088-aacd-29eba6ced0a7","ios":"levelo://app?vid=724ecfa1-b209-4088-aacd-29eba6ced0a7"},"vehicle_type_id":"4","last_reported":1732003965,"current_range_meters":12800,"station_id":"ce4bgm92rcd13ifvqbr0","pricing_plan_id":"cebpf4jnsgd1na2vs0mg"},{"bike_id":"5ed0dcf0-c2ca-47d5-8497-b51c5d83f101","system_id":"levelo_inurba_marseille","lat":43.2669,"lon":5.38273,"is_reserved":false,"is_disabled":true,"rental_uris":{"android":"levelo://app?vid=5ed0dcf0-c2ca-47d5-8497-b51c5d83f101","ios":"levelo://app?vid=5ed0dcf0-c2ca-47d5-8497-b51c5d83f101"},"vehicle_type_id":"4","last_reported":1732003965,"current_range_meters":36800,"station_id":"ce4bhg92rcd13ifvqf90","pricing_plan_id":"cebpf4jnsgd1na2vs0mg"},{"bike_id":"946c3aba-62bc-4e25-b56e-cdfc0fab188f","system_id":"levelo_inurba_marseille","lat":43.25498,"lon":5.37649,"is_reserved":false,"is_disabled":false,"rental_uris":{"android":"levelo://app?vid=946c3aba-62bc-4e25-b56e-cdfc0fab188f","ios":"levelo://app?vid=946c3aba-62bc-4e25-b56e-cdfc0fab188f"},"vehicle_type_id":"4","last_reported":1732003965,"current_range_meters":16400,"station_id":"ce4bhh12rcd13ifvqff0","pricing_plan_id":"cebpf4jnsgd1na2vs0mg"},{"bike_id":"8608c681-c9a1-4cb3-8229-4d1c6952bee6","system_id":"levelo_inurba_marseille","lat":43.29076,"lon":5.37168,"is_reserved":false,"is_disabled":false,"rental_uris":{"android":"levelo://app?vid=8608c681-c9a1-4cb3-8229-4d1c6952bee6","ios":"levelo://app?vid=8608c681-c9a1-4cb3-8229-4d1c6952bee6"},"vehicle_type_id":"4","last_reported":1732003965,"current_range_meters":5600,"station_id":"ce4bh5p2rcd13ifvqe4g","pricing_plan_id":"cebpf4jnsgd1na2vs0mg"},{"bike_id":"57d6beae-ca13-4de4-8a05-2d270d80bf21","system_id":"levelo_inurba_marseille","lat":43.29419,"lon":5.38623,"is_reserved":false,"is_disabled":false,"rental_uris":{"android":"levelo://app?vid=57d6beae-ca13-4de4-8a05-2d270d80bf21","ios":"levelo://app?vid=57d6beae-ca13-4de4-8a05-2d270d80bf21"},"vehicle_type_id":"4","last_reported":1732003965,"current_range_meters":16000,"station_id":"ce4bh2h2rcd13ifvqdh0","pricing_plan_id":"cebpf4jnsgd1na2vs0mg"},{"bike_id":"e05595c3-9df7-4515-937c-2da8a734b90e","system_id":"levelo_inurba_marseille","lat":43.28724,"lon":5.37931,"is_reserved":false,"is_disabled":false,"rental_uris":{"android":"levelo://app?vid=e05595c3-9df7-4515-937c-2da8a734b90e","ios":"levelo://app?vid=e05595c3-9df7-4515-937c-2da8a734b90e"},"vehicle_type_id":"4","last_reported":1732003965,"current_range_meters":9600,"station_id":"ce4bh9p2rcd13ifvqec0","pricing_plan_id":"cebpf4jnsgd1na2vs0mg"},{"bike_id":"028dad50-11c4-489b-bd47-cd6bbfdc9a9f","system_id":"levelo_inurba_marseille","lat":43.30947,"lon":5.39026,"is_reserved":false,"is_disabled":false,"rental_uris":{"android":"levelo://app?vid=028dad50-11c4-489b-bd47-cd6bbfdc9a9f","ios":"levelo://app?vid=028dad50-11c4-489b-bd47-cd6bbfdc9a9f"},"vehicle_type_id":"4","last_reported":1732003965,"current_range_meters":10800,"station_id":"ce4bgup2rcd13ifvqco0","pricing_plan_id":"cebpf4jnsgd1na2vs0mg"},{"bike_id":"f0e2f4e5-f602-4a1c-ba1a-aa1d1150f28c","system_id":"levelo_inurba_marseille","lat":43.29628,"lon":5.40595,"is_reserved":false,"is_disabled":false,"rental_uris":{"android":"levelo://app?vid=f0e2f4e5-f602-4a1c-ba1a-aa1d1150f28c","ios":"levelo://app?vid=f0e2f4e5-f602-4a1c-ba1a-aa1d1150f28c"},"vehicle_type_id":"4","last_reported":1732003965,"current_range_meters":38800,"station_id":"ce4bh0h2rcd13ifvqd60","pricing_plan_id":"cebpf4jnsgd1na2vs0mg"},{"bike_id":"16a500c9-06d7-4890-af4e-7bd7373238bc","system_id":"levelo_inurba_marseille","lat":43.3095,"lon":5.39034,"is_reserved":false,"is_disabled":false,"rental_uris":{"android":"levelo://app?vid=16a500c9-06d7-4890-af4e-7bd7373238bc","ios":"levelo://app?vid=16a500c9-06d7-4890-af4e-7bd7373238bc"},"vehicle_type_id":"4","last_reported":1732003965,"current_range_meters":30400,"station_id":"ce4bgup2rcd13ifvqco0","pricing_plan_id":"cebpf4jnsgd1na2vs0mg"},{"bike_id":"628384db-a629-44bc-856e-9d5ee504cce9","system_id":"levelo_inurba_marseille","lat":43.25002,"lon":5.38925,"is_reserved":false,"is_disabled":true,"rental_uris":{"android":"levelo://app?vid=628384db-a629-44bc-856e-9d5ee504cce9","ios":"levelo://app?vid=628384db-a629-44bc-856e-9d5ee504cce9"},"vehicle_type_id":"4","last_reported":1732003965,"current_range_meters":39200,"station_id":"ce4bhgp2rcd13ifvqfd0","pricing_plan_id":"cebpf4jnsgd1na2vs0mg"},{"bike_id":"3f32c9d6-8aed-4b6d-92f4-88b3106e6e04","system_id":"levelo_inurba_marseille","lat":43.25861,"lon":5.39903,"is_reserved":false,"is_disabled":true,"rental_uris":{"android":"levelo://app?vid=3f32c9d6-8aed-4b6d-92f4-88b3106e6e04","ios":"levelo://app?vid=3f32c9d6-8aed-4b6d-92f4-88b3106e6e04"},"vehicle_type_id":"4","last_reported":1732003965,"current_range_meters":8800,"station_id":"ce4bhl92rcd13ifvqghg","pricing_plan_id":"cebpf4jnsgd1na2vs0mg"},{"bike_id":"03d81797-2d3e-41fb-83d2-92ced9838d9a","system_id":"levelo_inurba_marseille","lat":43.268417,"lon":5.40361,"is_reserved":false,"is_disabled":true,"rental_uris":{"android":"levelo://app?vid=03d81797-2d3e-41fb-83d2-92ced9838d9a","ios":"levelo://app?vid=03d81797-2d3e-41fb-83d2-92ced9838d9a"},"vehicle_type_id":"4","last_reported":1732003965,"current_range_meters":28800,"station_id":"ce501612rcd8frsf0b60","pricing_plan_id":"cebpf4jnsgd1na2vs0mg"},{"bike_id":"9e644a8a-6986-4d04-aa19-15aaad07e359","system_id":"levelo_inurba_marseille","lat":43.26683,"lon":5.38276,"is_reserved":false,"is_disabled":false,"rental_uris":{"android":"levelo://app?vid=9e644a8a-6986-4d04-aa19-15aaad07e359","ios":"levelo://app?vid=9e644a8a-6986-4d04-aa19-15aaad07e359"},"vehicle_type_id":"4","last_reported":1732003965,"current_range_meters":34000,"station_id":"ce4bhg92rcd13ifvqf90","pricing_plan_id":"cebpf4jnsgd1na2vs0mg"},{"bike_id":"7e225853-ea2f-419d-a4b1-862371673496","system_id":"levelo_inurba_marseille","lat":43.26684,"lon":5.38271,"is_reserved":false,"is_disabled":false,"rental_uris":{"android":"levelo://app?vid=7e225853-ea2f-419d-a4b1-862371673496","ios":"levelo://app?vid=7e225853-ea2f-419d-a4b1-862371673496"},"vehicle_type_id":"4","last_reported":1732003965,"current_range_meters":8800,"station_id":"ce4bhg92rcd13ifvqf90","pricing_plan_id":"cebpf4jnsgd1na2vs0mg"},{"bike_id":"209fb4d1-72f4-458c-8ec5-067e1928fc59","system_id":"levelo_inurba_marseille","lat":43.24077,"lon":5.3774,"is_reserved":false,"is_disabled":false,"rental_uris":{"android":"levelo://app?vid=209fb4d1-72f4-458c-8ec5-067e1928fc59","ios":"levelo://app?vid=209fb4d1-72f4-458c-8ec5-067e1928fc59"},"vehicle_type_id":"4","last_reported":1732003965,"current_range_meters":32400,"station_id":"ce4bhnp2rcd13ifvqgvg","pricing_plan_id":"cebpf4jnsgd1na2vs0mg"},{"bike_id":"4de41581-3b4d-48da-b235-99669862c70a","system_id":"levelo_inurba_marseille","lat":43.29612,"lon":5.37703,"is_reserved":false,"is_disabled":true,"rental_uris":{"android":"levelo://app?vid=4de41581-3b4d-48da-b235-99669862c70a","ios":"levelo://app?vid=4de41581-3b4d-48da-b235-99669862c70a"},"vehicle_type_id":"4","last_reported":1732003965,"current_range_meters":30000,"station_id":"ce4bgi92rcd13ifvqb90","pricing_plan_id":"cebpf4jnsgd1na2vs0mg"},{"bike_id":"508e1ba1-a69e-46c5-94ea-726c5aa0bcf0","system_id":"levelo_inurba_marseille","lat":43.27811,"lon":5.40721,"is_reserved":false,"is_disabled":false,"rental_uris":{"android":"levelo://app?vid=508e1ba1-a69e-46c5-94ea-726c5aa0bcf0","ios":"levelo://app?vid=508e1ba1-a69e-46c5-94ea-726c5aa0bcf0"},"vehicle_type_id":"4","last_reported":1732003965,"current_range_meters":20000,"station_id":"ce4bhnh2rcd13ifvqgtg","pricing_plan_id":"cebpf4jnsgd1na2vs0mg"},{"bike_id":"3d4a8a11-cd8e-4217-a130-2b8f97253671","system_id":"levelo_inurba_marseille","lat":43.30277,"lon":5.37698,"is_reserved":false,"is_disabled":false,"rental_uris":{"android":"levelo://app?vid=3d4a8a11-cd8e-4217-a130-2b8f97253671","ios":"levelo://app?vid=3d4a8a11-cd8e-4217-a130-2b8f97253671"},"vehicle_type_id":"4","last_reported":1732003965,"current_range_meters":38800,"station_id":"ce4bguh2rcd13ifvqcj0","pricing_plan_id":"cebpf4jnsgd1na2vs0mg"},{"bike_id":"723f09a8-3fb7-4b3c-8551-7314d8f8e47e","system_id":"levelo_inurba_marseille","lat":43.31337,"lon":5.36728,"is_reserved":false,"is_disabled":false,"rental_uris":{"android":"levelo://app?vid=723f09a8-3fb7-4b3c-8551-7314d8f8e47e","ios":"levelo://app?vid=723f09a8-3fb7-4b3c-8551-7314d8f8e47e"},"vehicle_type_id":"4","last_reported":1732003965,"current_range_meters":24000,"station_id":"ce4bgr92rcd13ifvqc6g","pricing_plan_id":"cebpf4jnsgd1na2vs0mg"},{"bike_id":"91873aa0-8368-44cc-b0fa-0b227dcb9763","system_id":"levelo_inurba_marseille","lat":43.28864,"lon":5.39405,"is_reserved":false,"is_disabled":true,"rental_uris":{"android":"levelo://app?vid=91873aa0-8368-44cc-b0fa-0b227dcb9763","ios":"levelo://app?vid=91873aa0-8368-44cc-b0fa-0b227dcb9763"},"vehicle_type_id":"4","last_reported":1732003965,"current_range_meters":1200,"station_id":"","pricing_plan_id":"cebpf4jnsgd1na2vs0mg"},{"bike_id":"ad5cecd0-13c9-493d-900b-05aa26dcf148","system_id":"levelo_inurba_marseille","lat":43.29797,"lon":5.38097,"is_reserved":false,"is_disabled":false,"rental_uris":{"android":"levelo://app?vid=ad5cecd0-13c9-493d-900b-05aa26dcf148","ios":"levelo://app?vid=ad5cecd0-13c9-493d-900b-05aa26dcf148"},"vehicle_type_id":"4","last_reported":1732003965,"current_range_meters":34800,"station_id":"ce4bgip2rcd13ifvqbb0","pricing_plan_id":"cebpf4jnsgd1na2vs0mg"},{"bike_id":"85782696-36f2-4c33-98b6-2d88f8670e2c","system_id":"levelo_inurba_marseille","lat":43.31081,"lon":5.42429,"is_reserved":false,"is_disabled":false,"rental_uris":{"android":"levelo://app?vid=85782696-36f2-4c33-98b6-2d88f8670e2c","ios":"levelo://app?vid=85782696-36f2-4c33-98b6-2d88f8670e2c"},"vehicle_type_id":"4","last_reported":1732003965,"current_range_meters":36800,"station_id":"ce4bhp92rcd13ifvqhag","pricing_plan_id":"cebpf4jnsgd1na2vs0mg"},{"bike_id":"f963877a-3bc9-4977-a428-ab960a4bb62f","system_id":"levelo_inurba_marseille","lat":43.29277,"lon":5.36853,"is_reserved":false,"is_disabled":false,"rental_uris":{"android":"levelo://app?vid=f963877a-3bc9-4977-a428-ab960a4bb62f","ios":"levelo://app?vid=f963877a-3bc9-4977-a428-ab960a4bb62f"},"vehicle_type_id":"4","last_reported":1732003965,"current_range_meters":30800,"station_id":"ce4bhbp2rcd13ifvqesg","pricing_plan_id":"cebpf4jnsgd1na2vs0mg"},{"bike_id":"473fbdbc-c709-4353-a49a-daaad264830b","system_id":"levelo_inurba_marseille","lat":43.28438,"lon":5.39207,"is_reserved":false,"is_disabled":false,"rental_uris":{"android":"levelo://app?vid=473fbdbc-c709-4353-a49a-daaad264830b","ios":"levelo://app?vid=473fbdbc-c709-4353-a49a-daaad264830b"},"vehicle_type_id":"4","last_reported":1732003965,"current_range_meters":10800,"station_id":"ce4bhoh2rcd13ifvqh5g","pricing_plan_id":"cebpf4jnsgd1na2vs0mg"},{"bike_id":"4ff195aa-0e94-4780-a4e9-74e0f4125314","system_id":"levelo_inurba_marseille","lat":43.297871,"lon":5.393577,"is_reserved":false,"is_disabled":true,"rental_uris":{"android":"levelo://app?vid=4ff195aa-0e94-4780-a4e9-74e0f4125314","ios":"levelo://app?vid=4ff195aa-0e94-4780-a4e9-74e0f4125314"},"vehicle_type_id":"4","last_reported":1732003965,"current_range_meters":35600,"station_id":"chh1huq6cuj3fo74tm60","pricing_plan_id":"cebpf4jnsgd1na2vs0mg"},{"bike_id":"7a1d8a89-2a7e-4939-ab1a-d9cdb7e81301","system_id":"levelo_inurba_marseille","lat":43.29862,"lon":5.36735,"is_reserved":false,"is_disabled":true,"rental_uris":{"android":"levelo://app?vid=7a1d8a89-2a7e-4939-ab1a-d9cdb7e81301","ios":"levelo://app?vid=7a1d8a89-2a7e-4939-ab1a-d9cdb7e81301"},"vehicle_type_id":"4","last_reported":1732003965,"current_range_meters":0,"station_id":"","pricing_plan_id":"cebpf4jnsgd1na2vs0mg"},{"bike_id":"fae3e366-4e72-453f-b7d4-c08e1949b9ec","system_id":"levelo_inurba_marseille","lat":43.31077,"lon":5.42432,"is_reserved":false,"is_disabled":false,"rental_uris":{"android":"levelo://app?vid=fae3e366-4e72-453f-b7d4-c08e1949b9ec","ios":"levelo://app?vid=fae3e366-4e72-453f-b7d4-c08e1949b9ec"},"vehicle_type_id":"4","last_reported":1732003965,"current_range_meters":3600,"station_id":"ce4bhp92rcd13ifvqhag","pricing_plan_id":"cebpf4jnsgd1na2vs0mg"},{"bike_id":"84add0bd-cb10-4dcb-82e1-3da91d21fda0","system_id":"levelo_inurba_marseille","lat":43.29899,"lon":5.43661,"is_reserved":false,"is_disabled":false,"rental_uris":{"android":"levelo://app?vid=84add0bd-cb10-4dcb-82e1-3da91d21fda0","ios":"levelo://app?vid=84add0bd-cb10-4dcb-82e1-3da91d21fda0"},"vehicle_type_id":"4","last_reported":1732003965,"current_range_meters":37600,"station_id":"ce4bhpp2rcd13ifvqhfg","pricing_plan_id":"cebpf4jnsgd1na2vs0mg"},{"bike_id":"00a36eb1-c31f-4b0d-85b0-eb7aa11e8e55","system_id":"levelo_inurba_marseille","lat":43.29047,"lon":5.39939,"is_reserved":false,"is_disabled":true,"rental_uris":{"android":"levelo://app?vid=00a36eb1-c31f-4b0d-85b0-eb7aa11e8e55","ios":"levelo://app?vid=00a36eb1-c31f-4b0d-85b0-eb7aa11e8e55"},"vehicle_type_id":"4","last_reported":1732003965,"current_range_meters":0,"station_id":"ce4bh392rcd13ifvqdm0","pricing_plan_id":"cebpf4jnsgd1na2vs0mg"},{"bike_id":"8e141282-1bd3-458c-bc05-8943ab4a4035","system_id":"levelo_inurba_marseille","lat":43.31222,"lon":5.36853,"is_reserved":false,"is_disabled":false,"rental_uris":{"android":"levelo://app?vid=8e141282-1bd3-458c-bc05-8943ab4a4035","ios":"levelo://app?vid=8e141282-1bd3-458c-bc05-8943ab4a4035"},"vehicle_type_id":"4","last_reported":1732003965,"current_range_meters":36800,"station_id":"ce4bgl92rcd13ifvqbq0","pricing_plan_id":"cebpf4jnsgd1na2vs0mg"},{"bike_id":"c43bd717-5c53-4564-a1c1-8bd3e169d807","system_id":"levelo_inurba_marseille","lat":43.31756,"lon":5.39012,"is_reserved":false,"is_disabled":false,"rental_uris":{"android":"levelo://app?vid=c43bd717-5c53-4564-a1c1-8bd3e169d807","ios":"levelo://app?vid=c43bd717-5c53-4564-a1c1-8bd3e169d807"},"vehicle_type_id":"4","last_reported":1732003965,"current_range_meters":14400,"station_id":"ce4bhqp2rcd13ifvqhng","pricing_plan_id":"cebpf4jnsgd1na2vs0mg"},{"bike_id":"d482b473-8011-43d1-9203-ef428f8af553","system_id":"levelo_inurba_marseille","lat":43.2955,"lon":5.42285,"is_reserved":false,"is_disabled":false,"rental_uris":{"android":"levelo://app?vid=d482b473-8011-43d1-9203-ef428f8af553","ios":"levelo://app?vid=d482b473-8011-43d1-9203-ef428f8af553"},"vehicle_type_id":"4","last_reported":1732003965,"current_range_meters":14000,"station_id":"ce4bhph2rcd13ifvqhdg","pricing_plan_id":"cebpf4jnsgd1na2vs0mg"},{"bike_id":"75a4dc29-43a0-43d4-a7f4-de95d0277d12","system_id":"levelo_inurba_marseille","lat":43.24998,"lon":5.38936,"is_reserved":false,"is_disabled":false,"rental_uris":{"android":"levelo://app?vid=75a4dc29-43a0-43d4-a7f4-de95d0277d12","ios":"levelo://app?vid=75a4dc29-43a0-43d4-a7f4-de95d0277d12"},"vehicle_type_id":"4","last_reported":1732003965,"current_range_meters":14800,"station_id":"ce4bhgp2rcd13ifvqfd0","pricing_plan_id":"cebpf4jnsgd1na2vs0mg"},{"bike_id":"cde5eb04-35f5-4971-aec4-8004f9b2dcd9","system_id":"levelo_inurba_marseille","lat":43.28268,"lon":5.35063,"is_reserved":false,"is_disabled":true,"rental_uris":{"android":"levelo://app?vid=cde5eb04-35f5-4971-aec4-8004f9b2dcd9","ios":"levelo://app?vid=cde5eb04-35f5-4971-aec4-8004f9b2dcd9"},"vehicle_type_id":"4","last_reported":1732003965,"current_range_meters":34800,"station_id":"ce4bhbp2rcd13ifvqerg","pricing_plan_id":"cebpf4jnsgd1na2vs0mg"},{"bike_id":"c285c11f-9b36-4bc2-b2d9-efcee1febd1b","system_id":"levelo_inurba_marseille","lat":43.34144,"lon":5.40903,"is_reserved":false,"is_disabled":false,"rental_uris":{"android":"levelo://app?vid=c285c11f-9b36-4bc2-b2d9-efcee1febd1b","ios":"levelo://app?vid=c285c11f-9b36-4bc2-b2d9-efcee1febd1b"},"vehicle_type_id":"4","last_reported":1732003965,"current_range_meters":17200,"station_id":"ce4bhqh2rcd13ifvqhlg","pricing_plan_id":"cebpf4jnsgd1na2vs0mg"},{"bike_id":"810c9fc0-4aef-4f2b-830e-02a29828d02c","system_id":"levelo_inurba_marseille","lat":43.28975,"lon":5.37835,"is_reserved":false,"is_disabled":false,"rental_uris":{"android":"levelo://app?vid=810c9fc0-4aef-4f2b-830e-02a29828d02c","ios":"levelo://app?vid=810c9fc0-4aef-4f2b-830e-02a29828d02c"},"vehicle_type_id":"4","last_reported":1732003965,"current_range_meters":16000,"station_id":"ce4bh9p2rcd13ifvqed0","pricing_plan_id":"cebpf4jnsgd1na2vs0mg"},{"bike_id":"00f56e68-2075-4bfc-859c-fddfdb12c8ca","system_id":"levelo_inurba_marseille","lat":43.24073,"lon":5.37759,"is_reserved":false,"is_disabled":false,"rental_uris":{"android":"levelo://app?vid=00f56e68-2075-4bfc-859c-fddfdb12c8ca","ios":"levelo://app?vid=00f56e68-2075-4bfc-859c-fddfdb12c8ca"},"vehicle_type_id":"4","last_reported":1732003965,"current_range_meters":33200,"station_id":"ce4bhnp2rcd13ifvqgvg","pricing_plan_id":"cebpf4jnsgd1na2vs0mg"},{"bike_id":"6ebbdc8a-f3a1-40d2-968e-7409574b7edc","system_id":"levelo_inurba_marseille","lat":43.32545,"lon":5.4144,"is_reserved":false,"is_disabled":false,"rental_uris":{"android":"levelo://app?vid=6ebbdc8a-f3a1-40d2-968e-7409574b7edc","ios":"levelo://app?vid=6ebbdc8a-f3a1-40d2-968e-7409574b7edc"},"vehicle_type_id":"4","last_reported":1732003965,"current_range_meters":28400,"station_id":"ce4bhq12rcd13ifvqhhg","pricing_plan_id":"cebpf4jnsgd1na2vs0mg"},{"bike_id":"0e2bbe61-8f31-47ba-b582-6a82d0b052e0","system_id":"levelo_inurba_marseille","lat":43.29018,"lon":5.38348,"is_reserved":false,"is_disabled":false,"rental_uris":{"android":"levelo://app?vid=0e2bbe61-8f31-47ba-b582-6a82d0b052e0","ios":"levelo://app?vid=0e2bbe61-8f31-47ba-b582-6a82d0b052e0"},"vehicle_type_id":"4","last_reported":1732003965,"current_range_meters":30000,"station_id":"ce4bgip2rcd13ifvqbb0","pricing_plan_id":"cebpf4jnsgd1na2vs0mg"},{"bike_id":"bff402ee-970d-46d4-8d25-a5216fd3bac3","system_id":"levelo_inurba_marseille","lat":43.25006,"lon":5.38908,"is_reserved":false,"is_disabled":true,"rental_uris":{"android":"levelo://app?vid=bff402ee-970d-46d4-8d25-a5216fd3bac3","ios":"levelo://app?vid=bff402ee-970d-46d4-8d25-a5216fd3bac3"},"vehicle_type_id":"4","last_reported":1732003965,"current_range_meters":5600,"station_id":"ce4bhgp2rcd13ifvqfd0","pricing_plan_id":"cebpf4jnsgd1na2vs0mg"},{"bike_id":"c3bc0f64-f384-48a7-9517-04f95522a7e3","system_id":"levelo_inurba_marseille","lat":43.318242,"lon":5.37611,"is_reserved":false,"is_disabled":true,"rental_uris":{"android":"levelo://app?vid=c3bc0f64-f384-48a7-9517-04f95522a7e3","ios":"levelo://app?vid=c3bc0f64-f384-48a7-9517-04f95522a7e3"},"vehicle_type_id":"4","last_reported":1732003965,"current_range_meters":16400,"station_id":"","pricing_plan_id":"cebpf4jnsgd1na2vs0mg"},{"bike_id":"e428b4d0-fe8c-4cfa-835d-2f47ff5193fc","system_id":"levelo_inurba_marseille","lat":43.29621,"lon":5.37729,"is_reserved":false,"is_disabled":false,"rental_uris":{"android":"levelo://app?vid=e428b4d0-fe8c-4cfa-835d-2f47ff5193fc","ios":"levelo://app?vid=e428b4d0-fe8c-4cfa-835d-2f47ff5193fc"},"vehicle_type_id":"4","last_reported":1732003965,"current_range_meters":38000,"station_id":"ce4bgi92rcd13ifvqb90","pricing_plan_id":"cebpf4jnsgd1na2vs0mg"},{"bike_id":"c3adda95-8823-44a7-ab6f-ce72306eabe1","system_id":"levelo_inurba_marseille","lat":43.27427,"lon":5.39406,"is_reserved":false,"is_disabled":true,"rental_uris":{"android":"levelo://app?vid=c3adda95-8823-44a7-ab6f-ce72306eabe1","ios":"levelo://app?vid=c3adda95-8823-44a7-ab6f-ce72306eabe1"},"vehicle_type_id":"4","last_reported":1732003965,"current_range_meters":37600,"station_id":"ce4bhdp2rcd13ifvqf20","pricing_plan_id":"cebpf4jnsgd1na2vs0mg"},{"bike_id":"0f7d3f82-6b41-4aca-b79e-c6aaeac6d97f","system_id":"levelo_inurba_marseille","lat":43.30547,"lon":5.36702,"is_reserved":false,"is_disabled":true,"rental_uris":{"android":"levelo://app?vid=0f7d3f82-6b41-4aca-b79e-c6aaeac6d97f","ios":"levelo://app?vid=0f7d3f82-6b41-4aca-b79e-c6aaeac6d97f"},"vehicle_type_id":"4","last_reported":1732003965,"current_range_meters":39200,"station_id":"ce4bgrp2rcd13ifvqc9g","pricing_plan_id":"cebpf4jnsgd1na2vs0mg"},{"bike_id":"48c23ee1-1666-4e49-b762-27c51f33b43c","system_id":"levelo_inurba_marseille","lat":43.240814,"lon":5.377532,"is_reserved":false,"is_disabled":false,"rental_uris":{"android":"levelo://app?vid=48c23ee1-1666-4e49-b762-27c51f33b43c","ios":"levelo://app?vid=48c23ee1-1666-4e49-b762-27c51f33b43c"},"vehicle_type_id":"4","last_reported":1732003965,"current_range_meters":8400,"station_id":"ce4bhnp2rcd13ifvqgvg","pricing_plan_id":"cebpf4jnsgd1na2vs0mg"},{"bike_id":"46731ef7-efa9-4511-83cf-afa46ba542ba","system_id":"levelo_inurba_marseille","lat":43.30465,"lon":5.379,"is_reserved":false,"is_disabled":false,"rental_uris":{"android":"levelo://app?vid=46731ef7-efa9-4511-83cf-afa46ba542ba","ios":"levelo://app?vid=46731ef7-efa9-4511-83cf-afa46ba542ba"},"vehicle_type_id":"4","last_reported":1732003965,"current_range_meters":5600,"station_id":"ce4bgup2rcd13ifvqcn0","pricing_plan_id":"cebpf4jnsgd1na2vs0mg"},{"bike_id":"76d06047-6022-43bd-b1fc-c4ae5ef0c8b9","system_id":"levelo_inurba_marseille","lat":43.30282,"lon":5.37704,"is_reserved":false,"is_disabled":false,"rental_uris":{"android":"levelo://app?vid=76d06047-6022-43bd-b1fc-c4ae5ef0c8b9","ios":"levelo://app?vid=76d06047-6022-43bd-b1fc-c4ae5ef0c8b9"},"vehicle_type_id":"4","last_reported":1732003965,"current_range_meters":38000,"station_id":"ce4bguh2rcd13ifvqcj0","pricing_plan_id":"cebpf4jnsgd1na2vs0mg"},{"bike_id":"c4bf7afd-15aa-4094-8dd5-981d6c28cc87","system_id":"levelo_inurba_marseille","lat":43.30913,"lon":5.36851,"is_reserved":false,"is_disabled":false,"rental_uris":{"android":"levelo://app?vid=c4bf7afd-15aa-4094-8dd5-981d6c28cc87","ios":"levelo://app?vid=c4bf7afd-15aa-4094-8dd5-981d6c28cc87"},"vehicle_type_id":"4","last_reported":1732003965,"current_range_meters":40000,"station_id":"ce4bgn92rcd13ifvqbvg","pricing_plan_id":"cebpf4jnsgd1na2vs0mg"},{"bike_id":"02c4176e-f331-4d90-892e-a79efbd5b7c8","system_id":"levelo_inurba_marseille","lat":43.24077,"lon":5.37755,"is_reserved":false,"is_disabled":false,"rental_uris":{"android":"levelo://app?vid=02c4176e-f331-4d90-892e-a79efbd5b7c8","ios":"levelo://app?vid=02c4176e-f331-4d90-892e-a79efbd5b7c8"},"vehicle_type_id":"4","last_reported":1732003965,"current_range_meters":35200,"station_id":"ce4bhnp2rcd13ifvqgvg","pricing_plan_id":"cebpf4jnsgd1na2vs0mg"},{"bike_id":"729f081d-5184-4f31-801f-2b41f23e3a17","system_id":"levelo_inurba_marseille","lat":43.33112,"lon":5.3821,"is_reserved":false,"is_disabled":true,"rental_uris":{"android":"levelo://app?vid=729f081d-5184-4f31-801f-2b41f23e3a17","ios":"levelo://app?vid=729f081d-5184-4f31-801f-2b41f23e3a17"},"vehicle_type_id":"4","last_reported":1732003965,"current_range_meters":35600,"station_id":"","pricing_plan_id":"cebpf4jnsgd1na2vs0mg"},{"bike_id":"638f8d00-ceb3-4062-9f5f-ca647d7df496","system_id":"levelo_inurba_marseille","lat":43.274216,"lon":5.394098,"is_reserved":false,"is_disabled":true,"rental_uris":{"android":"levelo://app?vid=638f8d00-ceb3-4062-9f5f-ca647d7df496","ios":"levelo://app?vid=638f8d00-ceb3-4062-9f5f-ca647d7df496"},"vehicle_type_id":"4","last_reported":1732003965,"current_range_meters":28400,"station_id":"ce4bhdp2rcd13ifvqf20","pricing_plan_id":"cebpf4jnsgd1na2vs0mg"},{"bike_id":"1c9d5a2a-a677-45cf-ae90-9c944e700562","system_id":"levelo_inurba_marseille","lat":43.24165,"lon":5.36396,"is_reserved":false,"is_disabled":false,"rental_uris":{"android":"levelo://app?vid=1c9d5a2a-a677-45cf-ae90-9c944e700562","ios":"levelo://app?vid=1c9d5a2a-a677-45cf-ae90-9c944e700562"},"vehicle_type_id":"4","last_reported":1732003965,"current_range_meters":12000,"station_id":"cpo36qri1sfpv3e86is0","pricing_plan_id":"cebpf4jnsgd1na2vs0mg"},{"bike_id":"4a4eab77-725b-412c-9743-c096390a45fd","system_id":"levelo_inurba_marseille","lat":43.280303,"lon":5.36952,"is_reserved":false,"is_disabled":false,"rental_uris":{"android":"levelo://app?vid=4a4eab77-725b-412c-9743-c096390a45fd","ios":"levelo://app?vid=4a4eab77-725b-412c-9743-c096390a45fd"},"vehicle_type_id":"4","last_reported":1732003965,"current_range_meters":38000,"station_id":"ce4bha12rcd13ifvqef0","pricing_plan_id":"cebpf4jnsgd1na2vs0mg"},{"bike_id":"fc86b385-912d-4c41-84c7-adb8e8df3dc0","system_id":"levelo_inurba_marseille","lat":43.29557,"lon":5.42286,"is_reserved":false,"is_disabled":false,"rental_uris":{"android":"levelo://app?vid=fc86b385-912d-4c41-84c7-adb8e8df3dc0","ios":"levelo://app?vid=fc86b385-912d-4c41-84c7-adb8e8df3dc0"},"vehicle_type_id":"4","last_reported":1732003965,"current_range_meters":18800,"station_id":"ce4bhph2rcd13ifvqhdg","pricing_plan_id":"cebpf4jnsgd1na2vs0mg"},{"bike_id":"fe329a77-e269-4bcf-a39a-93ffd701de4f","system_id":"levelo_inurba_marseille","lat":43.31227,"lon":5.36861,"is_reserved":false,"is_disabled":false,"rental_uris":{"android":"levelo://app?vid=fe329a77-e269-4bcf-a39a-93ffd701de4f","ios":"levelo://app?vid=fe329a77-e269-4bcf-a39a-93ffd701de4f"},"vehicle_type_id":"4","last_reported":1732003965,"current_range_meters":16800,"station_id":"ce4bgl92rcd13ifvqbq0","pricing_plan_id":"cebpf4jnsgd1na2vs0mg"},{"bike_id":"3d25d818-80cf-415a-996a-afc2d01ce97b","system_id":"levelo_inurba_marseille","lat":43.27792,"lon":5.40721,"is_reserved":false,"is_disabled":false,"rental_uris":{"android":"levelo://app?vid=3d25d818-80cf-415a-996a-afc2d01ce97b","ios":"levelo://app?vid=3d25d818-80cf-415a-996a-afc2d01ce97b"},"vehicle_type_id":"4","last_reported":1732003965,"current_range_meters":16800,"station_id":"ce4bhnh2rcd13ifvqgtg","pricing_plan_id":"cebpf4jnsgd1na2vs0mg"},{"bike_id":"64ed23a0-3533-4dca-8fb9-650aaf2586c1","system_id":"levelo_inurba_marseille","lat":43.31716,"lon":5.42395,"is_reserved":false,"is_disabled":false,"rental_uris":{"android":"levelo://app?vid=64ed23a0-3533-4dca-8fb9-650aaf2586c1","ios":"levelo://app?vid=64ed23a0-3533-4dca-8fb9-650aaf2586c1"},"vehicle_type_id":"4","last_reported":1732003965,"current_range_meters":37600,"station_id":"ce4bhp92rcd13ifvqhbg","pricing_plan_id":"cebpf4jnsgd1na2vs0mg"},{"bike_id":"88db3628-eb16-4781-800f-e7009628c5ac","system_id":"levelo_inurba_marseille","lat":43.29551,"lon":5.42276,"is_reserved":false,"is_disabled":true,"rental_uris":{"android":"levelo://app?vid=88db3628-eb16-4781-800f-e7009628c5ac","ios":"levelo://app?vid=88db3628-eb16-4781-800f-e7009628c5ac"},"vehicle_type_id":"4","last_reported":1732003965,"current_range_meters":38800,"station_id":"ce4bhph2rcd13ifvqhdg","pricing_plan_id":"cebpf4jnsgd1na2vs0mg"},{"bike_id":"5fbaf450-90c7-416c-a9b6-8e3b3003c75c","system_id":"levelo_inurba_marseille","lat":43.32481,"lon":5.36552,"is_reserved":false,"is_disabled":false,"rental_uris":{"android":"levelo://app?vid=5fbaf450-90c7-416c-a9b6-8e3b3003c75c","ios":"levelo://app?vid=5fbaf450-90c7-416c-a9b6-8e3b3003c75c"},"vehicle_type_id":"4","last_reported":1732003965,"current_range_meters":39200,"station_id":"ce4bhs12rcd13ifvqhvg","pricing_plan_id":"cebpf4jnsgd1na2vs0mg"},{"bike_id":"f43a8b99-5b07-49f5-a70f-a74da4f8ce4f","system_id":"levelo_inurba_marseille","lat":43.29899,"lon":5.43657,"is_reserved":false,"is_disabled":false,"rental_uris":{"android":"levelo://app?vid=f43a8b99-5b07-49f5-a70f-a74da4f8ce4f","ios":"levelo://app?vid=f43a8b99-5b07-49f5-a70f-a74da4f8ce4f"},"vehicle_type_id":"4","last_reported":1732003965,"current_range_meters":38800,"station_id":"ce4bhpp2rcd13ifvqhfg","pricing_plan_id":"cebpf4jnsgd1na2vs0mg"},{"bike_id":"291a3276-3b6d-48ec-97a4-99fdcfbce213","system_id":"levelo_inurba_marseille","lat":43.28938,"lon":5.36631,"is_reserved":false,"is_disabled":true,"rental_uris":{"android":"levelo://app?vid=291a3276-3b6d-48ec-97a4-99fdcfbce213","ios":"levelo://app?vid=291a3276-3b6d-48ec-97a4-99fdcfbce213"},"vehicle_type_id":"4","last_reported":1732003965,"current_range_meters":800,"station_id":"ce4bhap2rcd13ifvqek0","pricing_plan_id":"cebpf4jnsgd1na2vs0mg"},{"bike_id":"6fad3aed-55cd-4c54-b4c1-f7ce9c631195","system_id":"levelo_inurba_marseille","lat":43.29787,"lon":5.38117,"is_reserved":false,"is_disabled":true,"rental_uris":{"android":"levelo://app?vid=6fad3aed-55cd-4c54-b4c1-f7ce9c631195","ios":"levelo://app?vid=6fad3aed-55cd-4c54-b4c1-f7ce9c631195"},"vehicle_type_id":"4","last_reported":1732003965,"current_range_meters":33600,"station_id":"ce4bgip2rcd13ifvqbb0","pricing_plan_id":"cebpf4jnsgd1na2vs0mg"},{"bike_id":"39f331e2-b8f7-4352-bff3-214d7fcd5695","system_id":"levelo_inurba_marseille","lat":43.2315,"lon":5.43719,"is_reserved":false,"is_disabled":false,"rental_uris":{"android":"levelo://app?vid=39f331e2-b8f7-4352-bff3-214d7fcd5695","ios":"levelo://app?vid=39f331e2-b8f7-4352-bff3-214d7fcd5695"},"vehicle_type_id":"4","last_reported":1732003965,"current_range_meters":8000,"station_id":"ce4bhmp2rcd13ifvqgog","pricing_plan_id":"cebpf4jnsgd1na2vs0mg"},{"bike_id":"3f67ff4f-5fd7-41fb-9a29-97a242097083","system_id":"levelo_inurba_marseille","lat":43.26683,"lon":5.38274,"is_reserved":false,"is_disabled":false,"rental_uris":{"android":"levelo://app?vid=3f67ff4f-5fd7-41fb-9a29-97a242097083","ios":"levelo://app?vid=3f67ff4f-5fd7-41fb-9a29-97a242097083"},"vehicle_type_id":"4","last_reported":1732003965,"current_range_meters":25200,"station_id":"ce4bhg92rcd13ifvqf90","pricing_plan_id":"cebpf4jnsgd1na2vs0mg"},{"bike_id":"0837b417-6298-4a4d-997f-bd298ccdaa0e","system_id":"levelo_inurba_marseille","lat":43.32657,"lon":5.41008,"is_reserved":false,"is_disabled":true,"rental_uris":{"android":"levelo://app?vid=0837b417-6298-4a4d-997f-bd298ccdaa0e","ios":"levelo://app?vid=0837b417-6298-4a4d-997f-bd298ccdaa0e"},"vehicle_type_id":"4","last_reported":1732003965,"current_range_meters":30800,"station_id":"ce4bhpp2rcd13ifvqhgg","pricing_plan_id":"cebpf4jnsgd1na2vs0mg"},{"bike_id":"26a7fbec-7f56-4f08-958b-e652989507a8","system_id":"levelo_inurba_marseille","lat":43.25123,"lon":5.40315,"is_reserved":false,"is_disabled":false,"rental_uris":{"android":"levelo://app?vid=26a7fbec-7f56-4f08-958b-e652989507a8","ios":"levelo://app?vid=26a7fbec-7f56-4f08-958b-e652989507a8"},"vehicle_type_id":"4","last_reported":1732003965,"current_range_meters":33200,"station_id":"ce4bhlh2rcd13ifvqgig","pricing_plan_id":"cebpf4jnsgd1na2vs0mg"},{"bike_id":"f052c6de-f6d6-4c67-b17c-68ed5edc05da","system_id":"levelo_inurba_marseille","lat":43.30798,"lon":5.38151,"is_reserved":false,"is_disabled":false,"rental_uris":{"android":"levelo://app?vid=f052c6de-f6d6-4c67-b17c-68ed5edc05da","ios":"levelo://app?vid=f052c6de-f6d6-4c67-b17c-68ed5edc05da"},