{"last_updated":1713090840,"ttl":30,"version":"2.2","data":{"bikes":[{"bike_id":"78b9ad4d-ea79-4082-92fe-933ff787e9fb","system_id":"levelo_inurba_marseille","lat":43.313391,"lon":5.36706,"is_reserved":false,"is_disabled":false,"rental_uris":{"android":"levelo://app?vid=78b9ad4d-ea79-4082-92fe-933ff787e9fb","ios":"levelo://app?vid=78b9ad4d-ea79-4082-92fe-933ff787e9fb"},"vehicle_type_id":"4","last_reported":1713090840,"current_range_meters":12800,"station_id":"ce4bgr92rcd13ifvqc6g","pricing_plan_id":"cebpf4jnsgd1na2vs0mg"},{"bike_id":"1be8d4ef-da85-4514-8698-563aa6701a28","system_id":"levelo_inurba_marseille","lat":43.309076,"lon":5.368465,"is_reserved":false,"is_disabled":false,"rental_uris":{"android":"levelo://app?vid=1be8d4ef-da85-4514-8698-563aa6701a28","ios":"levelo://app?vid=1be8d4ef-da85-4514-8698-563aa6701a28"},"vehicle_type_id":"4","last_reported":1713090840,"current_range_meters":22000,"station_id":"ce4bgn92rcd13ifvqbvg","pricing_plan_id":"cebpf4jnsgd1na2vs0mg"},{"bike_id":"1a81f7df-ef28-4dd7-ba5b-dbc1ba6e8e3e","system_id":"levelo_inurba_marseille","lat":43.314811,"lon":5.373103,"is_reserved":false,"is_disabled":false,"rental_uris":{"android":"levelo://app?vid=1a81f7df-ef28-4dd7-ba5b-dbc1ba6e8e3e","ios":"levelo://app?vid=1a81f7df-ef28-4dd7-ba5b-dbc1ba6e8e3e"},"vehicle_type_id":"4","last_reported":1713090840,"current_range_meters":24400,"station_id":"ce4bgt12rcd13ifvqcd0","pricing_plan_id":"cebpf4jnsgd1na2vs0mg"},{"bike_id":"ff864fc8-2ff7-47cc-8798-1954368c43ee","system_id":"levelo_inurba_marseille","lat":43.314811,"lon":5.373103,"is_reserved":false,"is_disabled":false,"rental_uris":{"android":"levelo://app?vid=ff864fc8-2ff7-47cc-8798-1954368c43ee","ios":"levelo://app?vid=ff864fc8-2ff7-47cc-8798-1954368c43ee"},"vehicle_type_id":"4","last_reported":1713090840,"current_range_meters":24000,"station_id":"ce4bgt12rcd13ifvqcd0","pricing_plan_id":"cebpf4jnsgd1na2vs0mg"},{"bike_id":"9b4dc77c-d46f-4bce-b4c0-f823ca54f0a3","system_id":"levelo_inurba_marseille","lat":43.31494,"lon":5.37291,"is_reserved":false,"is_disabled":false,"rental_uris":{"android":"levelo://app?vid=9b4dc77c-d46f-4bce-b4c0-f823ca54f0a3","ios":"levelo://app?vid=9b4dc77c-d46f-4bce-b4c0-f823ca54f0a3"},"vehicle_type_id":"4","last_reported":1713090840,"current_range_meters":32000,"station_id":"ce4bgt12rcd13ifvqcd0","pricing_plan_id":"cebpf4jnsgd1na2vs0mg"},{"bike_id":"5862b3bc-c4e1-4c6d-9bc1-b3ab6f9f1ff5","system_id":"levelo_inurba_marseille","lat":43.314811,"lon":5.373103,"is_reserved":false,"is_disabled":false,"rental_uris":{"android":"levelo://app?vid=5862b3bc-c4e1-4c6d-9bc1-b3ab6f9f1ff5","ios":"levelo://app?vid=5862b3bc-c4e1-4c6d-9bc1-b3ab6f9f1ff5"},"vehicle_type_id":"4","last_reported":1713090840,"current_range_meters":10000,"station_id":"ce4bgt12rcd13ifvqcd0","pricing_plan_id":"cebpf4jnsgd1na2vs0mg"},{"bike_id":"97b9a2fe-500a-44c8-8118-85b1d7cea367","system_id":"levelo_inurba_marseille","lat":43.314883,"lon":5.373073,"is_reserved":false,"is_disabled":false,"rental_uris":{"android":"levelo://app?vid=97b9a2fe-500a-44c8-8118-85b1d7cea367","ios":"levelo://app?vid=97b9a2fe-500a-44c8-8118-85b1d7cea367"},"vehicle_type_id":"4","last_reported":1713090840,"current_range_meters":400,"station_id":"ce4bgt12rcd13ifvqcd0","pricing_plan_id":"cebpf4jnsgd1na2vs0mg"},{"bike_id":"e7facf2b-08d5-42e0-86a7-f84df8019e30","system_id":"levelo_inurba_marseille","lat":43.31486,"lon":5.37309,"is_reserved":false,"is_disabled":false,"rental_uris":{"android":"levelo://app?vid=e7facf2b-08d5-42e0-86a7-f84df8019e30","ios":"levelo://app?vid=e7facf2b-08d5-42e0-86a7-f84df8019e30"},"vehicle_type_id":"4","last_reported":1713090840,"current_range_meters":2000,"station_id":"ce4bgt12rcd13ifvqcd0","pricing_plan_id":"cebpf4jnsgd1na2vs0mg"},{"bike_id":"413282d4-5b1a-4599-b85d-50aea955ffb0","system_id":"levelo_inurba_marseille","lat":43.314811,"lon":5.373104,"is_reserved":false,"is_disabled":false,"rental_uris":{"android":"levelo://app?vid=413282d4-5b1a-4599-b85d-50aea955ffb0","ios":"levelo://app?vid=413282d4-5b1a-4599-b85d-50aea955ffb0"},"vehicle_type_id":"4","last_reported":1713090840,"current_range_meters":23200,"station_id":"ce4bgt12rcd13ifvqcd0","pricing_plan_id":"cebpf4jnsgd1na2vs0mg"},{"bike_id":"6a8dbbdc-f448-4e5c-8543-39b8dbd869ce","system_id":"levelo_inurba_marseille","lat":43.31491,"lon":5.37307,"is_reserved":false,"is_disabled":false,"rental_uris":{"android":"levelo://app?vid=6a8dbbdc-f448-4e5c-8543-39b8dbd869ce","ios":"levelo://app?vid=6a8dbbdc-f448-4e5c-8543-39b8dbd869ce"},"vehicle_type_id":"4","last_reported":1713090840,"current_range_meters":31200,"station_id":"ce4bgt12rcd13ifvqcd0","pricing_plan_id":"cebpf4jnsgd1na2vs0mg"},{"bike_id":"f59616a7-4c3a-4213-86eb-95c5a7862203","system_id":"levelo_inurba_marseille","lat":43.31489,"lon":5.37309,"is_reserved":false,"is_disabled":false,"rental_uris":{"android":"levelo://app?vid=f59616a7-4c3a-4213-86eb-95c5a7862203","ios":"levelo://app?vid=f59616a7-4c3a-4213-86eb-95c5a7862203"},"vehicle_type_id":"4","last_reported":1713090840,"current_range_meters":31200,"station_id":"ce4bgt12rcd13ifvqcd0","pricing_plan_id":"cebpf4jnsgd1na2vs0mg"},{"bike_id":"35afe7d3-8465-4d0c-ac5c-47a018a084d6","system_id":"levelo_inurba_marseille","lat":43.314811,"lon":5.373104,"is_reserved":false,"is_disabled":false,"rental_uris":{"android":"levelo://app?vid=35afe7d3-8465-4d0c-ac5c-47a018a084d6","ios":"levelo://app?vid=35afe7d3-8465-4d0c-ac5c-47a018a084d6"},"vehicle_type_id":"4","last_reported":1713090840,"current_range_meters":32000,"station_id":"ce4bgt12rcd13ifvqcd0","pricing_plan_id":"cebpf4jnsgd1na2vs0mg"},{"bike_id":"9d58f61b-33b4-449a-af33-ebf479ef0f76","system_id":"levelo_inurba_marseille","lat":43.30537,"lon":5.367345,"is_reserved":false,"is_disabled":false,"rental_uris":{"android":"levelo://app?vid=9d58f61b-33b4-449a-af33-ebf479ef0f76","ios":"levelo://app?vid=9d58f61b-33b4-449a-af33-ebf479ef0f76"},"vehicle_type_id":"4","last_reported":1713090840,"current_range_meters":25200,"station_id":"ce4bgrp2rcd13ifvqc9g","pricing_plan_id":"cebpf4jnsgd1na2vs0mg"},{"bike_id":"bb8f77e9-2b75-4354-861e-20a9b1956ae3","system_id":"levelo_inurba_marseille","lat":43.305714,"lon":5.365633,"is_reserved":false,"is_disabled":false,"rental_uris":{"android":"levelo://app?vid=bb8f77e9-2b75-4354-861e-20a9b1956ae3","ios":"levelo://app?vid=bb8f77e9-2b75-4354-861e-20a9b1956ae3"},"vehicle_type_id":"4","last_reported":1713090840,"current_range_meters":22400,"station_id":"ce4bgs12rcd13ifvqcag","pricing_plan_id":"cebpf4jnsgd1na2vs0mg"},{"bike_id":"4c761bf7-8899-47d4-a5e4-dfda03453a72","system_id":"levelo_inurba_marseille","lat":43.299724,"lon":5.371829,"is_reserved":false,"is_disabled":false,"rental_uris":{"android":"levelo://app?vid=4c761bf7-8899-47d4-a5e4-dfda03453a72","ios":"levelo://app?vid=4c761bf7-8899-47d4-a5e4-dfda03453a72"},"vehicle_type_id":"4","last_reported":1713090840,"current_range_meters":30400,"station_id":"ce4bgr92rcd13ifvqc7g","pricing_plan_id":"cebpf4jnsgd1na2vs0mg"},{"bike_id":"37f4ca9a-8206-407f-b26c-7711c7a8f589","system_id":"levelo_inurba_marseille","lat":43.31107,"lon":5.37756,"is_reserved":false,"is_disabled":false,"rental_uris":{"android":"levelo://app?vid=37f4ca9a-8206-407f-b26c-7711c7a8f589","ios":"levelo://app?vid=37f4ca9a-8206-407f-b26c-7711c7a8f589"},"vehicle_type_id":"4","last_reported":1713090840,"current_range_meters":30800,"station_id":"ce4bgt92rcd13ifvqcg0","pricing_plan_id":"cebpf4jnsgd1na2vs0mg"},{"bike_id":"78b6b67f-b13d-42e4-89dc-395a29918248","system_id":"levelo_inurba_marseille","lat":43.31113,"lon":5.3776,"is_reserved":false,"is_disabled":false,"rental_uris":{"android":"levelo://app?vid=78b6b67f-b13d-42e4-89dc-395a29918248","ios":"levelo://app?vid=78b6b67f-b13d-42e4-89dc-395a29918248"},"vehicle_type_id":"4","last_reported":1713090840,"current_range_meters":20800,"station_id":"ce4bgt92rcd13ifvqcg0","pricing_plan_id":"cebpf4jnsgd1na2vs0mg"},{"bike_id":"df073fe7-9545-4d45-a426-9abb014c1abe","system_id":"levelo_inurba_marseille","lat":43.299724,"lon":5.371829,"is_reserved":false,"is_disabled":false,"rental_uris":{"android":"levelo://app?vid=df073fe7-9545-4d45-a426-9abb014c1abe","ios":"levelo://app?vid=df073fe7-9545-4d45-a426-9abb014c1abe"},"vehicle_type_id":"4","last_reported":1713090840,"current_range_meters":31600,"station_id":"ce4bgr92rcd13ifvqc7g","pricing_plan_id":"cebpf4jnsgd1na2vs0mg"},{"bike_id":"a7a8d074-3935-490e-9e15-f7497c7e9ceb","system_id":"levelo_inurba_marseille","lat":43.31118,"lon":5.37772,"is_reserved":false,"is_disabled":false,"rental_uris":{"android":"levelo://app?vid=a7a8d074-3935-490e-9e15-f7497c7e9ceb","ios":"levelo://app?vid=a7a8d074-3935-490e-9e15-f7497c7e9ceb"},"vehicle_type_id":"4","last_reported":1713090840,"current_range_meters":5600,"station_id":"ce4bgt92rcd13ifvqcg0","pricing_plan_id":"cebpf4jnsgd1na2vs0mg"},{"bike_id":"15e61e9b-8318-4a1d-b53b-76b2ec9fae11","system_id":"levelo_inurba_marseille","lat":43.311152,"lon":5.377719,"is_reserved":false,"is_disabled":false,"rental_uris":{"android":"levelo://app?vid=15e61e9b-8318-4a1d-b53b-76b2ec9fae11","ios":"levelo://app?vid=15e61e9b-8318-4a1d-b53b-76b2ec9fae11"},"vehicle_type_id":"4","last_reported":1713090840,"current_range_meters":26800,"station_id":"ce4bgt92rcd13ifvqcg0","pricing_plan_id":"cebpf4jnsgd1na2vs0mg"},{"bike_id":"fda05bd7-443d-4453-a1ff-db30d837a169","system_id":"levelo_inurba_marseille","lat":43.307945,"lon":5.376487,"is_reserved":false,"is_disabled":false,"rental_uris":{"android":"levelo://app?vid=fda05bd7-443d-4453-a1ff-db30d837a169","ios":"levelo://app?vid=fda05bd7-443d-4453-a1ff-db30d837a169"},"vehicle_type_id":"4","last_reported":1713090840,"current_range_meters":4000,"station_id":"ce4bgv92rcd13ifvqcq0","pricing_plan_id":"cebpf4jnsgd1na2vs0mg"},{"bike_id":"7410e587-a2a2-48d2-81f4-69efda33bfbc","system_id":"levelo_inurba_marseille","lat":43.307945,"lon":5.376487,"is_reserved":false,"is_disabled":false,"rental_uris":{"android":"levelo://app?vid=7410e587-a2a2-48d2-81f4-69efda33bfbc","ios":"levelo://app?vid=7410e587-a2a2-48d2-81f4-69efda33bfbc"},"vehicle_type_id":"4","last_reported":1713090840,"current_range_meters":30000,"station_id":"ce4bgv92rcd13ifvqcq0","pricing_plan_id":"cebpf4jnsgd1na2vs0mg"},{"bike_id":"4e088bf8-8a79-4af0-b0a4-2ad39707730f","system_id":"levelo_inurba_marseille","lat":43.317075,"lon":5.377367,"is_reserved":false,"is_disabled":false,"rental_uris":{"android":"levelo://app?vid=4e088bf8-8a79-4af0-b0a4-2ad39707730f","ios":"levelo://app?vid=4e088bf8-8a79-4af0-b0a4-2ad39707730f"},"vehicle_type_id":"4","last_reported":1713090840,"current_range_meters":18000,"station_id":"ce4bgth2rcd13ifvqch0","pricing_plan_id":"cebpf4jnsgd1na2vs0mg"},{"bike_id":"47d9d108-0d2c-461e-999c-6116ea789466","system_id":"levelo_inurba_marseille","lat":43.317034,"lon":5.377621,"is_reserved":false,"is_disabled":false,"rental_uris":{"android":"levelo://app?vid=47d9d108-0d2c-461e-999c-6116ea789466","ios":"levelo://app?vid=47d9d108-0d2c-461e-999c-6116ea789466"},"vehicle_type_id":"4","last_reported":1713090840,"current_range_meters":31200,"station_id":"ce4bgth2rcd13ifvqch0","pricing_plan_id":"cebpf4jnsgd1na2vs0mg"},{"bike_id":"d94862fd-8ac6-43b9-bde4-706763eff310","system_id":"levelo_inurba_marseille","lat":43.303046,"lon":5.368981,"is_reserved":false,"is_disabled":false,"rental_uris":{"android":"levelo://app?vid=d94862fd-8ac6-43b9-bde4-706763eff310","ios":"levelo://app?vid=d94862fd-8ac6-43b9-bde4-706763eff310"},"vehicle_type_id":"4","last_reported":1713090840,"current_range_meters":0,"station_id":"ce4bgqh2rcd13ifvqc5g","pricing_plan_id":"cebpf4jnsgd1na2vs0mg"},{"bike_id":"fa5b96c6-3000-4344-bb7a-1c2d7d007a4c","system_id":"levelo_inurba_marseille","lat":43.315289,"lon":5.380349,"is_reserved":false,"is_disabled":false,"rental_uris":{"android":"levelo://app?vid=fa5b96c6-3000-4344-bb7a-1c2d7d007a4c","ios":"levelo://app?vid=fa5b96c6-3000-4344-bb7a-1c2d7d007a4c"},"vehicle_type_id":"4","last_reported":1713090840,"current_range_meters":31200,"station_id":"ce4bhsp2rcd13ifvqi50","pricing_plan_id":"cebpf4jnsgd1na2vs0mg"},{"bike_id":"4e7bb2dc-72cc-4508-ada6-1919f035cdb9","system_id":"levelo_inurba_marseille","lat":43.308012,"lon":5.381511,"is_reserved":false,"is_disabled":false,"rental_uris":{"android":"levelo://app?vid=4e7bb2dc-72cc-4508-ada6-1919f035cdb9","ios":"levelo://app?vid=4e7bb2dc-72cc-4508-ada6-1919f035cdb9"},"vehicle_type_id":"4","last_reported":1713090840,"current_range_meters":23600,"station_id":"ce4bgt12rcd13ifvqce0","pricing_plan_id":"cebpf4jnsgd1na2vs0mg"},{"bike_id":"c973c696-6cf3-4ef6-9922-20142626237f","system_id":"levelo_inurba_marseille","lat":43.30282,"lon":5.37259,"is_reserved":false,"is_disabled":false,"rental_uris":{"android":"levelo://app?vid=c973c696-6cf3-4ef6-9922-20142626237f","ios":"levelo://app?vid=c973c696-6cf3-4ef6-9922-20142626237f"},"vehicle_type_id":"4","last_reported":1713090840,"current_range_meters":11600,"station_id":"","pricing_plan_id":"cebpf4jnsgd1na2vs0mg"},{"bike_id":"a0a60c72-e6c1-4465-8e26-0885a9449dfc","system_id":"levelo_inurba_marseille","lat":43.30796,"lon":5.38147,"is_reserved":false,"is_disabled":false,"rental_uris":{"android":"levelo://app?vid=a0a60c72-e6c1-4465-8e26-0885a9449dfc","ios":"levelo://app?vid=a0a60c72-e6c1-4465-8e26-0885a9449dfc"},"vehicle_type_id":"4","last_reported":1713090840,"current_range_meters":9600,"station_id":"ce4bgt12rcd13ifvqce0","pricing_plan_id":"cebpf4jnsgd1na2vs0mg"},{"bike_id":"4e6d2632-12bb-46a4-a11a-0f1ab0a0aaac","system_id":"levelo_inurba_marseille","lat":43.308012,"lon":5.381511,"is_reserved":false,"is_disabled":false,"rental_uris":{"android":"levelo://app?vid=4e6d2632-12bb-46a4-a11a-0f1ab0a0aaac","ios":"levelo://app?vid=4e6d2632-12bb-46a4-a11a-0f1ab0a0aaac"},"vehicle_type_id":"4","last_reported":1713090840,"current_range_meters":24000,"station_id":"ce4bgt12rcd13ifvqce0","pricing_plan_id":"cebpf4jnsgd1na2vs0mg"},{"bike_id":"53c72473-9640-4693-94ff-5d30d1d5a68b","system_id":"levelo_inurba_marseille","lat":43.304655,"lon":5.37893,"is_reserved":false,"is_disabled":false,"rental_uris":{"android":"levelo://app?vid=53c72473-9640-4693-94ff-5d30d1d5a68b","ios":"levelo://app?vid=53c72473-9640-4693-94ff-5d30d1d5a68b"},"vehicle_type_id":"4","last_reported":1713090840,"current_range_meters":24400,"station_id":"ce4bgup2rcd13ifvqcn0","pricing_plan_id":"cebpf4jnsgd1na2vs0mg"},{"bike_id":"9798fb89-cf73-4014-9bd3-49587ff98c20","system_id":"levelo_inurba_marseille","lat":43.304606,"lon":5.379026,"is_reserved":false,"is_disabled":false,"rental_uris":{"android":"levelo://app?vid=9798fb89-cf73-4014-9bd3-49587ff98c20","ios":"levelo://app?vid=9798fb89-cf73-4014-9bd3-49587ff98c20"},"vehicle_type_id":"4","last_reported":1713090840,"current_range_meters":23200,"station_id":"ce4bgup2rcd13ifvqcn0","pricing_plan_id":"cebpf4jnsgd1na2vs0mg"},{"bike_id":"f8f19686-ff57-41fb-886d-7cc2824ef784","system_id":"levelo_inurba_marseille","lat":43.304606,"lon":5.379026,"is_reserved":false,"is_disabled":false,"rental_uris":{"android":"levelo://app?vid=f8f19686-ff57-41fb-886d-7cc2824ef784","ios":"levelo://app?vid=f8f19686-ff57-41fb-886d-7cc2824ef784"},"vehicle_type_id":"4","last_reported":1713090840,"current_range_meters":7600,"station_id":"ce4bgup2rcd13ifvqcn0","pricing_plan_id":"cebpf4jnsgd1na2vs0mg"},{"bike_id":"ed24cd83-fb54-4895-94d3-a175d615121e","system_id":"levelo_inurba_marseille","lat":43.304606,"lon":5.379026,"is_reserved":false,"is_disabled":false,"rental_uris":{"android":"levelo://app?vid=ed24cd83-fb54-4895-94d3-a175d615121e","ios":"levelo://app?vid=ed24cd83-fb54-4895-94d3-a175d615121e"},"vehicle_type_id":"4","last_reported":1713090840,"current_range_meters":30000,"station_id":"ce4bgup2rcd13ifvqcn0","pricing_plan_id":"cebpf4jnsgd1na2vs0mg"},{"bike_id":"c3366115-3624-4682-a7e1-caa877a46a6a","system_id":"levelo_inurba_marseille","lat":43.304631,"lon":5.379071,"is_reserved":false,"is_disabled":false,"rental_uris":{"android":"levelo://app?vid=c3366115-3624-4682-a7e1-caa877a46a6a","ios":"levelo://app?vid=c3366115-3624-4682-a7e1-caa877a46a6a"},"vehicle_type_id":"4","last_reported":1713090840,"current_range_meters":8000,"station_id":"ce4bgup2rcd13ifvqcn0","pricing_plan_id":"cebpf4jnsgd1na2vs0mg"},{"bike_id":"84e1feb3-96de-4e3b-ab61-81cc21a90011","system_id":"levelo_inurba_marseille","lat":43.324771,"lon":5.36557,"is_reserved":false,"is_disabled":false,"rental_uris":{"android":"levelo://app?vid=84e1feb3-96de-4e3b-ab61-81cc21a90011","ios":"levelo://app?vid=84e1feb3-96de-4e3b-ab61-81cc21a90011"},"vehicle_type_id":"4","last_reported":1713090840,"current_range_meters":19200,"station_id":"ce4bhs12rcd13ifvqhvg","pricing_plan_id":"cebpf4jnsgd1na2vs0mg"},{"bike_id":"6071613d-36df-487a-ac4c-dff9b3a872df","system_id":"levelo_inurba_marseille","lat":43.324771,"lon":5.36557,"is_reserved":false,"is_disabled":false,"rental_uris":{"android":"levelo://app?vid=6071613d-36df-487a-ac4c-dff9b3a872df","ios":"levelo://app?vid=6071613d-36df-487a-ac4c-dff9b3a872df"},"vehicle_type_id":"4","last_reported":1713090840,"current_range_meters":21600,"station_id":"ce4bhs12rcd13ifvqhvg","pricing_plan_id":"cebpf4jnsgd1na2vs0mg"},{"bike_id":"e80e521b-abf7-4194-bdde-6d3a912aef30","system_id":"levelo_inurba_marseille","lat":43.324771,"lon":5.36557,"is_reserved":false,"is_disabled":false,"rental_uris":{"android":"levelo://app?vid=e80e521b-abf7-4194-bdde-6d3a912aef30","ios":"levelo://app?vid=e80e521b-abf7-4194-bdde-6d3a912aef30"},"vehicle_type_id":"4","last_reported":1713090840,"current_range_meters":6000,"station_id":"ce4bhs12rcd13ifvqhvg","pricing_plan_id":"cebpf4jnsgd1na2vs0mg"},{"bike_id":"f5e8a1e2-5fd8-4dc5-a7c0-73291ce5aeaa","system_id":"levelo_inurba_marseille","lat":43.324771,"lon":5.36557,"is_reserved":false,"is_disabled":false,"rental_uris":{"android":"levelo://app?vid=f5e8a1e2-5fd8-4dc5-a7c0-73291ce5aeaa","ios":"levelo://app?vid=f5e8a1e2-5fd8-4dc5-a7c0-73291ce5aeaa"},"vehicle_type_id":"4","last_reported":1713090840,"current_range_meters":26400,"station_id":"ce4bhs12rcd13ifvqhvg","pricing_plan_id":"cebpf4jnsgd1na2vs0mg"},{"bike_id":"97c44039-f4ac-4fe4-b8dd-01a72311ed18","system_id":"levelo_inurba_marseille","lat":43.324771,"lon":5.36557,"is_reserved":false,"is_disabled":false,"rental_uris":{"android":"levelo://app?vid=97c44039-f4ac-4fe4-b8dd-01a72311ed18","ios":"levelo://app?vid=97c44039-f4ac-4fe4-b8dd-01a72311ed18"},"vehicle_type_id":"4","last_reported":1713090840,"current_range_meters":12400,"station_id":"ce4bhs12rcd13ifvqhvg","pricing_plan_id":"cebpf4jnsgd1na2vs0mg"},{"bike_id":"855ce4bc-f48c-4e8e-ae5f-4e6e65f3515e","system_id":"levelo_inurba_marseille","lat":43.324771,"lon":5.36557,"is_reserved":false,"is_disabled":false,"rental_uris":{"android":"levelo://app?vid=855ce4bc-f48c-4e8e-ae5f-4e6e65f3515e","ios":"levelo://app?vid=855ce4bc-f48c-4e8e-ae5f-4e6e65f3515e"},"vehicle_type_id":"4","last_reported":1713090840,"current_range_meters":27600,"station_id":"ce4bhs12rcd13ifvqhvg","pricing_plan_id":"cebpf4jnsgd1na2vs0mg"},{"bike_id":"628556d5-8cda-45b6-a179-52d4c15285b2","system_id":"levelo_inurba_marseille","lat":43.324771,"lon":5.36557,"is_reserved":false,"is_disabled":false,"rental_uris":{"android":"levelo://app?vid=628556d5-8cda-45b6-a179-52d4c15285b2","ios":"levelo://app?vid=628556d5-8cda-45b6-a179-52d4c15285b2"},"vehicle_type_id":"4","last_reported":1713090840,"current_range_meters":12800,"station_id":"ce4bhs12rcd13ifvqhvg","pricing_plan_id":"cebpf4jnsgd1na2vs0mg"},{"bike_id":"ad376e1f-a3ad-446e-b295-aa0c5c334245","system_id":"levelo_inurba_marseille","lat":43.310714,"lon":5.383537,"is_reserved":false,"is_disabled":false,"rental_uris":{"android":"levelo://app?vid=ad376e1f-a3ad-446e-b295-aa0c5c334245","ios":"levelo://app?vid=ad376e1f-a3ad-446e-b295-aa0c5c334245"},"vehicle_type_id":"4","last_reported":1713090840,"current_range_meters":24000,"station_id":"ce4bgv92rcd13ifvqcr0","pricing_plan_id":"cebpf4jnsgd1na2vs0mg"},{"bike_id":"3adf2184-a2e6-4486-ad47-f3098979a802","system_id":"levelo_inurba_marseille","lat":43.3107,"lon":5.38356,"is_reserved":false,"is_disabled":false,"rental_uris":{"android":"levelo://app?vid=3adf2184-a2e6-4486-ad47-f3098979a802","ios":"levelo://app?vid=3adf2184-a2e6-4486-ad47-f3098979a802"},"vehicle_type_id":"4","last_reported":1713090840,"current_range_meters":31600,"station_id":"ce4bgv92rcd13ifvqcr0","pricing_plan_id":"cebpf4jnsgd1na2vs0mg"},{"bike_id":"4106cdae-a7cb-4227-9bee-ddb5d1177885","system_id":"levelo_inurba_marseille","lat":43.302784,"lon":5.377158,"is_reserved":false,"is_disabled":false,"rental_uris":{"android":"levelo://app?vid=4106cdae-a7cb-4227-9bee-ddb5d1177885","ios":"levelo://app?vid=4106cdae-a7cb-4227-9bee-ddb5d1177885"},"vehicle_type_id":"4","last_reported":1713090840,"current_range_meters":26800,"station_id":"ce4bguh2rcd13ifvqcj0","pricing_plan_id":"cebpf4jnsgd1na2vs0mg"},{"bike_id":"e88b4d5a-93f3-4968-96c7-890be72dd8be","system_id":"levelo_inurba_marseille","lat":43.301429,"lon":5.37413,"is_reserved":false,"is_disabled":false,"rental_uris":{"android":"levelo://app?vid=e88b4d5a-93f3-4968-96c7-890be72dd8be","ios":"levelo://app?vid=e88b4d5a-93f3-4968-96c7-890be72dd8be"},"vehicle_type_id":"4","last_reported":1713090840,"current_range_meters":28400,"station_id":"ce4bgs92rcd13ifvqcc0","pricing_plan_id":"cebpf4jnsgd1na2vs0mg"},{"bike_id":"229cf546-bbd2-4ce9-8c0c-7fa40f6dc56b","system_id":"levelo_inurba_marseille","lat":43.319935,"lon":5.381699,"is_reserved":false,"is_disabled":false,"rental_uris":{"android":"levelo://app?vid=229cf546-bbd2-4ce9-8c0c-7fa40f6dc56b","ios":"levelo://app?vid=229cf546-bbd2-4ce9-8c0c-7fa40f6dc56b"},"vehicle_type_id":"4","last_reported":1713090840,"current_range_meters":31200,"station_id":"ce4bhr12rcd13ifvqhpg","pricing_plan_id":"cebpf4jnsgd1na2vs0mg"},{"bike_id":"e206141b-01c0-455d-b068-5f7165da6505","system_id":"levelo_inurba_marseille","lat":43.319853,"lon":5.381457,"is_reserved":false,"is_disabled":false,"rental_uris":{"android":"levelo://app?vid=e206141b-01c0-455d-b068-5f7165da6505","ios":"levelo://app?vid=e206141b-01c0-455d-b068-5f7165da6505"},"vehicle_type_id":"4","last_reported":1713090840,"current_range_meters":28000,"station_id":"ce4bhr12rcd13ifvqhpg","pricing_plan_id":"cebpf4jnsgd1na2vs0mg"},{"bike_id":"5c505a76-f6b6-4dbe-b593-22321e300f81","system_id":"levelo_inurba_marseille","lat":43.31996,"lon":5.38158,"is_reserved":false,"is_disabled":false,"rental_uris":{"android":"levelo://app?vid=5c505a76-f6b6-4dbe-b593-22321e300f81","ios":"levelo://app?vid=5c505a76-f6b6-4dbe-b593-22321e300f81"},"vehicle_type_id":"4","last_reported":1713090840,"current_range_meters":10000,"station_id":"ce4bhr12rcd13ifvqhpg","pricing_plan_id":"cebpf4jnsgd1na2vs0mg"},{"bike_id":"91317d7e-335e-412b-9623-51da0abae6b4","system_id":"levelo_inurba_marseille","lat":43.282744,"lon":5.350533,"is_reserved":false,"is_disabled":false,"rental_uris":{"android":"levelo://app?vid=91317d7e-335e-412b-9623-51da0abae6b4","ios":"levelo://app?vid=91317d7e-335e-412b-9623-51da0abae6b4"},"vehicle_type_id":"4","last_reported":1713090840,"current_range_meters":4800,"station_id":"ce4bhbp2rcd13ifvqerg","pricing_plan_id":"cebpf4jnsgd1na2vs0mg"},{"bike_id":"b3045b45-da3d-4163-8ba2-236990e98513","system_id":"levelo_inurba_marseille","lat":43.299724,"lon":5.371829,"is_reserved":false,"is_disabled":false,"rental_uris":{"android":"levelo://app?vid=b3045b45-da3d-4163-8ba2-236990e98513","ios":"levelo://app?vid=b3045b45-da3d-4163-8ba2-236990e98513"},"vehicle_type_id":"4","last_reported":1713090840,"current_range_meters":0,"station_id":"ce4bgr92rcd13ifvqc7g","pricing_plan_id":"cebpf4jnsgd1na2vs0mg"},{"bike_id":"cd4a17d7-2160-4489-b345-b6a12eb42cd2","system_id":"levelo_inurba_marseille","lat":43.305364,"lon":5.384119,"is_reserved":false,"is_disabled":false,"rental_uris":{"android":"levelo://app?vid=cd4a17d7-2160-4489-b345-b6a12eb42cd2","ios":"levelo://app?vid=cd4a17d7-2160-4489-b345-b6a12eb42cd2"},"vehicle_type_id":"4","last_reported":1713090840,"current_range_meters":9600,"station_id":"ce4bgg92rcd13ifvqb30","pricing_plan_id":"cebpf4jnsgd1na2vs0mg"},{"bike_id":"423b040b-0bc6-40a3-91e2-89466e3a5375","system_id":"levelo_inurba_marseille","lat":43.305364,"lon":5.384119,"is_reserved":false,"is_disabled":false,"rental_uris":{"android":"levelo://app?vid=423b040b-0bc6-40a3-91e2-89466e3a5375","ios":"levelo://app?vid=423b040b-0bc6-40a3-91e2-89466e3a5375"},"vehicle_type_id":"4","last_reported":1713090840,"current_range_meters":28000,"station_id":"ce4bgg92rcd13ifvqb30","pricing_plan_id":"cebpf4jnsgd1na2vs0mg"},{"bike_id":"53298f95-12c6-4e19-886c-983027e6de3b","system_id":"levelo_inurba_marseille","lat":43.273613,"lon":5.362705,"is_reserved":false,"is_disabled":false,"rental_uris":{"android":"levelo://app?vid=53298f95-12c6-4e19-886c-983027e6de3b","ios":"levelo://app?vid=53298f95-12c6-4e19-886c-983027e6de3b"},"vehicle_type_id":"4","last_reported":1713090840,"current_range_meters":23200,"station_id":"ce4bhbh2rcd13ifvqeo0","pricing_plan_id":"cebpf4jnsgd1na2vs0mg"},{"bike_id":"2ca22467-bc28-4def-91bd-45c2e8e3b3bf","system_id":"levelo_inurba_marseille","lat":43.322872,"lon":5.382756,"is_reserved":false,"is_disabled":false,"rental_uris":{"android":"levelo://app?vid=2ca22467-bc28-4def-91bd-45c2e8e3b3bf","ios":"levelo://app?vid=2ca22467-bc28-4def-91bd-45c2e8e3b3bf"},"vehicle_type_id":"4","last_reported":1713090840,"current_range_meters":28000,"station_id":"ce4bhr12rcd13ifvqhqg","pricing_plan_id":"cebpf4jnsgd1na2vs0mg"},{"bike_id":"2527a0c4-46ff-46bd-8669-86c07fc6e178","system_id":"levelo_inurba_marseille","lat":43.296131,"lon":5.370791,"is_reserved":false,"is_disabled":false,"rental_uris":{"android":"levelo://app?vid=2527a0c4-46ff-46bd-8669-86c07fc6e178","ios":"levelo://app?vid=2527a0c4-46ff-46bd-8669-86c07fc6e178"},"vehicle_type_id":"4","last_reported":1713090840,"current_range_meters":11600,"station_id":"ce4bgnh2rcd13ifvqc0g","pricing_plan_id":"cebpf4jnsgd1na2vs0mg"},{"bike_id":"99a94b22-9570-419c-9f76-e079f5b9c5b1","system_id":"levelo_inurba_marseille","lat":43.324771,"lon":5.36557,"is_reserved":false,"is_disabled":false,"rental_uris":{"android":"levelo://app?vid=99a94b22-9570-419c-9f76-e079f5b9c5b1","ios":"levelo://app?vid=99a94b22-9570-419c-9f76-e079f5b9c5b1"},"vehicle_type_id":"4","last_reported":1713090840,"current_range_meters":12000,"station_id":"ce4bhs12rcd13ifvqhvg","pricing_plan_id":"cebpf4jnsgd1na2vs0mg"},{"bike_id":"e5d56040-4a23-4474-a951-da114932414f","system_id":"levelo_inurba_marseille","lat":43.324771,"lon":5.36557,"is_reserved":false,"is_disabled":false,"rental_uris":{"android":"levelo://app?vid=e5d56040-4a23-4474-a951-da114932414f","ios":"levelo://app?vid=e5d56040-4a23-4474-a951-da114932414f"},"vehicle_type_id":"4","last_reported":1713090840,"current_range_meters":14400,"station_id":"ce4bhs12rcd13ifvqhvg","pricing_plan_id":"cebpf4jnsgd1na2vs0mg"},{"bike_id":"e4481cf4-e2ba-4a32-8f31-35c596da358e","system_id":"levelo_inurba_marseille","lat":43.30959,"lon":5.39034,"is_reserved":false,"is_disabled":false,"rental_uris":{"android":"levelo://app?vid=e4481cf4-e2ba-4a32-8f31-35c596da358e","ios":"levelo://app?vid=e4481cf4-e2ba-4a32-8f31-35c596da358e"},"vehicle_type_id":"4","last_reported":1713090840,"current_range_meters":31200,"station_id":"ce4bgup2rcd13ifvqco0","pricing_plan_id":"cebpf4jnsgd1na2vs0mg"},{"bike_id":"79c75ec3-3223-484e-b9ff-6ac0fa0dcc68","system_id":"levelo_inurba_marseille","lat":43.309613,"lon":5.390357,"is_reserved":false,"is_disabled":false,"rental_uris":{"android":"levelo://app?vid=79c75ec3-3223-484e-b9ff-6ac0fa0dcc68","ios":"levelo://app?vid=79c75ec3-3223-484e-b9ff-6ac0fa0dcc68"},"vehicle_type_id":"4","last_reported":1713090840,"current_range_meters":28000,"station_id":"ce4bgup2rcd13ifvqco0","pricing_plan_id":"cebpf4jnsgd1na2vs0mg"},{"bike_id":"2d07a291-ef91-4435-ab42-25112d654110","system_id":"levelo_inurba_marseille","lat":43.317557,"lon":5.390173,"is_reserved":false,"is_disabled":false,"rental_uris":{"android":"levelo://app?vid=2d07a291-ef91-4435-ab42-25112d654110","ios":"levelo://app?vid=2d07a291-ef91-4435-ab42-25112d654110"},"vehicle_type_id":"4","last_reported":1713090840,"current_range_meters":10000,"station_id":"ce4bhqp2rcd13ifvqhng","pricing_plan_id":"cebpf4jnsgd1na2vs0mg"},{"bike_id":"1934f52b-6076-48a8-8054-a432346bc861","system_id":"levelo_inurba_marseille","lat":43.298037,"lon":5.381066,"is_reserved":false,"is_disabled":false,"rental_uris":{"android":"levelo://app?vid=1934f52b-6076-48a8-8054-a432346bc861","ios":"levelo://app?vid=1934f52b-6076-48a8-8054-a432346bc861"},"vehicle_type_id":"4","last_reported":1713090840,"current_range_meters":27200,"station_id":"ce4bgip2rcd13ifvqbb0","pricing_plan_id":"cebpf4jnsgd1na2vs0mg"},{"bike_id":"32f70ed4-8d7e-4f26-b69d-c074a526ec5a","system_id":"levelo_inurba_marseille","lat":43.296277,"lon":5.377108,"is_reserved":false,"is_disabled":false,"rental_uris":{"android":"levelo://app?vid=32f70ed4-8d7e-4f26-b69d-c074a526ec5a","ios":"levelo://app?vid=32f70ed4-8d7e-4f26-b69d-c074a526ec5a"},"vehicle_type_id":"4","last_reported":1713090840,"current_range_meters":2400,"station_id":"ce4bgi92rcd13ifvqb90","pricing_plan_id":"cebpf4jnsgd1na2vs0mg"},{"bike_id":"9f530e27-2d54-4307-86ba-3b04763fb6d5","system_id":"levelo_inurba_marseille","lat":43.285856,"lon":5.350771,"is_reserved":false,"is_disabled":false,"rental_uris":{"android":"levelo://app?vid=9f530e27-2d54-4307-86ba-3b04763fb6d5","ios":"levelo://app?vid=9f530e27-2d54-4307-86ba-3b04763fb6d5"},"vehicle_type_id":"4","last_reported":1713090840,"current_range_meters":2400,"station_id":"ce4bhch2rcd13ifvqeug","pricing_plan_id":"cebpf4jnsgd1na2vs0mg"},{"bike_id":"4239feb3-9c51-49e9-a361-df7391ea0e86","system_id":"levelo_inurba_marseille","lat":43.313571,"lon":5.384829,"is_reserved":false,"is_disabled":false,"rental_uris":{"android":"levelo://app?vid=4239feb3-9c51-49e9-a361-df7391ea0e86","ios":"levelo://app?vid=4239feb3-9c51-49e9-a361-df7391ea0e86"},"vehicle_type_id":"4","last_reported":1713090840,"current_range_meters":22000,"station_id":"ce4bgt92rcd13ifvqcf0","pricing_plan_id":"cebpf4jnsgd1na2vs0mg"},{"bike_id":"d8eb7138-04aa-425d-b9d1-1ddd8658cf1e","system_id":"levelo_inurba_marseille","lat":43.293259,"lon":5.371586,"is_reserved":false,"is_disabled":false,"rental_uris":{"android":"levelo://app?vid=d8eb7138-04aa-425d-b9d1-1ddd8658cf1e","ios":"levelo://app?vid=d8eb7138-04aa-425d-b9d1-1ddd8658cf1e"},"vehicle_type_id":"4","last_reported":1713090840,"current_range_meters":19200,"station_id":"ce4bgh92rcd13ifvqb40","pricing_plan_id":"cebpf4jnsgd1na2vs0mg"},{"bike_id":"7a3532e0-86bb-48da-b3a0-5a8d72541a0a","system_id":"levelo_inurba_marseille","lat":43.32362,"lon":5.38882,"is_reserved":false,"is_disabled":false,"rental_uris":{"android":"levelo://app?vid=7a3532e0-86bb-48da-b3a0-5a8d72541a0a","ios":"levelo://app?vid=7a3532e0-86bb-48da-b3a0-5a8d72541a0a"},"vehicle_type_id":"4","last_reported":1713090840,"current_range_meters":17200,"station_id":"ce4bhqp2rcd13ifvqhog","pricing_plan_id":"cebpf4jnsgd1na2vs0mg"},{"bike_id":"63155e39-e835-46cf-9ec8-69fa73c2aeb6","system_id":"levelo_inurba_marseille","lat":43.32364,"lon":5.38881,"is_reserved":false,"is_disabled":false,"rental_uris":{"android":"levelo://app?vid=63155e39-e835-46cf-9ec8-69fa73c2aeb6","ios":"levelo://app?vid=63155e39-e835-46cf-9ec8-69fa73c2aeb6"},"vehicle_type_id":"4","last_reported":1713090840,"current_range_meters":7200,"station_id":"ce4bhqp2rcd13ifvqhog","pricing_plan_id":"cebpf4jnsgd1na2vs0mg"},{"bike_id":"8ff4adca-00af-4dff-b8ad-218b80254e6c","system_id":"levelo_inurba_marseille","lat":43.32362,"lon":5.38885,"is_reserved":false,"is_disabled":false,"rental_uris":{"android":"levelo://app?vid=8ff4adca-00af-4dff-b8ad-218b80254e6c","ios":"levelo://app?vid=8ff4adca-00af-4dff-b8ad-218b80254e6c"},"vehicle_type_id":"4","last_reported":1713090840,"current_range_meters":5200,"station_id":"ce4bhqp2rcd13ifvqhog","pricing_plan_id":"cebpf4jnsgd1na2vs0mg"},{"bike_id":"d93c049a-24ae-4f21-9612-c3be4228be55","system_id":"levelo_inurba_marseille","lat":43.323661,"lon":5.388823,"is_reserved":false,"is_disabled":false,"rental_uris":{"android":"levelo://app?vid=d93c049a-24ae-4f21-9612-c3be4228be55","ios":"levelo://app?vid=d93c049a-24ae-4f21-9612-c3be4228be55"},"vehicle_type_id":"4","last_reported":1713090840,"current_range_meters":8000,"station_id":"ce4bhqp2rcd13ifvqhog","pricing_plan_id":"cebpf4jnsgd1na2vs0mg"},{"bike_id":"e28096e6-55a5-43a8-ac5e-41584cb0d736","system_id":"levelo_inurba_marseille","lat":43.32372,"lon":5.38877,"is_reserved":false,"is_disabled":false,"rental_uris":{"android":"levelo://app?vid=e28096e6-55a5-43a8-ac5e-41584cb0d736","ios":"levelo://app?vid=e28096e6-55a5-43a8-ac5e-41584cb0d736"},"vehicle_type_id":"4","last_reported":1713090840,"current_range_meters":31200,"station_id":"ce4bhqp2rcd13ifvqhog","pricing_plan_id":"cebpf4jnsgd1na2vs0mg"},{"bike_id":"7a1f57f4-61ae-490a-a587-ba2a489f1c8f","system_id":"levelo_inurba_marseille","lat":43.32364,"lon":5.38888,"is_reserved":false,"is_disabled":false,"rental_uris":{"android":"levelo://app?vid=7a1f57f4-61ae-490a-a587-ba2a489f1c8f","ios":"levelo://app?vid=7a1f57f4-61ae-490a-a587-ba2a489f1c8f"},"vehicle_type_id":"4","last_reported":1713090840,"current_range_meters":30400,"station_id":"ce4bhqp2rcd13ifvqhog","pricing_plan_id":"cebpf4jnsgd1na2vs0mg"},{"bike_id":"a57263ad-318d-497b-a257-0ff5261545ff","system_id":"levelo_inurba_marseille","lat":43.32367,"lon":5.38887,"is_reserved":false,"is_disabled":false,"rental_uris":{"android":"levelo://app?vid=a57263ad-318d-497b-a257-0ff5261545ff","ios":"levelo://app?vid=a57263ad-318d-497b-a257-0ff5261545ff"},"vehicle_type_id":"4","last_reported":1713090840,"current_range_meters":800,"station_id":"ce4bhqp2rcd13ifvqhog","pricing_plan_id":"cebpf4jnsgd1na2vs0mg"},{"bike_id":"3fef5a7a-347d-4393-a647-a9eba312bff7","system_id":"levelo_inurba_marseille","lat":43.32367,"lon":5.388836,"is_reserved":false,"is_disabled":false,"rental_uris":{"android":"levelo://app?vid=3fef5a7a-347d-4393-a647-a9eba312bff7","ios":"levelo://app?vid=3fef5a7a-347d-4393-a647-a9eba312bff7"},"vehicle_type_id":"4","last_reported":1713090840,"current_range_meters":17200,"station_id":"ce4bhqp2rcd13ifvqhog","pricing_plan_id":"cebpf4jnsgd1na2vs0mg"},{"bike_id":"7f33ce22-06f0-4ae5-bc5d-e68ee8e05cf1","system_id":"levelo_inurba_marseille","lat":43.32367,"lon":5.388836,"is_reserved":false,"is_disabled":false,"rental_uris":{"android":"levelo://app?vid=7f33ce22-06f0-4ae5-bc5d-e68ee8e05cf1","ios":"levelo://app?vid=7f33ce22-06f0-4ae5-bc5d-e68ee8e05cf1"},"vehicle_type_id":"4","last_reported":1713090840,"current_range_meters":28800,"station_id":"ce4bhqp2rcd13ifvqhog","pricing_plan_id":"cebpf4jnsgd1na2vs0mg"},{"bike_id":"6c2c0f59-eacb-407d-a2bf-0c83f685ffd3","system_id":"levelo_inurba_marseille","lat":43.32363,"lon":5.38893,"is_reserved":false,"is_disabled":false,"rental_uris":{"android":"levelo://app?vid=6c2c0f59-eacb-407d-a2bf-0c83f685ffd3","ios":"levelo://app?vid=6c2c0f59-eacb-407d-a2bf-0c83f685ffd3"},"vehicle_type_id":"4","last_reported":1713090840,"current_range_meters":29600,"station_id":"ce4bhqp2rcd13ifvqhog","pricing_plan_id":"cebpf4jnsgd1na2vs0mg"},{"bike_id":"2ad8097b-be6a-41f7-9a3c-c43bf5463970","system_id":"levelo_inurba_marseille","lat":43.299717,"lon":5.384845,"is_reserved":false,"is_disabled":false,"rental_uris":{"android":"levelo://app?vid=2ad8097b-be6a-41f7-9a3c-c43bf5463970","ios":"levelo://app?vid=2ad8097b-be6a-41f7-9a3c-c43bf5463970"},"vehicle_type_id":"4","last_reported":1713090840,"current_range_meters":0,"station_id":"ce4bgj92rcd13ifvqbd0","pricing_plan_id":"cebpf4jnsgd1na2vs0mg"},{"bike_id":"dd03b091-9c87-4798-abd2-f70736a0e7ae","system_id":"levelo_inurba_marseille","lat":43.293259,"lon":5.371586,"is_reserved":false,"is_disabled":false,"rental_uris":{"android":"levelo://app?vid=dd03b091-9c87-4798-abd2-f70736a0e7ae","ios":"levelo://app?vid=dd03b091-9c87-4798-abd2-f70736a0e7ae"},"vehicle_type_id":"4","last_reported":1713090840,"current_range_meters":20000,"station_id":"ce4bgh92rcd13ifvqb40","pricing_plan_id":"cebpf4jnsgd1na2vs0mg"},{"bike_id":"d52c2f27-057e-4f01-b08c-70eb151ed8a8","system_id":"levelo_inurba_marseille","lat":43.293259,"lon":5.371586,"is_reserved":false,"is_disabled":false,"rental_uris":{"android":"levelo://app?vid=d52c2f27-057e-4f01-b08c-70eb151ed8a8","ios":"levelo://app?vid=d52c2f27-057e-4f01-b08c-70eb151ed8a8"},"vehicle_type_id":"4","last_reported":1713090840,"current_range_meters":18000,"station_id":"ce4bgh92rcd13ifvqb40","pricing_plan_id":"cebpf4jnsgd1na2vs0mg"},{"bike_id":"8c7b8283-ed1e-44bc-8253-3a1ba960272a","system_id":"levelo_inurba_marseille","lat":43.292693,"lon":5.368423,"is_reserved":false,"is_disabled":false,"rental_uris":{"android":"levelo://app?vid=8c7b8283-ed1e-44bc-8253-3a1ba960272a","ios":"levelo://app?vid=8c7b8283-ed1e-44bc-8253-3a1ba960272a"},"vehicle_type_id":"4","last_reported":1713090840,"current_range_meters":26400,"station_id":"ce4bhbp2rcd13ifvqesg","pricing_plan_id":"cebpf4jnsgd1na2vs0mg"},{"bike_id":"d0499991-0b3e-4a46-bc44-70f1c13e842b","system_id":"levelo_inurba_marseille","lat":43.26202,"lon":5.379299,"is_reserved":false,"is_disabled":false,"rental_uris":{"android":"levelo://app?vid=d0499991-0b3e-4a46-bc44-70f1c13e842b","ios":"levelo://app?vid=d0499991-0b3e-4a46-bc44-70f1c13e842b"},"vehicle_type_id":"4","last_reported":1713090840,"current_range_meters":19600,"station_id":"ce4bhjp2rcd13ifvqg90","pricing_plan_id":"cebpf4jnsgd1na2vs0mg"},{"bike_id":"23e2757c-5b81-4a56-bffd-848fada3b261","system_id":"levelo_inurba_marseille","lat":43.26202,"lon":5.379299,"is_reserved":false,"is_disabled":false,"rental_uris":{"android":"levelo://app?vid=23e2757c-5b81-4a56-bffd-848fada3b261","ios":"levelo://app?vid=23e2757c-5b81-4a56-bffd-848fada3b261"},"vehicle_type_id":"4","last_reported":1713090840,"current_range_meters":12000,"station_id":"ce4bhjp2rcd13ifvqg90","pricing_plan_id":"cebpf4jnsgd1na2vs0mg"},{"bike_id":"df88897d-f872-4664-bef5-4ca9cb513f97","system_id":"levelo_inurba_marseille","lat":43.293009,"lon":5.374584,"is_reserved":false,"is_disabled":false,"rental_uris":{"android":"levelo://app?vid=df88897d-f872-4664-bef5-4ca9cb513f97","ios":"levelo://app?vid=df88897d-f872-4664-bef5-4ca9cb513f97"},"vehicle_type_id":"4","last_reported":1713090840,"current_range_meters":400,"station_id":"ce4bgi12rcd13ifvqb70","pricing_plan_id":"cebpf4jnsgd1na2vs0mg"},{"bike_id":"f089f846-c215-4cce-91ac-75168bfaa7af","system_id":"levelo_inurba_marseille","lat":43.302992,"lon":5.392136,"is_reserved":false,"is_disabled":false,"rental_uris":{"android":"levelo://app?vid=f089f846-c215-4cce-91ac-75168bfaa7af","ios":"levelo://app?vid=f089f846-c215-4cce-91ac-75168bfaa7af"},"vehicle_type_id":"4","last_reported":1713090840,"current_range_meters":24800,"station_id":"ce4bgkh2rcd13ifvqbk0","pricing_plan_id":"cebpf4jnsgd1na2vs0mg"},{"bike_id":"d6b5a0f8-572a-4d65-98b4-61a4a3484173","system_id":"levelo_inurba_marseille","lat":43.2936,"lon":5.37835,"is_reserved":false,"is_disabled":false,"rental_uris":{"android":"levelo://app?vid=d6b5a0f8-572a-4d65-98b4-61a4a3484173","ios":"levelo://app?vid=d6b5a0f8-572a-4d65-98b4-61a4a3484173"},"vehicle_type_id":"4","last_reported":1713090840,"current_range_meters":1200,"station_id":"ce4bgjh2rcd13ifvqbf0","pricing_plan_id":"cebpf4jnsgd1na2vs0mg"},{"bike_id":"e2a50d6e-8ff3-4f39-94b5-7f3370cf67b9","system_id":"levelo_inurba_marseille","lat":43.300852,"lon":5.390859,"is_reserved":false,"is_disabled":false,"rental_uris":{"android":"levelo://app?vid=e2a50d6e-8ff3-4f39-94b5-7f3370cf67b9","ios":"levelo://app?vid=e2a50d6e-8ff3-4f39-94b5-7f3370cf67b9"},"vehicle_type_id":"4","last_reported":1713090840,"current_range_meters":16400,"station_id":"ce4bh192rcd13ifvqdb0","pricing_plan_id":"cebpf4jnsgd1na2vs0mg"},{"bike_id":"a03ebe98-d853-4f89-b7fa-96f945ca7bd8","system_id":"levelo_inurba_marseille","lat":43.292005,"lon":5.357875,"is_reserved":false,"is_disabled":false,"rental_uris":{"android":"levelo://app?vid=a03ebe98-d853-4f89-b7fa-96f945ca7bd8","ios":"levelo://app?vid=a03ebe98-d853-4f89-b7fa-96f945ca7bd8"},"vehicle_type_id":"4","last_reported":1713090840,"current_range_meters":800,"station_id":"ce4bhb12rcd13ifvqel0","pricing_plan_id":"cebpf4jnsgd1na2vs0mg"},{"bike_id":"998bdb99-beac-4c9b-9fc2-5681bcd96b85","system_id":"levelo_inurba_marseille","lat":43.313291,"lon":5.396838,"is_reserved":false,"is_disabled":false,"rental_uris":{"android":"levelo://app?vid=998bdb99-beac-4c9b-9fc2-5681bcd96b85","ios":"levelo://app?vid=998bdb99-beac-4c9b-9fc2-5681bcd96b85"},"vehicle_type_id":"4","last_reported":1713090840,"current_range_meters":26800,"station_id":"ce4bgvp2rcd13ifvqcu0","pricing_plan_id":"cebpf4jnsgd1na2vs0mg"},{"bike_id":"db220307-600a-4163-9616-c1a9cc58f8ef","system_id":"levelo_inurba_marseille","lat":43.313291,"lon":5.396838,"is_reserved":false,"is_disabled":false,"rental_uris":{"android":"levelo://app?vid=db220307-600a-4163-9616-c1a9cc58f8ef","ios":"levelo://app?vid=db220307-600a-4163-9616-c1a9cc58f8ef"},"vehicle_type_id":"4","last_reported":1713090840,"current_range_meters":4400,"station_id":"ce4bgvp2rcd13ifvqcu0","pricing_plan_id":"cebpf4jnsgd1na2vs0mg"},{"bike_id":"57d8a70e-df3e-40af-af0e-5161508c7bec","system_id":"levelo_inurba_marseille","lat":43.309047,"lon":5.396551,"is_reserved":false,"is_disabled":false,"rental_uris":{"android":"levelo://app?vid=57d8a70e-df3e-40af-af0e-5161508c7bec","ios":"levelo://app?vid=57d8a70e-df3e-40af-af0e-5161508c7bec"},"vehicle_type_id":"4","last_reported":1713090840,"current_range_meters":8400,"station_id":"ce4bh012rcd13ifvqcv0","pricing_plan_id":"cebpf4jnsgd1na2vs0mg"},{"bike_id":"3e751fa5-8cd5-4bb7-8a1b-a9bd3048fe9a","system_id":"levelo_inurba_marseille","lat":43.309038,"lon":5.396546,"is_reserved":false,"is_disabled":false,"rental_uris":{"android":"levelo://app?vid=3e751fa5-8cd5-4bb7-8a1b-a9bd3048fe9a","ios":"levelo://app?vid=3e751fa5-8cd5-4bb7-8a1b-a9bd3048fe9a"},"vehicle_type_id":"4","last_reported":1713090840,"current_range_meters":20000,"station_id":"ce4bh012rcd13ifvqcv0","pricing_plan_id":"cebpf4jnsgd1na2vs0mg"},{"bike_id":"ce66d80c-d2c4-49f4-9ea1-8db6d3ce82fc","system_id":"levelo_inurba_marseille","lat":43.29529,"lon":5.385581,"is_reserved":false,"is_disabled":false,"rental_uris":{"android":"levelo://app?vid=ce66d80c-d2c4-49f4-9ea1-8db6d3ce82fc","ios":"levelo://app?vid=ce66d80c-d2c4-49f4-9ea1-8db6d3ce82fc"},"vehicle_type_id":"4","last_reported":1713090840,"current_range_meters":14400,"station_id":"ce4bgih2rcd13ifvqba0","pricing_plan_id":"cebpf4jnsgd1na2vs0mg"},{"bike_id":"ab85228e-648d-4f67-9355-1599e2cb1232","system_id":"levelo_inurba_marseille","lat":43.29535,"lon":5.38555,"is_reserved":false,"is_disabled":false,"rental_uris":{"android":"levelo://app?vid=ab85228e-648d-4f67-9355-1599e2cb1232","ios":"levelo://app?vid=ab85228e-648d-4f67-9355-1599e2cb1232"},"vehicle_type_id":"4","last_reported":1713090840,"current_range_meters":2000,"station_id":"ce4bhqh2rcd13ifvqhlg","pricing_plan_id":"cebpf4jnsgd1na2vs0mg"},{"bike_id":"0798dcf8-463b-4cbc-a345-f9135a1cb886","system_id":"levelo_inurba_marseille","lat":43.302008,"lon":5.394694,"is_reserved":false,"is_disabled":false,"rental_uris":{"android":"levelo://app?vid=0798dcf8-463b-4cbc-a345-f9135a1cb886","ios":"levelo://app?vid=0798dcf8-463b-4cbc-a345-f9135a1cb886"},"vehicle_type_id":"4","last_reported":1713090840,"current_range_meters":22000,"station_id":"ce4bh0p2rcd13ifvqd70","pricing_plan_id":"cebpf4jnsgd1na2vs0mg"},{"bike_id":"48949264-5fdc-4bf0-a900-bce2d7db0cce","system_id":"levelo_inurba_marseille","lat":43.289184,"lon":5.366408,"is_reserved":false,"is_disabled":false,"rental_uris":{"android":"levelo://app?vid=48949264-5fdc-4bf0-a900-bce2d7db0cce","ios":"levelo://app?vid=48949264-5fdc-4bf0-a900-bce2d7db0cce"},"vehicle_type_id":"4","last_reported":1713090840,"current_range_meters":12400,"station_id":"ce4bhap2rcd13ifvqek0","pricing_plan_id":"cebpf4jnsgd1na2vs0mg"},{"bike_id":"4d33e987-439d-4019-81e4-7cb11beb7d21","system_id":"levelo_inurba_marseille","lat":43.290624,"lon":5.359245,"is_reserved":false,"is_disabled":false,"rental_uris":{"android":"levelo://app?vid=4d33e987-439d-4019-81e4-7cb11beb7d21","ios":"levelo://app?vid=4d33e987-439d-4019-81e4-7cb11beb7d21"},"vehicle_type_id":"4","last_reported":1713090840,"current_range_meters":18400,"station_id":"ce4bha92rcd13ifvqeg0","pricing_plan_id":"cebpf4jnsgd1na2vs0mg"},{"bike_id":"7e6672e2-ad68-4fac-8873-003a51ee0fca","system_id":"levelo_inurba_marseille","lat":43.290319,"lon":5.375732,"is_reserved":false,"is_disabled":false,"rental_uris":{"android":"levelo://app?vid=7e6672e2-ad68-4fac-8873-003a51ee0fca","ios":"levelo://app?vid=7e6672e2-ad68-4fac-8873-003a51ee0fca"},"vehicle_type_id":"4","last_reported":1713090840,"current_range_meters":0,"station_id":"ce4bh692rcd13ifvqe90","pricing_plan_id":"cebpf4jnsgd1na2vs0mg"},{"bike_id":"25ce75ac-3f6f-41ee-820f-fe7d1cbd6b91","system_id":"levelo_inurba_marseille","lat":43.290327,"lon":5.375711,"is_reserved":false,"is_disabled":false,"rental_uris":{"android":"levelo://app?vid=25ce75ac-3f6f-41ee-820f-fe7d1cbd6b91","ios":"levelo://app?vid=25ce75ac-3f6f-41ee-820f-fe7d1cbd6b91"},"vehicle_type_id":"4","last_reported":1713090840,"current_range_meters":24000,"station_id":"ce4bh692rcd13ifvqe90","pricing_plan_id":"cebpf4jnsgd1na2vs0mg"},{"bike_id":"dbf94824-0f31-42e8-89da-020963631738","system_id":"levelo_inurba_marseille","lat":43.28938,"lon":5.36639,"is_reserved":false,"is_disabled":false,"rental_uris":{"android":"levelo://app?vid=dbf94824-0f31-42e8-89da-020963631738","ios":"levelo://app?vid=dbf94824-0f31-42e8-89da-020963631738"},"vehicle_type_id":"4","last_reported":1713090840,"current_range_meters":10400,"station_id":"ce4bhgh2rcd13ifvqfb0","pricing_plan_id":"cebpf4jnsgd1na2vs0mg"},{"bike_id":"1ca44396-34ba-4769-809d-92ffe246ebbf","system_id":"levelo_inurba_marseille","lat":43.290104,"lon":5.356111,"is_reserved":false,"is_disabled":false,"rental_uris":{"android":"levelo://app?vid=1ca44396-34ba-4769-809d-92ffe246ebbf","ios":"levelo://app?vid=1ca44396-34ba-4769-809d-92ffe246ebbf"},"vehicle_type_id":"4","last_reported":1713090840,"current_range_meters":26800,"station_id":"ce4bhb92rcd13ifvqen0","pricing_plan_id":"cebpf4jnsgd1na2vs0mg"},{"bike_id":"a7971a0d-2c15-422d-838a-86f9bf3ebd21","system_id":"levelo_inurba_marseille","lat":43.290104,"lon":5.356111,"is_reserved":false,"is_disabled":false,"rental_uris":{"android":"levelo://app?vid=a7971a0d-2c15-422d-838a-86f9bf3ebd21","ios":"levelo://app?vid=a7971a0d-2c15-422d-838a-86f9bf3ebd21"},"vehicle_type_id":"4","last_reported":1713090840,"current_range_meters":27600,"station_id":"ce4bhb92rcd13ifvqen0","pricing_plan_id":"cebpf4jnsgd1na2vs0mg"},{"bike_id":"610fdd3d-91f5-4cd0-8c4e-a118e7edba7b","system_id":"levelo_inurba_marseille","lat":43.28856,"lon":5.358371,"is_reserved":false,"is_disabled":false,"rental_uris":{"android":"levelo://app?vid=610fdd3d-91f5-4cd0-8c4e-a118e7edba7b","ios":"levelo://app?vid=610fdd3d-91f5-4cd0-8c4e-a118e7edba7b"},"vehicle_type_id":"4","last_reported":1713090840,"current_range_meters":19200,"station_id":"ce4bhb12rcd13ifvqem0","pricing_plan_id":"cebpf4jnsgd1na2vs0mg"},{"bike_id":"3c9f0a20-7a6d-48e4-8df1-f6e20ca50628","system_id":"levelo_inurba_marseille","lat":43.312609,"lon":5.401662,"is_reserved":false,"is_disabled":false,"rental_uris":{"android":"levelo://app?vid=3c9f0a20-7a6d-48e4-8df1-f6e20ca50628","ios":"levelo://app?vid=3c9f0a20-7a6d-48e4-8df1-f6e20ca50628"},"vehicle_type_id":"4","last_reported":1713090840,"current_range_meters":10000,"station_id":"ce4bh092rcd13ifvqd30","pricing_plan_id":"cebpf4jnsgd1na2vs0mg"},{"bike_id":"57dfdcab-8556-4452-ae1b-c19ede08f726","system_id":"levelo_inurba_marseille","lat":43.312609,"lon":5.401662,"is_reserved":false,"is_disabled":false,"rental_uris":{"android":"levelo://app?vid=57dfdcab-8556-4452-ae1b-c19ede08f726","ios":"levelo://app?vid=57dfdcab-8556-4452-ae1b-c19ede08f726"},"vehicle_type_id":"4","last_reported":1713090840,"current_range_meters":30000,"station_id":"ce4bh092rcd13ifvqd30","pricing_plan_id":"cebpf4jnsgd1na2vs0mg"},{"bike_id":"2c3d81e8-27cc-4142-94bd-6699d214803a","system_id":"levelo_inurba_marseille","lat":43.312609,"lon":5.401662,"is_reserved":false,"is_disabled":false,"rental_uris":{"android":"levelo://app?vid=2c3d81e8-27cc-4142-94bd-6699d214803a","ios":"levelo://app?vid=2c3d81e8-27cc-4142-94bd-6699d214803a"},"vehicle_type_id":"4","last_reported":1713090840,"current_range_meters":28800,"station_id":"ce4bh092rcd13ifvqd30","pricing_plan_id":"cebpf4jnsgd1na2vs0mg"},{"bike_id":"9ac6c0fe-f647-4ef9-bb04-49fe3fdedaa2","system_id":"levelo_inurba_marseille","lat":43.309371,"lon":5.401449,"is_reserved":false,"is_disabled":false,"rental_uris":{"android":"levelo://app?vid=9ac6c0fe-f647-4ef9-bb04-49fe3fdedaa2","ios":"levelo://app?vid=9ac6c0fe-f647-4ef9-bb04-49fe3fdedaa2"},"vehicle_type_id":"4","last_reported":1713090840,"current_range_meters":12400,"station_id":"ce4bgvp2rcd13ifvqct0","pricing_plan_id":"cebpf4jnsgd1na2vs0mg"},{"bike_id":"88df4c63-22db-48a2-abc4-f9eff2cbfad6","system_id":"levelo_inurba_marseille","lat":43.312609,"lon":5.401662,"is_reserved":false,"is_disabled":false,"rental_uris":{"android":"levelo://app?vid=88df4c63-22db-48a2-abc4-f9eff2cbfad6","ios":"levelo://app?vid=88df4c63-22db-48a2-abc4-f9eff2cbfad6"},"vehicle_type_id":"4","last_reported":1713090840,"current_range_meters":31200,"station_id":"ce4bh092rcd13ifvqd30","pricing_plan_id":"cebpf4jnsgd1na2vs0mg"},{"bike_id":"8eef09c9-30bf-4a8e-8545-128d1b3fcf85","system_id":"levelo_inurba_marseille","lat":43.312609,"lon":5.401662,"is_reserved":false,"is_disabled":false,"rental_uris":{"android":"levelo://app?vid=8eef09c9-30bf-4a8e-8545-128d1b3fcf85","ios":"levelo://app?vid=8eef09c9-30bf-4a8e-8545-128d1b3fcf85"},"vehicle_type_id":"4","last_reported":1713090840,"current_range_meters":23600,"station_id":"ce4bh092rcd13ifvqd30","pricing_plan_id":"cebpf4jnsgd1na2vs0mg"},{"bike_id":"b9d7a058-ceec-428d-94f9-ee95c61e7815","system_id":"levelo_inurba_marseille","lat":43.312609,"lon":5.401662,"is_reserved":false,"is_disabled":false,"rental_uris":{"android":"levelo://app?vid=b9d7a058-ceec-428d-94f9-ee95c61e7815","ios":"levelo://app?vid=b9d7a058-ceec-428d-94f9-ee95c61e7815"},"vehicle_type_id":"4","last_reported":1713090840,"current_range_meters":29200,"station_id":"ce4bh092rcd13ifvqd30","pricing_plan_id":"cebpf4jnsgd1na2vs0mg"},{"bike_id":"f8492da3-83fa-4c71-abd8-e2cf5938ebc6","system_id":"levelo_inurba_marseille","lat":43.31279,"lon":5.40176,"is_reserved":false,"is_disabled":false,"rental_uris":{"android":"levelo://app?vid=f8492da3-83fa-4c71-abd8-e2cf5938ebc6","ios":"levelo://app?vid=f8492da3-83fa-4c71-abd8-e2cf5938ebc6"},"vehicle_type_id":"4","last_reported":1713090840,"current_range_meters":15200,"station_id":"ce4bh092rcd13ifvqd30","pricing_plan_id":"cebpf4jnsgd1na2vs0mg"},{"bike_id":"882d240d-3a5b-40d6-9cd6-33bec75fde26","system_id":"levelo_inurba_marseille","lat":43.30642,"lon":5.401031,"is_reserved":false,"is_disabled":false,"rental_uris":{"android":"levelo://app?vid=882d240d-3a5b-40d6-9cd6-33bec75fde26","ios":"levelo://app?vid=882d240d-3a5b-40d6-9cd6-33bec75fde26"},"vehicle_type_id":"4","last_reported":1713090840,"current_range_meters":10800,"station_id":"ce4bh112rcd13ifvqda0","pricing_plan_id":"cebpf4jnsgd1na2vs0mg"},{"bike_id":"05307d6b-748b-4029-a43b-63ce362a1e52","system_id":"levelo_inurba_marseille","lat":43.306412,"lon":5.401035,"is_reserved":false,"is_disabled":false,"rental_uris":{"android":"levelo://app?vid=05307d6b-748b-4029-a43b-63ce362a1e52","ios":"levelo://app?vid=05307d6b-748b-4029-a43b-63ce362a1e52"},"vehicle_type_id":"4","last_reported":1713090840,"current_range_meters":28000,"station_id":"ce4bh112rcd13ifvqda0","pricing_plan_id":"cebpf4jnsgd1na2vs0mg"},{"bike_id":"c49779df-f606-4919-9711-5659d27c1740","system_id":"levelo_inurba_marseille","lat":43.30963,"lon":5.40195,"is_reserved":false,"is_disabled":false,"rental_uris":{"android":"levelo://app?vid=c49779df-f606-4919-9711-5659d27c1740","ios":"levelo://app?vid=c49779df-f606-4919-9711-5659d27c1740"},"vehicle_type_id":"4","last_reported":1713090840,"current_range_meters":10800,"station_id":"ce4bgvp2rcd13ifvqct0","pricing_plan_id":"cebpf4jnsgd1na2vs0mg"},{"bike_id":"cb256f93-165f-4f21-9174-c672a67b5297","system_id":"levelo_inurba_marseille","lat":43.298681,"lon":5.397225,"is_reserved":false,"is_disabled":false,"rental_uris":{"android":"levelo://app?vid=cb256f93-165f-4f21-9174-c672a67b5297","ios":"levelo://app?vid=cb256f93-165f-4f21-9174-c672a67b5297"},"vehicle_type_id":"4","last_reported":1713090840,"current_range_meters":2000,"station_id":"ce4bh0h2rcd13ifvqd50","pricing_plan_id":"cebpf4jnsgd1na2vs0mg"},{"bike_id":"9446d178-65fd-4c8a-930f-22542636bc27","system_id":"levelo_inurba_marseille","lat":43.302759,"lon":5.400793,"is_reserved":false,"is_disabled":false,"rental_uris":{"android":"levelo://app?vid=9446d178-65fd-4c8a-930f-22542636bc27","ios":"levelo://app?vid=9446d178-65fd-4c8a-930f-22542636bc27"},"vehicle_type_id":"4","last_reported":1713090840,"current_range_meters":0,"station_id":"ce4bgvh2rcd13ifvqcs0","pricing_plan_id":"cebpf4jnsgd1na2vs0mg"},{"bike_id":"7fbf2b19-019d-4999-a7e7-3da18ffff797","system_id":"levelo_inurba_marseille","lat":43.304606,"lon":5.379026,"is_reserved":false,"is_disabled":false,"rental_uris":{"android":"levelo://app?vid=7fbf2b19-019d-4999-a7e7-3da18ffff797","ios":"levelo://app?vid=7fbf2b19-019d-4999-a7e7-3da18ffff797"},"vehicle_type_id":"4","last_reported":1713090840,"current_range_meters":26000,"station_id":"ce4bgup2rcd13ifvqcn0","pricing_plan_id":"cebpf4jnsgd1na2vs0mg"},{"bike_id":"28d0cae8-8814-4b3d-9327-0236f3643bf6","system_id":"levelo_inurba_marseille","lat":43.302759,"lon":5.400793,"is_reserved":false,"is_disabled":false,"rental_uris":{"android":"levelo://app?vid=28d0cae8-8814-4b3d-9327-0236f3643bf6","ios":"levelo://app?vid=28d0cae8-8814-4b3d-9327-0236f3643bf6"},"vehicle_type_id":"4","last_reported":1713090840,"current_range_meters":29200,"station_id":"ce4bgvh2rcd13ifvqcs0","pricing_plan_id":"cebpf4jnsgd1na2vs0mg"},{"bike_id":"0a831ba4-a7c1-4b13-9829-648d3ce0e4ac","system_id":"levelo_inurba_marseille","lat":43.316828,"lon":5.404723,"is_reserved":false,"is_disabled":false,"rental_uris":{"android":"levelo://app?vid=0a831ba4-a7c1-4b13-9829-648d3ce0e4ac","ios":"levelo://app?vid=0a831ba4-a7c1-4b13-9829-648d3ce0e4ac"},"vehicle_type_id":"4","last_reported":1713090840,"current_range_meters":30400,"station_id":"ce4bh012rcd13ifvqd00","pricing_plan_id":"cebpf4jnsgd1na2vs0mg"},{"bike_id":"3b49611a-e72a-43c1-9608-6575cde1aed6","system_id":"levelo_inurba_marseille","lat":43.316828,"lon":5.404723,"is_reserved":false,"is_disabled":false,"rental_uris":{"android":"levelo://app?vid=3b49611a-e72a-43c1-9608-6575cde1aed6","ios":"levelo://app?vid=3b49611a-e72a-43c1-9608-6575cde1aed6"},"vehicle_type_id":"4","last_reported":1713090840,"current_range_meters":14400,"station_id":"ce4bh012rcd13ifvqd00","pricing_plan_id":"cebpf4jnsgd1na2vs0mg"},{"bike_id":"4f3e6052-6ec0-4809-ad62-5128c8bc2d67","system_id":"levelo_inurba_marseille","lat":43.316821,"lon":5.404737,"is_reserved":false,"is_disabled":false,"rental_uris":{"android":"levelo://app?vid=4f3e6052-6ec0-4809-ad62-5128c8bc2d67","ios":"levelo://app?vid=4f3e6052-6ec0-4809-ad62-5128c8bc2d67"},"vehicle_type_id":"4","last_reported":1713090840,"current_range_meters":8400,"station_id":"ce4bh012rcd13ifvqd00","pricing_plan_id":"cebpf4jnsgd1na2vs0mg"},{"bike_id":"50513d5c-9671-4344-8c8f-df9502fa419c","system_id":"levelo_inurba_marseille","lat":43.31697,"lon":5.40465,"is_reserved":false,"is_disabled":false,"rental_uris":{"android":"levelo://app?vid=50513d5c-9671-4344-8c8f-df9502fa419c","ios":"levelo://app?vid=50513d5c-9671-4344-8c8f-df9502fa419c"},"vehicle_type_id":"4","last_reported":1713090840,"current_range_meters":30000,"station_id":"ce4bh012rcd13ifvqd00","pricing_plan_id":"cebpf4jnsgd1na2vs0mg"},{"bike_id":"ad84e45e-f5a7-49d3-9f42-fd58fc3c12e8","system_id":"levelo_inurba_marseille","lat":43.316821,"lon":5.404737,"is_reserved":false,"is_disabled":false,"rental_uris":{"android":"levelo://app?vid=ad84e45e-f5a7-49d3-9f42-fd58fc3c12e8","ios":"levelo://app?vid=ad84e45e-f5a7-49d3-9f42-fd58fc3c12e8"},"vehicle_type_id":"4","last_reported":1713090840,"current_range_meters":28000,"station_id":"ce4bh012rcd13ifvqd00","pricing_plan_id":"cebpf4jnsgd1na2vs0mg"},{"bike_id":"29e32dca-9a99-46f9-9d76-f98dee556c76","system_id":"levelo_inurba_marseille","lat":43.316828,"lon":5.404723,"is_reserved":false,"is_disabled":false,"rental_uris":{"android":"levelo://app?vid=29e32dca-9a99-46f9-9d76-f98dee556c76","ios":"levelo://app?vid=29e32dca-9a99-46f9-9d76-f98dee556c76"},"vehicle_type_id":"4","last_reported":1713090840,"current_range_meters":23600,"station_id":"ce4bh012rcd13ifvqd00","pricing_plan_id":"cebpf4jnsgd1na2vs0mg"},{"bike_id":"77cd9b25-b398-41a3-9e35-c0408a9a2a4b","system_id":"levelo_inurba_marseille","lat":43.316828,"lon":5.404723,"is_reserved":false,"is_disabled":false,"rental_uris":{"android":"levelo://app?vid=77cd9b25-b398-41a3-9e35-c0408a9a2a4b","ios":"levelo://app?vid=77cd9b25-b398-41a3-9e35-c0408a9a2a4b"},"vehicle_type_id":"4","last_reported":1713090840,"current_range_meters":0,"station_id":"ce4bh012rcd13ifvqd00","pricing_plan_id":"cebpf4jnsgd1na2vs0mg"},{"bike_id":"71c499c6-c0a2-4c90-a43c-beaf445d71d5","system_id":"levelo_inurba_marseille","lat":43.316821,"lon":5.404737,"is_reserved":false,"is_disabled":false,"rental_uris":{"android":"levelo://app?vid=71c499c6-c0a2-4c90-a43c-beaf445d71d5","ios":"levelo://app?vid=71c499c6-c0a2-4c90-a43c-beaf445d71d5"},"vehicle_type_id":"4","last_reported":1713090840,"current_range_meters":24800,"station_id":"ce4bh012rcd13ifvqd00","pricing_plan_id":"cebpf4jnsgd1na2vs0mg"},{"bike_id":"714edfe3-5d5d-4b29-a555-cc9dd2fc6e4b","system_id":"levelo_inurba_marseille","lat":43.316828,"lon":5.404723,"is_reserved":false,"is_disabled":false,"rental_uris":{"android":"levelo://app?vid=714edfe3-5d5d-4b29-a555-cc9dd2fc6e4b","ios":"levelo://app?vid=714edfe3-5d5d-4b29-a555-cc9dd2fc6e4b"},"vehicle_type_id":"4","last_reported":1713090840,"current_range_meters":31200,"station_id":"ce4bh012rcd13ifvqd00","pricing_plan_id":"cebpf4jnsgd1na2vs0mg"},{"bike_id":"3bfd53b9-43c4-4143-ad1d-899e48b48532","system_id":"levelo_inurba_marseille","lat":43.316828,"lon":5.404723,"is_reserved":false,"is_disabled":false,"rental_uris":{"android":"levelo://app?vid=3bfd53b9-43c4-4143-ad1d-899e48b48532","ios":"levelo://app?vid=3bfd53b9-43c4-4143-ad1d-899e48b48532"},"vehicle_type_id":"4","last_reported":1713090840,"current_range_meters":14800,"station_id":"ce4bh012rcd13ifvqd00","pricing_plan_id":"cebpf4jnsgd1na2vs0mg"},{"bike_id":"36565e8a-19c5-4c39-a4f8-e38022102279","system_id":"levelo_inurba_marseille","lat":43.316821,"lon":5.404737,"is_reserved":false,"is_disabled":false,"rental_uris":{"android":"levelo://app?vid=36565e8a-19c5-4c39-a4f8-e38022102279","ios":"levelo://app?vid=36565e8a-19c5-4c39-a4f8-e38022102279"},"vehicle_type_id":"4","last_reported":1713090840,"current_range_meters":30800,"station_id":"ce4bh012rcd13ifvqd00","pricing_plan_id":"cebpf4jnsgd1na2vs0mg"},{"bike_id":"1b99945f-975d-452e-967f-d147d144fdbc","system_id":"levelo_inurba_marseille","lat":43.316821,"lon":5.404737,"is_reserved":false,"is_disabled":false,"rental_uris":{"android":"levelo://app?vid=1b99945f-975d-452e-967f-d147d144fdbc","ios":"levelo://app?vid=1b99945f-975d-452e-967f-d147d144fdbc"},"vehicle_type_id":"4","last_reported":1713090840,"current_range_meters":21200,"station_id":"ce4bh012rcd13ifvqd00","pricing_plan_id":"cebpf4jnsgd1na2vs0mg"},{"bike_id":"9e83361e-77a8-4a4e-9658-3513c65b7761","system_id":"levelo_inurba_marseille","lat":43.31694,"lon":5.404808,"is_reserved":false,"is_disabled":false,"rental_uris":{"android":"levelo://app?vid=9e83361e-77a8-4a4e-9658-3513c65b7761","ios":"levelo://app?vid=9e83361e-77a8-4a4e-9658-3513c65b7761"},"vehicle_type_id":"4","last_reported":1713090840,"current_range_meters":30000,"station_id":"ce4bh012rcd13ifvqd00","pricing_plan_id":"cebpf4jnsgd1na2vs0mg"},{"bike_id":"92ab272e-b940-434c-b7df-4a6f2b7f68e3","system_id":"levelo_inurba_marseille","lat":43.286462,"lon":5.351334,"is_reserved":false,"is_disabled":false,"rental_uris":{"android":"levelo://app?vid=92ab272e-b940-434c-b7df-4a6f2b7f68e3","ios":"levelo://app?vid=92ab272e-b940-434c-b7df-4a6f2b7f68e3"},"vehicle_type_id":"4","last_reported":1713090840,"current_range_meters":25200,"station_id":"ce4bhch2rcd13ifvqeug","pricing_plan_id":"cebpf4jnsgd1na2vs0mg"},{"bike_id":"184195a7-aecf-4d1c-8a55-d5096d64cab6","system_id":"levelo_inurba_marseille","lat":43.294314,"lon":5.397498,"is_reserved":false,"is_disabled":false,"rental_uris":{"android":"levelo://app?vid=184195a7-aecf-4d1c-8a55-d5096d64cab6","ios":"levelo://app?vid=184195a7-aecf-4d1c-8a55-d5096d64cab6"},"vehicle_type_id":"4","last_reported":1713090840,"current_range_meters":20800,"station_id":"ce4bh3h2rcd13ifvqdo0","pricing_plan_id":"cebpf4jnsgd1na2vs0mg"},{"bike_id":"f1aad897-75fb-4ebb-a05d-6da70456f279","system_id":"levelo_inurba_marseille","lat":43.285856,"lon":5.350771,"is_reserved":false,"is_disabled":false,"rental_uris":{"android":"levelo://app?vid=f1aad897-75fb-4ebb-a05d-6da70456f279","ios":"levelo://app?vid=f1aad897-75fb-4ebb-a05d-6da70456f279"},"vehicle_type_id":"4","last_reported":1713090840,"current_range_meters":11200,"station_id":"ce4bhch2rcd13ifvqeug","pricing_plan_id":"cebpf4jnsgd1na2vs0mg"},{"bike_id":"36988a54-4072-4c37-8f8a-795e28d83089","system_id":"levelo_inurba_marseille","lat":43.285848,"lon":5.350787,"is_reserved":false,"is_disabled":false,"rental_uris":{"android":"levelo://app?vid=36988a54-4072-4c37-8f8a-795e28d83089","ios":"levelo://app?vid=36988a54-4072-4c37-8f8a-795e28d83089"},"vehicle_type_id":"4","last_reported":1713090840,"current_range_meters":7600,"station_id":"ce4bhch2rcd13ifvqeug","pricing_plan_id":"cebpf4jnsgd1na2vs0mg"},{"bike_id":"f9c13769-e52f-4eca-ae1c-1df3fe79e06e","system_id":"levelo_inurba_marseille","lat":43.285856,"lon":5.350771,"is_reserved":false,"is_disabled":false,"rental_uris":{"android":"levelo://app?vid=f9c13769-e52f-4eca-ae1c-1df3fe79e06e","ios":"levelo://app?vid=f9c13769-e52f-4eca-ae1c-1df3fe79e06e"},"vehicle_type_id":"4","last_reported":1713090840,"current_range_meters":25600,"station_id":"ce4bhch2rcd13ifvqeug","pricing_plan_id":"cebpf4jnsgd1na2vs0mg"},{"bike_id":"8eff3d3d-0e79-420d-9b26-b1c80db38894","system_id":"levelo_inurba_marseille","lat":43.285848,"lon":5.350787,"is_reserved":false,"is_disabled":false,"rental_uris":{"android":"levelo://app?vid=8eff3d3d-0e79-420d-9b26-b1c80db38894","ios":"levelo://app?vid=8eff3d3d-0e79-420d-9b26-b1c80db38894"},"vehicle_type_id":"4","last_reported":1713090840,"current_range_meters":18800,"station_id":"ce4bhch2rcd13ifvqeug","pricing_plan_id":"cebpf4jnsgd1na2vs0mg"},{"bike_id":"05d6f8a3-2909-414e-9655-ecbdfa235770","system_id":"levelo_inurba_marseille","lat":43.285856,"lon":5.350771,"is_reserved":false,"is_disabled":false,"rental_uris":{"android":"levelo://app?vid=05d6f8a3-2909-414e-9655-ecbdfa235770","ios":"levelo://app?vid=05d6f8a3-2909-414e-9655-ecbdfa235770"},"vehicle_type_id":"4","last_reported":1713090840,"current_range_meters":22800,"station_id":"ce4bhch2rcd13ifvqeug","pricing_plan_id":"cebpf4jnsgd1na2vs0mg"},{"bike_id":"7cac7b08-d9e3-42e4-bd12-869c2663a664","system_id":"levelo_inurba_marseille","lat":43.285856,"lon":5.350771,"is_reserved":false,"is_disabled":false,"rental_uris":{"android":"levelo://app?vid=7cac7b08-d9e3-42e4-bd12-869c2663a664","ios":"levelo://app?vid=7cac7b08-d9e3-42e4-bd12-869c2663a664"},"vehicle_type_id":"4","last_reported":1713090840,"current_range_meters":23200,"station_id":"ce4bhch2rcd13ifvqeug","pricing_plan_id":"cebpf4jnsgd1na2vs0mg"},{"bike_id":"461dfceb-a4c8-4303-b00e-d7b6992133fb","system_id":"levelo_inurba_marseille","lat":43.285856,"lon":5.350771,"is_reserved":false,"is_disabled":false,"rental_uris":{"android":"levelo://app?vid=461dfceb-a4c8-4303-b00e-d7b6992133fb","ios":"levelo://app?vid=461dfceb-a4c8-4303-b00e-d7b6992133fb"},"vehicle_type_id":"4","last_reported":1713090840,"current_range_meters":31200,"station_id":"ce4bhch2rcd13ifvqeug","pricing_plan_id":"cebpf4jnsgd1na2vs0mg"},{"bike_id":"bacbaa65-89cf-418f-9ad5-594677f9c6e2","system_id":"levelo_inurba_marseille","lat":43.285848,"lon":5.350787,"is_reserved":false,"is_disabled":false,"rental_uris":{"android":"levelo://app?vid=bacbaa65-89cf-418f-9ad5-594677f9c6e2","ios":"levelo://app?vid=bacbaa65-89cf-418f-9ad5-594677f9c6e2"},"vehicle_type_id":"4","last_reported":1713090840,"current_range_meters":28000,"station_id":"ce4bhch2rcd13ifvqeug","pricing_plan_id":"cebpf4jnsgd1na2vs0mg"},{"bike_id":"2a101dde-11ba-46aa-8759-b6fd75fed16c","system_id":"levelo_inurba_marseille","lat":43.285856,"lon":5.350771,"is_reserved":false,"is_disabled":false,"rental_uris":{"android":"levelo://app?vid=2a101dde-11ba-46aa-8759-b6fd75fed16c","ios":"levelo://app?vid=2a101dde-11ba-46aa-8759-b6fd75fed16c"},"vehicle_type_id":"4","last_reported":1713090840,"current_range_meters":10800,"station_id":"ce4bhch2rcd13ifvqeug","pricing_plan_id":"cebpf4jnsgd1na2vs0mg"},{"bike_id":"f6bf4add-b27a-405c-baab-629c7279e1d6","system_id":"levelo_inurba_marseille","lat":43.285856,"lon":5.350771,"is_reserved":false,"is_disabled":false,"rental_uris":{"android":"levelo://app?vid=f6bf4add-b27a-405c-baab-629c7279e1d6","ios":"levelo://app?vid=f6bf4add-b27a-405c-baab-629c7279e1d6"},"vehicle_type_id":"4","last_reported":1713090840,"current_range_meters":27600,"station_id":"ce4bhch2rcd13ifvqeug","pricing_plan_id":"cebpf4jnsgd1na2vs0mg"},{"bike_id":"13e257c3-05f6-4816-9b7b-08a2e06ae235","system_id":"levelo_inurba_marseille","lat":43.28613,"lon":5.35105,"is_reserved":false,"is_disabled":false,"rental_uris":{"android":"levelo://app?vid=13e257c3-05f6-4816-9b7b-08a2e06ae235","ios":"levelo://app?vid=13e257c3-05f6-4816-9b7b-08a2e06ae235"},"vehicle_type_id":"4","last_reported":1713090840,"current_range_meters":24400,"station_id":"ce4bhch2rcd13ifvqeug","pricing_plan_id":"cebpf4jnsgd1na2vs0mg"},{"bike_id":"7020235b-c2af-4536-9173-1829fd08ec3d","system_id":"levelo_inurba_marseille","lat":43.285856,"lon":5.350771,"is_reserved":false,"is_disabled":false,"rental_uris":{"android":"levelo://app?vid=7020235b-c2af-4536-9173-1829fd08ec3d","ios":"levelo://app?vid=7020235b-c2af-4536-9173-1829fd08ec3d"},"vehicle_type_id":"4","last_reported":1713090840,"current_range_meters":29200,"station_id":"ce4bhch2rcd13ifvqeug","pricing_plan_id":"cebpf4jnsgd1na2vs0mg"},{"bike_id":"0b5025a1-efb7-4272-a2fa-c8b56474166a","system_id":"levelo_inurba_marseille","lat":43.285856,"lon":5.350771,"is_reserved":false,"is_disabled":false,"rental_uris":{"android":"levelo://app?vid=0b5025a1-efb7-4272-a2fa-c8b56474166a","ios":"levelo://app?vid=0b5025a1-efb7-4272-a2fa-c8b56474166a"},"vehicle_type_id":"4","last_reported":1713090840,"current_range_meters":14800,"station_id":"ce4bhch2rcd13ifvqeug","pricing_plan_id":"cebpf4jnsgd1na2vs0mg"},{"bike_id":"838b0cd7-d902-4d15-ae1b-7cfa4dc4e5c4","system_id":"levelo_inurba_marseille","lat":43.285848,"lon":5.350787,"is_reserved":false,"is_disabled":false,"rental_uris":{"android":"levelo://app?vid=838b0cd7-d902-4d15-ae1b-7cfa4dc4e5c4","ios":"levelo://app?vid=838b0cd7-d902-4d15-ae1b-7cfa4dc4e5c4"},"vehicle_type_id":"4","last_reported":1713090840,"current_range_meters":10400,"station_id":"ce4bhch2rcd13ifvqeug","pricing_plan_id":"cebpf4jnsgd1na2vs0mg"},{"bike_id":"82f6e666-d3de-4753-8d3b-b5eb8e075657","system_id":"levelo_inurba_marseille","lat":43.28611,"lon":5.35105,"is_reserved":false,"is_disabled":false,"rental_uris":{"android":"levelo://app?vid=82f6e666-d3de-4753-8d3b-b5eb8e075657","ios":"levelo://app?vid=82f6e666-d3de-4753-8d3b-b5eb8e075657"},"vehicle_type_id":"4","last_reported":1713090840,"current_range_meters":8400,"station_id":"ce4bhch2rcd13ifvqeug","pricing_plan_id":"cebpf4jnsgd1na2vs0mg"},{"bike_id":"c4f09f18-c90b-4e84-b54b-0ad79d59f9d8","system_id":"levelo_inurba_marseille","lat":43.285856,"lon":5.350771,"is_reserved":false,"is_disabled":false,"rental_uris":{"android":"levelo://app?vid=c4f09f18-c90b-4e84-b54b-0ad79d59f9d8","ios":"levelo://app?vid=c4f09f18-c90b-4e84-b54b-0ad79d59f9d8"},"vehicle_type_id":"4","last_reported":1713090840,"current_range_meters":25600,"station_id":"ce4bhch2rcd13ifvqeug","pricing_plan_id":"cebpf4jnsgd1na2vs0mg"},{"bike_id":"fbb4036f-8d4e-406f-b0e9-92a076039433","system_id":"levelo_inurba_marseille","lat":43.295713,"lon":5.399639,"is_reserved":false,"is_disabled":false,"rental_uris":{"android":"levelo://app?vid=fbb4036f-8d4e-406f-b0e9-92a076039433","ios":"levelo://app?vid=fbb4036f-8d4e-406f-b0e9-92a076039433"},"vehicle_type_id":"4","last_reported":1713090840,"current_range_meters":14000,"station_id":"ce4bh312rcd13ifvqdj0","pricing_plan_id":"cebpf4jnsgd1na2vs0mg"},{"bike_id":"849093d2-4086-4c12-886d-606696ba3f18","system_id":"levelo_inurba_marseille","lat":43.295713,"lon":5.399639,"is_reserved":false,"is_disabled":false,"rental_uris":{"android":"levelo://app?vid=849093d2-4086-4c12-886d-606696ba3f18","ios":"levelo://app?vid=849093d2-4086-4c12-886d-606696ba3f18"},"vehicle_type_id":"4","last_reported":1713090840,"current_range_meters":5600,"station_id":"ce4bh312rcd13ifvqdj0","pricing_plan_id":"cebpf4jnsgd1na2vs0mg"},{"bike_id":"01bd1327-b1a9-4531-9579-d811570fa590","system_id":"levelo_inurba_marseille","lat":43.28404,"lon":5.37504,"is_reserved":false,"is_disabled":false,"rental_uris":{"android":"levelo://app?vid=01bd1327-b1a9-4531-9579-d811570fa590","ios":"levelo://app?vid=01bd1327-b1a9-4531-9579-d811570fa590"},"vehicle_type_id":"4","last_reported":1713090840,"current_range_meters":28400,"station_id":"ce4bh412rcd13ifvqds0","pricing_plan_id":"cebpf4jnsgd1na2vs0mg"},{"bike_id":"c3b72fa1-9ded-4234-a887-be4c584b5b36","system_id":"levelo_inurba_marseille","lat":43.319179,"lon":5.407725,"is_reserved":false,"is_disabled":false,"rental_uris":{"android":"levelo://app?vid=c3b72fa1-9ded-4234-a887-be4c584b5b36","ios":"levelo://app?vid=c3b72fa1-9ded-4234-a887-be4c584b5b36"},"vehicle_type_id":"4","last_reported":1713090840,"current_range_meters":20000,"station_id":"ce4bhq12rcd13ifvqhig","pricing_plan_id":"cebpf4jnsgd1na2vs0mg"},{"bike_id":"bbeb1ccf-4b31-414e-91d9-088553250e31","system_id":"levelo_inurba_marseille","lat":43.282744,"lon":5.350533,"is_reserved":false,"is_disabled":false,"rental_uris":{"android":"levelo://app?vid=bbeb1ccf-4b31-414e-91d9-088553250e31","ios":"levelo://app?vid=bbeb1ccf-4b31-414e-91d9-088553250e31"},"vehicle_type_id":"4","last_reported":1713090840,"current_range_meters":6400,"station_id":"ce4bhbp2rcd13ifvqerg","pricing_plan_id":"cebpf4jnsgd1na2vs0mg"},{"bike_id":"95fefabe-296d-4131-aad3-ad45bc6a0e4b","system_id":"levelo_inurba_marseille","lat":43.319179,"lon":5.407725,"is_reserved":false,"is_disabled":false,"rental_uris":{"android":"levelo://app?vid=95fefabe-296d-4131-aad3-ad45bc6a0e4b","ios":"levelo://app?vid=95fefabe-296d-4131-aad3-ad45bc6a0e4b"},"vehicle_type_id":"4","last_reported":1713090840,"current_range_meters":4800,"station_id":"ce4bhq12rcd13ifvqhig","pricing_plan_id":"cebpf4jnsgd1na2vs0mg"},{"bike_id":"af67fd05-8376-4172-8b78-72ee16251b0a","system_id":"levelo_inurba_marseille","lat":43.337168,"lon":5.391825,"is_reserved":false,"is_disabled":false,"rental_uris":{"android":"levelo://app?vid=af67fd05-8376-4172-8b78-72ee16251b0a","ios":"levelo://app?vid=af67fd05-8376-4172-8b78-72ee16251b0a"},"vehicle_type_id":"4","last_reported":1713090840,"current_range_meters":20400,"station_id":"ce4bhr92rcd13ifvqhsg","pricing_plan_id":"cebpf4jnsgd1na2vs0mg"},{"bike_id":"bde4ce6b-a82c-4bce-901d-3bb275291f51","system_id":"levelo_inurba_marseille","lat":43.337168,"lon":5.391825,"is_reserved":false,"is_disabled":false,"rental_uris":{"android":"levelo://app?vid=bde4ce6b-a82c-4bce-901d-3bb275291f51","ios":"levelo://app?vid=bde4ce6b-a82c-4bce-901d-3bb275291f51"},"vehicle_type_id":"4","last_reported":1713090840,"current_range_meters":31600,"station_id":"ce4bhr92rcd13ifvqhsg","pricing_plan_id":"cebpf4jnsgd1na2vs0mg"},{"bike_id":"7935c754-11a8-484c-9ab3-ce258a31a3de","system_id":"levelo_inurba_marseille","lat":43.323464,"lon":5.406297,"is_reserved":false,"is_disabled":false,"rental_uris":{"android":"levelo://app?vid=7935c754-11a8-484c-9ab3-ce258a31a3de","ios":"levelo://app?vid=7935c754-11a8-484c-9ab3-ce258a31a3de"},"vehicle_type_id":"4","last_reported":1713090840,"current_range_meters":14400,"station_id":"ce4bhq92rcd13ifvqhjg","pricing_plan_id":"cebpf4jnsgd1na2vs0mg"},{"bike_id":"4ca4a038-e8d9-4d89-b01e-c24889d45341","system_id":"levelo_inurba_marseille","lat":43.284787,"lon":5.384116,"is_reserved":false,"is_disabled":false,"rental_uris":{"android":"levelo://app?vid=4ca4a038-e8d9-4d89-b01e-c24889d45341","ios":"levelo://app?vid=4ca4a038-e8d9-4d89-b01e-c24889d45341"},"vehicle_type_id":"4","last_reported":1713090840,"current_range_meters":20800,"station_id":"ce4bh512rcd13ifvqe3g","pricing_plan_id":"cebpf4jnsgd1na2vs0mg"},{"bike_id":"9f28d562-ff86-4acd-a34a-13caad3af347","system_id":"levelo_inurba_marseille","lat":43.284787,"lon":5.384116,"is_reserved":false,"is_disabled":false,"rental_uris":{"android":"levelo://app?vid=9f28d562-ff86-4acd-a34a-13caad3af347","ios":"levelo://app?vid=9f28d562-ff86-4acd-a34a-13caad3af347"},"vehicle_type_id":"4","last_reported":1713090840,"current_range_meters":23600,"station_id":"ce4bh512rcd13ifvqe3g","pricing_plan_id":"cebpf4jnsgd1na2vs0mg"},{"bike_id":"4231e44f-6e64-47d9-802b-1946e9c53ecf","system_id":"levelo_inurba_marseille","lat":43.32532,"lon":5.40558,"is_reserved":false,"is_disabled":false,"rental_uris":{"android":"levelo://app?vid=4231e44f-6e64-47d9-802b-1946e9c53ecf","ios":"levelo://app?vid=4231e44f-6e64-47d9-802b-1946e9c53ecf"},"vehicle_type_id":"4","last_reported":1713090840,"current_range_meters":1600,"station_id":"","pricing_plan_id":"cebpf4jnsgd1na2vs0mg"},{"bike_id":"d9ca1156-ced6-4c3a-8439-a241fabfb770","system_id":"levelo_inurba_marseille","lat":43.32533,"lon":5.40562,"is_reserved":false,"is_disabled":false,"rental_uris":{"android":"levelo://app?vid=d9ca1156-ced6-4c3a-8439-a241fabfb770","ios":"levelo://app?vid=d9ca1156-ced6-4c3a-8439-a241fabfb770"},"vehicle_type_id":"4","last_reported":1713090840,"current_range_meters":5600,"station_id":"","pricing_plan_id":"cebpf4jnsgd1na2vs0mg"},{"bike_id":"16354239-de35-43ca-875c-92bb4a5ace82","system_id":"levelo_inurba_marseille","lat":43.32534,"lon":5.40567,"is_reserved":false,"is_disabled":false,"rental_uris":{"android":"levelo://app?vid=16354239-de35-43ca-875c-92bb4a5ace82","ios":"levelo://app?vid=16354239-de35-43ca-875c-92bb4a5ace82"},"vehicle_type_id":"4","last_reported":1713090840,"current_range_meters":20800,"station_id":"","pricing_plan_id":"cebpf4jnsgd1na2vs0mg"},{"bike_id":"6f223e7a-a260-4c2d-8691-6f5620c88088","system_id":"levelo_inurba_marseille","lat":43.288501,"lon":5.393087,"is_reserved":false,"is_disabled":false,"rental_uris":{"android":"levelo://app?vid=6f223e7a-a260-4c2d-8691-6f5620c88088","ios":"levelo://app?vid=6f223e7a-a260-4c2d-8691-6f5620c88088"},"vehicle_type_id":"4","last_reported":1713090840,"current_range_meters":400,"station_id":"ce4bh2p2rcd13ifvqdi0","pricing_plan_id":"cebpf4jnsgd1na2vs0mg"},{"bike_id":"6f674529-4957-4d17-b8c7-e50ec65b21f5","system_id":"levelo_inurba_marseille","lat":43.28429,"lon":5.35001,"is_reserved":false,"is_disabled":false,"rental_uris":{"android":"levelo://app?vid=6f674529-4957-4d17-b8c7-e50ec65b21f5","ios":"levelo://app?vid=6f674529-4957-4d17-b8c7-e50ec65b21f5"},"vehicle_type_id":"4","last_reported":1713090840,"current_range_meters":22400,"station_id":"ce4bhbh2rcd13ifvqepg","pricing_plan_id":"cebpf4jnsgd1na2vs0mg"},{"bike_id":"51283b75-f756-4ce2-945e-8319d5c56117","system_id":"levelo_inurba_marseille","lat":43.28425,"lon":5.34995,"is_reserved":false,"is_disabled":false,"rental_uris":{"android":"levelo://app?vid=51283b75-f756-4ce2-945e-8319d5c56117","ios":"levelo://app?vid=51283b75-f756-4ce2-945e-8319d5c56117"},"vehicle_type_id":"4","last_reported":1713090840,"current_range_meters":25200,"station_id":"ce4bhbh2rcd13ifvqepg","pricing_plan_id":"cebpf4jnsgd1na2vs0mg"},{"bike_id":"4e579d72-72dc-498e-b354-c231ba2706e5","system_id":"levelo_inurba_marseille","lat":43.284219,"lon":5.3497,"is_reserved":false,"is_disabled":false,"rental_uris":{"android":"levelo://app?vid=4e579d72-72dc-498e-b354-c231ba2706e5","ios":"levelo://app?vid=4e579d72-72dc-498e-b354-c231ba2706e5"},"vehicle_type_id":"4","last_reported":1713090840,"current_range_meters":20000,"station_id":"ce4bhbh2rcd13ifvqepg","pricing_plan_id":"cebpf4jnsgd1na2vs0mg"},{"bike_id":"96706a9e-4b90-4552-9430-adf2deb70c03","system_id":"levelo_inurba_marseille","lat":43.284219,"lon":5.3497,"is_reserved":false,"is_disabled":false,"rental_uris":{"android":"levelo://app?vid=96706a9e-4b90-4552-9430-adf2deb70c03","ios":"levelo://app?vid=96706a9e-4b90-4552-9430-adf2deb70c03"},"vehicle_type_id":"4","last_reported":1713090840,"current_range_meters":8400,"station_id":"ce4bhbh2rcd13ifvqepg","pricing_plan_id":"cebpf4jnsgd1na2vs0mg"},{"bike_id":"a80308db-2b3b-4c34-8b78-046875c480a2","system_id":"levelo_inurba_marseille","lat":43.284219,"lon":5.3497,"is_reserved":false,"is_disabled":false,"rental_uris":{"android":"levelo://app?vid=a80308db-2b3b-4c34-8b78-046875c480a2","ios":"levelo://app?vid=a80308db-2b3b-4c34-8b78-046875c480a2"},"vehicle_type_id":"4","last_reported":1713090840,"current_range_meters":27200,"station_id":"ce4bhbh2rcd13ifvqepg","pricing_plan_id":"cebpf4jnsgd1na2vs0mg"},{"bike_id":"15e76553-e9c1-429c-a1a0-de1ddceefc50","system_id":"levelo_inurba_marseille","lat":43.28418,"lon":5.349875,"is_reserved":false,"is_disabled":false,"rental_uris":{"android":"levelo://app?vid=15e76553-e9c1-429c-a1a0-de1ddceefc50","ios":"levelo://app?vid=15e76553-e9c1-429c-a1a0-de1ddceefc50"},"vehicle_type_id":"4","last_reported":1713090840,"current_range_meters":31200,"station_id":"ce4bhbh2rcd13ifvqepg","pricing_plan_id":"cebpf4jnsgd1na2vs0mg"},{"bike_id":"46b7ce02-9d84-416e-afaf-6c43d0efebc5","system_id":"levelo_inurba_marseille","lat":43.284219,"lon":5.3497,"is_reserved":false,"is_disabled":false,"rental_uris":{"android":"levelo://app?vid=46b7ce02-9d84-416e-afaf-6c43d0efebc5","ios":"levelo://app?vid=46b7ce02-9d84-416e-afaf-6c43d0efebc5"},"vehicle_type_id":"4","last_reported":1713090840,"current_range_meters":3200,"station_id":"ce4bhbh2rcd13ifvqepg","pricing_plan_id":"cebpf4jnsgd1na2vs0mg"},{"bike_id":"0e3a0f43-1cc7-4ad5-a9e2-c4114bcb358c","system_id":"levelo_inurba_marseille","lat":43.284219,"lon":5.3497,"is_reserved":false,"is_disabled":false,"rental_uris":{"android":"levelo://app?vid=0e3a0f43-1cc7-4ad5-a9e2-c4114bcb358c","ios":"levelo://app?vid=0e3a0f43-1cc7-4ad5-a9e2-c4114bcb358c"},"vehicle_type_id":"4","last_reported":1713090840,"current_range_meters":15600,"station_id":"ce4bhbh2rcd13ifvqepg","pricing_plan_id":"cebpf4jnsgd1na2vs0mg"},{"bike_id":"c550122a-f065-456f-8f9d-32657dca51b5","system_id":"levelo_inurba_marseille","lat":43.284219,"lon":5.3497,"is_reserved":false,"is_disabled":false,"rental_uris":{"android":"levelo://app?vid=c550122a-f065-456f-8f9d-32657dca51b5","ios":"levelo://app?vid=c550122a-f065-456f-8f9d-32657dca51b5"},"vehicle_type_id":"4","last_reported":1713090840,"current_range_meters":8800,"station_id":"ce4bhbh2rcd13ifvqepg","pricing_plan_id":"cebpf4jnsgd1na2vs0mg"},{"bike_id":"72f22a8d-7419-4cf1-9661-050d71b35b83","system_id":"levelo_inurba_marseille","lat":43.28415,"lon":5.34982,"is_reserved":false,"is_disabled":false,"rental_uris":{"android":"levelo://app?vid=72f22a8d-7419-4cf1-9661-050d71b35b83","ios":"levelo://app?vid=72f22a8d-7419-4cf1-9661-050d71b35b83"},"vehicle_type_id":"4","last_reported":1713090840,"current_range_meters":29200,"station_id":"ce4bhbh2rcd13ifvqepg","pricing_plan_id":"cebpf4jnsgd1na2vs0mg"},{"bike_id":"32c98342-c0a9-4985-bef8-3e495620ba94","system_id":"levelo_inurba_marseille","lat":43.284148,"lon":5.349809,"is_reserved":false,"is_disabled":false,"rental_uris":{"android":"levelo://app?vid=32c98342-c0a9-4985-bef8-3e495620ba94","ios":"levelo://app?vid=32c98342-c0a9-4985-bef8-3e495620ba94"},"vehicle_type_id":"4","last_reported":1713090840,"current_range_meters":20000,"station_id":"ce4bhbh2rcd13ifvqepg","pricing_plan_id":"cebpf4jnsgd1na2vs0mg"},{"bike_id":"01f418c5-decf-4c6f-b679-787b3acf1544","system_id":"levelo_inurba_marseille","lat":43.284141,"lon":5.349797,"is_reserved":false,"is_disabled":false,"rental_uris":{"android":"levelo://app?vid=01f418c5-decf-4c6f-b679-787b3acf1544","ios":"levelo://app?vid=01f418c5-decf-4c6f-b679-787b3acf1544"},"vehicle_type_id":"4","last_reported":1713090840,"current_range_meters":22800,"station_id":"ce4bhbh2rcd13ifvqepg","pricing_plan_id":"cebpf4jnsgd1na2vs0mg"},{"bike_id":"a78426c4-afc3-4a0c-b292-1d3a8f952312","system_id":"levelo_inurba_marseille","lat":43.284219,"lon":5.3497,"is_reserved":false,"is_disabled":false,"rental_uris":{"android":"levelo://app?vid=a78426c4-afc3-4a0c-b292-1d3a8f952312","ios":"levelo://app?vid=a78426c4-afc3-4a0c-b292-1d3a8f952312"},"vehicle_type_id":"4","last_reported":1713090840,"current_range_meters":8800,"station_id":"ce4bhbh2rcd13ifvqepg","pricing_plan_id":"cebpf4jnsgd1na2vs0mg"},{"bike_id":"db37aebe-570b-4fd4-8b25-8584a7ebd330","system_id":"levelo_inurba_marseille","lat":43.284214,"lon":5.349706,"is_reserved":false,"is_disabled":false,"rental_uris":{"android":"levelo://app?vid=db37aebe-570b-4fd4-8b25-8584a7ebd330","ios":"levelo://app?vid=db37aebe-570b-4fd4-8b25-8584a7ebd330"},"vehicle_type_id":"4","last_reported":1713090840,"current_range_meters":22800,"station_id":"ce4bhbh2rcd13ifvqepg","pricing_plan_id":"cebpf4jnsgd1na2vs0mg"},{"bike_id":"69a9b042-5550-4673-ae49-4a83ec3f1e1d","system_id":"levelo_inurba_marseille","lat":43.28404,"lon":5.3498,"is_reserved":false,"is_disabled":false,"rental_uris":{"android":"levelo://app?vid=69a9b042-5550-4673-ae49-4a83ec3f1e1d","ios":"levelo://app?vid=69a9b042-5550-4673-ae49-4a83ec3f1e1d"},"vehicle_type_id":"4","last_reported":1713090840,"current_range_meters":13200,"station_id":"ce4bhbh2rcd13ifvqepg","pricing_plan_id":"cebpf4jnsgd1na2vs0mg"},{"bike_id":"f276ebd4-b583-4215-861f-31da4fff6056","system_id":"levelo_inurba_marseille","lat":43.28389,"lon":5.3496,"is_reserved":false,"is_disabled":false,"rental_uris":{"android":"levelo://app?vid=f276ebd4-b583-4215-861f-31da4fff6056","ios":"levelo://app?vid=f276ebd4-b583-4215-861f-31da4fff6056"},"vehicle_type_id":"4","last_reported":1713090840,"current_range_meters":30400,"station_id":"ce4bhbh2rcd13ifvqepg","pricing_plan_id":"cebpf4jnsgd1na2vs0mg"},{"bike_id":"a5168cf0-edc5-4eb3-9658-e927cb7fa9e9","system_id":"levelo_inurba_marseille","lat":43.282744,"lon":5.350533,"is_reserved":false,"is_disabled":false,"rental_uris":{"android":"levelo://app?vid=a5168cf0-edc5-4eb3-9658-e927cb7fa9e9","ios":"levelo://app?vid=a5168cf0-edc5-4eb3-9658-e927cb7fa9e9"},"vehicle_type_id":"4","last_reported":1713090840,"current_range_meters":18000,"station_id":"ce4bhbp2rcd13ifvqerg","pricing_plan_id":"cebpf4jnsgd1na2vs0mg"},{"bike_id":"f67f4a14-748a-4fdb-a7ce-04ffcd50b5f0","system_id":"levelo_inurba_marseille","lat":43.282744,"lon":5.350533,"is_reserved":false,"is_disabled":false,"rental_uris":{"android":"levelo://app?vid=f67f4a14-748a-4fdb-a7ce-04ffcd50b5f0","ios":"levelo://app?vid=f67f4a14-748a-4fdb-a7ce-04ffcd50b5f0"},"vehicle_type_id":"4","last_reported":1713090840,"current_range_meters":7200,"station_id":"ce4bhbp2rcd13ifvqerg","pricing_plan_id":"cebpf4jnsgd1na2vs0mg"},{"bike_id":"3fd7931d-21a3-497f-a306-7b855ddf321b","system_id":"levelo_inurba_marseille","lat":43.28277,"lon":5.35082,"is_reserved":false,"is_disabled":false,"rental_uris":{"android":"levelo://app?vid=3fd7931d-21a3-497f-a306-7b855ddf321b","ios":"levelo://app?vid=3fd7931d-21a3-497f-a306-7b855ddf321b"},"vehicle_type_id":"4","last_reported":1713090840,"current_range_meters":12000,"station_id":"ce4bhbp2rcd13ifvqerg","pricing_plan_id":"cebpf4jnsgd1na2vs0mg"},{"bike_id":"d1d4e03e-00ce-4f06-9a02-37aafb64bbeb","system_id":"levelo_inurba_marseille","lat":43.282799,"lon":5.350666,"is_reserved":false,"is_disabled":false,"rental_uris":{"android":"levelo://app?vid=d1d4e03e-00ce-4f06-9a02-37aafb64bbeb","ios":"levelo://app?vid=d1d4e03e-00ce-4f06-9a02-37aafb64bbeb"},"vehicle_type_id":"4","last_reported":1713090840,"current_range_meters":8000,"station_id":"ce4bhbp2rcd13ifvqerg","pricing_plan_id":"cebpf4jnsgd1na2vs0mg"},{"bike_id":"1bc897da-6bdf-4cac-8228-ae7455b8bab9","system_id":"levelo_inurba_marseille","lat":43.28276,"lon":5.35078,"is_reserved":false,"is_disabled":false,"rental_uris":{"android":"levelo://app?vid=1bc897da-6bdf-4cac-8228-ae7455b8bab9","ios":"levelo://app?vid=1bc897da-6bdf-4cac-8228-ae7455b8bab9"},"vehicle_type_id":"4","last_reported":1713090840,"current_range_meters":11200,"station_id":"ce4bhbp2rcd13ifvqerg","pricing_plan_id":"cebpf4jnsgd1na2vs0mg"},{"bike_id":"5f162c1a-e1eb-4634-8619-7435b58d3647","system_id":"levelo_inurba_marseille","lat":43.282734,"lon":5.350748,"is_reserved":false,"is_disabled":false,"rental_uris":{"android":"levelo://app?vid=5f162c1a-e1eb-4634-8619-7435b58d3647","ios":"levelo://app?vid=5f162c1a-e1eb-4634-8619-7435b58d3647"},"vehicle_type_id":"4","last_reported":1713090840,"current_range_meters":15200,"station_id":"ce4bhbp2rcd13ifvqerg","pricing_plan_id":"cebpf4jnsgd1na2vs0mg"},{"bike_id":"0603fba7-bd6e-4243-9914-87e68288c005","system_id":"levelo_inurba_marseille","lat":43.282744,"lon":5.350533,"is_reserved":false,"is_disabled":false,"rental_uris":{"android":"levelo://app?vid=0603fba7-bd6e-4243-9914-87e68288c005","ios":"levelo://app?vid=0603fba7-bd6e-4243-9914-87e68288c005"},"vehicle_type_id":"4","last_reported":1713090840,"current_range_meters":29600,"station_id":"ce4bhbp2rcd13ifvqerg","pricing_plan_id":"cebpf4jnsgd1na2vs0mg"},{"bike_id":"f0d840d9-f4f5-4747-b5c0-9ad004befbff","system_id":"levelo_inurba_marseille","lat":43.282744,"lon":5.350533,"is_reserved":false,"is_disabled":false,"rental_uris":{"android":"levelo://app?vid=f0d840d9-f4f5-4747-b5c0-9ad004befbff","ios":"levelo://app?vid=f0d840d9-f4f5-4747-b5c0-9ad004befbff"},"vehicle_type_id":"4","last_reported":1713090840,"current_range_meters":31600,"station_id":"ce4bhbp2rcd13ifvqerg","pricing_plan_id":"cebpf4jnsgd1na2vs0mg"},{"bike_id":"65283e2c-82eb-4b40-9706-0bdde3cc23dd","system_id":"levelo_inurba_marseille","lat":43.28274,"lon":5.35069,"is_reserved":false,"is_disabled":false,"rental_uris":{"android":"levelo://app?vid=65283e2c-82eb-4b40-9706-0bdde3cc23dd","ios":"levelo://app?vid=65283e2c-82eb-4b40-9706-0bdde3cc23dd"},"vehicle_type_id":"4","last_reported":1713090840,"current_range_meters":26400,"station_id":"ce4bhbp2rcd13ifvqerg","pricing_plan_id":"cebpf4jnsgd1na2vs0mg"},{"bike_id":"949393de-a507-453d-b48d-a462106f3e7c","system_id":"levelo_inurba_marseille","lat":43.28273,"lon":5.35072,"is_reserved":false,"is_disabled":false,"rental_uris":{"android":"levelo://app?vid=949393de-a507-453d-b48d-a462106f3e7c","ios":"levelo://app?vid=949393de-a507-453d-b48d-a462106f3e7c"},"vehicle_type_id":"4","last_reported":1713090840,"current_range_meters":14800,"station_id":"ce4bhbp2rcd13ifvqerg","pricing_plan_id":"cebpf4jnsgd1na2vs0mg"},{"bike_id":"6ebe46f2-5de4-466b-a0ba-d7c6b8eb3a5f","system_id":"levelo_inurba_marseille","lat":43.28272,"lon":5.35072,"is_reserved":false,"is_disabled":false,"rental_uris":{"android":"levelo://app?vid=6ebe46f2-5de4-466b-a0ba-d7c6b8eb3a5f","ios":"levelo://app?vid=6ebe46f2-5de4-466b-a0ba-d7c6b8eb3a5f"},"vehicle_type_id":"4","last_reported":1713090840,"current_range_meters":3600,"station_id":"ce4bhbp2rcd13ifvqerg","pricing_plan_id":"cebpf4jnsgd1na2vs0mg"},{"bike_id":"cc2d9c2a-81b1-4647-ad5a-30c54bf71fb7","system_id":"levelo_inurba_marseille","lat":43.2827,"lon":5.35076,"is_reserved":false,"is_disabled":false,"rental_uris":{"android":"levelo://app?vid=cc2d9c2a-81b1-4647-ad5a-30c54bf71fb7","ios":"levelo://app?vid=cc2d9c2a-81b1-4647-ad5a-30c54bf71fb7"},"vehicle_type_id":"4","last_reported":1713090840,"current_range_meters":22000,"station_id":"ce4bhbp2rcd13ifvqerg","pricing_plan_id":"cebpf4jnsgd1na2vs0mg"},{"bike_id":"010903f7-0ec3-4750-8240-efcb65ab2732","system_id":"levelo_inurba_marseille","lat":43.282744,"lon":5.350533,"is_reserved":false,"is_disabled":false,"rental_uris":{"android":"levelo://app?vid=010903f7-0ec3-4750-8240-efcb65ab2732","ios":"levelo://app?vid=010903f7-0ec3-4750-8240-efcb65ab2732"},"vehicle_type_id":"4","last_reported":1713090840,"current_range_meters":20400,"station_id":"ce4bhbp2rcd13ifvqerg","pricing_plan_id":"cebpf4jnsgd1na2vs0mg"},{"bike_id":"e3726363-d55d-46e4-8076-2ee03402bac1","system_id":"levelo_inurba_marseille","lat":43.282754,"lon":5.350519,"is_reserved":false,"is_disabled":false,"rental_uris":{"android":"levelo://app?vid=e3726363-d55d-46e4-8076-2ee03402bac1","ios":"levelo://app?vid=e3726363-d55d-46e4-8076-2ee03402bac1"},"vehicle_type_id":"4","last_reported":1713090840,"current_range_meters":28800,"station_id":"ce4bhbp2rcd13ifvqerg","pricing_plan_id":"cebpf4jnsgd1na2vs0mg"},{"bike_id":"3f28103f-0826-4aa6-b89c-7947b69acc37","system_id":"levelo_inurba_marseille","lat":43.282754,"lon":5.350519,"is_reserved":false,"is_disabled":false,"rental_uris":{"android":"levelo://app?vid=3f28103f-0826-4aa6-b89c-7947b69acc37","ios":"levelo://app?vid=3f28103f-0826-4aa6-b89c-7947b69acc37"},"vehicle_type_id":"4","last_reported":1713090840,"current_range_meters":7600,"station_id":"ce4bhbp2rcd13ifvqerg","pricing_plan_id":"cebpf4jnsgd1na2vs0mg"},{"bike_id":"4decab7f-33b7-4db2-a99a-9d5b3c448739","system_id":"levelo_inurba_marseille","lat":43.28271,"lon":5.35069,"is_reserved":false,"is_disabled":false,"rental_uris":{"android":"levelo://app?vid=4decab7f-33b7-4db2-a99a-9d5b3c448739","ios":"levelo://app?vid=4decab7f-33b7-4db2-a99a-9d5b3c448739"},"vehicle_type_id":"4","last_reported":1713090840,"current_range_meters":12400,"station_id":"ce4bhbp2rcd13ifvqerg","pricing_plan_id":"cebpf4jnsgd1na2vs0mg"},{"bike_id":"c2492caa-a239-43fd-b873-e65b225b56b8","system_id":"levelo_inurba_marseille","lat":43.282744,"lon":5.350533,"is_reserved":false,"is_disabled":false,"rental_uris":{"android":"levelo://app?vid=c2492caa-a239-43fd-b873-e65b225b56b8","ios":"levelo://app?vid=c2492caa-a239-43fd-b873-e65b225b56b8"},"vehicle_type_id":"4","last_reported":1713090840,"current_range_meters":8800,"station_id":"ce4bhbp2rcd13ifvqerg","pricing_plan_id":"cebpf4jnsgd1na2vs0mg"},{"bike_id":"610d8b4c-fda5-47c9-8ab2-e918b6a461b8","system_id":"levelo_inurba_marseille","lat":43.28272,"lon":5.35061,"is_reserved":false,"is_disabled":false,"rental_uris":{"android":"levelo://app?vid=610d8b4c-fda5-47c9-8ab2-e918b6a461b8","ios":"levelo://app?vid=610d8b4c-fda5-47c9-8ab2-e918b6a461b8"},"vehicle_type_id":"4","last_reported":1713090840,"current_range_meters":16000,"station_id":"ce4bhbp2rcd13ifvqerg","pricing_plan_id":"cebpf4jnsgd1na2vs0mg"},{"bike_id":"b72f82b2-855b-4481-a3af-225a6ba1f2f6","system_id":"levelo_inurba_marseille","lat":43.282723,"lon":5.350597,"is_reserved":false,"is_disabled":false,"rental_uris":{"android":"levelo://app?vid=b72f82b2-855b-4481-a3af-225a6ba1f2f6","ios":"levelo://app?vid=b72f82b2-855b-4481-a3af-225a6ba1f2f6"},"vehicle_type_id":"4","last_reported":1713090840,"current_range_meters":14400,"station_id":"ce4bhbp2rcd13ifvqerg","pricing_plan_id":"cebpf4jnsgd1na2vs0mg"},{"bike_id":"1b51f7bf-1b43-4386-a5ed-6054cd431c8c","system_id":"levelo_inurba_marseille","lat":43.282744,"lon":5.350533,"is_reserved":false,"is_disabled":false,"rental_uris":{"android":"levelo://app?vid=1b51f7bf-1b43-4386-a5ed-6054cd431c8c","ios":"levelo://app?vid=1b51f7bf-1b43-4386-a5ed-6054cd431c8c"},"vehicle_type_id":"4","last_reported":1713090840,"current_range_meters":10800,"station_id":"ce4bhbp2rcd13ifvqerg","pricing_plan_id":"cebpf4jnsgd1na2vs0mg"},{"bike_id":"99cc054f-f8b4-4b4c-a188-e6e511b0bb5b","system_id":"levelo_inurba_marseille","lat":43.28268,"lon":5.35068,"is_reserved":false,"is_disabled":false,"rental_uris":{"android":"levelo://app?vid=99cc054f-f8b4-4b4c-a188-e6e511b0bb5b","ios":"levelo://app?vid=99cc054f-f8b4-4b4c-a188-e6e511b0bb5b"},"vehicle_type_id":"4","last_reported":1713090840,"current_range_meters":30000,"station_id":"ce4bhbp2rcd13ifvqerg","pricing_plan_id":"cebpf4jnsgd1na2vs0mg"},{"bike_id":"2c9e3091-807d-45a6-971d-9ca46e24fd4b","system_id":"levelo_inurba_marseille","lat":43.2827,"lon":5.3506,"is_reserved":false,"is_disabled":false,"rental_uris":{"android":"levelo://app?vid=2c9e3091-807d-45a6-971d-9ca46e24fd4b","ios":"levelo://app?vid=2c9e3091-807d-45a6-971d-9ca46e24fd4b"},"vehicle_type_id":"4","last_reported":1713090840,"current_range_meters":20800,"station_id":"ce4bhbp2rcd13ifvqerg","pricing_plan_id":"cebpf4jnsgd1na2vs0mg"},{"bike_id":"3f653f61-bbc7-41f0-8024-48bbeb7b944f","system_id":"levelo_inurba_marseille","lat":43.282744,"lon":5.350533,"is_reserved":false,"is_disabled":false,"rental_uris":{"android":"levelo://app?vid=3f653f61-bbc7-41f0-8024-48bbeb7b944f","ios":"levelo://app?vid=3f653f61-bbc7-41f0-8024-48bbeb7b944f"},"vehicle_type_id":"4","last_reported":1713090840,"current_range_meters":23600,"station_id":"ce4bhbp2rcd13ifvqerg","pricing_plan_id":"cebpf4jnsgd1na2vs0mg"},{"bike_id":"09bd5257-77a6-46b8-94d4-2d7ed691295c","system_id":"levelo_inurba_marseille","lat":43.2827,"lon":5.35056,"is_reserved":false,"is_disabled":false,"rental_uris":{"android":"levelo://app?vid=09bd5257-77a6-46b8-94d4-2d7ed691295c","ios":"levelo://app?vid=09bd5257-77a6-46b8-94d4-2d7ed691295c"},"vehicle_type_id":"4","last_reported":1713090840,"current_range_meters":10000,"station_id":"ce4bhbp2rcd13ifvqerg","pricing_plan_id":"cebpf4jnsgd1na2vs0mg"},{"bike_id":"16be51d5-fdcb-4d43-a42d-c3ab727d532c","system_id":"levelo_inurba_marseille","lat":43.282744,"lon":5.350533,"is_reserved":false,"is_disabled":false,"rental_uris":{"android":"levelo://app?vid=16be51d5-fdcb-4d43-a42d-c3ab727d532c","ios":"levelo://app?vid=16be51d5-fdcb-4d43-a42d-c3ab727d532c"},"vehicle_type_id":"4","last_reported":1713090840,"current_range_meters":20000,"station_id":"ce4bhbp2rcd13ifvqerg","pricing_plan_id":"cebpf4jnsgd1na2vs0mg"},{"bike_id":"0916064e-2787-4834-ae81-2b55e18c22fe","system_id":"levelo_inurba_marseille","lat":43.282744,"lon":5.350533,"is_reserved":false,"is_disabled":false,"rental_uris":{"android":"levelo://app?vid=0916064e-2787-4834-ae81-2b55e18c22fe","ios":"levelo://app?vid=0916064e-2787-4834-ae81-2b55e18c22fe"},"vehicle_type_id":"4","last_reported":1713090840,"current_range_meters":28400,"station_id":"ce4bhbp2rcd13ifvqerg","pricing_plan_id":"cebpf4jnsgd1na2vs0mg"},{"bike_id":"6f8885d8-74fd-495f-bba0-8f800c51c3a6","system_id":"levelo_inurba_marseille","lat":43.28265,"lon":5.35063,"is_reserved":false,"is_disabled":false,"rental_uris":{"android":"levelo://app?vid=6f8885d8-74fd-495f-bba0-8f800c51c3a6","ios":"levelo://app?vid=6f8885d8-74fd-495f-bba0-8f800c51c3a6"},"vehicle_type_id":"4","last_reported":1713090840,"current_range_meters":24000,"station_id":"ce4bhbp2rcd13ifvqerg","pricing_plan_id":"cebpf4jnsgd1na2vs0mg"},{"bike_id":"183c8f29-3c5e-494b-9354-7e40bc37cea6","system_id":"levelo_inurba_marseille","lat":43.282744,"lon":5.350533,"is_reserved":false,"is_disabled":false,"rental_uris":{"android":"levelo://app?vid=183c8f29-3c5e-494b-9354-7e40bc37cea6","ios":"levelo://app?vid=183c8f29-3c5e-494b-9354-7e40bc37cea6"},"vehicle_type_id":"4","last_reported":1713090840,"current_range_meters":16400,"station_id":"ce4bhbp2rcd13ifvqerg","pricing_plan_id":"cebpf4jnsgd1na2vs0mg"},{"bike_id":"93b4e0ec-d77e-4bb6-98e7-14f0dd4b822f","system_id":"levelo_inurba_marseille","lat":43.28267,"lon":5.35054,"is_reserved":false,"is_disabled":false,"rental_uris":{"android":"levelo://app?vid=93b4e0ec-d77e-4bb6-98e7-14f0dd4b822f","ios":"levelo://app?vid=93b4e0ec-d77e-4bb6-98e7-14f0dd4b822f"},"vehicle_type_id":"4","last_reported":1713090840,"current_range_meters":28800,"station_id":"ce4bhbp2rcd13ifvqerg","pricing_plan_id":"cebpf4jnsgd1na2vs0mg"},{"bike_id":"0501f5a1-dbb1-4715-a3c9-3431f29493df","system_id":"levelo_inurba_marseille","lat":43.283502,"lon":5.386471,"is_reserved":false,"is_disabled":false,"rental_uris":{"android":"levelo://app?vid=0501f5a1-dbb1-4715-a3c9-3431f29493df","ios":"levelo://app?vid=0501f5a1-dbb1-4715-a3c9-3431f29493df"},"vehicle_type_id":"4","last_reported":1713090840,"current_range_meters":18800,"station_id":"ce4bh492rcd13ifvqdvg","pricing_plan_id":"cebpf4jnsgd1na2vs0mg"},{"bike_id":"388e0909-1e34-401e-8968-e418bacba672","system_id":"levelo_inurba_marseille","lat":43.282744,"lon":5.350533,"is_reserved":false,"is_disabled":false,"rental_uris":{"android":"levelo://app?vid=388e0909-1e34-401e-8968-e418bacba672","ios":"levelo://app?vid=388e0909-1e34-401e-8968-e418bacba672"},"vehicle_type_id":"4","last_reported":1713090840,"current_range_meters":17200,"station_id":"ce4bhbp2rcd13ifvqerg","pricing_plan_id":"cebpf4jnsgd1na2vs0mg"},{"bike_id":"f33a1f77-2b84-43d3-a089-09fce1060630","system_id":"levelo_inurba_marseille","lat":43.282744,"lon":5.350533,"is_reserved":false,"is_disabled":false,"rental_uris":{"android":"levelo://app?vid=f33a1f77-2b84-43d3-a089-09fce1060630","ios":"levelo://app?vid=f33a1f77-2b84-43d3-a089-09fce1060630"},"vehicle_type_id":"4","last_reported":1713090840,"current_range_meters":11600,"station_id":"ce4bhbp2rcd13ifvqerg","pricing_plan_id":"cebpf4jnsgd1na2vs0mg"},{"bike_id":"cd0f0c0b-ceef-4b5e-a70c-229065ff7c92","system_id":"levelo_inurba_marseille","lat":43.282744,"lon":5.350533,"is_reserved":false,"is_disabled":false,"rental_uris":{"android":"levelo://app?vid=cd0f0c0b-ceef-4b5e-a70c-229065ff7c92","ios":"levelo://app?vid=cd0f0c0b-ceef-4b5e-a70c-229065ff7c92"},"vehicle_type_id":"4","last_reported":1713090840,"current_range_meters":12400,"station_id":"ce4bhbp2rcd13ifvqerg","pricing_plan_id":"cebpf4jnsgd1na2vs0mg"},{"bike_id":"a65af6d0-915f-4442-8f69-815dcad3ee2b","system_id":"levelo_inurba_marseille","lat":43.282744,"lon":5.350533,"is_reserved":false,"is_disabled":false,"rental_uris":{"android":"levelo://app?vid=a65af6d0-915f-4442-8f69-815dcad3ee2b","ios":"levelo://app?vid=a65af6d0-915f-4442-8f69-815dcad3ee2b"},"vehicle_type_id":"4","last_reported":1713090840,"current_range_meters":18800,"station_id":"ce4bhbp2rcd13ifvqerg","pricing_plan_id":"cebpf4jnsgd1na2vs0mg"},{"bike_id":"90b53be7-b954-4550-b187-f1322fc4f6d3","system_id":"levelo_inurba_marseille","lat":43.231923,"lon":5.355545,"is_reserved":false,"is_disabled":false,"rental_uris":{"android":"levelo://app?vid=90b53be7-b954-4550-b187-f1322fc4f6d3","ios":"levelo://app?vid=90b53be7-b954-4550-b187-f1322fc4f6d3"},"vehicle_type_id":"4","last_reported":1713090840,"current_range_meters":22400,"station_id":"ce4bhu92rcd13ifvqi70","pricing_plan_id":"cebpf4jnsgd1na2vs0mg"},{"bike_id":"d99817cc-3f5c-4056-9284-8c244a9e39e6","system_id":"levelo_inurba_marseille","lat":43.280382,"lon":5.369291,"is_reserved":false,"is_disabled":false,"rental_uris":{"android":"levelo://app?vid=d99817cc-3f5c-4056-9284-8c244a9e39e6","ios":"levelo://app?vid=d99817cc-3f5c-4056-9284-8c244a9e39e6"},"vehicle_type_id":"4","last_reported":1713090840,"current_range_meters":11600,"station_id":"ce4bha12rcd13ifvqef0","pricing_plan_id":"cebpf4jnsgd1na2vs0mg"},{"bike_id":"29f6f46c-b0d6-48db-bb9f-6792d9220a6f","system_id":"levelo_inurba_marseille","lat":43.28039,"lon":5.369297,"is_reserved":false,"is_disabled":false,"rental_uris":{"android":"levelo://app?vid=29f6f46c-b0d6-48db-bb9f-6792d9220a6f","ios":"levelo://app?vid=29f6f46c-b0d6-48db-bb9f-6792d9220a6f"},"vehicle_type_id":"4","last_reported":1713090840,"current_range_meters":16400,"station_id":"ce4bha12rcd13ifvqef0","pricing_plan_id":"cebpf4jnsgd1na2vs0mg"},{"bike_id":"f8513ab1-048f-4c2b-b9a7-ae0e3b7a88ca","system_id":"levelo_inurba_marseille","lat":43.280382,"lon":5.369291,"is_reserved":false,"is_disabled":false,"rental_uris":{"android":"levelo://app?vid=f8513ab1-048f-4c2b-b9a7-ae0e3b7a88ca","ios":"levelo://app?vid=f8513ab1-048f-4c2b-b9a7-ae0e3b7a88ca"},"vehicle_type_id":"4","last_reported":1713090840,"current_range_meters":22800,"station_id":"ce4bha12rcd13ifvqef0","pricing_plan_id":"cebpf4jnsgd1na2vs0mg"},{"bike_id":"ebcb529f-bde3-4931-a408-e0b30ef08ddf","system_id":"levelo_inurba_marseille","lat":43.285856,"lon":5.350771,"is_reserved":false,"is_disabled":false,"rental_uris":{"android":"levelo://app?vid=ebcb529f-bde3-4931-a408-e0b30ef08ddf","ios":"levelo://app?vid=ebcb529f-bde3-4931-a408-e0b30ef08ddf"},"vehicle_type_id":"4","last_reported":1713090840,"current_range_meters":15200,"station_id":"ce4bhch2rcd13ifvqeug","pricing_plan_id":"cebpf4jnsgd1na2vs0mg"},