{"last_updated":1779086618,"ttl":60,"version":"2.2","data":{"bikes":[{"bike_id":"e007366d-ee94-411b-8cbe-4adb420da398","system_id":"levelo_inurba_marseille","lat":43.29598,"lon":5.38098,"is_reserved":false,"is_disabled":false,"rental_uris":{"android":"levelo://app?vid=e007366d-ee94-411b-8cbe-4adb420da398","ios":"levelo://app?vid=e007366d-ee94-411b-8cbe-4adb420da398"},"vehicle_type_id":"4","last_reported":1779086619,"current_range_meters":2800,"station_id":"ce4bgl12rcd13ifvqbo0","pricing_plan_id":"cebpf4jnsgd1na2vs0mg"},{"bike_id":"59611492-f0ea-48e3-9d74-ee7f9204d721","system_id":"levelo_inurba_marseille","lat":43.30153,"lon":5.38097,"is_reserved":false,"is_disabled":false,"rental_uris":{"android":"levelo://app?vid=59611492-f0ea-48e3-9d74-ee7f9204d721","ios":"levelo://app?vid=59611492-f0ea-48e3-9d74-ee7f9204d721"},"vehicle_type_id":"4","last_reported":1779086619,"current_range_meters":2800,"station_id":"ce4bgjp2rcd13ifvqbh0","pricing_plan_id":"cebpf4jnsgd1na2vs0mg"},{"bike_id":"720e7835-e0d4-483f-8d4f-aa8fa3899f04","system_id":"levelo_inurba_marseille","lat":43.24451,"lon":5.40233,"is_reserved":false,"is_disabled":false,"rental_uris":{"android":"levelo://app?vid=720e7835-e0d4-483f-8d4f-aa8fa3899f04","ios":"levelo://app?vid=720e7835-e0d4-483f-8d4f-aa8fa3899f04"},"vehicle_type_id":"4","last_reported":1779086619,"current_range_meters":2800,"station_id":"","pricing_plan_id":"cebpf4jnsgd1na2vs0mg"},{"bike_id":"b5afc4e4-4b8e-41bf-9118-9e0cdc3bcdca","system_id":"levelo_inurba_marseille","lat":43.290672,"lon":5.37572,"is_reserved":false,"is_disabled":false,"rental_uris":{"android":"levelo://app?vid=b5afc4e4-4b8e-41bf-9118-9e0cdc3bcdca","ios":"levelo://app?vid=b5afc4e4-4b8e-41bf-9118-9e0cdc3bcdca"},"vehicle_type_id":"4","last_reported":1779086619,"current_range_meters":2800,"station_id":"ce4bh692rcd13ifvqe90","pricing_plan_id":"cebpf4jnsgd1na2vs0mg"},{"bike_id":"107618ed-c573-4025-b588-1c428ee5ee76","system_id":"levelo_inurba_marseille","lat":43.30139,"lon":5.37422,"is_reserved":false,"is_disabled":false,"rental_uris":{"android":"levelo://app?vid=107618ed-c573-4025-b588-1c428ee5ee76","ios":"levelo://app?vid=107618ed-c573-4025-b588-1c428ee5ee76"},"vehicle_type_id":"4","last_reported":1779086619,"current_range_meters":2800,"station_id":"ce4bgs92rcd13ifvqcc0","pricing_plan_id":"cebpf4jnsgd1na2vs0mg"},{"bike_id":"af47dfb5-c64b-418d-b003-5de20ae585bd","system_id":"levelo_inurba_marseille","lat":43.29271,"lon":5.40077,"is_reserved":false,"is_disabled":false,"rental_uris":{"android":"levelo://app?vid=af47dfb5-c64b-418d-b003-5de20ae585bd","ios":"levelo://app?vid=af47dfb5-c64b-418d-b003-5de20ae585bd"},"vehicle_type_id":"4","last_reported":1779086619,"current_range_meters":2800,"station_id":"ce4bh312rcd13ifvqdk0","pricing_plan_id":"cebpf4jnsgd1na2vs0mg"},{"bike_id":"8fb07141-62df-4d37-b0f1-858f57e09492","system_id":"levelo_inurba_marseille","lat":43.26061,"lon":5.39397,"is_reserved":false,"is_disabled":false,"rental_uris":{"android":"levelo://app?vid=8fb07141-62df-4d37-b0f1-858f57e09492","ios":"levelo://app?vid=8fb07141-62df-4d37-b0f1-858f57e09492"},"vehicle_type_id":"4","last_reported":1779086619,"current_range_meters":2800,"station_id":"ce4bhh92rcd13ifvqfj0","pricing_plan_id":"cebpf4jnsgd1na2vs0mg"},{"bike_id":"db84d3fb-d461-4f77-9421-ad71db9c45ae","system_id":"levelo_inurba_marseille","lat":43.28385,"lon":5.4597,"is_reserved":false,"is_disabled":false,"rental_uris":{"android":"levelo://app?vid=db84d3fb-d461-4f77-9421-ad71db9c45ae","ios":"levelo://app?vid=db84d3fb-d461-4f77-9421-ad71db9c45ae"},"vehicle_type_id":"4","last_reported":1779086619,"current_range_meters":2800,"station_id":"","pricing_plan_id":"cebpf4jnsgd1na2vs0mg"},{"bike_id":"14e2ba7c-5380-4511-9d0d-27ca0d4a7fc3","system_id":"levelo_inurba_marseille","lat":43.32538,"lon":5.41418,"is_reserved":false,"is_disabled":false,"rental_uris":{"android":"levelo://app?vid=14e2ba7c-5380-4511-9d0d-27ca0d4a7fc3","ios":"levelo://app?vid=14e2ba7c-5380-4511-9d0d-27ca0d4a7fc3"},"vehicle_type_id":"4","last_reported":1779086619,"current_range_meters":3200,"station_id":"ce4bhq12rcd13ifvqhhg","pricing_plan_id":"cebpf4jnsgd1na2vs0mg"},{"bike_id":"caf002ad-eeb8-4a56-ad5c-5c9d23cac3c3","system_id":"levelo_inurba_marseille","lat":43.23965,"lon":5.36625,"is_reserved":false,"is_disabled":false,"rental_uris":{"android":"levelo://app?vid=caf002ad-eeb8-4a56-ad5c-5c9d23cac3c3","ios":"levelo://app?vid=caf002ad-eeb8-4a56-ad5c-5c9d23cac3c3"},"vehicle_type_id":"4","last_reported":1779086619,"current_range_meters":3200,"station_id":"ce4bhi12rcd13ifvqfp0","pricing_plan_id":"cebpf4jnsgd1na2vs0mg"},{"bike_id":"500d4514-39d6-46a9-b3a4-7170cff08b92","system_id":"levelo_inurba_marseille","lat":43.24806,"lon":5.37456,"is_reserved":false,"is_disabled":false,"rental_uris":{"android":"levelo://app?vid=500d4514-39d6-46a9-b3a4-7170cff08b92","ios":"levelo://app?vid=500d4514-39d6-46a9-b3a4-7170cff08b92"},"vehicle_type_id":"4","last_reported":1779086619,"current_range_meters":3200,"station_id":"ce4bhgh2rcd13ifvqfb0","pricing_plan_id":"cebpf4jnsgd1na2vs0mg"},{"bike_id":"b591c7e4-e1a1-4cad-9e64-e36047c1cca9","system_id":"levelo_inurba_marseille","lat":43.27974,"lon":5.38701,"is_reserved":false,"is_disabled":true,"rental_uris":{"android":"levelo://app?vid=b591c7e4-e1a1-4cad-9e64-e36047c1cca9","ios":"levelo://app?vid=b591c7e4-e1a1-4cad-9e64-e36047c1cca9"},"vehicle_type_id":"4","last_reported":1779086619,"current_range_meters":3200,"station_id":"ce4bhg12rcd13ifvqf80","pricing_plan_id":"cebpf4jnsgd1na2vs0mg"},{"bike_id":"0bc8309a-95e1-47ab-b821-50c4ccf145d8","system_id":"levelo_inurba_marseille","lat":43.31708,"lon":5.43704,"is_reserved":false,"is_disabled":false,"rental_uris":{"android":"levelo://app?vid=0bc8309a-95e1-47ab-b821-50c4ccf145d8","ios":"levelo://app?vid=0bc8309a-95e1-47ab-b821-50c4ccf145d8"},"vehicle_type_id":"4","last_reported":1779086619,"current_range_meters":3200,"station_id":"ce4bhp92rcd13ifvqhcg","pricing_plan_id":"cebpf4jnsgd1na2vs0mg"},{"bike_id":"e3584715-cb69-43f5-bb5f-26e64d19674a","system_id":"levelo_inurba_marseille","lat":43.24666,"lon":5.38165,"is_reserved":false,"is_disabled":false,"rental_uris":{"android":"levelo://app?vid=e3584715-cb69-43f5-bb5f-26e64d19674a","ios":"levelo://app?vid=e3584715-cb69-43f5-bb5f-26e64d19674a"},"vehicle_type_id":"4","last_reported":1779086619,"current_range_meters":3200,"station_id":"ce4bhih2rcd13ifvqfr0","pricing_plan_id":"cebpf4jnsgd1na2vs0mg"},{"bike_id":"4b2c22d4-a591-4d2d-8261-a6ca5bb8c11b","system_id":"levelo_inurba_marseille","lat":43.23963,"lon":5.36627,"is_reserved":false,"is_disabled":false,"rental_uris":{"android":"levelo://app?vid=4b2c22d4-a591-4d2d-8261-a6ca5bb8c11b","ios":"levelo://app?vid=4b2c22d4-a591-4d2d-8261-a6ca5bb8c11b"},"vehicle_type_id":"4","last_reported":1779086619,"current_range_meters":3200,"station_id":"ce4bhi12rcd13ifvqfp0","pricing_plan_id":"cebpf4jnsgd1na2vs0mg"},{"bike_id":"64f3d40f-dc9a-4dbe-9913-2e0a2522a32e","system_id":"levelo_inurba_marseille","lat":43.28483,"lon":5.38402,"is_reserved":false,"is_disabled":false,"rental_uris":{"android":"levelo://app?vid=64f3d40f-dc9a-4dbe-9913-2e0a2522a32e","ios":"levelo://app?vid=64f3d40f-dc9a-4dbe-9913-2e0a2522a32e"},"vehicle_type_id":"4","last_reported":1779086619,"current_range_meters":3200,"station_id":"ce4bh512rcd13ifvqe3g","pricing_plan_id":"cebpf4jnsgd1na2vs0mg"},{"bike_id":"f95eb8ce-13b4-4128-9691-a795676f9a05","system_id":"levelo_inurba_marseille","lat":43.29749,"lon":5.42782,"is_reserved":false,"is_disabled":false,"rental_uris":{"android":"levelo://app?vid=f95eb8ce-13b4-4128-9691-a795676f9a05","ios":"levelo://app?vid=f95eb8ce-13b4-4128-9691-a795676f9a05"},"vehicle_type_id":"4","last_reported":1779086619,"current_range_meters":3200,"station_id":"st_d3md5207bmas73dh9klg","pricing_plan_id":"cebpf4jnsgd1na2vs0mg"},{"bike_id":"29cde2b5-5e86-4927-9e93-f38e8d6df9da","system_id":"levelo_inurba_marseille","lat":43.27054,"lon":5.40263,"is_reserved":false,"is_disabled":false,"rental_uris":{"android":"levelo://app?vid=29cde2b5-5e86-4927-9e93-f38e8d6df9da","ios":"levelo://app?vid=29cde2b5-5e86-4927-9e93-f38e8d6df9da"},"vehicle_type_id":"4","last_reported":1779086619,"current_range_meters":3200,"station_id":"ce4bhk92rcd13ifvqgc0","pricing_plan_id":"cebpf4jnsgd1na2vs0mg"},{"bike_id":"8baacc2a-f8a3-4e01-9797-71a915d0d1dd","system_id":"levelo_inurba_marseille","lat":43.24393,"lon":5.37072,"is_reserved":false,"is_disabled":false,"rental_uris":{"android":"levelo://app?vid=8baacc2a-f8a3-4e01-9797-71a915d0d1dd","ios":"levelo://app?vid=8baacc2a-f8a3-4e01-9797-71a915d0d1dd"},"vehicle_type_id":"4","last_reported":1779086619,"current_range_meters":3200,"station_id":"ce4bhhh2rcd13ifvqfk0","pricing_plan_id":"cebpf4jnsgd1na2vs0mg"},{"bike_id":"e1cb5f88-d507-43a7-8617-b5445f9b9057","system_id":"levelo_inurba_marseille","lat":43.24064,"lon":5.37747,"is_reserved":false,"is_disabled":false,"rental_uris":{"android":"levelo://app?vid=e1cb5f88-d507-43a7-8617-b5445f9b9057","ios":"levelo://app?vid=e1cb5f88-d507-43a7-8617-b5445f9b9057"},"vehicle_type_id":"4","last_reported":1779086619,"current_range_meters":3200,"station_id":"ce4bhnp2rcd13ifvqgvg","pricing_plan_id":"cebpf4jnsgd1na2vs0mg"},{"bike_id":"d114623f-77ac-4a84-b537-40acd1678c98","system_id":"levelo_inurba_marseille","lat":43.26817,"lon":5.40812,"is_reserved":false,"is_disabled":false,"rental_uris":{"android":"levelo://app?vid=d114623f-77ac-4a84-b537-40acd1678c98","ios":"levelo://app?vid=d114623f-77ac-4a84-b537-40acd1678c98"},"vehicle_type_id":"4","last_reported":1779086619,"current_range_meters":3200,"station_id":"","pricing_plan_id":"cebpf4jnsgd1na2vs0mg"},{"bike_id":"ab685129-51d2-470a-898d-6e8a21c7bebe","system_id":"levelo_inurba_marseille","lat":43.28688,"lon":5.46671,"is_reserved":false,"is_disabled":false,"rental_uris":{"android":"levelo://app?vid=ab685129-51d2-470a-898d-6e8a21c7bebe","ios":"levelo://app?vid=ab685129-51d2-470a-898d-6e8a21c7bebe"},"vehicle_type_id":"4","last_reported":1779086619,"current_range_meters":3200,"station_id":"st_d6tc3vkotcvc738tfjhg","pricing_plan_id":"cebpf4jnsgd1na2vs0mg"},{"bike_id":"656a127d-8bc0-41ee-967f-acaa8844d3c0","system_id":"levelo_inurba_marseille","lat":43.301,"lon":5.39061,"is_reserved":false,"is_disabled":false,"rental_uris":{"android":"levelo://app?vid=656a127d-8bc0-41ee-967f-acaa8844d3c0","ios":"levelo://app?vid=656a127d-8bc0-41ee-967f-acaa8844d3c0"},"vehicle_type_id":"4","last_reported":1779086619,"current_range_meters":3200,"station_id":"ce4bh192rcd13ifvqdb0","pricing_plan_id":"cebpf4jnsgd1na2vs0mg"},{"bike_id":"58485477-5b94-4e2f-a366-6a544f00d637","system_id":"levelo_inurba_marseille","lat":43.2637,"lon":5.41086,"is_reserved":false,"is_disabled":false,"rental_uris":{"android":"levelo://app?vid=58485477-5b94-4e2f-a366-6a544f00d637","ios":"levelo://app?vid=58485477-5b94-4e2f-a366-6a544f00d637"},"vehicle_type_id":"4","last_reported":1779086619,"current_range_meters":3200,"station_id":"st_d4e5ca6na9uc73bfl5fg","pricing_plan_id":"cebpf4jnsgd1na2vs0mg"},{"bike_id":"1bb83688-e456-4051-bfbf-8493a1c06dbf","system_id":"levelo_inurba_marseille","lat":43.22572,"lon":5.41621,"is_reserved":false,"is_disabled":false,"rental_uris":{"android":"levelo://app?vid=1bb83688-e456-4051-bfbf-8493a1c06dbf","ios":"levelo://app?vid=1bb83688-e456-4051-bfbf-8493a1c06dbf"},"vehicle_type_id":"4","last_reported":1779086619,"current_range_meters":3600,"station_id":"st_d2o4gvlbi1j2169b742g","pricing_plan_id":"cebpf4jnsgd1na2vs0mg"},{"bike_id":"89424039-8de3-4863-a0cd-5928fc1d9eda","system_id":"levelo_inurba_marseille","lat":43.30781,"lon":5.37063,"is_reserved":false,"is_disabled":false,"rental_uris":{"android":"levelo://app?vid=89424039-8de3-4863-a0cd-5928fc1d9eda","ios":"levelo://app?vid=89424039-8de3-4863-a0cd-5928fc1d9eda"},"vehicle_type_id":"4","last_reported":1779086619,"current_range_meters":3600,"station_id":"","pricing_plan_id":"cebpf4jnsgd1na2vs0mg"},{"bike_id":"330a636a-41f6-4ce4-8589-430c5d2cb25b","system_id":"levelo_inurba_marseille","lat":43.28866,"lon":5.42513,"is_reserved":false,"is_disabled":false,"rental_uris":{"android":"levelo://app?vid=330a636a-41f6-4ce4-8589-430c5d2cb25b","ios":"levelo://app?vid=330a636a-41f6-4ce4-8589-430c5d2cb25b"},"vehicle_type_id":"4","last_reported":1779086619,"current_range_meters":3600,"station_id":"st_d3b462108ojc7389ooeg","pricing_plan_id":"cebpf4jnsgd1na2vs0mg"},{"bike_id":"c8722e29-d9c5-42ad-ba5c-829da629eec6","system_id":"levelo_inurba_marseille","lat":43.30176,"lon":5.36606,"is_reserved":false,"is_disabled":false,"rental_uris":{"android":"levelo://app?vid=c8722e29-d9c5-42ad-ba5c-829da629eec6","ios":"levelo://app?vid=c8722e29-d9c5-42ad-ba5c-829da629eec6"},"vehicle_type_id":"4","last_reported":1779086619,"current_range_meters":3600,"station_id":"ce4bgrh2rcd13ifvqc8g","pricing_plan_id":"cebpf4jnsgd1na2vs0mg"},{"bike_id":"6c9c1d53-5da9-467a-9252-c3b05ac07162","system_id":"levelo_inurba_marseille","lat":43.29872,"lon":5.37868,"is_reserved":false,"is_disabled":false,"rental_uris":{"android":"levelo://app?vid=6c9c1d53-5da9-467a-9252-c3b05ac07162","ios":"levelo://app?vid=6c9c1d53-5da9-467a-9252-c3b05ac07162"},"vehicle_type_id":"4","last_reported":1779086619,"current_range_meters":3600,"station_id":"","pricing_plan_id":"cebpf4jnsgd1na2vs0mg"},{"bike_id":"a028d3fc-9924-4f4f-acb6-07b1b4bf908b","system_id":"levelo_inurba_marseille","lat":43.26557,"lon":5.42174,"is_reserved":false,"is_disabled":false,"rental_uris":{"android":"levelo://app?vid=a028d3fc-9924-4f4f-acb6-07b1b4bf908b","ios":"levelo://app?vid=a028d3fc-9924-4f4f-acb6-07b1b4bf908b"},"vehicle_type_id":"4","last_reported":1779086619,"current_range_meters":3600,"station_id":"","pricing_plan_id":"cebpf4jnsgd1na2vs0mg"},{"bike_id":"58f139ed-a9db-46fe-b024-cc6d01799291","system_id":"levelo_inurba_marseille","lat":43.293055,"lon":5.374581,"is_reserved":false,"is_disabled":true,"rental_uris":{"android":"levelo://app?vid=58f139ed-a9db-46fe-b024-cc6d01799291","ios":"levelo://app?vid=58f139ed-a9db-46fe-b024-cc6d01799291"},"vehicle_type_id":"4","last_reported":1779086619,"current_range_meters":3600,"station_id":"ce4bgi12rcd13ifvqb70","pricing_plan_id":"cebpf4jnsgd1na2vs0mg"},{"bike_id":"ddda8e1c-61d4-4732-b02e-5188cbbcd733","system_id":"levelo_inurba_marseille","lat":43.24945,"lon":5.38907,"is_reserved":false,"is_disabled":false,"rental_uris":{"android":"levelo://app?vid=ddda8e1c-61d4-4732-b02e-5188cbbcd733","ios":"levelo://app?vid=ddda8e1c-61d4-4732-b02e-5188cbbcd733"},"vehicle_type_id":"4","last_reported":1779086619,"current_range_meters":3600,"station_id":"","pricing_plan_id":"cebpf4jnsgd1na2vs0mg"},{"bike_id":"b3d6d132-c2f5-47c5-92b0-a3bc5dacb7ec","system_id":"levelo_inurba_marseille","lat":43.28459,"lon":5.38551,"is_reserved":false,"is_disabled":false,"rental_uris":{"android":"levelo://app?vid=b3d6d132-c2f5-47c5-92b0-a3bc5dacb7ec","ios":"levelo://app?vid=b3d6d132-c2f5-47c5-92b0-a3bc5dacb7ec"},"vehicle_type_id":"4","last_reported":1779086619,"current_range_meters":3600,"station_id":"ce4bh8p2rcd13ifvqeb0","pricing_plan_id":"cebpf4jnsgd1na2vs0mg"},{"bike_id":"c21c86eb-3fe7-4132-8fb6-a98007579fe6","system_id":"levelo_inurba_marseille","lat":43.313522,"lon":5.367011,"is_reserved":false,"is_disabled":false,"rental_uris":{"android":"levelo://app?vid=c21c86eb-3fe7-4132-8fb6-a98007579fe6","ios":"levelo://app?vid=c21c86eb-3fe7-4132-8fb6-a98007579fe6"},"vehicle_type_id":"4","last_reported":1779086619,"current_range_meters":3600,"station_id":"ce4bgr92rcd13ifvqc6g","pricing_plan_id":"cebpf4jnsgd1na2vs0mg"},{"bike_id":"c9e9fdd5-9999-4049-89c9-d33f10650123","system_id":"levelo_inurba_marseille","lat":43.27379,"lon":5.39367,"is_reserved":false,"is_disabled":true,"rental_uris":{"android":"levelo://app?vid=c9e9fdd5-9999-4049-89c9-d33f10650123","ios":"levelo://app?vid=c9e9fdd5-9999-4049-89c9-d33f10650123"},"vehicle_type_id":"4","last_reported":1779086619,"current_range_meters":3600,"station_id":"ce4bhdp2rcd13ifvqf20","pricing_plan_id":"cebpf4jnsgd1na2vs0mg"},{"bike_id":"9e043ffd-d0a5-41d9-80f5-587342b0c6b7","system_id":"levelo_inurba_marseille","lat":43.24074,"lon":5.37745,"is_reserved":false,"is_disabled":false,"rental_uris":{"android":"levelo://app?vid=9e043ffd-d0a5-41d9-80f5-587342b0c6b7","ios":"levelo://app?vid=9e043ffd-d0a5-41d9-80f5-587342b0c6b7"},"vehicle_type_id":"4","last_reported":1779086619,"current_range_meters":3600,"station_id":"ce4bhnp2rcd13ifvqgvg","pricing_plan_id":"cebpf4jnsgd1na2vs0mg"},{"bike_id":"4f505cbc-1f62-402e-838c-0f0a99cb3ab6","system_id":"levelo_inurba_marseille","lat":43.29062,"lon":5.37558,"is_reserved":false,"is_disabled":false,"rental_uris":{"android":"levelo://app?vid=4f505cbc-1f62-402e-838c-0f0a99cb3ab6","ios":"levelo://app?vid=4f505cbc-1f62-402e-838c-0f0a99cb3ab6"},"vehicle_type_id":"4","last_reported":1779086619,"current_range_meters":3600,"station_id":"ce4bh692rcd13ifvqe90","pricing_plan_id":"cebpf4jnsgd1na2vs0mg"},{"bike_id":"9fc83fbc-2080-4b6f-9488-2cc51100947d","system_id":"levelo_inurba_marseille","lat":43.29032,"lon":5.39969,"is_reserved":false,"is_disabled":false,"rental_uris":{"android":"levelo://app?vid=9fc83fbc-2080-4b6f-9488-2cc51100947d","ios":"levelo://app?vid=9fc83fbc-2080-4b6f-9488-2cc51100947d"},"vehicle_type_id":"4","last_reported":1779086619,"current_range_meters":3600,"station_id":"ce4bh392rcd13ifvqdm0","pricing_plan_id":"cebpf4jnsgd1na2vs0mg"},{"bike_id":"c89cc93f-e8ae-4ec3-b764-fb2e4c5487e0","system_id":"levelo_inurba_marseille","lat":43.27375,"lon":5.36245,"is_reserved":false,"is_disabled":false,"rental_uris":{"android":"levelo://app?vid=c89cc93f-e8ae-4ec3-b764-fb2e4c5487e0","ios":"levelo://app?vid=c89cc93f-e8ae-4ec3-b764-fb2e4c5487e0"},"vehicle_type_id":"4","last_reported":1779086619,"current_range_meters":3600,"station_id":"ce4bhbh2rcd13ifvqeo0","pricing_plan_id":"cebpf4jnsgd1na2vs0mg"},{"bike_id":"e31133fa-834a-42ba-bf55-ad118de5acb7","system_id":"levelo_inurba_marseille","lat":43.292801,"lon":5.401149,"is_reserved":false,"is_disabled":true,"rental_uris":{"android":"levelo://app?vid=e31133fa-834a-42ba-bf55-ad118de5acb7","ios":"levelo://app?vid=e31133fa-834a-42ba-bf55-ad118de5acb7"},"vehicle_type_id":"4","last_reported":1779086619,"current_range_meters":4000,"station_id":"ce4bh312rcd13ifvqdk0","pricing_plan_id":"cebpf4jnsgd1na2vs0mg"},{"bike_id":"6e69c60a-c3ba-484c-aea6-94bd593ebc9c","system_id":"levelo_inurba_marseille","lat":43.27617,"lon":5.361,"is_reserved":false,"is_disabled":false,"rental_uris":{"android":"levelo://app?vid=6e69c60a-c3ba-484c-aea6-94bd593ebc9c","ios":"levelo://app?vid=6e69c60a-c3ba-484c-aea6-94bd593ebc9c"},"vehicle_type_id":"4","last_reported":1779086619,"current_range_meters":4000,"station_id":"ce4bhbh2rcd13ifvqeqg","pricing_plan_id":"cebpf4jnsgd1na2vs0mg"},{"bike_id":"b0b32c28-46aa-4d47-99a7-750f19df7701","system_id":"levelo_inurba_marseille","lat":43.25211,"lon":5.3742,"is_reserved":false,"is_disabled":false,"rental_uris":{"android":"levelo://app?vid=b0b32c28-46aa-4d47-99a7-750f19df7701","ios":"levelo://app?vid=b0b32c28-46aa-4d47-99a7-750f19df7701"},"vehicle_type_id":"4","last_reported":1779086619,"current_range_meters":4000,"station_id":"","pricing_plan_id":"cebpf4jnsgd1na2vs0mg"},{"bike_id":"564eb424-2181-4cbf-aae4-e204f41a03fe","system_id":"levelo_inurba_marseille","lat":43.284821,"lon":5.38416,"is_reserved":false,"is_disabled":false,"rental_uris":{"android":"levelo://app?vid=564eb424-2181-4cbf-aae4-e204f41a03fe","ios":"levelo://app?vid=564eb424-2181-4cbf-aae4-e204f41a03fe"},"vehicle_type_id":"4","last_reported":1779086619,"current_range_meters":4000,"station_id":"","pricing_plan_id":"cebpf4jnsgd1na2vs0mg"},{"bike_id":"383c3d15-466e-4d8a-8871-a01eca50184f","system_id":"levelo_inurba_marseille","lat":43.27832,"lon":5.39199,"is_reserved":false,"is_disabled":true,"rental_uris":{"android":"levelo://app?vid=383c3d15-466e-4d8a-8871-a01eca50184f","ios":"levelo://app?vid=383c3d15-466e-4d8a-8871-a01eca50184f"},"vehicle_type_id":"4","last_reported":1779086619,"current_range_meters":4000,"station_id":"ce4bhjp2rcd13ifvqga0","pricing_plan_id":"cebpf4jnsgd1na2vs0mg"},{"bike_id":"f262cf4f-72e2-4b37-b8fc-e600808c4245","system_id":"levelo_inurba_marseille","lat":43.32478,"lon":5.36574,"is_reserved":false,"is_disabled":false,"rental_uris":{"android":"levelo://app?vid=f262cf4f-72e2-4b37-b8fc-e600808c4245","ios":"levelo://app?vid=f262cf4f-72e2-4b37-b8fc-e600808c4245"},"vehicle_type_id":"4","last_reported":1779086619,"current_range_meters":4000,"station_id":"ce4bhs12rcd13ifvqhvg","pricing_plan_id":"cebpf4jnsgd1na2vs0mg"},{"bike_id":"8679d5c2-59e6-4d42-bafc-1828e297af0f","system_id":"levelo_inurba_marseille","lat":43.21174,"lon":5.35045,"is_reserved":false,"is_disabled":false,"rental_uris":{"android":"levelo://app?vid=8679d5c2-59e6-4d42-bafc-1828e297af0f","ios":"levelo://app?vid=8679d5c2-59e6-4d42-bafc-1828e297af0f"},"vehicle_type_id":"4","last_reported":1779086619,"current_range_meters":4000,"station_id":"st_cvj6sg6p6f1abm77japg","pricing_plan_id":"cebpf4jnsgd1na2vs0mg"},{"bike_id":"42a4f391-6b31-4a5b-9d48-5ef53f4de384","system_id":"levelo_inurba_marseille","lat":43.30382,"lon":5.42473,"is_reserved":false,"is_disabled":false,"rental_uris":{"android":"levelo://app?vid=42a4f391-6b31-4a5b-9d48-5ef53f4de384","ios":"levelo://app?vid=42a4f391-6b31-4a5b-9d48-5ef53f4de384"},"vehicle_type_id":"4","last_reported":1779086619,"current_range_meters":4000,"station_id":"ce4bhoh2rcd13ifvqh6g","pricing_plan_id":"cebpf4jnsgd1na2vs0mg"},{"bike_id":"08fea3f0-cdb3-4db3-9cb8-34088a767d42","system_id":"levelo_inurba_marseille","lat":43.28944,"lon":5.36633,"is_reserved":false,"is_disabled":false,"rental_uris":{"android":"levelo://app?vid=08fea3f0-cdb3-4db3-9cb8-34088a767d42","ios":"levelo://app?vid=08fea3f0-cdb3-4db3-9cb8-34088a767d42"},"vehicle_type_id":"4","last_reported":1779086619,"current_range_meters":4000,"station_id":"ce4bhap2rcd13ifvqek0","pricing_plan_id":"cebpf4jnsgd1na2vs0mg"},{"bike_id":"c3085788-2ea8-48ad-a24d-c35e17141e76","system_id":"levelo_inurba_marseille","lat":43.290732,"lon":5.371558,"is_reserved":false,"is_disabled":false,"rental_uris":{"android":"levelo://app?vid=c3085788-2ea8-48ad-a24d-c35e17141e76","ios":"levelo://app?vid=c3085788-2ea8-48ad-a24d-c35e17141e76"},"vehicle_type_id":"4","last_reported":1779086619,"current_range_meters":4000,"station_id":"ce4bh5p2rcd13ifvqe4g","pricing_plan_id":"cebpf4jnsgd1na2vs0mg"},{"bike_id":"5b55812d-5d14-4481-a122-b5efaee7e31a","system_id":"levelo_inurba_marseille","lat":43.24377,"lon":5.37038,"is_reserved":false,"is_disabled":false,"rental_uris":{"android":"levelo://app?vid=5b55812d-5d14-4481-a122-b5efaee7e31a","ios":"levelo://app?vid=5b55812d-5d14-4481-a122-b5efaee7e31a"},"vehicle_type_id":"4","last_reported":1779086619,"current_range_meters":4400,"station_id":"ce4bhhh2rcd13ifvqfk0","pricing_plan_id":"cebpf4jnsgd1na2vs0mg"},{"bike_id":"e1e68090-4a20-492e-97b8-e1e63906ec2e","system_id":"levelo_inurba_marseille","lat":43.22559,"lon":5.41641,"is_reserved":false,"is_disabled":false,"rental_uris":{"android":"levelo://app?vid=e1e68090-4a20-492e-97b8-e1e63906ec2e","ios":"levelo://app?vid=e1e68090-4a20-492e-97b8-e1e63906ec2e"},"vehicle_type_id":"4","last_reported":1779086619,"current_range_meters":4400,"station_id":"st_d2o4gvlbi1j2169b742g","pricing_plan_id":"cebpf4jnsgd1na2vs0mg"},{"bike_id":"95429a0d-7a20-424d-8b0a-71c7e3c0fa8e","system_id":"levelo_inurba_marseille","lat":43.29496,"lon":5.43318,"is_reserved":false,"is_disabled":false,"rental_uris":{"android":"levelo://app?vid=95429a0d-7a20-424d-8b0a-71c7e3c0fa8e","ios":"levelo://app?vid=95429a0d-7a20-424d-8b0a-71c7e3c0fa8e"},"vehicle_type_id":"4","last_reported":1779086619,"current_range_meters":4400,"station_id":"st_d3j5ugp08ojc73fj9d10","pricing_plan_id":"cebpf4jnsgd1na2vs0mg"},{"bike_id":"50aaf4f8-23e4-4752-9718-860aa83f1c8b","system_id":"levelo_inurba_marseille","lat":43.29042,"lon":5.37164,"is_reserved":false,"is_disabled":true,"rental_uris":{"android":"levelo://app?vid=50aaf4f8-23e4-4752-9718-860aa83f1c8b","ios":"levelo://app?vid=50aaf4f8-23e4-4752-9718-860aa83f1c8b"},"vehicle_type_id":"4","last_reported":1779086619,"current_range_meters":4400,"station_id":"ce4bh5p2rcd13ifvqe4g","pricing_plan_id":"cebpf4jnsgd1na2vs0mg"},{"bike_id":"1f990ee6-2363-49ea-b979-563c1ee85cbf","system_id":"levelo_inurba_marseille","lat":43.272064,"lon":5.39185,"is_reserved":false,"is_disabled":false,"rental_uris":{"android":"levelo://app?vid=1f990ee6-2363-49ea-b979-563c1ee85cbf","ios":"levelo://app?vid=1f990ee6-2363-49ea-b979-563c1ee85cbf"},"vehicle_type_id":"4","last_reported":1779086619,"current_range_meters":4400,"station_id":"ce4bhhp2rcd13ifvqfm0","pricing_plan_id":"cebpf4jnsgd1na2vs0mg"},{"bike_id":"8c240bb7-ac48-48dd-b7c1-1519c2b2db9f","system_id":"levelo_inurba_marseille","lat":43.22924,"lon":5.35376,"is_reserved":false,"is_disabled":false,"rental_uris":{"android":"levelo://app?vid=8c240bb7-ac48-48dd-b7c1-1519c2b2db9f","ios":"levelo://app?vid=8c240bb7-ac48-48dd-b7c1-1519c2b2db9f"},"vehicle_type_id":"4","last_reported":1779086619,"current_range_meters":4400,"station_id":"cpo3532slgdg3j2ikp40","pricing_plan_id":"cebpf4jnsgd1na2vs0mg"},{"bike_id":"f1f7fb90-be60-48a2-8089-e3c448e711d9","system_id":"levelo_inurba_marseille","lat":43.24651,"lon":5.38873,"is_reserved":false,"is_disabled":false,"rental_uris":{"android":"levelo://app?vid=f1f7fb90-be60-48a2-8089-e3c448e711d9","ios":"levelo://app?vid=f1f7fb90-be60-48a2-8089-e3c448e711d9"},"vehicle_type_id":"4","last_reported":1779086619,"current_range_meters":4400,"station_id":"ce4bhg12rcd13ifvqf60","pricing_plan_id":"cebpf4jnsgd1na2vs0mg"},{"bike_id":"809097ae-849c-48ec-87cf-0f0aa3fc6241","system_id":"levelo_inurba_marseille","lat":43.23785,"lon":5.3663,"is_reserved":false,"is_disabled":false,"rental_uris":{"android":"levelo://app?vid=809097ae-849c-48ec-87cf-0f0aa3fc6241","ios":"levelo://app?vid=809097ae-849c-48ec-87cf-0f0aa3fc6241"},"vehicle_type_id":"4","last_reported":1779086619,"current_range_meters":4400,"station_id":"st_d3nk18o9ro0c73en2l3g","pricing_plan_id":"cebpf4jnsgd1na2vs0mg"},{"bike_id":"49be4372-d316-4ccf-acca-b74783c5f1e7","system_id":"levelo_inurba_marseille","lat":43.30084,"lon":5.39082,"is_reserved":false,"is_disabled":false,"rental_uris":{"android":"levelo://app?vid=49be4372-d316-4ccf-acca-b74783c5f1e7","ios":"levelo://app?vid=49be4372-d316-4ccf-acca-b74783c5f1e7"},"vehicle_type_id":"4","last_reported":1779086619,"current_range_meters":4400,"station_id":"ce4bh192rcd13ifvqdb0","pricing_plan_id":"cebpf4jnsgd1na2vs0mg"},{"bike_id":"adf4de63-33e1-42db-b869-b6567b8d337e","system_id":"levelo_inurba_marseille","lat":43.30547,"lon":5.36546,"is_reserved":false,"is_disabled":false,"rental_uris":{"android":"levelo://app?vid=adf4de63-33e1-42db-b869-b6567b8d337e","ios":"levelo://app?vid=adf4de63-33e1-42db-b869-b6567b8d337e"},"vehicle_type_id":"4","last_reported":1779086619,"current_range_meters":4400,"station_id":"ce4bgs12rcd13ifvqcag","pricing_plan_id":"cebpf4jnsgd1na2vs0mg"},{"bike_id":"7fc61087-1778-4591-85ac-2c7856928f89","system_id":"levelo_inurba_marseille","lat":43.24392,"lon":5.37058,"is_reserved":false,"is_disabled":false,"rental_uris":{"android":"levelo://app?vid=7fc61087-1778-4591-85ac-2c7856928f89","ios":"levelo://app?vid=7fc61087-1778-4591-85ac-2c7856928f89"},"vehicle_type_id":"4","last_reported":1779086619,"current_range_meters":4400,"station_id":"ce4bhhh2rcd13ifvqfk0","pricing_plan_id":"cebpf4jnsgd1na2vs0mg"},{"bike_id":"7d2e6511-e59e-49f4-a9ac-86a07e93f314","system_id":"levelo_inurba_marseille","lat":43.25573,"lon":5.38235,"is_reserved":false,"is_disabled":false,"rental_uris":{"android":"levelo://app?vid=7d2e6511-e59e-49f4-a9ac-86a07e93f314","ios":"levelo://app?vid=7d2e6511-e59e-49f4-a9ac-86a07e93f314"},"vehicle_type_id":"4","last_reported":1779086619,"current_range_meters":4400,"station_id":"ce4bhih2rcd13ifvqfs0","pricing_plan_id":"cebpf4jnsgd1na2vs0mg"},{"bike_id":"5436cc83-21cf-41fb-8026-49697680bd3e","system_id":"levelo_inurba_marseille","lat":43.29077,"lon":5.37157,"is_reserved":false,"is_disabled":false,"rental_uris":{"android":"levelo://app?vid=5436cc83-21cf-41fb-8026-49697680bd3e","ios":"levelo://app?vid=5436cc83-21cf-41fb-8026-49697680bd3e"},"vehicle_type_id":"4","last_reported":1779086619,"current_range_meters":4400,"station_id":"ce4bh5p2rcd13ifvqe4g","pricing_plan_id":"cebpf4jnsgd1na2vs0mg"},{"bike_id":"a142cd85-20b9-45e5-bde1-80872eecd1e2","system_id":"levelo_inurba_marseille","lat":43.23903,"lon":5.37462,"is_reserved":false,"is_disabled":true,"rental_uris":{"android":"levelo://app?vid=a142cd85-20b9-45e5-bde1-80872eecd1e2","ios":"levelo://app?vid=a142cd85-20b9-45e5-bde1-80872eecd1e2"},"vehicle_type_id":"4","last_reported":1779086619,"current_range_meters":4400,"station_id":"st_d6sm7csbq4hs73f8fpjg","pricing_plan_id":"cebpf4jnsgd1na2vs0mg"},{"bike_id":"a92d6056-01b8-48af-a577-c75e46419cea","system_id":"levelo_inurba_marseille","lat":43.231837,"lon":5.39993,"is_reserved":false,"is_disabled":false,"rental_uris":{"android":"levelo://app?vid=a92d6056-01b8-48af-a577-c75e46419cea","ios":"levelo://app?vid=a92d6056-01b8-48af-a577-c75e46419cea"},"vehicle_type_id":"4","last_reported":1779086619,"current_range_meters":4400,"station_id":"ce4bhn12rcd13ifvqgqg","pricing_plan_id":"cebpf4jnsgd1na2vs0mg"},{"bike_id":"cf97b3db-28c6-4e31-9c20-8d584913c7e8","system_id":"levelo_inurba_marseille","lat":43.32112,"lon":5.36784,"is_reserved":false,"is_disabled":false,"rental_uris":{"android":"levelo://app?vid=cf97b3db-28c6-4e31-9c20-8d584913c7e8","ios":"levelo://app?vid=cf97b3db-28c6-4e31-9c20-8d584913c7e8"},"vehicle_type_id":"4","last_reported":1779086619,"current_range_meters":4400,"station_id":"ce4bhrh2rcd13ifvqhug","pricing_plan_id":"cebpf4jnsgd1na2vs0mg"},{"bike_id":"b77a4b5d-ff6f-4828-9012-f25886e790b4","system_id":"levelo_inurba_marseille","lat":43.30966,"lon":5.39055,"is_reserved":false,"is_disabled":false,"rental_uris":{"android":"levelo://app?vid=b77a4b5d-ff6f-4828-9012-f25886e790b4","ios":"levelo://app?vid=b77a4b5d-ff6f-4828-9012-f25886e790b4"},"vehicle_type_id":"4","last_reported":1779086619,"current_range_meters":4400,"station_id":"ce4bgup2rcd13ifvqco0","pricing_plan_id":"cebpf4jnsgd1na2vs0mg"},{"bike_id":"068286b4-bde0-4de1-9e57-6b7d365461ce","system_id":"levelo_inurba_marseille","lat":43.26226,"lon":5.40452,"is_reserved":false,"is_disabled":false,"rental_uris":{"android":"levelo://app?vid=068286b4-bde0-4de1-9e57-6b7d365461ce","ios":"levelo://app?vid=068286b4-bde0-4de1-9e57-6b7d365461ce"},"vehicle_type_id":"4","last_reported":1779086619,"current_range_meters":4800,"station_id":"ce4bhmh2rcd13ifvqgmg","pricing_plan_id":"cebpf4jnsgd1na2vs0mg"},{"bike_id":"188b290d-71a6-48dc-84c6-e3853be80b76","system_id":"levelo_inurba_marseille","lat":43.2654,"lon":5.37288,"is_reserved":false,"is_disabled":false,"rental_uris":{"android":"levelo://app?vid=188b290d-71a6-48dc-84c6-e3853be80b76","ios":"levelo://app?vid=188b290d-71a6-48dc-84c6-e3853be80b76"},"vehicle_type_id":"4","last_reported":1779086619,"current_range_meters":4800,"station_id":"ce4bhg12rcd13ifvqf70","pricing_plan_id":"cebpf4jnsgd1na2vs0mg"},{"bike_id":"9abe2848-1087-4066-b606-b619af5b8a5a","system_id":"levelo_inurba_marseille","lat":43.30207,"lon":5.39457,"is_reserved":false,"is_disabled":false,"rental_uris":{"android":"levelo://app?vid=9abe2848-1087-4066-b606-b619af5b8a5a","ios":"levelo://app?vid=9abe2848-1087-4066-b606-b619af5b8a5a"},"vehicle_type_id":"4","last_reported":1779086619,"current_range_meters":4800,"station_id":"ce4bh0p2rcd13ifvqd70","pricing_plan_id":"cebpf4jnsgd1na2vs0mg"},{"bike_id":"eb68c35f-ecf7-4054-9bf5-6082a4198aef","system_id":"levelo_inurba_marseille","lat":43.29023,"lon":5.39954,"is_reserved":false,"is_disabled":false,"rental_uris":{"android":"levelo://app?vid=eb68c35f-ecf7-4054-9bf5-6082a4198aef","ios":"levelo://app?vid=eb68c35f-ecf7-4054-9bf5-6082a4198aef"},"vehicle_type_id":"4","last_reported":1779086619,"current_range_meters":4800,"station_id":"ce4bh392rcd13ifvqdm0","pricing_plan_id":"cebpf4jnsgd1na2vs0mg"},{"bike_id":"e0bb6494-3107-45d5-bf57-d23876a00455","system_id":"levelo_inurba_marseille","lat":43.21191,"lon":5.35066,"is_reserved":false,"is_disabled":false,"rental_uris":{"android":"levelo://app?vid=e0bb6494-3107-45d5-bf57-d23876a00455","ios":"levelo://app?vid=e0bb6494-3107-45d5-bf57-d23876a00455"},"vehicle_type_id":"4","last_reported":1779086619,"current_range_meters":4800,"station_id":"st_cvj6sg6p6f1abm77japg","pricing_plan_id":"cebpf4jnsgd1na2vs0mg"},{"bike_id":"4f2dd489-c40f-4f9d-9839-a9c4a3c487af","system_id":"levelo_inurba_marseille","lat":43.30154,"lon":5.38068,"is_reserved":false,"is_disabled":false,"rental_uris":{"android":"levelo://app?vid=4f2dd489-c40f-4f9d-9839-a9c4a3c487af","ios":"levelo://app?vid=4f2dd489-c40f-4f9d-9839-a9c4a3c487af"},"vehicle_type_id":"4","last_reported":1779086619,"current_range_meters":4800,"station_id":"ce4bgjp2rcd13ifvqbh0","pricing_plan_id":"cebpf4jnsgd1na2vs0mg"},{"bike_id":"d69f8340-624c-4b92-9c37-234c230a2c39","system_id":"levelo_inurba_marseille","lat":43.26879,"lon":5.39457,"is_reserved":false,"is_disabled":false,"rental_uris":{"android":"levelo://app?vid=d69f8340-624c-4b92-9c37-234c230a2c39","ios":"levelo://app?vid=d69f8340-624c-4b92-9c37-234c230a2c39"},"vehicle_type_id":"4","last_reported":1779086619,"current_range_meters":4800,"station_id":"","pricing_plan_id":"cebpf4jnsgd1na2vs0mg"},{"bike_id":"83ae9548-04d4-41cc-a2c8-af86179673ba","system_id":"levelo_inurba_marseille","lat":43.32114,"lon":5.36764,"is_reserved":false,"is_disabled":false,"rental_uris":{"android":"levelo://app?vid=83ae9548-04d4-41cc-a2c8-af86179673ba","ios":"levelo://app?vid=83ae9548-04d4-41cc-a2c8-af86179673ba"},"vehicle_type_id":"4","last_reported":1779086619,"current_range_meters":4800,"station_id":"ce4bhrh2rcd13ifvqhug","pricing_plan_id":"cebpf4jnsgd1na2vs0mg"},{"bike_id":"f59c7161-21bd-43e4-8c60-3bc55c092ecb","system_id":"levelo_inurba_marseille","lat":43.30251,"lon":5.40056,"is_reserved":false,"is_disabled":false,"rental_uris":{"android":"levelo://app?vid=f59c7161-21bd-43e4-8c60-3bc55c092ecb","ios":"levelo://app?vid=f59c7161-21bd-43e4-8c60-3bc55c092ecb"},"vehicle_type_id":"4","last_reported":1779086619,"current_range_meters":4800,"station_id":"ce4bgvh2rcd13ifvqcs0","pricing_plan_id":"cebpf4jnsgd1na2vs0mg"},{"bike_id":"13700a6c-d9e7-486a-8d23-4205e8e2dd24","system_id":"levelo_inurba_marseille","lat":43.3017,"lon":5.3807,"is_reserved":false,"is_disabled":false,"rental_uris":{"android":"levelo://app?vid=13700a6c-d9e7-486a-8d23-4205e8e2dd24","ios":"levelo://app?vid=13700a6c-d9e7-486a-8d23-4205e8e2dd24"},"vehicle_type_id":"4","last_reported":1779086619,"current_range_meters":4800,"station_id":"ce4bgjp2rcd13ifvqbh0","pricing_plan_id":"cebpf4jnsgd1na2vs0mg"},{"bike_id":"b5ec3fbc-395f-4cab-9d6d-c5a0cbbd6aec","system_id":"levelo_inurba_marseille","lat":43.25095,"lon":5.39492,"is_reserved":false,"is_disabled":false,"rental_uris":{"android":"levelo://app?vid=b5ec3fbc-395f-4cab-9d6d-c5a0cbbd6aec","ios":"levelo://app?vid=b5ec3fbc-395f-4cab-9d6d-c5a0cbbd6aec"},"vehicle_type_id":"4","last_reported":1779086619,"current_range_meters":4800,"station_id":"ce4bhm12rcd13ifvqgkg","pricing_plan_id":"cebpf4jnsgd1na2vs0mg"},{"bike_id":"57d26b43-3358-457a-b6a1-cb6edc799444","system_id":"levelo_inurba_marseille","lat":43.31354,"lon":5.36704,"is_reserved":false,"is_disabled":false,"rental_uris":{"android":"levelo://app?vid=57d26b43-3358-457a-b6a1-cb6edc799444","ios":"levelo://app?vid=57d26b43-3358-457a-b6a1-cb6edc799444"},"vehicle_type_id":"4","last_reported":1779086619,"current_range_meters":4800,"station_id":"ce4bgr92rcd13ifvqc6g","pricing_plan_id":"cebpf4jnsgd1na2vs0mg"},{"bike_id":"2cd48a35-42f5-4905-a545-77ef65266664","system_id":"levelo_inurba_marseille","lat":43.29664,"lon":5.37769,"is_reserved":false,"is_disabled":false,"rental_uris":{"android":"levelo://app?vid=2cd48a35-42f5-4905-a545-77ef65266664","ios":"levelo://app?vid=2cd48a35-42f5-4905-a545-77ef65266664"},"vehicle_type_id":"4","last_reported":1779086619,"current_range_meters":5600,"station_id":"","pricing_plan_id":"cebpf4jnsgd1na2vs0mg"},{"bike_id":"52e6d760-657f-4bf5-bb05-128eefc50784","system_id":"levelo_inurba_marseille","lat":43.28283,"lon":5.35115,"is_reserved":false,"is_disabled":true,"rental_uris":{"android":"levelo://app?vid=52e6d760-657f-4bf5-bb05-128eefc50784","ios":"levelo://app?vid=52e6d760-657f-4bf5-bb05-128eefc50784"},"vehicle_type_id":"4","last_reported":1779086619,"current_range_meters":5600,"station_id":"","pricing_plan_id":"cebpf4jnsgd1na2vs0mg"},{"bike_id":"951fffd2-436d-45da-b1a4-17c9eb1f0fbd","system_id":"levelo_inurba_marseille","lat":43.30147,"lon":5.3741,"is_reserved":false,"is_disabled":false,"rental_uris":{"android":"levelo://app?vid=951fffd2-436d-45da-b1a4-17c9eb1f0fbd","ios":"levelo://app?vid=951fffd2-436d-45da-b1a4-17c9eb1f0fbd"},"vehicle_type_id":"4","last_reported":1779086619,"current_range_meters":5600,"station_id":"ce4bgs92rcd13ifvqcc0","pricing_plan_id":"cebpf4jnsgd1na2vs0mg"},{"bike_id":"d4e5493c-beb0-44dd-8026-90bced6da08c","system_id":"levelo_inurba_marseille","lat":43.337444,"lon":5.374475,"is_reserved":false,"is_disabled":false,"rental_uris":{"android":"levelo://app?vid=d4e5493c-beb0-44dd-8026-90bced6da08c","ios":"levelo://app?vid=d4e5493c-beb0-44dd-8026-90bced6da08c"},"vehicle_type_id":"4","last_reported":1779086619,"current_range_meters":5600,"station_id":"","pricing_plan_id":"cebpf4jnsgd1na2vs0mg"},{"bike_id":"b5bf69f9-a4e2-40b9-b772-e6f94ae55d77","system_id":"levelo_inurba_marseille","lat":43.30141,"lon":5.37427,"is_reserved":false,"is_disabled":false,"rental_uris":{"android":"levelo://app?vid=b5bf69f9-a4e2-40b9-b772-e6f94ae55d77","ios":"levelo://app?vid=b5bf69f9-a4e2-40b9-b772-e6f94ae55d77"},"vehicle_type_id":"4","last_reported":1779086619,"current_range_meters":5600,"station_id":"ce4bgs92rcd13ifvqcc0","pricing_plan_id":"cebpf4jnsgd1na2vs0mg"},{"bike_id":"d6fd37f0-c381-45ab-a4cb-251bbb7687f0","system_id":"levelo_inurba_marseille","lat":43.3124,"lon":5.36848,"is_reserved":false,"is_disabled":false,"rental_uris":{"android":"levelo://app?vid=d6fd37f0-c381-45ab-a4cb-251bbb7687f0","ios":"levelo://app?vid=d6fd37f0-c381-45ab-a4cb-251bbb7687f0"},"vehicle_type_id":"4","last_reported":1779086619,"current_range_meters":5600,"station_id":"ce4bgl92rcd13ifvqbq0","pricing_plan_id":"cebpf4jnsgd1na2vs0mg"},{"bike_id":"c3f0931a-b98e-4ec6-aa39-67278fb8aaff","system_id":"levelo_inurba_marseille","lat":43.31896,"lon":5.36811,"is_reserved":false,"is_disabled":false,"rental_uris":{"android":"levelo://app?vid=c3f0931a-b98e-4ec6-aa39-67278fb8aaff","ios":"levelo://app?vid=c3f0931a-b98e-4ec6-aa39-67278fb8aaff"},"vehicle_type_id":"4","last_reported":1779086619,"current_range_meters":6000,"station_id":"st_d6o2h0d0559c73evc1b0","pricing_plan_id":"cebpf4jnsgd1na2vs0mg"},{"bike_id":"a37c765c-5ae2-49cd-bd99-2c0aa0db5f69","system_id":"levelo_inurba_marseille","lat":43.3169,"lon":5.40488,"is_reserved":false,"is_disabled":false,"rental_uris":{"android":"levelo://app?vid=a37c765c-5ae2-49cd-bd99-2c0aa0db5f69","ios":"levelo://app?vid=a37c765c-5ae2-49cd-bd99-2c0aa0db5f69"},"vehicle_type_id":"4","last_reported":1779086619,"current_range_meters":6000,"station_id":"ce4bh012rcd13ifvqd00","pricing_plan_id":"cebpf4jnsgd1na2vs0mg"},{"bike_id":"e3c732ea-c110-47ac-a22b-470a9e3a6943","system_id":"levelo_inurba_marseille","lat":43.30951,"lon":5.3906,"is_reserved":false,"is_disabled":true,"rental_uris":{"android":"levelo://app?vid=e3c732ea-c110-47ac-a22b-470a9e3a6943","ios":"levelo://app?vid=e3c732ea-c110-47ac-a22b-470a9e3a6943"},"vehicle_type_id":"4","last_reported":1779086619,"current_range_meters":6000,"station_id":"ce4bgup2rcd13ifvqco0","pricing_plan_id":"cebpf4jnsgd1na2vs0mg"},{"bike_id":"7e9108b7-826c-4ee3-915c-23f98ef2ac43","system_id":"levelo_inurba_marseille","lat":43.23961,"lon":5.36619,"is_reserved":false,"is_disabled":false,"rental_uris":{"android":"levelo://app?vid=7e9108b7-826c-4ee3-915c-23f98ef2ac43","ios":"levelo://app?vid=7e9108b7-826c-4ee3-915c-23f98ef2ac43"},"vehicle_type_id":"4","last_reported":1779086619,"current_range_meters":6000,"station_id":"ce4bhi12rcd13ifvqfp0","pricing_plan_id":"cebpf4jnsgd1na2vs0mg"},{"bike_id":"055c22ee-2bf1-4e65-b0c0-8dfafb9fa515","system_id":"levelo_inurba_marseille","lat":43.2978,"lon":5.37101,"is_reserved":false,"is_disabled":false,"rental_uris":{"android":"levelo://app?vid=055c22ee-2bf1-4e65-b0c0-8dfafb9fa515","ios":"levelo://app?vid=055c22ee-2bf1-4e65-b0c0-8dfafb9fa515"},"vehicle_type_id":"4","last_reported":1779086619,"current_range_meters":6000,"station_id":"ce4bgop2rcd13ifvqc1g","pricing_plan_id":"cebpf4jnsgd1na2vs0mg"},{"bike_id":"3ae4ae59-23d9-4497-b29e-5a0624077ddc","system_id":"levelo_inurba_marseille","lat":43.21184,"lon":5.35097,"is_reserved":false,"is_disabled":false,"rental_uris":{"android":"levelo://app?vid=3ae4ae59-23d9-4497-b29e-5a0624077ddc","ios":"levelo://app?vid=3ae4ae59-23d9-4497-b29e-5a0624077ddc"},"vehicle_type_id":"4","last_reported":1779086619,"current_range_meters":6000,"station_id":"st_cvj6sg6p6f1abm77japg","pricing_plan_id":"cebpf4jnsgd1na2vs0mg"},{"bike_id":"ccf53e0a-5c5d-425e-a679-f5fb67605b6b","system_id":"levelo_inurba_marseille","lat":43.30186,"lon":5.36616,"is_reserved":false,"is_disabled":false,"rental_uris":{"android":"levelo://app?vid=ccf53e0a-5c5d-425e-a679-f5fb67605b6b","ios":"levelo://app?vid=ccf53e0a-5c5d-425e-a679-f5fb67605b6b"},"vehicle_type_id":"4","last_reported":1779086619,"current_range_meters":6000,"station_id":"ce4bgrh2rcd13ifvqc8g","pricing_plan_id":"cebpf4jnsgd1na2vs0mg"},{"bike_id":"c335fb76-979c-4c83-87fb-181b4110e55d","system_id":"levelo_inurba_marseille","lat":43.23781,"lon":5.36631,"is_reserved":false,"is_disabled":false,"rental_uris":{"android":"levelo://app?vid=c335fb76-979c-4c83-87fb-181b4110e55d","ios":"levelo://app?vid=c335fb76-979c-4c83-87fb-181b4110e55d"},"vehicle_type_id":"4","last_reported":1779086619,"current_range_meters":6000,"station_id":"st_d3nk18o9ro0c73en2l3g","pricing_plan_id":"cebpf4jnsgd1na2vs0mg"},{"bike_id":"c40b2763-b8ba-48e1-895b-77c372fb180e","system_id":"levelo_inurba_marseille","lat":43.29806,"lon":5.41677,"is_reserved":false,"is_disabled":false,"rental_uris":{"android":"levelo://app?vid=c40b2763-b8ba-48e1-895b-77c372fb180e","ios":"levelo://app?vid=c40b2763-b8ba-48e1-895b-77c372fb180e"},"vehicle_type_id":"4","last_reported":1779086619,"current_range_meters":6000,"station_id":"","pricing_plan_id":"cebpf4jnsgd1na2vs0mg"},{"bike_id":"91358317-7e6f-4ec7-9a09-ece832f095a8","system_id":"levelo_inurba_marseille","lat":43.26373,"lon":5.41065,"is_reserved":false,"is_disabled":false,"rental_uris":{"android":"levelo://app?vid=91358317-7e6f-4ec7-9a09-ece832f095a8","ios":"levelo://app?vid=91358317-7e6f-4ec7-9a09-ece832f095a8"},"vehicle_type_id":"4","last_reported":1779086619,"current_range_meters":6000,"station_id":"st_d4e5ca6na9uc73bfl5fg","pricing_plan_id":"cebpf4jnsgd1na2vs0mg"},{"bike_id":"334d433d-1cc0-43f1-81c8-bef93ee85de9","system_id":"levelo_inurba_marseille","lat":43.29273,"lon":5.40113,"is_reserved":false,"is_disabled":false,"rental_uris":{"android":"levelo://app?vid=334d433d-1cc0-43f1-81c8-bef93ee85de9","ios":"levelo://app?vid=334d433d-1cc0-43f1-81c8-bef93ee85de9"},"vehicle_type_id":"4","last_reported":1779086619,"current_range_meters":6400,"station_id":"ce4bh312rcd13ifvqdk0","pricing_plan_id":"cebpf4jnsgd1na2vs0mg"},{"bike_id":"da4ff507-22a4-4d29-acb9-63cb28111054","system_id":"levelo_inurba_marseille","lat":43.29276,"lon":5.40111,"is_reserved":false,"is_disabled":false,"rental_uris":{"android":"levelo://app?vid=da4ff507-22a4-4d29-acb9-63cb28111054","ios":"levelo://app?vid=da4ff507-22a4-4d29-acb9-63cb28111054"},"vehicle_type_id":"4","last_reported":1779086619,"current_range_meters":6400,"station_id":"ce4bh312rcd13ifvqdk0","pricing_plan_id":"cebpf4jnsgd1na2vs0mg"},{"bike_id":"38170eab-f94b-4e19-9e49-18db0df3e8da","system_id":"levelo_inurba_marseille","lat":43.239647,"lon":5.366361,"is_reserved":false,"is_disabled":false,"rental_uris":{"android":"levelo://app?vid=38170eab-f94b-4e19-9e49-18db0df3e8da","ios":"levelo://app?vid=38170eab-f94b-4e19-9e49-18db0df3e8da"},"vehicle_type_id":"4","last_reported":1779086619,"current_range_meters":6400,"station_id":"ce4bhi12rcd13ifvqfp0","pricing_plan_id":"cebpf4jnsgd1na2vs0mg"},{"bike_id":"7df43883-c1e0-4da1-a102-d45e33555e9a","system_id":"levelo_inurba_marseille","lat":43.30193,"lon":5.39937,"is_reserved":false,"is_disabled":false,"rental_uris":{"android":"levelo://app?vid=7df43883-c1e0-4da1-a102-d45e33555e9a","ios":"levelo://app?vid=7df43883-c1e0-4da1-a102-d45e33555e9a"},"vehicle_type_id":"4","last_reported":1779086619,"current_range_meters":6400,"station_id":"","pricing_plan_id":"cebpf4jnsgd1na2vs0mg"},{"bike_id":"abaaa3b6-56f2-4972-ab91-01f1e2ed4560","system_id":"levelo_inurba_marseille","lat":43.292813,"lon":5.401126,"is_reserved":false,"is_disabled":false,"rental_uris":{"android":"levelo://app?vid=abaaa3b6-56f2-4972-ab91-01f1e2ed4560","ios":"levelo://app?vid=abaaa3b6-56f2-4972-ab91-01f1e2ed4560"},"vehicle_type_id":"4","last_reported":1779086619,"current_range_meters":6400,"station_id":"ce4bh312rcd13ifvqdk0","pricing_plan_id":"cebpf4jnsgd1na2vs0mg"},{"bike_id":"9d18dc58-248c-49c8-a233-5fa2af77daec","system_id":"levelo_inurba_marseille","lat":43.2865,"lon":5.37802,"is_reserved":false,"is_disabled":false,"rental_uris":{"android":"levelo://app?vid=9d18dc58-248c-49c8-a233-5fa2af77daec","ios":"levelo://app?vid=9d18dc58-248c-49c8-a233-5fa2af77daec"},"vehicle_type_id":"4","last_reported":1779086619,"current_range_meters":6400,"station_id":"","pricing_plan_id":"cebpf4jnsgd1na2vs0mg"},{"bike_id":"350f0fe8-39d6-4df9-9091-5088e71d702c","system_id":"levelo_inurba_marseille","lat":43.24949,"lon":5.40485,"is_reserved":false,"is_disabled":false,"rental_uris":{"android":"levelo://app?vid=350f0fe8-39d6-4df9-9091-5088e71d702c","ios":"levelo://app?vid=350f0fe8-39d6-4df9-9091-5088e71d702c"},"vehicle_type_id":"4","last_reported":1779086619,"current_range_meters":6400,"station_id":"st_d2ngiaodas8pm72gd1h0","pricing_plan_id":"cebpf4jnsgd1na2vs0mg"},{"bike_id":"36dbd5c1-ebea-44c2-904d-c22e6829467f","system_id":"levelo_inurba_marseille","lat":43.28276,"lon":5.35057,"is_reserved":false,"is_disabled":true,"rental_uris":{"android":"levelo://app?vid=36dbd5c1-ebea-44c2-904d-c22e6829467f","ios":"levelo://app?vid=36dbd5c1-ebea-44c2-904d-c22e6829467f"},"vehicle_type_id":"4","last_reported":1779086619,"current_range_meters":6400,"station_id":"ce4bhbp2rcd13ifvqerg","pricing_plan_id":"cebpf4jnsgd1na2vs0mg"},{"bike_id":"4bfa6e69-e134-4175-94d9-9af7b3c312bd","system_id":"levelo_inurba_marseille","lat":43.24653,"lon":5.41633,"is_reserved":false,"is_disabled":false,"rental_uris":{"android":"levelo://app?vid=4bfa6e69-e134-4175-94d9-9af7b3c312bd","ios":"levelo://app?vid=4bfa6e69-e134-4175-94d9-9af7b3c312bd"},"vehicle_type_id":"4","last_reported":1779086619,"current_range_meters":6400,"station_id":"","pricing_plan_id":"cebpf4jnsgd1na2vs0mg"},{"bike_id":"7be79574-586d-49df-acdc-dd1721de572a","system_id":"levelo_inurba_marseille","lat":43.30535,"lon":5.38425,"is_reserved":false,"is_disabled":false,"rental_uris":{"android":"levelo://app?vid=7be79574-586d-49df-acdc-dd1721de572a","ios":"levelo://app?vid=7be79574-586d-49df-acdc-dd1721de572a"},"vehicle_type_id":"4","last_reported":1779086619,"current_range_meters":6400,"station_id":"ce4bgg92rcd13ifvqb30","pricing_plan_id":"cebpf4jnsgd1na2vs0mg"},{"bike_id":"2ff20ed5-be39-446e-879e-77efef83c760","system_id":"levelo_inurba_marseille","lat":43.28699,"lon":5.46678,"is_reserved":false,"is_disabled":false,"rental_uris":{"android":"levelo://app?vid=2ff20ed5-be39-446e-879e-77efef83c760","ios":"levelo://app?vid=2ff20ed5-be39-446e-879e-77efef83c760"},"vehicle_type_id":"4","last_reported":1779086619,"current_range_meters":6400,"station_id":"st_d6tc3vkotcvc738tfjhg","pricing_plan_id":"cebpf4jnsgd1na2vs0mg"},{"bike_id":"14b9f99e-c624-41cf-9769-0a1d26d922ce","system_id":"levelo_inurba_marseille","lat":43.304578,"lon":5.378986,"is_reserved":false,"is_disabled":false,"rental_uris":{"android":"levelo://app?vid=14b9f99e-c624-41cf-9769-0a1d26d922ce","ios":"levelo://app?vid=14b9f99e-c624-41cf-9769-0a1d26d922ce"},"vehicle_type_id":"4","last_reported":1779086619,"current_range_meters":6400,"station_id":"ce4bgup2rcd13ifvqcn0","pricing_plan_id":"cebpf4jnsgd1na2vs0mg"},{"bike_id":"59b2432e-f424-4c75-ba04-57a073a9c3ce","system_id":"levelo_inurba_marseille","lat":43.31364,"lon":5.4414,"is_reserved":false,"is_disabled":false,"rental_uris":{"android":"levelo://app?vid=59b2432e-f424-4c75-ba04-57a073a9c3ce","ios":"levelo://app?vid=59b2432e-f424-4c75-ba04-57a073a9c3ce"},"vehicle_type_id":"4","last_reported":1779086619,"current_range_meters":6400,"station_id":"","pricing_plan_id":"cebpf4jnsgd1na2vs0mg"},{"bike_id":"ca8deebd-3892-4cd3-95b9-93993366f63e","system_id":"levelo_inurba_marseille","lat":43.26237,"lon":5.40439,"is_reserved":false,"is_disabled":true,"rental_uris":{"android":"levelo://app?vid=ca8deebd-3892-4cd3-95b9-93993366f63e","ios":"levelo://app?vid=ca8deebd-3892-4cd3-95b9-93993366f63e"},"vehicle_type_id":"4","last_reported":1779086619,"current_range_meters":6400,"station_id":"ce4bhmh2rcd13ifvqgmg","pricing_plan_id":"cebpf4jnsgd1na2vs0mg"},{"bike_id":"3b1fac7e-bb0d-4512-ba87-baefa0eca969","system_id":"levelo_inurba_marseille","lat":43.25088,"lon":5.39515,"is_reserved":false,"is_disabled":false,"rental_uris":{"android":"levelo://app?vid=3b1fac7e-bb0d-4512-ba87-baefa0eca969","ios":"levelo://app?vid=3b1fac7e-bb0d-4512-ba87-baefa0eca969"},"vehicle_type_id":"4","last_reported":1779086619,"current_range_meters":6800,"station_id":"ce4bhm12rcd13ifvqgkg","pricing_plan_id":"cebpf4jnsgd1na2vs0mg"},{"bike_id":"f023083b-549c-49fd-b5c5-dae1366cc4b8","system_id":"levelo_inurba_marseille","lat":43.23962,"lon":5.36645,"is_reserved":false,"is_disabled":false,"rental_uris":{"android":"levelo://app?vid=f023083b-549c-49fd-b5c5-dae1366cc4b8","ios":"levelo://app?vid=f023083b-549c-49fd-b5c5-dae1366cc4b8"},"vehicle_type_id":"4","last_reported":1779086619,"current_range_meters":6800,"station_id":"ce4bhi12rcd13ifvqfp0","pricing_plan_id":"cebpf4jnsgd1na2vs0mg"},{"bike_id":"1c490ecd-821d-410f-b3f2-c3a045d830f3","system_id":"levelo_inurba_marseille","lat":43.28987,"lon":5.37834,"is_reserved":false,"is_disabled":false,"rental_uris":{"android":"levelo://app?vid=1c490ecd-821d-410f-b3f2-c3a045d830f3","ios":"levelo://app?vid=1c490ecd-821d-410f-b3f2-c3a045d830f3"},"vehicle_type_id":"4","last_reported":1779086619,"current_range_meters":6800,"station_id":"ce4bh9p2rcd13ifvqed0","pricing_plan_id":"cebpf4jnsgd1na2vs0mg"},{"bike_id":"7b6b191c-2196-4eff-a204-e6551d1afb89","system_id":"levelo_inurba_marseille","lat":43.27065,"lon":5.38314,"is_reserved":false,"is_disabled":false,"rental_uris":{"android":"levelo://app?vid=7b6b191c-2196-4eff-a204-e6551d1afb89","ios":"levelo://app?vid=7b6b191c-2196-4eff-a204-e6551d1afb89"},"vehicle_type_id":"4","last_reported":1779086619,"current_range_meters":6800,"station_id":"st_d3n2fo6cfp8s73cte1j0","pricing_plan_id":"cebpf4jnsgd1na2vs0mg"},{"bike_id":"3b6b498c-50c0-4e2a-a27e-00b316f42ae6","system_id":"levelo_inurba_marseille","lat":43.24168,"lon":5.36388,"is_reserved":false,"is_disabled":true,"rental_uris":{"android":"levelo://app?vid=3b6b498c-50c0-4e2a-a27e-00b316f42ae6","ios":"levelo://app?vid=3b6b498c-50c0-4e2a-a27e-00b316f42ae6"},"vehicle_type_id":"4","last_reported":1779086619,"current_range_meters":6800,"station_id":"cpo36qri1sfpv3e86is0","pricing_plan_id":"cebpf4jnsgd1na2vs0mg"},{"bike_id":"0212ed67-83ec-423e-9ec1-46b70d5c3816","system_id":"levelo_inurba_marseille","lat":43.30649,"lon":5.40094,"is_reserved":false,"is_disabled":false,"rental_uris":{"android":"levelo://app?vid=0212ed67-83ec-423e-9ec1-46b70d5c3816","ios":"levelo://app?vid=0212ed67-83ec-423e-9ec1-46b70d5c3816"},"vehicle_type_id":"4","last_reported":1779086619,"current_range_meters":6800,"station_id":"ce4bh112rcd13ifvqda0","pricing_plan_id":"cebpf4jnsgd1na2vs0mg"},{"bike_id":"139c03ce-3b69-40e9-aa02-266d7d0e5627","system_id":"levelo_inurba_marseille","lat":43.288587,"lon":5.425307,"is_reserved":false,"is_disabled":false,"rental_uris":{"android":"levelo://app?vid=139c03ce-3b69-40e9-aa02-266d7d0e5627","ios":"levelo://app?vid=139c03ce-3b69-40e9-aa02-266d7d0e5627"},"vehicle_type_id":"4","last_reported":1779086619,"current_range_meters":6800,"station_id":"st_d3b462108ojc7389ooeg","pricing_plan_id":"cebpf4jnsgd1na2vs0mg"},{"bike_id":"9e4605bd-fb5f-4dea-85c6-6d392142aaa8","system_id":"levelo_inurba_marseille","lat":43.29716,"lon":5.4162,"is_reserved":false,"is_disabled":false,"rental_uris":{"android":"levelo://app?vid=9e4605bd-fb5f-4dea-85c6-6d392142aaa8","ios":"levelo://app?vid=9e4605bd-fb5f-4dea-85c6-6d392142aaa8"},"vehicle_type_id":"4","last_reported":1779086619,"current_range_meters":6800,"station_id":"","pricing_plan_id":"cebpf4jnsgd1na2vs0mg"},{"bike_id":"55fd0741-f693-4c0e-bc61-157606e04439","system_id":"levelo_inurba_marseille","lat":43.3258,"lon":5.39913,"is_reserved":false,"is_disabled":false,"rental_uris":{"android":"levelo://app?vid=55fd0741-f693-4c0e-bc61-157606e04439","ios":"levelo://app?vid=55fd0741-f693-4c0e-bc61-157606e04439"},"vehicle_type_id":"4","last_reported":1779086619,"current_range_meters":6800,"station_id":"","pricing_plan_id":"cebpf4jnsgd1na2vs0mg"},{"bike_id":"76483057-aa19-441c-af55-216e6ef2b5ac","system_id":"levelo_inurba_marseille","lat":43.2256,"lon":5.41614,"is_reserved":false,"is_disabled":false,"rental_uris":{"android":"levelo://app?vid=76483057-aa19-441c-af55-216e6ef2b5ac","ios":"levelo://app?vid=76483057-aa19-441c-af55-216e6ef2b5ac"},"vehicle_type_id":"4","last_reported":1779086619,"current_range_meters":6800,"station_id":"st_d2o4gvlbi1j2169b742g","pricing_plan_id":"cebpf4jnsgd1na2vs0mg"},{"bike_id":"a35cea59-0baa-40b4-a92b-d90605140752","system_id":"levelo_inurba_marseille","lat":43.296,"lon":5.38093,"is_reserved":false,"is_disabled":false,"rental_uris":{"android":"levelo://app?vid=a35cea59-0baa-40b4-a92b-d90605140752","ios":"levelo://app?vid=a35cea59-0baa-40b4-a92b-d90605140752"},"vehicle_type_id":"4","last_reported":1779086619,"current_range_meters":6800,"station_id":"ce4bgl12rcd13ifvqbo0","pricing_plan_id":"cebpf4jnsgd1na2vs0mg"},{"bike_id":"56d3a446-4d71-4899-9007-f806d489c177","system_id":"levelo_inurba_marseille","lat":43.26369,"lon":5.41082,"is_reserved":false,"is_disabled":false,"rental_uris":{"android":"levelo://app?vid=56d3a446-4d71-4899-9007-f806d489c177","ios":"levelo://app?vid=56d3a446-4d71-4899-9007-f806d489c177"},"vehicle_type_id":"4","last_reported":1779086619,"current_range_meters":6800,"station_id":"st_d4e5ca6na9uc73bfl5fg","pricing_plan_id":"cebpf4jnsgd1na2vs0mg"},{"bike_id":"b92a21d3-7b69-445c-a358-48cd346a6e33","system_id":"levelo_inurba_marseille","lat":43.23952,"lon":5.3663,"is_reserved":false,"is_disabled":false,"rental_uris":{"android":"levelo://app?vid=b92a21d3-7b69-445c-a358-48cd346a6e33","ios":"levelo://app?vid=b92a21d3-7b69-445c-a358-48cd346a6e33"},"vehicle_type_id":"4","last_reported":1779086619,"current_range_meters":6800,"station_id":"ce4bhi12rcd13ifvqfp0","pricing_plan_id":"cebpf4jnsgd1na2vs0mg"},{"bike_id":"ddea49d8-00ab-40f0-81af-6015092553c3","system_id":"levelo_inurba_marseille","lat":43.30151,"lon":5.38094,"is_reserved":false,"is_disabled":false,"rental_uris":{"android":"levelo://app?vid=ddea49d8-00ab-40f0-81af-6015092553c3","ios":"levelo://app?vid=ddea49d8-00ab-40f0-81af-6015092553c3"},"vehicle_type_id":"4","last_reported":1779086619,"current_range_meters":6800,"station_id":"ce4bgjp2rcd13ifvqbh0","pricing_plan_id":"cebpf4jnsgd1na2vs0mg"},{"bike_id":"4fc79a0b-a889-4b07-94ad-10d4b0f67722","system_id":"levelo_inurba_marseille","lat":43.29559,"lon":5.42293,"is_reserved":false,"is_disabled":false,"rental_uris":{"android":"levelo://app?vid=4fc79a0b-a889-4b07-94ad-10d4b0f67722","ios":"levelo://app?vid=4fc79a0b-a889-4b07-94ad-10d4b0f67722"},"vehicle_type_id":"4","last_reported":1779086619,"current_range_meters":6800,"station_id":"ce4bhph2rcd13ifvqhdg","pricing_plan_id":"cebpf4jnsgd1na2vs0mg"},{"bike_id":"32f85f5f-b69c-4a87-beeb-2bb2eb4b3d3b","system_id":"levelo_inurba_marseille","lat":43.32099,"lon":5.36759,"is_reserved":false,"is_disabled":false,"rental_uris":{"android":"levelo://app?vid=32f85f5f-b69c-4a87-beeb-2bb2eb4b3d3b","ios":"levelo://app?vid=32f85f5f-b69c-4a87-beeb-2bb2eb4b3d3b"},"vehicle_type_id":"4","last_reported":1779086619,"current_range_meters":6800,"station_id":"ce4bhrh2rcd13ifvqhug","pricing_plan_id":"cebpf4jnsgd1na2vs0mg"},{"bike_id":"ff330b01-1f36-42eb-95f5-912102a1304b","system_id":"levelo_inurba_marseille","lat":43.31221,"lon":5.37833,"is_reserved":false,"is_disabled":false,"rental_uris":{"android":"levelo://app?vid=ff330b01-1f36-42eb-95f5-912102a1304b","ios":"levelo://app?vid=ff330b01-1f36-42eb-95f5-912102a1304b"},"vehicle_type_id":"4","last_reported":1779086619,"current_range_meters":6800,"station_id":"","pricing_plan_id":"cebpf4jnsgd1na2vs0mg"},{"bike_id":"eea05b70-3922-48e8-9948-cd4940789950","system_id":"levelo_inurba_marseille","lat":43.27214,"lon":5.39193,"is_reserved":false,"is_disabled":false,"rental_uris":{"android":"levelo://app?vid=eea05b70-3922-48e8-9948-cd4940789950","ios":"levelo://app?vid=eea05b70-3922-48e8-9948-cd4940789950"},"vehicle_type_id":"4","last_reported":1779086619,"current_range_meters":7200,"station_id":"ce4bhhp2rcd13ifvqfm0","pricing_plan_id":"cebpf4jnsgd1na2vs0mg"},{"bike_id":"c1224642-d4b6-4364-9e15-5ab4e10f334e","system_id":"levelo_inurba_marseille","lat":43.33535,"lon":5.37455,"is_reserved":false,"is_disabled":false,"rental_uris":{"android":"levelo://app?vid=c1224642-d4b6-4364-9e15-5ab4e10f334e","ios":"levelo://app?vid=c1224642-d4b6-4364-9e15-5ab4e10f334e"},"vehicle_type_id":"4","last_reported":1779086619,"current_range_meters":7200,"station_id":"st_d46tts09ee8s73dlu43g","pricing_plan_id":"cebpf4jnsgd1na2vs0mg"},{"bike_id":"3e21f974-f9aa-4653-83c2-4ce584ab12f5","system_id":"levelo_inurba_marseille","lat":43.30955,"lon":5.39035,"is_reserved":false,"is_disabled":false,"rental_uris":{"android":"levelo://app?vid=3e21f974-f9aa-4653-83c2-4ce584ab12f5","ios":"levelo://app?vid=3e21f974-f9aa-4653-83c2-4ce584ab12f5"},"vehicle_type_id":"4","last_reported":1779086619,"current_range_meters":7200,"station_id":"ce4bgup2rcd13ifvqco0","pricing_plan_id":"cebpf4jnsgd1na2vs0mg"},{"bike_id":"4d1b7d8c-469c-49fb-8bc6-255c81c231b9","system_id":"levelo_inurba_marseille","lat":43.25566,"lon":5.3823,"is_reserved":false,"is_disabled":false,"rental_uris":{"android":"levelo://app?vid=4d1b7d8c-469c-49fb-8bc6-255c81c231b9","ios":"levelo://app?vid=4d1b7d8c-469c-49fb-8bc6-255c81c231b9"},"vehicle_type_id":"4","last_reported":1779086619,"current_range_meters":7200,"station_id":"ce4bhih2rcd13ifvqfs0","pricing_plan_id":"cebpf4jnsgd1na2vs0mg"},{"bike_id":"5651d086-20fd-4403-83d0-940570cdc72a","system_id":"levelo_inurba_marseille","lat":43.28568,"lon":5.39503,"is_reserved":false,"is_disabled":false,"rental_uris":{"android":"levelo://app?vid=5651d086-20fd-4403-83d0-940570cdc72a","ios":"levelo://app?vid=5651d086-20fd-4403-83d0-940570cdc72a"},"vehicle_type_id":"4","last_reported":1779086619,"current_range_meters":7200,"station_id":"ce4bh292rcd13ifvqdg0","pricing_plan_id":"cebpf4jnsgd1na2vs0mg"},{"bike_id":"b6077b44-3765-4588-9d86-ee3e7492a81f","system_id":"levelo_inurba_marseille","lat":43.2623,"lon":5.37431,"is_reserved":false,"is_disabled":false,"rental_uris":{"android":"levelo://app?vid=b6077b44-3765-4588-9d86-ee3e7492a81f","ios":"levelo://app?vid=b6077b44-3765-4588-9d86-ee3e7492a81f"},"vehicle_type_id":"4","last_reported":1779086619,"current_range_meters":7200,"station_id":"","pricing_plan_id":"cebpf4jnsgd1na2vs0mg"},{"bike_id":"5fcb808e-817c-4970-948b-98f3a12d54fe","system_id":"levelo_inurba_marseille","lat":43.24646,"lon":5.38176,"is_reserved":false,"is_disabled":false,"rental_uris":{"android":"levelo://app?vid=5fcb808e-817c-4970-948b-98f3a12d54fe","ios":"levelo://app?vid=5fcb808e-817c-4970-948b-98f3a12d54fe"},"vehicle_type_id":"4","last_reported":1779086619,"current_range_meters":7200,"station_id":"ce4bhih2rcd13ifvqfr0","pricing_plan_id":"cebpf4jnsgd1na2vs0mg"},{"bike_id":"6f02c462-5be8-4fd9-bd86-49563918d3d3","system_id":"levelo_inurba_marseille","lat":43.31899,"lon":5.36795,"is_reserved":false,"is_disabled":false,"rental_uris":{"android":"levelo://app?vid=6f02c462-5be8-4fd9-bd86-49563918d3d3","ios":"levelo://app?vid=6f02c462-5be8-4fd9-bd86-49563918d3d3"},"vehicle_type_id":"4","last_reported":1779086619,"current_range_meters":7200,"station_id":"st_d6o2h0d0559c73evc1b0","pricing_plan_id":"cebpf4jnsgd1na2vs0mg"},{"bike_id":"e347b779-bf2e-44be-bc5a-ef1939deb4fa","system_id":"levelo_inurba_marseille","lat":43.31572,"lon":5.42497,"is_reserved":false,"is_disabled":false,"rental_uris":{"android":"levelo://app?vid=e347b779-bf2e-44be-bc5a-ef1939deb4fa","ios":"levelo://app?vid=e347b779-bf2e-44be-bc5a-ef1939deb4fa"},"vehicle_type_id":"4","last_reported":1779086619,"current_range_meters":7200,"station_id":"","pricing_plan_id":"cebpf4jnsgd1na2vs0mg"},{"bike_id":"c8285c1f-86d5-41f6-8319-9b80e3266155","system_id":"levelo_inurba_marseille","lat":43.24812,"lon":5.37447,"is_reserved":false,"is_disabled":false,"rental_uris":{"android":"levelo://app?vid=c8285c1f-86d5-41f6-8319-9b80e3266155","ios":"levelo://app?vid=c8285c1f-86d5-41f6-8319-9b80e3266155"},"vehicle_type_id":"4","last_reported":1779086619,"current_range_meters":7200,"station_id":"ce4bhgh2rcd13ifvqfb0","pricing_plan_id":"cebpf4jnsgd1na2vs0mg"},{"bike_id":"d38099c2-1142-42c4-85f3-f5b4b8485bfe","system_id":"levelo_inurba_marseille","lat":43.29208,"lon":5.36048,"is_reserved":false,"is_disabled":true,"rental_uris":{"android":"levelo://app?vid=d38099c2-1142-42c4-85f3-f5b4b8485bfe","ios":"levelo://app?vid=d38099c2-1142-42c4-85f3-f5b4b8485bfe"},"vehicle_type_id":"4","last_reported":1779086619,"current_range_meters":7200,"station_id":"ce4bhbh2rcd13ifvqeqg","pricing_plan_id":"cebpf4jnsgd1na2vs0mg"},{"bike_id":"fd68a834-42de-40a2-8e48-75c7a4b9ddb0","system_id":"levelo_inurba_marseille","lat":43.23971,"lon":5.36616,"is_reserved":false,"is_disabled":false,"rental_uris":{"android":"levelo://app?vid=fd68a834-42de-40a2-8e48-75c7a4b9ddb0","ios":"levelo://app?vid=fd68a834-42de-40a2-8e48-75c7a4b9ddb0"},"vehicle_type_id":"4","last_reported":1779086619,"current_range_meters":7200,"station_id":"ce4bhi12rcd13ifvqfp0","pricing_plan_id":"cebpf4jnsgd1na2vs0mg"},{"bike_id":"e5d3f8e5-7fc2-4063-b550-2d1f9611ba34","system_id":"levelo_inurba_marseille","lat":43.21196,"lon":5.35074,"is_reserved":false,"is_disabled":false,"rental_uris":{"android":"levelo://app?vid=e5d3f8e5-7fc2-4063-b550-2d1f9611ba34","ios":"levelo://app?vid=e5d3f8e5-7fc2-4063-b550-2d1f9611ba34"},"vehicle_type_id":"4","last_reported":1779086619,"current_range_meters":7200,"station_id":"st_cvj6sg6p6f1abm77japg","pricing_plan_id":"cebpf4jnsgd1na2vs0mg"},{"bike_id":"01fda54f-0d49-4703-a135-e09a07224d0c","system_id":"levelo_inurba_marseille","lat":43.25006,"lon":5.38922,"is_reserved":false,"is_disabled":false,"rental_uris":{"android":"levelo://app?vid=01fda54f-0d49-4703-a135-e09a07224d0c","ios":"levelo://app?vid=01fda54f-0d49-4703-a135-e09a07224d0c"},"vehicle_type_id":"4","last_reported":1779086619,"current_range_meters":7200,"station_id":"ce4bhgp2rcd13ifvqfd0","pricing_plan_id":"cebpf4jnsgd1na2vs0mg"},{"bike_id":"cc133572-8492-48b3-9ded-a69bee23d34f","system_id":"levelo_inurba_marseille","lat":43.25337,"lon":5.41368,"is_reserved":false,"is_disabled":false,"rental_uris":{"android":"levelo://app?vid=cc133572-8492-48b3-9ded-a69bee23d34f","ios":"levelo://app?vid=cc133572-8492-48b3-9ded-a69bee23d34f"},"vehicle_type_id":"4","last_reported":1779086619,"current_range_meters":7200,"station_id":"","pricing_plan_id":"cebpf4jnsgd1na2vs0mg"},{"bike_id":"ab186b43-665e-40a5-ba53-2f582e97d90e","system_id":"levelo_inurba_marseille","lat":43.2439,"lon":5.37047,"is_reserved":false,"is_disabled":false,"rental_uris":{"android":"levelo://app?vid=ab186b43-665e-40a5-ba53-2f582e97d90e","ios":"levelo://app?vid=ab186b43-665e-40a5-ba53-2f582e97d90e"},"vehicle_type_id":"4","last_reported":1779086619,"current_range_meters":7200,"station_id":"ce4bhhh2rcd13ifvqfk0","pricing_plan_id":"cebpf4jnsgd1na2vs0mg"},{"bike_id":"56611aee-4a97-497f-a541-b301e0a4b4f4","system_id":"levelo_inurba_marseille","lat":43.33241,"lon":5.40575,"is_reserved":false,"is_disabled":false,"rental_uris":{"android":"levelo://app?vid=56611aee-4a97-497f-a541-b301e0a4b4f4","ios":"levelo://app?vid=56611aee-4a97-497f-a541-b301e0a4b4f4"},"vehicle_type_id":"4","last_reported":1779086619,"current_range_meters":7200,"station_id":"","pricing_plan_id":"cebpf4jnsgd1na2vs0mg"},{"bike_id":"07b4c5f1-343a-45cc-aa96-247c86ac40fc","system_id":"levelo_inurba_marseille","lat":43.33606,"lon":5.41036,"is_reserved":false,"is_disabled":false,"rental_uris":{"android":"levelo://app?vid=07b4c5f1-343a-45cc-aa96-247c86ac40fc","ios":"levelo://app?vid=07b4c5f1-343a-45cc-aa96-247c86ac40fc"},"vehicle_type_id":"4","last_reported":1779086619,"current_range_meters":7200,"station_id":"ce4bhqh2rcd13ifvqhmg","pricing_plan_id":"cebpf4jnsgd1na2vs0mg"},{"bike_id":"9d926cde-506d-4240-abab-15ca21dc0085","system_id":"levelo_inurba_marseille","lat":43.30466,"lon":5.37912,"is_reserved":false,"is_disabled":false,"rental_uris":{"android":"levelo://app?vid=9d926cde-506d-4240-abab-15ca21dc0085","ios":"levelo://app?vid=9d926cde-506d-4240-abab-15ca21dc0085"},"vehicle_type_id":"4","last_reported":1779086619,"current_range_meters":7200,"station_id":"ce4bgup2rcd13ifvqcn0","pricing_plan_id":"cebpf4jnsgd1na2vs0mg"},{"bike_id":"86f1dc22-88fd-48a5-9fbe-a5776408d581","system_id":"levelo_inurba_marseille","lat":43.29985,"lon":5.37182,"is_reserved":false,"is_disabled":false,"rental_uris":{"android":"levelo://app?vid=86f1dc22-88fd-48a5-9fbe-a5776408d581","ios":"levelo://app?vid=86f1dc22-88fd-48a5-9fbe-a5776408d581"},"vehicle_type_id":"4","last_reported":1779086619,"current_range_meters":7200,"station_id":"ce4bgr92rcd13ifvqc7g","pricing_plan_id":"cebpf4jnsgd1na2vs0mg"},{"bike_id":"f4c24d52-7b35-403b-916a-9166090c7fb9","system_id":"levelo_inurba_marseille","lat":43.2849,"lon":5.3857,"is_reserved":false,"is_disabled":false,"rental_uris":{"android":"levelo://app?vid=f4c24d52-7b35-403b-916a-9166090c7fb9","ios":"levelo://app?vid=f4c24d52-7b35-403b-916a-9166090c7fb9"},"vehicle_type_id":"4","last_reported":1779086619,"current_range_meters":7200,"station_id":"ce4bh8p2rcd13ifvqeb0","pricing_plan_id":"cebpf4jnsgd1na2vs0mg"},{"bike_id":"2dfb8d61-a819-4507-a1cd-30ecbeb78fbb","system_id":"levelo_inurba_marseille","lat":43.32475,"lon":5.36563,"is_reserved":false,"is_disabled":false,"rental_uris":{"android":"levelo://app?vid=2dfb8d61-a819-4507-a1cd-30ecbeb78fbb","ios":"levelo://app?vid=2dfb8d61-a819-4507-a1cd-30ecbeb78fbb"},"vehicle_type_id":"4","last_reported":1779086619,"current_range_meters":7200,"station_id":"ce4bhs12rcd13ifvqhvg","pricing_plan_id":"cebpf4jnsgd1na2vs0mg"},{"bike_id":"f46dc198-f447-4b28-8d13-72a1d78dd32a","system_id":"levelo_inurba_marseille","lat":43.29005,"lon":5.35482,"is_reserved":false,"is_disabled":false,"rental_uris":{"android":"levelo://app?vid=f46dc198-f447-4b28-8d13-72a1d78dd32a","ios":"levelo://app?vid=f46dc198-f447-4b28-8d13-72a1d78dd32a"},"vehicle_type_id":"4","last_reported":1779086619,"current_range_meters":8000,"station_id":"","pricing_plan_id":"cebpf4jnsgd1na2vs0mg"},{"bike_id":"dd33d9f6-cb51-466c-83d6-542cc7778413","system_id":"levelo_inurba_marseille","lat":43.26556,"lon":5.37309,"is_reserved":false,"is_disabled":false,"rental_uris":{"android":"levelo://app?vid=dd33d9f6-cb51-466c-83d6-542cc7778413","ios":"levelo://app?vid=dd33d9f6-cb51-466c-83d6-542cc7778413"},"vehicle_type_id":"4","last_reported":1779086619,"current_range_meters":8000,"station_id":"ce4bhg12rcd13ifvqf70","pricing_plan_id":"cebpf4jnsgd1na2vs0mg"},{"bike_id":"117b70b8-f633-43dd-bae9-a0a267e25eed","system_id":"levelo_inurba_marseille","lat":43.23895,"lon":5.37452,"is_reserved":false,"is_disabled":false,"rental_uris":{"android":"levelo://app?vid=117b70b8-f633-43dd-bae9-a0a267e25eed","ios":"levelo://app?vid=117b70b8-f633-43dd-bae9-a0a267e25eed"},"vehicle_type_id":"4","last_reported":1779086619,"current_range_meters":8000,"station_id":"st_d6sm7csbq4hs73f8fpjg","pricing_plan_id":"cebpf4jnsgd1na2vs0mg"},{"bike_id":"3cd0d027-167a-4213-a7e3-e826cf4da97c","system_id":"levelo_inurba_marseille","lat":43.28407,"lon":5.3498,"is_reserved":false,"is_disabled":true,"rental_uris":{"android":"levelo://app?vid=3cd0d027-167a-4213-a7e3-e826cf4da97c","ios":"levelo://app?vid=3cd0d027-167a-4213-a7e3-e826cf4da97c"},"vehicle_type_id":"4","last_reported":1779086619,"current_range_meters":8000,"station_id":"ce4bhbh2rcd13ifvqepg","pricing_plan_id":"cebpf4jnsgd1na2vs0mg"},{"bike_id":"1cf1ee86-e977-44b7-bec9-c49e89bc2149","system_id":"levelo_inurba_marseille","lat":43.28938,"lon":5.36635,"is_reserved":false,"is_disabled":false,"rental_uris":{"android":"levelo://app?vid=1cf1ee86-e977-44b7-bec9-c49e89bc2149","ios":"levelo://app?vid=1cf1ee86-e977-44b7-bec9-c49e89bc2149"},"vehicle_type_id":"4","last_reported":1779086619,"current_range_meters":8000,"station_id":"ce4bhap2rcd13ifvqek0","pricing_plan_id":"cebpf4jnsgd1na2vs0mg"},{"bike_id":"53d328e6-3061-4556-b395-9c640e554306","system_id":"levelo_inurba_marseille","lat":43.30897,"lon":5.37162,"is_reserved":false,"is_disabled":false,"rental_uris":{"android":"levelo://app?vid=53d328e6-3061-4556-b395-9c640e554306","ios":"levelo://app?vid=53d328e6-3061-4556-b395-9c640e554306"},"vehicle_type_id":"4","last_reported":1779086619,"current_range_meters":8000,"station_id":"ce4bguh2rcd13ifvqckg","pricing_plan_id":"cebpf4jnsgd1na2vs0mg"},{"bike_id":"f0155b3f-a757-41e6-a885-d929684d0a3c","system_id":"levelo_inurba_marseille","lat":43.30605,"lon":5.36533,"is_reserved":false,"is_disabled":false,"rental_uris":{"android":"levelo://app?vid=f0155b3f-a757-41e6-a885-d929684d0a3c","ios":"levelo://app?vid=f0155b3f-a757-41e6-a885-d929684d0a3c"},"vehicle_type_id":"4","last_reported":1779086619,"current_range_meters":8000,"station_id":"","pricing_plan_id":"cebpf4jnsgd1na2vs0mg"},{"bike_id":"d44560ef-91da-49bd-a364-a5b2d02ccdca","system_id":"levelo_inurba_marseille","lat":43.32347,"lon":5.36744,"is_reserved":false,"is_disabled":false,"rental_uris":{"android":"levelo://app?vid=d44560ef-91da-49bd-a364-a5b2d02ccdca","ios":"levelo://app?vid=d44560ef-91da-49bd-a364-a5b2d02ccdca"},"vehicle_type_id":"4","last_reported":1779086619,"current_range_meters":8000,"station_id":"ce4bhsh2rcd13ifvqi2g","pricing_plan_id":"cebpf4jnsgd1na2vs0mg"},{"bike_id":"6af654b7-7a8b-457b-ad58-fba21b09801a","system_id":"levelo_inurba_marseille","lat":43.32117,"lon":5.36773,"is_reserved":false,"is_disabled":false,"rental_uris":{"android":"levelo://app?vid=6af654b7-7a8b-457b-ad58-fba21b09801a","ios":"levelo://app?vid=6af654b7-7a8b-457b-ad58-fba21b09801a"},"vehicle_type_id":"4","last_reported":1779086619,"current_range_meters":8000,"station_id":"ce4bhrh2rcd13ifvqhug","pricing_plan_id":"cebpf4jnsgd1na2vs0mg"},{"bike_id":"798da074-2928-4049-8acd-b5e87e9605d0","system_id":"levelo_inurba_marseille","lat":43.29249,"lon":5.37629,"is_reserved":false,"is_disabled":true,"rental_uris":{"android":"levelo://app?vid=798da074-2928-4049-8acd-b5e87e9605d0","ios":"levelo://app?vid=798da074-2928-4049-8acd-b5e87e9605d0"},"vehicle_type_id":"4","last_reported":1779086619,"current_range_meters":8000,"station_id":"ce4bgi12rcd13ifvqb80","pricing_plan_id":"cebpf4jnsgd1na2vs0mg"},{"bike_id":"4186dfeb-6486-452a-b576-6d84b6f3abc3","system_id":"levelo_inurba_marseille","lat":43.26193,"lon":5.37459,"is_reserved":false,"is_disabled":false,"rental_uris":{"android":"levelo://app?vid=4186dfeb-6486-452a-b576-6d84b6f3abc3","ios":"levelo://app?vid=4186dfeb-6486-452a-b576-6d84b6f3abc3"},"vehicle_type_id":"4","last_reported":1779086619,"current_range_meters":8000,"station_id":"ce4bhgp2rcd13ifvqfc0","pricing_plan_id":"cebpf4jnsgd1na2vs0mg"},{"bike_id":"81b0a0c2-2fa0-4ac6-86a3-ec68f8950e3d","system_id":"levelo_inurba_marseille","lat":43.23889,"lon":5.37443,"is_reserved":false,"is_disabled":false,"rental_uris":{"android":"levelo://app?vid=81b0a0c2-2fa0-4ac6-86a3-ec68f8950e3d","ios":"levelo://app?vid=81b0a0c2-2fa0-4ac6-86a3-ec68f8950e3d"},"vehicle_type_id":"4","last_reported":1779086619,"current_range_meters":8000,"station_id":"st_d6sm7csbq4hs73f8fpjg","pricing_plan_id":"cebpf4jnsgd1na2vs0mg"},{"bike_id":"e96bc043-e63e-4616-91fe-f2f7bc00b9f6","system_id":"levelo_inurba_marseille","lat":43.23893,"lon":5.3745,"is_reserved":false,"is_disabled":false,"rental_uris":{"android":"levelo://app?vid=e96bc043-e63e-4616-91fe-f2f7bc00b9f6","ios":"levelo://app?vid=e96bc043-e63e-4616-91fe-f2f7bc00b9f6"},"vehicle_type_id":"4","last_reported":1779086619,"current_range_meters":8000,"station_id":"st_d6sm7csbq4hs73f8fpjg","pricing_plan_id":"cebpf4jnsgd1na2vs0mg"},{"bike_id":"768c2783-7d24-499f-bf66-dc3759c5242d","system_id":"levelo_inurba_marseille","lat":43.30883,"lon":5.37193,"is_reserved":false,"is_disabled":false,"rental_uris":{"android":"levelo://app?vid=768c2783-7d24-499f-bf66-dc3759c5242d","ios":"levelo://app?vid=768c2783-7d24-499f-bf66-dc3759c5242d"},"vehicle_type_id":"4","last_reported":1779086619,"current_range_meters":8000,"station_id":"ce4bguh2rcd13ifvqckg","pricing_plan_id":"cebpf4jnsgd1na2vs0mg"},{"bike_id":"2645d477-87b8-4b40-9903-de1fc4e086c1","system_id":"levelo_inurba_marseille","lat":43.29592,"lon":5.38092,"is_reserved":false,"is_disabled":false,"rental_uris":{"android":"levelo://app?vid=2645d477-87b8-4b40-9903-de1fc4e086c1","ios":"levelo://app?vid=2645d477-87b8-4b40-9903-de1fc4e086c1"},"vehicle_type_id":"4","last_reported":1779086619,"current_range_meters":8000,"station_id":"ce4bgl12rcd13ifvqbo0","pricing_plan_id":"cebpf4jnsgd1na2vs0mg"},{"bike_id":"033509a1-ede6-4701-8a20-cefe5dd573c1","system_id":"levelo_inurba_marseille","lat":43.21185,"lon":5.35075,"is_reserved":false,"is_disabled":false,"rental_uris":{"android":"levelo://app?vid=033509a1-ede6-4701-8a20-cefe5dd573c1","ios":"levelo://app?vid=033509a1-ede6-4701-8a20-cefe5dd573c1"},"vehicle_type_id":"4","last_reported":1779086619,"current_range_meters":8000,"station_id":"st_cvj6sg6p6f1abm77japg","pricing_plan_id":"cebpf4jnsgd1na2vs0mg"},{"bike_id":"5a1c8a28-d79f-4b07-a4d8-bce75ba2c426","system_id":"levelo_inurba_marseille","lat":43.2586,"lon":5.39906,"is_reserved":false,"is_disabled":true,"rental_uris":{"android":"levelo://app?vid=5a1c8a28-d79f-4b07-a4d8-bce75ba2c426","ios":"levelo://app?vid=5a1c8a28-d79f-4b07-a4d8-bce75ba2c426"},"vehicle_type_id":"4","last_reported":1779086619,"current_range_meters":8400,"station_id":"ce4bhl92rcd13ifvqghg","pricing_plan_id":"cebpf4jnsgd1na2vs0mg"},{"bike_id":"f8948a05-ab8c-4d0a-b728-983c0f21cfff","system_id":"levelo_inurba_marseille","lat":43.29037,"lon":5.39977,"is_reserved":false,"is_disabled":false,"rental_uris":{"android":"levelo://app?vid=f8948a05-ab8c-4d0a-b728-983c0f21cfff","ios":"levelo://app?vid=f8948a05-ab8c-4d0a-b728-983c0f21cfff"},"vehicle_type_id":"4","last_reported":1779086619,"current_range_meters":8400,"station_id":"ce4bh392rcd13ifvqdm0","pricing_plan_id":"cebpf4jnsgd1na2vs0mg"},{"bike_id":"f2f3f8f6-38fc-47c9-826f-e86b969b86a1","system_id":"levelo_inurba_marseille","lat":43.266793,"lon":5.382684,"is_reserved":false,"is_disabled":false,"rental_uris":{"android":"levelo://app?vid=f2f3f8f6-38fc-47c9-826f-e86b969b86a1","ios":"levelo://app?vid=f2f3f8f6-38fc-47c9-826f-e86b969b86a1"},"vehicle_type_id":"4","last_reported":1779086619,"current_range_meters":8400,"station_id":"ce4bhgh2rcd13ifvqfa0","pricing_plan_id":"cebpf4jnsgd1na2vs0mg"},{"bike_id":"1f8259a9-7e55-4812-b53f-6d999496a759","system_id":"levelo_inurba_marseille","lat":43.2867,"lon":5.46671,"is_reserved":false,"is_disabled":false,"rental_uris":{"android":"levelo://app?vid=1f8259a9-7e55-4812-b53f-6d999496a759","ios":"levelo://app?vid=1f8259a9-7e55-4812-b53f-6d999496a759"},"vehicle_type_id":"4","last_reported":1779086619,"current_range_meters":8400,"station_id":"st_d6tc3vkotcvc738tfjhg","pricing_plan_id":"cebpf4jnsgd1na2vs0mg"},{"bike_id":"b370e321-f021-4e9b-9435-f1c4663337e2","system_id":"levelo_inurba_marseille","lat":43.29444,"lon":5.39749,"is_reserved":false,"is_disabled":false,"rental_uris":{"android":"levelo://app?vid=b370e321-f021-4e9b-9435-f1c4663337e2","ios":"levelo://app?vid=b370e321-f021-4e9b-9435-f1c4663337e2"},"vehicle_type_id":"4","last_reported":1779086619,"current_range_meters":8400,"station_id":"ce4bh3h2rcd13ifvqdo0","pricing_plan_id":"cebpf4jnsgd1na2vs0mg"},{"bike_id":"075e7f75-4dd3-41da-9c0b-9dc6a8e7d0f6","system_id":"levelo_inurba_marseille","lat":43.28473,"lon":5.3857,"is_reserved":false,"is_disabled":false,"rental_uris":{"android":"levelo://app?vid=075e7f75-4dd3-41da-9c0b-9dc6a8e7d0f6","ios":"levelo://app?vid=075e7f75-4dd3-41da-9c0b-9dc6a8e7d0f6"},"vehicle_type_id":"4","last_reported":1779086619,"current_range_meters":8400,"station_id":"ce4bh8p2rcd13ifvqeb0","pricing_plan_id":"cebpf4jnsgd1na2vs0mg"},{"bike_id":"1c2eb4d1-e613-4047-a77c-317fbe0accea","system_id":"levelo_inurba_marseille","lat":43.29261,"lon":5.38447,"is_reserved":false,"is_disabled":true,"rental_uris":{"android":"levelo://app?vid=1c2eb4d1-e613-4047-a77c-317fbe0accea","ios":"levelo://app?vid=1c2eb4d1-e613-4047-a77c-317fbe0accea"},"vehicle_type_id":"4","last_reported":1779086619,"current_range_meters":8400,"station_id":"ce4bh692rcd13ifvqea0","pricing_plan_id":"cebpf4jnsgd1na2vs0mg"},{"bike_id":"1a1ba533-80a9-4052-840b-41348399a807","system_id":"levelo_inurba_marseille","lat":43.29188,"lon":5.39329,"is_reserved":false,"is_disabled":false,"rental_uris":{"android":"levelo://app?vid=1a1ba533-80a9-4052-840b-41348399a807","ios":"levelo://app?vid=1a1ba533-80a9-4052-840b-41348399a807"},"vehicle_type_id":"4","last_reported":1779086619,"current_range_meters":8400,"station_id":"ce4bh192rcd13ifvqdd0","pricing_plan_id":"cebpf4jnsgd1na2vs0mg"},{"bike_id":"457ef386-5127-4e9c-a249-548ebc726408","system_id":"levelo_inurba_marseille","lat":43.27838,"lon":5.39201,"is_reserved":false,"is_disabled":false,"rental_uris":{"android":"levelo://app?vid=457ef386-5127-4e9c-a249-548ebc726408","ios":"levelo://app?vid=457ef386-5127-4e9c-a249-548ebc726408"},"vehicle_type_id":"4","last_reported":1779086619,"current_range_meters":8400,"station_id":"ce4bhjp2rcd13ifvqga0","pricing_plan_id":"cebpf4jnsgd1na2vs0mg"},{"bike_id":"19cf5c86-2ba5-4747-9069-858830f978a6","system_id":"levelo_inurba_marseille","lat":43.273293,"lon":5.39076,"is_reserved":false,"is_disabled":false,"rental_uris":{"android":"levelo://app?vid=19cf5c86-2ba5-4747-9069-858830f978a6","ios":"levelo://app?vid=19cf5c86-2ba5-4747-9069-858830f978a6"},"vehicle_type_id":"4","last_reported":1779086619,"current_range_meters":8400,"station_id":"ce4bhgp2rcd13ifvqfe0","pricing_plan_id":"cebpf4jnsgd1na2vs0mg"},{"bike_id":"a6b9e1d9-6a82-4e29-bc1a-b954c4448693","system_id":"levelo_inurba_marseille","lat":43.2533,"lon":5.42171,"is_reserved":false,"is_disabled":false,"rental_uris":{"android":"levelo://app?vid=a6b9e1d9-6a82-4e29-bc1a-b954c4448693","ios":"levelo://app?vid=a6b9e1d9-6a82-4e29-bc1a-b954c4448693"},"vehicle_type_id":"4","last_reported":1779086619,"current_range_meters":8400,"station_id":"st_d2m65c5bi1j21697t3ng","pricing_plan_id":"cebpf4jnsgd1na2vs0mg"},{"bike_id":"19842d59-a5ae-44a7-8ad3-69e494545f33","system_id":"levelo_inurba_marseille","lat":43.28705,"lon":5.39985,"is_reserved":false,"is_disabled":false,"rental_uris":{"android":"levelo://app?vid=19842d59-a5ae-44a7-8ad3-69e494545f33","ios":"levelo://app?vid=19842d59-a5ae-44a7-8ad3-69e494545f33"},"vehicle_type_id":"4","last_reported":1779086619,"current_range_meters":8400,"station_id":"ce4bho92rcd13ifvqh3g","pricing_plan_id":"cebpf4jnsgd1na2vs0mg"},{"bike_id":"3ffbca03-d979-4d9f-9fc0-f4a4f9b37c11","system_id":"levelo_inurba_marseille","lat":43.21189,"lon":5.3507,"is_reserved":false,"is_disabled":false,"rental_uris":{"android":"levelo://app?vid=3ffbca03-d979-4d9f-9fc0-f4a4f9b37c11","ios":"levelo://app?vid=3ffbca03-d979-4d9f-9fc0-f4a4f9b37c11"},"vehicle_type_id":"4","last_reported":1779086619,"current_range_meters":8400,"station_id":"st_cvj6sg6p6f1abm77japg","pricing_plan_id":"cebpf4jnsgd1na2vs0mg"},{"bike_id":"ba3fd945-6121-444a-96df-1aedd34d6a9d","system_id":"levelo_inurba_marseille","lat":43.30909,"lon":5.36833,"is_reserved":false,"is_disabled":false,"rental_uris":{"android":"levelo://app?vid=ba3fd945-6121-444a-96df-1aedd34d6a9d","ios":"levelo://app?vid=ba3fd945-6121-444a-96df-1aedd34d6a9d"},"vehicle_type_id":"4","last_reported":1779086619,"current_range_meters":8400,"station_id":"ce4bgn92rcd13ifvqbvg","pricing_plan_id":"cebpf4jnsgd1na2vs0mg"},{"bike_id":"434c7eae-7ae8-45a1-b0f2-9e8633562c91","system_id":"levelo_inurba_marseille","lat":43.30614,"lon":5.39882,"is_reserved":false,"is_disabled":false,"rental_uris":{"android":"levelo://app?vid=434c7eae-7ae8-45a1-b0f2-9e8633562c91","ios":"levelo://app?vid=434c7eae-7ae8-45a1-b0f2-9e8633562c91"},"vehicle_type_id":"4","last_reported":1779086619,"current_range_meters":8400,"station_id":"","pricing_plan_id":"cebpf4jnsgd1na2vs0mg"},{"bike_id":"c53171e6-0e0c-45d8-91a9-47d6bce532ad","system_id":"levelo_inurba_marseille","lat":43.27991,"lon":5.38672,"is_reserved":false,"is_disabled":true,"rental_uris":{"android":"levelo://app?vid=c53171e6-0e0c-45d8-91a9-47d6bce532ad","ios":"levelo://app?vid=c53171e6-0e0c-45d8-91a9-47d6bce532ad"},"vehicle_type_id":"4","last_reported":1779086619,"current_range_meters":8400,"station_id":"","pricing_plan_id":"cebpf4jnsgd1na2vs0mg"},{"bike_id":"cd219607-773c-4799-a92d-dbc4c52ab9bd","system_id":"levelo_inurba_marseille","lat":43.26559,"lon":5.37281,"is_reserved":false,"is_disabled":false,"rental_uris":{"android":"levelo://app?vid=cd219607-773c-4799-a92d-dbc4c52ab9bd","ios":"levelo://app?vid=cd219607-773c-4799-a92d-dbc4c52ab9bd"},"vehicle_type_id":"4","last_reported":1779086619,"current_range_meters":8400,"station_id":"ce4bhg12rcd13ifvqf70","pricing_plan_id":"cebpf4jnsgd1na2vs0mg"},{"bike_id":"a6da276e-77b7-4835-9c60-ea98a9773108","system_id":"levelo_inurba_marseille","lat":43.30881,"lon":5.37186,"is_reserved":false,"is_disabled":false,"rental_uris":{"android":"levelo://app?vid=a6da276e-77b7-4835-9c60-ea98a9773108","ios":"levelo://app?vid=a6da276e-77b7-4835-9c60-ea98a9773108"},"vehicle_type_id":"4","last_reported":1779086619,"current_range_meters":8400,"station_id":"ce4bguh2rcd13ifvqckg","pricing_plan_id":"cebpf4jnsgd1na2vs0mg"},{"bike_id":"9c0b5568-112f-4925-adf1-e9e3b0d18590","system_id":"levelo_inurba_marseille","lat":43.21189,"lon":5.35075,"is_reserved":false,"is_disabled":false,"rental_uris":{"android":"levelo://app?vid=9c0b5568-112f-4925-adf1-e9e3b0d18590","ios":"levelo://app?vid=9c0b5568-112f-4925-adf1-e9e3b0d18590"},"vehicle_type_id":"4","last_reported":1779086619,"current_range_meters":8400,"station_id":"st_cvj6sg6p6f1abm77japg","pricing_plan_id":"cebpf4jnsgd1na2vs0mg"},{"bike_id":"2c45cdfe-3801-49e2-ae95-dae8d92412c9","system_id":"levelo_inurba_marseille","lat":43.24387,"lon":5.37016,"is_reserved":false,"is_disabled":false,"rental_uris":{"android":"levelo://app?vid=2c45cdfe-3801-49e2-ae95-dae8d92412c9","ios":"levelo://app?vid=2c45cdfe-3801-49e2-ae95-dae8d92412c9"},"vehicle_type_id":"4","last_reported":1779086619,"current_range_meters":8400,"station_id":"ce4bhhh2rcd13ifvqfk0","pricing_plan_id":"cebpf4jnsgd1na2vs0mg"},{"bike_id":"b87b6bb0-ac8d-40ae-a743-44ff42d82ec9","system_id":"levelo_inurba_marseille","lat":43.30211,"lon":5.39473,"is_reserved":false,"is_disabled":false,"rental_uris":{"android":"levelo://app?vid=b87b6bb0-ac8d-40ae-a743-44ff42d82ec9","ios":"levelo://app?vid=b87b6bb0-ac8d-40ae-a743-44ff42d82ec9"},"vehicle_type_id":"4","last_reported":1779086619,"current_range_meters":8400,"station_id":"ce4bh0p2rcd13ifvqd70","pricing_plan_id":"cebpf4jnsgd1na2vs0mg"},{"bike_id":"2eeb2bbf-1556-4ef3-ae1d-3e0071d80639","system_id":"levelo_inurba_marseille","lat":43.29779,"lon":5.38104,"is_reserved":false,"is_disabled":true,"rental_uris":{"android":"levelo://app?vid=2eeb2bbf-1556-4ef3-ae1d-3e0071d80639","ios":"levelo://app?vid=2eeb2bbf-1556-4ef3-ae1d-3e0071d80639"},"vehicle_type_id":"4","last_reported":1779086619,"current_range_meters":8400,"station_id":"ce4bgip2rcd13ifvqbb0","pricing_plan_id":"cebpf4jnsgd1na2vs0mg"},{"bike_id":"f812c619-1840-4fe8-80ce-17ce041f133c","system_id":"levelo_inurba_marseille","lat":43.2407,"lon":5.37785,"is_reserved":false,"is_disabled":false,"rental_uris":{"android":"levelo://app?vid=f812c619-1840-4fe8-80ce-17ce041f133c","ios":"levelo://app?vid=f812c619-1840-4fe8-80ce-17ce041f133c"},"vehicle_type_id":"4","last_reported":1779086619,"current_range_meters":8400,"station_id":"ce4bhnp2rcd13ifvqgvg","pricing_plan_id":"cebpf4jnsgd1na2vs0mg"},{"bike_id":"97c69175-d1ad-40e4-8f81-c03384638a19","system_id":"levelo_inurba_marseille","lat":43.31356,"lon":5.36706,"is_reserved":false,"is_disabled":false,"rental_uris":{"android":"levelo://app?vid=97c69175-d1ad-40e4-8f81-c03384638a19","ios":"levelo://app?vid=97c69175-d1ad-40e4-8f81-c03384638a19"},"vehicle_type_id":"4","last_reported":1779086619,"current_range_meters":8400,"station_id":"ce4bgr92rcd13ifvqc6g","pricing_plan_id":"cebpf4jnsgd1na2vs0mg"},{"bike_id":"3935f793-d43d-488c-a01a-3a00a4c75a46","system_id":"levelo_inurba_marseille","lat":43.295327,"lon":5.385576,"is_reserved":false,"is_disabled":false,"rental_uris":{"android":"levelo://app?vid=3935f793-d43d-488c-a01a-3a00a4c75a46","ios":"levelo://app?vid=3935f793-d43d-488c-a01a-3a00a4c75a46"},"vehicle_type_id":"4","last_reported":1779086619,"current_range_meters":8800,"station_id":"ce4bgih2rcd13ifvqba0","pricing_plan_id":"cebpf4jnsgd1na2vs0mg"},{"bike_id":"75efe605-5258-498d-bb66-7e6c47458e93","system_id":"levelo_inurba_marseille","lat":43.22568,"lon":5.4162,"is_reserved":false,"is_disabled":false,"rental_uris":{"android":"levelo://app?vid=75efe605-5258-498d-bb66-7e6c47458e93","ios":"levelo://app?vid=75efe605-5258-498d-bb66-7e6c47458e93"},"vehicle_type_id":"4","last_reported":1779086619,"current_range_meters":8800,"station_id":"st_d2o4gvlbi1j2169b742g","pricing_plan_id":"cebpf4jnsgd1na2vs0mg"},{"bike_id":"8230f30e-4478-4fee-a10b-0de3352570b4","system_id":"levelo_inurba_marseille","lat":43.21184,"lon":5.35075,"is_reserved":false,"is_disabled":true,"rental_uris":{"android":"levelo://app?vid=8230f30e-4478-4fee-a10b-0de3352570b4","ios":"levelo://app?vid=8230f30e-4478-4fee-a10b-0de3352570b4"},"vehicle_type_id":"4","last_reported":1779086619,"current_range_meters":8800,"station_id":"st_cvj6sg6p6f1abm77japg","pricing_plan_id":"cebpf4jnsgd1na2vs0mg"},{"bike_id":"e56d414c-1dc9-49a5-964e-c511fe18ba6c","system_id":"levelo_inurba_marseille","lat":43.25116,"lon":5.40311,"is_reserved":false,"is_disabled":false,"rental_uris":{"android":"levelo://app?vid=e56d414c-1dc9-49a5-964e-c511fe18ba6c","ios":"levelo://app?vid=e56d414c-1dc9-49a5-964e-c511fe18ba6c"},"vehicle_type_id":"4","last_reported":1779086619,"current_range_meters":8800,"station_id":"ce4bhlh2rcd13ifvqgig","pricing_plan_id":"cebpf4jnsgd1na2vs0mg"},{"bike_id":"bcd34872-f296-4c7a-a353-d812b00ed4f4","system_id":"levelo_inurba_marseille","lat":43.3172,"lon":5.40381,"is_reserved":false,"is_disabled":false,"rental_uris":{"android":"levelo://app?vid=bcd34872-f296-4c7a-a353-d812b00ed4f4","ios":"levelo://app?vid=bcd34872-f296-4c7a-a353-d812b00ed4f4"},"vehicle_type_id":"4","last_reported":1779086619,"current_range_meters":8800,"station_id":"ce4bh012rcd13ifvqd00","pricing_plan_id":"cebpf4jnsgd1na2vs0mg"},{"bike_id":"17ba3c19-387f-4e2e-b73c-a02294ccdd28","system_id":"levelo_inurba_marseille","lat":43.22568,"lon":5.41641,"is_reserved":false,"is_disabled":false,"rental_uris":{"android":"levelo://app?vid=17ba3c19-387f-4e2e-b73c-a02294ccdd28","ios":"levelo://app?vid=17ba3c19-387f-4e2e-b73c-a02294ccdd28"},"vehicle_type_id":"4","last_reported":1779086619,"current_range_meters":8800,"station_id":"st_d2o4gvlbi1j2169b742g","pricing_plan_id":"cebpf4jnsgd1na2vs0mg"},{"bike_id":"9e2fe2f7-d6df-4ab9-966a-e0a262530a00","system_id":"levelo_inurba_marseille","lat":43.24801,"lon":5.37459,"is_reserved":false,"is_disabled":false,"rental_uris":{"android":"levelo://app?vid=9e2fe2f7-d6df-4ab9-966a-e0a262530a00","ios":"levelo://app?vid=9e2fe2f7-d6df-4ab9-966a-e0a262530a00"},"vehicle_type_id":"4","last_reported":1779086619,"current_range_meters":8800,"station_id":"ce4bhgh2rcd13ifvqfb0","pricing_plan_id":"cebpf4jnsgd1na2vs0mg"},{"bike_id":"fecbad9b-de34-45b5-aec9-0d12e826acd8","system_id":"levelo_inurba_marseille","lat":43.21186,"lon":5.35072,"is_reserved":false,"is_disabled":true,"rental_uris":{"android":"levelo://app?vid=fecbad9b-de34-45b5-aec9-0d12e826acd8","ios":"levelo://app?vid=fecbad9b-de34-45b5-aec9-0d12e826acd8"},"vehicle_type_id":"4","last_reported":1779086619,"current_range_meters":8800,"station_id":"st_cvj6sg6p6f1abm77japg","pricing_plan_id":"cebpf4jnsgd1na2vs0mg"},{"bike_id":"44eeaa05-498c-44d2-b86e-caba013d027b","system_id":"levelo_inurba_marseille","lat":43.29759,"lon":5.42772,"is_reserved":false,"is_disabled":false,"rental_uris":{"android":"levelo://app?vid=44eeaa05-498c-44d2-b86e-caba013d027b","ios":"levelo://app?vid=44eeaa05-498c-44d2-b86e-caba013d027b"},"vehicle_type_id":"4","last_reported":1779086619,"current_range_meters":8800,"station_id":"st_d3md5207bmas73dh9klg","pricing_plan_id":"cebpf4jnsgd1na2vs0mg"},{"bike_id":"1778bc71-bd85-4eb7-9ae8-824d7542fb47","system_id":"levelo_inurba_marseille","lat":43.28709,"lon":5.46686,"is_reserved":false,"is_disabled":false,"rental_uris":{"android":"levelo://app?vid=1778bc71-bd85-4eb7-9ae8-824d7542fb47","ios":"levelo://app?vid=1778bc71-bd85-4eb7-9ae8-824d7542fb47"},"vehicle_type_id":"4","last_reported":1779086619,"current_range_meters":8800,"station_id":"st_d6tc3vkotcvc738tfjhg","pricing_plan_id":"cebpf4jnsgd1na2vs0mg"},{"bike_id":"03c2d8fc-7d35-4b2f-831a-af70afe52afe","system_id":"levelo_inurba_marseille","lat":43.29044,"lon":5.39965,"is_reserved":false,"is_disabled":false,"rental_uris":{"android":"levelo://app?vid=03c2d8fc-7d35-4b2f-831a-af70afe52afe","ios":"levelo://app?vid=03c2d8fc-7d35-4b2f-831a-af70afe52afe"},"vehicle_type_id":"4","last_reported":1779086619,"current_range_meters":8800,"station_id":"ce4bh392rcd13ifvqdm0","pricing_plan_id":"cebpf4jnsgd1na2vs0mg"},{"bike_id":"bc57aac8-3628-4240-8a03-0ec35ddd6126","system_id":"levelo_inurba_marseille","lat":43.27208,"lon":5.39177,"is_reserved":false,"is_disabled":false,"rental_uris":{"android":"levelo://app?vid=bc57aac8-3628-4240-8a03-0ec35ddd6126","ios":"levelo://app?vid=bc57aac8-3628-4240-8a03-0ec35ddd6126"},"vehicle_type_id":"4","last_reported":1779086619,"current_range_meters":8800,"station_id":"ce4bhhp2rcd13ifvqfm0","pricing_plan_id":"cebpf4jnsgd1na2vs0mg"},{"bike_id":"364bafbf-4f7b-4b3c-93d3-c1740d8bca01","system_id":"levelo_inurba_marseille","lat":43.295903,"lon":5.375997,"is_reserved":false,"is_disabled":false,"rental_uris":{"android":"levelo://app?vid=364bafbf-4f7b-4b3c-93d3-c1740d8bca01","ios":"levelo://app?vid=364bafbf-4f7b-4b3c-93d3-c1740d8bca01"},"vehicle_type_id":"4","last_reported":1779086619,"current_range_meters":8800,"station_id":"ce4bgs12rcd13ifvqcag","pricing_plan_id":"cebpf4jnsgd1na2vs0mg"},{"bike_id":"7ae4fa07-9b4a-4010-9c63-da2e4c144c99","system_id":"levelo_inurba_marseille","lat":43.24951,"lon":5.40485,"is_reserved":false,"is_disabled":false,"rental_uris":{"android":"levelo://app?vid=7ae4fa07-9b4a-4010-9c63-da2e4c144c99","ios":"levelo://app?vid=7ae4fa07-9b4a-4010-9c63-da2e4c144c99"},"vehicle_type_id":"4","last_reported":1779086619,"current_range_meters":8800,"station_id":"st_d2ngiaodas8pm72gd1h0","pricing_plan_id":"cebpf4jnsgd1na2vs0mg"},{"bike_id":"650d4325-cb16-45bb-bf60-9df050ade8d6","system_id":"levelo_inurba_marseille","lat":43.28154,"lon":5.42646,"is_reserved":false,"is_disabled":false,"rental_uris":{"android":"levelo://app?vid=650d4325-cb16-45bb-bf60-9df050ade8d6","ios":"levelo://app?vid=650d4325-cb16-45bb-bf60-9df050ade8d6"},"vehicle_type_id":"4","last_reported":1779086619,"current_range_meters":8800,"station_id":"ce4bhnh2rcd13ifvqgug","pricing_plan_id":"cebpf4jnsgd1na2vs0mg"},{"bike_id":"227b126f-efaf-422d-a694-0785dbb77026","system_id":"levelo_inurba_marseille","lat":43.24393,"lon":5.37053,"is_reserved":false,"is_disabled":false,"rental_uris":{"android":"levelo://app?vid=227b126f-efaf-422d-a694-0785dbb77026","ios":"levelo://app?vid=227b126f-efaf-422d-a694-0785dbb77026"},"vehicle_type_id":"4","last_reported":1779086619,"current_range_meters":8800,"station_id":"ce4bhhh2rcd13ifvqfk0","pricing_plan_id":"cebpf4jnsgd1na2vs0mg"},{"bike_id":"0996956d-2f84-4490-b61d-b12efce54d59","system_id":"levelo_inurba_marseille","lat":43.23956,"lon":5.36673,"is_reserved":false,"is_disabled":false,"rental_uris":{"android":"levelo://app?vid=0996956d-2f84-4490-b61d-b12efce54d59","ios":"levelo://app?vid=0996956d-2f84-4490-b61d-b12efce54d59"},"vehicle_type_id":"4","last_reported":1779086619,"current_range_meters":9200,"station_id":"ce4bhi12rcd13ifvqfp0","pricing_plan_id":"cebpf4jnsgd1na2vs0mg"},{"bike_id":"d330ebaf-89a2-4938-8fb2-a03c97594a54","system_id":"levelo_inurba_marseille","lat":43.28977,"lon":5.37614,"is_reserved":false,"is_disabled":false,"rental_uris":{"android":"levelo://app?vid=d330ebaf-89a2-4938-8fb2-a03c97594a54","ios":"levelo://app?vid=d330ebaf-89a2-4938-8fb2-a03c97594a54"},"vehicle_type_id":"4","last_reported":1779086619,"current_range_meters":9200,"station_id":"","pricing_plan_id":"cebpf4jnsgd1na2vs0mg"},{"bike_id":"eb0ca4b0-f746-4d2a-8aa9-ca452a9cbf80","system_id":"levelo_inurba_marseille","lat":43.29708,"lon":5.4135,"is_reserved":false,"is_disabled":false,"rental_uris":{"android":"levelo://app?vid=eb0ca4b0-f746-4d2a-8aa9-ca452a9cbf80","ios":"levelo://app?vid=eb0ca4b0-f746-4d2a-8aa9-ca452a9cbf80"},"vehicle_type_id":"4","last_reported":1779086619,"current_range_meters":9200,"station_id":"","pricing_plan_id":"cebpf4jnsgd1na2vs0mg"},{"bike_id":"910febf5-ee2b-4596-b21d-c771e4f48c52","system_id":"levelo_inurba_marseille","lat":43.26954,"lon":5.38634,"is_reserved":false,"is_disabled":false,"rental_uris":{"android":"levelo://app?vid=910febf5-ee2b-4596-b21d-c771e4f48c52","ios":"levelo://app?vid=910febf5-ee2b-4596-b21d-c771e4f48c52"},"vehicle_type_id":"4","last_reported":1779086619,"current_range_meters":9200,"station_id":"ce4bhh92rcd13ifvqfh0","pricing_plan_id":"cebpf4jnsgd1na2vs0mg"},{"bike_id":"5eb11d83-2461-40c2-9484-0a35868d2011","system_id":"levelo_inurba_marseille","lat":43.2975,"lon":5.42769,"is_reserved":false,"is_disabled":true,"rental_uris":{"android":"levelo://app?vid=5eb11d83-2461-40c2-9484-0a35868d2011","ios":"levelo://app?vid=5eb11d83-2461-40c2-9484-0a35868d2011"},"vehicle_type_id":"4","last_reported":1779086619,"current_range_meters":9200,"station_id":"st_d3md5207bmas73dh9klg","pricing_plan_id":"cebpf4jnsgd1na2vs0mg"},{"bike_id":"2dce65cd-bdd0-4a47-9756-d5f1f5f9ad1e","system_id":"levelo_inurba_marseille","lat":43.225329,"lon":5.348395,"is_reserved":false,"is_disabled":false,"rental_uris":{"android":"levelo://app?vid=2dce65cd-bdd0-4a47-9756-d5f1f5f9ad1e","ios":"levelo://app?vid=2dce65cd-bdd0-4a47-9756-d5f1f5f9ad1e"},"vehicle_type_id":"4","last_reported":1779086619,"current_range_meters":9200,"station_id":"st_cvj5dfep6f1abm77gieg","pricing_plan_id":"cebpf4jnsgd1na2vs0mg"},{"bike_id":"3fd9bb92-967a-41ce-ba71-b644a0866d6a","system_id":"levelo_inurba_marseille","lat":43.243854,"lon":5.370527,"is_reserved":false,"is_disabled":false,"rental_uris":{"android":"levelo://app?vid=3fd9bb92-967a-41ce-ba71-b644a0866d6a","ios":"levelo://app?vid=3fd9bb92-967a-41ce-ba71-b644a0866d6a"},"vehicle_type_id":"4","last_reported":1779086619,"current_range_meters":9200,"station_id":"ce4bhhh2rcd13ifvqfk0","pricing_plan_id":"cebpf4jnsgd1na2vs0mg"},{"bike_id":"d806e66e-9e11-4890-8441-2ff423db016c","system_id":"levelo_inurba_marseille","lat":43.305307,"lon":5.367253,"is_reserved":false,"is_disabled":false,"rental_uris":{"android":"levelo://app?vid=d806e66e-9e11-4890-8441-2ff423db016c","ios":"levelo://app?vid=d806e66e-9e11-4890-8441-2ff423db016c"},"vehicle_type_id":"4","last_reported":1779086619,"current_range_meters":9200,"station_id":"ce4bgn92rcd13ifvqbvg","pricing_plan_id":"cebpf4jnsgd1na2vs0mg"},{"bike_id":"adcaa26e-ac75-4bb5-8820-bf51f351640c","system_id":"levelo_inurba_marseille","lat":43.24637,"lon":5.4314,"is_reserved":false,"is_disabled":false,"rental_uris":{"android":"levelo://app?vid=adcaa26e-ac75-4bb5-8820-bf51f351640c","ios":"levelo://app?vid=adcaa26e-ac75-4bb5-8820-bf51f351640c"},"vehicle_type_id":"4","last_reported":1779086619,"current_range_meters":9200,"station_id":"st_d2m6c4gdas8pm72e190g","pricing_plan_id":"cebpf4jnsgd1na2vs0mg"},{"bike_id":"b9ca77f1-80fa-475b-9a37-ec72feacc5df","system_id":"levelo_inurba_marseille","lat":43.29799,"lon":5.44054,"is_reserved":false,"is_disabled":false,"rental_uris":{"android":"levelo://app?vid=b9ca77f1-80fa-475b-9a37-ec72feacc5df","ios":"levelo://app?vid=b9ca77f1-80fa-475b-9a37-ec72feacc5df"},"vehicle_type_id":"4","last_reported":1779086619,"current_range_meters":9200,"station_id":"st_d3jp68qikq2c7381ktn0","pricing_plan_id":"cebpf4jnsgd1na2vs0mg"},{"bike_id":"7104400b-8be0-422b-a12b-aa96d7afc5dc","system_id":"levelo_inurba_marseille","lat":43.2454,"lon":5.3954,"is_reserved":false,"is_disabled":false,"rental_uris":{"android":"levelo://app?vid=7104400b-8be0-422b-a12b-aa96d7afc5dc","ios":"levelo://app?vid=7104400b-8be0-422b-a12b-aa96d7afc5dc"},"vehicle_type_id":"4","last_reported":1779086619,"current_range_meters":9200,"station_id":"ce4bhlp2rcd13ifvqgjg","pricing_plan_id":"cebpf4jnsgd1na2vs0mg"},{"bike_id":"81233419-72f7-49ef-bc9a-f51c3ee0acb9","system_id":"levelo_inurba_marseille","lat":43.24643,"lon":5.38894,"is_reserved":false,"is_disabled":false,"rental_uris":{"android":"levelo://app?vid=81233419-72f7-49ef-bc9a-f51c3ee0acb9","ios":"levelo://app?vid=81233419-72f7-49ef-bc9a-f51c3ee0acb9"},"vehicle_type_id":"4","last_reported":1779086619,"current_range_meters":9200,"station_id":"ce4bhg12rcd13ifvqf60","pricing_plan_id":"cebpf4jnsgd1na2vs0mg"},{"bike_id":"2d99999a-48c3-482e-be79-64becc72ea2d","system_id":"levelo_inurba_marseille","lat":43.30555,"lon":5.36559,"is_reserved":false,"is_disabled":false,"rental_uris":{"android":"levelo://app?vid=2d99999a-48c3-482e-be79-64becc72ea2d","ios":"levelo://app?vid=2d99999a-48c3-482e-be79-64becc72ea2d"},"vehicle_type_id":"4","last_reported":1779086619,"current_range_meters":9200,"station_id":"ce4bgs12rcd13ifvqcag","pricing_plan_id":"cebpf4jnsgd1na2vs0mg"},{"bike_id":"c0d467e6-6fef-4d21-8af4-af3c30cfe717","system_id":"levelo_inurba_marseille","lat":43.29794,"lon":5.36497,"is_reserved":false,"is_disabled":false,"rental_uris":{"android":"levelo://app?vid=c0d467e6-6fef-4d21-8af4-af3c30cfe717","ios":"levelo://app?vid=c0d467e6-6fef-4d21-8af4-af3c30cfe717"},"vehicle_type_id":"4","last_reported":1779086619,"current_range_meters":9200,"station_id":"","pricing_plan_id":"cebpf4jnsgd1na2vs0mg"},{"bike_id":"045cb5aa-dd76-4bc3-acdc-8dd92238b0e6","system_id":"levelo_inurba_marseille","lat":43.24386,"lon":5.37051,"is_reserved":false,"is_disabled":false,"rental_uris":{"android":"levelo://app?vid=045cb5aa-dd76-4bc3-acdc-8dd92238b0e6","ios":"levelo://app?vid=045cb5aa-dd76-4bc3-acdc-8dd92238b0e6"},"vehicle_type_id":"4","last_reported":1779086619,"current_range_meters":9200,"station_id":"ce4bhhh2rcd13ifvqfk0","pricing_plan_id":"cebpf4jnsgd1na2vs0mg"},{"bike_id":"2ef5e30a-164c-4daf-9db4-10cf34da13b1","system_id":"levelo_inurba_marseille","lat":43.32534,"lon":5.41445,"is_reserved":false,"is_disabled":false,"rental_uris":{"android":"levelo://app?vid=2ef5e30a-164c-4daf-9db4-10cf34da13b1","ios":"levelo://app?vid=2ef5e30a-164c-4daf-9db4-10cf34da13b1"},"vehicle_type_id":"4","last_reported":1779086619,"current_range_meters":9200,"station_id":"ce4bhq12rcd13ifvqhhg","pricing_plan_id":"cebpf4jnsgd1na2vs0mg"},{"bike_id":"007212f2-9a7c-40e2-b989-9e84174f451c","system_id":"levelo_inurba_marseille","lat":43.24668,"lon":5.38168,"is_reserved":false,"is_disabled":false,"rental_uris":{"android":"levelo://app?vid=007212f2-9a7c-40e2-b989-9e84174f451c","ios":"levelo://app?vid=007212f2-9a7c-40e2-b989-9e84174f451c"},"vehicle_type_id":"4","last_reported":1779086619,"current_range_meters":9200,"station_id":"ce4bhih2rcd13ifvqfr0","pricing_plan_id":"cebpf4jnsgd1na2vs0mg"},