{"last_updated":1767082620,"ttl":60,"version":"2.2","data":{"bikes":[{"bike_id":"1d388c53-6677-4e99-b705-209942fec5ad","system_id":"levelo_inurba_marseille","lat":43.31231,"lon":5.38085,"is_reserved":false,"is_disabled":false,"rental_uris":{"android":"levelo://app?vid=1d388c53-6677-4e99-b705-209942fec5ad","ios":"levelo://app?vid=1d388c53-6677-4e99-b705-209942fec5ad"},"vehicle_type_id":"4","last_reported":1767082621,"current_range_meters":2800,"station_id":"ce4bh312rcd13ifvqdj0","pricing_plan_id":"cebpf4jnsgd1na2vs0mg"},{"bike_id":"607908dd-2d9b-423b-b8e7-66bc0d8b8799","system_id":"levelo_inurba_marseille","lat":43.28685,"lon":5.38714,"is_reserved":false,"is_disabled":false,"rental_uris":{"android":"levelo://app?vid=607908dd-2d9b-423b-b8e7-66bc0d8b8799","ios":"levelo://app?vid=607908dd-2d9b-423b-b8e7-66bc0d8b8799"},"vehicle_type_id":"4","last_reported":1767082621,"current_range_meters":2800,"station_id":"ce4bh492rcd13ifvqdug","pricing_plan_id":"cebpf4jnsgd1na2vs0mg"},{"bike_id":"17a49efb-d179-4b85-b20c-4afe87c0613f","system_id":"levelo_inurba_marseille","lat":43.310524,"lon":5.371875,"is_reserved":false,"is_disabled":false,"rental_uris":{"android":"levelo://app?vid=17a49efb-d179-4b85-b20c-4afe87c0613f","ios":"levelo://app?vid=17a49efb-d179-4b85-b20c-4afe87c0613f"},"vehicle_type_id":"4","last_reported":1767082621,"current_range_meters":2800,"station_id":"st_d4kl2rp97mjs73e7tdfg","pricing_plan_id":"cebpf4jnsgd1na2vs0mg"},{"bike_id":"87bc81ec-9658-4d7d-804b-727f12ea9e7f","system_id":"levelo_inurba_marseille","lat":43.24166,"lon":5.39733,"is_reserved":false,"is_disabled":false,"rental_uris":{"android":"levelo://app?vid=87bc81ec-9658-4d7d-804b-727f12ea9e7f","ios":"levelo://app?vid=87bc81ec-9658-4d7d-804b-727f12ea9e7f"},"vehicle_type_id":"4","last_reported":1767082621,"current_range_meters":2800,"station_id":"ce4bhn12rcd13ifvqgpg","pricing_plan_id":"cebpf4jnsgd1na2vs0mg"},{"bike_id":"7865f5c4-e3c9-451a-92ec-af55109c2872","system_id":"levelo_inurba_marseille","lat":43.27685,"lon":5.38866,"is_reserved":false,"is_disabled":false,"rental_uris":{"android":"levelo://app?vid=7865f5c4-e3c9-451a-92ec-af55109c2872","ios":"levelo://app?vid=7865f5c4-e3c9-451a-92ec-af55109c2872"},"vehicle_type_id":"4","last_reported":1767082621,"current_range_meters":3200,"station_id":"ce4bhi12rcd13ifvqfo0","pricing_plan_id":"cebpf4jnsgd1na2vs0mg"},{"bike_id":"c93bbf3c-9650-44c3-9782-9bef181a9bed","system_id":"levelo_inurba_marseille","lat":43.24763,"lon":5.37564,"is_reserved":false,"is_disabled":false,"rental_uris":{"android":"levelo://app?vid=c93bbf3c-9650-44c3-9782-9bef181a9bed","ios":"levelo://app?vid=c93bbf3c-9650-44c3-9782-9bef181a9bed"},"vehicle_type_id":"4","last_reported":1767082621,"current_range_meters":3200,"station_id":"","pricing_plan_id":"cebpf4jnsgd1na2vs0mg"},{"bike_id":"d5eb7ea9-5123-4837-ae8e-a8251928e11c","system_id":"levelo_inurba_marseille","lat":43.31369,"lon":5.36729,"is_reserved":false,"is_disabled":false,"rental_uris":{"android":"levelo://app?vid=d5eb7ea9-5123-4837-ae8e-a8251928e11c","ios":"levelo://app?vid=d5eb7ea9-5123-4837-ae8e-a8251928e11c"},"vehicle_type_id":"4","last_reported":1767082621,"current_range_meters":3600,"station_id":"ce4bgr92rcd13ifvqc6g","pricing_plan_id":"cebpf4jnsgd1na2vs0mg"},{"bike_id":"b8359eb8-309f-4919-a9d8-14bc8a289068","system_id":"levelo_inurba_marseille","lat":43.29845,"lon":5.381046,"is_reserved":false,"is_disabled":false,"rental_uris":{"android":"levelo://app?vid=b8359eb8-309f-4919-a9d8-14bc8a289068","ios":"levelo://app?vid=b8359eb8-309f-4919-a9d8-14bc8a289068"},"vehicle_type_id":"4","last_reported":1767082621,"current_range_meters":3600,"station_id":"","pricing_plan_id":"cebpf4jnsgd1na2vs0mg"},{"bike_id":"a901ea15-1fde-4155-bf84-ca68ea13335d","system_id":"levelo_inurba_marseille","lat":43.28233,"lon":5.39075,"is_reserved":false,"is_disabled":false,"rental_uris":{"android":"levelo://app?vid=a901ea15-1fde-4155-bf84-ca68ea13335d","ios":"levelo://app?vid=a901ea15-1fde-4155-bf84-ca68ea13335d"},"vehicle_type_id":"4","last_reported":1767082621,"current_range_meters":3600,"station_id":"ce4bhn92rcd13ifvqgsg","pricing_plan_id":"cebpf4jnsgd1na2vs0mg"},{"bike_id":"08f4624a-a23d-4738-b794-a8bd53bfd7e8","system_id":"levelo_inurba_marseille","lat":43.298458,"lon":5.376545,"is_reserved":false,"is_disabled":false,"rental_uris":{"android":"levelo://app?vid=08f4624a-a23d-4738-b794-a8bd53bfd7e8","ios":"levelo://app?vid=08f4624a-a23d-4738-b794-a8bd53bfd7e8"},"vehicle_type_id":"4","last_reported":1767082621,"current_range_meters":4000,"station_id":"","pricing_plan_id":"cebpf4jnsgd1na2vs0mg"},{"bike_id":"0fdd0e2d-569f-400f-aa1a-abb1bbad6613","system_id":"levelo_inurba_marseille","lat":43.28479,"lon":5.38403,"is_reserved":false,"is_disabled":false,"rental_uris":{"android":"levelo://app?vid=0fdd0e2d-569f-400f-aa1a-abb1bbad6613","ios":"levelo://app?vid=0fdd0e2d-569f-400f-aa1a-abb1bbad6613"},"vehicle_type_id":"4","last_reported":1767082621,"current_range_meters":4000,"station_id":"ce4bh512rcd13ifvqe3g","pricing_plan_id":"cebpf4jnsgd1na2vs0mg"},{"bike_id":"36e3ab74-d85b-46de-9904-53928a1da310","system_id":"levelo_inurba_marseille","lat":43.25673,"lon":5.40018,"is_reserved":false,"is_disabled":false,"rental_uris":{"android":"levelo://app?vid=36e3ab74-d85b-46de-9904-53928a1da310","ios":"levelo://app?vid=36e3ab74-d85b-46de-9904-53928a1da310"},"vehicle_type_id":"4","last_reported":1767082621,"current_range_meters":4000,"station_id":"","pricing_plan_id":"cebpf4jnsgd1na2vs0mg"},{"bike_id":"d6a449d9-67ef-4444-ae17-bd1e29b48728","system_id":"levelo_inurba_marseille","lat":43.285767,"lon":5.429835,"is_reserved":false,"is_disabled":false,"rental_uris":{"android":"levelo://app?vid=d6a449d9-67ef-4444-ae17-bd1e29b48728","ios":"levelo://app?vid=d6a449d9-67ef-4444-ae17-bd1e29b48728"},"vehicle_type_id":"4","last_reported":1767082621,"current_range_meters":4000,"station_id":"","pricing_plan_id":"cebpf4jnsgd1na2vs0mg"},{"bike_id":"8ba2e601-fa78-496e-939f-b6aa262ce96a","system_id":"levelo_inurba_marseille","lat":43.290369,"lon":5.399529,"is_reserved":false,"is_disabled":false,"rental_uris":{"android":"levelo://app?vid=8ba2e601-fa78-496e-939f-b6aa262ce96a","ios":"levelo://app?vid=8ba2e601-fa78-496e-939f-b6aa262ce96a"},"vehicle_type_id":"4","last_reported":1767082621,"current_range_meters":4000,"station_id":"ce4bh392rcd13ifvqdm0","pricing_plan_id":"cebpf4jnsgd1na2vs0mg"},{"bike_id":"b3bfffbb-bfec-4d1a-8cf6-88a37a9d23cf","system_id":"levelo_inurba_marseille","lat":43.284604,"lon":5.358762,"is_reserved":false,"is_disabled":false,"rental_uris":{"android":"levelo://app?vid=b3bfffbb-bfec-4d1a-8cf6-88a37a9d23cf","ios":"levelo://app?vid=b3bfffbb-bfec-4d1a-8cf6-88a37a9d23cf"},"vehicle_type_id":"4","last_reported":1767082621,"current_range_meters":4400,"station_id":"ce4bhah2rcd13ifvqei0","pricing_plan_id":"cebpf4jnsgd1na2vs0mg"},{"bike_id":"cddfe332-82ca-4b3f-894d-3df0b9e3ab20","system_id":"levelo_inurba_marseille","lat":43.276714,"lon":5.389154,"is_reserved":false,"is_disabled":false,"rental_uris":{"android":"levelo://app?vid=cddfe332-82ca-4b3f-894d-3df0b9e3ab20","ios":"levelo://app?vid=cddfe332-82ca-4b3f-894d-3df0b9e3ab20"},"vehicle_type_id":"4","last_reported":1767082621,"current_range_meters":4800,"station_id":"ce4bhi12rcd13ifvqfo0","pricing_plan_id":"cebpf4jnsgd1na2vs0mg"},{"bike_id":"54c8f443-d67f-4946-a776-419f325e3b53","system_id":"levelo_inurba_marseille","lat":43.28486,"lon":5.38446,"is_reserved":false,"is_disabled":false,"rental_uris":{"android":"levelo://app?vid=54c8f443-d67f-4946-a776-419f325e3b53","ios":"levelo://app?vid=54c8f443-d67f-4946-a776-419f325e3b53"},"vehicle_type_id":"4","last_reported":1767082621,"current_range_meters":5600,"station_id":"ce4bh512rcd13ifvqe3g","pricing_plan_id":"cebpf4jnsgd1na2vs0mg"},{"bike_id":"ed7684ab-2fee-42e6-9639-1bd83461c228","system_id":"levelo_inurba_marseille","lat":43.2447,"lon":5.42527,"is_reserved":false,"is_disabled":false,"rental_uris":{"android":"levelo://app?vid=ed7684ab-2fee-42e6-9639-1bd83461c228","ios":"levelo://app?vid=ed7684ab-2fee-42e6-9639-1bd83461c228"},"vehicle_type_id":"4","last_reported":1767082621,"current_range_meters":5600,"station_id":"st_d4a3vfp97mjs738cd8kg","pricing_plan_id":"cebpf4jnsgd1na2vs0mg"},{"bike_id":"1c818977-717b-41f2-8fae-ce6b0c328c89","system_id":"levelo_inurba_marseille","lat":43.31175,"lon":5.36923,"is_reserved":false,"is_disabled":false,"rental_uris":{"android":"levelo://app?vid=1c818977-717b-41f2-8fae-ce6b0c328c89","ios":"levelo://app?vid=1c818977-717b-41f2-8fae-ce6b0c328c89"},"vehicle_type_id":"4","last_reported":1767082621,"current_range_meters":5600,"station_id":"ce4bgl92rcd13ifvqbq0","pricing_plan_id":"cebpf4jnsgd1na2vs0mg"},{"bike_id":"93238dbe-7e18-4ff9-acc5-cf08ef47ac5a","system_id":"levelo_inurba_marseille","lat":43.27396,"lon":5.41539,"is_reserved":false,"is_disabled":false,"rental_uris":{"android":"levelo://app?vid=93238dbe-7e18-4ff9-acc5-cf08ef47ac5a","ios":"levelo://app?vid=93238dbe-7e18-4ff9-acc5-cf08ef47ac5a"},"vehicle_type_id":"4","last_reported":1767082621,"current_range_meters":6000,"station_id":"","pricing_plan_id":"cebpf4jnsgd1na2vs0mg"},{"bike_id":"2d6d1d63-7e4b-4467-a654-80bbbdeccadb","system_id":"levelo_inurba_marseille","lat":43.30438,"lon":5.38882,"is_reserved":false,"is_disabled":false,"rental_uris":{"android":"levelo://app?vid=2d6d1d63-7e4b-4467-a654-80bbbdeccadb","ios":"levelo://app?vid=2d6d1d63-7e4b-4467-a654-80bbbdeccadb"},"vehicle_type_id":"4","last_reported":1767082621,"current_range_meters":6000,"station_id":"ce4bgk12rcd13ifvqbi0","pricing_plan_id":"cebpf4jnsgd1na2vs0mg"},{"bike_id":"83e9271d-da0c-4317-a757-27fc89b1a40a","system_id":"levelo_inurba_marseille","lat":43.32488,"lon":5.36561,"is_reserved":false,"is_disabled":false,"rental_uris":{"android":"levelo://app?vid=83e9271d-da0c-4317-a757-27fc89b1a40a","ios":"levelo://app?vid=83e9271d-da0c-4317-a757-27fc89b1a40a"},"vehicle_type_id":"4","last_reported":1767082621,"current_range_meters":6000,"station_id":"ce4bhs12rcd13ifvqhvg","pricing_plan_id":"cebpf4jnsgd1na2vs0mg"},{"bike_id":"b042021c-9ced-457b-8a11-dc9ac3802903","system_id":"levelo_inurba_marseille","lat":43.30406,"lon":5.39746,"is_reserved":false,"is_disabled":true,"rental_uris":{"android":"levelo://app?vid=b042021c-9ced-457b-8a11-dc9ac3802903","ios":"levelo://app?vid=b042021c-9ced-457b-8a11-dc9ac3802903"},"vehicle_type_id":"4","last_reported":1767082621,"current_range_meters":6000,"station_id":"ce4bh092rcd13ifvqd20","pricing_plan_id":"cebpf4jnsgd1na2vs0mg"},{"bike_id":"5b3e6c99-4d94-48fb-a558-067e65c27884","system_id":"levelo_inurba_marseille","lat":43.33541,"lon":5.3747,"is_reserved":false,"is_disabled":false,"rental_uris":{"android":"levelo://app?vid=5b3e6c99-4d94-48fb-a558-067e65c27884","ios":"levelo://app?vid=5b3e6c99-4d94-48fb-a558-067e65c27884"},"vehicle_type_id":"4","last_reported":1767082621,"current_range_meters":6000,"station_id":"st_d46tts09ee8s73dlu43g","pricing_plan_id":"cebpf4jnsgd1na2vs0mg"},{"bike_id":"49166d3a-7d57-41ae-b5e6-9a6cbabce031","system_id":"levelo_inurba_marseille","lat":43.29686,"lon":5.36771,"is_reserved":false,"is_disabled":false,"rental_uris":{"android":"levelo://app?vid=49166d3a-7d57-41ae-b5e6-9a6cbabce031","ios":"levelo://app?vid=49166d3a-7d57-41ae-b5e6-9a6cbabce031"},"vehicle_type_id":"4","last_reported":1767082621,"current_range_meters":6400,"station_id":"","pricing_plan_id":"cebpf4jnsgd1na2vs0mg"},{"bike_id":"1e50ca8e-b85d-454b-95bd-7ff19f655362","system_id":"levelo_inurba_marseille","lat":43.28969,"lon":5.37831,"is_reserved":false,"is_disabled":false,"rental_uris":{"android":"levelo://app?vid=1e50ca8e-b85d-454b-95bd-7ff19f655362","ios":"levelo://app?vid=1e50ca8e-b85d-454b-95bd-7ff19f655362"},"vehicle_type_id":"4","last_reported":1767082621,"current_range_meters":6400,"station_id":"ce4bh9p2rcd13ifvqed0","pricing_plan_id":"cebpf4jnsgd1na2vs0mg"},{"bike_id":"d567b4a3-edeb-4d97-810b-0f09ddc6655c","system_id":"levelo_inurba_marseille","lat":43.293013,"lon":5.374639,"is_reserved":false,"is_disabled":false,"rental_uris":{"android":"levelo://app?vid=d567b4a3-edeb-4d97-810b-0f09ddc6655c","ios":"levelo://app?vid=d567b4a3-edeb-4d97-810b-0f09ddc6655c"},"vehicle_type_id":"4","last_reported":1767082621,"current_range_meters":6400,"station_id":"ce4bgi12rcd13ifvqb70","pricing_plan_id":"cebpf4jnsgd1na2vs0mg"},{"bike_id":"31704bec-4f9a-49bc-bf97-b66633aba2e8","system_id":"levelo_inurba_marseille","lat":43.26018,"lon":5.4174,"is_reserved":false,"is_disabled":false,"rental_uris":{"android":"levelo://app?vid=31704bec-4f9a-49bc-bf97-b66633aba2e8","ios":"levelo://app?vid=31704bec-4f9a-49bc-bf97-b66633aba2e8"},"vehicle_type_id":"4","last_reported":1767082621,"current_range_meters":6400,"station_id":"","pricing_plan_id":"cebpf4jnsgd1na2vs0mg"},{"bike_id":"c4e113a3-b17c-48fb-86ca-bf846dac0dfa","system_id":"levelo_inurba_marseille","lat":43.303752,"lon":5.424786,"is_reserved":false,"is_disabled":false,"rental_uris":{"android":"levelo://app?vid=c4e113a3-b17c-48fb-86ca-bf846dac0dfa","ios":"levelo://app?vid=c4e113a3-b17c-48fb-86ca-bf846dac0dfa"},"vehicle_type_id":"4","last_reported":1767082621,"current_range_meters":6800,"station_id":"ce4bhoh2rcd13ifvqh6g","pricing_plan_id":"cebpf4jnsgd1na2vs0mg"},{"bike_id":"729d67c6-ff28-4018-a022-193f572b7765","system_id":"levelo_inurba_marseille","lat":43.301644,"lon":5.380926,"is_reserved":false,"is_disabled":false,"rental_uris":{"android":"levelo://app?vid=729d67c6-ff28-4018-a022-193f572b7765","ios":"levelo://app?vid=729d67c6-ff28-4018-a022-193f572b7765"},"vehicle_type_id":"4","last_reported":1767082621,"current_range_meters":6800,"station_id":"ce4bgjp2rcd13ifvqbh0","pricing_plan_id":"cebpf4jnsgd1na2vs0mg"},{"bike_id":"f3a10ec3-9a2e-487d-ba1d-84a00f254276","system_id":"levelo_inurba_marseille","lat":43.26557,"lon":5.38999,"is_reserved":false,"is_disabled":false,"rental_uris":{"android":"levelo://app?vid=f3a10ec3-9a2e-487d-ba1d-84a00f254276","ios":"levelo://app?vid=f3a10ec3-9a2e-487d-ba1d-84a00f254276"},"vehicle_type_id":"4","last_reported":1767082621,"current_range_meters":6800,"station_id":"ce4bhe12rcd13ifvqf30","pricing_plan_id":"cebpf4jnsgd1na2vs0mg"},{"bike_id":"0caef140-067f-48bd-af27-fdd4dc91d181","system_id":"levelo_inurba_marseille","lat":43.31274,"lon":5.40166,"is_reserved":false,"is_disabled":false,"rental_uris":{"android":"levelo://app?vid=0caef140-067f-48bd-af27-fdd4dc91d181","ios":"levelo://app?vid=0caef140-067f-48bd-af27-fdd4dc91d181"},"vehicle_type_id":"4","last_reported":1767082621,"current_range_meters":6800,"station_id":"ce4bh092rcd13ifvqd30","pricing_plan_id":"cebpf4jnsgd1na2vs0mg"},{"bike_id":"68c5b1fe-3b4e-4fc8-88a9-38ce873d8df8","system_id":"levelo_inurba_marseille","lat":43.30313,"lon":5.36903,"is_reserved":false,"is_disabled":false,"rental_uris":{"android":"levelo://app?vid=68c5b1fe-3b4e-4fc8-88a9-38ce873d8df8","ios":"levelo://app?vid=68c5b1fe-3b4e-4fc8-88a9-38ce873d8df8"},"vehicle_type_id":"4","last_reported":1767082621,"current_range_meters":6800,"station_id":"ce4bgqh2rcd13ifvqc5g","pricing_plan_id":"cebpf4jnsgd1na2vs0mg"},{"bike_id":"7451e2f1-97cc-4a6a-824e-1c725c74e9d6","system_id":"levelo_inurba_marseille","lat":43.29376,"lon":5.38107,"is_reserved":false,"is_disabled":false,"rental_uris":{"android":"levelo://app?vid=7451e2f1-97cc-4a6a-824e-1c725c74e9d6","ios":"levelo://app?vid=7451e2f1-97cc-4a6a-824e-1c725c74e9d6"},"vehicle_type_id":"4","last_reported":1767082621,"current_range_meters":6800,"station_id":"","pricing_plan_id":"cebpf4jnsgd1na2vs0mg"},{"bike_id":"17dac2da-e9f8-4f8c-b4bf-196f49c08f71","system_id":"levelo_inurba_marseille","lat":43.3135,"lon":5.36726,"is_reserved":false,"is_disabled":false,"rental_uris":{"android":"levelo://app?vid=17dac2da-e9f8-4f8c-b4bf-196f49c08f71","ios":"levelo://app?vid=17dac2da-e9f8-4f8c-b4bf-196f49c08f71"},"vehicle_type_id":"4","last_reported":1767082621,"current_range_meters":6800,"station_id":"ce4bgr92rcd13ifvqc6g","pricing_plan_id":"cebpf4jnsgd1na2vs0mg"},{"bike_id":"717a549e-c78e-422d-9d33-485cdccf29f9","system_id":"levelo_inurba_marseille","lat":43.31234,"lon":5.36849,"is_reserved":false,"is_disabled":false,"rental_uris":{"android":"levelo://app?vid=717a549e-c78e-422d-9d33-485cdccf29f9","ios":"levelo://app?vid=717a549e-c78e-422d-9d33-485cdccf29f9"},"vehicle_type_id":"4","last_reported":1767082621,"current_range_meters":6800,"station_id":"ce4bgl92rcd13ifvqbq0","pricing_plan_id":"cebpf4jnsgd1na2vs0mg"},{"bike_id":"823966f8-03dd-4cfc-a62e-7bb24dcd9f0e","system_id":"levelo_inurba_marseille","lat":43.22529,"lon":5.34825,"is_reserved":false,"is_disabled":false,"rental_uris":{"android":"levelo://app?vid=823966f8-03dd-4cfc-a62e-7bb24dcd9f0e","ios":"levelo://app?vid=823966f8-03dd-4cfc-a62e-7bb24dcd9f0e"},"vehicle_type_id":"4","last_reported":1767082621,"current_range_meters":6800,"station_id":"st_cvj5dfep6f1abm77gieg","pricing_plan_id":"cebpf4jnsgd1na2vs0mg"},{"bike_id":"056109e4-7d33-4f55-bed7-22f13c21b637","system_id":"levelo_inurba_marseille","lat":43.337444,"lon":5.374475,"is_reserved":false,"is_disabled":true,"rental_uris":{"android":"levelo://app?vid=056109e4-7d33-4f55-bed7-22f13c21b637","ios":"levelo://app?vid=056109e4-7d33-4f55-bed7-22f13c21b637"},"vehicle_type_id":"4","last_reported":1767082621,"current_range_meters":6800,"station_id":"","pricing_plan_id":"cebpf4jnsgd1na2vs0mg"},{"bike_id":"7010e176-e4af-448a-a414-39b5ef7e6b5d","system_id":"levelo_inurba_marseille","lat":43.28471,"lon":5.38422,"is_reserved":false,"is_disabled":false,"rental_uris":{"android":"levelo://app?vid=7010e176-e4af-448a-a414-39b5ef7e6b5d","ios":"levelo://app?vid=7010e176-e4af-448a-a414-39b5ef7e6b5d"},"vehicle_type_id":"4","last_reported":1767082621,"current_range_meters":6800,"station_id":"ce4bh512rcd13ifvqe3g","pricing_plan_id":"cebpf4jnsgd1na2vs0mg"},{"bike_id":"a5390c1b-8ddc-4e56-baf4-66b1fe2b384c","system_id":"levelo_inurba_marseille","lat":43.28863,"lon":5.42534,"is_reserved":false,"is_disabled":false,"rental_uris":{"android":"levelo://app?vid=a5390c1b-8ddc-4e56-baf4-66b1fe2b384c","ios":"levelo://app?vid=a5390c1b-8ddc-4e56-baf4-66b1fe2b384c"},"vehicle_type_id":"4","last_reported":1767082621,"current_range_meters":7200,"station_id":"st_d3b462108ojc7389ooeg","pricing_plan_id":"cebpf4jnsgd1na2vs0mg"},{"bike_id":"49e072a8-45d4-49d1-bdbc-2de1dded4d80","system_id":"levelo_inurba_marseille","lat":43.24674,"lon":5.38134,"is_reserved":false,"is_disabled":false,"rental_uris":{"android":"levelo://app?vid=49e072a8-45d4-49d1-bdbc-2de1dded4d80","ios":"levelo://app?vid=49e072a8-45d4-49d1-bdbc-2de1dded4d80"},"vehicle_type_id":"4","last_reported":1767082621,"current_range_meters":7200,"station_id":"ce4bhih2rcd13ifvqfr0","pricing_plan_id":"cebpf4jnsgd1na2vs0mg"},{"bike_id":"959f4659-d365-4ff3-8e93-16417568f80d","system_id":"levelo_inurba_marseille","lat":43.296304,"lon":5.377895,"is_reserved":false,"is_disabled":false,"rental_uris":{"android":"levelo://app?vid=959f4659-d365-4ff3-8e93-16417568f80d","ios":"levelo://app?vid=959f4659-d365-4ff3-8e93-16417568f80d"},"vehicle_type_id":"4","last_reported":1767082621,"current_range_meters":7200,"station_id":"","pricing_plan_id":"cebpf4jnsgd1na2vs0mg"},{"bike_id":"596c9b3b-bd08-4237-a80d-9ed209e66871","system_id":"levelo_inurba_marseille","lat":43.28863,"lon":5.42512,"is_reserved":false,"is_disabled":false,"rental_uris":{"android":"levelo://app?vid=596c9b3b-bd08-4237-a80d-9ed209e66871","ios":"levelo://app?vid=596c9b3b-bd08-4237-a80d-9ed209e66871"},"vehicle_type_id":"4","last_reported":1767082621,"current_range_meters":7200,"station_id":"st_d3b462108ojc7389ooeg","pricing_plan_id":"cebpf4jnsgd1na2vs0mg"},{"bike_id":"f1e029ec-966a-4c18-90a6-6313298321ec","system_id":"levelo_inurba_marseille","lat":43.24229,"lon":5.39336,"is_reserved":false,"is_disabled":false,"rental_uris":{"android":"levelo://app?vid=f1e029ec-966a-4c18-90a6-6313298321ec","ios":"levelo://app?vid=f1e029ec-966a-4c18-90a6-6313298321ec"},"vehicle_type_id":"4","last_reported":1767082621,"current_range_meters":7200,"station_id":"","pricing_plan_id":"cebpf4jnsgd1na2vs0mg"},{"bike_id":"b710a1ee-30be-4115-bcda-48e3f86daef1","system_id":"levelo_inurba_marseille","lat":43.26548,"lon":5.37278,"is_reserved":false,"is_disabled":false,"rental_uris":{"android":"levelo://app?vid=b710a1ee-30be-4115-bcda-48e3f86daef1","ios":"levelo://app?vid=b710a1ee-30be-4115-bcda-48e3f86daef1"},"vehicle_type_id":"4","last_reported":1767082621,"current_range_meters":7200,"station_id":"ce4bhg12rcd13ifvqf70","pricing_plan_id":"cebpf4jnsgd1na2vs0mg"},{"bike_id":"85f80c36-b01d-4148-8a0f-5ed00798dda8","system_id":"levelo_inurba_marseille","lat":43.30122,"lon":5.36476,"is_reserved":false,"is_disabled":false,"rental_uris":{"android":"levelo://app?vid=85f80c36-b01d-4148-8a0f-5ed00798dda8","ios":"levelo://app?vid=85f80c36-b01d-4148-8a0f-5ed00798dda8"},"vehicle_type_id":"4","last_reported":1767082621,"current_range_meters":7200,"station_id":"","pricing_plan_id":"cebpf4jnsgd1na2vs0mg"},{"bike_id":"8ed0aaee-94a4-4a16-a923-e8b24a7704a6","system_id":"levelo_inurba_marseille","lat":43.28858,"lon":5.42509,"is_reserved":false,"is_disabled":false,"rental_uris":{"android":"levelo://app?vid=8ed0aaee-94a4-4a16-a923-e8b24a7704a6","ios":"levelo://app?vid=8ed0aaee-94a4-4a16-a923-e8b24a7704a6"},"vehicle_type_id":"4","last_reported":1767082621,"current_range_meters":7200,"station_id":"st_d3b462108ojc7389ooeg","pricing_plan_id":"cebpf4jnsgd1na2vs0mg"},{"bike_id":"433621e1-12cd-4d0c-b747-14612e74827b","system_id":"levelo_inurba_marseille","lat":43.21739,"lon":5.34597,"is_reserved":false,"is_disabled":false,"rental_uris":{"android":"levelo://app?vid=433621e1-12cd-4d0c-b747-14612e74827b","ios":"levelo://app?vid=433621e1-12cd-4d0c-b747-14612e74827b"},"vehicle_type_id":"4","last_reported":1767082621,"current_range_meters":8000,"station_id":"st_cvj6r9ubvosntc0bgbag","pricing_plan_id":"cebpf4jnsgd1na2vs0mg"},{"bike_id":"b0fecc2b-ec8f-4434-ba08-eaae921361a2","system_id":"levelo_inurba_marseille","lat":43.24145,"lon":5.41033,"is_reserved":false,"is_disabled":false,"rental_uris":{"android":"levelo://app?vid=b0fecc2b-ec8f-4434-ba08-eaae921361a2","ios":"levelo://app?vid=b0fecc2b-ec8f-4434-ba08-eaae921361a2"},"vehicle_type_id":"4","last_reported":1767082621,"current_range_meters":8000,"station_id":"","pricing_plan_id":"cebpf4jnsgd1na2vs0mg"},{"bike_id":"726d26a4-a858-4948-89f2-78d61b06e513","system_id":"levelo_inurba_marseille","lat":43.30596,"lon":5.37235,"is_reserved":false,"is_disabled":false,"rental_uris":{"android":"levelo://app?vid=726d26a4-a858-4948-89f2-78d61b06e513","ios":"levelo://app?vid=726d26a4-a858-4948-89f2-78d61b06e513"},"vehicle_type_id":"4","last_reported":1767082621,"current_range_meters":8000,"station_id":"ce4bgqh2rcd13ifvqc4g","pricing_plan_id":"cebpf4jnsgd1na2vs0mg"},{"bike_id":"8b945551-b14d-486b-ae0f-7379e9ed23b9","system_id":"levelo_inurba_marseille","lat":43.27614,"lon":5.36108,"is_reserved":false,"is_disabled":false,"rental_uris":{"android":"levelo://app?vid=8b945551-b14d-486b-ae0f-7379e9ed23b9","ios":"levelo://app?vid=8b945551-b14d-486b-ae0f-7379e9ed23b9"},"vehicle_type_id":"4","last_reported":1767082621,"current_range_meters":8000,"station_id":"ce4bgj92rcd13ifvqbe0","pricing_plan_id":"cebpf4jnsgd1na2vs0mg"},{"bike_id":"64694cb7-b0a3-4867-813d-cb6ec66ba517","system_id":"levelo_inurba_marseille","lat":43.29939,"lon":5.36522,"is_reserved":false,"is_disabled":false,"rental_uris":{"android":"levelo://app?vid=64694cb7-b0a3-4867-813d-cb6ec66ba517","ios":"levelo://app?vid=64694cb7-b0a3-4867-813d-cb6ec66ba517"},"vehicle_type_id":"4","last_reported":1767082621,"current_range_meters":8000,"station_id":"ce4bgm92rcd13ifvqbr0","pricing_plan_id":"cebpf4jnsgd1na2vs0mg"},{"bike_id":"1b98c6d3-988a-40e8-a138-836b264a962b","system_id":"levelo_inurba_marseille","lat":43.32331,"lon":5.36678,"is_reserved":false,"is_disabled":false,"rental_uris":{"android":"levelo://app?vid=1b98c6d3-988a-40e8-a138-836b264a962b","ios":"levelo://app?vid=1b98c6d3-988a-40e8-a138-836b264a962b"},"vehicle_type_id":"4","last_reported":1767082621,"current_range_meters":8000,"station_id":"","pricing_plan_id":"cebpf4jnsgd1na2vs0mg"},{"bike_id":"c144adb8-946d-4a60-9739-bd28e99b9f29","system_id":"levelo_inurba_marseille","lat":43.285276,"lon":5.44091,"is_reserved":false,"is_disabled":false,"rental_uris":{"android":"levelo://app?vid=c144adb8-946d-4a60-9739-bd28e99b9f29","ios":"levelo://app?vid=c144adb8-946d-4a60-9739-bd28e99b9f29"},"vehicle_type_id":"4","last_reported":1767082621,"current_range_meters":8000,"station_id":"st_d3j3df2ikq2c7380ej80","pricing_plan_id":"cebpf4jnsgd1na2vs0mg"},{"bike_id":"a59ecb87-bb60-4056-991d-cd463f760ad0","system_id":"levelo_inurba_marseille","lat":43.28223,"lon":5.39043,"is_reserved":false,"is_disabled":false,"rental_uris":{"android":"levelo://app?vid=a59ecb87-bb60-4056-991d-cd463f760ad0","ios":"levelo://app?vid=a59ecb87-bb60-4056-991d-cd463f760ad0"},"vehicle_type_id":"4","last_reported":1767082621,"current_range_meters":8000,"station_id":"ce4bhn92rcd13ifvqgsg","pricing_plan_id":"cebpf4jnsgd1na2vs0mg"},{"bike_id":"1976f061-e064-45cd-9d75-48c90f29fe4d","system_id":"levelo_inurba_marseille","lat":43.28414,"lon":5.34985,"is_reserved":false,"is_disabled":false,"rental_uris":{"android":"levelo://app?vid=1976f061-e064-45cd-9d75-48c90f29fe4d","ios":"levelo://app?vid=1976f061-e064-45cd-9d75-48c90f29fe4d"},"vehicle_type_id":"4","last_reported":1767082621,"current_range_meters":8400,"station_id":"ce4bhbh2rcd13ifvqepg","pricing_plan_id":"cebpf4jnsgd1na2vs0mg"},{"bike_id":"7ec256cc-7d10-41d3-9c85-de996fe89af5","system_id":"levelo_inurba_marseille","lat":43.27215,"lon":5.3919,"is_reserved":false,"is_disabled":false,"rental_uris":{"android":"levelo://app?vid=7ec256cc-7d10-41d3-9c85-de996fe89af5","ios":"levelo://app?vid=7ec256cc-7d10-41d3-9c85-de996fe89af5"},"vehicle_type_id":"4","last_reported":1767082621,"current_range_meters":8400,"station_id":"ce4bhhp2rcd13ifvqfm0","pricing_plan_id":"cebpf4jnsgd1na2vs0mg"},{"bike_id":"1734a521-7e57-4bb7-8c9d-ed1b4d6eb347","system_id":"levelo_inurba_marseille","lat":43.29803,"lon":5.40411,"is_reserved":false,"is_disabled":false,"rental_uris":{"android":"levelo://app?vid=1734a521-7e57-4bb7-8c9d-ed1b4d6eb347","ios":"levelo://app?vid=1734a521-7e57-4bb7-8c9d-ed1b4d6eb347"},"vehicle_type_id":"4","last_reported":1767082621,"current_range_meters":8400,"station_id":"ce4bh112rcd13ifvqd90","pricing_plan_id":"cebpf4jnsgd1na2vs0mg"},{"bike_id":"9d844fbc-c2ae-4386-a7d7-1370028f45f3","system_id":"levelo_inurba_marseille","lat":43.30194,"lon":5.38224,"is_reserved":false,"is_disabled":false,"rental_uris":{"android":"levelo://app?vid=9d844fbc-c2ae-4386-a7d7-1370028f45f3","ios":"levelo://app?vid=9d844fbc-c2ae-4386-a7d7-1370028f45f3"},"vehicle_type_id":"4","last_reported":1767082621,"current_range_meters":8400,"station_id":"","pricing_plan_id":"cebpf4jnsgd1na2vs0mg"},{"bike_id":"f4c01557-62cf-4b89-aaa2-7c63ad0ad51f","system_id":"levelo_inurba_marseille","lat":43.31047,"lon":5.371674,"is_reserved":false,"is_disabled":false,"rental_uris":{"android":"levelo://app?vid=f4c01557-62cf-4b89-aaa2-7c63ad0ad51f","ios":"levelo://app?vid=f4c01557-62cf-4b89-aaa2-7c63ad0ad51f"},"vehicle_type_id":"4","last_reported":1767082621,"current_range_meters":8400,"station_id":"st_d4kl2rp97mjs73e7tdfg","pricing_plan_id":"cebpf4jnsgd1na2vs0mg"},{"bike_id":"eadccda9-f664-4edd-9797-023d9c29114d","system_id":"levelo_inurba_marseille","lat":43.31162,"lon":5.38724,"is_reserved":false,"is_disabled":false,"rental_uris":{"android":"levelo://app?vid=eadccda9-f664-4edd-9797-023d9c29114d","ios":"levelo://app?vid=eadccda9-f664-4edd-9797-023d9c29114d"},"vehicle_type_id":"4","last_reported":1767082621,"current_range_meters":8400,"station_id":"ce4bgv12rcd13ifvqcp0","pricing_plan_id":"cebpf4jnsgd1na2vs0mg"},{"bike_id":"6fea47af-e6a5-4c7f-9d2a-795c72191d82","system_id":"levelo_inurba_marseille","lat":43.28575,"lon":5.39499,"is_reserved":false,"is_disabled":false,"rental_uris":{"android":"levelo://app?vid=6fea47af-e6a5-4c7f-9d2a-795c72191d82","ios":"levelo://app?vid=6fea47af-e6a5-4c7f-9d2a-795c72191d82"},"vehicle_type_id":"4","last_reported":1767082621,"current_range_meters":8400,"station_id":"ce4bh292rcd13ifvqdg0","pricing_plan_id":"cebpf4jnsgd1na2vs0mg"},{"bike_id":"36436541-8a8a-4f3f-9fed-f6ba11b5488f","system_id":"levelo_inurba_marseille","lat":43.292013,"lon":5.358493,"is_reserved":false,"is_disabled":false,"rental_uris":{"android":"levelo://app?vid=36436541-8a8a-4f3f-9fed-f6ba11b5488f","ios":"levelo://app?vid=36436541-8a8a-4f3f-9fed-f6ba11b5488f"},"vehicle_type_id":"4","last_reported":1767082621,"current_range_meters":8400,"station_id":"ce4bhb12rcd13ifvqel0","pricing_plan_id":"cebpf4jnsgd1na2vs0mg"},{"bike_id":"9574324b-8208-49c7-ad6e-2d5e0d19f1c0","system_id":"levelo_inurba_marseille","lat":43.29252,"lon":5.37617,"is_reserved":false,"is_disabled":false,"rental_uris":{"android":"levelo://app?vid=9574324b-8208-49c7-ad6e-2d5e0d19f1c0","ios":"levelo://app?vid=9574324b-8208-49c7-ad6e-2d5e0d19f1c0"},"vehicle_type_id":"4","last_reported":1767082621,"current_range_meters":8400,"station_id":"ce4bgi12rcd13ifvqb80","pricing_plan_id":"cebpf4jnsgd1na2vs0mg"},{"bike_id":"0a62435e-a1a1-4faf-b848-03bd53df937d","system_id":"levelo_inurba_marseille","lat":43.2985,"lon":5.37931,"is_reserved":false,"is_disabled":false,"rental_uris":{"android":"levelo://app?vid=0a62435e-a1a1-4faf-b848-03bd53df937d","ios":"levelo://app?vid=0a62435e-a1a1-4faf-b848-03bd53df937d"},"vehicle_type_id":"4","last_reported":1767082621,"current_range_meters":8400,"station_id":"","pricing_plan_id":"cebpf4jnsgd1na2vs0mg"},{"bike_id":"f02cf114-7175-42eb-9219-d08d88ab3dff","system_id":"levelo_inurba_marseille","lat":43.26534,"lon":5.37325,"is_reserved":false,"is_disabled":false,"rental_uris":{"android":"levelo://app?vid=f02cf114-7175-42eb-9219-d08d88ab3dff","ios":"levelo://app?vid=f02cf114-7175-42eb-9219-d08d88ab3dff"},"vehicle_type_id":"4","last_reported":1767082621,"current_range_meters":8400,"station_id":"ce4bhg12rcd13ifvqf70","pricing_plan_id":"cebpf4jnsgd1na2vs0mg"},{"bike_id":"b827d20d-caad-435d-904a-f21201c03c25","system_id":"levelo_inurba_marseille","lat":43.246372,"lon":5.43139,"is_reserved":false,"is_disabled":false,"rental_uris":{"android":"levelo://app?vid=b827d20d-caad-435d-904a-f21201c03c25","ios":"levelo://app?vid=b827d20d-caad-435d-904a-f21201c03c25"},"vehicle_type_id":"4","last_reported":1767082621,"current_range_meters":8400,"station_id":"st_d2m6c4gdas8pm72e190g","pricing_plan_id":"cebpf4jnsgd1na2vs0mg"},{"bike_id":"928b015a-7167-4e24-8c0a-0c323d75b19b","system_id":"levelo_inurba_marseille","lat":43.2846,"lon":5.38432,"is_reserved":false,"is_disabled":false,"rental_uris":{"android":"levelo://app?vid=928b015a-7167-4e24-8c0a-0c323d75b19b","ios":"levelo://app?vid=928b015a-7167-4e24-8c0a-0c323d75b19b"},"vehicle_type_id":"4","last_reported":1767082621,"current_range_meters":8800,"station_id":"ce4bh512rcd13ifvqe3g","pricing_plan_id":"cebpf4jnsgd1na2vs0mg"},{"bike_id":"6430d914-0a21-4065-b1bd-22ff590b6d10","system_id":"levelo_inurba_marseille","lat":43.28869,"lon":5.425159,"is_reserved":false,"is_disabled":false,"rental_uris":{"android":"levelo://app?vid=6430d914-0a21-4065-b1bd-22ff590b6d10","ios":"levelo://app?vid=6430d914-0a21-4065-b1bd-22ff590b6d10"},"vehicle_type_id":"4","last_reported":1767082621,"current_range_meters":8800,"station_id":"st_d3b462108ojc7389ooeg","pricing_plan_id":"cebpf4jnsgd1na2vs0mg"},{"bike_id":"daad4982-4e82-4f25-b899-9a8a6b7dfccc","system_id":"levelo_inurba_marseille","lat":43.287164,"lon":5.360905,"is_reserved":false,"is_disabled":false,"rental_uris":{"android":"levelo://app?vid=daad4982-4e82-4f25-b899-9a8a6b7dfccc","ios":"levelo://app?vid=daad4982-4e82-4f25-b899-9a8a6b7dfccc"},"vehicle_type_id":"4","last_reported":1767082621,"current_range_meters":8800,"station_id":"cki0cbj6b192h4jlfktg","pricing_plan_id":"cebpf4jnsgd1na2vs0mg"},{"bike_id":"248a03b6-5cb4-4aa2-8baa-dda3195e836a","system_id":"levelo_inurba_marseille","lat":43.26478,"lon":5.39531,"is_reserved":false,"is_disabled":false,"rental_uris":{"android":"levelo://app?vid=248a03b6-5cb4-4aa2-8baa-dda3195e836a","ios":"levelo://app?vid=248a03b6-5cb4-4aa2-8baa-dda3195e836a"},"vehicle_type_id":"4","last_reported":1767082621,"current_range_meters":8800,"station_id":"ce4bhi12rcd13ifvqfq0","pricing_plan_id":"cebpf4jnsgd1na2vs0mg"},{"bike_id":"8886a7ff-b146-49f4-97aa-9b9c9039528c","system_id":"levelo_inurba_marseille","lat":43.27422,"lon":5.39417,"is_reserved":false,"is_disabled":false,"rental_uris":{"android":"levelo://app?vid=8886a7ff-b146-49f4-97aa-9b9c9039528c","ios":"levelo://app?vid=8886a7ff-b146-49f4-97aa-9b9c9039528c"},"vehicle_type_id":"4","last_reported":1767082621,"current_range_meters":8800,"station_id":"ce4bhdp2rcd13ifvqf20","pricing_plan_id":"cebpf4jnsgd1na2vs0mg"},{"bike_id":"26517a0d-c3ae-4a8e-8914-35af5c17b4e6","system_id":"levelo_inurba_marseille","lat":43.25864,"lon":5.39896,"is_reserved":false,"is_disabled":false,"rental_uris":{"android":"levelo://app?vid=26517a0d-c3ae-4a8e-8914-35af5c17b4e6","ios":"levelo://app?vid=26517a0d-c3ae-4a8e-8914-35af5c17b4e6"},"vehicle_type_id":"4","last_reported":1767082621,"current_range_meters":8800,"station_id":"ce4bhl92rcd13ifvqghg","pricing_plan_id":"cebpf4jnsgd1na2vs0mg"},{"bike_id":"a291f4e1-1274-4596-b12b-2e0a863acab4","system_id":"levelo_inurba_marseille","lat":43.23182,"lon":5.39989,"is_reserved":false,"is_disabled":false,"rental_uris":{"android":"levelo://app?vid=a291f4e1-1274-4596-b12b-2e0a863acab4","ios":"levelo://app?vid=a291f4e1-1274-4596-b12b-2e0a863acab4"},"vehicle_type_id":"4","last_reported":1767082621,"current_range_meters":8800,"station_id":"ce4bhn12rcd13ifvqgqg","pricing_plan_id":"cebpf4jnsgd1na2vs0mg"},{"bike_id":"32541f6a-1d2c-44c2-a392-06055eaf1598","system_id":"levelo_inurba_marseille","lat":43.26217,"lon":5.41638,"is_reserved":false,"is_disabled":false,"rental_uris":{"android":"levelo://app?vid=32541f6a-1d2c-44c2-a392-06055eaf1598","ios":"levelo://app?vid=32541f6a-1d2c-44c2-a392-06055eaf1598"},"vehicle_type_id":"4","last_reported":1767082621,"current_range_meters":8800,"station_id":"","pricing_plan_id":"cebpf4jnsgd1na2vs0mg"},{"bike_id":"8cd8286c-2dd8-41ad-b181-1afd615d6e0d","system_id":"levelo_inurba_marseille","lat":43.28588,"lon":5.38356,"is_reserved":false,"is_disabled":false,"rental_uris":{"android":"levelo://app?vid=8cd8286c-2dd8-41ad-b181-1afd615d6e0d","ios":"levelo://app?vid=8cd8286c-2dd8-41ad-b181-1afd615d6e0d"},"vehicle_type_id":"4","last_reported":1767082621,"current_range_meters":9200,"station_id":"","pricing_plan_id":"cebpf4jnsgd1na2vs0mg"},{"bike_id":"f050f501-50db-43b4-b307-87ce6c3c640b","system_id":"levelo_inurba_marseille","lat":43.27622,"lon":5.36093,"is_reserved":false,"is_disabled":false,"rental_uris":{"android":"levelo://app?vid=f050f501-50db-43b4-b307-87ce6c3c640b","ios":"levelo://app?vid=f050f501-50db-43b4-b307-87ce6c3c640b"},"vehicle_type_id":"4","last_reported":1767082621,"current_range_meters":9200,"station_id":"ce4bgj92rcd13ifvqbe0","pricing_plan_id":"cebpf4jnsgd1na2vs0mg"},{"bike_id":"3745e737-5737-4541-ab05-7d881133f68f","system_id":"levelo_inurba_marseille","lat":43.279968,"lon":5.400064,"is_reserved":false,"is_disabled":false,"rental_uris":{"android":"levelo://app?vid=3745e737-5737-4541-ab05-7d881133f68f","ios":"levelo://app?vid=3745e737-5737-4541-ab05-7d881133f68f"},"vehicle_type_id":"4","last_reported":1767082621,"current_range_meters":9200,"station_id":"ce4bho92rcd13ifvqh4g","pricing_plan_id":"cebpf4jnsgd1na2vs0mg"},{"bike_id":"424aa5ff-872e-455a-b51a-26b71e656831","system_id":"levelo_inurba_marseille","lat":43.29033,"lon":5.39963,"is_reserved":false,"is_disabled":false,"rental_uris":{"android":"levelo://app?vid=424aa5ff-872e-455a-b51a-26b71e656831","ios":"levelo://app?vid=424aa5ff-872e-455a-b51a-26b71e656831"},"vehicle_type_id":"4","last_reported":1767082621,"current_range_meters":9200,"station_id":"ce4bh392rcd13ifvqdm0","pricing_plan_id":"cebpf4jnsgd1na2vs0mg"},{"bike_id":"12c38b32-5974-4311-910a-572392b8079a","system_id":"levelo_inurba_marseille","lat":43.280422,"lon":5.350876,"is_reserved":false,"is_disabled":false,"rental_uris":{"android":"levelo://app?vid=12c38b32-5974-4311-910a-572392b8079a","ios":"levelo://app?vid=12c38b32-5974-4311-910a-572392b8079a"},"vehicle_type_id":"4","last_reported":1767082621,"current_range_meters":9200,"station_id":"","pricing_plan_id":"cebpf4jnsgd1na2vs0mg"},{"bike_id":"f97afe2f-c3c2-4a38-988c-c663b9793105","system_id":"levelo_inurba_marseille","lat":43.29845,"lon":5.36277,"is_reserved":false,"is_disabled":false,"rental_uris":{"android":"levelo://app?vid=f97afe2f-c3c2-4a38-988c-c663b9793105","ios":"levelo://app?vid=f97afe2f-c3c2-4a38-988c-c663b9793105"},"vehicle_type_id":"4","last_reported":1767082621,"current_range_meters":9200,"station_id":"ce4bgpp2rcd13ifvqc3g","pricing_plan_id":"cebpf4jnsgd1na2vs0mg"},{"bike_id":"3bb8f732-12fe-4b6e-af97-ad28d6d8d0d7","system_id":"levelo_inurba_marseille","lat":43.28501,"lon":5.38568,"is_reserved":false,"is_disabled":false,"rental_uris":{"android":"levelo://app?vid=3bb8f732-12fe-4b6e-af97-ad28d6d8d0d7","ios":"levelo://app?vid=3bb8f732-12fe-4b6e-af97-ad28d6d8d0d7"},"vehicle_type_id":"4","last_reported":1767082621,"current_range_meters":9200,"station_id":"ce4bh8p2rcd13ifvqeb0","pricing_plan_id":"cebpf4jnsgd1na2vs0mg"},{"bike_id":"18faadfe-ae91-4d13-a0c6-9b6383a79fcd","system_id":"levelo_inurba_marseille","lat":43.23165,"lon":5.35547,"is_reserved":false,"is_disabled":false,"rental_uris":{"android":"levelo://app?vid=18faadfe-ae91-4d13-a0c6-9b6383a79fcd","ios":"levelo://app?vid=18faadfe-ae91-4d13-a0c6-9b6383a79fcd"},"vehicle_type_id":"4","last_reported":1767082621,"current_range_meters":9200,"station_id":"ce4bhu92rcd13ifvqi70","pricing_plan_id":"cebpf4jnsgd1na2vs0mg"},{"bike_id":"33b9d6bb-5418-41ed-b8b3-0f7390df3679","system_id":"levelo_inurba_marseille","lat":43.246667,"lon":5.381612,"is_reserved":false,"is_disabled":false,"rental_uris":{"android":"levelo://app?vid=33b9d6bb-5418-41ed-b8b3-0f7390df3679","ios":"levelo://app?vid=33b9d6bb-5418-41ed-b8b3-0f7390df3679"},"vehicle_type_id":"4","last_reported":1767082621,"current_range_meters":9200,"station_id":"ce4bhih2rcd13ifvqfr0","pricing_plan_id":"cebpf4jnsgd1na2vs0mg"},{"bike_id":"e8e72b7f-d36d-4d18-b810-56258a3ff771","system_id":"levelo_inurba_marseille","lat":43.26686,"lon":5.38274,"is_reserved":false,"is_disabled":false,"rental_uris":{"android":"levelo://app?vid=e8e72b7f-d36d-4d18-b810-56258a3ff771","ios":"levelo://app?vid=e8e72b7f-d36d-4d18-b810-56258a3ff771"},"vehicle_type_id":"4","last_reported":1767082621,"current_range_meters":9200,"station_id":"ce4bhg92rcd13ifvqf90","pricing_plan_id":"cebpf4jnsgd1na2vs0mg"},{"bike_id":"59aab69d-aa14-4a71-8d9b-0aa143ba58f2","system_id":"levelo_inurba_marseille","lat":43.28523,"lon":5.441,"is_reserved":false,"is_disabled":true,"rental_uris":{"android":"levelo://app?vid=59aab69d-aa14-4a71-8d9b-0aa143ba58f2","ios":"levelo://app?vid=59aab69d-aa14-4a71-8d9b-0aa143ba58f2"},"vehicle_type_id":"4","last_reported":1767082621,"current_range_meters":9200,"station_id":"st_d3j3df2ikq2c7380ej80","pricing_plan_id":"cebpf4jnsgd1na2vs0mg"},{"bike_id":"c51301be-aa87-4830-8cdc-99d533c9e895","system_id":"levelo_inurba_marseille","lat":43.28031,"lon":5.36947,"is_reserved":false,"is_disabled":false,"rental_uris":{"android":"levelo://app?vid=c51301be-aa87-4830-8cdc-99d533c9e895","ios":"levelo://app?vid=c51301be-aa87-4830-8cdc-99d533c9e895"},"vehicle_type_id":"4","last_reported":1767082621,"current_range_meters":9600,"station_id":"ce4bha12rcd13ifvqef0","pricing_plan_id":"cebpf4jnsgd1na2vs0mg"},{"bike_id":"cbad8aae-413f-4da8-bdf4-0f2c2fc39270","system_id":"levelo_inurba_marseille","lat":43.24788,"lon":5.37474,"is_reserved":false,"is_disabled":false,"rental_uris":{"android":"levelo://app?vid=cbad8aae-413f-4da8-bdf4-0f2c2fc39270","ios":"levelo://app?vid=cbad8aae-413f-4da8-bdf4-0f2c2fc39270"},"vehicle_type_id":"4","last_reported":1767082621,"current_range_meters":9600,"station_id":"ce4bhgh2rcd13ifvqfb0","pricing_plan_id":"cebpf4jnsgd1na2vs0mg"},{"bike_id":"c9fa1631-112f-448c-bac2-c43d52a68128","system_id":"levelo_inurba_marseille","lat":43.26946,"lon":5.386351,"is_reserved":false,"is_disabled":false,"rental_uris":{"android":"levelo://app?vid=c9fa1631-112f-448c-bac2-c43d52a68128","ios":"levelo://app?vid=c9fa1631-112f-448c-bac2-c43d52a68128"},"vehicle_type_id":"4","last_reported":1767082621,"current_range_meters":9600,"station_id":"ce4bhh92rcd13ifvqfh0","pricing_plan_id":"cebpf4jnsgd1na2vs0mg"},{"bike_id":"1756bd8d-a2c4-41cd-85c6-586541aebd61","system_id":"levelo_inurba_marseille","lat":43.28441,"lon":5.39197,"is_reserved":false,"is_disabled":true,"rental_uris":{"android":"levelo://app?vid=1756bd8d-a2c4-41cd-85c6-586541aebd61","ios":"levelo://app?vid=1756bd8d-a2c4-41cd-85c6-586541aebd61"},"vehicle_type_id":"4","last_reported":1767082621,"current_range_meters":9600,"station_id":"ce4bhoh2rcd13ifvqh5g","pricing_plan_id":"cebpf4jnsgd1na2vs0mg"},{"bike_id":"c774363f-6411-4455-aa74-bea421a4a3fe","system_id":"levelo_inurba_marseille","lat":43.30167,"lon":5.38094,"is_reserved":false,"is_disabled":true,"rental_uris":{"android":"levelo://app?vid=c774363f-6411-4455-aa74-bea421a4a3fe","ios":"levelo://app?vid=c774363f-6411-4455-aa74-bea421a4a3fe"},"vehicle_type_id":"4","last_reported":1767082621,"current_range_meters":9600,"station_id":"","pricing_plan_id":"cebpf4jnsgd1na2vs0mg"},{"bike_id":"530d3be3-3828-4903-bd56-2af20d09331a","system_id":"levelo_inurba_marseille","lat":43.258659,"lon":5.399003,"is_reserved":false,"is_disabled":false,"rental_uris":{"android":"levelo://app?vid=530d3be3-3828-4903-bd56-2af20d09331a","ios":"levelo://app?vid=530d3be3-3828-4903-bd56-2af20d09331a"},"vehicle_type_id":"4","last_reported":1767082621,"current_range_meters":9600,"station_id":"ce4bhl92rcd13ifvqghg","pricing_plan_id":"cebpf4jnsgd1na2vs0mg"},{"bike_id":"e4beeca0-014f-45e3-b316-ee5816158ff3","system_id":"levelo_inurba_marseille","lat":43.287279,"lon":5.360895,"is_reserved":false,"is_disabled":false,"rental_uris":{"android":"levelo://app?vid=e4beeca0-014f-45e3-b316-ee5816158ff3","ios":"levelo://app?vid=e4beeca0-014f-45e3-b316-ee5816158ff3"},"vehicle_type_id":"4","last_reported":1767082621,"current_range_meters":9600,"station_id":"cki0cbj6b192h4jlfktg","pricing_plan_id":"cebpf4jnsgd1na2vs0mg"},{"bike_id":"1dd2c077-d7fa-43b2-a55d-f6335f7bc478","system_id":"levelo_inurba_marseille","lat":43.296585,"lon":5.372886,"is_reserved":false,"is_disabled":false,"rental_uris":{"android":"levelo://app?vid=1dd2c077-d7fa-43b2-a55d-f6335f7bc478","ios":"levelo://app?vid=1dd2c077-d7fa-43b2-a55d-f6335f7bc478"},"vehicle_type_id":"4","last_reported":1767082621,"current_range_meters":9600,"station_id":"ce4bgk12rcd13ifvqbj0","pricing_plan_id":"cebpf4jnsgd1na2vs0mg"},{"bike_id":"49e40505-74b6-4824-8966-059faeedce5c","system_id":"levelo_inurba_marseille","lat":43.25325,"lon":5.42169,"is_reserved":false,"is_disabled":false,"rental_uris":{"android":"levelo://app?vid=49e40505-74b6-4824-8966-059faeedce5c","ios":"levelo://app?vid=49e40505-74b6-4824-8966-059faeedce5c"},"vehicle_type_id":"4","last_reported":1767082621,"current_range_meters":9600,"station_id":"st_d2m65c5bi1j21697t3ng","pricing_plan_id":"cebpf4jnsgd1na2vs0mg"},{"bike_id":"eb537867-4f17-454c-a913-f8b62e6b616d","system_id":"levelo_inurba_marseille","lat":43.284566,"lon":5.358902,"is_reserved":false,"is_disabled":false,"rental_uris":{"android":"levelo://app?vid=eb537867-4f17-454c-a913-f8b62e6b616d","ios":"levelo://app?vid=eb537867-4f17-454c-a913-f8b62e6b616d"},"vehicle_type_id":"4","last_reported":1767082621,"current_range_meters":9600,"station_id":"ce4bhah2rcd13ifvqei0","pricing_plan_id":"cebpf4jnsgd1na2vs0mg"},{"bike_id":"1bf9af3e-5825-4028-b5fa-3733a35fec46","system_id":"levelo_inurba_marseille","lat":43.27065,"lon":5.38297,"is_reserved":false,"is_disabled":false,"rental_uris":{"android":"levelo://app?vid=1bf9af3e-5825-4028-b5fa-3733a35fec46","ios":"levelo://app?vid=1bf9af3e-5825-4028-b5fa-3733a35fec46"},"vehicle_type_id":"4","last_reported":1767082621,"current_range_meters":10000,"station_id":"st_d3n2fo6cfp8s73cte1j0","pricing_plan_id":"cebpf4jnsgd1na2vs0mg"},{"bike_id":"5221ddb6-40d1-4f37-a6ab-899e93d64755","system_id":"levelo_inurba_marseille","lat":43.25942,"lon":5.40903,"is_reserved":false,"is_disabled":false,"rental_uris":{"android":"levelo://app?vid=5221ddb6-40d1-4f37-a6ab-899e93d64755","ios":"levelo://app?vid=5221ddb6-40d1-4f37-a6ab-899e93d64755"},"vehicle_type_id":"4","last_reported":1767082621,"current_range_meters":10000,"station_id":"ce4bhm92rcd13ifvqglg","pricing_plan_id":"cebpf4jnsgd1na2vs0mg"},{"bike_id":"d70dbd93-8aed-4fe7-814e-589eb06f36b9","system_id":"levelo_inurba_marseille","lat":43.299142,"lon":5.374589,"is_reserved":false,"is_disabled":false,"rental_uris":{"android":"levelo://app?vid=d70dbd93-8aed-4fe7-814e-589eb06f36b9","ios":"levelo://app?vid=d70dbd93-8aed-4fe7-814e-589eb06f36b9"},"vehicle_type_id":"4","last_reported":1767082621,"current_range_meters":10000,"station_id":"ce4bgjh2rcd13ifvqbg0","pricing_plan_id":"cebpf4jnsgd1na2vs0mg"},{"bike_id":"69a9232f-0c10-42f3-951d-98f9e1d93fde","system_id":"levelo_inurba_marseille","lat":43.29722,"lon":5.37686,"is_reserved":false,"is_disabled":false,"rental_uris":{"android":"levelo://app?vid=69a9232f-0c10-42f3-951d-98f9e1d93fde","ios":"levelo://app?vid=69a9232f-0c10-42f3-951d-98f9e1d93fde"},"vehicle_type_id":"4","last_reported":1767082621,"current_range_meters":10000,"station_id":"ce4bgkh2rcd13ifvqbl0","pricing_plan_id":"cebpf4jnsgd1na2vs0mg"},{"bike_id":"e1f89519-e552-47ca-a39a-cf7a29b7f486","system_id":"levelo_inurba_marseille","lat":43.24455,"lon":5.42543,"is_reserved":false,"is_disabled":false,"rental_uris":{"android":"levelo://app?vid=e1f89519-e552-47ca-a39a-cf7a29b7f486","ios":"levelo://app?vid=e1f89519-e552-47ca-a39a-cf7a29b7f486"},"vehicle_type_id":"4","last_reported":1767082621,"current_range_meters":10000,"station_id":"st_d4a3vfp97mjs738cd8kg","pricing_plan_id":"cebpf4jnsgd1na2vs0mg"},{"bike_id":"dd144413-b1b8-4845-ae9e-f037dc4645bc","system_id":"levelo_inurba_marseille","lat":43.26376,"lon":5.41071,"is_reserved":false,"is_disabled":false,"rental_uris":{"android":"levelo://app?vid=dd144413-b1b8-4845-ae9e-f037dc4645bc","ios":"levelo://app?vid=dd144413-b1b8-4845-ae9e-f037dc4645bc"},"vehicle_type_id":"4","last_reported":1767082621,"current_range_meters":10000,"station_id":"st_d4e5ca6na9uc73bfl5fg","pricing_plan_id":"cebpf4jnsgd1na2vs0mg"},{"bike_id":"e54d4104-9e89-4bb8-b60e-d3755b992e4f","system_id":"levelo_inurba_marseille","lat":43.28532,"lon":5.44087,"is_reserved":false,"is_disabled":false,"rental_uris":{"android":"levelo://app?vid=e54d4104-9e89-4bb8-b60e-d3755b992e4f","ios":"levelo://app?vid=e54d4104-9e89-4bb8-b60e-d3755b992e4f"},"vehicle_type_id":"4","last_reported":1767082621,"current_range_meters":10000,"station_id":"st_d3j3df2ikq2c7380ej80","pricing_plan_id":"cebpf4jnsgd1na2vs0mg"},{"bike_id":"bac2109d-15df-4d0e-bae2-d33bd1ac452e","system_id":"levelo_inurba_marseille","lat":43.29975,"lon":5.37168,"is_reserved":false,"is_disabled":false,"rental_uris":{"android":"levelo://app?vid=bac2109d-15df-4d0e-bae2-d33bd1ac452e","ios":"levelo://app?vid=bac2109d-15df-4d0e-bae2-d33bd1ac452e"},"vehicle_type_id":"4","last_reported":1767082621,"current_range_meters":10800,"station_id":"ce4bgr92rcd13ifvqc7g","pricing_plan_id":"cebpf4jnsgd1na2vs0mg"},{"bike_id":"2703b803-944c-4f90-b5fc-f9ddd565456b","system_id":"levelo_inurba_marseille","lat":43.279131,"lon":5.395883,"is_reserved":false,"is_disabled":true,"rental_uris":{"android":"levelo://app?vid=2703b803-944c-4f90-b5fc-f9ddd565456b","ios":"levelo://app?vid=2703b803-944c-4f90-b5fc-f9ddd565456b"},"vehicle_type_id":"4","last_reported":1767082621,"current_range_meters":10800,"station_id":"ce4bhf92rcd13ifvqf40","pricing_plan_id":"cebpf4jnsgd1na2vs0mg"},{"bike_id":"d0eac433-eb95-429f-992d-0ee094d7908b","system_id":"levelo_inurba_marseille","lat":43.290367,"lon":5.375583,"is_reserved":false,"is_disabled":false,"rental_uris":{"android":"levelo://app?vid=d0eac433-eb95-429f-992d-0ee094d7908b","ios":"levelo://app?vid=d0eac433-eb95-429f-992d-0ee094d7908b"},"vehicle_type_id":"4","last_reported":1767082621,"current_range_meters":10800,"station_id":"","pricing_plan_id":"cebpf4jnsgd1na2vs0mg"},{"bike_id":"1f986bde-e823-4547-a8eb-43be952db802","system_id":"levelo_inurba_marseille","lat":43.29442,"lon":5.37288,"is_reserved":false,"is_disabled":false,"rental_uris":{"android":"levelo://app?vid=1f986bde-e823-4547-a8eb-43be952db802","ios":"levelo://app?vid=1f986bde-e823-4547-a8eb-43be952db802"},"vehicle_type_id":"4","last_reported":1767082621,"current_range_meters":10800,"station_id":"","pricing_plan_id":"cebpf4jnsgd1na2vs0mg"},{"bike_id":"ca871f30-0b0c-4661-97a2-3a92a33862a8","system_id":"levelo_inurba_marseille","lat":43.29354,"lon":5.37218,"is_reserved":false,"is_disabled":false,"rental_uris":{"android":"levelo://app?vid=ca871f30-0b0c-4661-97a2-3a92a33862a8","ios":"levelo://app?vid=ca871f30-0b0c-4661-97a2-3a92a33862a8"},"vehicle_type_id":"4","last_reported":1767082621,"current_range_meters":10800,"station_id":"","pricing_plan_id":"cebpf4jnsgd1na2vs0mg"},{"bike_id":"1035b440-4418-491a-9701-84e4e498f838","system_id":"levelo_inurba_marseille","lat":43.25725,"lon":5.41102,"is_reserved":false,"is_disabled":false,"rental_uris":{"android":"levelo://app?vid=1035b440-4418-491a-9701-84e4e498f838","ios":"levelo://app?vid=1035b440-4418-491a-9701-84e4e498f838"},"vehicle_type_id":"4","last_reported":1767082621,"current_range_meters":10800,"station_id":"ce4bhkp2rcd13ifvqgd0","pricing_plan_id":"cebpf4jnsgd1na2vs0mg"},{"bike_id":"e947b17b-f906-491d-af8c-2d43714a0985","system_id":"levelo_inurba_marseille","lat":43.299275,"lon":5.381034,"is_reserved":false,"is_disabled":false,"rental_uris":{"android":"levelo://app?vid=e947b17b-f906-491d-af8c-2d43714a0985","ios":"levelo://app?vid=e947b17b-f906-491d-af8c-2d43714a0985"},"vehicle_type_id":"4","last_reported":1767082621,"current_range_meters":11200,"station_id":"ce4bgj12rcd13ifvqbc0","pricing_plan_id":"cebpf4jnsgd1na2vs0mg"},{"bike_id":"b05640fc-cf78-4e6b-bafb-c8aa2abc6f80","system_id":"levelo_inurba_marseille","lat":43.273975,"lon":5.390468,"is_reserved":false,"is_disabled":false,"rental_uris":{"android":"levelo://app?vid=b05640fc-cf78-4e6b-bafb-c8aa2abc6f80","ios":"levelo://app?vid=b05640fc-cf78-4e6b-bafb-c8aa2abc6f80"},"vehicle_type_id":"4","last_reported":1767082621,"current_range_meters":11200,"station_id":"","pricing_plan_id":"cebpf4jnsgd1na2vs0mg"},{"bike_id":"dbe09716-f079-4c70-a408-7e3d3011c76c","system_id":"levelo_inurba_marseille","lat":43.2742,"lon":5.39395,"is_reserved":false,"is_disabled":true,"rental_uris":{"android":"levelo://app?vid=dbe09716-f079-4c70-a408-7e3d3011c76c","ios":"levelo://app?vid=dbe09716-f079-4c70-a408-7e3d3011c76c"},"vehicle_type_id":"4","last_reported":1767082621,"current_range_meters":11200,"station_id":"ce4bhdp2rcd13ifvqf20","pricing_plan_id":"cebpf4jnsgd1na2vs0mg"},{"bike_id":"19acd174-21ed-4f5f-909e-79c5e91514cf","system_id":"levelo_inurba_marseille","lat":43.24395,"lon":5.37074,"is_reserved":false,"is_disabled":false,"rental_uris":{"android":"levelo://app?vid=19acd174-21ed-4f5f-909e-79c5e91514cf","ios":"levelo://app?vid=19acd174-21ed-4f5f-909e-79c5e91514cf"},"vehicle_type_id":"4","last_reported":1767082621,"current_range_meters":11200,"station_id":"ce4bhhh2rcd13ifvqfk0","pricing_plan_id":"cebpf4jnsgd1na2vs0mg"},{"bike_id":"9152dc23-aabb-4dc0-8225-d34b5a4f8b0e","system_id":"levelo_inurba_marseille","lat":43.24661,"lon":5.38897,"is_reserved":false,"is_disabled":false,"rental_uris":{"android":"levelo://app?vid=9152dc23-aabb-4dc0-8225-d34b5a4f8b0e","ios":"levelo://app?vid=9152dc23-aabb-4dc0-8225-d34b5a4f8b0e"},"vehicle_type_id":"4","last_reported":1767082621,"current_range_meters":11200,"station_id":"ce4bhg12rcd13ifvqf60","pricing_plan_id":"cebpf4jnsgd1na2vs0mg"},{"bike_id":"bf6369b9-a462-42a4-9878-d7395b7dd88e","system_id":"levelo_inurba_marseille","lat":43.29828,"lon":5.38112,"is_reserved":false,"is_disabled":false,"rental_uris":{"android":"levelo://app?vid=bf6369b9-a462-42a4-9878-d7395b7dd88e","ios":"levelo://app?vid=bf6369b9-a462-42a4-9878-d7395b7dd88e"},"vehicle_type_id":"4","last_reported":1767082621,"current_range_meters":11200,"station_id":"ce4bgip2rcd13ifvqbb0","pricing_plan_id":"cebpf4jnsgd1na2vs0mg"},{"bike_id":"b3ea201d-6b5a-40d1-b4b7-a677ac0f7824","system_id":"levelo_inurba_marseille","lat":43.25335,"lon":5.42174,"is_reserved":false,"is_disabled":false,"rental_uris":{"android":"levelo://app?vid=b3ea201d-6b5a-40d1-b4b7-a677ac0f7824","ios":"levelo://app?vid=b3ea201d-6b5a-40d1-b4b7-a677ac0f7824"},"vehicle_type_id":"4","last_reported":1767082621,"current_range_meters":11200,"station_id":"st_d2m65c5bi1j21697t3ng","pricing_plan_id":"cebpf4jnsgd1na2vs0mg"},{"bike_id":"5ce02ee5-0a83-4c6d-9413-c8b35717ff55","system_id":"levelo_inurba_marseille","lat":43.295879,"lon":5.367428,"is_reserved":false,"is_disabled":false,"rental_uris":{"android":"levelo://app?vid=5ce02ee5-0a83-4c6d-9413-c8b35717ff55","ios":"levelo://app?vid=5ce02ee5-0a83-4c6d-9413-c8b35717ff55"},"vehicle_type_id":"4","last_reported":1767082621,"current_range_meters":11200,"station_id":"ce4bgph2rcd13ifvqc2g","pricing_plan_id":"cebpf4jnsgd1na2vs0mg"},{"bike_id":"01cbb8d5-170b-46a8-8e8e-7d25f92ca46d","system_id":"levelo_inurba_marseille","lat":43.29291,"lon":5.37144,"is_reserved":false,"is_disabled":false,"rental_uris":{"android":"levelo://app?vid=01cbb8d5-170b-46a8-8e8e-7d25f92ca46d","ios":"levelo://app?vid=01cbb8d5-170b-46a8-8e8e-7d25f92ca46d"},"vehicle_type_id":"4","last_reported":1767082621,"current_range_meters":11600,"station_id":"ce4bgh92rcd13ifvqb40","pricing_plan_id":"cebpf4jnsgd1na2vs0mg"},{"bike_id":"833f4943-80a3-4386-a7a8-645bc9b306ca","system_id":"levelo_inurba_marseille","lat":43.27629,"lon":5.36108,"is_reserved":false,"is_disabled":false,"rental_uris":{"android":"levelo://app?vid=833f4943-80a3-4386-a7a8-645bc9b306ca","ios":"levelo://app?vid=833f4943-80a3-4386-a7a8-645bc9b306ca"},"vehicle_type_id":"4","last_reported":1767082621,"current_range_meters":11600,"station_id":"ce4bgj92rcd13ifvqbe0","pricing_plan_id":"cebpf4jnsgd1na2vs0mg"},{"bike_id":"0905c6d5-0c3a-49d1-8f23-6c4743792616","system_id":"levelo_inurba_marseille","lat":43.27992,"lon":5.40003,"is_reserved":false,"is_disabled":false,"rental_uris":{"android":"levelo://app?vid=0905c6d5-0c3a-49d1-8f23-6c4743792616","ios":"levelo://app?vid=0905c6d5-0c3a-49d1-8f23-6c4743792616"},"vehicle_type_id":"4","last_reported":1767082621,"current_range_meters":11600,"station_id":"ce4bho92rcd13ifvqh4g","pricing_plan_id":"cebpf4jnsgd1na2vs0mg"},{"bike_id":"23904288-d8db-496e-ac4f-fe2e23c85d61","system_id":"levelo_inurba_marseille","lat":43.29944,"lon":5.37621,"is_reserved":false,"is_disabled":false,"rental_uris":{"android":"levelo://app?vid=23904288-d8db-496e-ac4f-fe2e23c85d61","ios":"levelo://app?vid=23904288-d8db-496e-ac4f-fe2e23c85d61"},"vehicle_type_id":"4","last_reported":1767082621,"current_range_meters":11600,"station_id":"","pricing_plan_id":"cebpf4jnsgd1na2vs0mg"},{"bike_id":"3400d737-a32e-4dca-a00a-47ca201c9735","system_id":"levelo_inurba_marseille","lat":43.29558,"lon":5.4228,"is_reserved":false,"is_disabled":true,"rental_uris":{"android":"levelo://app?vid=3400d737-a32e-4dca-a00a-47ca201c9735","ios":"levelo://app?vid=3400d737-a32e-4dca-a00a-47ca201c9735"},"vehicle_type_id":"4","last_reported":1767082621,"current_range_meters":11600,"station_id":"ce4bhph2rcd13ifvqhdg","pricing_plan_id":"cebpf4jnsgd1na2vs0mg"},{"bike_id":"c8c35a9a-4fd2-4128-bd87-390adcb17d7d","system_id":"levelo_inurba_marseille","lat":43.320647,"lon":5.415244,"is_reserved":false,"is_disabled":false,"rental_uris":{"android":"levelo://app?vid=c8c35a9a-4fd2-4128-bd87-390adcb17d7d","ios":"levelo://app?vid=c8c35a9a-4fd2-4128-bd87-390adcb17d7d"},"vehicle_type_id":"4","last_reported":1767082621,"current_range_meters":11600,"station_id":"ce4bhq92rcd13ifvqhkg","pricing_plan_id":"cebpf4jnsgd1na2vs0mg"},{"bike_id":"da897b33-268f-4873-a28c-c746964c1e3b","system_id":"levelo_inurba_marseille","lat":43.23192,"lon":5.39985,"is_reserved":false,"is_disabled":false,"rental_uris":{"android":"levelo://app?vid=da897b33-268f-4873-a28c-c746964c1e3b","ios":"levelo://app?vid=da897b33-268f-4873-a28c-c746964c1e3b"},"vehicle_type_id":"4","last_reported":1767082621,"current_range_meters":11600,"station_id":"ce4bhn12rcd13ifvqgqg","pricing_plan_id":"cebpf4jnsgd1na2vs0mg"},{"bike_id":"3a6694e6-51f3-4fa5-924d-19a8a09757cc","system_id":"levelo_inurba_marseille","lat":43.31654,"lon":5.3738,"is_reserved":false,"is_disabled":false,"rental_uris":{"android":"levelo://app?vid=3a6694e6-51f3-4fa5-924d-19a8a09757cc","ios":"levelo://app?vid=3a6694e6-51f3-4fa5-924d-19a8a09757cc"},"vehicle_type_id":"4","last_reported":1767082621,"current_range_meters":12000,"station_id":"","pricing_plan_id":"cebpf4jnsgd1na2vs0mg"},{"bike_id":"fc098e36-5b6c-4f3d-8731-bca1118ada11","system_id":"levelo_inurba_marseille","lat":43.2992,"lon":5.38115,"is_reserved":false,"is_disabled":false,"rental_uris":{"android":"levelo://app?vid=fc098e36-5b6c-4f3d-8731-bca1118ada11","ios":"levelo://app?vid=fc098e36-5b6c-4f3d-8731-bca1118ada11"},"vehicle_type_id":"4","last_reported":1767082621,"current_range_meters":12000,"station_id":"ce4bgj12rcd13ifvqbc0","pricing_plan_id":"cebpf4jnsgd1na2vs0mg"},{"bike_id":"92ec748d-d331-48c6-a4f4-43a2be28c6b2","system_id":"levelo_inurba_marseille","lat":43.30745,"lon":5.42479,"is_reserved":false,"is_disabled":false,"rental_uris":{"android":"levelo://app?vid=92ec748d-d331-48c6-a4f4-43a2be28c6b2","ios":"levelo://app?vid=92ec748d-d331-48c6-a4f4-43a2be28c6b2"},"vehicle_type_id":"4","last_reported":1767082621,"current_range_meters":12000,"station_id":"st_cvj6ca6bvosntc0bfgr0","pricing_plan_id":"cebpf4jnsgd1na2vs0mg"},{"bike_id":"8fccad20-fd23-4863-809f-c99bd7559390","system_id":"levelo_inurba_marseille","lat":43.311279,"lon":5.377631,"is_reserved":false,"is_disabled":false,"rental_uris":{"android":"levelo://app?vid=8fccad20-fd23-4863-809f-c99bd7559390","ios":"levelo://app?vid=8fccad20-fd23-4863-809f-c99bd7559390"},"vehicle_type_id":"4","last_reported":1767082621,"current_range_meters":12000,"station_id":"ce4bgt92rcd13ifvqcg0","pricing_plan_id":"cebpf4jnsgd1na2vs0mg"},{"bike_id":"5a0260e2-0834-48c1-8c5d-e32bb2a0d80f","system_id":"levelo_inurba_marseille","lat":43.3354,"lon":5.3747,"is_reserved":false,"is_disabled":false,"rental_uris":{"android":"levelo://app?vid=5a0260e2-0834-48c1-8c5d-e32bb2a0d80f","ios":"levelo://app?vid=5a0260e2-0834-48c1-8c5d-e32bb2a0d80f"},"vehicle_type_id":"4","last_reported":1767082621,"current_range_meters":12000,"station_id":"st_d46tts09ee8s73dlu43g","pricing_plan_id":"cebpf4jnsgd1na2vs0mg"},{"bike_id":"fd730288-95bc-4682-8dc4-a5ea5fa11f2b","system_id":"levelo_inurba_marseille","lat":43.32548,"lon":5.41431,"is_reserved":false,"is_disabled":false,"rental_uris":{"android":"levelo://app?vid=fd730288-95bc-4682-8dc4-a5ea5fa11f2b","ios":"levelo://app?vid=fd730288-95bc-4682-8dc4-a5ea5fa11f2b"},"vehicle_type_id":"4","last_reported":1767082621,"current_range_meters":12000,"station_id":"ce4bhq12rcd13ifvqhhg","pricing_plan_id":"cebpf4jnsgd1na2vs0mg"},{"bike_id":"80348a73-43d2-4aff-81ad-2c4266d5e02f","system_id":"levelo_inurba_marseille","lat":43.27327,"lon":5.3907,"is_reserved":false,"is_disabled":false,"rental_uris":{"android":"levelo://app?vid=80348a73-43d2-4aff-81ad-2c4266d5e02f","ios":"levelo://app?vid=80348a73-43d2-4aff-81ad-2c4266d5e02f"},"vehicle_type_id":"4","last_reported":1767082621,"current_range_meters":12000,"station_id":"ce4bhgp2rcd13ifvqfe0","pricing_plan_id":"cebpf4jnsgd1na2vs0mg"},{"bike_id":"88de2873-265f-4a7c-a388-458eec79854f","system_id":"levelo_inurba_marseille","lat":43.2594,"lon":5.40905,"is_reserved":false,"is_disabled":false,"rental_uris":{"android":"levelo://app?vid=88de2873-265f-4a7c-a388-458eec79854f","ios":"levelo://app?vid=88de2873-265f-4a7c-a388-458eec79854f"},"vehicle_type_id":"4","last_reported":1767082621,"current_range_meters":12000,"station_id":"ce4bhm92rcd13ifvqglg","pricing_plan_id":"cebpf4jnsgd1na2vs0mg"},{"bike_id":"28106e10-87d8-4705-b619-33af97942a1f","system_id":"levelo_inurba_marseille","lat":43.30889,"lon":5.37189,"is_reserved":false,"is_disabled":false,"rental_uris":{"android":"levelo://app?vid=28106e10-87d8-4705-b619-33af97942a1f","ios":"levelo://app?vid=28106e10-87d8-4705-b619-33af97942a1f"},"vehicle_type_id":"4","last_reported":1767082621,"current_range_meters":12400,"station_id":"ce4bguh2rcd13ifvqckg","pricing_plan_id":"cebpf4jnsgd1na2vs0mg"},{"bike_id":"003bdecd-43ef-4d1e-8dba-4deefbb1f83e","system_id":"levelo_inurba_marseille","lat":43.2942,"lon":5.4131,"is_reserved":false,"is_disabled":false,"rental_uris":{"android":"levelo://app?vid=003bdecd-43ef-4d1e-8dba-4deefbb1f83e","ios":"levelo://app?vid=003bdecd-43ef-4d1e-8dba-4deefbb1f83e"},"vehicle_type_id":"4","last_reported":1767082621,"current_range_meters":12400,"station_id":"","pricing_plan_id":"cebpf4jnsgd1na2vs0mg"},{"bike_id":"df59638d-d2ce-46c9-8792-19c18967ee40","system_id":"levelo_inurba_marseille","lat":43.237866,"lon":5.366322,"is_reserved":false,"is_disabled":false,"rental_uris":{"android":"levelo://app?vid=df59638d-d2ce-46c9-8792-19c18967ee40","ios":"levelo://app?vid=df59638d-d2ce-46c9-8792-19c18967ee40"},"vehicle_type_id":"4","last_reported":1767082621,"current_range_meters":12400,"station_id":"st_d3nk18o9ro0c73en2l3g","pricing_plan_id":"cebpf4jnsgd1na2vs0mg"},{"bike_id":"3fddbb28-2edc-47a2-af05-9d61c64ff251","system_id":"levelo_inurba_marseille","lat":43.33136,"lon":5.37762,"is_reserved":false,"is_disabled":false,"rental_uris":{"android":"levelo://app?vid=3fddbb28-2edc-47a2-af05-9d61c64ff251","ios":"levelo://app?vid=3fddbb28-2edc-47a2-af05-9d61c64ff251"},"vehicle_type_id":"4","last_reported":1767082621,"current_range_meters":12400,"station_id":"st_d46cu089ee8s73dldbu0","pricing_plan_id":"cebpf4jnsgd1na2vs0mg"},{"bike_id":"92cb6e37-1028-4bd9-bcc3-2dec10fdeee8","system_id":"levelo_inurba_marseille","lat":43.31071,"lon":5.3837,"is_reserved":false,"is_disabled":false,"rental_uris":{"android":"levelo://app?vid=92cb6e37-1028-4bd9-bcc3-2dec10fdeee8","ios":"levelo://app?vid=92cb6e37-1028-4bd9-bcc3-2dec10fdeee8"},"vehicle_type_id":"4","last_reported":1767082621,"current_range_meters":12400,"station_id":"","pricing_plan_id":"cebpf4jnsgd1na2vs0mg"},{"bike_id":"13c6f779-0fa7-435d-8f91-e79ded009d19","system_id":"levelo_inurba_marseille","lat":43.292672,"lon":5.368504,"is_reserved":false,"is_disabled":false,"rental_uris":{"android":"levelo://app?vid=13c6f779-0fa7-435d-8f91-e79ded009d19","ios":"levelo://app?vid=13c6f779-0fa7-435d-8f91-e79ded009d19"},"vehicle_type_id":"4","last_reported":1767082621,"current_range_meters":12400,"station_id":"ce4bhbp2rcd13ifvqesg","pricing_plan_id":"cebpf4jnsgd1na2vs0mg"},{"bike_id":"b951b24e-9db0-41ad-a6d6-73e46519c168","system_id":"levelo_inurba_marseille","lat":43.273821,"lon":5.362488,"is_reserved":false,"is_disabled":false,"rental_uris":{"android":"levelo://app?vid=b951b24e-9db0-41ad-a6d6-73e46519c168","ios":"levelo://app?vid=b951b24e-9db0-41ad-a6d6-73e46519c168"},"vehicle_type_id":"4","last_reported":1767082621,"current_range_meters":12400,"station_id":"ce4bhbh2rcd13ifvqeo0","pricing_plan_id":"cebpf4jnsgd1na2vs0mg"},{"bike_id":"47009b8a-18ee-4584-86c4-7496125b6ad3","system_id":"levelo_inurba_marseille","lat":43.31231,"lon":5.36833,"is_reserved":false,"is_disabled":false,"rental_uris":{"android":"levelo://app?vid=47009b8a-18ee-4584-86c4-7496125b6ad3","ios":"levelo://app?vid=47009b8a-18ee-4584-86c4-7496125b6ad3"},"vehicle_type_id":"4","last_reported":1767082621,"current_range_meters":12400,"station_id":"ce4bgl92rcd13ifvqbq0","pricing_plan_id":"cebpf4jnsgd1na2vs0mg"},{"bike_id":"1143eabc-e91b-41a6-8eaf-ee9abccf572b","system_id":"levelo_inurba_marseille","lat":43.31424,"lon":5.37515,"is_reserved":false,"is_disabled":false,"rental_uris":{"android":"levelo://app?vid=1143eabc-e91b-41a6-8eaf-ee9abccf572b","ios":"levelo://app?vid=1143eabc-e91b-41a6-8eaf-ee9abccf572b"},"vehicle_type_id":"4","last_reported":1767082621,"current_range_meters":12400,"station_id":"","pricing_plan_id":"cebpf4jnsgd1na2vs0mg"},{"bike_id":"fad47735-b5c0-4abd-86f4-fb6e2a12fb40","system_id":"levelo_inurba_marseille","lat":43.337444,"lon":5.374475,"is_reserved":false,"is_disabled":false,"rental_uris":{"android":"levelo://app?vid=fad47735-b5c0-4abd-86f4-fb6e2a12fb40","ios":"levelo://app?vid=fad47735-b5c0-4abd-86f4-fb6e2a12fb40"},"vehicle_type_id":"4","last_reported":1767082621,"current_range_meters":12400,"station_id":"","pricing_plan_id":"cebpf4jnsgd1na2vs0mg"},{"bike_id":"b9e6ae64-a455-4bde-8e09-ad75028fce47","system_id":"levelo_inurba_marseille","lat":43.27941,"lon":5.41043,"is_reserved":false,"is_disabled":false,"rental_uris":{"android":"levelo://app?vid=b9e6ae64-a455-4bde-8e09-ad75028fce47","ios":"levelo://app?vid=b9e6ae64-a455-4bde-8e09-ad75028fce47"},"vehicle_type_id":"4","last_reported":1767082621,"current_range_meters":12400,"station_id":"ce4bhnp2rcd13ifvqh0g","pricing_plan_id":"cebpf4jnsgd1na2vs0mg"},{"bike_id":"9a2077a2-cebc-468c-82f9-fecda68a9ec3","system_id":"levelo_inurba_marseille","lat":43.29486,"lon":5.40887,"is_reserved":false,"is_disabled":false,"rental_uris":{"android":"levelo://app?vid=9a2077a2-cebc-468c-82f9-fecda68a9ec3","ios":"levelo://app?vid=9a2077a2-cebc-468c-82f9-fecda68a9ec3"},"vehicle_type_id":"4","last_reported":1767082621,"current_range_meters":12400,"station_id":"","pricing_plan_id":"cebpf4jnsgd1na2vs0mg"},{"bike_id":"687c1be0-d952-4671-a832-8ad6803751f6","system_id":"levelo_inurba_marseille","lat":43.24642,"lon":5.43133,"is_reserved":false,"is_disabled":false,"rental_uris":{"android":"levelo://app?vid=687c1be0-d952-4671-a832-8ad6803751f6","ios":"levelo://app?vid=687c1be0-d952-4671-a832-8ad6803751f6"},"vehicle_type_id":"4","last_reported":1767082621,"current_range_meters":12800,"station_id":"st_d2m6c4gdas8pm72e190g","pricing_plan_id":"cebpf4jnsgd1na2vs0mg"},{"bike_id":"3f577dd2-4a41-477b-9eb0-e31dacf60ee3","system_id":"levelo_inurba_marseille","lat":43.32072,"lon":5.41544,"is_reserved":false,"is_disabled":false,"rental_uris":{"android":"levelo://app?vid=3f577dd2-4a41-477b-9eb0-e31dacf60ee3","ios":"levelo://app?vid=3f577dd2-4a41-477b-9eb0-e31dacf60ee3"},"vehicle_type_id":"4","last_reported":1767082621,"current_range_meters":12800,"station_id":"ce4bhq92rcd13ifvqhkg","pricing_plan_id":"cebpf4jnsgd1na2vs0mg"},{"bike_id":"433bf41e-f481-45b2-a1d2-4e8be2c7cb48","system_id":"levelo_inurba_marseille","lat":43.23192,"lon":5.35542,"is_reserved":false,"is_disabled":false,"rental_uris":{"android":"levelo://app?vid=433bf41e-f481-45b2-a1d2-4e8be2c7cb48","ios":"levelo://app?vid=433bf41e-f481-45b2-a1d2-4e8be2c7cb48"},"vehicle_type_id":"4","last_reported":1767082621,"current_range_meters":12800,"station_id":"ce4bhu92rcd13ifvqi70","pricing_plan_id":"cebpf4jnsgd1na2vs0mg"},{"bike_id":"e068a5f6-4e95-441a-b414-8f3f8b0cd33a","system_id":"levelo_inurba_marseille","lat":43.30152,"lon":5.38785,"is_reserved":false,"is_disabled":false,"rental_uris":{"android":"levelo://app?vid=e068a5f6-4e95-441a-b414-8f3f8b0cd33a","ios":"levelo://app?vid=e068a5f6-4e95-441a-b414-8f3f8b0cd33a"},"vehicle_type_id":"4","last_reported":1767082621,"current_range_meters":12800,"station_id":"ce4bghh2rcd13ifvqb60","pricing_plan_id":"cebpf4jnsgd1na2vs0mg"},{"bike_id":"542b2ba6-9fa8-48fd-b661-4556081d0be1","system_id":"levelo_inurba_marseille","lat":43.309058,"lon":5.368349,"is_reserved":false,"is_disabled":true,"rental_uris":{"android":"levelo://app?vid=542b2ba6-9fa8-48fd-b661-4556081d0be1","ios":"levelo://app?vid=542b2ba6-9fa8-48fd-b661-4556081d0be1"},"vehicle_type_id":"4","last_reported":1767082621,"current_range_meters":12800,"station_id":"ce4bgn92rcd13ifvqbvg","pricing_plan_id":"cebpf4jnsgd1na2vs0mg"},{"bike_id":"dce28840-1b59-4930-917a-12d88071d00f","system_id":"levelo_inurba_marseille","lat":43.285381,"lon":5.441021,"is_reserved":false,"is_disabled":false,"rental_uris":{"android":"levelo://app?vid=dce28840-1b59-4930-917a-12d88071d00f","ios":"levelo://app?vid=dce28840-1b59-4930-917a-12d88071d00f"},"vehicle_type_id":"4","last_reported":1767082621,"current_range_meters":12800,"station_id":"st_d3j3df2ikq2c7380ej80","pricing_plan_id":"cebpf4jnsgd1na2vs0mg"},{"bike_id":"43a10900-7ea0-4244-bfef-c328333be543","system_id":"levelo_inurba_marseille","lat":43.26213,"lon":5.404478,"is_reserved":false,"is_disabled":true,"rental_uris":{"android":"levelo://app?vid=43a10900-7ea0-4244-bfef-c328333be543","ios":"levelo://app?vid=43a10900-7ea0-4244-bfef-c328333be543"},"vehicle_type_id":"4","last_reported":1767082621,"current_range_meters":12800,"station_id":"ce4bhmh2rcd13ifvqgmg","pricing_plan_id":"cebpf4jnsgd1na2vs0mg"},{"bike_id":"d4834f7c-8cec-4643-b38e-33ed31e9b71c","system_id":"levelo_inurba_marseille","lat":43.29563,"lon":5.37867,"is_reserved":false,"is_disabled":false,"rental_uris":{"android":"levelo://app?vid=d4834f7c-8cec-4643-b38e-33ed31e9b71c","ios":"levelo://app?vid=d4834f7c-8cec-4643-b38e-33ed31e9b71c"},"vehicle_type_id":"4","last_reported":1767082621,"current_range_meters":12800,"station_id":"","pricing_plan_id":"cebpf4jnsgd1na2vs0mg"},{"bike_id":"3c8b8591-858b-4503-8f72-d268b14f0a29","system_id":"levelo_inurba_marseille","lat":43.27815,"lon":5.40714,"is_reserved":false,"is_disabled":false,"rental_uris":{"android":"levelo://app?vid=3c8b8591-858b-4503-8f72-d268b14f0a29","ios":"levelo://app?vid=3c8b8591-858b-4503-8f72-d268b14f0a29"},"vehicle_type_id":"4","last_reported":1767082621,"current_range_meters":12800,"station_id":"ce4bhnh2rcd13ifvqgtg","pricing_plan_id":"cebpf4jnsgd1na2vs0mg"},{"bike_id":"5ddd68a6-f82c-4304-a588-3449d662b345","system_id":"levelo_inurba_marseille","lat":43.25866,"lon":5.39895,"is_reserved":false,"is_disabled":false,"rental_uris":{"android":"levelo://app?vid=5ddd68a6-f82c-4304-a588-3449d662b345","ios":"levelo://app?vid=5ddd68a6-f82c-4304-a588-3449d662b345"},"vehicle_type_id":"4","last_reported":1767082621,"current_range_meters":12800,"station_id":"ce4bhl92rcd13ifvqghg","pricing_plan_id":"cebpf4jnsgd1na2vs0mg"},{"bike_id":"49eaeb99-01db-4a25-87fd-cb6c87f1647c","system_id":"levelo_inurba_marseille","lat":43.301246,"lon":5.431142,"is_reserved":false,"is_disabled":false,"rental_uris":{"android":"levelo://app?vid=49eaeb99-01db-4a25-87fd-cb6c87f1647c","ios":"levelo://app?vid=49eaeb99-01db-4a25-87fd-cb6c87f1647c"},"vehicle_type_id":"4","last_reported":1767082621,"current_range_meters":12800,"station_id":"st_d3js3co5814s73ftftug","pricing_plan_id":"cebpf4jnsgd1na2vs0mg"},{"bike_id":"ef7c300f-026c-4b02-8b75-5e5de9a9946e","system_id":"levelo_inurba_marseille","lat":43.299257,"lon":5.374728,"is_reserved":false,"is_disabled":false,"rental_uris":{"android":"levelo://app?vid=ef7c300f-026c-4b02-8b75-5e5de9a9946e","ios":"levelo://app?vid=ef7c300f-026c-4b02-8b75-5e5de9a9946e"},"vehicle_type_id":"4","last_reported":1767082621,"current_range_meters":12800,"station_id":"ce4bgjh2rcd13ifvqbg0","pricing_plan_id":"cebpf4jnsgd1na2vs0mg"},{"bike_id":"3aed97a2-32b9-47e9-b3e4-cd7dd1715d0c","system_id":"levelo_inurba_marseille","lat":43.31377,"lon":5.36748,"is_reserved":false,"is_disabled":false,"rental_uris":{"android":"levelo://app?vid=3aed97a2-32b9-47e9-b3e4-cd7dd1715d0c","ios":"levelo://app?vid=3aed97a2-32b9-47e9-b3e4-cd7dd1715d0c"},"vehicle_type_id":"4","last_reported":1767082621,"current_range_meters":13600,"station_id":"","pricing_plan_id":"cebpf4jnsgd1na2vs0mg"},{"bike_id":"0f0fc6ed-82de-439d-993e-666cb650fe34","system_id":"levelo_inurba_marseille","lat":43.2378,"lon":5.36628,"is_reserved":false,"is_disabled":false,"rental_uris":{"android":"levelo://app?vid=0f0fc6ed-82de-439d-993e-666cb650fe34","ios":"levelo://app?vid=0f0fc6ed-82de-439d-993e-666cb650fe34"},"vehicle_type_id":"4","last_reported":1767082621,"current_range_meters":13600,"station_id":"st_d3nk18o9ro0c73en2l3g","pricing_plan_id":"cebpf4jnsgd1na2vs0mg"},{"bike_id":"6dd6d7de-0746-4ddc-be8f-e1ab3378009e","system_id":"levelo_inurba_marseille","lat":43.2416,"lon":5.36399,"is_reserved":false,"is_disabled":false,"rental_uris":{"android":"levelo://app?vid=6dd6d7de-0746-4ddc-be8f-e1ab3378009e","ios":"levelo://app?vid=6dd6d7de-0746-4ddc-be8f-e1ab3378009e"},"vehicle_type_id":"4","last_reported":1767082621,"current_range_meters":13600,"station_id":"cpo36qri1sfpv3e86is0","pricing_plan_id":"cebpf4jnsgd1na2vs0mg"},{"bike_id":"3ae180a1-ad81-4fbd-8d8e-5122c1af76f4","system_id":"levelo_inurba_marseille","lat":43.337444,"lon":5.374475,"is_reserved":false,"is_disabled":false,"rental_uris":{"android":"levelo://app?vid=3ae180a1-ad81-4fbd-8d8e-5122c1af76f4","ios":"levelo://app?vid=3ae180a1-ad81-4fbd-8d8e-5122c1af76f4"},"vehicle_type_id":"4","last_reported":1767082621,"current_range_meters":13600,"station_id":"","pricing_plan_id":"cebpf4jnsgd1na2vs0mg"},{"bike_id":"82cce858-0c3e-43b4-99cd-6eb5b6d5dc02","system_id":"levelo_inurba_marseille","lat":43.32106,"lon":5.36772,"is_reserved":false,"is_disabled":false,"rental_uris":{"android":"levelo://app?vid=82cce858-0c3e-43b4-99cd-6eb5b6d5dc02","ios":"levelo://app?vid=82cce858-0c3e-43b4-99cd-6eb5b6d5dc02"},"vehicle_type_id":"4","last_reported":1767082621,"current_range_meters":13600,"station_id":"ce4bhrh2rcd13ifvqhug","pricing_plan_id":"cebpf4jnsgd1na2vs0mg"},{"bike_id":"5454917d-4b71-45e5-8d52-19681e51d39b","system_id":"levelo_inurba_marseille","lat":43.31051,"lon":5.3718,"is_reserved":false,"is_disabled":false,"rental_uris":{"android":"levelo://app?vid=5454917d-4b71-45e5-8d52-19681e51d39b","ios":"levelo://app?vid=5454917d-4b71-45e5-8d52-19681e51d39b"},"vehicle_type_id":"4","last_reported":1767082621,"current_range_meters":13600,"station_id":"st_d4kl2rp97mjs73e7tdfg","pricing_plan_id":"cebpf4jnsgd1na2vs0mg"},{"bike_id":"e0a3bc4d-cf11-4b93-a049-9693529dd970","system_id":"levelo_inurba_marseille","lat":43.31379,"lon":5.39015,"is_reserved":false,"is_disabled":false,"rental_uris":{"android":"levelo://app?vid=e0a3bc4d-cf11-4b93-a049-9693529dd970","ios":"levelo://app?vid=e0a3bc4d-cf11-4b93-a049-9693529dd970"},"vehicle_type_id":"4","last_reported":1767082621,"current_range_meters":13600,"station_id":"","pricing_plan_id":"cebpf4jnsgd1na2vs0mg"},{"bike_id":"7aacef8e-0a10-4619-9d7f-d7b45880c8f3","system_id":"levelo_inurba_marseille","lat":43.29629,"lon":5.37712,"is_reserved":false,"is_disabled":false,"rental_uris":{"android":"levelo://app?vid=7aacef8e-0a10-4619-9d7f-d7b45880c8f3","ios":"levelo://app?vid=7aacef8e-0a10-4619-9d7f-d7b45880c8f3"},"vehicle_type_id":"4","last_reported":1767082621,"current_range_meters":13600,"station_id":"ce4bgi92rcd13ifvqb90","pricing_plan_id":"cebpf4jnsgd1na2vs0mg"},{"bike_id":"7daa3897-f110-40f4-9a3c-35b4d44b65c5","system_id":"levelo_inurba_marseille","lat":43.32106,"lon":5.36768,"is_reserved":false,"is_disabled":false,"rental_uris":{"android":"levelo://app?vid=7daa3897-f110-40f4-9a3c-35b4d44b65c5","ios":"levelo://app?vid=7daa3897-f110-40f4-9a3c-35b4d44b65c5"},"vehicle_type_id":"4","last_reported":1767082621,"current_range_meters":13600,"station_id":"ce4bhrh2rcd13ifvqhug","pricing_plan_id":"cebpf4jnsgd1na2vs0mg"},{"bike_id":"377fb381-ff5d-414a-8e70-af1d1693b2b9","system_id":"levelo_inurba_marseille","lat":43.29818,"lon":5.40425,"is_reserved":false,"is_disabled":true,"rental_uris":{"android":"levelo://app?vid=377fb381-ff5d-414a-8e70-af1d1693b2b9","ios":"levelo://app?vid=377fb381-ff5d-414a-8e70-af1d1693b2b9"},"vehicle_type_id":"4","last_reported":1767082621,"current_range_meters":13600,"station_id":"","pricing_plan_id":"cebpf4jnsgd1na2vs0mg"},{"bike_id":"dacc1bc0-eec9-4219-9225-c37f13cfc222","system_id":"levelo_inurba_marseille","lat":43.285356,"lon":5.44096,"is_reserved":false,"is_disabled":false,"rental_uris":{"android":"levelo://app?vid=dacc1bc0-eec9-4219-9225-c37f13cfc222","ios":"levelo://app?vid=dacc1bc0-eec9-4219-9225-c37f13cfc222"},"vehicle_type_id":"4","last_reported":1767082621,"current_range_meters":13600,"station_id":"st_d3j3df2ikq2c7380ej80","pricing_plan_id":"cebpf4jnsgd1na2vs0mg"},{"bike_id":"4cd28149-bd26-4a0d-a9a6-6bcb45c5ce10","system_id":"levelo_inurba_marseille","lat":43.28076,"lon":5.39653,"is_reserved":false,"is_disabled":false,"rental_uris":{"android":"levelo://app?vid=4cd28149-bd26-4a0d-a9a6-6bcb45c5ce10","ios":"levelo://app?vid=4cd28149-bd26-4a0d-a9a6-6bcb45c5ce10"},"vehicle_type_id":"4","last_reported":1767082621,"current_range_meters":14000,"station_id":"ce4bho12rcd13ifvqh2g","pricing_plan_id":"cebpf4jnsgd1na2vs0mg"},{"bike_id":"0fa76090-b264-4d7f-a0bc-7de1e50f19da","system_id":"levelo_inurba_marseille","lat":43.28011,"lon":5.40415,"is_reserved":false,"is_disabled":false,"rental_uris":{"android":"levelo://app?vid=0fa76090-b264-4d7f-a0bc-7de1e50f19da","ios":"levelo://app?vid=0fa76090-b264-4d7f-a0bc-7de1e50f19da"},"vehicle_type_id":"4","last_reported":1767082621,"current_range_meters":14000,"station_id":"","pricing_plan_id":"cebpf4jnsgd1na2vs0mg"},{"bike_id":"725512a0-31a0-4e0e-90c7-a762e634dd55","system_id":"levelo_inurba_marseille","lat":43.29977,"lon":5.38483,"is_reserved":false,"is_disabled":false,"rental_uris":{"android":"levelo://app?vid=725512a0-31a0-4e0e-90c7-a762e634dd55","ios":"levelo://app?vid=725512a0-31a0-4e0e-90c7-a762e634dd55"},"vehicle_type_id":"4","last_reported":1767082621,"current_range_meters":14000,"station_id":"ce4bgj92rcd13ifvqbd0","pricing_plan_id":"cebpf4jnsgd1na2vs0mg"},{"bike_id":"0053fc53-a55c-498f-9df4-c2e161a6e543","system_id":"levelo_inurba_marseille","lat":43.31144,"lon":5.38606,"is_reserved":false,"is_disabled":false,"rental_uris":{"android":"levelo://app?vid=0053fc53-a55c-498f-9df4-c2e161a6e543","ios":"levelo://app?vid=0053fc53-a55c-498f-9df4-c2e161a6e543"},"vehicle_type_id":"4","last_reported":1767082621,"current_range_meters":14000,"station_id":"","pricing_plan_id":"cebpf4jnsgd1na2vs0mg"},{"bike_id":"ccec8baf-8de3-4f76-b969-55b0b35b8975","system_id":"levelo_inurba_marseille","lat":43.29625,"lon":5.37166,"is_reserved":false,"is_disabled":false,"rental_uris":{"android":"levelo://app?vid=ccec8baf-8de3-4f76-b969-55b0b35b8975","ios":"levelo://app?vid=ccec8baf-8de3-4f76-b969-55b0b35b8975"},"vehicle_type_id":"4","last_reported":1767082621,"current_range_meters":14000,"station_id":"ce4bgnh2rcd13ifvqc0g","pricing_plan_id":"cebpf4jnsgd1na2vs0mg"},{"bike_id":"ca012f14-82a3-4060-8da0-098244b0df8d","system_id":"levelo_inurba_marseille","lat":43.30036,"lon":5.38911,"is_reserved":false,"is_disabled":false,"rental_uris":{"android":"levelo://app?vid=ca012f14-82a3-4060-8da0-098244b0df8d","ios":"levelo://app?vid=ca012f14-82a3-4060-8da0-098244b0df8d"},"vehicle_type_id":"4","last_reported":1767082621,"current_range_meters":14000,"station_id":"","pricing_plan_id":"cebpf4jnsgd1na2vs0mg"},{"bike_id":"f9defe05-4ff2-4d1f-b650-c0894d9ee537","system_id":"levelo_inurba_marseille","lat":43.285356,"lon":5.441045,"is_reserved":false,"is_disabled":false,"rental_uris":{"android":"levelo://app?vid=f9defe05-4ff2-4d1f-b650-c0894d9ee537","ios":"levelo://app?vid=f9defe05-4ff2-4d1f-b650-c0894d9ee537"},"vehicle_type_id":"4","last_reported":1767082621,"current_range_meters":14400,"station_id":"st_d3j3df2ikq2c7380ej80","pricing_plan_id":"cebpf4jnsgd1na2vs0mg"},{"bike_id":"872ebd44-91ee-4a28-a06a-652b9e138754","system_id":"levelo_inurba_marseille","lat":43.27054,"lon":5.3829,"is_reserved":false,"is_disabled":false,"rental_uris":{"android":"levelo://app?vid=872ebd44-91ee-4a28-a06a-652b9e138754","ios":"levelo://app?vid=872ebd44-91ee-4a28-a06a-652b9e138754"},"vehicle_type_id":"4","last_reported":1767082621,"current_range_meters":14400,"station_id":"st_d3n2fo6cfp8s73cte1j0","pricing_plan_id":"cebpf4jnsgd1na2vs0mg"},{"bike_id":"1d7704b6-4f24-4463-b2ad-876ee9becb49","system_id":"levelo_inurba_marseille","lat":43.30643,"lon":5.40083,"is_reserved":false,"is_disabled":false,"rental_uris":{"android":"levelo://app?vid=1d7704b6-4f24-4463-b2ad-876ee9becb49","ios":"levelo://app?vid=1d7704b6-4f24-4463-b2ad-876ee9becb49"},"vehicle_type_id":"4","last_reported":1767082621,"current_range_meters":14400,"station_id":"ce4bh112rcd13ifvqda0","pricing_plan_id":"cebpf4jnsgd1na2vs0mg"},{"bike_id":"b6521d11-99b8-43ca-a853-a51747d5db82","system_id":"levelo_inurba_marseille","lat":43.30123,"lon":5.4312,"is_reserved":false,"is_disabled":false,"rental_uris":{"android":"levelo://app?vid=b6521d11-99b8-43ca-a853-a51747d5db82","ios":"levelo://app?vid=b6521d11-99b8-43ca-a853-a51747d5db82"},"vehicle_type_id":"4","last_reported":1767082621,"current_range_meters":14400,"station_id":"st_d3js3co5814s73ftftug","pricing_plan_id":"cebpf4jnsgd1na2vs0mg"},{"bike_id":"6d55a0a6-80f5-48da-b777-39d28a0ee642","system_id":"levelo_inurba_marseille","lat":43.29611,"lon":5.37713,"is_reserved":false,"is_disabled":false,"rental_uris":{"android":"levelo://app?vid=6d55a0a6-80f5-48da-b777-39d28a0ee642","ios":"levelo://app?vid=6d55a0a6-80f5-48da-b777-39d28a0ee642"},"vehicle_type_id":"4","last_reported":1767082621,"current_range_meters":14400,"station_id":"ce4bgi92rcd13ifvqb90","pricing_plan_id":"cebpf4jnsgd1na2vs0mg"},{"bike_id":"43193b6b-ec89-44fe-bcdb-56bb34ca50d7","system_id":"levelo_inurba_marseille","lat":43.23191,"lon":5.40004,"is_reserved":false,"is_disabled":false,"rental_uris":{"android":"levelo://app?vid=43193b6b-ec89-44fe-bcdb-56bb34ca50d7","ios":"levelo://app?vid=43193b6b-ec89-44fe-bcdb-56bb34ca50d7"},"vehicle_type_id":"4","last_reported":1767082621,"current_range_meters":14400,"station_id":"ce4bhn12rcd13ifvqgqg","pricing_plan_id":"cebpf4jnsgd1na2vs0mg"},{"bike_id":"fc01654f-2593-4295-8309-447493a7010a","system_id":"levelo_inurba_marseille","lat":43.27181,"lon":5.390489,"is_reserved":false,"is_disabled":false,"rental_uris":{"android":"levelo://app?vid=fc01654f-2593-4295-8309-447493a7010a","ios":"levelo://app?vid=fc01654f-2593-4295-8309-447493a7010a"},"vehicle_type_id":"4","last_reported":1767082621,"current_range_meters":14400,"station_id":"","pricing_plan_id":"cebpf4jnsgd1na2vs0mg"},{"bike_id":"246e84fb-1afd-498f-b855-009b4b2e82cd","system_id":"levelo_inurba_marseille","lat":43.304219,"lon":5.412891,"is_reserved":false,"is_disabled":false,"rental_uris":{"android":"levelo://app?vid=246e84fb-1afd-498f-b855-009b4b2e82cd","ios":"levelo://app?vid=246e84fb-1afd-498f-b855-009b4b2e82cd"},"vehicle_type_id":"4","last_reported":1767082621,"current_range_meters":14400,"station_id":"ce4bhop2rcd13ifvqh8g","pricing_plan_id":"cebpf4jnsgd1na2vs0mg"},{"bike_id":"99845526-4044-4e14-9d82-95d6704a08b7","system_id":"levelo_inurba_marseille","lat":43.293046,"lon":5.371749,"is_reserved":false,"is_disabled":false,"rental_uris":{"android":"levelo://app?vid=99845526-4044-4e14-9d82-95d6704a08b7","ios":"levelo://app?vid=99845526-4044-4e14-9d82-95d6704a08b7"},"vehicle_type_id":"4","last_reported":1767082621,"current_range_meters":14400,"station_id":"ce4bgh92rcd13ifvqb40","pricing_plan_id":"cebpf4jnsgd1na2vs0mg"},{"bike_id":"a9ca0334-3198-48d6-b1ea-de3a6c9cf163","system_id":"levelo_inurba_marseille","lat":43.24543,"lon":5.39525,"is_reserved":false,"is_disabled":false,"rental_uris":{"android":"levelo://app?vid=a9ca0334-3198-48d6-b1ea-de3a6c9cf163","ios":"levelo://app?vid=a9ca0334-3198-48d6-b1ea-de3a6c9cf163"},"vehicle_type_id":"4","last_reported":1767082621,"current_range_meters":14400,"station_id":"ce4bhlp2rcd13ifvqgjg","pricing_plan_id":"cebpf4jnsgd1na2vs0mg"},{"bike_id":"0035a49f-c924-43b0-93d3-43f42dc9e160","system_id":"levelo_inurba_marseille","lat":43.28468,"lon":5.38441,"is_reserved":false,"is_disabled":false,"rental_uris":{"android":"levelo://app?vid=0035a49f-c924-43b0-93d3-43f42dc9e160","ios":"levelo://app?vid=0035a49f-c924-43b0-93d3-43f42dc9e160"},"vehicle_type_id":"4","last_reported":1767082621,"current_range_meters":14400,"station_id":"","pricing_plan_id":"cebpf4jnsgd1na2vs0mg"},{"bike_id":"b6bb0504-7fba-4e3c-b400-2a1d155bf674","system_id":"levelo_inurba_marseille","lat":43.24157,"lon":5.3638,"is_reserved":false,"is_disabled":false,"rental_uris":{"android":"levelo://app?vid=b6bb0504-7fba-4e3c-b400-2a1d155bf674","ios":"levelo://app?vid=b6bb0504-7fba-4e3c-b400-2a1d155bf674"},"vehicle_type_id":"4","last_reported":1767082621,"current_range_meters":14400,"station_id":"cpo36qri1sfpv3e86is0","pricing_plan_id":"cebpf4jnsgd1na2vs0mg"},{"bike_id":"2dff8587-48e0-4416-89ff-81e5782bfef7","system_id":"levelo_inurba_marseille","lat":43.23061,"lon":5.35499,"is_reserved":false,"is_disabled":false,"rental_uris":{"android":"levelo://app?vid=2dff8587-48e0-4416-89ff-81e5782bfef7","ios":"levelo://app?vid=2dff8587-48e0-4416-89ff-81e5782bfef7"},"vehicle_type_id":"4","last_reported":1767082621,"current_range_meters":14400,"station_id":"cpo3342slgdg3j2ifvpg","pricing_plan_id":"cebpf4jnsgd1na2vs0mg"},{"bike_id":"ec5fae6d-47b5-4030-bf64-4af050af9ecb","system_id":"levelo_inurba_marseille","lat":43.30957,"lon":5.3778,"is_reserved":false,"is_disabled":false,"rental_uris":{"android":"levelo://app?vid=ec5fae6d-47b5-4030-bf64-4af050af9ecb","ios":"levelo://app?vid=ec5fae6d-47b5-4030-bf64-4af050af9ecb"},"vehicle_type_id":"4","last_reported":1767082621,"current_range_meters":14400,"station_id":"","pricing_plan_id":"cebpf4jnsgd1na2vs0mg"},{"bike_id":"32991cf0-a348-4bbb-8a1f-2cae5af4a1de","system_id":"levelo_inurba_marseille","lat":43.289285,"lon":5.38389,"is_reserved":false,"is_disabled":false,"rental_uris":{"android":"levelo://app?vid=32991cf0-a348-4bbb-8a1f-2cae5af4a1de","ios":"levelo://app?vid=32991cf0-a348-4bbb-8a1f-2cae5af4a1de"},"vehicle_type_id":"4","last_reported":1767082621,"current_range_meters":14400,"station_id":"ce4bh612rcd13ifvqe6g","pricing_plan_id":"cebpf4jnsgd1na2vs0mg"},{"bike_id":"5408588f-d4fc-4d62-a635-9d0edfd602ca","system_id":"levelo_inurba_marseille","lat":43.295179,"lon":5.424949,"is_reserved":false,"is_disabled":false,"rental_uris":{"android":"levelo://app?vid=5408588f-d4fc-4d62-a635-9d0edfd602ca","ios":"levelo://app?vid=5408588f-d4fc-4d62-a635-9d0edfd602ca"},"vehicle_type_id":"4","last_reported":1767082621,"current_range_meters":14400,"station_id":"","pricing_plan_id":"cebpf4jnsgd1na2vs0mg"},{"bike_id":"26aaa4c3-ca27-43bc-a11f-345371d00b8a","system_id":"levelo_inurba_marseille","lat":43.28698,"lon":5.374013,"is_reserved":false,"is_disabled":true,"rental_uris":{"android":"levelo://app?vid=26aaa4c3-ca27-43bc-a11f-345371d00b8a","ios":"levelo://app?vid=26aaa4c3-ca27-43bc-a11f-345371d00b8a"},"vehicle_type_id":"4","last_reported":1767082621,"current_range_meters":14400,"station_id":"ce4bh3p2rcd13ifvqdq0","pricing_plan_id":"cebpf4jnsgd1na2vs0mg"},{"bike_id":"2b86a2df-509d-4fdf-8d52-73b679ecec7d","system_id":"levelo_inurba_marseille","lat":43.33534,"lon":5.37469,"is_reserved":false,"is_disabled":false,"rental_uris":{"android":"levelo://app?vid=2b86a2df-509d-4fdf-8d52-73b679ecec7d","ios":"levelo://app?vid=2b86a2df-509d-4fdf-8d52-73b679ecec7d"},"vehicle_type_id":"4","last_reported":1767082621,"current_range_meters":14400,"station_id":"st_d46tts09ee8s73dlu43g","pricing_plan_id":"cebpf4jnsgd1na2vs0mg"},{"bike_id":"363da4c5-6af9-4b17-84b9-6bebf97c701c","system_id":"levelo_inurba_marseille","lat":43.28264,"lon":5.35065,"is_reserved":false,"is_disabled":false,"rental_uris":{"android":"levelo://app?vid=363da4c5-6af9-4b17-84b9-6bebf97c701c","ios":"levelo://app?vid=363da4c5-6af9-4b17-84b9-6bebf97c701c"},"vehicle_type_id":"4","last_reported":1767082621,"current_range_meters":14400,"station_id":"ce4bhbp2rcd13ifvqerg","pricing_plan_id":"cebpf4jnsgd1na2vs0mg"},{"bike_id":"a290066c-ca11-4bc9-a4d1-54f3d0c41d5c","system_id":"levelo_inurba_marseille","lat":43.27905,"lon":5.39594,"is_reserved":false,"is_disabled":false,"rental_uris":{"android":"levelo://app?vid=a290066c-ca11-4bc9-a4d1-54f3d0c41d5c","ios":"levelo://app?vid=a290066c-ca11-4bc9-a4d1-54f3d0c41d5c"},"vehicle_type_id":"4","last_reported":1767082621,"current_range_meters":14800,"station_id":"ce4bhf92rcd13ifvqf40","pricing_plan_id":"cebpf4jnsgd1na2vs0mg"},{"bike_id":"41889c44-729d-4644-8c53-58cdd953472b","system_id":"levelo_inurba_marseille","lat":43.29534,"lon":5.38554,"is_reserved":false,"is_disabled":false,"rental_uris":{"android":"levelo://app?vid=41889c44-729d-4644-8c53-58cdd953472b","ios":"levelo://app?vid=41889c44-729d-4644-8c53-58cdd953472b"},"vehicle_type_id":"4","last_reported":1767082621,"current_range_meters":14800,"station_id":"ce4bgih2rcd13ifvqba0","pricing_plan_id":"cebpf4jnsgd1na2vs0mg"},{"bike_id":"7eb74d00-8cb3-4eef-a460-2262e932b281","system_id":"levelo_inurba_marseille","lat":43.32689,"lon":5.39209,"is_reserved":false,"is_disabled":false,"rental_uris":{"android":"levelo://app?vid=7eb74d00-8cb3-4eef-a460-2262e932b281","ios":"levelo://app?vid=7eb74d00-8cb3-4eef-a460-2262e932b281"},"vehicle_type_id":"4","last_reported":1767082621,"current_range_meters":14800,"station_id":"","pricing_plan_id":"cebpf4jnsgd1na2vs0mg"},{"bike_id":"4466e4e7-7d9e-4691-9c78-17a073c9b554","system_id":"levelo_inurba_marseille","lat":43.32481,"lon":5.36564,"is_reserved":false,"is_disabled":false,"rental_uris":{"android":"levelo://app?vid=4466e4e7-7d9e-4691-9c78-17a073c9b554","ios":"levelo://app?vid=4466e4e7-7d9e-4691-9c78-17a073c9b554"},"vehicle_type_id":"4","last_reported":1767082621,"current_range_meters":14800,"station_id":"ce4bhs12rcd13ifvqhvg","pricing_plan_id":"cebpf4jnsgd1na2vs0mg"},{"bike_id":"591143d8-ec56-46e6-a5ad-1673c0333dae","system_id":"levelo_inurba_marseille","lat":43.30641,"lon":5.40068,"is_reserved":false,"is_disabled":false,"rental_uris":{"android":"levelo://app?vid=591143d8-ec56-46e6-a5ad-1673c0333dae","ios":"levelo://app?vid=591143d8-ec56-46e6-a5ad-1673c0333dae"},"vehicle_type_id":"4","last_reported":1767082621,"current_range_meters":14800,"station_id":"ce4bh112rcd13ifvqda0","pricing_plan_id":"cebpf4jnsgd1na2vs0mg"},{"bike_id":"002df4cd-7444-423a-afeb-1433f8189cd4","system_id":"levelo_inurba_marseille","lat":43.30943,"lon":5.40132,"is_reserved":false,"is_disabled":false,"rental_uris":{"android":"levelo://app?vid=002df4cd-7444-423a-afeb-1433f8189cd4","ios":"levelo://app?vid=002df4cd-7444-423a-afeb-1433f8189cd4"},"vehicle_type_id":"4","last_reported":1767082621,"current_range_meters":14800,"station_id":"ce4bgvp2rcd13ifvqct0","pricing_plan_id":"cebpf4jnsgd1na2vs0mg"},{"bike_id":"3486b79f-5d37-4ced-ac26-f2e90a6034f3","system_id":"levelo_inurba_marseille","lat":43.23183,"lon":5.35569,"is_reserved":false,"is_disabled":false,"rental_uris":{"android":"levelo://app?vid=3486b79f-5d37-4ced-ac26-f2e90a6034f3","ios":"levelo://app?vid=3486b79f-5d37-4ced-ac26-f2e90a6034f3"},"vehicle_type_id":"4","last_reported":1767082621,"current_range_meters":14800,"station_id":"ce4bhu92rcd13ifvqi70","pricing_plan_id":"cebpf4jnsgd1na2vs0mg"},{"bike_id":"3172a02b-7996-4b6b-b818-9734b8ef23fe","system_id":"levelo_inurba_marseille","lat":43.282627,"lon":5.350709,"is_reserved":false,"is_disabled":false,"rental_uris":{"android":"levelo://app?vid=3172a02b-7996-4b6b-b818-9734b8ef23fe","ios":"levelo://app?vid=3172a02b-7996-4b6b-b818-9734b8ef23fe"},"vehicle_type_id":"4","last_reported":1767082621,"current_range_meters":14800,"station_id":"ce4bhbp2rcd13ifvqerg","pricing_plan_id":"cebpf4jnsgd1na2vs0mg"},{"bike_id":"85dbbc59-1b40-4dff-9631-bcb5ca424d2e","system_id":"levelo_inurba_marseille","lat":43.30181,"lon":5.36609,"is_reserved":false,"is_disabled":false,"rental_uris":{"android":"levelo://app?vid=85dbbc59-1b40-4dff-9631-bcb5ca424d2e","ios":"levelo://app?vid=85dbbc59-1b40-4dff-9631-bcb5ca424d2e"},"vehicle_type_id":"4","last_reported":1767082621,"current_range_meters":14800,"station_id":"ce4bgrh2rcd13ifvqc8g","pricing_plan_id":"cebpf4jnsgd1na2vs0mg"},{"bike_id":"17afe1b8-3845-4441-8e5a-d0f128b7e6a7","system_id":"levelo_inurba_marseille","lat":43.28474,"lon":5.384,"is_reserved":false,"is_disabled":false,"rental_uris":{"android":"levelo://app?vid=17afe1b8-3845-4441-8e5a-d0f128b7e6a7","ios":"levelo://app?vid=17afe1b8-3845-4441-8e5a-d0f128b7e6a7"},"vehicle_type_id":"4","last_reported":1767082621,"current_range_meters":15200,"station_id":"ce4bh512rcd13ifvqe3g","pricing_plan_id":"cebpf4jnsgd1na2vs0mg"},{"bike_id":"93a979ae-2c6b-4810-9aba-a3f202a3630d","system_id":"levelo_inurba_marseille","lat":43.231551,"lon":5.436991,"is_reserved":false,"is_disabled":true,"rental_uris":{"android":"levelo://app?vid=93a979ae-2c6b-4810-9aba-a3f202a3630d","ios":"levelo://app?vid=93a979ae-2c6b-4810-9aba-a3f202a3630d"},"vehicle_type_id":"4","last_reported":1767082621,"current_range_meters":15200,"station_id":"ce4bhmp2rcd13ifvqgog","pricing_plan_id":"cebpf4jnsgd1na2vs0mg"},{"bike_id":"b3b8c28f-a4a2-4a54-a0d7-bca6b407c06b","system_id":"levelo_inurba_marseille","lat":43.2847,"lon":5.38433,"is_reserved":false,"is_disabled":false,"rental_uris":{"android":"levelo://app?vid=b3b8c28f-a4a2-4a54-a0d7-bca6b407c06b","ios":"levelo://app?vid=b3b8c28f-a4a2-4a54-a0d7-bca6b407c06b"},"vehicle_type_id":"4","last_reported":1767082621,"current_range_meters":15200,"station_id":"ce4bh512rcd13ifvqe3g","pricing_plan_id":"cebpf4jnsgd1na2vs0mg"},{"bike_id":"91b4e02c-117b-42cc-8178-a11d07122bd6","system_id":"levelo_inurba_marseille","lat":43.25825,"lon":5.39432,"is_reserved":false,"is_disabled":false,"rental_uris":{"android":"levelo://app?vid=91b4e02c-117b-42cc-8178-a11d07122bd6","ios":"levelo://app?vid=91b4e02c-117b-42cc-8178-a11d07122bd6"},"vehicle_type_id":"4","last_reported":1767082621,"current_range_meters":15200,"station_id":"ce4bhip2rcd13ifvqft0","pricing_plan_id":"cebpf4jnsgd1na2vs0mg"},{"bike_id":"810b1eed-f4d7-4c9d-bff1-af744a694458","system_id":"levelo_inurba_marseille","lat":43.27948,"lon":5.41035,"is_reserved":false,"is_disabled":false,"rental_uris":{"android":"levelo://app?vid=810b1eed-f4d7-4c9d-bff1-af744a694458","ios":"levelo://app?vid=810b1eed-f4d7-4c9d-bff1-af744a694458"},"vehicle_type_id":"4","last_reported":1767082621,"current_range_meters":15200,"station_id":"ce4bhnp2rcd13ifvqh0g","pricing_plan_id":"cebpf4jnsgd1na2vs0mg"},{"bike_id":"f79561d9-a9e3-4480-bd30-e533c5f19aef","system_id":"levelo_inurba_marseille","lat":43.307853,"lon":5.376526,"is_reserved":false,"is_disabled":false,"rental_uris":{"android":"levelo://app?vid=f79561d9-a9e3-4480-bd30-e533c5f19aef","ios":"levelo://app?vid=f79561d9-a9e3-4480-bd30-e533c5f19aef"},"vehicle_type_id":"4","last_reported":1767082621,"current_range_meters":15200,"station_id":"ce4bgv92rcd13ifvqcq0","pricing_plan_id":"cebpf4jnsgd1na2vs0mg"},{"bike_id":"3db4c3ae-8246-43f3-8b24-7d46694ac906","system_id":"levelo_inurba_marseille","lat":43.288664,"lon":5.425202,"is_reserved":false,"is_disabled":false,"rental_uris":{"android":"levelo://app?vid=3db4c3ae-8246-43f3-8b24-7d46694ac906","ios":"levelo://app?vid=3db4c3ae-8246-43f3-8b24-7d46694ac906"},"vehicle_type_id":"4","last_reported":1767082621,"current_range_meters":15200,"station_id":"st_d3b462108ojc7389ooeg","pricing_plan_id":"cebpf4jnsgd1na2vs0mg"},{"bike_id":"7a9f5bae-e6a7-4331-b078-77244cac4fa6","system_id":"levelo_inurba_marseille","lat":43.27908,"lon":5.38002,"is_reserved":false,"is_disabled":false,"rental_uris":{"android":"levelo://app?vid=7a9f5bae-e6a7-4331-b078-77244cac4fa6","ios":"levelo://app?vid=7a9f5bae-e6a7-4331-b078-77244cac4fa6"},"vehicle_type_id":"4","last_reported":1767082621,"current_range_meters":15200,"station_id":"ce4bhf92rcd13ifvqf50","pricing_plan_id":"cebpf4jnsgd1na2vs0mg"},{"bike_id":"062a0235-2d89-4fc1-b10d-ee79c97b2c64","system_id":"levelo_inurba_marseille","lat":43.318109,"lon":5.368843,"is_reserved":false,"is_disabled":false,"rental_uris":{"android":"levelo://app?vid=062a0235-2d89-4fc1-b10d-ee79c97b2c64","ios":"levelo://app?vid=062a0235-2d89-4fc1-b10d-ee79c97b2c64"},"vehicle_type_id":"4","last_reported":1767082621,"current_range_meters":15200,"station_id":"","pricing_plan_id":"cebpf4jnsgd1na2vs0mg"},{"bike_id":"ff2a9260-98fd-4327-a921-2b433595e5d8","system_id":"levelo_inurba_marseille","lat":43.2694,"lon":5.40238,"is_reserved":false,"is_disabled":false,"rental_uris":{"android":"levelo://app?vid=ff2a9260-98fd-4327-a921-2b433595e5d8","ios":"levelo://app?vid=ff2a9260-98fd-4327-a921-2b433595e5d8"},"vehicle_type_id":"4","last_reported":1767082621,"current_range_meters":15200,"station_id":"cjm6bp8fraef2m0cb0m0","pricing_plan_id":"cebpf4jnsgd1na2vs0mg"},{"bike_id":"3efab223-71c4-490b-ad3a-1369cb90475e","system_id":"levelo_inurba_marseille","lat":43.25572,"lon":5.38231,"is_reserved":false,"is_disabled":false,"rental_uris":{"android":"levelo://app?vid=3efab223-71c4-490b-ad3a-1369cb90475e","ios":"levelo://app?vid=3efab223-71c4-490b-ad3a-1369cb90475e"},"vehicle_type_id":"4","last_reported":1767082621,"current_range_meters":15200,"station_id":"ce4bhih2rcd13ifvqfs0","pricing_plan_id":"cebpf4jnsgd1na2vs0mg"},{"bike_id":"4aed622d-7a62-4b52-a47d-ee7156e1c7ce","system_id":"levelo_inurba_marseille","lat":43.25335,"lon":5.42164,"is_reserved":false,"is_disabled":false,"rental_uris":{"android":"levelo://app?vid=4aed622d-7a62-4b52-a47d-ee7156e1c7ce","ios":"levelo://app?vid=4aed622d-7a62-4b52-a47d-ee7156e1c7ce"},"vehicle_type_id":"4","last_reported":1767082621,"current_range_meters":15200,"station_id":"st_d2m65c5bi1j21697t3ng","pricing_plan_id":"cebpf4jnsgd1na2vs0mg"},{"bike_id":"42fc098e-42c8-4d51-98ba-59a46fc62019","system_id":"levelo_inurba_marseille","lat":43.337444,"lon":5.374475,"is_reserved":false,"is_disabled":false,"rental_uris":{"android":"levelo://app?vid=42fc098e-42c8-4d51-98ba-59a46fc62019","ios":"levelo://app?vid=42fc098e-42c8-4d51-98ba-59a46fc62019"},"vehicle_type_id":"4","last_reported":1767082621,"current_range_meters":15200,"station_id":"","pricing_plan_id":"cebpf4jnsgd1na2vs0mg"},{"bike_id":"c6990927-f112-43dc-993b-cc97e862332f","system_id":"levelo_inurba_marseille","lat":43.275714,"lon":5.384313,"is_reserved":false,"is_disabled":false,"rental_uris":{"android":"levelo://app?vid=c6990927-f112-43dc-993b-cc97e862332f","ios":"levelo://app?vid=c6990927-f112-43dc-993b-cc97e862332f"},"vehicle_type_id":"4","last_reported":1767082621,"current_range_meters":15200,"station_id":"ce4bhh92rcd13ifvqfi0","pricing_plan_id":"cebpf4jnsgd1na2vs0mg"},{"bike_id":"6d0d2d68-b052-4ac4-9468-0cf4abddc867","system_id":"levelo_inurba_marseille","lat":43.29265,"lon":5.37635,"is_reserved":false,"is_disabled":false,"rental_uris":{"android":"levelo://app?vid=6d0d2d68-b052-4ac4-9468-0cf4abddc867","ios":"levelo://app?vid=6d0d2d68-b052-4ac4-9468-0cf4abddc867"},"vehicle_type_id":"4","last_reported":1767082621,"current_range_meters":15200,"station_id":"ce4bgi12rcd13ifvqb80","pricing_plan_id":"cebpf4jnsgd1na2vs0mg"},{"bike_id":"e93c83d5-bafc-41ab-b80f-422d8d8d6d2a","system_id":"levelo_inurba_marseille","lat":43.26848,"lon":5.40078,"is_reserved":false,"is_disabled":false,"rental_uris":{"android":"levelo://app?vid=e93c83d5-bafc-41ab-b80f-422d8d8d6d2a","ios":"levelo://app?vid=e93c83d5-bafc-41ab-b80f-422d8d8d6d2a"},"vehicle_type_id":"4","last_reported":1767082621,"current_range_meters":16000,"station_id":"","pricing_plan_id":"cebpf4jnsgd1na2vs0mg"},{"bike_id":"5527eb0b-20f4-4a5b-99d9-f4400a1d9c14","system_id":"levelo_inurba_marseille","lat":43.31052,"lon":5.38362,"is_reserved":false,"is_disabled":false,"rental_uris":{"android":"levelo://app?vid=5527eb0b-20f4-4a5b-99d9-f4400a1d9c14","ios":"levelo://app?vid=5527eb0b-20f4-4a5b-99d9-f4400a1d9c14"},"vehicle_type_id":"4","last_reported":1767082621,"current_range_meters":16000,"station_id":"ce4bgv92rcd13ifvqcr0","pricing_plan_id":"cebpf4jnsgd1na2vs0mg"},{"bike_id":"7be19a66-044f-4223-8a5e-aa464921726b","system_id":"levelo_inurba_marseille","lat":43.23956,"lon":5.36629,"is_reserved":false,"is_disabled":false,"rental_uris":{"android":"levelo://app?vid=7be19a66-044f-4223-8a5e-aa464921726b","ios":"levelo://app?vid=7be19a66-044f-4223-8a5e-aa464921726b"},"vehicle_type_id":"4","last_reported":1767082621,"current_range_meters":16000,"station_id":"ce4bhi12rcd13ifvqfp0","pricing_plan_id":"cebpf4jnsgd1na2vs0mg"},{"bike_id":"78ed77cb-47f0-4c82-bf8a-f958576ec953","system_id":"levelo_inurba_marseille","lat":43.281561,"lon":5.426348,"is_reserved":false,"is_disabled":false,"rental_uris":{"android":"levelo://app?vid=78ed77cb-47f0-4c82-bf8a-f958576ec953","ios":"levelo://app?vid=78ed77cb-47f0-4c82-bf8a-f958576ec953"},"vehicle_type_id":"4","last_reported":1767082621,"current_range_meters":16000,"station_id":"ce4bhnh2rcd13ifvqgug","pricing_plan_id":"cebpf4jnsgd1na2vs0mg"},