{"last_updated":1762618272,"ttl":60,"version":"2.2","data":{"bikes":[{"bike_id":"0a320949-9d43-45b8-89b5-6465327b71fa","system_id":"levelo_inurba_marseille","lat":43.22925,"lon":5.35384,"is_reserved":false,"is_disabled":false,"rental_uris":{"android":"levelo://app?vid=0a320949-9d43-45b8-89b5-6465327b71fa","ios":"levelo://app?vid=0a320949-9d43-45b8-89b5-6465327b71fa"},"vehicle_type_id":"4","last_reported":1762618272,"current_range_meters":2800,"station_id":"cpo3532slgdg3j2ikp40","pricing_plan_id":"cebpf4jnsgd1na2vs0mg"},{"bike_id":"aa073d3c-91f3-4920-9d1e-90bf82850b1e","system_id":"levelo_inurba_marseille","lat":43.33775,"lon":5.37434,"is_reserved":false,"is_disabled":false,"rental_uris":{"android":"levelo://app?vid=aa073d3c-91f3-4920-9d1e-90bf82850b1e","ios":"levelo://app?vid=aa073d3c-91f3-4920-9d1e-90bf82850b1e"},"vehicle_type_id":"4","last_reported":1762618272,"current_range_meters":2800,"station_id":"","pricing_plan_id":"cebpf4jnsgd1na2vs0mg"},{"bike_id":"59c46c10-9a46-4fe9-889b-ae2a5f1d4c19","system_id":"levelo_inurba_marseille","lat":43.30541,"lon":5.36563,"is_reserved":false,"is_disabled":false,"rental_uris":{"android":"levelo://app?vid=59c46c10-9a46-4fe9-889b-ae2a5f1d4c19","ios":"levelo://app?vid=59c46c10-9a46-4fe9-889b-ae2a5f1d4c19"},"vehicle_type_id":"4","last_reported":1762618272,"current_range_meters":2800,"station_id":"ce4bgs12rcd13ifvqcag","pricing_plan_id":"cebpf4jnsgd1na2vs0mg"},{"bike_id":"60a2db3e-6d4d-408d-b9ef-8a4b3c69fa00","system_id":"levelo_inurba_marseille","lat":43.23153,"lon":5.4372,"is_reserved":false,"is_disabled":false,"rental_uris":{"android":"levelo://app?vid=60a2db3e-6d4d-408d-b9ef-8a4b3c69fa00","ios":"levelo://app?vid=60a2db3e-6d4d-408d-b9ef-8a4b3c69fa00"},"vehicle_type_id":"4","last_reported":1762618272,"current_range_meters":3200,"station_id":"ce4bhmp2rcd13ifvqgog","pricing_plan_id":"cebpf4jnsgd1na2vs0mg"},{"bike_id":"de2e56e0-5cd0-44fb-b34e-96104e4ae080","system_id":"levelo_inurba_marseille","lat":43.30594,"lon":5.3721,"is_reserved":false,"is_disabled":false,"rental_uris":{"android":"levelo://app?vid=de2e56e0-5cd0-44fb-b34e-96104e4ae080","ios":"levelo://app?vid=de2e56e0-5cd0-44fb-b34e-96104e4ae080"},"vehicle_type_id":"4","last_reported":1762618272,"current_range_meters":3200,"station_id":"ce4bgqh2rcd13ifvqc4g","pricing_plan_id":"cebpf4jnsgd1na2vs0mg"},{"bike_id":"d3ac0e36-5778-4461-945c-1bd3cad0e727","system_id":"levelo_inurba_marseille","lat":43.27837,"lon":5.39214,"is_reserved":false,"is_disabled":false,"rental_uris":{"android":"levelo://app?vid=d3ac0e36-5778-4461-945c-1bd3cad0e727","ios":"levelo://app?vid=d3ac0e36-5778-4461-945c-1bd3cad0e727"},"vehicle_type_id":"4","last_reported":1762618272,"current_range_meters":3200,"station_id":"ce4bhjp2rcd13ifvqga0","pricing_plan_id":"cebpf4jnsgd1na2vs0mg"},{"bike_id":"8f68c70a-f5fd-4834-8b65-31fe1a327f7f","system_id":"levelo_inurba_marseille","lat":43.31484,"lon":5.37317,"is_reserved":false,"is_disabled":false,"rental_uris":{"android":"levelo://app?vid=8f68c70a-f5fd-4834-8b65-31fe1a327f7f","ios":"levelo://app?vid=8f68c70a-f5fd-4834-8b65-31fe1a327f7f"},"vehicle_type_id":"4","last_reported":1762618272,"current_range_meters":3200,"station_id":"ce4bgt12rcd13ifvqcd0","pricing_plan_id":"cebpf4jnsgd1na2vs0mg"},{"bike_id":"f6ca3376-6c37-4f5b-8212-007c073cf046","system_id":"levelo_inurba_marseille","lat":43.225537,"lon":5.416236,"is_reserved":false,"is_disabled":true,"rental_uris":{"android":"levelo://app?vid=f6ca3376-6c37-4f5b-8212-007c073cf046","ios":"levelo://app?vid=f6ca3376-6c37-4f5b-8212-007c073cf046"},"vehicle_type_id":"4","last_reported":1762618272,"current_range_meters":3600,"station_id":"st_d2o4gvlbi1j2169b742g","pricing_plan_id":"cebpf4jnsgd1na2vs0mg"},{"bike_id":"4cd7f03c-619e-42a0-ad8c-750461df6430","system_id":"levelo_inurba_marseille","lat":43.282684,"lon":5.350601,"is_reserved":false,"is_disabled":false,"rental_uris":{"android":"levelo://app?vid=4cd7f03c-619e-42a0-ad8c-750461df6430","ios":"levelo://app?vid=4cd7f03c-619e-42a0-ad8c-750461df6430"},"vehicle_type_id":"4","last_reported":1762618272,"current_range_meters":3600,"station_id":"ce4bhbp2rcd13ifvqerg","pricing_plan_id":"cebpf4jnsgd1na2vs0mg"},{"bike_id":"8a0edbd3-6faa-4330-8889-c849281413af","system_id":"levelo_inurba_marseille","lat":43.27673,"lon":5.38871,"is_reserved":false,"is_disabled":false,"rental_uris":{"android":"levelo://app?vid=8a0edbd3-6faa-4330-8889-c849281413af","ios":"levelo://app?vid=8a0edbd3-6faa-4330-8889-c849281413af"},"vehicle_type_id":"4","last_reported":1762618272,"current_range_meters":3600,"station_id":"ce4bhi12rcd13ifvqfo0","pricing_plan_id":"cebpf4jnsgd1na2vs0mg"},{"bike_id":"59b31ef2-3fe3-46e5-b5a5-685f264695ce","system_id":"levelo_inurba_marseille","lat":43.28465,"lon":5.48392,"is_reserved":false,"is_disabled":false,"rental_uris":{"android":"levelo://app?vid=59b31ef2-3fe3-46e5-b5a5-685f264695ce","ios":"levelo://app?vid=59b31ef2-3fe3-46e5-b5a5-685f264695ce"},"vehicle_type_id":"4","last_reported":1762618272,"current_range_meters":3600,"station_id":"","pricing_plan_id":"cebpf4jnsgd1na2vs0mg"},{"bike_id":"a5665f03-5a93-42b6-9927-2b7bbfc529fb","system_id":"levelo_inurba_marseille","lat":43.25341,"lon":5.42171,"is_reserved":false,"is_disabled":false,"rental_uris":{"android":"levelo://app?vid=a5665f03-5a93-42b6-9927-2b7bbfc529fb","ios":"levelo://app?vid=a5665f03-5a93-42b6-9927-2b7bbfc529fb"},"vehicle_type_id":"4","last_reported":1762618272,"current_range_meters":3600,"station_id":"st_d2m65c5bi1j21697t3ng","pricing_plan_id":"cebpf4jnsgd1na2vs0mg"},{"bike_id":"1c6bc4d8-4da5-45ff-af52-f68cec0dacd6","system_id":"levelo_inurba_marseille","lat":43.30399,"lon":5.4129,"is_reserved":false,"is_disabled":false,"rental_uris":{"android":"levelo://app?vid=1c6bc4d8-4da5-45ff-af52-f68cec0dacd6","ios":"levelo://app?vid=1c6bc4d8-4da5-45ff-af52-f68cec0dacd6"},"vehicle_type_id":"4","last_reported":1762618272,"current_range_meters":3600,"station_id":"ce4bhop2rcd13ifvqh8g","pricing_plan_id":"cebpf4jnsgd1na2vs0mg"},{"bike_id":"dbc99dda-68a8-47f0-910e-38d69ea51573","system_id":"levelo_inurba_marseille","lat":43.284172,"lon":5.34975,"is_reserved":false,"is_disabled":false,"rental_uris":{"android":"levelo://app?vid=dbc99dda-68a8-47f0-910e-38d69ea51573","ios":"levelo://app?vid=dbc99dda-68a8-47f0-910e-38d69ea51573"},"vehicle_type_id":"4","last_reported":1762618272,"current_range_meters":4000,"station_id":"ce4bhbh2rcd13ifvqepg","pricing_plan_id":"cebpf4jnsgd1na2vs0mg"},{"bike_id":"151fdbcf-80e5-4071-8c7e-8e9b09c32efb","system_id":"levelo_inurba_marseille","lat":43.267769,"lon":5.394193,"is_reserved":false,"is_disabled":false,"rental_uris":{"android":"levelo://app?vid=151fdbcf-80e5-4071-8c7e-8e9b09c32efb","ios":"levelo://app?vid=151fdbcf-80e5-4071-8c7e-8e9b09c32efb"},"vehicle_type_id":"4","last_reported":1762618272,"current_range_meters":4000,"station_id":"ce4bhh12rcd13ifvqfg0","pricing_plan_id":"cebpf4jnsgd1na2vs0mg"},{"bike_id":"32c4054d-c111-4f1c-b188-9138aed42210","system_id":"levelo_inurba_marseille","lat":43.31967,"lon":5.41586,"is_reserved":false,"is_disabled":false,"rental_uris":{"android":"levelo://app?vid=32c4054d-c111-4f1c-b188-9138aed42210","ios":"levelo://app?vid=32c4054d-c111-4f1c-b188-9138aed42210"},"vehicle_type_id":"4","last_reported":1762618272,"current_range_meters":4000,"station_id":"","pricing_plan_id":"cebpf4jnsgd1na2vs0mg"},{"bike_id":"4a0c9a85-81c5-4736-8a17-541f7d175f15","system_id":"levelo_inurba_marseille","lat":43.255806,"lon":5.382405,"is_reserved":false,"is_disabled":false,"rental_uris":{"android":"levelo://app?vid=4a0c9a85-81c5-4736-8a17-541f7d175f15","ios":"levelo://app?vid=4a0c9a85-81c5-4736-8a17-541f7d175f15"},"vehicle_type_id":"4","last_reported":1762618272,"current_range_meters":4000,"station_id":"ce4bhih2rcd13ifvqfs0","pricing_plan_id":"cebpf4jnsgd1na2vs0mg"},{"bike_id":"0d30a4a7-fec7-42f6-ba51-446f9ae0b372","system_id":"levelo_inurba_marseille","lat":43.3038,"lon":5.42486,"is_reserved":false,"is_disabled":false,"rental_uris":{"android":"levelo://app?vid=0d30a4a7-fec7-42f6-ba51-446f9ae0b372","ios":"levelo://app?vid=0d30a4a7-fec7-42f6-ba51-446f9ae0b372"},"vehicle_type_id":"4","last_reported":1762618272,"current_range_meters":4000,"station_id":"ce4bhoh2rcd13ifvqh6g","pricing_plan_id":"cebpf4jnsgd1na2vs0mg"},{"bike_id":"bf7cf780-9d23-4abe-9860-c14202aa022d","system_id":"levelo_inurba_marseille","lat":43.280335,"lon":5.369253,"is_reserved":false,"is_disabled":false,"rental_uris":{"android":"levelo://app?vid=bf7cf780-9d23-4abe-9860-c14202aa022d","ios":"levelo://app?vid=bf7cf780-9d23-4abe-9860-c14202aa022d"},"vehicle_type_id":"4","last_reported":1762618272,"current_range_meters":4000,"station_id":"ce4bha12rcd13ifvqef0","pricing_plan_id":"cebpf4jnsgd1na2vs0mg"},{"bike_id":"823f917d-30b7-435a-9be1-c5358c547af5","system_id":"levelo_inurba_marseille","lat":43.26497,"lon":5.39543,"is_reserved":false,"is_disabled":false,"rental_uris":{"android":"levelo://app?vid=823f917d-30b7-435a-9be1-c5358c547af5","ios":"levelo://app?vid=823f917d-30b7-435a-9be1-c5358c547af5"},"vehicle_type_id":"4","last_reported":1762618272,"current_range_meters":4000,"station_id":"ce4bhi12rcd13ifvqfq0","pricing_plan_id":"cebpf4jnsgd1na2vs0mg"},{"bike_id":"e774e600-3d8a-4b13-a1e6-9aa67ac84e1b","system_id":"levelo_inurba_marseille","lat":43.25935,"lon":5.40912,"is_reserved":false,"is_disabled":false,"rental_uris":{"android":"levelo://app?vid=e774e600-3d8a-4b13-a1e6-9aa67ac84e1b","ios":"levelo://app?vid=e774e600-3d8a-4b13-a1e6-9aa67ac84e1b"},"vehicle_type_id":"4","last_reported":1762618272,"current_range_meters":4000,"station_id":"ce4bhm92rcd13ifvqglg","pricing_plan_id":"cebpf4jnsgd1na2vs0mg"},{"bike_id":"ab3a4d6b-b442-44b9-8f02-c1c222f445ba","system_id":"levelo_inurba_marseille","lat":43.27408,"lon":5.39292,"is_reserved":false,"is_disabled":false,"rental_uris":{"android":"levelo://app?vid=ab3a4d6b-b442-44b9-8f02-c1c222f445ba","ios":"levelo://app?vid=ab3a4d6b-b442-44b9-8f02-c1c222f445ba"},"vehicle_type_id":"4","last_reported":1762618272,"current_range_meters":4400,"station_id":"","pricing_plan_id":"cebpf4jnsgd1na2vs0mg"},{"bike_id":"75bc333b-dfc1-46da-a386-e67c86771450","system_id":"levelo_inurba_marseille","lat":43.30156,"lon":5.38594,"is_reserved":false,"is_disabled":false,"rental_uris":{"android":"levelo://app?vid=75bc333b-dfc1-46da-a386-e67c86771450","ios":"levelo://app?vid=75bc333b-dfc1-46da-a386-e67c86771450"},"vehicle_type_id":"4","last_reported":1762618272,"current_range_meters":4400,"station_id":"","pricing_plan_id":"cebpf4jnsgd1na2vs0mg"},{"bike_id":"fbcbc13c-93a9-43b5-b93d-b7de431ddec5","system_id":"levelo_inurba_marseille","lat":43.28274,"lon":5.35063,"is_reserved":false,"is_disabled":false,"rental_uris":{"android":"levelo://app?vid=fbcbc13c-93a9-43b5-b93d-b7de431ddec5","ios":"levelo://app?vid=fbcbc13c-93a9-43b5-b93d-b7de431ddec5"},"vehicle_type_id":"4","last_reported":1762618272,"current_range_meters":4400,"station_id":"ce4bhbp2rcd13ifvqerg","pricing_plan_id":"cebpf4jnsgd1na2vs0mg"},{"bike_id":"05c639a2-6660-40ed-a12f-85b485fe188e","system_id":"levelo_inurba_marseille","lat":43.29223,"lon":5.35769,"is_reserved":false,"is_disabled":false,"rental_uris":{"android":"levelo://app?vid=05c639a2-6660-40ed-a12f-85b485fe188e","ios":"levelo://app?vid=05c639a2-6660-40ed-a12f-85b485fe188e"},"vehicle_type_id":"4","last_reported":1762618272,"current_range_meters":4800,"station_id":"ce4bhb12rcd13ifvqel0","pricing_plan_id":"cebpf4jnsgd1na2vs0mg"},{"bike_id":"acdc7342-c1a6-4a70-b129-b9cf7ad80643","system_id":"levelo_inurba_marseille","lat":43.21199,"lon":5.35087,"is_reserved":false,"is_disabled":false,"rental_uris":{"android":"levelo://app?vid=acdc7342-c1a6-4a70-b129-b9cf7ad80643","ios":"levelo://app?vid=acdc7342-c1a6-4a70-b129-b9cf7ad80643"},"vehicle_type_id":"4","last_reported":1762618272,"current_range_meters":4800,"station_id":"st_cvj6sg6p6f1abm77japg","pricing_plan_id":"cebpf4jnsgd1na2vs0mg"},{"bike_id":"512701e2-06dc-452b-a27f-4bece42c1efb","system_id":"levelo_inurba_marseille","lat":43.21742,"lon":5.34609,"is_reserved":false,"is_disabled":false,"rental_uris":{"android":"levelo://app?vid=512701e2-06dc-452b-a27f-4bece42c1efb","ios":"levelo://app?vid=512701e2-06dc-452b-a27f-4bece42c1efb"},"vehicle_type_id":"4","last_reported":1762618272,"current_range_meters":4800,"station_id":"st_cvj6r9ubvosntc0bgbag","pricing_plan_id":"cebpf4jnsgd1na2vs0mg"},{"bike_id":"b2803fe4-4bf9-4033-b0f3-1890b5ccd050","system_id":"levelo_inurba_marseille","lat":43.2551,"lon":5.37655,"is_reserved":false,"is_disabled":false,"rental_uris":{"android":"levelo://app?vid=b2803fe4-4bf9-4033-b0f3-1890b5ccd050","ios":"levelo://app?vid=b2803fe4-4bf9-4033-b0f3-1890b5ccd050"},"vehicle_type_id":"4","last_reported":1762618272,"current_range_meters":5600,"station_id":"ce4bhh12rcd13ifvqff0","pricing_plan_id":"cebpf4jnsgd1na2vs0mg"},{"bike_id":"5b98d579-5d9e-4fea-93b7-a7307fb6f858","system_id":"levelo_inurba_marseille","lat":43.23801,"lon":5.36622,"is_reserved":false,"is_disabled":false,"rental_uris":{"android":"levelo://app?vid=5b98d579-5d9e-4fea-93b7-a7307fb6f858","ios":"levelo://app?vid=5b98d579-5d9e-4fea-93b7-a7307fb6f858"},"vehicle_type_id":"4","last_reported":1762618272,"current_range_meters":5600,"station_id":"","pricing_plan_id":"cebpf4jnsgd1na2vs0mg"},{"bike_id":"623fb3e6-7612-4cd7-a6bd-d61a6db29286","system_id":"levelo_inurba_marseille","lat":43.26788,"lon":5.39421,"is_reserved":false,"is_disabled":false,"rental_uris":{"android":"levelo://app?vid=623fb3e6-7612-4cd7-a6bd-d61a6db29286","ios":"levelo://app?vid=623fb3e6-7612-4cd7-a6bd-d61a6db29286"},"vehicle_type_id":"4","last_reported":1762618272,"current_range_meters":5600,"station_id":"ce4bhh12rcd13ifvqfg0","pricing_plan_id":"cebpf4jnsgd1na2vs0mg"},{"bike_id":"964c6a1d-247c-49b9-bc4d-13e9e5309efe","system_id":"levelo_inurba_marseille","lat":43.30783,"lon":5.43539,"is_reserved":false,"is_disabled":false,"rental_uris":{"android":"levelo://app?vid=964c6a1d-247c-49b9-bc4d-13e9e5309efe","ios":"levelo://app?vid=964c6a1d-247c-49b9-bc4d-13e9e5309efe"},"vehicle_type_id":"4","last_reported":1762618272,"current_range_meters":5600,"station_id":"","pricing_plan_id":"cebpf4jnsgd1na2vs0mg"},{"bike_id":"f154b283-967c-4d68-b804-6c53cfaa9a27","system_id":"levelo_inurba_marseille","lat":43.31749,"lon":5.39024,"is_reserved":false,"is_disabled":false,"rental_uris":{"android":"levelo://app?vid=f154b283-967c-4d68-b804-6c53cfaa9a27","ios":"levelo://app?vid=f154b283-967c-4d68-b804-6c53cfaa9a27"},"vehicle_type_id":"4","last_reported":1762618272,"current_range_meters":5600,"station_id":"ce4bhqp2rcd13ifvqhng","pricing_plan_id":"cebpf4jnsgd1na2vs0mg"},{"bike_id":"e638c980-a716-487d-bf1c-9699849f531e","system_id":"levelo_inurba_marseille","lat":43.311999,"lon":5.387253,"is_reserved":false,"is_disabled":false,"rental_uris":{"android":"levelo://app?vid=e638c980-a716-487d-bf1c-9699849f531e","ios":"levelo://app?vid=e638c980-a716-487d-bf1c-9699849f531e"},"vehicle_type_id":"4","last_reported":1762618272,"current_range_meters":5600,"station_id":"ce4bgv12rcd13ifvqcp0","pricing_plan_id":"cebpf4jnsgd1na2vs0mg"},{"bike_id":"c4e3fe9a-1444-4edd-b3aa-4b727628eb9b","system_id":"levelo_inurba_marseille","lat":43.28424,"lon":5.34982,"is_reserved":false,"is_disabled":false,"rental_uris":{"android":"levelo://app?vid=c4e3fe9a-1444-4edd-b3aa-4b727628eb9b","ios":"levelo://app?vid=c4e3fe9a-1444-4edd-b3aa-4b727628eb9b"},"vehicle_type_id":"4","last_reported":1762618272,"current_range_meters":5600,"station_id":"ce4bhbh2rcd13ifvqepg","pricing_plan_id":"cebpf4jnsgd1na2vs0mg"},{"bike_id":"32341ce6-0af1-4995-899e-ee56a7656ab2","system_id":"levelo_inurba_marseille","lat":43.30547,"lon":5.36548,"is_reserved":false,"is_disabled":false,"rental_uris":{"android":"levelo://app?vid=32341ce6-0af1-4995-899e-ee56a7656ab2","ios":"levelo://app?vid=32341ce6-0af1-4995-899e-ee56a7656ab2"},"vehicle_type_id":"4","last_reported":1762618272,"current_range_meters":5600,"station_id":"ce4bgs12rcd13ifvqcag","pricing_plan_id":"cebpf4jnsgd1na2vs0mg"},{"bike_id":"d309437c-559f-43e0-b3a7-05af35108b29","system_id":"levelo_inurba_marseille","lat":43.27062,"lon":5.40252,"is_reserved":false,"is_disabled":false,"rental_uris":{"android":"levelo://app?vid=d309437c-559f-43e0-b3a7-05af35108b29","ios":"levelo://app?vid=d309437c-559f-43e0-b3a7-05af35108b29"},"vehicle_type_id":"4","last_reported":1762618272,"current_range_meters":6000,"station_id":"ce4bhk92rcd13ifvqgc0","pricing_plan_id":"cebpf4jnsgd1na2vs0mg"},{"bike_id":"bb1a40d2-31d7-4b77-aad1-1f1320312201","system_id":"levelo_inurba_marseille","lat":43.273743,"lon":5.362629,"is_reserved":false,"is_disabled":false,"rental_uris":{"android":"levelo://app?vid=bb1a40d2-31d7-4b77-aad1-1f1320312201","ios":"levelo://app?vid=bb1a40d2-31d7-4b77-aad1-1f1320312201"},"vehicle_type_id":"4","last_reported":1762618272,"current_range_meters":6000,"station_id":"ce4bhbh2rcd13ifvqeo0","pricing_plan_id":"cebpf4jnsgd1na2vs0mg"},{"bike_id":"ef2fe57e-ecba-4765-96d3-8349654ec56e","system_id":"levelo_inurba_marseille","lat":43.329299,"lon":5.364062,"is_reserved":false,"is_disabled":false,"rental_uris":{"android":"levelo://app?vid=ef2fe57e-ecba-4765-96d3-8349654ec56e","ios":"levelo://app?vid=ef2fe57e-ecba-4765-96d3-8349654ec56e"},"vehicle_type_id":"4","last_reported":1762618272,"current_range_meters":6000,"station_id":"","pricing_plan_id":"cebpf4jnsgd1na2vs0mg"},{"bike_id":"6846385e-fa1c-4c47-a5ea-84cc1b232281","system_id":"levelo_inurba_marseille","lat":43.230595,"lon":5.354955,"is_reserved":false,"is_disabled":false,"rental_uris":{"android":"levelo://app?vid=6846385e-fa1c-4c47-a5ea-84cc1b232281","ios":"levelo://app?vid=6846385e-fa1c-4c47-a5ea-84cc1b232281"},"vehicle_type_id":"4","last_reported":1762618272,"current_range_meters":6000,"station_id":"cpo3342slgdg3j2ifvpg","pricing_plan_id":"cebpf4jnsgd1na2vs0mg"},{"bike_id":"786f8946-920a-48ea-ae79-b3da7571f888","system_id":"levelo_inurba_marseille","lat":43.30599,"lon":5.37246,"is_reserved":false,"is_disabled":false,"rental_uris":{"android":"levelo://app?vid=786f8946-920a-48ea-ae79-b3da7571f888","ios":"levelo://app?vid=786f8946-920a-48ea-ae79-b3da7571f888"},"vehicle_type_id":"4","last_reported":1762618272,"current_range_meters":6000,"station_id":"ce4bgqh2rcd13ifvqc4g","pricing_plan_id":"cebpf4jnsgd1na2vs0mg"},{"bike_id":"f082f9f2-dcbd-4744-ae5a-9dc05c154bbc","system_id":"levelo_inurba_marseille","lat":43.27991,"lon":5.4168,"is_reserved":false,"is_disabled":false,"rental_uris":{"android":"levelo://app?vid=f082f9f2-dcbd-4744-ae5a-9dc05c154bbc","ios":"levelo://app?vid=f082f9f2-dcbd-4744-ae5a-9dc05c154bbc"},"vehicle_type_id":"4","last_reported":1762618272,"current_range_meters":6400,"station_id":"ce4bho12rcd13ifvqh1g","pricing_plan_id":"cebpf4jnsgd1na2vs0mg"},{"bike_id":"711b5184-06a1-46c6-b1ad-270408b914a4","system_id":"levelo_inurba_marseille","lat":43.29991,"lon":5.40972,"is_reserved":false,"is_disabled":false,"rental_uris":{"android":"levelo://app?vid=711b5184-06a1-46c6-b1ad-270408b914a4","ios":"levelo://app?vid=711b5184-06a1-46c6-b1ad-270408b914a4"},"vehicle_type_id":"4","last_reported":1762618272,"current_range_meters":6400,"station_id":"","pricing_plan_id":"cebpf4jnsgd1na2vs0mg"},{"bike_id":"92c26cdb-2bb6-41a2-b889-f15ef982fa64","system_id":"levelo_inurba_marseille","lat":43.29842,"lon":5.36273,"is_reserved":false,"is_disabled":false,"rental_uris":{"android":"levelo://app?vid=92c26cdb-2bb6-41a2-b889-f15ef982fa64","ios":"levelo://app?vid=92c26cdb-2bb6-41a2-b889-f15ef982fa64"},"vehicle_type_id":"4","last_reported":1762618272,"current_range_meters":6400,"station_id":"ce4bgpp2rcd13ifvqc3g","pricing_plan_id":"cebpf4jnsgd1na2vs0mg"},{"bike_id":"3d1a1313-f29e-4572-805f-f02b3d431d76","system_id":"levelo_inurba_marseille","lat":43.3171,"lon":5.37766,"is_reserved":false,"is_disabled":false,"rental_uris":{"android":"levelo://app?vid=3d1a1313-f29e-4572-805f-f02b3d431d76","ios":"levelo://app?vid=3d1a1313-f29e-4572-805f-f02b3d431d76"},"vehicle_type_id":"4","last_reported":1762618272,"current_range_meters":6400,"station_id":"ce4bgth2rcd13ifvqch0","pricing_plan_id":"cebpf4jnsgd1na2vs0mg"},{"bike_id":"cbf030bc-3ef7-4f8f-9ab9-5c7b4ebe1ab0","system_id":"levelo_inurba_marseille","lat":43.26229,"lon":5.4045,"is_reserved":false,"is_disabled":false,"rental_uris":{"android":"levelo://app?vid=cbf030bc-3ef7-4f8f-9ab9-5c7b4ebe1ab0","ios":"levelo://app?vid=cbf030bc-3ef7-4f8f-9ab9-5c7b4ebe1ab0"},"vehicle_type_id":"4","last_reported":1762618272,"current_range_meters":6400,"station_id":"ce4bhmh2rcd13ifvqgmg","pricing_plan_id":"cebpf4jnsgd1na2vs0mg"},{"bike_id":"82f2c15c-504a-4944-bf8d-cc83da095f3c","system_id":"levelo_inurba_marseille","lat":43.28277,"lon":5.35073,"is_reserved":false,"is_disabled":false,"rental_uris":{"android":"levelo://app?vid=82f2c15c-504a-4944-bf8d-cc83da095f3c","ios":"levelo://app?vid=82f2c15c-504a-4944-bf8d-cc83da095f3c"},"vehicle_type_id":"4","last_reported":1762618272,"current_range_meters":6400,"station_id":"ce4bhbp2rcd13ifvqerg","pricing_plan_id":"cebpf4jnsgd1na2vs0mg"},{"bike_id":"0dc8f18b-24f2-46a3-8c2d-4ef5727cd708","system_id":"levelo_inurba_marseille","lat":43.29849,"lon":5.36296,"is_reserved":false,"is_disabled":false,"rental_uris":{"android":"levelo://app?vid=0dc8f18b-24f2-46a3-8c2d-4ef5727cd708","ios":"levelo://app?vid=0dc8f18b-24f2-46a3-8c2d-4ef5727cd708"},"vehicle_type_id":"4","last_reported":1762618272,"current_range_meters":6400,"station_id":"ce4bgpp2rcd13ifvqc3g","pricing_plan_id":"cebpf4jnsgd1na2vs0mg"},{"bike_id":"5d63f2aa-8446-4f1d-92da-1e2d5b4a6cc8","system_id":"levelo_inurba_marseille","lat":43.296642,"lon":5.377618,"is_reserved":false,"is_disabled":false,"rental_uris":{"android":"levelo://app?vid=5d63f2aa-8446-4f1d-92da-1e2d5b4a6cc8","ios":"levelo://app?vid=5d63f2aa-8446-4f1d-92da-1e2d5b4a6cc8"},"vehicle_type_id":"4","last_reported":1762618272,"current_range_meters":6800,"station_id":"","pricing_plan_id":"cebpf4jnsgd1na2vs0mg"},{"bike_id":"c687f5b8-73fc-4bba-bdba-8dae557f7ae6","system_id":"levelo_inurba_marseille","lat":43.27375,"lon":5.36248,"is_reserved":false,"is_disabled":true,"rental_uris":{"android":"levelo://app?vid=c687f5b8-73fc-4bba-bdba-8dae557f7ae6","ios":"levelo://app?vid=c687f5b8-73fc-4bba-bdba-8dae557f7ae6"},"vehicle_type_id":"4","last_reported":1762618272,"current_range_meters":6800,"station_id":"ce4bhbh2rcd13ifvqeo0","pricing_plan_id":"cebpf4jnsgd1na2vs0mg"},{"bike_id":"d1a2a0bf-8c59-4f6a-9a5b-612528efd3a4","system_id":"levelo_inurba_marseille","lat":43.26962,"lon":5.38648,"is_reserved":false,"is_disabled":false,"rental_uris":{"android":"levelo://app?vid=d1a2a0bf-8c59-4f6a-9a5b-612528efd3a4","ios":"levelo://app?vid=d1a2a0bf-8c59-4f6a-9a5b-612528efd3a4"},"vehicle_type_id":"4","last_reported":1762618272,"current_range_meters":6800,"station_id":"ce4bhh92rcd13ifvqfh0","pricing_plan_id":"cebpf4jnsgd1na2vs0mg"},{"bike_id":"9011c8ec-4ace-46f7-a123-2b07d62ffd7b","system_id":"levelo_inurba_marseille","lat":43.211912,"lon":5.350692,"is_reserved":false,"is_disabled":false,"rental_uris":{"android":"levelo://app?vid=9011c8ec-4ace-46f7-a123-2b07d62ffd7b","ios":"levelo://app?vid=9011c8ec-4ace-46f7-a123-2b07d62ffd7b"},"vehicle_type_id":"4","last_reported":1762618272,"current_range_meters":6800,"station_id":"","pricing_plan_id":"cebpf4jnsgd1na2vs0mg"},{"bike_id":"13294594-ee56-4510-b62c-5f643c2d750a","system_id":"levelo_inurba_marseille","lat":43.27063,"lon":5.40254,"is_reserved":false,"is_disabled":false,"rental_uris":{"android":"levelo://app?vid=13294594-ee56-4510-b62c-5f643c2d750a","ios":"levelo://app?vid=13294594-ee56-4510-b62c-5f643c2d750a"},"vehicle_type_id":"4","last_reported":1762618272,"current_range_meters":6800,"station_id":"ce4bhk92rcd13ifvqgc0","pricing_plan_id":"cebpf4jnsgd1na2vs0mg"},{"bike_id":"6ded9cfe-8384-4dbe-b6fd-4e76d86e52f5","system_id":"levelo_inurba_marseille","lat":43.28261,"lon":5.35075,"is_reserved":false,"is_disabled":false,"rental_uris":{"android":"levelo://app?vid=6ded9cfe-8384-4dbe-b6fd-4e76d86e52f5","ios":"levelo://app?vid=6ded9cfe-8384-4dbe-b6fd-4e76d86e52f5"},"vehicle_type_id":"4","last_reported":1762618272,"current_range_meters":6800,"station_id":"ce4bhbp2rcd13ifvqerg","pricing_plan_id":"cebpf4jnsgd1na2vs0mg"},{"bike_id":"6580beb2-f281-473f-9ef4-7b331653ef2e","system_id":"levelo_inurba_marseille","lat":43.29116,"lon":5.40803,"is_reserved":false,"is_disabled":false,"rental_uris":{"android":"levelo://app?vid=6580beb2-f281-473f-9ef4-7b331653ef2e","ios":"levelo://app?vid=6580beb2-f281-473f-9ef4-7b331653ef2e"},"vehicle_type_id":"4","last_reported":1762618272,"current_range_meters":6800,"station_id":"","pricing_plan_id":"cebpf4jnsgd1na2vs0mg"},{"bike_id":"8633ada8-7d21-4e69-b351-cd1184091d92","system_id":"levelo_inurba_marseille","lat":43.28611,"lon":5.37067,"is_reserved":false,"is_disabled":false,"rental_uris":{"android":"levelo://app?vid=8633ada8-7d21-4e69-b351-cd1184091d92","ios":"levelo://app?vid=8633ada8-7d21-4e69-b351-cd1184091d92"},"vehicle_type_id":"4","last_reported":1762618272,"current_range_meters":6800,"station_id":"ce4bht12rcd13ifvqi60","pricing_plan_id":"cebpf4jnsgd1na2vs0mg"},{"bike_id":"719f5acd-9d39-465c-acc9-6f992b41a782","system_id":"levelo_inurba_marseille","lat":43.28273,"lon":5.35068,"is_reserved":false,"is_disabled":false,"rental_uris":{"android":"levelo://app?vid=719f5acd-9d39-465c-acc9-6f992b41a782","ios":"levelo://app?vid=719f5acd-9d39-465c-acc9-6f992b41a782"},"vehicle_type_id":"4","last_reported":1762618272,"current_range_meters":6800,"station_id":"ce4bhbp2rcd13ifvqerg","pricing_plan_id":"cebpf4jnsgd1na2vs0mg"},{"bike_id":"348bf609-07f6-4ffc-add0-6df7615d023f","system_id":"levelo_inurba_marseille","lat":43.337669,"lon":5.37438,"is_reserved":false,"is_disabled":false,"rental_uris":{"android":"levelo://app?vid=348bf609-07f6-4ffc-add0-6df7615d023f","ios":"levelo://app?vid=348bf609-07f6-4ffc-add0-6df7615d023f"},"vehicle_type_id":"4","last_reported":1762618272,"current_range_meters":6800,"station_id":"","pricing_plan_id":"cebpf4jnsgd1na2vs0mg"},{"bike_id":"cacc9b70-1010-44d1-bcdc-e192040ed3a2","system_id":"levelo_inurba_marseille","lat":43.307295,"lon":5.42441,"is_reserved":false,"is_disabled":false,"rental_uris":{"android":"levelo://app?vid=cacc9b70-1010-44d1-bcdc-e192040ed3a2","ios":"levelo://app?vid=cacc9b70-1010-44d1-bcdc-e192040ed3a2"},"vehicle_type_id":"4","last_reported":1762618272,"current_range_meters":6800,"station_id":"st_cvj6ca6bvosntc0bfgr0","pricing_plan_id":"cebpf4jnsgd1na2vs0mg"},{"bike_id":"58d4fe43-0e70-489c-9bd7-bca73b98b15e","system_id":"levelo_inurba_marseille","lat":43.24195,"lon":5.39718,"is_reserved":false,"is_disabled":false,"rental_uris":{"android":"levelo://app?vid=58d4fe43-0e70-489c-9bd7-bca73b98b15e","ios":"levelo://app?vid=58d4fe43-0e70-489c-9bd7-bca73b98b15e"},"vehicle_type_id":"4","last_reported":1762618272,"current_range_meters":7200,"station_id":"ce4bhn12rcd13ifvqgpg","pricing_plan_id":"cebpf4jnsgd1na2vs0mg"},{"bike_id":"656dfd0e-69e0-4541-b479-2b4109df7b3e","system_id":"levelo_inurba_marseille","lat":43.26773,"lon":5.39453,"is_reserved":false,"is_disabled":false,"rental_uris":{"android":"levelo://app?vid=656dfd0e-69e0-4541-b479-2b4109df7b3e","ios":"levelo://app?vid=656dfd0e-69e0-4541-b479-2b4109df7b3e"},"vehicle_type_id":"4","last_reported":1762618272,"current_range_meters":7200,"station_id":"","pricing_plan_id":"cebpf4jnsgd1na2vs0mg"},{"bike_id":"34c14480-831b-41a9-b30b-a1e8f994a110","system_id":"levelo_inurba_marseille","lat":43.3079,"lon":5.37127,"is_reserved":false,"is_disabled":false,"rental_uris":{"android":"levelo://app?vid=34c14480-831b-41a9-b30b-a1e8f994a110","ios":"levelo://app?vid=34c14480-831b-41a9-b30b-a1e8f994a110"},"vehicle_type_id":"4","last_reported":1762618272,"current_range_meters":7200,"station_id":"","pricing_plan_id":"cebpf4jnsgd1na2vs0mg"},{"bike_id":"7d74f096-4f38-4c7b-9c2e-240b92573ea4","system_id":"levelo_inurba_marseille","lat":43.29931,"lon":5.36559,"is_reserved":false,"is_disabled":false,"rental_uris":{"android":"levelo://app?vid=7d74f096-4f38-4c7b-9c2e-240b92573ea4","ios":"levelo://app?vid=7d74f096-4f38-4c7b-9c2e-240b92573ea4"},"vehicle_type_id":"4","last_reported":1762618272,"current_range_meters":7200,"station_id":"ce4bgm92rcd13ifvqbr0","pricing_plan_id":"cebpf4jnsgd1na2vs0mg"},{"bike_id":"7c392732-2900-41fd-8c6d-e5b49cdf67b5","system_id":"levelo_inurba_marseille","lat":43.2971,"lon":5.38241,"is_reserved":false,"is_disabled":false,"rental_uris":{"android":"levelo://app?vid=7c392732-2900-41fd-8c6d-e5b49cdf67b5","ios":"levelo://app?vid=7c392732-2900-41fd-8c6d-e5b49cdf67b5"},"vehicle_type_id":"4","last_reported":1762618272,"current_range_meters":7200,"station_id":"","pricing_plan_id":"cebpf4jnsgd1na2vs0mg"},{"bike_id":"bc039d18-7e72-458f-bafa-32939dfbb741","system_id":"levelo_inurba_marseille","lat":43.22562,"lon":5.41656,"is_reserved":false,"is_disabled":false,"rental_uris":{"android":"levelo://app?vid=bc039d18-7e72-458f-bafa-32939dfbb741","ios":"levelo://app?vid=bc039d18-7e72-458f-bafa-32939dfbb741"},"vehicle_type_id":"4","last_reported":1762618272,"current_range_meters":7200,"station_id":"st_d2o4gvlbi1j2169b742g","pricing_plan_id":"cebpf4jnsgd1na2vs0mg"},{"bike_id":"b0dc91a7-9adf-4710-88ec-d2850fb51658","system_id":"levelo_inurba_marseille","lat":43.31166,"lon":5.38728,"is_reserved":false,"is_disabled":false,"rental_uris":{"android":"levelo://app?vid=b0dc91a7-9adf-4710-88ec-d2850fb51658","ios":"levelo://app?vid=b0dc91a7-9adf-4710-88ec-d2850fb51658"},"vehicle_type_id":"4","last_reported":1762618272,"current_range_meters":7200,"station_id":"ce4bgv12rcd13ifvqcp0","pricing_plan_id":"cebpf4jnsgd1na2vs0mg"},{"bike_id":"b4342600-1c85-48dc-b2e6-da270b3f904a","system_id":"levelo_inurba_marseille","lat":43.272081,"lon":5.39189,"is_reserved":false,"is_disabled":false,"rental_uris":{"android":"levelo://app?vid=b4342600-1c85-48dc-b2e6-da270b3f904a","ios":"levelo://app?vid=b4342600-1c85-48dc-b2e6-da270b3f904a"},"vehicle_type_id":"4","last_reported":1762618272,"current_range_meters":7200,"station_id":"","pricing_plan_id":"cebpf4jnsgd1na2vs0mg"},{"bike_id":"78bd5f74-b07f-4aac-b566-26ecec6fd5df","system_id":"levelo_inurba_marseille","lat":43.30679,"lon":5.38032,"is_reserved":false,"is_disabled":false,"rental_uris":{"android":"levelo://app?vid=78bd5f74-b07f-4aac-b566-26ecec6fd5df","ios":"levelo://app?vid=78bd5f74-b07f-4aac-b566-26ecec6fd5df"},"vehicle_type_id":"4","last_reported":1762618272,"current_range_meters":7200,"station_id":"","pricing_plan_id":"cebpf4jnsgd1na2vs0mg"},{"bike_id":"f0a3c0da-2f8f-4108-a108-7d13d0592d36","system_id":"levelo_inurba_marseille","lat":43.273786,"lon":5.362623,"is_reserved":false,"is_disabled":false,"rental_uris":{"android":"levelo://app?vid=f0a3c0da-2f8f-4108-a108-7d13d0592d36","ios":"levelo://app?vid=f0a3c0da-2f8f-4108-a108-7d13d0592d36"},"vehicle_type_id":"4","last_reported":1762618272,"current_range_meters":7200,"station_id":"ce4bhbh2rcd13ifvqeo0","pricing_plan_id":"cebpf4jnsgd1na2vs0mg"},{"bike_id":"5bee8f0f-57fe-4257-a72a-04a4967570b5","system_id":"levelo_inurba_marseille","lat":43.30046,"lon":5.37732,"is_reserved":false,"is_disabled":false,"rental_uris":{"android":"levelo://app?vid=5bee8f0f-57fe-4257-a72a-04a4967570b5","ios":"levelo://app?vid=5bee8f0f-57fe-4257-a72a-04a4967570b5"},"vehicle_type_id":"4","last_reported":1762618272,"current_range_meters":7200,"station_id":"","pricing_plan_id":"cebpf4jnsgd1na2vs0mg"},{"bike_id":"669142e6-1d96-417a-ab6f-14036a320301","system_id":"levelo_inurba_marseille","lat":43.29866,"lon":5.38911,"is_reserved":false,"is_disabled":false,"rental_uris":{"android":"levelo://app?vid=669142e6-1d96-417a-ab6f-14036a320301","ios":"levelo://app?vid=669142e6-1d96-417a-ab6f-14036a320301"},"vehicle_type_id":"4","last_reported":1762618272,"current_range_meters":7200,"station_id":"ce4bh392rcd13ifvqdl0","pricing_plan_id":"cebpf4jnsgd1na2vs0mg"},{"bike_id":"82ba0c39-153d-435e-ba02-35c7495254c0","system_id":"levelo_inurba_marseille","lat":43.29262,"lon":5.3844,"is_reserved":false,"is_disabled":false,"rental_uris":{"android":"levelo://app?vid=82ba0c39-153d-435e-ba02-35c7495254c0","ios":"levelo://app?vid=82ba0c39-153d-435e-ba02-35c7495254c0"},"vehicle_type_id":"4","last_reported":1762618272,"current_range_meters":8000,"station_id":"ce4bh692rcd13ifvqea0","pricing_plan_id":"cebpf4jnsgd1na2vs0mg"},{"bike_id":"b36d26da-aa06-431d-a6cd-73facbb9fecc","system_id":"levelo_inurba_marseille","lat":43.28272,"lon":5.3507,"is_reserved":false,"is_disabled":false,"rental_uris":{"android":"levelo://app?vid=b36d26da-aa06-431d-a6cd-73facbb9fecc","ios":"levelo://app?vid=b36d26da-aa06-431d-a6cd-73facbb9fecc"},"vehicle_type_id":"4","last_reported":1762618272,"current_range_meters":8000,"station_id":"ce4bhbp2rcd13ifvqerg","pricing_plan_id":"cebpf4jnsgd1na2vs0mg"},{"bike_id":"38de563f-91cb-43fb-97b6-bc0dd765b8b5","system_id":"levelo_inurba_marseille","lat":43.27203,"lon":5.39187,"is_reserved":false,"is_disabled":false,"rental_uris":{"android":"levelo://app?vid=38de563f-91cb-43fb-97b6-bc0dd765b8b5","ios":"levelo://app?vid=38de563f-91cb-43fb-97b6-bc0dd765b8b5"},"vehicle_type_id":"4","last_reported":1762618272,"current_range_meters":8000,"station_id":"ce4bhhp2rcd13ifvqfm0","pricing_plan_id":"cebpf4jnsgd1na2vs0mg"},{"bike_id":"c35a3599-abdb-4c4e-850f-3a7dea14978a","system_id":"levelo_inurba_marseille","lat":43.27376,"lon":5.36261,"is_reserved":false,"is_disabled":false,"rental_uris":{"android":"levelo://app?vid=c35a3599-abdb-4c4e-850f-3a7dea14978a","ios":"levelo://app?vid=c35a3599-abdb-4c4e-850f-3a7dea14978a"},"vehicle_type_id":"4","last_reported":1762618272,"current_range_meters":8400,"station_id":"ce4bhbh2rcd13ifvqeo0","pricing_plan_id":"cebpf4jnsgd1na2vs0mg"},{"bike_id":"5c17ed12-8897-4f84-bbfc-85419a7f8038","system_id":"levelo_inurba_marseille","lat":43.27099,"lon":5.3942,"is_reserved":false,"is_disabled":false,"rental_uris":{"android":"levelo://app?vid=5c17ed12-8897-4f84-bbfc-85419a7f8038","ios":"levelo://app?vid=5c17ed12-8897-4f84-bbfc-85419a7f8038"},"vehicle_type_id":"4","last_reported":1762618272,"current_range_meters":8400,"station_id":"","pricing_plan_id":"cebpf4jnsgd1na2vs0mg"},{"bike_id":"b1dcc554-ae18-451f-998c-517d3fe52b91","system_id":"levelo_inurba_marseille","lat":43.26929,"lon":5.40274,"is_reserved":false,"is_disabled":false,"rental_uris":{"android":"levelo://app?vid=b1dcc554-ae18-451f-998c-517d3fe52b91","ios":"levelo://app?vid=b1dcc554-ae18-451f-998c-517d3fe52b91"},"vehicle_type_id":"4","last_reported":1762618272,"current_range_meters":8400,"station_id":"cjm6bp8fraef2m0cb0m0","pricing_plan_id":"cebpf4jnsgd1na2vs0mg"},{"bike_id":"544a86e0-f0d6-4a42-97da-edbde5694407","system_id":"levelo_inurba_marseille","lat":43.29801,"lon":5.38101,"is_reserved":false,"is_disabled":false,"rental_uris":{"android":"levelo://app?vid=544a86e0-f0d6-4a42-97da-edbde5694407","ios":"levelo://app?vid=544a86e0-f0d6-4a42-97da-edbde5694407"},"vehicle_type_id":"4","last_reported":1762618272,"current_range_meters":8400,"station_id":"ce4bgip2rcd13ifvqbb0","pricing_plan_id":"cebpf4jnsgd1na2vs0mg"},{"bike_id":"c7c0ad63-3842-4777-b008-60fb5aa940bd","system_id":"levelo_inurba_marseille","lat":43.26938,"lon":5.40258,"is_reserved":false,"is_disabled":false,"rental_uris":{"android":"levelo://app?vid=c7c0ad63-3842-4777-b008-60fb5aa940bd","ios":"levelo://app?vid=c7c0ad63-3842-4777-b008-60fb5aa940bd"},"vehicle_type_id":"4","last_reported":1762618272,"current_range_meters":8400,"station_id":"cjm6bp8fraef2m0cb0m0","pricing_plan_id":"cebpf4jnsgd1na2vs0mg"},{"bike_id":"a0ea519d-554f-42a0-93a3-d4c181552c78","system_id":"levelo_inurba_marseille","lat":43.31275,"lon":5.37766,"is_reserved":false,"is_disabled":false,"rental_uris":{"android":"levelo://app?vid=a0ea519d-554f-42a0-93a3-d4c181552c78","ios":"levelo://app?vid=a0ea519d-554f-42a0-93a3-d4c181552c78"},"vehicle_type_id":"4","last_reported":1762618272,"current_range_meters":8400,"station_id":"","pricing_plan_id":"cebpf4jnsgd1na2vs0mg"},{"bike_id":"3a6b939b-8483-4a00-8652-d825cdd856d7","system_id":"levelo_inurba_marseille","lat":43.22546,"lon":5.41627,"is_reserved":false,"is_disabled":false,"rental_uris":{"android":"levelo://app?vid=3a6b939b-8483-4a00-8652-d825cdd856d7","ios":"levelo://app?vid=3a6b939b-8483-4a00-8652-d825cdd856d7"},"vehicle_type_id":"4","last_reported":1762618272,"current_range_meters":8400,"station_id":"st_d2o4gvlbi1j2169b742g","pricing_plan_id":"cebpf4jnsgd1na2vs0mg"},{"bike_id":"c7069414-5d5c-49bb-b744-3b1a22070655","system_id":"levelo_inurba_marseille","lat":43.29895,"lon":5.38891,"is_reserved":false,"is_disabled":false,"rental_uris":{"android":"levelo://app?vid=c7069414-5d5c-49bb-b744-3b1a22070655","ios":"levelo://app?vid=c7069414-5d5c-49bb-b744-3b1a22070655"},"vehicle_type_id":"4","last_reported":1762618272,"current_range_meters":8400,"station_id":"ce4bh392rcd13ifvqdl0","pricing_plan_id":"cebpf4jnsgd1na2vs0mg"},{"bike_id":"2a5fed14-6efa-4498-b955-5e5da89bc14b","system_id":"levelo_inurba_marseille","lat":43.258261,"lon":5.394437,"is_reserved":false,"is_disabled":false,"rental_uris":{"android":"levelo://app?vid=2a5fed14-6efa-4498-b955-5e5da89bc14b","ios":"levelo://app?vid=2a5fed14-6efa-4498-b955-5e5da89bc14b"},"vehicle_type_id":"4","last_reported":1762618272,"current_range_meters":8800,"station_id":"ce4bhip2rcd13ifvqft0","pricing_plan_id":"cebpf4jnsgd1na2vs0mg"},{"bike_id":"b8708996-406d-499d-b8d9-7558221eeddf","system_id":"levelo_inurba_marseille","lat":43.245452,"lon":5.395228,"is_reserved":false,"is_disabled":false,"rental_uris":{"android":"levelo://app?vid=b8708996-406d-499d-b8d9-7558221eeddf","ios":"levelo://app?vid=b8708996-406d-499d-b8d9-7558221eeddf"},"vehicle_type_id":"4","last_reported":1762618272,"current_range_meters":8800,"station_id":"ce4bhlp2rcd13ifvqgjg","pricing_plan_id":"cebpf4jnsgd1na2vs0mg"},{"bike_id":"22918fb7-a391-4f35-8c21-8eb60e2ab03f","system_id":"levelo_inurba_marseille","lat":43.22551,"lon":5.41639,"is_reserved":false,"is_disabled":false,"rental_uris":{"android":"levelo://app?vid=22918fb7-a391-4f35-8c21-8eb60e2ab03f","ios":"levelo://app?vid=22918fb7-a391-4f35-8c21-8eb60e2ab03f"},"vehicle_type_id":"4","last_reported":1762618272,"current_range_meters":8800,"station_id":"st_d2o4gvlbi1j2169b742g","pricing_plan_id":"cebpf4jnsgd1na2vs0mg"},{"bike_id":"1f42135c-1cf7-4999-8927-3f3d161ace80","system_id":"levelo_inurba_marseille","lat":43.29684,"lon":5.38553,"is_reserved":false,"is_disabled":false,"rental_uris":{"android":"levelo://app?vid=1f42135c-1cf7-4999-8927-3f3d161ace80","ios":"levelo://app?vid=1f42135c-1cf7-4999-8927-3f3d161ace80"},"vehicle_type_id":"4","last_reported":1762618272,"current_range_meters":8800,"station_id":"ce4bgih2rcd13ifvqba0","pricing_plan_id":"cebpf4jnsgd1na2vs0mg"},{"bike_id":"46f536fd-faba-4ca9-9c8c-7df67ebdf446","system_id":"levelo_inurba_marseille","lat":43.27373,"lon":5.36259,"is_reserved":false,"is_disabled":false,"rental_uris":{"android":"levelo://app?vid=46f536fd-faba-4ca9-9c8c-7df67ebdf446","ios":"levelo://app?vid=46f536fd-faba-4ca9-9c8c-7df67ebdf446"},"vehicle_type_id":"4","last_reported":1762618272,"current_range_meters":8800,"station_id":"ce4bhbh2rcd13ifvqeo0","pricing_plan_id":"cebpf4jnsgd1na2vs0mg"},{"bike_id":"f035cf58-a1fe-4f2d-bfdf-4584ad42eb71","system_id":"levelo_inurba_marseille","lat":43.25586,"lon":5.38231,"is_reserved":false,"is_disabled":false,"rental_uris":{"android":"levelo://app?vid=f035cf58-a1fe-4f2d-bfdf-4584ad42eb71","ios":"levelo://app?vid=f035cf58-a1fe-4f2d-bfdf-4584ad42eb71"},"vehicle_type_id":"4","last_reported":1762618272,"current_range_meters":8800,"station_id":"ce4bhih2rcd13ifvqfs0","pricing_plan_id":"cebpf4jnsgd1na2vs0mg"},{"bike_id":"0bc82b93-fe31-4778-966c-2f89eefc31de","system_id":"levelo_inurba_marseille","lat":43.25523,"lon":5.37648,"is_reserved":false,"is_disabled":false,"rental_uris":{"android":"levelo://app?vid=0bc82b93-fe31-4778-966c-2f89eefc31de","ios":"levelo://app?vid=0bc82b93-fe31-4778-966c-2f89eefc31de"},"vehicle_type_id":"4","last_reported":1762618272,"current_range_meters":8800,"station_id":"ce4bhh12rcd13ifvqff0","pricing_plan_id":"cebpf4jnsgd1na2vs0mg"},{"bike_id":"310115a0-7bf2-4a4a-9d53-56bf6918e4d0","system_id":"levelo_inurba_marseille","lat":43.28471,"lon":5.48406,"is_reserved":false,"is_disabled":false,"rental_uris":{"android":"levelo://app?vid=310115a0-7bf2-4a4a-9d53-56bf6918e4d0","ios":"levelo://app?vid=310115a0-7bf2-4a4a-9d53-56bf6918e4d0"},"vehicle_type_id":"4","last_reported":1762618272,"current_range_meters":9200,"station_id":"st_d3svhcjqgbts73a3dn0g","pricing_plan_id":"cebpf4jnsgd1na2vs0mg"},{"bike_id":"51745a51-50e9-47ca-ad15-16aec392764a","system_id":"levelo_inurba_marseille","lat":43.30793,"lon":5.43526,"is_reserved":false,"is_disabled":false,"rental_uris":{"android":"levelo://app?vid=51745a51-50e9-47ca-ad15-16aec392764a","ios":"levelo://app?vid=51745a51-50e9-47ca-ad15-16aec392764a"},"vehicle_type_id":"4","last_reported":1762618272,"current_range_meters":9200,"station_id":"","pricing_plan_id":"cebpf4jnsgd1na2vs0mg"},{"bike_id":"cad39830-4e69-4a00-9123-d3ef520ce67b","system_id":"levelo_inurba_marseille","lat":43.28923,"lon":5.38396,"is_reserved":false,"is_disabled":false,"rental_uris":{"android":"levelo://app?vid=cad39830-4e69-4a00-9123-d3ef520ce67b","ios":"levelo://app?vid=cad39830-4e69-4a00-9123-d3ef520ce67b"},"vehicle_type_id":"4","last_reported":1762618272,"current_range_meters":9200,"station_id":"ce4bh612rcd13ifvqe6g","pricing_plan_id":"cebpf4jnsgd1na2vs0mg"},{"bike_id":"a5b4ebe4-a42b-49bf-83ec-d1c1251e6d5b","system_id":"levelo_inurba_marseille","lat":43.284607,"lon":5.358239,"is_reserved":false,"is_disabled":false,"rental_uris":{"android":"levelo://app?vid=a5b4ebe4-a42b-49bf-83ec-d1c1251e6d5b","ios":"levelo://app?vid=a5b4ebe4-a42b-49bf-83ec-d1c1251e6d5b"},"vehicle_type_id":"4","last_reported":1762618272,"current_range_meters":9200,"station_id":"ce4bhah2rcd13ifvqei0","pricing_plan_id":"cebpf4jnsgd1na2vs0mg"},{"bike_id":"f1b26a53-5227-432f-b381-f8246ff4387d","system_id":"levelo_inurba_marseille","lat":43.292603,"lon":5.384354,"is_reserved":false,"is_disabled":false,"rental_uris":{"android":"levelo://app?vid=f1b26a53-5227-432f-b381-f8246ff4387d","ios":"levelo://app?vid=f1b26a53-5227-432f-b381-f8246ff4387d"},"vehicle_type_id":"4","last_reported":1762618272,"current_range_meters":9600,"station_id":"ce4bh692rcd13ifvqea0","pricing_plan_id":"cebpf4jnsgd1na2vs0mg"},{"bike_id":"3fb062d5-c5ee-4e62-ba4b-afc7b600bbea","system_id":"levelo_inurba_marseille","lat":43.29302,"lon":5.37473,"is_reserved":false,"is_disabled":false,"rental_uris":{"android":"levelo://app?vid=3fb062d5-c5ee-4e62-ba4b-afc7b600bbea","ios":"levelo://app?vid=3fb062d5-c5ee-4e62-ba4b-afc7b600bbea"},"vehicle_type_id":"4","last_reported":1762618272,"current_range_meters":9600,"station_id":"ce4bgi12rcd13ifvqb70","pricing_plan_id":"cebpf4jnsgd1na2vs0mg"},{"bike_id":"f1a42259-3d31-4b47-86d0-9a50f77c87e5","system_id":"levelo_inurba_marseille","lat":43.27179,"lon":5.39105,"is_reserved":false,"is_disabled":false,"rental_uris":{"android":"levelo://app?vid=f1a42259-3d31-4b47-86d0-9a50f77c87e5","ios":"levelo://app?vid=f1a42259-3d31-4b47-86d0-9a50f77c87e5"},"vehicle_type_id":"4","last_reported":1762618272,"current_range_meters":9600,"station_id":"","pricing_plan_id":"cebpf4jnsgd1na2vs0mg"},{"bike_id":"9af0687b-3e79-4e11-b844-dd239618aeba","system_id":"levelo_inurba_marseille","lat":43.28858,"lon":5.42526,"is_reserved":false,"is_disabled":false,"rental_uris":{"android":"levelo://app?vid=9af0687b-3e79-4e11-b844-dd239618aeba","ios":"levelo://app?vid=9af0687b-3e79-4e11-b844-dd239618aeba"},"vehicle_type_id":"4","last_reported":1762618272,"current_range_meters":9600,"station_id":"st_d3b462108ojc7389ooeg","pricing_plan_id":"cebpf4jnsgd1na2vs0mg"},{"bike_id":"46748178-17b8-4dc8-80b3-39159ff743e0","system_id":"levelo_inurba_marseille","lat":43.30046,"lon":5.38346,"is_reserved":false,"is_disabled":false,"rental_uris":{"android":"levelo://app?vid=46748178-17b8-4dc8-80b3-39159ff743e0","ios":"levelo://app?vid=46748178-17b8-4dc8-80b3-39159ff743e0"},"vehicle_type_id":"4","last_reported":1762618272,"current_range_meters":9600,"station_id":"","pricing_plan_id":"cebpf4jnsgd1na2vs0mg"},{"bike_id":"eb1b4413-5987-4508-8cb9-0fd625fff601","system_id":"levelo_inurba_marseille","lat":43.26799,"lon":5.39436,"is_reserved":false,"is_disabled":false,"rental_uris":{"android":"levelo://app?vid=eb1b4413-5987-4508-8cb9-0fd625fff601","ios":"levelo://app?vid=eb1b4413-5987-4508-8cb9-0fd625fff601"},"vehicle_type_id":"4","last_reported":1762618272,"current_range_meters":9600,"station_id":"ce4bhh12rcd13ifvqfg0","pricing_plan_id":"cebpf4jnsgd1na2vs0mg"},{"bike_id":"ff70c78a-b8fc-417a-bfe9-4d3e6265e98a","system_id":"levelo_inurba_marseille","lat":43.23155,"lon":5.43708,"is_reserved":false,"is_disabled":false,"rental_uris":{"android":"levelo://app?vid=ff70c78a-b8fc-417a-bfe9-4d3e6265e98a","ios":"levelo://app?vid=ff70c78a-b8fc-417a-bfe9-4d3e6265e98a"},"vehicle_type_id":"4","last_reported":1762618272,"current_range_meters":9600,"station_id":"ce4bhmp2rcd13ifvqgog","pricing_plan_id":"cebpf4jnsgd1na2vs0mg"},{"bike_id":"81fba564-5a80-4ca2-a4fa-72b9642af774","system_id":"levelo_inurba_marseille","lat":43.27325,"lon":5.39107,"is_reserved":false,"is_disabled":false,"rental_uris":{"android":"levelo://app?vid=81fba564-5a80-4ca2-a4fa-72b9642af774","ios":"levelo://app?vid=81fba564-5a80-4ca2-a4fa-72b9642af774"},"vehicle_type_id":"4","last_reported":1762618272,"current_range_meters":9600,"station_id":"ce4bhgp2rcd13ifvqfe0","pricing_plan_id":"cebpf4jnsgd1na2vs0mg"},{"bike_id":"eda73384-013d-4284-9d9d-d8b00f086c23","system_id":"levelo_inurba_marseille","lat":43.31286,"lon":5.40162,"is_reserved":false,"is_disabled":false,"rental_uris":{"android":"levelo://app?vid=eda73384-013d-4284-9d9d-d8b00f086c23","ios":"levelo://app?vid=eda73384-013d-4284-9d9d-d8b00f086c23"},"vehicle_type_id":"4","last_reported":1762618272,"current_range_meters":9600,"station_id":"ce4bh092rcd13ifvqd30","pricing_plan_id":"cebpf4jnsgd1na2vs0mg"},{"bike_id":"63252a55-0b2a-451e-9ffc-7447996428d1","system_id":"levelo_inurba_marseille","lat":43.217529,"lon":5.345962,"is_reserved":false,"is_disabled":false,"rental_uris":{"android":"levelo://app?vid=63252a55-0b2a-451e-9ffc-7447996428d1","ios":"levelo://app?vid=63252a55-0b2a-451e-9ffc-7447996428d1"},"vehicle_type_id":"4","last_reported":1762618272,"current_range_meters":10000,"station_id":"st_cvj6r9ubvosntc0bgbag","pricing_plan_id":"cebpf4jnsgd1na2vs0mg"},{"bike_id":"662e2ccc-1d46-44d3-9866-26e74af36cba","system_id":"levelo_inurba_marseille","lat":43.26932,"lon":5.40259,"is_reserved":false,"is_disabled":false,"rental_uris":{"android":"levelo://app?vid=662e2ccc-1d46-44d3-9866-26e74af36cba","ios":"levelo://app?vid=662e2ccc-1d46-44d3-9866-26e74af36cba"},"vehicle_type_id":"4","last_reported":1762618272,"current_range_meters":10000,"station_id":"cjm6bp8fraef2m0cb0m0","pricing_plan_id":"cebpf4jnsgd1na2vs0mg"},{"bike_id":"996fb7ea-b560-42e2-8013-7c6ef26dd422","system_id":"levelo_inurba_marseille","lat":43.29662,"lon":5.37615,"is_reserved":false,"is_disabled":false,"rental_uris":{"android":"levelo://app?vid=996fb7ea-b560-42e2-8013-7c6ef26dd422","ios":"levelo://app?vid=996fb7ea-b560-42e2-8013-7c6ef26dd422"},"vehicle_type_id":"4","last_reported":1762618272,"current_range_meters":10000,"station_id":"","pricing_plan_id":"cebpf4jnsgd1na2vs0mg"},{"bike_id":"88990ae5-20cf-46e6-aa5f-2a0dfe6ce654","system_id":"levelo_inurba_marseille","lat":43.26485,"lon":5.39548,"is_reserved":false,"is_disabled":false,"rental_uris":{"android":"levelo://app?vid=88990ae5-20cf-46e6-aa5f-2a0dfe6ce654","ios":"levelo://app?vid=88990ae5-20cf-46e6-aa5f-2a0dfe6ce654"},"vehicle_type_id":"4","last_reported":1762618272,"current_range_meters":10000,"station_id":"ce4bhi12rcd13ifvqfq0","pricing_plan_id":"cebpf4jnsgd1na2vs0mg"},{"bike_id":"a29c958b-cfed-40c4-8cd5-5bff2f86ffe5","system_id":"levelo_inurba_marseille","lat":43.23153,"lon":5.43709,"is_reserved":false,"is_disabled":false,"rental_uris":{"android":"levelo://app?vid=a29c958b-cfed-40c4-8cd5-5bff2f86ffe5","ios":"levelo://app?vid=a29c958b-cfed-40c4-8cd5-5bff2f86ffe5"},"vehicle_type_id":"4","last_reported":1762618272,"current_range_meters":10000,"station_id":"ce4bhmp2rcd13ifvqgog","pricing_plan_id":"cebpf4jnsgd1na2vs0mg"},{"bike_id":"d0ed35a0-9177-4e54-ac40-5dad30a17b85","system_id":"levelo_inurba_marseille","lat":43.27903,"lon":5.38022,"is_reserved":false,"is_disabled":false,"rental_uris":{"android":"levelo://app?vid=d0ed35a0-9177-4e54-ac40-5dad30a17b85","ios":"levelo://app?vid=d0ed35a0-9177-4e54-ac40-5dad30a17b85"},"vehicle_type_id":"4","last_reported":1762618272,"current_range_meters":10000,"station_id":"ce4bhf92rcd13ifvqf50","pricing_plan_id":"cebpf4jnsgd1na2vs0mg"},{"bike_id":"9b21c2ca-f436-4633-b003-7130a16dc11d","system_id":"levelo_inurba_marseille","lat":43.28943,"lon":5.36423,"is_reserved":false,"is_disabled":false,"rental_uris":{"android":"levelo://app?vid=9b21c2ca-f436-4633-b003-7130a16dc11d","ios":"levelo://app?vid=9b21c2ca-f436-4633-b003-7130a16dc11d"},"vehicle_type_id":"4","last_reported":1762618272,"current_range_meters":10000,"station_id":"ce4bhc92rcd13ifvqetg","pricing_plan_id":"cebpf4jnsgd1na2vs0mg"},{"bike_id":"0e8f15c3-31f2-4d35-a085-8539251ee9e8","system_id":"levelo_inurba_marseille","lat":43.28612,"lon":5.37064,"is_reserved":false,"is_disabled":false,"rental_uris":{"android":"levelo://app?vid=0e8f15c3-31f2-4d35-a085-8539251ee9e8","ios":"levelo://app?vid=0e8f15c3-31f2-4d35-a085-8539251ee9e8"},"vehicle_type_id":"4","last_reported":1762618272,"current_range_meters":10000,"station_id":"ce4bht12rcd13ifvqi60","pricing_plan_id":"cebpf4jnsgd1na2vs0mg"},{"bike_id":"26aad628-bd01-4664-890e-ba85447bad9f","system_id":"levelo_inurba_marseille","lat":43.303332,"lon":5.40429,"is_reserved":false,"is_disabled":true,"rental_uris":{"android":"levelo://app?vid=26aad628-bd01-4664-890e-ba85447bad9f","ios":"levelo://app?vid=26aad628-bd01-4664-890e-ba85447bad9f"},"vehicle_type_id":"4","last_reported":1762618272,"current_range_meters":10000,"station_id":"ce4bh012rcd13ifvqd10","pricing_plan_id":"cebpf4jnsgd1na2vs0mg"},{"bike_id":"4f159f64-79e5-4e8f-969d-d95544b0caca","system_id":"levelo_inurba_marseille","lat":43.26206,"lon":5.37933,"is_reserved":false,"is_disabled":false,"rental_uris":{"android":"levelo://app?vid=4f159f64-79e5-4e8f-969d-d95544b0caca","ios":"levelo://app?vid=4f159f64-79e5-4e8f-969d-d95544b0caca"},"vehicle_type_id":"4","last_reported":1762618272,"current_range_meters":10000,"station_id":"ce4bhjp2rcd13ifvqg90","pricing_plan_id":"cebpf4jnsgd1na2vs0mg"},{"bike_id":"10300d8f-b8bf-4c8a-b5a8-80d3ea8c96c0","system_id":"levelo_inurba_marseille","lat":43.243893,"lon":5.370581,"is_reserved":false,"is_disabled":false,"rental_uris":{"android":"levelo://app?vid=10300d8f-b8bf-4c8a-b5a8-80d3ea8c96c0","ios":"levelo://app?vid=10300d8f-b8bf-4c8a-b5a8-80d3ea8c96c0"},"vehicle_type_id":"4","last_reported":1762618272,"current_range_meters":10000,"station_id":"ce4bhhh2rcd13ifvqfk0","pricing_plan_id":"cebpf4jnsgd1na2vs0mg"},{"bike_id":"8f7ca0cb-d088-4e21-9662-2ab4874d81ef","system_id":"levelo_inurba_marseille","lat":43.24676,"lon":5.38172,"is_reserved":false,"is_disabled":true,"rental_uris":{"android":"levelo://app?vid=8f7ca0cb-d088-4e21-9662-2ab4874d81ef","ios":"levelo://app?vid=8f7ca0cb-d088-4e21-9662-2ab4874d81ef"},"vehicle_type_id":"4","last_reported":1762618272,"current_range_meters":10800,"station_id":"ce4bhih2rcd13ifvqfr0","pricing_plan_id":"cebpf4jnsgd1na2vs0mg"},{"bike_id":"3ecc5a8e-0b5e-48d8-8971-7d8362d2fb32","system_id":"levelo_inurba_marseille","lat":43.317139,"lon":5.377878,"is_reserved":false,"is_disabled":false,"rental_uris":{"android":"levelo://app?vid=3ecc5a8e-0b5e-48d8-8971-7d8362d2fb32","ios":"levelo://app?vid=3ecc5a8e-0b5e-48d8-8971-7d8362d2fb32"},"vehicle_type_id":"4","last_reported":1762618272,"current_range_meters":10800,"station_id":"ce4bgth2rcd13ifvqch0","pricing_plan_id":"cebpf4jnsgd1na2vs0mg"},{"bike_id":"6ff95486-ffed-4717-ab87-555580e0ad79","system_id":"levelo_inurba_marseille","lat":43.30469,"lon":5.37917,"is_reserved":false,"is_disabled":false,"rental_uris":{"android":"levelo://app?vid=6ff95486-ffed-4717-ab87-555580e0ad79","ios":"levelo://app?vid=6ff95486-ffed-4717-ab87-555580e0ad79"},"vehicle_type_id":"4","last_reported":1762618272,"current_range_meters":10800,"station_id":"ce4bgup2rcd13ifvqcn0","pricing_plan_id":"cebpf4jnsgd1na2vs0mg"},{"bike_id":"e95f4fbf-e18a-4764-9d1e-413b96476e00","system_id":"levelo_inurba_marseille","lat":43.23143,"lon":5.43728,"is_reserved":false,"is_disabled":false,"rental_uris":{"android":"levelo://app?vid=e95f4fbf-e18a-4764-9d1e-413b96476e00","ios":"levelo://app?vid=e95f4fbf-e18a-4764-9d1e-413b96476e00"},"vehicle_type_id":"4","last_reported":1762618272,"current_range_meters":10800,"station_id":"ce4bhmp2rcd13ifvqgog","pricing_plan_id":"cebpf4jnsgd1na2vs0mg"},{"bike_id":"c86122df-04ac-4dae-bccd-9794f2b4d01c","system_id":"levelo_inurba_marseille","lat":43.26934,"lon":5.40238,"is_reserved":false,"is_disabled":false,"rental_uris":{"android":"levelo://app?vid=c86122df-04ac-4dae-bccd-9794f2b4d01c","ios":"levelo://app?vid=c86122df-04ac-4dae-bccd-9794f2b4d01c"},"vehicle_type_id":"4","last_reported":1762618272,"current_range_meters":10800,"station_id":"cjm6bp8fraef2m0cb0m0","pricing_plan_id":"cebpf4jnsgd1na2vs0mg"},{"bike_id":"a4b610ef-5dc5-47fb-9228-87e17fe490d3","system_id":"levelo_inurba_marseille","lat":43.27069,"lon":5.42288,"is_reserved":false,"is_disabled":true,"rental_uris":{"android":"levelo://app?vid=a4b610ef-5dc5-47fb-9228-87e17fe490d3","ios":"levelo://app?vid=a4b610ef-5dc5-47fb-9228-87e17fe490d3"},"vehicle_type_id":"4","last_reported":1762618272,"current_range_meters":10800,"station_id":"ce4bhk92rcd13ifvqgb0","pricing_plan_id":"cebpf4jnsgd1na2vs0mg"},{"bike_id":"3b294fa9-3f9f-4381-a2a8-e3592d375a68","system_id":"levelo_inurba_marseille","lat":43.26698,"lon":5.39723,"is_reserved":false,"is_disabled":false,"rental_uris":{"android":"levelo://app?vid=3b294fa9-3f9f-4381-a2a8-e3592d375a68","ios":"levelo://app?vid=3b294fa9-3f9f-4381-a2a8-e3592d375a68"},"vehicle_type_id":"4","last_reported":1762618272,"current_range_meters":10800,"station_id":"","pricing_plan_id":"cebpf4jnsgd1na2vs0mg"},{"bike_id":"2c87f651-2469-4d7d-9a2e-0f08354f4d26","system_id":"levelo_inurba_marseille","lat":43.247772,"lon":5.400669,"is_reserved":false,"is_disabled":false,"rental_uris":{"android":"levelo://app?vid=2c87f651-2469-4d7d-9a2e-0f08354f4d26","ios":"levelo://app?vid=2c87f651-2469-4d7d-9a2e-0f08354f4d26"},"vehicle_type_id":"4","last_reported":1762618272,"current_range_meters":10800,"station_id":"st_d2ngiaodas8pm72gd1h0","pricing_plan_id":"cebpf4jnsgd1na2vs0mg"},{"bike_id":"d12b8752-954b-45e3-880e-f29555ff79b1","system_id":"levelo_inurba_marseille","lat":43.27421,"lon":5.39421,"is_reserved":false,"is_disabled":false,"rental_uris":{"android":"levelo://app?vid=d12b8752-954b-45e3-880e-f29555ff79b1","ios":"levelo://app?vid=d12b8752-954b-45e3-880e-f29555ff79b1"},"vehicle_type_id":"4","last_reported":1762618272,"current_range_meters":10800,"station_id":"ce4bhdp2rcd13ifvqf20","pricing_plan_id":"cebpf4jnsgd1na2vs0mg"},{"bike_id":"0c0dcedd-9b83-415f-b9b3-d1c16904647f","system_id":"levelo_inurba_marseille","lat":43.27216,"lon":5.39201,"is_reserved":false,"is_disabled":true,"rental_uris":{"android":"levelo://app?vid=0c0dcedd-9b83-415f-b9b3-d1c16904647f","ios":"levelo://app?vid=0c0dcedd-9b83-415f-b9b3-d1c16904647f"},"vehicle_type_id":"4","last_reported":1762618272,"current_range_meters":10800,"station_id":"ce4bhhp2rcd13ifvqfm0","pricing_plan_id":"cebpf4jnsgd1na2vs0mg"},{"bike_id":"382f597e-181c-4839-b1de-04339df9aa55","system_id":"levelo_inurba_marseille","lat":43.267963,"lon":5.402626,"is_reserved":false,"is_disabled":true,"rental_uris":{"android":"levelo://app?vid=382f597e-181c-4839-b1de-04339df9aa55","ios":"levelo://app?vid=382f597e-181c-4839-b1de-04339df9aa55"},"vehicle_type_id":"4","last_reported":1762618272,"current_range_meters":11200,"station_id":"ce501612rcd8frsf0b60","pricing_plan_id":"cebpf4jnsgd1na2vs0mg"},{"bike_id":"b98c59d1-12c0-4a03-b198-cf728a9bdad0","system_id":"levelo_inurba_marseille","lat":43.29322,"lon":5.37155,"is_reserved":false,"is_disabled":false,"rental_uris":{"android":"levelo://app?vid=b98c59d1-12c0-4a03-b198-cf728a9bdad0","ios":"levelo://app?vid=b98c59d1-12c0-4a03-b198-cf728a9bdad0"},"vehicle_type_id":"4","last_reported":1762618272,"current_range_meters":11200,"station_id":"","pricing_plan_id":"cebpf4jnsgd1na2vs0mg"},{"bike_id":"d510b29d-06c6-4a67-8cee-2182097a14e2","system_id":"levelo_inurba_marseille","lat":43.29263,"lon":5.37617,"is_reserved":false,"is_disabled":true,"rental_uris":{"android":"levelo://app?vid=d510b29d-06c6-4a67-8cee-2182097a14e2","ios":"levelo://app?vid=d510b29d-06c6-4a67-8cee-2182097a14e2"},"vehicle_type_id":"4","last_reported":1762618272,"current_range_meters":11200,"station_id":"ce4bgi12rcd13ifvqb80","pricing_plan_id":"cebpf4jnsgd1na2vs0mg"},{"bike_id":"a3d710ac-a009-4b1c-ba24-5d606ac93030","system_id":"levelo_inurba_marseille","lat":43.27923,"lon":5.39587,"is_reserved":false,"is_disabled":false,"rental_uris":{"android":"levelo://app?vid=a3d710ac-a009-4b1c-ba24-5d606ac93030","ios":"levelo://app?vid=a3d710ac-a009-4b1c-ba24-5d606ac93030"},"vehicle_type_id":"4","last_reported":1762618272,"current_range_meters":11200,"station_id":"ce4bhf92rcd13ifvqf40","pricing_plan_id":"cebpf4jnsgd1na2vs0mg"},{"bike_id":"53044255-bc5b-4109-a3e1-31204c4bed1a","system_id":"levelo_inurba_marseille","lat":43.23135,"lon":5.43707,"is_reserved":false,"is_disabled":false,"rental_uris":{"android":"levelo://app?vid=53044255-bc5b-4109-a3e1-31204c4bed1a","ios":"levelo://app?vid=53044255-bc5b-4109-a3e1-31204c4bed1a"},"vehicle_type_id":"4","last_reported":1762618272,"current_range_meters":11200,"station_id":"ce4bhmp2rcd13ifvqgog","pricing_plan_id":"cebpf4jnsgd1na2vs0mg"},{"bike_id":"3db924d1-e4a7-4907-9738-55f33a4185dd","system_id":"levelo_inurba_marseille","lat":43.272058,"lon":5.391765,"is_reserved":false,"is_disabled":false,"rental_uris":{"android":"levelo://app?vid=3db924d1-e4a7-4907-9738-55f33a4185dd","ios":"levelo://app?vid=3db924d1-e4a7-4907-9738-55f33a4185dd"},"vehicle_type_id":"4","last_reported":1762618272,"current_range_meters":11200,"station_id":"ce4bhhp2rcd13ifvqfm0","pricing_plan_id":"cebpf4jnsgd1na2vs0mg"},{"bike_id":"9f1d6d75-76ba-4479-9c50-69a20296a5e5","system_id":"levelo_inurba_marseille","lat":43.272083,"lon":5.391778,"is_reserved":false,"is_disabled":false,"rental_uris":{"android":"levelo://app?vid=9f1d6d75-76ba-4479-9c50-69a20296a5e5","ios":"levelo://app?vid=9f1d6d75-76ba-4479-9c50-69a20296a5e5"},"vehicle_type_id":"4","last_reported":1762618272,"current_range_meters":11600,"station_id":"ce4bhhp2rcd13ifvqfm0","pricing_plan_id":"cebpf4jnsgd1na2vs0mg"},{"bike_id":"db52e888-5360-454a-96e4-a48c18cb0e5d","system_id":"levelo_inurba_marseille","lat":43.29628,"lon":5.37745,"is_reserved":false,"is_disabled":false,"rental_uris":{"android":"levelo://app?vid=db52e888-5360-454a-96e4-a48c18cb0e5d","ios":"levelo://app?vid=db52e888-5360-454a-96e4-a48c18cb0e5d"},"vehicle_type_id":"4","last_reported":1762618272,"current_range_meters":11600,"station_id":"ce4bgi92rcd13ifvqb90","pricing_plan_id":"cebpf4jnsgd1na2vs0mg"},{"bike_id":"1e944c0d-191b-484e-aa3d-b0e567e120b0","system_id":"levelo_inurba_marseille","lat":43.27369,"lon":5.36254,"is_reserved":false,"is_disabled":false,"rental_uris":{"android":"levelo://app?vid=1e944c0d-191b-484e-aa3d-b0e567e120b0","ios":"levelo://app?vid=1e944c0d-191b-484e-aa3d-b0e567e120b0"},"vehicle_type_id":"4","last_reported":1762618272,"current_range_meters":11600,"station_id":"ce4bhbh2rcd13ifvqeo0","pricing_plan_id":"cebpf4jnsgd1na2vs0mg"},{"bike_id":"dd4dadd7-31fa-4b83-8de4-0a9e1b3cc035","system_id":"levelo_inurba_marseille","lat":43.305353,"lon":5.365737,"is_reserved":false,"is_disabled":false,"rental_uris":{"android":"levelo://app?vid=dd4dadd7-31fa-4b83-8de4-0a9e1b3cc035","ios":"levelo://app?vid=dd4dadd7-31fa-4b83-8de4-0a9e1b3cc035"},"vehicle_type_id":"4","last_reported":1762618272,"current_range_meters":11600,"station_id":"ce4bgs12rcd13ifvqcag","pricing_plan_id":"cebpf4jnsgd1na2vs0mg"},{"bike_id":"49d3a2f2-bb2b-46f9-bbad-bf9c2ad72213","system_id":"levelo_inurba_marseille","lat":43.30253,"lon":5.40073,"is_reserved":false,"is_disabled":false,"rental_uris":{"android":"levelo://app?vid=49d3a2f2-bb2b-46f9-bbad-bf9c2ad72213","ios":"levelo://app?vid=49d3a2f2-bb2b-46f9-bbad-bf9c2ad72213"},"vehicle_type_id":"4","last_reported":1762618272,"current_range_meters":11600,"station_id":"ce4bgvh2rcd13ifvqcs0","pricing_plan_id":"cebpf4jnsgd1na2vs0mg"},{"bike_id":"27125429-911d-4d4f-b91d-8603355c1e39","system_id":"levelo_inurba_marseille","lat":43.23151,"lon":5.43725,"is_reserved":false,"is_disabled":false,"rental_uris":{"android":"levelo://app?vid=27125429-911d-4d4f-b91d-8603355c1e39","ios":"levelo://app?vid=27125429-911d-4d4f-b91d-8603355c1e39"},"vehicle_type_id":"4","last_reported":1762618272,"current_range_meters":11600,"station_id":"ce4bhmp2rcd13ifvqgog","pricing_plan_id":"cebpf4jnsgd1na2vs0mg"},{"bike_id":"08800a7f-3058-4ed0-a60f-c12bee9e25dd","system_id":"levelo_inurba_marseille","lat":43.24654,"lon":5.43178,"is_reserved":false,"is_disabled":false,"rental_uris":{"android":"levelo://app?vid=08800a7f-3058-4ed0-a60f-c12bee9e25dd","ios":"levelo://app?vid=08800a7f-3058-4ed0-a60f-c12bee9e25dd"},"vehicle_type_id":"4","last_reported":1762618272,"current_range_meters":12000,"station_id":"st_d2m6c4gdas8pm72e190g","pricing_plan_id":"cebpf4jnsgd1na2vs0mg"},{"bike_id":"47f1dac3-b427-462f-8e65-12346655ae7f","system_id":"levelo_inurba_marseille","lat":43.30551,"lon":5.3656,"is_reserved":false,"is_disabled":false,"rental_uris":{"android":"levelo://app?vid=47f1dac3-b427-462f-8e65-12346655ae7f","ios":"levelo://app?vid=47f1dac3-b427-462f-8e65-12346655ae7f"},"vehicle_type_id":"4","last_reported":1762618272,"current_range_meters":12000,"station_id":"ce4bgs12rcd13ifvqcag","pricing_plan_id":"cebpf4jnsgd1na2vs0mg"},{"bike_id":"68171736-ab5d-40d9-9a75-357f1b973ba0","system_id":"levelo_inurba_marseille","lat":43.23146,"lon":5.43709,"is_reserved":false,"is_disabled":false,"rental_uris":{"android":"levelo://app?vid=68171736-ab5d-40d9-9a75-357f1b973ba0","ios":"levelo://app?vid=68171736-ab5d-40d9-9a75-357f1b973ba0"},"vehicle_type_id":"4","last_reported":1762618272,"current_range_meters":12000,"station_id":"ce4bhmp2rcd13ifvqgog","pricing_plan_id":"cebpf4jnsgd1na2vs0mg"},{"bike_id":"abd54879-7d9a-4ad6-96d8-5da30d179499","system_id":"levelo_inurba_marseille","lat":43.27674,"lon":5.38899,"is_reserved":false,"is_disabled":false,"rental_uris":{"android":"levelo://app?vid=abd54879-7d9a-4ad6-96d8-5da30d179499","ios":"levelo://app?vid=abd54879-7d9a-4ad6-96d8-5da30d179499"},"vehicle_type_id":"4","last_reported":1762618272,"current_range_meters":12000,"station_id":"ce4bhi12rcd13ifvqfo0","pricing_plan_id":"cebpf4jnsgd1na2vs0mg"},{"bike_id":"42568764-9907-48a7-96ef-3041b6aa4ab5","system_id":"levelo_inurba_marseille","lat":43.27337,"lon":5.39089,"is_reserved":false,"is_disabled":false,"rental_uris":{"android":"levelo://app?vid=42568764-9907-48a7-96ef-3041b6aa4ab5","ios":"levelo://app?vid=42568764-9907-48a7-96ef-3041b6aa4ab5"},"vehicle_type_id":"4","last_reported":1762618272,"current_range_meters":12000,"station_id":"ce4bhgp2rcd13ifvqfe0","pricing_plan_id":"cebpf4jnsgd1na2vs0mg"},{"bike_id":"9e2f7aa7-c8b5-4cb9-8c65-afa6e509f91c","system_id":"levelo_inurba_marseille","lat":43.27424,"lon":5.39408,"is_reserved":false,"is_disabled":false,"rental_uris":{"android":"levelo://app?vid=9e2f7aa7-c8b5-4cb9-8c65-afa6e509f91c","ios":"levelo://app?vid=9e2f7aa7-c8b5-4cb9-8c65-afa6e509f91c"},"vehicle_type_id":"4","last_reported":1762618272,"current_range_meters":12000,"station_id":"ce4bhdp2rcd13ifvqf20","pricing_plan_id":"cebpf4jnsgd1na2vs0mg"},{"bike_id":"b36164ba-9449-4989-b41b-4dd6e36fb65e","system_id":"levelo_inurba_marseille","lat":43.2466,"lon":5.381653,"is_reserved":false,"is_disabled":false,"rental_uris":{"android":"levelo://app?vid=b36164ba-9449-4989-b41b-4dd6e36fb65e","ios":"levelo://app?vid=b36164ba-9449-4989-b41b-4dd6e36fb65e"},"vehicle_type_id":"4","last_reported":1762618272,"current_range_meters":12000,"station_id":"ce4bhih2rcd13ifvqfr0","pricing_plan_id":"cebpf4jnsgd1na2vs0mg"},{"bike_id":"fdcc0ace-935e-4ea8-b48b-67c157a18c55","system_id":"levelo_inurba_marseille","lat":43.237867,"lon":5.366268,"is_reserved":false,"is_disabled":false,"rental_uris":{"android":"levelo://app?vid=fdcc0ace-935e-4ea8-b48b-67c157a18c55","ios":"levelo://app?vid=fdcc0ace-935e-4ea8-b48b-67c157a18c55"},"vehicle_type_id":"4","last_reported":1762618272,"current_range_meters":12000,"station_id":"","pricing_plan_id":"cebpf4jnsgd1na2vs0mg"},{"bike_id":"95565d88-4e0c-4b5d-b6d1-9a4c73bcb1f1","system_id":"levelo_inurba_marseille","lat":43.3377,"lon":5.37442,"is_reserved":false,"is_disabled":false,"rental_uris":{"android":"levelo://app?vid=95565d88-4e0c-4b5d-b6d1-9a4c73bcb1f1","ios":"levelo://app?vid=95565d88-4e0c-4b5d-b6d1-9a4c73bcb1f1"},"vehicle_type_id":"4","last_reported":1762618272,"current_range_meters":12400,"station_id":"","pricing_plan_id":"cebpf4jnsgd1na2vs0mg"},{"bike_id":"2f324d91-4dd4-4342-a255-891cc7e0b3ae","system_id":"levelo_inurba_marseille","lat":43.26781,"lon":5.39423,"is_reserved":false,"is_disabled":false,"rental_uris":{"android":"levelo://app?vid=2f324d91-4dd4-4342-a255-891cc7e0b3ae","ios":"levelo://app?vid=2f324d91-4dd4-4342-a255-891cc7e0b3ae"},"vehicle_type_id":"4","last_reported":1762618272,"current_range_meters":12400,"station_id":"ce4bhh12rcd13ifvqfg0","pricing_plan_id":"cebpf4jnsgd1na2vs0mg"},{"bike_id":"1c7ead94-3860-4172-aab4-c1ab084fe579","system_id":"levelo_inurba_marseille","lat":43.30174,"lon":5.36638,"is_reserved":false,"is_disabled":false,"rental_uris":{"android":"levelo://app?vid=1c7ead94-3860-4172-aab4-c1ab084fe579","ios":"levelo://app?vid=1c7ead94-3860-4172-aab4-c1ab084fe579"},"vehicle_type_id":"4","last_reported":1762618272,"current_range_meters":12800,"station_id":"ce4bgrh2rcd13ifvqc8g","pricing_plan_id":"cebpf4jnsgd1na2vs0mg"},{"bike_id":"6ba0f1d1-5706-4a14-b89f-505a4c6aa756","system_id":"levelo_inurba_marseille","lat":43.29489,"lon":5.43319,"is_reserved":false,"is_disabled":false,"rental_uris":{"android":"levelo://app?vid=6ba0f1d1-5706-4a14-b89f-505a4c6aa756","ios":"levelo://app?vid=6ba0f1d1-5706-4a14-b89f-505a4c6aa756"},"vehicle_type_id":"4","last_reported":1762618272,"current_range_meters":12800,"station_id":"st_d3j5ugp08ojc73fj9d10","pricing_plan_id":"cebpf4jnsgd1na2vs0mg"},{"bike_id":"abbbb7be-2df2-470a-8453-2a130d26d2d5","system_id":"levelo_inurba_marseille","lat":43.2604,"lon":5.39385,"is_reserved":false,"is_disabled":false,"rental_uris":{"android":"levelo://app?vid=abbbb7be-2df2-470a-8453-2a130d26d2d5","ios":"levelo://app?vid=abbbb7be-2df2-470a-8453-2a130d26d2d5"},"vehicle_type_id":"4","last_reported":1762618272,"current_range_meters":12800,"station_id":"ce4bhh92rcd13ifvqfj0","pricing_plan_id":"cebpf4jnsgd1na2vs0mg"},{"bike_id":"5a2c9013-c5ac-4e45-ad3a-c6df45aae01c","system_id":"levelo_inurba_marseille","lat":43.23137,"lon":5.43724,"is_reserved":false,"is_disabled":false,"rental_uris":{"android":"levelo://app?vid=5a2c9013-c5ac-4e45-ad3a-c6df45aae01c","ios":"levelo://app?vid=5a2c9013-c5ac-4e45-ad3a-c6df45aae01c"},"vehicle_type_id":"4","last_reported":1762618272,"current_range_meters":12800,"station_id":"ce4bhmp2rcd13ifvqgog","pricing_plan_id":"cebpf4jnsgd1na2vs0mg"},{"bike_id":"b1974aec-d9a3-4bbd-83fd-a2ee79ef5189","system_id":"levelo_inurba_marseille","lat":43.27061,"lon":5.40257,"is_reserved":false,"is_disabled":false,"rental_uris":{"android":"levelo://app?vid=b1974aec-d9a3-4bbd-83fd-a2ee79ef5189","ios":"levelo://app?vid=b1974aec-d9a3-4bbd-83fd-a2ee79ef5189"},"vehicle_type_id":"4","last_reported":1762618272,"current_range_meters":12800,"station_id":"ce4bhk92rcd13ifvqgc0","pricing_plan_id":"cebpf4jnsgd1na2vs0mg"},{"bike_id":"188ee9a4-4424-479c-b66e-2d027092307b","system_id":"levelo_inurba_marseille","lat":43.29857,"lon":5.36273,"is_reserved":false,"is_disabled":false,"rental_uris":{"android":"levelo://app?vid=188ee9a4-4424-479c-b66e-2d027092307b","ios":"levelo://app?vid=188ee9a4-4424-479c-b66e-2d027092307b"},"vehicle_type_id":"4","last_reported":1762618272,"current_range_meters":12800,"station_id":"ce4bgpp2rcd13ifvqc3g","pricing_plan_id":"cebpf4jnsgd1na2vs0mg"},{"bike_id":"d2991a60-dcfa-4252-8f9d-bfff4b1dc433","system_id":"levelo_inurba_marseille","lat":43.31052,"lon":5.37141,"is_reserved":false,"is_disabled":false,"rental_uris":{"android":"levelo://app?vid=d2991a60-dcfa-4252-8f9d-bfff4b1dc433","ios":"levelo://app?vid=d2991a60-dcfa-4252-8f9d-bfff4b1dc433"},"vehicle_type_id":"4","last_reported":1762618272,"current_range_meters":12800,"station_id":"","pricing_plan_id":"cebpf4jnsgd1na2vs0mg"},{"bike_id":"4bce02cb-bdba-488a-a39f-eae80d4c7da8","system_id":"levelo_inurba_marseille","lat":43.282195,"lon":5.390741,"is_reserved":false,"is_disabled":true,"rental_uris":{"android":"levelo://app?vid=4bce02cb-bdba-488a-a39f-eae80d4c7da8","ios":"levelo://app?vid=4bce02cb-bdba-488a-a39f-eae80d4c7da8"},"vehicle_type_id":"4","last_reported":1762618272,"current_range_meters":12800,"station_id":"ce4bhn92rcd13ifvqgsg","pricing_plan_id":"cebpf4jnsgd1na2vs0mg"},{"bike_id":"80ab2b52-bffc-4713-90c7-bcfb3ddbe350","system_id":"levelo_inurba_marseille","lat":43.28037,"lon":5.36946,"is_reserved":false,"is_disabled":false,"rental_uris":{"android":"levelo://app?vid=80ab2b52-bffc-4713-90c7-bcfb3ddbe350","ios":"levelo://app?vid=80ab2b52-bffc-4713-90c7-bcfb3ddbe350"},"vehicle_type_id":"4","last_reported":1762618272,"current_range_meters":13600,"station_id":"ce4bha12rcd13ifvqef0","pricing_plan_id":"cebpf4jnsgd1na2vs0mg"},{"bike_id":"825a1957-d327-49da-97b3-2485c79c40e7","system_id":"levelo_inurba_marseille","lat":43.21746,"lon":5.34607,"is_reserved":false,"is_disabled":true,"rental_uris":{"android":"levelo://app?vid=825a1957-d327-49da-97b3-2485c79c40e7","ios":"levelo://app?vid=825a1957-d327-49da-97b3-2485c79c40e7"},"vehicle_type_id":"4","last_reported":1762618272,"current_range_meters":13600,"station_id":"","pricing_plan_id":"cebpf4jnsgd1na2vs0mg"},{"bike_id":"ed642efa-9f3d-4ae6-9731-bb699a056191","system_id":"levelo_inurba_marseille","lat":43.28663,"lon":5.38675,"is_reserved":false,"is_disabled":false,"rental_uris":{"android":"levelo://app?vid=ed642efa-9f3d-4ae6-9731-bb699a056191","ios":"levelo://app?vid=ed642efa-9f3d-4ae6-9731-bb699a056191"},"vehicle_type_id":"4","last_reported":1762618272,"current_range_meters":13600,"station_id":"ce4bh492rcd13ifvqdug","pricing_plan_id":"cebpf4jnsgd1na2vs0mg"},{"bike_id":"8ee9deab-5172-44f7-99fc-4fcad2b5c08b","system_id":"levelo_inurba_marseille","lat":43.23059,"lon":5.3549,"is_reserved":false,"is_disabled":false,"rental_uris":{"android":"levelo://app?vid=8ee9deab-5172-44f7-99fc-4fcad2b5c08b","ios":"levelo://app?vid=8ee9deab-5172-44f7-99fc-4fcad2b5c08b"},"vehicle_type_id":"4","last_reported":1762618272,"current_range_meters":13600,"station_id":"cpo3342slgdg3j2ifvpg","pricing_plan_id":"cebpf4jnsgd1na2vs0mg"},{"bike_id":"665a5ba2-246e-4ac7-a969-6694219b1452","system_id":"levelo_inurba_marseille","lat":43.28847,"lon":5.3582,"is_reserved":false,"is_disabled":true,"rental_uris":{"android":"levelo://app?vid=665a5ba2-246e-4ac7-a969-6694219b1452","ios":"levelo://app?vid=665a5ba2-246e-4ac7-a969-6694219b1452"},"vehicle_type_id":"4","last_reported":1762618272,"current_range_meters":13600,"station_id":"ce4bhb12rcd13ifvqem0","pricing_plan_id":"cebpf4jnsgd1na2vs0mg"},{"bike_id":"483d652e-ad84-4602-aa4a-de7dba0c0b57","system_id":"levelo_inurba_marseille","lat":43.28426,"lon":5.35005,"is_reserved":false,"is_disabled":false,"rental_uris":{"android":"levelo://app?vid=483d652e-ad84-4602-aa4a-de7dba0c0b57","ios":"levelo://app?vid=483d652e-ad84-4602-aa4a-de7dba0c0b57"},"vehicle_type_id":"4","last_reported":1762618272,"current_range_meters":13600,"station_id":"ce4bhbh2rcd13ifvqepg","pricing_plan_id":"cebpf4jnsgd1na2vs0mg"},{"bike_id":"1cb3caa2-a6c2-4318-965f-70da959eb0b9","system_id":"levelo_inurba_marseille","lat":43.29934,"lon":5.36552,"is_reserved":false,"is_disabled":false,"rental_uris":{"android":"levelo://app?vid=1cb3caa2-a6c2-4318-965f-70da959eb0b9","ios":"levelo://app?vid=1cb3caa2-a6c2-4318-965f-70da959eb0b9"},"vehicle_type_id":"4","last_reported":1762618272,"current_range_meters":13600,"station_id":"ce4bgm92rcd13ifvqbr0","pricing_plan_id":"cebpf4jnsgd1na2vs0mg"},{"bike_id":"3439a8cb-8214-4321-b614-d69fa7098072","system_id":"levelo_inurba_marseille","lat":43.31262,"lon":5.38938,"is_reserved":false,"is_disabled":false,"rental_uris":{"android":"levelo://app?vid=3439a8cb-8214-4321-b614-d69fa7098072","ios":"levelo://app?vid=3439a8cb-8214-4321-b614-d69fa7098072"},"vehicle_type_id":"4","last_reported":1762618272,"current_range_meters":14000,"station_id":"","pricing_plan_id":"cebpf4jnsgd1na2vs0mg"},{"bike_id":"89192494-8d5a-489a-81bf-112e24102919","system_id":"levelo_inurba_marseille","lat":43.26774,"lon":5.39434,"is_reserved":false,"is_disabled":false,"rental_uris":{"android":"levelo://app?vid=89192494-8d5a-489a-81bf-112e24102919","ios":"levelo://app?vid=89192494-8d5a-489a-81bf-112e24102919"},"vehicle_type_id":"4","last_reported":1762618272,"current_range_meters":14000,"station_id":"ce4bhh12rcd13ifvqfg0","pricing_plan_id":"cebpf4jnsgd1na2vs0mg"},{"bike_id":"60209b82-f1fb-4fee-8b12-f869dd15efef","system_id":"levelo_inurba_marseille","lat":43.22931,"lon":5.35384,"is_reserved":false,"is_disabled":false,"rental_uris":{"android":"levelo://app?vid=60209b82-f1fb-4fee-8b12-f869dd15efef","ios":"levelo://app?vid=60209b82-f1fb-4fee-8b12-f869dd15efef"},"vehicle_type_id":"4","last_reported":1762618272,"current_range_meters":14000,"station_id":"cpo3532slgdg3j2ikp40","pricing_plan_id":"cebpf4jnsgd1na2vs0mg"},{"bike_id":"968e9c29-84ee-4827-bcab-ac08bc4ab6d5","system_id":"levelo_inurba_marseille","lat":43.29272,"lon":5.36852,"is_reserved":false,"is_disabled":true,"rental_uris":{"android":"levelo://app?vid=968e9c29-84ee-4827-bcab-ac08bc4ab6d5","ios":"levelo://app?vid=968e9c29-84ee-4827-bcab-ac08bc4ab6d5"},"vehicle_type_id":"4","last_reported":1762618272,"current_range_meters":14000,"station_id":"ce4bhbp2rcd13ifvqesg","pricing_plan_id":"cebpf4jnsgd1na2vs0mg"},{"bike_id":"65d1e2fc-b88f-4042-b3b7-62969100a117","system_id":"levelo_inurba_marseille","lat":43.27374,"lon":5.36265,"is_reserved":false,"is_disabled":false,"rental_uris":{"android":"levelo://app?vid=65d1e2fc-b88f-4042-b3b7-62969100a117","ios":"levelo://app?vid=65d1e2fc-b88f-4042-b3b7-62969100a117"},"vehicle_type_id":"4","last_reported":1762618272,"current_range_meters":14000,"station_id":"ce4bhbh2rcd13ifvqeo0","pricing_plan_id":"cebpf4jnsgd1na2vs0mg"},{"bike_id":"2a7b4da2-405b-4490-a088-d599aa2ade1a","system_id":"levelo_inurba_marseille","lat":43.32034,"lon":5.41576,"is_reserved":false,"is_disabled":false,"rental_uris":{"android":"levelo://app?vid=2a7b4da2-405b-4490-a088-d599aa2ade1a","ios":"levelo://app?vid=2a7b4da2-405b-4490-a088-d599aa2ade1a"},"vehicle_type_id":"4","last_reported":1762618272,"current_range_meters":14400,"station_id":"ce4bhq92rcd13ifvqhkg","pricing_plan_id":"cebpf4jnsgd1na2vs0mg"},{"bike_id":"c41d091e-977a-4d9d-bb87-1d7e91ff8c7b","system_id":"levelo_inurba_marseille","lat":43.291952,"lon":5.358024,"is_reserved":false,"is_disabled":false,"rental_uris":{"android":"levelo://app?vid=c41d091e-977a-4d9d-bb87-1d7e91ff8c7b","ios":"levelo://app?vid=c41d091e-977a-4d9d-bb87-1d7e91ff8c7b"},"vehicle_type_id":"4","last_reported":1762618272,"current_range_meters":14400,"station_id":"ce4bhb12rcd13ifvqel0","pricing_plan_id":"cebpf4jnsgd1na2vs0mg"},{"bike_id":"aecd6e76-5917-4fc9-a201-956934ff00f6","system_id":"levelo_inurba_marseille","lat":43.29034,"lon":5.38652,"is_reserved":false,"is_disabled":false,"rental_uris":{"android":"levelo://app?vid=aecd6e76-5917-4fc9-a201-956934ff00f6","ios":"levelo://app?vid=aecd6e76-5917-4fc9-a201-956934ff00f6"},"vehicle_type_id":"4","last_reported":1762618272,"current_range_meters":14400,"station_id":"ce4bh4p2rcd13ifvqe0g","pricing_plan_id":"cebpf4jnsgd1na2vs0mg"},{"bike_id":"acc76a95-9cfd-4bfd-b2df-84a768e1c067","system_id":"levelo_inurba_marseille","lat":43.24546,"lon":5.3952,"is_reserved":false,"is_disabled":false,"rental_uris":{"android":"levelo://app?vid=acc76a95-9cfd-4bfd-b2df-84a768e1c067","ios":"levelo://app?vid=acc76a95-9cfd-4bfd-b2df-84a768e1c067"},"vehicle_type_id":"4","last_reported":1762618272,"current_range_meters":14400,"station_id":"ce4bhlp2rcd13ifvqgjg","pricing_plan_id":"cebpf4jnsgd1na2vs0mg"},{"bike_id":"68f97c2d-2029-4369-b498-709bd5bedc8a","system_id":"levelo_inurba_marseille","lat":43.303068,"lon":5.368856,"is_reserved":false,"is_disabled":false,"rental_uris":{"android":"levelo://app?vid=68f97c2d-2029-4369-b498-709bd5bedc8a","ios":"levelo://app?vid=68f97c2d-2029-4369-b498-709bd5bedc8a"},"vehicle_type_id":"4","last_reported":1762618272,"current_range_meters":14400,"station_id":"ce4bgqh2rcd13ifvqc5g","pricing_plan_id":"cebpf4jnsgd1na2vs0mg"},{"bike_id":"fdfdde80-7f98-4492-a263-3964ecfbbb45","system_id":"levelo_inurba_marseille","lat":43.2827,"lon":5.35073,"is_reserved":false,"is_disabled":true,"rental_uris":{"android":"levelo://app?vid=fdfdde80-7f98-4492-a263-3964ecfbbb45","ios":"levelo://app?vid=fdfdde80-7f98-4492-a263-3964ecfbbb45"},"vehicle_type_id":"4","last_reported":1762618272,"current_range_meters":14400,"station_id":"ce4bhbp2rcd13ifvqerg","pricing_plan_id":"cebpf4jnsgd1na2vs0mg"},{"bike_id":"ea4c9627-b00b-4ac3-b179-06d75ef85dd3","system_id":"levelo_inurba_marseille","lat":43.30593,"lon":5.3936,"is_reserved":false,"is_disabled":false,"rental_uris":{"android":"levelo://app?vid=ea4c9627-b00b-4ac3-b179-06d75ef85dd3","ios":"levelo://app?vid=ea4c9627-b00b-4ac3-b179-06d75ef85dd3"},"vehicle_type_id":"4","last_reported":1762618272,"current_range_meters":14400,"station_id":"ce4bh0p2rcd13ifvqd80","pricing_plan_id":"cebpf4jnsgd1na2vs0mg"},{"bike_id":"6db2fad0-4617-459f-a104-0ecfd8081a57","system_id":"levelo_inurba_marseille","lat":43.28484,"lon":5.38563,"is_reserved":false,"is_disabled":false,"rental_uris":{"android":"levelo://app?vid=6db2fad0-4617-459f-a104-0ecfd8081a57","ios":"levelo://app?vid=6db2fad0-4617-459f-a104-0ecfd8081a57"},"vehicle_type_id":"4","last_reported":1762618272,"current_range_meters":14400,"station_id":"ce4bh8p2rcd13ifvqeb0","pricing_plan_id":"cebpf4jnsgd1na2vs0mg"},{"bike_id":"e2f4434e-346e-40e7-9f07-eb66f977a4e8","system_id":"levelo_inurba_marseille","lat":43.269244,"lon":5.388959,"is_reserved":false,"is_disabled":false,"rental_uris":{"android":"levelo://app?vid=e2f4434e-346e-40e7-9f07-eb66f977a4e8","ios":"levelo://app?vid=e2f4434e-346e-40e7-9f07-eb66f977a4e8"},"vehicle_type_id":"4","last_reported":1762618272,"current_range_meters":14400,"station_id":"ce4bhhh2rcd13ifvqfl0","pricing_plan_id":"cebpf4jnsgd1na2vs0mg"},{"bike_id":"f8feb2f4-c703-422b-a7d0-d743ae0f6c3a","system_id":"levelo_inurba_marseille","lat":43.27217,"lon":5.39182,"is_reserved":false,"is_disabled":false,"rental_uris":{"android":"levelo://app?vid=f8feb2f4-c703-422b-a7d0-d743ae0f6c3a","ios":"levelo://app?vid=f8feb2f4-c703-422b-a7d0-d743ae0f6c3a"},"vehicle_type_id":"4","last_reported":1762618272,"current_range_meters":14800,"station_id":"ce4bhhp2rcd13ifvqfm0","pricing_plan_id":"cebpf4jnsgd1na2vs0mg"},{"bike_id":"bd1a8212-a645-43f2-96f2-723b670d6d8b","system_id":"levelo_inurba_marseille","lat":43.26765,"lon":5.39426,"is_reserved":false,"is_disabled":false,"rental_uris":{"android":"levelo://app?vid=bd1a8212-a645-43f2-96f2-723b670d6d8b","ios":"levelo://app?vid=bd1a8212-a645-43f2-96f2-723b670d6d8b"},"vehicle_type_id":"4","last_reported":1762618272,"current_range_meters":14800,"station_id":"ce4bhh12rcd13ifvqfg0","pricing_plan_id":"cebpf4jnsgd1na2vs0mg"},{"bike_id":"25fd7d6d-bc1d-48dc-b741-729fe0e49332","system_id":"levelo_inurba_marseille","lat":43.25342,"lon":5.42171,"is_reserved":false,"is_disabled":false,"rental_uris":{"android":"levelo://app?vid=25fd7d6d-bc1d-48dc-b741-729fe0e49332","ios":"levelo://app?vid=25fd7d6d-bc1d-48dc-b741-729fe0e49332"},"vehicle_type_id":"4","last_reported":1762618272,"current_range_meters":14800,"station_id":"st_d2m65c5bi1j21697t3ng","pricing_plan_id":"cebpf4jnsgd1na2vs0mg"},{"bike_id":"cfe6041c-eeb8-4331-88ac-3d89c3a5f24a","system_id":"levelo_inurba_marseille","lat":43.29845,"lon":5.36279,"is_reserved":false,"is_disabled":false,"rental_uris":{"android":"levelo://app?vid=cfe6041c-eeb8-4331-88ac-3d89c3a5f24a","ios":"levelo://app?vid=cfe6041c-eeb8-4331-88ac-3d89c3a5f24a"},"vehicle_type_id":"4","last_reported":1762618272,"current_range_meters":14800,"station_id":"ce4bgpp2rcd13ifvqc3g","pricing_plan_id":"cebpf4jnsgd1na2vs0mg"},{"bike_id":"800ad76d-56a9-4a36-af78-abde1833c811","system_id":"levelo_inurba_marseille","lat":43.25335,"lon":5.42176,"is_reserved":false,"is_disabled":false,"rental_uris":{"android":"levelo://app?vid=800ad76d-56a9-4a36-af78-abde1833c811","ios":"levelo://app?vid=800ad76d-56a9-4a36-af78-abde1833c811"},"vehicle_type_id":"4","last_reported":1762618272,"current_range_meters":14800,"station_id":"st_d2m65c5bi1j21697t3ng","pricing_plan_id":"cebpf4jnsgd1na2vs0mg"},{"bike_id":"21dcb4e2-bef4-415f-aa59-cd0b9e2cb07b","system_id":"levelo_inurba_marseille","lat":43.22817,"lon":5.43492,"is_reserved":false,"is_disabled":false,"rental_uris":{"android":"levelo://app?vid=21dcb4e2-bef4-415f-aa59-cd0b9e2cb07b","ios":"levelo://app?vid=21dcb4e2-bef4-415f-aa59-cd0b9e2cb07b"},"vehicle_type_id":"4","last_reported":1762618272,"current_range_meters":14800,"station_id":"","pricing_plan_id":"cebpf4jnsgd1na2vs0mg"},{"bike_id":"aab53555-1358-41ff-93c1-cb21594cbd16","system_id":"levelo_inurba_marseille","lat":43.31226,"lon":5.38688,"is_reserved":false,"is_disabled":false,"rental_uris":{"android":"levelo://app?vid=aab53555-1358-41ff-93c1-cb21594cbd16","ios":"levelo://app?vid=aab53555-1358-41ff-93c1-cb21594cbd16"},"vehicle_type_id":"4","last_reported":1762618272,"current_range_meters":14800,"station_id":"","pricing_plan_id":"cebpf4jnsgd1na2vs0mg"},{"bike_id":"d221de2d-d63e-4552-9fd6-4627cbea4b9e","system_id":"levelo_inurba_marseille","lat":43.250054,"lon":5.389041,"is_reserved":false,"is_disabled":false,"rental_uris":{"android":"levelo://app?vid=d221de2d-d63e-4552-9fd6-4627cbea4b9e","ios":"levelo://app?vid=d221de2d-d63e-4552-9fd6-4627cbea4b9e"},"vehicle_type_id":"4","last_reported":1762618272,"current_range_meters":15200,"station_id":"ce4bhgp2rcd13ifvqfd0","pricing_plan_id":"cebpf4jnsgd1na2vs0mg"},{"bike_id":"83c183c7-cb32-44d9-ab98-b65df0b5ca8b","system_id":"levelo_inurba_marseille","lat":43.26953,"lon":5.38643,"is_reserved":false,"is_disabled":false,"rental_uris":{"android":"levelo://app?vid=83c183c7-cb32-44d9-ab98-b65df0b5ca8b","ios":"levelo://app?vid=83c183c7-cb32-44d9-ab98-b65df0b5ca8b"},"vehicle_type_id":"4","last_reported":1762618272,"current_range_meters":15200,"station_id":"ce4bhh92rcd13ifvqfh0","pricing_plan_id":"cebpf4jnsgd1na2vs0mg"},{"bike_id":"16e92c81-f9bf-4049-a0df-a21857156c26","system_id":"levelo_inurba_marseille","lat":43.28608,"lon":5.37064,"is_reserved":false,"is_disabled":false,"rental_uris":{"android":"levelo://app?vid=16e92c81-f9bf-4049-a0df-a21857156c26","ios":"levelo://app?vid=16e92c81-f9bf-4049-a0df-a21857156c26"},"vehicle_type_id":"4","last_reported":1762618272,"current_range_meters":16000,"station_id":"ce4bht12rcd13ifvqi60","pricing_plan_id":"cebpf4jnsgd1na2vs0mg"},{"bike_id":"1ae83288-1f2d-4440-bf5d-3008c2739234","system_id":"levelo_inurba_marseille","lat":43.21174,"lon":5.3508,"is_reserved":false,"is_disabled":false,"rental_uris":{"android":"levelo://app?vid=1ae83288-1f2d-4440-bf5d-3008c2739234","ios":"levelo://app?vid=1ae83288-1f2d-4440-bf5d-3008c2739234"},"vehicle_type_id":"4","last_reported":1762618272,"current_range_meters":16000,"station_id":"st_cvj6sg6p6f1abm77japg","pricing_plan_id":"cebpf4jnsgd1na2vs0mg"},{"bike_id":"53529ee7-fa79-4bfe-8ac3-2ffb63a46b11","system_id":"levelo_inurba_marseille","lat":43.3179,"lon":5.38866,"is_reserved":false,"is_disabled":false,"rental_uris":{"android":"levelo://app?vid=53529ee7-fa79-4bfe-8ac3-2ffb63a46b11","ios":"levelo://app?vid=53529ee7-fa79-4bfe-8ac3-2ffb63a46b11"},"vehicle_type_id":"4","last_reported":1762618272,"current_range_meters":16000,"station_id":"","pricing_plan_id":"cebpf4jnsgd1na2vs0mg"},{"bike_id":"ef5d2d18-91f9-4c41-8eef-aca9314803aa","system_id":"levelo_inurba_marseille","lat":43.2993,"lon":5.3656,"is_reserved":false,"is_disabled":false,"rental_uris":{"android":"levelo://app?vid=ef5d2d18-91f9-4c41-8eef-aca9314803aa","ios":"levelo://app?vid=ef5d2d18-91f9-4c41-8eef-aca9314803aa"},"vehicle_type_id":"4","last_reported":1762618272,"current_range_meters":16000,"station_id":"ce4bgm92rcd13ifvqbr0","pricing_plan_id":"cebpf4jnsgd1na2vs0mg"},{"bike_id":"0b37b69f-4d88-45a5-bb59-8daa184f4232","system_id":"levelo_inurba_marseille","lat":43.29851,"lon":5.36284,"is_reserved":false,"is_disabled":false,"rental_uris":{"android":"levelo://app?vid=0b37b69f-4d88-45a5-bb59-8daa184f4232","ios":"levelo://app?vid=0b37b69f-4d88-45a5-bb59-8daa184f4232"},"vehicle_type_id":"4","last_reported":1762618272,"current_range_meters":16000,"station_id":"ce4bgpp2rcd13ifvqc3g","pricing_plan_id":"cebpf4jnsgd1na2vs0mg"},{"bike_id":"42f1d31d-b0b5-48f8-b88c-a2adae506543","system_id":"levelo_inurba_marseille","lat":43.29824,"lon":5.44072,"is_reserved":false,"is_disabled":false,"rental_uris":{"android":"levelo://app?vid=42f1d31d-b0b5-48f8-b88c-a2adae506543","ios":"levelo://app?vid=42f1d31d-b0b5-48f8-b88c-a2adae506543"},"vehicle_type_id":"4","last_reported":1762618272,"current_range_meters":16000,"station_id":"st_d3jp68qikq2c7381ktn0","pricing_plan_id":"cebpf4jnsgd1na2vs0mg"},{"bike_id":"c73c5513-728d-4700-9395-e31e4399cd51","system_id":"levelo_inurba_marseille","lat":43.29206,"lon":5.40303,"is_reserved":false,"is_disabled":false,"rental_uris":{"android":"levelo://app?vid=c73c5513-728d-4700-9395-e31e4399cd51","ios":"levelo://app?vid=c73c5513-728d-4700-9395-e31e4399cd51"},"vehicle_type_id":"4","last_reported":1762618272,"current_range_meters":16000,"station_id":"","pricing_plan_id":"cebpf4jnsgd1na2vs0mg"},{"bike_id":"05b16ca7-c75c-4bff-9905-e7aee98403de","system_id":"levelo_inurba_marseille","lat":43.246556,"lon":5.381509,"is_reserved":false,"is_disabled":false,"rental_uris":{"android":"levelo://app?vid=05b16ca7-c75c-4bff-9905-e7aee98403de","ios":"levelo://app?vid=05b16ca7-c75c-4bff-9905-e7aee98403de"},"vehicle_type_id":"4","last_reported":1762618272,"current_range_meters":16000,"station_id":"ce4bhih2rcd13ifvqfr0","pricing_plan_id":"cebpf4jnsgd1na2vs0mg"},{"bike_id":"15db09df-59b0-446a-87c5-e354a3319258","system_id":"levelo_inurba_marseille","lat":43.28475,"lon":5.48398,"is_reserved":false,"is_disabled":false,"rental_uris":{"android":"levelo://app?vid=15db09df-59b0-446a-87c5-e354a3319258","ios":"levelo://app?vid=15db09df-59b0-446a-87c5-e354a3319258"},"vehicle_type_id":"4","last_reported":1762618272,"current_range_meters":16000,"station_id":"","pricing_plan_id":"cebpf4jnsgd1na2vs0mg"},{"bike_id":"06b572d6-d95a-4f1a-9a9a-b316897ad6d5","system_id":"levelo_inurba_marseille","lat":43.29545,"lon":5.3752,"is_reserved":false,"is_disabled":false,"rental_uris":{"android":"levelo://app?vid=06b572d6-d95a-4f1a-9a9a-b316897ad6d5","ios":"levelo://app?vid=06b572d6-d95a-4f1a-9a9a-b316897ad6d5"},"vehicle_type_id":"4","last_reported":1762618272,"current_range_meters":16000,"station_id":"ce4bgkp2rcd13ifvqbmg","pricing_plan_id":"cebpf4jnsgd1na2vs0mg"},{"bike_id":"6a8ff3c5-840b-48d8-bffd-e31542628cfa","system_id":"levelo_inurba_marseille","lat":43.30444,"lon":5.37907,"is_reserved":false,"is_disabled":false,"rental_uris":{"android":"levelo://app?vid=6a8ff3c5-840b-48d8-bffd-e31542628cfa","ios":"levelo://app?vid=6a8ff3c5-840b-48d8-bffd-e31542628cfa"},"vehicle_type_id":"4","last_reported":1762618272,"current_range_meters":16000,"station_id":"ce4bgup2rcd13ifvqcn0","pricing_plan_id":"cebpf4jnsgd1na2vs0mg"},{"bike_id":"32bc706a-40c4-491a-aecd-d9ae8c71a318","system_id":"levelo_inurba_marseille","lat":43.29253,"lon":5.40911,"is_reserved":false,"is_disabled":false,"rental_uris":{"android":"levelo://app?vid=32bc706a-40c4-491a-aecd-d9ae8c71a318","ios":"levelo://app?vid=32bc706a-40c4-491a-aecd-d9ae8c71a318"},"vehicle_type_id":"4","last_reported":1762618272,"current_range_meters":16000,"station_id":"ce4bh192rcd13ifvqdc0","pricing_plan_id":"cebpf4jnsgd1na2vs0mg"},{"bike_id":"bcbc57a8-c4ef-4466-b79b-097be1d59e9d","system_id":"levelo_inurba_marseille","lat":43.298469,"lon":5.362862,"is_reserved":false,"is_disabled":false,"rental_uris":{"android":"levelo://app?vid=bcbc57a8-c4ef-4466-b79b-097be1d59e9d","ios":"levelo://app?vid=bcbc57a8-c4ef-4466-b79b-097be1d59e9d"},"vehicle_type_id":"4","last_reported":1762618272,"current_range_meters":16000,"station_id":"ce4bgpp2rcd13ifvqc3g","pricing_plan_id":"cebpf4jnsgd1na2vs0mg"},{"bike_id":"780ccef0-f02d-4472-b284-566df56d5736","system_id":"levelo_inurba_marseille","lat":43.27496,"lon":5.42451,"is_reserved":false,"is_disabled":false,"rental_uris":{"android":"levelo://app?vid=780ccef0-f02d-4472-b284-566df56d5736","ios":"levelo://app?vid=780ccef0-f02d-4472-b284-566df56d5736"},"vehicle_type_id":"4","last_reported":1762618272,"current_range_meters":16000,"station_id":"ce4bhn92rcd13ifvqgrg","pricing_plan_id":"cebpf4jnsgd1na2vs0mg"},{"bike_id":"082e90a5-5489-47da-8a63-13c21d1296f6","system_id":"levelo_inurba_marseille","lat":43.31705,"lon":5.43713,"is_reserved":false,"is_disabled":false,"rental_uris":{"android":"levelo://app?vid=082e90a5-5489-47da-8a63-13c21d1296f6","ios":"levelo://app?vid=082e90a5-5489-47da-8a63-13c21d1296f6"},"vehicle_type_id":"4","last_reported":1762618272,"current_range_meters":16000,"station_id":"ce4bhp92rcd13ifvqhcg","pricing_plan_id":"cebpf4jnsgd1na2vs0mg"},{"bike_id":"f9446727-e49c-47e2-8fb4-f484a30bae0c","system_id":"levelo_inurba_marseille","lat":43.286121,"lon":5.370581,"is_reserved":false,"is_disabled":false,"rental_uris":{"android":"levelo://app?vid=f9446727-e49c-47e2-8fb4-f484a30bae0c","ios":"levelo://app?vid=f9446727-e49c-47e2-8fb4-f484a30bae0c"},"vehicle_type_id":"4","last_reported":1762618272,"current_range_meters":16000,"station_id":"ce4bht12rcd13ifvqi60","pricing_plan_id":"cebpf4jnsgd1na2vs0mg"},{"bike_id":"601cfee9-efd4-4fc3-b5b0-f5c27a79fbd7","system_id":"levelo_inurba_marseille","lat":43.296285,"lon":5.37732,"is_reserved":false,"is_disabled":false,"rental_uris":{"android":"levelo://app?vid=601cfee9-efd4-4fc3-b5b0-f5c27a79fbd7","ios":"levelo://app?vid=601cfee9-efd4-4fc3-b5b0-f5c27a79fbd7"},"vehicle_type_id":"4","last_reported":1762618272,"current_range_meters":16400,"station_id":"ce4bgi92rcd13ifvqb90","pricing_plan_id":"cebpf4jnsgd1na2vs0mg"},{"bike_id":"1a85bd73-f6c9-483d-ac28-5d95b6775d78","system_id":"levelo_inurba_marseille","lat":43.28708,"lon":5.37956,"is_reserved":false,"is_disabled":true,"rental_uris":{"android":"levelo://app?vid=1a85bd73-f6c9-483d-ac28-5d95b6775d78","ios":"levelo://app?vid=1a85bd73-f6c9-483d-ac28-5d95b6775d78"},"vehicle_type_id":"4","last_reported":1762618272,"current_range_meters":16400,"station_id":"ce4bh9p2rcd13ifvqec0","pricing_plan_id":"cebpf4jnsgd1na2vs0mg"},{"bike_id":"abca2ab5-36b9-4530-8680-313f2a63b5d3","system_id":"levelo_inurba_marseille","lat":43.25017,"lon":5.38961,"is_reserved":false,"is_disabled":false,"rental_uris":{"android":"levelo://app?vid=abca2ab5-36b9-4530-8680-313f2a63b5d3","ios":"levelo://app?vid=abca2ab5-36b9-4530-8680-313f2a63b5d3"},"vehicle_type_id":"4","last_reported":1762618272,"current_range_meters":16400,"station_id":"ce4bhgp2rcd13ifvqfd0","pricing_plan_id":"cebpf4jnsgd1na2vs0mg"},{"bike_id":"7afdc198-e089-4c50-91e8-b554b5e1dd0c","system_id":"levelo_inurba_marseille","lat":43.298981,"lon":5.381414,"is_reserved":false,"is_disabled":false,"rental_uris":{"android":"levelo://app?vid=7afdc198-e089-4c50-91e8-b554b5e1dd0c","ios":"levelo://app?vid=7afdc198-e089-4c50-91e8-b554b5e1dd0c"},"vehicle_type_id":"4","last_reported":1762618272,"current_range_meters":16400,"station_id":"ce4bgj12rcd13ifvqbc0","pricing_plan_id":"cebpf4jnsgd1na2vs0mg"},{"bike_id":"95c2a582-1eba-4ebc-bdda-a353604dc20d","system_id":"levelo_inurba_marseille","lat":43.31244,"lon":5.36858,"is_reserved":false,"is_disabled":false,"rental_uris":{"android":"levelo://app?vid=95c2a582-1eba-4ebc-bdda-a353604dc20d","ios":"levelo://app?vid=95c2a582-1eba-4ebc-bdda-a353604dc20d"},"vehicle_type_id":"4","last_reported":1762618272,"current_range_meters":16400,"station_id":"ce4bgl92rcd13ifvqbq0","pricing_plan_id":"cebpf4jnsgd1na2vs0mg"},{"bike_id":"782381bf-0bf2-44f5-b445-4280dd09e24d","system_id":"levelo_inurba_marseille","lat":43.30603,"lon":5.37227,"is_reserved":false,"is_disabled":false,"rental_uris":{"android":"levelo://app?vid=782381bf-0bf2-44f5-b445-4280dd09e24d","ios":"levelo://app?vid=782381bf-0bf2-44f5-b445-4280dd09e24d"},"vehicle_type_id":"4","last_reported":1762618272,"current_range_meters":16400,"station_id":"ce4bgqh2rcd13ifvqc4g","pricing_plan_id":"cebpf4jnsgd1na2vs0mg"},{"bike_id":"cf78c577-f784-4054-9298-4eadfd68926b","system_id":"levelo_inurba_marseille","lat":43.31163,"lon":5.39366,"is_reserved":false,"is_disabled":false,"rental_uris":{"android":"levelo://app?vid=cf78c577-f784-4054-9298-4eadfd68926b","ios":"levelo://app?vid=cf78c577-f784-4054-9298-4eadfd68926b"},"vehicle_type_id":"4","last_reported":1762618272,"current_range_meters":16400,"station_id":"","pricing_plan_id":"cebpf4jnsgd1na2vs0mg"},{"bike_id":"2c92060f-b0cd-40f9-9b1a-9e7e8759318c","system_id":"levelo_inurba_marseille","lat":43.292982,"lon":5.368779,"is_reserved":false,"is_disabled":false,"rental_uris":{"android":"levelo://app?vid=2c92060f-b0cd-40f9-9b1a-9e7e8759318c","ios":"levelo://app?vid=2c92060f-b0cd-40f9-9b1a-9e7e8759318c"},"vehicle_type_id":"4","last_reported":1762618272,"current_range_meters":16400,"station_id":"ce4bhbp2rcd13ifvqesg","pricing_plan_id":"cebpf4jnsgd1na2vs0mg"},{"bike_id":"f92687d4-c565-4dd9-b819-e60202d1e4b5","system_id":"levelo_inurba_marseille","lat":43.25117,"lon":5.40321,"is_reserved":false,"is_disabled":false,"rental_uris":{"android":"levelo://app?vid=f92687d4-c565-4dd9-b819-e60202d1e4b5","ios":"levelo://app?vid=f92687d4-c565-4dd9-b819-e60202d1e4b5"},"vehicle_type_id":"4","last_reported":1762618272,"current_range_meters":16800,"station_id":"ce4bhlh2rcd13ifvqgig","pricing_plan_id":"cebpf4jnsgd1na2vs0mg"},{"bike_id":"1b422a3f-44ef-4382-86de-0fafc053dc59","system_id":"levelo_inurba_marseille","lat":43.28416,"lon":5.35002,"is_reserved":false,"is_disabled":false,"rental_uris":{"android":"levelo://app?vid=1b422a3f-44ef-4382-86de-0fafc053dc59","ios":"levelo://app?vid=1b422a3f-44ef-4382-86de-0fafc053dc59"},"vehicle_type_id":"4","last_reported":1762618272,"current_range_meters":16800,"station_id":"ce4bhbh2rcd13ifvqepg","pricing_plan_id":"cebpf4jnsgd1na2vs0mg"},{"bike_id":"0aced166-b6b9-4109-93a4-6f8be3194744","system_id":"levelo_inurba_marseille","lat":43.27415,"lon":5.39428,"is_reserved":false,"is_disabled":false,"rental_uris":{"android":"levelo://app?vid=0aced166-b6b9-4109-93a4-6f8be3194744","ios":"levelo://app?vid=0aced166-b6b9-4109-93a4-6f8be3194744"},"vehicle_type_id":"4","last_reported":1762618272,"current_range_meters":16800,"station_id":"ce4bhdp2rcd13ifvqf20","pricing_plan_id":"cebpf4jnsgd1na2vs0mg"},{"bike_id":"18485e3b-b836-4eed-8c07-53393c4e5679","system_id":"levelo_inurba_marseille","lat":43.27421,"lon":5.39389,"is_reserved":false,"is_disabled":false,"rental_uris":{"android":"levelo://app?vid=18485e3b-b836-4eed-8c07-53393c4e5679","ios":"levelo://app?vid=18485e3b-b836-4eed-8c07-53393c4e5679"},"vehicle_type_id":"4","last_reported":1762618272,"current_range_meters":16800,"station_id":"ce4bhdp2rcd13ifvqf20","pricing_plan_id":"cebpf4jnsgd1na2vs0mg"},{"bike_id":"e374f4d6-676c-4d62-af2d-1f0734c48172","system_id":"levelo_inurba_marseille","lat":43.29488,"lon":5.43332,"is_reserved":false,"is_disabled":false,"rental_uris":{"android":"levelo://app?vid=e374f4d6-676c-4d62-af2d-1f0734c48172","ios":"levelo://app?vid=e374f4d6-676c-4d62-af2d-1f0734c48172"},"vehicle_type_id":"4","last_reported":1762618272,"current_range_meters":16800,"station_id":"st_d3j5ugp08ojc73fj9d10","pricing_plan_id":"cebpf4jnsgd1na2vs0mg"},{"bike_id":"6ca580b9-ae87-4e9b-a62c-4e0f6a07370c","system_id":"levelo_inurba_marseille","lat":43.21179,"lon":5.35087,"is_reserved":false,"is_disabled":false,"rental_uris":{"android":"levelo://app?vid=6ca580b9-ae87-4e9b-a62c-4e0f6a07370c","ios":"levelo://app?vid=6ca580b9-ae87-4e9b-a62c-4e0f6a07370c"},"vehicle_type_id":"4","last_reported":1762618272,"current_range_meters":16800,"station_id":"st_cvj6sg6p6f1abm77japg","pricing_plan_id":"cebpf4jnsgd1na2vs0mg"},{"bike_id":"d1cbe8b1-b39b-4e6a-b4e1-914b6f778fce","system_id":"levelo_inurba_marseille","lat":43.31579,"lon":5.38825,"is_reserved":false,"is_disabled":true,"rental_uris":{"android":"levelo://app?vid=d1cbe8b1-b39b-4e6a-b4e1-914b6f778fce","ios":"levelo://app?vid=d1cbe8b1-b39b-4e6a-b4e1-914b6f778fce"},"vehicle_type_id":"4","last_reported":1762618272,"current_range_meters":16800,"station_id":"","pricing_plan_id":"cebpf4jnsgd1na2vs0mg"},{"bike_id":"ee175632-a663-46e4-a04a-94a5c3686c34","system_id":"levelo_inurba_marseille","lat":43.2293,"lon":5.3537,"is_reserved":false,"is_disabled":false,"rental_uris":{"android":"levelo://app?vid=ee175632-a663-46e4-a04a-94a5c3686c34","ios":"levelo://app?vid=ee175632-a663-46e4-a04a-94a5c3686c34"},"vehicle_type_id":"4","last_reported":1762618272,"current_range_meters":16800,"station_id":"cpo3532slgdg3j2ikp40","pricing_plan_id":"cebpf4jnsgd1na2vs0mg"},{"bike_id":"639e2119-feb2-41ef-a04a-8097682df0bb","system_id":"levelo_inurba_marseille","lat":43.3148,"lon":5.3731,"is_reserved":false,"is_disabled":false,"rental_uris":{"android":"levelo://app?vid=639e2119-feb2-41ef-a04a-8097682df0bb","ios":"levelo://app?vid=639e2119-feb2-41ef-a04a-8097682df0bb"},"vehicle_type_id":"4","last_reported":1762618272,"current_range_meters":16800,"station_id":"ce4bgt12rcd13ifvqcd0","pricing_plan_id":"cebpf4jnsgd1na2vs0mg"},{"bike_id":"0f9acc17-abba-4f14-b51f-cf2b8dc02d51","system_id":"levelo_inurba_marseille","lat":43.27321,"lon":5.39074,"is_reserved":false,"is_disabled":false,"rental_uris":{"android":"levelo://app?vid=0f9acc17-abba-4f14-b51f-cf2b8dc02d51","ios":"levelo://app?vid=0f9acc17-abba-4f14-b51f-cf2b8dc02d51"},"vehicle_type_id":"4","last_reported":1762618272,"current_range_meters":16800,"station_id":"ce4bhgp2rcd13ifvqfe0","pricing_plan_id":"cebpf4jnsgd1na2vs0mg"},{"bike_id":"d421d90d-d6c6-4ab0-976a-9dafe899ad86","system_id":"levelo_inurba_marseille","lat":43.292642,"lon":5.376299,"is_reserved":false,"is_disabled":false,"rental_uris":{"android":"levelo://app?vid=d421d90d-d6c6-4ab0-976a-9dafe899ad86","ios":"levelo://app?vid=d421d90d-d6c6-4ab0-976a-9dafe899ad86"},"vehicle_type_id":"4","last_reported":1762618272,"current_range_meters":16800,"station_id":"ce4bgi12rcd13ifvqb80","pricing_plan_id":"cebpf4jnsgd1na2vs0mg"},{"bike_id":"ac1012d0-7872-4c6e-85e6-fc8eaff39396","system_id":"levelo_inurba_marseille","lat":43.28457,"lon":5.35897,"is_reserved":false,"is_disabled":true,"rental_uris":{"android":"levelo://app?vid=ac1012d0-7872-4c6e-85e6-fc8eaff39396","ios":"levelo://app?vid=ac1012d0-7872-4c6e-85e6-fc8eaff39396"},"vehicle_type_id":"4","last_reported":1762618272,"current_range_meters":16800,"station_id":"ce4bhah2rcd13ifvqei0","pricing_plan_id":"cebpf4jnsgd1na2vs0mg"},{"bike_id":"f5798b1c-d2ac-4849-8c47-59fbbbc0335b","system_id":"levelo_inurba_marseille","lat":43.281505,"lon":5.389064,"is_reserved":false,"is_disabled":false,"rental_uris":{"android":"levelo://app?vid=f5798b1c-d2ac-4849-8c47-59fbbbc0335b","ios":"levelo://app?vid=f5798b1c-d2ac-4849-8c47-59fbbbc0335b"},"vehicle_type_id":"4","last_reported":1762618272,"current_range_meters":16800,"station_id":"","pricing_plan_id":"cebpf4jnsgd1na2vs0mg"},{"bike_id":"07a28078-343a-4952-9329-8e04a7a977cf","system_id":"levelo_inurba_marseille","lat":43.299821,"lon":5.38512,"is_reserved":false,"is_disabled":false,"rental_uris":{"android":"levelo://app?vid=07a28078-343a-4952-9329-8e04a7a977cf","ios":"levelo://app?vid=07a28078-343a-4952-9329-8e04a7a977cf"},"vehicle_type_id":"4","last_reported":1762618272,"current_range_meters":17200,"station_id":"ce4bgj92rcd13ifvqbd0","pricing_plan_id":"cebpf4jnsgd1na2vs0mg"},