{"last_updated":1744636912,"ttl":60,"version":"2.2","data":{"bikes":[{"bike_id":"1130922e-9ccc-463b-9207-aadecd794edb","system_id":"levelo_inurba_marseille","lat":43.31974,"lon":5.38145,"is_reserved":false,"is_disabled":false,"rental_uris":{"android":"levelo://app?vid=1130922e-9ccc-463b-9207-aadecd794edb","ios":"levelo://app?vid=1130922e-9ccc-463b-9207-aadecd794edb"},"vehicle_type_id":"4","last_reported":1744636912,"current_range_meters":2800,"station_id":"ce4bhr12rcd13ifvqhpg","pricing_plan_id":"cebpf4jnsgd1na2vs0mg"},{"bike_id":"f706ce44-8c28-46aa-9fae-b10cfa45b856","system_id":"levelo_inurba_marseille","lat":43.24807,"lon":5.37455,"is_reserved":false,"is_disabled":false,"rental_uris":{"android":"levelo://app?vid=f706ce44-8c28-46aa-9fae-b10cfa45b856","ios":"levelo://app?vid=f706ce44-8c28-46aa-9fae-b10cfa45b856"},"vehicle_type_id":"4","last_reported":1744636912,"current_range_meters":2800,"station_id":"ce4bhgh2rcd13ifvqfb0","pricing_plan_id":"cebpf4jnsgd1na2vs0mg"},{"bike_id":"0b067865-9d16-4682-b393-adbe84e048ce","system_id":"levelo_inurba_marseille","lat":43.26553,"lon":5.37292,"is_reserved":false,"is_disabled":false,"rental_uris":{"android":"levelo://app?vid=0b067865-9d16-4682-b393-adbe84e048ce","ios":"levelo://app?vid=0b067865-9d16-4682-b393-adbe84e048ce"},"vehicle_type_id":"4","last_reported":1744636912,"current_range_meters":3200,"station_id":"ce4bhg12rcd13ifvqf70","pricing_plan_id":"cebpf4jnsgd1na2vs0mg"},{"bike_id":"4a0973b0-92a0-41e8-9b0d-a99e944bafe0","system_id":"levelo_inurba_marseille","lat":43.34492,"lon":5.41281,"is_reserved":false,"is_disabled":false,"rental_uris":{"android":"levelo://app?vid=4a0973b0-92a0-41e8-9b0d-a99e944bafe0","ios":"levelo://app?vid=4a0973b0-92a0-41e8-9b0d-a99e944bafe0"},"vehicle_type_id":"4","last_reported":1744636912,"current_range_meters":3200,"station_id":"","pricing_plan_id":"cebpf4jnsgd1na2vs0mg"},{"bike_id":"5b77a833-8185-45c2-9fe3-07eb40df54ca","system_id":"levelo_inurba_marseille","lat":43.33995,"lon":5.38057,"is_reserved":false,"is_disabled":false,"rental_uris":{"android":"levelo://app?vid=5b77a833-8185-45c2-9fe3-07eb40df54ca","ios":"levelo://app?vid=5b77a833-8185-45c2-9fe3-07eb40df54ca"},"vehicle_type_id":"4","last_reported":1744636912,"current_range_meters":3200,"station_id":"","pricing_plan_id":"cebpf4jnsgd1na2vs0mg"},{"bike_id":"493cde9e-7859-4c26-a2e6-f744ee5d8553","system_id":"levelo_inurba_marseille","lat":43.3141,"lon":5.37308,"is_reserved":false,"is_disabled":false,"rental_uris":{"android":"levelo://app?vid=493cde9e-7859-4c26-a2e6-f744ee5d8553","ios":"levelo://app?vid=493cde9e-7859-4c26-a2e6-f744ee5d8553"},"vehicle_type_id":"4","last_reported":1744636912,"current_range_meters":3600,"station_id":"","pricing_plan_id":"cebpf4jnsgd1na2vs0mg"},{"bike_id":"8a7c02b4-f271-40a6-88b2-581e6d053034","system_id":"levelo_inurba_marseille","lat":43.29199,"lon":5.393167,"is_reserved":false,"is_disabled":false,"rental_uris":{"android":"levelo://app?vid=8a7c02b4-f271-40a6-88b2-581e6d053034","ios":"levelo://app?vid=8a7c02b4-f271-40a6-88b2-581e6d053034"},"vehicle_type_id":"4","last_reported":1744636912,"current_range_meters":3600,"station_id":"ce4bh192rcd13ifvqdd0","pricing_plan_id":"cebpf4jnsgd1na2vs0mg"},{"bike_id":"bb85c1ec-8a61-4ccd-9985-a98e40503ee9","system_id":"levelo_inurba_marseille","lat":43.23156,"lon":5.43713,"is_reserved":false,"is_disabled":false,"rental_uris":{"android":"levelo://app?vid=bb85c1ec-8a61-4ccd-9985-a98e40503ee9","ios":"levelo://app?vid=bb85c1ec-8a61-4ccd-9985-a98e40503ee9"},"vehicle_type_id":"4","last_reported":1744636912,"current_range_meters":4000,"station_id":"ce4bhmp2rcd13ifvqgog","pricing_plan_id":"cebpf4jnsgd1na2vs0mg"},{"bike_id":"338aa545-432d-43df-a5e0-a875fe42067c","system_id":"levelo_inurba_marseille","lat":43.30429,"lon":5.38897,"is_reserved":false,"is_disabled":false,"rental_uris":{"android":"levelo://app?vid=338aa545-432d-43df-a5e0-a875fe42067c","ios":"levelo://app?vid=338aa545-432d-43df-a5e0-a875fe42067c"},"vehicle_type_id":"4","last_reported":1744636912,"current_range_meters":4000,"station_id":"ce4bgk12rcd13ifvqbi0","pricing_plan_id":"cebpf4jnsgd1na2vs0mg"},{"bike_id":"a8b89d78-2450-42d8-855d-8566c79069ad","system_id":"levelo_inurba_marseille","lat":43.320366,"lon":5.41572,"is_reserved":false,"is_disabled":false,"rental_uris":{"android":"levelo://app?vid=a8b89d78-2450-42d8-855d-8566c79069ad","ios":"levelo://app?vid=a8b89d78-2450-42d8-855d-8566c79069ad"},"vehicle_type_id":"4","last_reported":1744636912,"current_range_meters":4400,"station_id":"ce4bhq92rcd13ifvqhkg","pricing_plan_id":"cebpf4jnsgd1na2vs0mg"},{"bike_id":"944bddab-9f41-4da7-80e2-b3e803e6b9a5","system_id":"levelo_inurba_marseille","lat":43.22917,"lon":5.3534,"is_reserved":false,"is_disabled":false,"rental_uris":{"android":"levelo://app?vid=944bddab-9f41-4da7-80e2-b3e803e6b9a5","ios":"levelo://app?vid=944bddab-9f41-4da7-80e2-b3e803e6b9a5"},"vehicle_type_id":"4","last_reported":1744636912,"current_range_meters":4400,"station_id":"cpo3532slgdg3j2ikp40","pricing_plan_id":"cebpf4jnsgd1na2vs0mg"},{"bike_id":"67d12b7b-e910-4424-80eb-f4f6c933d252","system_id":"levelo_inurba_marseille","lat":43.27206,"lon":5.39179,"is_reserved":false,"is_disabled":false,"rental_uris":{"android":"levelo://app?vid=67d12b7b-e910-4424-80eb-f4f6c933d252","ios":"levelo://app?vid=67d12b7b-e910-4424-80eb-f4f6c933d252"},"vehicle_type_id":"4","last_reported":1744636912,"current_range_meters":4800,"station_id":"ce4bhhp2rcd13ifvqfm0","pricing_plan_id":"cebpf4jnsgd1na2vs0mg"},{"bike_id":"cf675099-ac1b-4818-b622-5e6e28428c4a","system_id":"levelo_inurba_marseille","lat":43.22931,"lon":5.35398,"is_reserved":false,"is_disabled":false,"rental_uris":{"android":"levelo://app?vid=cf675099-ac1b-4818-b622-5e6e28428c4a","ios":"levelo://app?vid=cf675099-ac1b-4818-b622-5e6e28428c4a"},"vehicle_type_id":"4","last_reported":1744636912,"current_range_meters":4800,"station_id":"cpo3532slgdg3j2ikp40","pricing_plan_id":"cebpf4jnsgd1na2vs0mg"},{"bike_id":"4f38e127-be9f-468e-8871-e9cd4f365dca","system_id":"levelo_inurba_marseille","lat":43.24684,"lon":5.41165,"is_reserved":false,"is_disabled":false,"rental_uris":{"android":"levelo://app?vid=4f38e127-be9f-468e-8871-e9cd4f365dca","ios":"levelo://app?vid=4f38e127-be9f-468e-8871-e9cd4f365dca"},"vehicle_type_id":"4","last_reported":1744636912,"current_range_meters":4800,"station_id":"","pricing_plan_id":"cebpf4jnsgd1na2vs0mg"},{"bike_id":"3d16c2e3-7c12-4342-883a-029e0fc16b05","system_id":"levelo_inurba_marseille","lat":43.31025,"lon":5.37102,"is_reserved":false,"is_disabled":false,"rental_uris":{"android":"levelo://app?vid=3d16c2e3-7c12-4342-883a-029e0fc16b05","ios":"levelo://app?vid=3d16c2e3-7c12-4342-883a-029e0fc16b05"},"vehicle_type_id":"4","last_reported":1744636912,"current_range_meters":4800,"station_id":"","pricing_plan_id":"cebpf4jnsgd1na2vs0mg"},{"bike_id":"0fec6c2b-331e-4e11-bb36-5c4f402b4e35","system_id":"levelo_inurba_marseille","lat":43.24652,"lon":5.38891,"is_reserved":false,"is_disabled":false,"rental_uris":{"android":"levelo://app?vid=0fec6c2b-331e-4e11-bb36-5c4f402b4e35","ios":"levelo://app?vid=0fec6c2b-331e-4e11-bb36-5c4f402b4e35"},"vehicle_type_id":"4","last_reported":1744636912,"current_range_meters":4400,"station_id":"ce4bhg12rcd13ifvqf60","pricing_plan_id":"cebpf4jnsgd1na2vs0mg"},{"bike_id":"1a114f9c-8fb6-4b06-a37c-9ff0edbb7a79","system_id":"levelo_inurba_marseille","lat":43.29527,"lon":5.38543,"is_reserved":false,"is_disabled":false,"rental_uris":{"android":"levelo://app?vid=1a114f9c-8fb6-4b06-a37c-9ff0edbb7a79","ios":"levelo://app?vid=1a114f9c-8fb6-4b06-a37c-9ff0edbb7a79"},"vehicle_type_id":"4","last_reported":1744636912,"current_range_meters":5600,"station_id":"ce4bgih2rcd13ifvqba0","pricing_plan_id":"cebpf4jnsgd1na2vs0mg"},{"bike_id":"3f7e46c7-9ac2-480b-aecc-0c9f0bbc04f5","system_id":"levelo_inurba_marseille","lat":43.28271,"lon":5.35062,"is_reserved":false,"is_disabled":false,"rental_uris":{"android":"levelo://app?vid=3f7e46c7-9ac2-480b-aecc-0c9f0bbc04f5","ios":"levelo://app?vid=3f7e46c7-9ac2-480b-aecc-0c9f0bbc04f5"},"vehicle_type_id":"4","last_reported":1744636912,"current_range_meters":5600,"station_id":"ce4bhbp2rcd13ifvqerg","pricing_plan_id":"cebpf4jnsgd1na2vs0mg"},{"bike_id":"76450c2c-888f-4d08-a5c0-d825237615aa","system_id":"levelo_inurba_marseille","lat":43.272256,"lon":5.423006,"is_reserved":false,"is_disabled":false,"rental_uris":{"android":"levelo://app?vid=76450c2c-888f-4d08-a5c0-d825237615aa","ios":"levelo://app?vid=76450c2c-888f-4d08-a5c0-d825237615aa"},"vehicle_type_id":"4","last_reported":1744636912,"current_range_meters":6400,"station_id":"","pricing_plan_id":"cebpf4jnsgd1na2vs0mg"},{"bike_id":"c127d1a8-0150-4856-a57b-18fd29314b2c","system_id":"levelo_inurba_marseille","lat":43.32473,"lon":5.36547,"is_reserved":false,"is_disabled":false,"rental_uris":{"android":"levelo://app?vid=c127d1a8-0150-4856-a57b-18fd29314b2c","ios":"levelo://app?vid=c127d1a8-0150-4856-a57b-18fd29314b2c"},"vehicle_type_id":"4","last_reported":1744636912,"current_range_meters":6400,"station_id":"ce4bhs12rcd13ifvqhvg","pricing_plan_id":"cebpf4jnsgd1na2vs0mg"},{"bike_id":"046652f9-121a-4f96-9bae-ed2bca5110fa","system_id":"levelo_inurba_marseille","lat":43.23072,"lon":5.35489,"is_reserved":false,"is_disabled":false,"rental_uris":{"android":"levelo://app?vid=046652f9-121a-4f96-9bae-ed2bca5110fa","ios":"levelo://app?vid=046652f9-121a-4f96-9bae-ed2bca5110fa"},"vehicle_type_id":"4","last_reported":1744636912,"current_range_meters":6800,"station_id":"cpo3342slgdg3j2ifvpg","pricing_plan_id":"cebpf4jnsgd1na2vs0mg"},{"bike_id":"e8a97774-4d0d-433b-8cc1-c99e33568527","system_id":"levelo_inurba_marseille","lat":43.25012,"lon":5.38924,"is_reserved":false,"is_disabled":false,"rental_uris":{"android":"levelo://app?vid=e8a97774-4d0d-433b-8cc1-c99e33568527","ios":"levelo://app?vid=e8a97774-4d0d-433b-8cc1-c99e33568527"},"vehicle_type_id":"4","last_reported":1744636912,"current_range_meters":7200,"station_id":"ce4bhgp2rcd13ifvqfd0","pricing_plan_id":"cebpf4jnsgd1na2vs0mg"},{"bike_id":"ba8e5a73-9586-4987-9570-0c8f95aa394b","system_id":"levelo_inurba_marseille","lat":43.31242,"lon":5.36875,"is_reserved":false,"is_disabled":false,"rental_uris":{"android":"levelo://app?vid=ba8e5a73-9586-4987-9570-0c8f95aa394b","ios":"levelo://app?vid=ba8e5a73-9586-4987-9570-0c8f95aa394b"},"vehicle_type_id":"4","last_reported":1744636912,"current_range_meters":7200,"station_id":"ce4bgl92rcd13ifvqbq0","pricing_plan_id":"cebpf4jnsgd1na2vs0mg"},{"bike_id":"1edf1e3a-71a2-4e8e-9448-ac0461721fa1","system_id":"levelo_inurba_marseille","lat":43.313622,"lon":5.384884,"is_reserved":false,"is_disabled":false,"rental_uris":{"android":"levelo://app?vid=1edf1e3a-71a2-4e8e-9448-ac0461721fa1","ios":"levelo://app?vid=1edf1e3a-71a2-4e8e-9448-ac0461721fa1"},"vehicle_type_id":"4","last_reported":1744636912,"current_range_meters":6800,"station_id":"ce4bgt92rcd13ifvqcf0","pricing_plan_id":"cebpf4jnsgd1na2vs0mg"},{"bike_id":"ce851968-e822-4e8e-a120-b48b2d8ab0b2","system_id":"levelo_inurba_marseille","lat":43.27993,"lon":5.41661,"is_reserved":false,"is_disabled":false,"rental_uris":{"android":"levelo://app?vid=ce851968-e822-4e8e-a120-b48b2d8ab0b2","ios":"levelo://app?vid=ce851968-e822-4e8e-a120-b48b2d8ab0b2"},"vehicle_type_id":"4","last_reported":1744636912,"current_range_meters":7200,"station_id":"ce4bho12rcd13ifvqh1g","pricing_plan_id":"cebpf4jnsgd1na2vs0mg"},{"bike_id":"cda1ecec-2597-404c-bca3-875a6872f187","system_id":"levelo_inurba_marseille","lat":43.26803,"lon":5.40267,"is_reserved":false,"is_disabled":false,"rental_uris":{"android":"levelo://app?vid=cda1ecec-2597-404c-bca3-875a6872f187","ios":"levelo://app?vid=cda1ecec-2597-404c-bca3-875a6872f187"},"vehicle_type_id":"4","last_reported":1744636912,"current_range_meters":7200,"station_id":"ce501612rcd8frsf0b60","pricing_plan_id":"cebpf4jnsgd1na2vs0mg"},{"bike_id":"d3c6c769-3c42-45a2-9266-30668e9ac91c","system_id":"levelo_inurba_marseille","lat":43.27915,"lon":5.39569,"is_reserved":false,"is_disabled":false,"rental_uris":{"android":"levelo://app?vid=d3c6c769-3c42-45a2-9266-30668e9ac91c","ios":"levelo://app?vid=d3c6c769-3c42-45a2-9266-30668e9ac91c"},"vehicle_type_id":"4","last_reported":1744636912,"current_range_meters":7200,"station_id":"ce4bhf92rcd13ifvqf40","pricing_plan_id":"cebpf4jnsgd1na2vs0mg"},{"bike_id":"3606ed21-51d5-4aac-9f8e-3e62e87655b1","system_id":"levelo_inurba_marseille","lat":43.28461,"lon":5.35898,"is_reserved":false,"is_disabled":false,"rental_uris":{"android":"levelo://app?vid=3606ed21-51d5-4aac-9f8e-3e62e87655b1","ios":"levelo://app?vid=3606ed21-51d5-4aac-9f8e-3e62e87655b1"},"vehicle_type_id":"4","last_reported":1744636912,"current_range_meters":8000,"station_id":"ce4bhah2rcd13ifvqei0","pricing_plan_id":"cebpf4jnsgd1na2vs0mg"},{"bike_id":"b55dd5e7-54b2-4035-b945-7b626dd7afc7","system_id":"levelo_inurba_marseille","lat":43.27567,"lon":5.40926,"is_reserved":false,"is_disabled":false,"rental_uris":{"android":"levelo://app?vid=b55dd5e7-54b2-4035-b945-7b626dd7afc7","ios":"levelo://app?vid=b55dd5e7-54b2-4035-b945-7b626dd7afc7"},"vehicle_type_id":"4","last_reported":1744636912,"current_range_meters":8000,"station_id":"","pricing_plan_id":"cebpf4jnsgd1na2vs0mg"},{"bike_id":"84534c75-afab-43e1-bed1-cacf782229e5","system_id":"levelo_inurba_marseille","lat":43.24905,"lon":5.39408,"is_reserved":false,"is_disabled":false,"rental_uris":{"android":"levelo://app?vid=84534c75-afab-43e1-bed1-cacf782229e5","ios":"levelo://app?vid=84534c75-afab-43e1-bed1-cacf782229e5"},"vehicle_type_id":"4","last_reported":1744636912,"current_range_meters":8000,"station_id":"","pricing_plan_id":"cebpf4jnsgd1na2vs0mg"},{"bike_id":"bbe8c3d1-30b6-4166-ae09-eeb82d1a6005","system_id":"levelo_inurba_marseille","lat":43.29257,"lon":5.37625,"is_reserved":false,"is_disabled":false,"rental_uris":{"android":"levelo://app?vid=bbe8c3d1-30b6-4166-ae09-eeb82d1a6005","ios":"levelo://app?vid=bbe8c3d1-30b6-4166-ae09-eeb82d1a6005"},"vehicle_type_id":"4","last_reported":1744636912,"current_range_meters":8800,"station_id":"ce4bgi12rcd13ifvqb80","pricing_plan_id":"cebpf4jnsgd1na2vs0mg"},{"bike_id":"53f54ee6-d489-422d-b293-ffafdc2ded00","system_id":"levelo_inurba_marseille","lat":43.28941,"lon":5.3964,"is_reserved":false,"is_disabled":false,"rental_uris":{"android":"levelo://app?vid=53f54ee6-d489-422d-b293-ffafdc2ded00","ios":"levelo://app?vid=53f54ee6-d489-422d-b293-ffafdc2ded00"},"vehicle_type_id":"4","last_reported":1744636912,"current_range_meters":8800,"station_id":"ce4bh3h2rcd13ifvqdn0","pricing_plan_id":"cebpf4jnsgd1na2vs0mg"},{"bike_id":"43a88c32-80b5-401e-85fc-fa734fddb1c3","system_id":"levelo_inurba_marseille","lat":43.29268,"lon":5.3685,"is_reserved":false,"is_disabled":false,"rental_uris":{"android":"levelo://app?vid=43a88c32-80b5-401e-85fc-fa734fddb1c3","ios":"levelo://app?vid=43a88c32-80b5-401e-85fc-fa734fddb1c3"},"vehicle_type_id":"4","last_reported":1744636912,"current_range_meters":8800,"station_id":"ce4bhbp2rcd13ifvqesg","pricing_plan_id":"cebpf4jnsgd1na2vs0mg"},{"bike_id":"0926325c-df79-4eb2-90bd-14318de34411","system_id":"levelo_inurba_marseille","lat":43.29081,"lon":5.3717,"is_reserved":false,"is_disabled":false,"rental_uris":{"android":"levelo://app?vid=0926325c-df79-4eb2-90bd-14318de34411","ios":"levelo://app?vid=0926325c-df79-4eb2-90bd-14318de34411"},"vehicle_type_id":"4","last_reported":1744636912,"current_range_meters":9200,"station_id":"ce4bh5p2rcd13ifvqe4g","pricing_plan_id":"cebpf4jnsgd1na2vs0mg"},{"bike_id":"e837cd78-5648-4a3f-8280-332eca0da16f","system_id":"levelo_inurba_marseille","lat":43.2649,"lon":5.39551,"is_reserved":false,"is_disabled":false,"rental_uris":{"android":"levelo://app?vid=e837cd78-5648-4a3f-8280-332eca0da16f","ios":"levelo://app?vid=e837cd78-5648-4a3f-8280-332eca0da16f"},"vehicle_type_id":"4","last_reported":1744636912,"current_range_meters":9200,"station_id":"ce4bhi12rcd13ifvqfq0","pricing_plan_id":"cebpf4jnsgd1na2vs0mg"},{"bike_id":"1034535b-e1b2-45b1-a4ee-8d90338cc667","system_id":"levelo_inurba_marseille","lat":43.27997,"lon":5.41664,"is_reserved":false,"is_disabled":false,"rental_uris":{"android":"levelo://app?vid=1034535b-e1b2-45b1-a4ee-8d90338cc667","ios":"levelo://app?vid=1034535b-e1b2-45b1-a4ee-8d90338cc667"},"vehicle_type_id":"4","last_reported":1744636912,"current_range_meters":9200,"station_id":"ce4bho12rcd13ifvqh1g","pricing_plan_id":"cebpf4jnsgd1na2vs0mg"},{"bike_id":"012851f7-56cd-4d98-8bad-d55b07e5c5ae","system_id":"levelo_inurba_marseille","lat":43.28627,"lon":5.35096,"is_reserved":false,"is_disabled":false,"rental_uris":{"android":"levelo://app?vid=012851f7-56cd-4d98-8bad-d55b07e5c5ae","ios":"levelo://app?vid=012851f7-56cd-4d98-8bad-d55b07e5c5ae"},"vehicle_type_id":"4","last_reported":1744636912,"current_range_meters":9200,"station_id":"ce4bhch2rcd13ifvqeug","pricing_plan_id":"cebpf4jnsgd1na2vs0mg"},{"bike_id":"0c7749e7-7b5c-4fdd-a511-9d72ce60594a","system_id":"levelo_inurba_marseille","lat":43.32034,"lon":5.41573,"is_reserved":false,"is_disabled":false,"rental_uris":{"android":"levelo://app?vid=0c7749e7-7b5c-4fdd-a511-9d72ce60594a","ios":"levelo://app?vid=0c7749e7-7b5c-4fdd-a511-9d72ce60594a"},"vehicle_type_id":"4","last_reported":1744636912,"current_range_meters":9200,"station_id":"ce4bhq92rcd13ifvqhkg","pricing_plan_id":"cebpf4jnsgd1na2vs0mg"},{"bike_id":"8373f4b7-de31-4655-8c12-fa2eb584d200","system_id":"levelo_inurba_marseille","lat":43.28621,"lon":5.35114,"is_reserved":false,"is_disabled":false,"rental_uris":{"android":"levelo://app?vid=8373f4b7-de31-4655-8c12-fa2eb584d200","ios":"levelo://app?vid=8373f4b7-de31-4655-8c12-fa2eb584d200"},"vehicle_type_id":"4","last_reported":1744636912,"current_range_meters":9200,"station_id":"ce4bhch2rcd13ifvqeug","pricing_plan_id":"cebpf4jnsgd1na2vs0mg"},{"bike_id":"76b31278-9a06-42f3-ab03-35ce4339220a","system_id":"levelo_inurba_marseille","lat":43.29911,"lon":5.38148,"is_reserved":false,"is_disabled":false,"rental_uris":{"android":"levelo://app?vid=76b31278-9a06-42f3-ab03-35ce4339220a","ios":"levelo://app?vid=76b31278-9a06-42f3-ab03-35ce4339220a"},"vehicle_type_id":"4","last_reported":1744636912,"current_range_meters":9200,"station_id":"ce4bgj12rcd13ifvqbc0","pricing_plan_id":"cebpf4jnsgd1na2vs0mg"},{"bike_id":"072b8ba7-61fb-4d89-a75f-9702e0891de0","system_id":"levelo_inurba_marseille","lat":43.24169,"lon":5.36396,"is_reserved":false,"is_disabled":false,"rental_uris":{"android":"levelo://app?vid=072b8ba7-61fb-4d89-a75f-9702e0891de0","ios":"levelo://app?vid=072b8ba7-61fb-4d89-a75f-9702e0891de0"},"vehicle_type_id":"4","last_reported":1744636912,"current_range_meters":9200,"station_id":"cpo36qri1sfpv3e86is0","pricing_plan_id":"cebpf4jnsgd1na2vs0mg"},{"bike_id":"eba3b291-e8d8-44f8-9326-40830fbd26d3","system_id":"levelo_inurba_marseille","lat":43.2419,"lon":5.39717,"is_reserved":false,"is_disabled":false,"rental_uris":{"android":"levelo://app?vid=eba3b291-e8d8-44f8-9326-40830fbd26d3","ios":"levelo://app?vid=eba3b291-e8d8-44f8-9326-40830fbd26d3"},"vehicle_type_id":"4","last_reported":1744636912,"current_range_meters":9200,"station_id":"ce4bhn12rcd13ifvqgpg","pricing_plan_id":"cebpf4jnsgd1na2vs0mg"},{"bike_id":"736a1a76-edf1-4886-ba6f-13bfd67f7161","system_id":"levelo_inurba_marseille","lat":43.28944,"lon":5.36638,"is_reserved":false,"is_disabled":false,"rental_uris":{"android":"levelo://app?vid=736a1a76-edf1-4886-ba6f-13bfd67f7161","ios":"levelo://app?vid=736a1a76-edf1-4886-ba6f-13bfd67f7161"},"vehicle_type_id":"4","last_reported":1744636912,"current_range_meters":9600,"station_id":"ce4bhap2rcd13ifvqek0","pricing_plan_id":"cebpf4jnsgd1na2vs0mg"},{"bike_id":"7e20cc03-2548-4dfa-b067-30cb7e992b85","system_id":"levelo_inurba_marseille","lat":43.31363,"lon":5.38496,"is_reserved":false,"is_disabled":false,"rental_uris":{"android":"levelo://app?vid=7e20cc03-2548-4dfa-b067-30cb7e992b85","ios":"levelo://app?vid=7e20cc03-2548-4dfa-b067-30cb7e992b85"},"vehicle_type_id":"4","last_reported":1744636912,"current_range_meters":9600,"station_id":"ce4bgt92rcd13ifvqcf0","pricing_plan_id":"cebpf4jnsgd1na2vs0mg"},{"bike_id":"eef94371-9573-47c6-893c-bc3a33924d7b","system_id":"levelo_inurba_marseille","lat":43.240849,"lon":5.37758,"is_reserved":false,"is_disabled":false,"rental_uris":{"android":"levelo://app?vid=eef94371-9573-47c6-893c-bc3a33924d7b","ios":"levelo://app?vid=eef94371-9573-47c6-893c-bc3a33924d7b"},"vehicle_type_id":"4","last_reported":1744636912,"current_range_meters":9600,"station_id":"ce4bhnp2rcd13ifvqgvg","pricing_plan_id":"cebpf4jnsgd1na2vs0mg"},{"bike_id":"72ebdd68-4727-45bd-ae87-df9c54928155","system_id":"levelo_inurba_marseille","lat":43.32559,"lon":5.4106,"is_reserved":false,"is_disabled":false,"rental_uris":{"android":"levelo://app?vid=72ebdd68-4727-45bd-ae87-df9c54928155","ios":"levelo://app?vid=72ebdd68-4727-45bd-ae87-df9c54928155"},"vehicle_type_id":"4","last_reported":1744636912,"current_range_meters":9600,"station_id":"","pricing_plan_id":"cebpf4jnsgd1na2vs0mg"},{"bike_id":"6a003e47-a1cc-4c38-b762-6e37af426d05","system_id":"levelo_inurba_marseille","lat":43.32359,"lon":5.36762,"is_reserved":false,"is_disabled":false,"rental_uris":{"android":"levelo://app?vid=6a003e47-a1cc-4c38-b762-6e37af426d05","ios":"levelo://app?vid=6a003e47-a1cc-4c38-b762-6e37af426d05"},"vehicle_type_id":"4","last_reported":1744636912,"current_range_meters":9600,"station_id":"ce4bhsh2rcd13ifvqi2g","pricing_plan_id":"cebpf4jnsgd1na2vs0mg"},{"bike_id":"87d172c6-7f79-4549-a710-1ebcc8b74a27","system_id":"levelo_inurba_marseille","lat":43.27323,"lon":5.39125,"is_reserved":false,"is_disabled":false,"rental_uris":{"android":"levelo://app?vid=87d172c6-7f79-4549-a710-1ebcc8b74a27","ios":"levelo://app?vid=87d172c6-7f79-4549-a710-1ebcc8b74a27"},"vehicle_type_id":"4","last_reported":1744636912,"current_range_meters":9600,"station_id":"ce4bhgp2rcd13ifvqfe0","pricing_plan_id":"cebpf4jnsgd1na2vs0mg"},{"bike_id":"5cacdac6-936a-44c6-9e06-3d5924e24ab3","system_id":"levelo_inurba_marseille","lat":43.28429,"lon":5.34988,"is_reserved":false,"is_disabled":false,"rental_uris":{"android":"levelo://app?vid=5cacdac6-936a-44c6-9e06-3d5924e24ab3","ios":"levelo://app?vid=5cacdac6-936a-44c6-9e06-3d5924e24ab3"},"vehicle_type_id":"4","last_reported":1744636912,"current_range_meters":10000,"station_id":"ce4bhbh2rcd13ifvqepg","pricing_plan_id":"cebpf4jnsgd1na2vs0mg"},{"bike_id":"c4445785-7f8e-4c4c-b228-f6877ce37c65","system_id":"levelo_inurba_marseille","lat":43.29262,"lon":5.3762,"is_reserved":false,"is_disabled":false,"rental_uris":{"android":"levelo://app?vid=c4445785-7f8e-4c4c-b228-f6877ce37c65","ios":"levelo://app?vid=c4445785-7f8e-4c4c-b228-f6877ce37c65"},"vehicle_type_id":"4","last_reported":1744636912,"current_range_meters":10000,"station_id":"ce4bgi12rcd13ifvqb80","pricing_plan_id":"cebpf4jnsgd1na2vs0mg"},{"bike_id":"4523ebf1-1ecc-427f-aba3-89ea3e865e89","system_id":"levelo_inurba_marseille","lat":43.31227,"lon":5.36861,"is_reserved":false,"is_disabled":false,"rental_uris":{"android":"levelo://app?vid=4523ebf1-1ecc-427f-aba3-89ea3e865e89","ios":"levelo://app?vid=4523ebf1-1ecc-427f-aba3-89ea3e865e89"},"vehicle_type_id":"4","last_reported":1744636912,"current_range_meters":10000,"station_id":"ce4bgl92rcd13ifvqbq0","pricing_plan_id":"cebpf4jnsgd1na2vs0mg"},{"bike_id":"dafed1f3-e4cd-4ee9-bc2b-e3a34b6a7ef0","system_id":"levelo_inurba_marseille","lat":43.26556,"lon":5.37287,"is_reserved":false,"is_disabled":false,"rental_uris":{"android":"levelo://app?vid=dafed1f3-e4cd-4ee9-bc2b-e3a34b6a7ef0","ios":"levelo://app?vid=dafed1f3-e4cd-4ee9-bc2b-e3a34b6a7ef0"},"vehicle_type_id":"4","last_reported":1744636912,"current_range_meters":10000,"station_id":"ce4bhg12rcd13ifvqf70","pricing_plan_id":"cebpf4jnsgd1na2vs0mg"},{"bike_id":"52467ef2-bb23-4d5a-aebd-2782338dc161","system_id":"levelo_inurba_marseille","lat":43.21212,"lon":5.35088,"is_reserved":false,"is_disabled":false,"rental_uris":{"android":"levelo://app?vid=52467ef2-bb23-4d5a-aebd-2782338dc161","ios":"levelo://app?vid=52467ef2-bb23-4d5a-aebd-2782338dc161"},"vehicle_type_id":"4","last_reported":1744636912,"current_range_meters":10000,"station_id":"st_cvj6sg6p6f1abm77japg","pricing_plan_id":"cebpf4jnsgd1na2vs0mg"},{"bike_id":"11b70944-05ec-4b03-9695-409ca8dd702e","system_id":"levelo_inurba_marseille","lat":43.28705,"lon":5.37912,"is_reserved":false,"is_disabled":false,"rental_uris":{"android":"levelo://app?vid=11b70944-05ec-4b03-9695-409ca8dd702e","ios":"levelo://app?vid=11b70944-05ec-4b03-9695-409ca8dd702e"},"vehicle_type_id":"4","last_reported":1744636912,"current_range_meters":10000,"station_id":"ce4bh9p2rcd13ifvqec0","pricing_plan_id":"cebpf4jnsgd1na2vs0mg"},{"bike_id":"e931a8f5-1078-4a04-a56d-8cfff48676c5","system_id":"levelo_inurba_marseille","lat":43.26937,"lon":5.40272,"is_reserved":false,"is_disabled":true,"rental_uris":{"android":"levelo://app?vid=e931a8f5-1078-4a04-a56d-8cfff48676c5","ios":"levelo://app?vid=e931a8f5-1078-4a04-a56d-8cfff48676c5"},"vehicle_type_id":"4","last_reported":1744636912,"current_range_meters":10800,"station_id":"cjm6bp8fraef2m0cb0m0","pricing_plan_id":"cebpf4jnsgd1na2vs0mg"},{"bike_id":"8389bb83-cafb-4cab-b79b-a67b5635dec3","system_id":"levelo_inurba_marseille","lat":43.29571,"lon":5.37517,"is_reserved":false,"is_disabled":false,"rental_uris":{"android":"levelo://app?vid=8389bb83-cafb-4cab-b79b-a67b5635dec3","ios":"levelo://app?vid=8389bb83-cafb-4cab-b79b-a67b5635dec3"},"vehicle_type_id":"4","last_reported":1744636912,"current_range_meters":10000,"station_id":"ce4bgh92rcd13ifvqb50","pricing_plan_id":"cebpf4jnsgd1na2vs0mg"},{"bike_id":"c62c2be5-077d-4bf8-8094-7c3dfb87510a","system_id":"levelo_inurba_marseille","lat":43.31345,"lon":5.36732,"is_reserved":false,"is_disabled":false,"rental_uris":{"android":"levelo://app?vid=c62c2be5-077d-4bf8-8094-7c3dfb87510a","ios":"levelo://app?vid=c62c2be5-077d-4bf8-8094-7c3dfb87510a"},"vehicle_type_id":"4","last_reported":1744636912,"current_range_meters":10800,"station_id":"ce4bgr92rcd13ifvqc6g","pricing_plan_id":"cebpf4jnsgd1na2vs0mg"},{"bike_id":"d5e62417-d9ad-4d56-9914-5d64a9b7c1bb","system_id":"levelo_inurba_marseille","lat":43.28157,"lon":5.42649,"is_reserved":false,"is_disabled":false,"rental_uris":{"android":"levelo://app?vid=d5e62417-d9ad-4d56-9914-5d64a9b7c1bb","ios":"levelo://app?vid=d5e62417-d9ad-4d56-9914-5d64a9b7c1bb"},"vehicle_type_id":"4","last_reported":1744636912,"current_range_meters":10800,"station_id":"ce4bhnh2rcd13ifvqgug","pricing_plan_id":"cebpf4jnsgd1na2vs0mg"},{"bike_id":"49944c77-3ac8-4351-ac77-94e19965ef47","system_id":"levelo_inurba_marseille","lat":43.28269,"lon":5.35064,"is_reserved":false,"is_disabled":false,"rental_uris":{"android":"levelo://app?vid=49944c77-3ac8-4351-ac77-94e19965ef47","ios":"levelo://app?vid=49944c77-3ac8-4351-ac77-94e19965ef47"},"vehicle_type_id":"4","last_reported":1744636912,"current_range_meters":11200,"station_id":"ce4bhbp2rcd13ifvqerg","pricing_plan_id":"cebpf4jnsgd1na2vs0mg"},{"bike_id":"a92d32b7-3eb3-4558-8c61-0436825bb550","system_id":"levelo_inurba_marseille","lat":43.31512,"lon":5.37308,"is_reserved":false,"is_disabled":false,"rental_uris":{"android":"levelo://app?vid=a92d32b7-3eb3-4558-8c61-0436825bb550","ios":"levelo://app?vid=a92d32b7-3eb3-4558-8c61-0436825bb550"},"vehicle_type_id":"4","last_reported":1744636912,"current_range_meters":11600,"station_id":"ce4bgt12rcd13ifvqcd0","pricing_plan_id":"cebpf4jnsgd1na2vs0mg"},{"bike_id":"0c05c1b8-0a66-4e9b-b4d6-e708bc7087aa","system_id":"levelo_inurba_marseille","lat":43.26196,"lon":5.37943,"is_reserved":false,"is_disabled":false,"rental_uris":{"android":"levelo://app?vid=0c05c1b8-0a66-4e9b-b4d6-e708bc7087aa","ios":"levelo://app?vid=0c05c1b8-0a66-4e9b-b4d6-e708bc7087aa"},"vehicle_type_id":"4","last_reported":1744636912,"current_range_meters":12000,"station_id":"ce4bhjp2rcd13ifvqg90","pricing_plan_id":"cebpf4jnsgd1na2vs0mg"},{"bike_id":"29c4112c-dc86-40f6-a142-bddd52e40085","system_id":"levelo_inurba_marseille","lat":43.21758,"lon":5.34597,"is_reserved":false,"is_disabled":false,"rental_uris":{"android":"levelo://app?vid=29c4112c-dc86-40f6-a142-bddd52e40085","ios":"levelo://app?vid=29c4112c-dc86-40f6-a142-bddd52e40085"},"vehicle_type_id":"4","last_reported":1744636912,"current_range_meters":12400,"station_id":"st_cvj6r9ubvosntc0bgbag","pricing_plan_id":"cebpf4jnsgd1na2vs0mg"},{"bike_id":"47dc9716-a130-454a-a8e6-764687780f71","system_id":"levelo_inurba_marseille","lat":43.26784,"lon":5.39421,"is_reserved":false,"is_disabled":false,"rental_uris":{"android":"levelo://app?vid=47dc9716-a130-454a-a8e6-764687780f71","ios":"levelo://app?vid=47dc9716-a130-454a-a8e6-764687780f71"},"vehicle_type_id":"4","last_reported":1744636912,"current_range_meters":12400,"station_id":"ce4bhh12rcd13ifvqfg0","pricing_plan_id":"cebpf4jnsgd1na2vs0mg"},{"bike_id":"b16f1ab2-7df3-4af2-b3be-c33aee01eea6","system_id":"levelo_inurba_marseille","lat":43.29629,"lon":5.37166,"is_reserved":false,"is_disabled":false,"rental_uris":{"android":"levelo://app?vid=b16f1ab2-7df3-4af2-b3be-c33aee01eea6","ios":"levelo://app?vid=b16f1ab2-7df3-4af2-b3be-c33aee01eea6"},"vehicle_type_id":"4","last_reported":1744636912,"current_range_meters":12800,"station_id":"ce4bgnh2rcd13ifvqc0g","pricing_plan_id":"cebpf4jnsgd1na2vs0mg"},{"bike_id":"acea1f4b-596b-4eee-84ab-d4da3cd1eaca","system_id":"levelo_inurba_marseille","lat":43.2857,"lon":5.39501,"is_reserved":false,"is_disabled":false,"rental_uris":{"android":"levelo://app?vid=acea1f4b-596b-4eee-84ab-d4da3cd1eaca","ios":"levelo://app?vid=acea1f4b-596b-4eee-84ab-d4da3cd1eaca"},"vehicle_type_id":"4","last_reported":1744636912,"current_range_meters":12400,"station_id":"ce4bh292rcd13ifvqdg0","pricing_plan_id":"cebpf4jnsgd1na2vs0mg"},{"bike_id":"130bba46-6859-45b8-936a-e6eda1a6f517","system_id":"levelo_inurba_marseille","lat":43.24075,"lon":5.37768,"is_reserved":false,"is_disabled":false,"rental_uris":{"android":"levelo://app?vid=130bba46-6859-45b8-936a-e6eda1a6f517","ios":"levelo://app?vid=130bba46-6859-45b8-936a-e6eda1a6f517"},"vehicle_type_id":"4","last_reported":1744636912,"current_range_meters":13600,"station_id":"ce4bhnp2rcd13ifvqgvg","pricing_plan_id":"cebpf4jnsgd1na2vs0mg"},{"bike_id":"65030f6a-d197-499f-a647-71e9911dd5d6","system_id":"levelo_inurba_marseille","lat":43.24653,"lon":5.38896,"is_reserved":false,"is_disabled":false,"rental_uris":{"android":"levelo://app?vid=65030f6a-d197-499f-a647-71e9911dd5d6","ios":"levelo://app?vid=65030f6a-d197-499f-a647-71e9911dd5d6"},"vehicle_type_id":"4","last_reported":1744636912,"current_range_meters":13600,"station_id":"ce4bhg12rcd13ifvqf60","pricing_plan_id":"cebpf4jnsgd1na2vs0mg"},{"bike_id":"fb13c941-1858-46a4-86ad-2a5e302996c3","system_id":"levelo_inurba_marseille","lat":43.25857,"lon":5.39918,"is_reserved":false,"is_disabled":true,"rental_uris":{"android":"levelo://app?vid=fb13c941-1858-46a4-86ad-2a5e302996c3","ios":"levelo://app?vid=fb13c941-1858-46a4-86ad-2a5e302996c3"},"vehicle_type_id":"4","last_reported":1744636912,"current_range_meters":13600,"station_id":"ce4bhl92rcd13ifvqghg","pricing_plan_id":"cebpf4jnsgd1na2vs0mg"},{"bike_id":"62de8452-a945-4fd9-ac07-fe2fbf323b61","system_id":"levelo_inurba_marseille","lat":43.31272,"lon":5.40163,"is_reserved":false,"is_disabled":false,"rental_uris":{"android":"levelo://app?vid=62de8452-a945-4fd9-ac07-fe2fbf323b61","ios":"levelo://app?vid=62de8452-a945-4fd9-ac07-fe2fbf323b61"},"vehicle_type_id":"4","last_reported":1744636912,"current_range_meters":13600,"station_id":"ce4bh092rcd13ifvqd30","pricing_plan_id":"cebpf4jnsgd1na2vs0mg"},{"bike_id":"c4957ff7-da9f-4068-901d-77f0da99c0a7","system_id":"levelo_inurba_marseille","lat":43.30809,"lon":5.38149,"is_reserved":false,"is_disabled":false,"rental_uris":{"android":"levelo://app?vid=c4957ff7-da9f-4068-901d-77f0da99c0a7","ios":"levelo://app?vid=c4957ff7-da9f-4068-901d-77f0da99c0a7"},"vehicle_type_id":"4","last_reported":1744636912,"current_range_meters":14000,"station_id":"ce4bgt12rcd13ifvqce0","pricing_plan_id":"cebpf4jnsgd1na2vs0mg"},{"bike_id":"9032fd9f-8258-4b06-828f-3216c8110290","system_id":"levelo_inurba_marseille","lat":43.30983,"lon":5.41733,"is_reserved":false,"is_disabled":false,"rental_uris":{"android":"levelo://app?vid=9032fd9f-8258-4b06-828f-3216c8110290","ios":"levelo://app?vid=9032fd9f-8258-4b06-828f-3216c8110290"},"vehicle_type_id":"4","last_reported":1744636912,"current_range_meters":14000,"station_id":"","pricing_plan_id":"cebpf4jnsgd1na2vs0mg"},{"bike_id":"78f967f1-41c3-43ff-b167-dd6a13ff96d7","system_id":"levelo_inurba_marseille","lat":43.326581,"lon":5.410051,"is_reserved":false,"is_disabled":false,"rental_uris":{"android":"levelo://app?vid=78f967f1-41c3-43ff-b167-dd6a13ff96d7","ios":"levelo://app?vid=78f967f1-41c3-43ff-b167-dd6a13ff96d7"},"vehicle_type_id":"4","last_reported":1744636912,"current_range_meters":13600,"station_id":"ce4bhq92rcd13ifvqhkg","pricing_plan_id":"cebpf4jnsgd1na2vs0mg"},{"bike_id":"34f8e157-6dcb-4b23-85e4-a7b487c2a126","system_id":"levelo_inurba_marseille","lat":43.26228,"lon":5.40454,"is_reserved":false,"is_disabled":false,"rental_uris":{"android":"levelo://app?vid=34f8e157-6dcb-4b23-85e4-a7b487c2a126","ios":"levelo://app?vid=34f8e157-6dcb-4b23-85e4-a7b487c2a126"},"vehicle_type_id":"4","last_reported":1744636912,"current_range_meters":14400,"station_id":"ce4bhmh2rcd13ifvqgmg","pricing_plan_id":"cebpf4jnsgd1na2vs0mg"},{"bike_id":"216a8464-4ea5-4b56-8cd6-224becea39c4","system_id":"levelo_inurba_marseille","lat":43.27825,"lon":5.4073,"is_reserved":false,"is_disabled":false,"rental_uris":{"android":"levelo://app?vid=216a8464-4ea5-4b56-8cd6-224becea39c4","ios":"levelo://app?vid=216a8464-4ea5-4b56-8cd6-224becea39c4"},"vehicle_type_id":"4","last_reported":1744636912,"current_range_meters":14400,"station_id":"ce4bhnh2rcd13ifvqgtg","pricing_plan_id":"cebpf4jnsgd1na2vs0mg"},{"bike_id":"c8c40640-24f0-4817-9225-01b19fee6b0e","system_id":"levelo_inurba_marseille","lat":43.30556,"lon":5.36555,"is_reserved":false,"is_disabled":false,"rental_uris":{"android":"levelo://app?vid=c8c40640-24f0-4817-9225-01b19fee6b0e","ios":"levelo://app?vid=c8c40640-24f0-4817-9225-01b19fee6b0e"},"vehicle_type_id":"4","last_reported":1744636912,"current_range_meters":14400,"station_id":"ce4bgs12rcd13ifvqcag","pricing_plan_id":"cebpf4jnsgd1na2vs0mg"},{"bike_id":"275baf7e-8dbd-4510-9dee-1dff16b35536","system_id":"levelo_inurba_marseille","lat":43.29892,"lon":5.4366,"is_reserved":false,"is_disabled":false,"rental_uris":{"android":"levelo://app?vid=275baf7e-8dbd-4510-9dee-1dff16b35536","ios":"levelo://app?vid=275baf7e-8dbd-4510-9dee-1dff16b35536"},"vehicle_type_id":"4","last_reported":1744636912,"current_range_meters":14400,"station_id":"ce4bhpp2rcd13ifvqhfg","pricing_plan_id":"cebpf4jnsgd1na2vs0mg"},{"bike_id":"27a55245-8dd2-4f1a-af63-95a9d7b71690","system_id":"levelo_inurba_marseille","lat":43.31063,"lon":5.37849,"is_reserved":false,"is_disabled":true,"rental_uris":{"android":"levelo://app?vid=27a55245-8dd2-4f1a-af63-95a9d7b71690","ios":"levelo://app?vid=27a55245-8dd2-4f1a-af63-95a9d7b71690"},"vehicle_type_id":"4","last_reported":1744636912,"current_range_meters":14800,"station_id":"","pricing_plan_id":"cebpf4jnsgd1na2vs0mg"},{"bike_id":"87d0950b-734e-44fa-b6ab-aa8962b41553","system_id":"levelo_inurba_marseille","lat":43.30417,"lon":5.41292,"is_reserved":false,"is_disabled":false,"rental_uris":{"android":"levelo://app?vid=87d0950b-734e-44fa-b6ab-aa8962b41553","ios":"levelo://app?vid=87d0950b-734e-44fa-b6ab-aa8962b41553"},"vehicle_type_id":"4","last_reported":1744636912,"current_range_meters":15200,"station_id":"ce4bhop2rcd13ifvqh8g","pricing_plan_id":"cebpf4jnsgd1na2vs0mg"},{"bike_id":"d2f6a288-7d44-4be4-b798-932022d90e9d","system_id":"levelo_inurba_marseille","lat":43.30271,"lon":5.37727,"is_reserved":false,"is_disabled":false,"rental_uris":{"android":"levelo://app?vid=d2f6a288-7d44-4be4-b798-932022d90e9d","ios":"levelo://app?vid=d2f6a288-7d44-4be4-b798-932022d90e9d"},"vehicle_type_id":"4","last_reported":1744636912,"current_range_meters":15200,"station_id":"ce4bguh2rcd13ifvqcj0","pricing_plan_id":"cebpf4jnsgd1na2vs0mg"},{"bike_id":"f6b9f22e-1eb9-4623-9836-1e9eaa331529","system_id":"levelo_inurba_marseille","lat":43.28939,"lon":5.36632,"is_reserved":false,"is_disabled":false,"rental_uris":{"android":"levelo://app?vid=f6b9f22e-1eb9-4623-9836-1e9eaa331529","ios":"levelo://app?vid=f6b9f22e-1eb9-4623-9836-1e9eaa331529"},"vehicle_type_id":"4","last_reported":1744636912,"current_range_meters":15200,"station_id":"ce4bhap2rcd13ifvqek0","pricing_plan_id":"cebpf4jnsgd1na2vs0mg"},{"bike_id":"5d875da9-f0f1-421a-afe4-f49c282493ed","system_id":"levelo_inurba_marseille","lat":43.299251,"lon":5.385165,"is_reserved":false,"is_disabled":false,"rental_uris":{"android":"levelo://app?vid=5d875da9-f0f1-421a-afe4-f49c282493ed","ios":"levelo://app?vid=5d875da9-f0f1-421a-afe4-f49c282493ed"},"vehicle_type_id":"4","last_reported":1744636912,"current_range_meters":15200,"station_id":"ce4bh312rcd13ifvqdj0","pricing_plan_id":"cebpf4jnsgd1na2vs0mg"},{"bike_id":"61377ee4-fd99-4c2f-b5ad-a5ac167d945b","system_id":"levelo_inurba_marseille","lat":43.23144,"lon":5.43702,"is_reserved":false,"is_disabled":false,"rental_uris":{"android":"levelo://app?vid=61377ee4-fd99-4c2f-b5ad-a5ac167d945b","ios":"levelo://app?vid=61377ee4-fd99-4c2f-b5ad-a5ac167d945b"},"vehicle_type_id":"4","last_reported":1744636912,"current_range_meters":15200,"station_id":"ce4bhmp2rcd13ifvqgog","pricing_plan_id":"cebpf4jnsgd1na2vs0mg"},{"bike_id":"7f2e4205-39d1-4bec-8a6d-b0afe9429665","system_id":"levelo_inurba_marseille","lat":43.22504,"lon":5.34784,"is_reserved":false,"is_disabled":false,"rental_uris":{"android":"levelo://app?vid=7f2e4205-39d1-4bec-8a6d-b0afe9429665","ios":"levelo://app?vid=7f2e4205-39d1-4bec-8a6d-b0afe9429665"},"vehicle_type_id":"4","last_reported":1744636912,"current_range_meters":16000,"station_id":"st_cvj5dfep6f1abm77gieg","pricing_plan_id":"cebpf4jnsgd1na2vs0mg"},{"bike_id":"7068e823-0ef7-4bec-9d46-9774d9ea3ba0","system_id":"levelo_inurba_marseille","lat":43.31485,"lon":5.37286,"is_reserved":false,"is_disabled":false,"rental_uris":{"android":"levelo://app?vid=7068e823-0ef7-4bec-9d46-9774d9ea3ba0","ios":"levelo://app?vid=7068e823-0ef7-4bec-9d46-9774d9ea3ba0"},"vehicle_type_id":"4","last_reported":1744636912,"current_range_meters":16000,"station_id":"ce4bgt12rcd13ifvqcd0","pricing_plan_id":"cebpf4jnsgd1na2vs0mg"},{"bike_id":"def2e634-5008-40a9-8c2b-35b3f1b97a78","system_id":"levelo_inurba_marseille","lat":43.299,"lon":5.43668,"is_reserved":false,"is_disabled":false,"rental_uris":{"android":"levelo://app?vid=def2e634-5008-40a9-8c2b-35b3f1b97a78","ios":"levelo://app?vid=def2e634-5008-40a9-8c2b-35b3f1b97a78"},"vehicle_type_id":"4","last_reported":1744636912,"current_range_meters":16000,"station_id":"ce4bhpp2rcd13ifvqhfg","pricing_plan_id":"cebpf4jnsgd1na2vs0mg"},{"bike_id":"9ad7e0ed-3343-4ff3-9020-e8fd9077ef56","system_id":"levelo_inurba_marseille","lat":43.26497,"lon":5.3954,"is_reserved":false,"is_disabled":false,"rental_uris":{"android":"levelo://app?vid=9ad7e0ed-3343-4ff3-9020-e8fd9077ef56","ios":"levelo://app?vid=9ad7e0ed-3343-4ff3-9020-e8fd9077ef56"},"vehicle_type_id":"4","last_reported":1744636912,"current_range_meters":16000,"station_id":"ce4bhi12rcd13ifvqfq0","pricing_plan_id":"cebpf4jnsgd1na2vs0mg"},{"bike_id":"40db818b-5b9e-46bf-8274-264778958c39","system_id":"levelo_inurba_marseille","lat":43.23142,"lon":5.43715,"is_reserved":false,"is_disabled":false,"rental_uris":{"android":"levelo://app?vid=40db818b-5b9e-46bf-8274-264778958c39","ios":"levelo://app?vid=40db818b-5b9e-46bf-8274-264778958c39"},"vehicle_type_id":"4","last_reported":1744636912,"current_range_meters":16000,"station_id":"ce4bhmp2rcd13ifvqgog","pricing_plan_id":"cebpf4jnsgd1na2vs0mg"},{"bike_id":"48ed3751-d206-4650-bf54-31290ca142ee","system_id":"levelo_inurba_marseille","lat":43.22508,"lon":5.348,"is_reserved":false,"is_disabled":false,"rental_uris":{"android":"levelo://app?vid=48ed3751-d206-4650-bf54-31290ca142ee","ios":"levelo://app?vid=48ed3751-d206-4650-bf54-31290ca142ee"},"vehicle_type_id":"4","last_reported":1744636912,"current_range_meters":16400,"station_id":"st_cvj5dfep6f1abm77gieg","pricing_plan_id":"cebpf4jnsgd1na2vs0mg"},{"bike_id":"45a05da7-0cfc-45ae-a992-bd8073d5cdbb","system_id":"levelo_inurba_marseille","lat":43.26786,"lon":5.39421,"is_reserved":false,"is_disabled":false,"rental_uris":{"android":"levelo://app?vid=45a05da7-0cfc-45ae-a992-bd8073d5cdbb","ios":"levelo://app?vid=45a05da7-0cfc-45ae-a992-bd8073d5cdbb"},"vehicle_type_id":"4","last_reported":1744636912,"current_range_meters":16400,"station_id":"ce4bhh12rcd13ifvqfg0","pricing_plan_id":"cebpf4jnsgd1na2vs0mg"},{"bike_id":"ab25c2fd-d40e-4278-b08f-3a702154e771","system_id":"levelo_inurba_marseille","lat":43.3014,"lon":5.38093,"is_reserved":false,"is_disabled":false,"rental_uris":{"android":"levelo://app?vid=ab25c2fd-d40e-4278-b08f-3a702154e771","ios":"levelo://app?vid=ab25c2fd-d40e-4278-b08f-3a702154e771"},"vehicle_type_id":"4","last_reported":1744636912,"current_range_meters":16400,"station_id":"ce4bgjp2rcd13ifvqbh0","pricing_plan_id":"cebpf4jnsgd1na2vs0mg"},{"bike_id":"618710fb-9af4-4f36-8b79-cb4dcfcea653","system_id":"levelo_inurba_marseille","lat":43.289483,"lon":5.363948,"is_reserved":false,"is_disabled":false,"rental_uris":{"android":"levelo://app?vid=618710fb-9af4-4f36-8b79-cb4dcfcea653","ios":"levelo://app?vid=618710fb-9af4-4f36-8b79-cb4dcfcea653"},"vehicle_type_id":"4","last_reported":1744636912,"current_range_meters":16400,"station_id":"ce4bhc92rcd13ifvqetg","pricing_plan_id":"cebpf4jnsgd1na2vs0mg"},{"bike_id":"a818834f-725d-4dbb-9bab-d3518b1b13c4","system_id":"levelo_inurba_marseille","lat":43.323609,"lon":5.367607,"is_reserved":false,"is_disabled":false,"rental_uris":{"android":"levelo://app?vid=a818834f-725d-4dbb-9bab-d3518b1b13c4","ios":"levelo://app?vid=a818834f-725d-4dbb-9bab-d3518b1b13c4"},"vehicle_type_id":"4","last_reported":1744636912,"current_range_meters":16400,"station_id":"ce4bhsh2rcd13ifvqi2g","pricing_plan_id":"cebpf4jnsgd1na2vs0mg"},{"bike_id":"9481a4d4-998c-4242-822b-0b8fa3017440","system_id":"levelo_inurba_marseille","lat":43.28851,"lon":5.39347,"is_reserved":false,"is_disabled":true,"rental_uris":{"android":"levelo://app?vid=9481a4d4-998c-4242-822b-0b8fa3017440","ios":"levelo://app?vid=9481a4d4-998c-4242-822b-0b8fa3017440"},"vehicle_type_id":"4","last_reported":1744636912,"current_range_meters":16400,"station_id":"ce4bh2p2rcd13ifvqdi0","pricing_plan_id":"cebpf4jnsgd1na2vs0mg"},{"bike_id":"56135a82-d19f-45ea-a72c-58b1131d0fcb","system_id":"levelo_inurba_marseille","lat":43.280838,"lon":5.396663,"is_reserved":false,"is_disabled":true,"rental_uris":{"android":"levelo://app?vid=56135a82-d19f-45ea-a72c-58b1131d0fcb","ios":"levelo://app?vid=56135a82-d19f-45ea-a72c-58b1131d0fcb"},"vehicle_type_id":"4","last_reported":1744636912,"current_range_meters":16400,"station_id":"ce4bho12rcd13ifvqh2g","pricing_plan_id":"cebpf4jnsgd1na2vs0mg"},{"bike_id":"301f53d6-0a8d-48c7-b250-860880def1f4","system_id":"levelo_inurba_marseille","lat":43.31036,"lon":5.37108,"is_reserved":false,"is_disabled":false,"rental_uris":{"android":"levelo://app?vid=301f53d6-0a8d-48c7-b250-860880def1f4","ios":"levelo://app?vid=301f53d6-0a8d-48c7-b250-860880def1f4"},"vehicle_type_id":"4","last_reported":1744636912,"current_range_meters":16800,"station_id":"","pricing_plan_id":"cebpf4jnsgd1na2vs0mg"},{"bike_id":"1adb7097-63c0-43c7-b07f-67ec6679cd9b","system_id":"levelo_inurba_marseille","lat":43.30532,"lon":5.36542,"is_reserved":false,"is_disabled":false,"rental_uris":{"android":"levelo://app?vid=1adb7097-63c0-43c7-b07f-67ec6679cd9b","ios":"levelo://app?vid=1adb7097-63c0-43c7-b07f-67ec6679cd9b"},"vehicle_type_id":"4","last_reported":1744636912,"current_range_meters":16800,"station_id":"ce4bgs12rcd13ifvqcag","pricing_plan_id":"cebpf4jnsgd1na2vs0mg"},{"bike_id":"4c7e3872-2a7d-46f3-b581-3ef46671ef50","system_id":"levelo_inurba_marseille","lat":43.26809,"lon":5.4027,"is_reserved":false,"is_disabled":false,"rental_uris":{"android":"levelo://app?vid=4c7e3872-2a7d-46f3-b581-3ef46671ef50","ios":"levelo://app?vid=4c7e3872-2a7d-46f3-b581-3ef46671ef50"},"vehicle_type_id":"4","last_reported":1744636912,"current_range_meters":16800,"station_id":"ce501612rcd8frsf0b60","pricing_plan_id":"cebpf4jnsgd1na2vs0mg"},{"bike_id":"4020154d-834a-4d02-8d76-d67584c1df2a","system_id":"levelo_inurba_marseille","lat":43.26029,"lon":5.3755,"is_reserved":false,"is_disabled":false,"rental_uris":{"android":"levelo://app?vid=4020154d-834a-4d02-8d76-d67584c1df2a","ios":"levelo://app?vid=4020154d-834a-4d02-8d76-d67584c1df2a"},"vehicle_type_id":"4","last_reported":1744636912,"current_range_meters":16400,"station_id":"ce4bhgh2rcd13ifvqfa0","pricing_plan_id":"cebpf4jnsgd1na2vs0mg"},{"bike_id":"ad876d42-9de1-4318-873d-7d42e5d5fc06","system_id":"levelo_inurba_marseille","lat":43.30555,"lon":5.36555,"is_reserved":false,"is_disabled":false,"rental_uris":{"android":"levelo://app?vid=ad876d42-9de1-4318-873d-7d42e5d5fc06","ios":"levelo://app?vid=ad876d42-9de1-4318-873d-7d42e5d5fc06"},"vehicle_type_id":"4","last_reported":1744636912,"current_range_meters":16800,"station_id":"ce4bgs12rcd13ifvqcag","pricing_plan_id":"cebpf4jnsgd1na2vs0mg"},{"bike_id":"cae5cb7a-b5a0-4962-b670-708b44fc2a06","system_id":"levelo_inurba_marseille","lat":43.30557,"lon":5.36508,"is_reserved":false,"is_disabled":false,"rental_uris":{"android":"levelo://app?vid=cae5cb7a-b5a0-4962-b670-708b44fc2a06","ios":"levelo://app?vid=cae5cb7a-b5a0-4962-b670-708b44fc2a06"},"vehicle_type_id":"4","last_reported":1744636912,"current_range_meters":16800,"station_id":"ce4bgs12rcd13ifvqcag","pricing_plan_id":"cebpf4jnsgd1na2vs0mg"},{"bike_id":"956d29bc-46a5-4395-a0ec-d57a150a671d","system_id":"levelo_inurba_marseille","lat":43.29273,"lon":5.36851,"is_reserved":false,"is_disabled":false,"rental_uris":{"android":"levelo://app?vid=956d29bc-46a5-4395-a0ec-d57a150a671d","ios":"levelo://app?vid=956d29bc-46a5-4395-a0ec-d57a150a671d"},"vehicle_type_id":"4","last_reported":1744636912,"current_range_meters":16800,"station_id":"ce4bhbp2rcd13ifvqesg","pricing_plan_id":"cebpf4jnsgd1na2vs0mg"},{"bike_id":"893406b2-36e9-4c08-abf1-848e0b63221d","system_id":"levelo_inurba_marseille","lat":43.30467,"lon":5.37904,"is_reserved":false,"is_disabled":false,"rental_uris":{"android":"levelo://app?vid=893406b2-36e9-4c08-abf1-848e0b63221d","ios":"levelo://app?vid=893406b2-36e9-4c08-abf1-848e0b63221d"},"vehicle_type_id":"4","last_reported":1744636912,"current_range_meters":16800,"station_id":"ce4bgup2rcd13ifvqcn0","pricing_plan_id":"cebpf4jnsgd1na2vs0mg"},{"bike_id":"a5f72b2f-0493-41b5-be17-c5d6c69ee620","system_id":"levelo_inurba_marseille","lat":43.28268,"lon":5.35076,"is_reserved":false,"is_disabled":false,"rental_uris":{"android":"levelo://app?vid=a5f72b2f-0493-41b5-be17-c5d6c69ee620","ios":"levelo://app?vid=a5f72b2f-0493-41b5-be17-c5d6c69ee620"},"vehicle_type_id":"4","last_reported":1744636912,"current_range_meters":17200,"station_id":"ce4bhbp2rcd13ifvqerg","pricing_plan_id":"cebpf4jnsgd1na2vs0mg"},{"bike_id":"ec55715f-50ef-4b62-b932-d89df8729be7","system_id":"levelo_inurba_marseille","lat":43.31589,"lon":5.38892,"is_reserved":false,"is_disabled":false,"rental_uris":{"android":"levelo://app?vid=ec55715f-50ef-4b62-b932-d89df8729be7","ios":"levelo://app?vid=ec55715f-50ef-4b62-b932-d89df8729be7"},"vehicle_type_id":"4","last_reported":1744636912,"current_range_meters":17200,"station_id":"","pricing_plan_id":"cebpf4jnsgd1na2vs0mg"},{"bike_id":"47130d21-3fc1-444a-9e06-9aa2d7cee0fc","system_id":"levelo_inurba_marseille","lat":43.2902,"lon":5.38139,"is_reserved":false,"is_disabled":false,"rental_uris":{"android":"levelo://app?vid=47130d21-3fc1-444a-9e06-9aa2d7cee0fc","ios":"levelo://app?vid=47130d21-3fc1-444a-9e06-9aa2d7cee0fc"},"vehicle_type_id":"4","last_reported":1744636912,"current_range_meters":17200,"station_id":"ce4bh4p2rcd13ifvqe1g","pricing_plan_id":"cebpf4jnsgd1na2vs0mg"},{"bike_id":"86507adb-43c1-4a89-acc7-c74cd80a099f","system_id":"levelo_inurba_marseille","lat":43.23113,"lon":5.36644,"is_reserved":false,"is_disabled":false,"rental_uris":{"android":"levelo://app?vid=86507adb-43c1-4a89-acc7-c74cd80a099f","ios":"levelo://app?vid=86507adb-43c1-4a89-acc7-c74cd80a099f"},"vehicle_type_id":"4","last_reported":1744636912,"current_range_meters":17200,"station_id":"","pricing_plan_id":"cebpf4jnsgd1na2vs0mg"},{"bike_id":"764d3960-fecd-4c2d-a5ec-e68233e02ebd","system_id":"levelo_inurba_marseille","lat":43.290692,"lon":5.359162,"is_reserved":false,"is_disabled":false,"rental_uris":{"android":"levelo://app?vid=764d3960-fecd-4c2d-a5ec-e68233e02ebd","ios":"levelo://app?vid=764d3960-fecd-4c2d-a5ec-e68233e02ebd"},"vehicle_type_id":"4","last_reported":1744636912,"current_range_meters":17600,"station_id":"ce4bhb12rcd13ifvqem0","pricing_plan_id":"cebpf4jnsgd1na2vs0mg"},{"bike_id":"108ec931-7489-4bfe-8c2e-987bbea9f33e","system_id":"levelo_inurba_marseille","lat":43.27573,"lon":5.38423,"is_reserved":false,"is_disabled":false,"rental_uris":{"android":"levelo://app?vid=108ec931-7489-4bfe-8c2e-987bbea9f33e","ios":"levelo://app?vid=108ec931-7489-4bfe-8c2e-987bbea9f33e"},"vehicle_type_id":"4","last_reported":1744636912,"current_range_meters":17600,"station_id":"ce4bhh92rcd13ifvqfi0","pricing_plan_id":"cebpf4jnsgd1na2vs0mg"},{"bike_id":"b01c0c14-6100-4b8a-b7f1-e7135adc6a45","system_id":"levelo_inurba_marseille","lat":43.30153,"lon":5.37421,"is_reserved":false,"is_disabled":false,"rental_uris":{"android":"levelo://app?vid=b01c0c14-6100-4b8a-b7f1-e7135adc6a45","ios":"levelo://app?vid=b01c0c14-6100-4b8a-b7f1-e7135adc6a45"},"vehicle_type_id":"4","last_reported":1744636912,"current_range_meters":17600,"station_id":"ce4bgs92rcd13ifvqcc0","pricing_plan_id":"cebpf4jnsgd1na2vs0mg"},{"bike_id":"37342bdf-d586-43ba-a25b-da22b3393da6","system_id":"levelo_inurba_marseille","lat":43.29155,"lon":5.37508,"is_reserved":false,"is_disabled":false,"rental_uris":{"android":"levelo://app?vid=37342bdf-d586-43ba-a25b-da22b3393da6","ios":"levelo://app?vid=37342bdf-d586-43ba-a25b-da22b3393da6"},"vehicle_type_id":"4","last_reported":1744636912,"current_range_meters":17600,"station_id":"","pricing_plan_id":"cebpf4jnsgd1na2vs0mg"},{"bike_id":"382a1a40-cce5-4bcf-8677-ad51fb5a2457","system_id":"levelo_inurba_marseille","lat":43.28852,"lon":5.393217,"is_reserved":false,"is_disabled":true,"rental_uris":{"android":"levelo://app?vid=382a1a40-cce5-4bcf-8677-ad51fb5a2457","ios":"levelo://app?vid=382a1a40-cce5-4bcf-8677-ad51fb5a2457"},"vehicle_type_id":"4","last_reported":1744636912,"current_range_meters":17600,"station_id":"ce4bh2p2rcd13ifvqdi0","pricing_plan_id":"cebpf4jnsgd1na2vs0mg"},{"bike_id":"0b56cef3-0af5-4ed1-ab94-3e9d7d6a91a7","system_id":"levelo_inurba_marseille","lat":43.2707,"lon":5.42284,"is_reserved":false,"is_disabled":false,"rental_uris":{"android":"levelo://app?vid=0b56cef3-0af5-4ed1-ab94-3e9d7d6a91a7","ios":"levelo://app?vid=0b56cef3-0af5-4ed1-ab94-3e9d7d6a91a7"},"vehicle_type_id":"4","last_reported":1744636912,"current_range_meters":17600,"station_id":"ce4bhk92rcd13ifvqgb0","pricing_plan_id":"cebpf4jnsgd1na2vs0mg"},{"bike_id":"d156c449-4728-4243-996b-abdff31916d8","system_id":"levelo_inurba_marseille","lat":43.26943,"lon":5.40249,"is_reserved":false,"is_disabled":false,"rental_uris":{"android":"levelo://app?vid=d156c449-4728-4243-996b-abdff31916d8","ios":"levelo://app?vid=d156c449-4728-4243-996b-abdff31916d8"},"vehicle_type_id":"4","last_reported":1744636912,"current_range_meters":17600,"station_id":"cjm6bp8fraef2m0cb0m0","pricing_plan_id":"cebpf4jnsgd1na2vs0mg"},{"bike_id":"50cb35d6-46b7-437a-b4cb-c37c4ad0a31d","system_id":"levelo_inurba_marseille","lat":43.29933,"lon":5.36559,"is_reserved":false,"is_disabled":false,"rental_uris":{"android":"levelo://app?vid=50cb35d6-46b7-437a-b4cb-c37c4ad0a31d","ios":"levelo://app?vid=50cb35d6-46b7-437a-b4cb-c37c4ad0a31d"},"vehicle_type_id":"4","last_reported":1744636912,"current_range_meters":18000,"station_id":"ce4bgm92rcd13ifvqbr0","pricing_plan_id":"cebpf4jnsgd1na2vs0mg"},{"bike_id":"fb3d92a8-3a73-4a0a-b470-a503e2c7c360","system_id":"levelo_inurba_marseille","lat":43.30305,"lon":5.36887,"is_reserved":false,"is_disabled":false,"rental_uris":{"android":"levelo://app?vid=fb3d92a8-3a73-4a0a-b470-a503e2c7c360","ios":"levelo://app?vid=fb3d92a8-3a73-4a0a-b470-a503e2c7c360"},"vehicle_type_id":"4","last_reported":1744636912,"current_range_meters":18000,"station_id":"ce4bgqh2rcd13ifvqc5g","pricing_plan_id":"cebpf4jnsgd1na2vs0mg"},{"bike_id":"c6747296-8371-46b5-b0fd-e1ebe13e0054","system_id":"levelo_inurba_marseille","lat":43.29521,"lon":5.39037,"is_reserved":false,"is_disabled":false,"rental_uris":{"android":"levelo://app?vid=c6747296-8371-46b5-b0fd-e1ebe13e0054","ios":"levelo://app?vid=c6747296-8371-46b5-b0fd-e1ebe13e0054"},"vehicle_type_id":"4","last_reported":1744636912,"current_range_meters":17600,"station_id":"ce4bh3p2rcd13ifvqdp0","pricing_plan_id":"cebpf4jnsgd1na2vs0mg"},{"bike_id":"48b7de01-2542-4f37-9ec7-c1fda2be3d48","system_id":"levelo_inurba_marseille","lat":43.254906,"lon":5.376502,"is_reserved":false,"is_disabled":false,"rental_uris":{"android":"levelo://app?vid=48b7de01-2542-4f37-9ec7-c1fda2be3d48","ios":"levelo://app?vid=48b7de01-2542-4f37-9ec7-c1fda2be3d48"},"vehicle_type_id":"4","last_reported":1744636912,"current_range_meters":18000,"station_id":"ce4bhh12rcd13ifvqff0","pricing_plan_id":"cebpf4jnsgd1na2vs0mg"},{"bike_id":"f6c8f6a9-e39a-4139-94fa-41f49afbecc9","system_id":"levelo_inurba_marseille","lat":43.3055,"lon":5.3653,"is_reserved":false,"is_disabled":false,"rental_uris":{"android":"levelo://app?vid=f6c8f6a9-e39a-4139-94fa-41f49afbecc9","ios":"levelo://app?vid=f6c8f6a9-e39a-4139-94fa-41f49afbecc9"},"vehicle_type_id":"4","last_reported":1744636912,"current_range_meters":18000,"station_id":"ce4bgs12rcd13ifvqcag","pricing_plan_id":"cebpf4jnsgd1na2vs0mg"},{"bike_id":"205a676e-388e-4b5d-b5d4-92bca6b76c07","system_id":"levelo_inurba_marseille","lat":43.31155,"lon":5.38016,"is_reserved":false,"is_disabled":true,"rental_uris":{"android":"levelo://app?vid=205a676e-388e-4b5d-b5d4-92bca6b76c07","ios":"levelo://app?vid=205a676e-388e-4b5d-b5d4-92bca6b76c07"},"vehicle_type_id":"4","last_reported":1744636912,"current_range_meters":18000,"station_id":"","pricing_plan_id":"cebpf4jnsgd1na2vs0mg"},{"bike_id":"8219ad35-60a5-47e6-a4b6-d3c1e9726111","system_id":"levelo_inurba_marseille","lat":43.26802,"lon":5.40267,"is_reserved":false,"is_disabled":false,"rental_uris":{"android":"levelo://app?vid=8219ad35-60a5-47e6-a4b6-d3c1e9726111","ios":"levelo://app?vid=8219ad35-60a5-47e6-a4b6-d3c1e9726111"},"vehicle_type_id":"4","last_reported":1744636912,"current_range_meters":18800,"station_id":"ce501612rcd8frsf0b60","pricing_plan_id":"cebpf4jnsgd1na2vs0mg"},{"bike_id":"649d3b60-3b3b-4107-a860-1e6946ade7c6","system_id":"levelo_inurba_marseille","lat":43.26786,"lon":5.39416,"is_reserved":false,"is_disabled":false,"rental_uris":{"android":"levelo://app?vid=649d3b60-3b3b-4107-a860-1e6946ade7c6","ios":"levelo://app?vid=649d3b60-3b3b-4107-a860-1e6946ade7c6"},"vehicle_type_id":"4","last_reported":1744636912,"current_range_meters":18800,"station_id":"ce4bhh12rcd13ifvqfg0","pricing_plan_id":"cebpf4jnsgd1na2vs0mg"},{"bike_id":"d2d37f01-fa46-4fbc-a721-7789f4003663","system_id":"levelo_inurba_marseille","lat":43.2497,"lon":5.38963,"is_reserved":false,"is_disabled":false,"rental_uris":{"android":"levelo://app?vid=d2d37f01-fa46-4fbc-a721-7789f4003663","ios":"levelo://app?vid=d2d37f01-fa46-4fbc-a721-7789f4003663"},"vehicle_type_id":"4","last_reported":1744636912,"current_range_meters":18800,"station_id":"","pricing_plan_id":"cebpf4jnsgd1na2vs0mg"},{"bike_id":"d4926604-a5d9-42a3-b5cb-a74a260bf0ad","system_id":"levelo_inurba_marseille","lat":43.25002,"lon":5.38929,"is_reserved":false,"is_disabled":false,"rental_uris":{"android":"levelo://app?vid=d4926604-a5d9-42a3-b5cb-a74a260bf0ad","ios":"levelo://app?vid=d4926604-a5d9-42a3-b5cb-a74a260bf0ad"},"vehicle_type_id":"4","last_reported":1744636912,"current_range_meters":18000,"station_id":"ce4bhgp2rcd13ifvqfd0","pricing_plan_id":"cebpf4jnsgd1na2vs0mg"},{"bike_id":"54a94a5d-035d-4e20-80bd-255b8b4cb65b","system_id":"levelo_inurba_marseille","lat":43.225103,"lon":5.34782,"is_reserved":false,"is_disabled":false,"rental_uris":{"android":"levelo://app?vid=54a94a5d-035d-4e20-80bd-255b8b4cb65b","ios":"levelo://app?vid=54a94a5d-035d-4e20-80bd-255b8b4cb65b"},"vehicle_type_id":"4","last_reported":1744636912,"current_range_meters":18800,"station_id":"st_cvj5dfep6f1abm77gieg","pricing_plan_id":"cebpf4jnsgd1na2vs0mg"},{"bike_id":"4d4791d9-a99e-4b19-b330-e9630619ede2","system_id":"levelo_inurba_marseille","lat":43.2861,"lon":5.37063,"is_reserved":false,"is_disabled":false,"rental_uris":{"android":"levelo://app?vid=4d4791d9-a99e-4b19-b330-e9630619ede2","ios":"levelo://app?vid=4d4791d9-a99e-4b19-b330-e9630619ede2"},"vehicle_type_id":"4","last_reported":1744636912,"current_range_meters":19200,"station_id":"ce4bht12rcd13ifvqi60","pricing_plan_id":"cebpf4jnsgd1na2vs0mg"},{"bike_id":"b3ea20ce-5604-45b6-ace7-cad39f4f56d5","system_id":"levelo_inurba_marseille","lat":43.296876,"lon":5.363529,"is_reserved":false,"is_disabled":false,"rental_uris":{"android":"levelo://app?vid=b3ea20ce-5604-45b6-ace7-cad39f4f56d5","ios":"levelo://app?vid=b3ea20ce-5604-45b6-ace7-cad39f4f56d5"},"vehicle_type_id":"4","last_reported":1744636912,"current_range_meters":19200,"station_id":"","pricing_plan_id":"cebpf4jnsgd1na2vs0mg"},{"bike_id":"fbacecab-fdbc-437f-ad37-ef07ea1c1eac","system_id":"levelo_inurba_marseille","lat":43.30557,"lon":5.365295,"is_reserved":false,"is_disabled":false,"rental_uris":{"android":"levelo://app?vid=fbacecab-fdbc-437f-ad37-ef07ea1c1eac","ios":"levelo://app?vid=fbacecab-fdbc-437f-ad37-ef07ea1c1eac"},"vehicle_type_id":"4","last_reported":1744636912,"current_range_meters":19200,"station_id":"ce4bgs12rcd13ifvqcag","pricing_plan_id":"cebpf4jnsgd1na2vs0mg"},{"bike_id":"cb077277-a3fb-431e-9f37-687e66b1cc5c","system_id":"levelo_inurba_marseille","lat":43.29873,"lon":5.3973,"is_reserved":false,"is_disabled":false,"rental_uris":{"android":"levelo://app?vid=cb077277-a3fb-431e-9f37-687e66b1cc5c","ios":"levelo://app?vid=cb077277-a3fb-431e-9f37-687e66b1cc5c"},"vehicle_type_id":"4","last_reported":1744636912,"current_range_meters":19200,"station_id":"ce4bh0h2rcd13ifvqd50","pricing_plan_id":"cebpf4jnsgd1na2vs0mg"},{"bike_id":"8ba8da06-09b4-4e35-9af5-e823a105a352","system_id":"levelo_inurba_marseille","lat":43.23075,"lon":5.35496,"is_reserved":false,"is_disabled":false,"rental_uris":{"android":"levelo://app?vid=8ba8da06-09b4-4e35-9af5-e823a105a352","ios":"levelo://app?vid=8ba8da06-09b4-4e35-9af5-e823a105a352"},"vehicle_type_id":"4","last_reported":1744636912,"current_range_meters":19200,"station_id":"cpo3342slgdg3j2ifvpg","pricing_plan_id":"cebpf4jnsgd1na2vs0mg"},{"bike_id":"e566660f-8af9-42a0-98ed-5307408dbf49","system_id":"levelo_inurba_marseille","lat":43.29577,"lon":5.3752,"is_reserved":false,"is_disabled":false,"rental_uris":{"android":"levelo://app?vid=e566660f-8af9-42a0-98ed-5307408dbf49","ios":"levelo://app?vid=e566660f-8af9-42a0-98ed-5307408dbf49"},"vehicle_type_id":"4","last_reported":1744636912,"current_range_meters":19200,"station_id":"ce4bgh92rcd13ifvqb50","pricing_plan_id":"cebpf4jnsgd1na2vs0mg"},{"bike_id":"40e32cee-9c94-4ec8-8cc1-dfc745c5629a","system_id":"levelo_inurba_marseille","lat":43.24176,"lon":5.36395,"is_reserved":false,"is_disabled":false,"rental_uris":{"android":"levelo://app?vid=40e32cee-9c94-4ec8-8cc1-dfc745c5629a","ios":"levelo://app?vid=40e32cee-9c94-4ec8-8cc1-dfc745c5629a"},"vehicle_type_id":"4","last_reported":1744636912,"current_range_meters":19200,"station_id":"cpo36qri1sfpv3e86is0","pricing_plan_id":"cebpf4jnsgd1na2vs0mg"},{"bike_id":"ea963f2b-9446-4b60-8f04-9f750f7d349a","system_id":"levelo_inurba_marseille","lat":43.284235,"lon":5.349853,"is_reserved":false,"is_disabled":false,"rental_uris":{"android":"levelo://app?vid=ea963f2b-9446-4b60-8f04-9f750f7d349a","ios":"levelo://app?vid=ea963f2b-9446-4b60-8f04-9f750f7d349a"},"vehicle_type_id":"4","last_reported":1744636912,"current_range_meters":19200,"station_id":"ce4bhch2rcd13ifvqeug","pricing_plan_id":"cebpf4jnsgd1na2vs0mg"},{"bike_id":"e581925f-efdf-4f55-80bc-833aeac8dd9f","system_id":"levelo_inurba_marseille","lat":43.30733,"lon":5.42439,"is_reserved":false,"is_disabled":false,"rental_uris":{"android":"levelo://app?vid=e581925f-efdf-4f55-80bc-833aeac8dd9f","ios":"levelo://app?vid=e581925f-efdf-4f55-80bc-833aeac8dd9f"},"vehicle_type_id":"4","last_reported":1744636912,"current_range_meters":19600,"station_id":"st_cvj6ca6bvosntc0bfgr0","pricing_plan_id":"cebpf4jnsgd1na2vs0mg"},{"bike_id":"a4e38987-d902-4f28-97c8-865c78648f46","system_id":"levelo_inurba_marseille","lat":43.30902,"lon":5.39036,"is_reserved":false,"is_disabled":false,"rental_uris":{"android":"levelo://app?vid=a4e38987-d902-4f28-97c8-865c78648f46","ios":"levelo://app?vid=a4e38987-d902-4f28-97c8-865c78648f46"},"vehicle_type_id":"4","last_reported":1744636912,"current_range_meters":19600,"station_id":"ce4bgup2rcd13ifvqco0","pricing_plan_id":"cebpf4jnsgd1na2vs0mg"},{"bike_id":"3b8ebf16-c736-4754-8798-240c46534420","system_id":"levelo_inurba_marseille","lat":43.27066,"lon":5.42282,"is_reserved":false,"is_disabled":false,"rental_uris":{"android":"levelo://app?vid=3b8ebf16-c736-4754-8798-240c46534420","ios":"levelo://app?vid=3b8ebf16-c736-4754-8798-240c46534420"},"vehicle_type_id":"4","last_reported":1744636912,"current_range_meters":19600,"station_id":"ce4bhk92rcd13ifvqgb0","pricing_plan_id":"cebpf4jnsgd1na2vs0mg"},{"bike_id":"e32db2eb-67d0-49b4-a928-c1376ffa8c43","system_id":"levelo_inurba_marseille","lat":43.269656,"lon":5.366392,"is_reserved":false,"is_disabled":false,"rental_uris":{"android":"levelo://app?vid=e32db2eb-67d0-49b4-a928-c1376ffa8c43","ios":"levelo://app?vid=e32db2eb-67d0-49b4-a928-c1376ffa8c43"},"vehicle_type_id":"4","last_reported":1744636912,"current_range_meters":19200,"station_id":"ce4bhgh2rcd13ifvqfa0","pricing_plan_id":"cebpf4jnsgd1na2vs0mg"},{"bike_id":"ab6cee49-b529-4edf-9178-fe227e403fe8","system_id":"levelo_inurba_marseille","lat":43.29782,"lon":5.37103,"is_reserved":false,"is_disabled":false,"rental_uris":{"android":"levelo://app?vid=ab6cee49-b529-4edf-9178-fe227e403fe8","ios":"levelo://app?vid=ab6cee49-b529-4edf-9178-fe227e403fe8"},"vehicle_type_id":"4","last_reported":1744636912,"current_range_meters":19600,"station_id":"ce4bgop2rcd13ifvqc1g","pricing_plan_id":"cebpf4jnsgd1na2vs0mg"},{"bike_id":"0cddff47-338a-42cb-a648-22953c768810","system_id":"levelo_inurba_marseille","lat":43.29034,"lon":5.38133,"is_reserved":false,"is_disabled":false,"rental_uris":{"android":"levelo://app?vid=0cddff47-338a-42cb-a648-22953c768810","ios":"levelo://app?vid=0cddff47-338a-42cb-a648-22953c768810"},"vehicle_type_id":"4","last_reported":1744636912,"current_range_meters":19600,"station_id":"ce4bh4p2rcd13ifvqe1g","pricing_plan_id":"cebpf4jnsgd1na2vs0mg"},{"bike_id":"69330968-31be-4072-8333-3419318ec490","system_id":"levelo_inurba_marseille","lat":43.29323,"lon":5.37549,"is_reserved":false,"is_disabled":false,"rental_uris":{"android":"levelo://app?vid=69330968-31be-4072-8333-3419318ec490","ios":"levelo://app?vid=69330968-31be-4072-8333-3419318ec490"},"vehicle_type_id":"4","last_reported":1744636912,"current_range_meters":19600,"station_id":"ce4bgi12rcd13ifvqb70","pricing_plan_id":"cebpf4jnsgd1na2vs0mg"},{"bike_id":"a2ea1016-e1ce-4b01-8123-2c1649946dfb","system_id":"levelo_inurba_marseille","lat":43.31359,"lon":5.38487,"is_reserved":false,"is_disabled":false,"rental_uris":{"android":"levelo://app?vid=a2ea1016-e1ce-4b01-8123-2c1649946dfb","ios":"levelo://app?vid=a2ea1016-e1ce-4b01-8123-2c1649946dfb"},"vehicle_type_id":"4","last_reported":1744636912,"current_range_meters":19600,"station_id":"ce4bgt92rcd13ifvqcf0","pricing_plan_id":"cebpf4jnsgd1na2vs0mg"},{"bike_id":"0d754227-44f6-48a6-9ec3-87ddcbd5e4f3","system_id":"levelo_inurba_marseille","lat":43.23183,"lon":5.39991,"is_reserved":false,"is_disabled":false,"rental_uris":{"android":"levelo://app?vid=0d754227-44f6-48a6-9ec3-87ddcbd5e4f3","ios":"levelo://app?vid=0d754227-44f6-48a6-9ec3-87ddcbd5e4f3"},"vehicle_type_id":"4","last_reported":1744636912,"current_range_meters":20000,"station_id":"ce4bhn12rcd13ifvqgqg","pricing_plan_id":"cebpf4jnsgd1na2vs0mg"},{"bike_id":"8e583e60-27bf-4b14-8f59-d7f99715403a","system_id":"levelo_inurba_marseille","lat":43.27809,"lon":5.40706,"is_reserved":false,"is_disabled":false,"rental_uris":{"android":"levelo://app?vid=8e583e60-27bf-4b14-8f59-d7f99715403a","ios":"levelo://app?vid=8e583e60-27bf-4b14-8f59-d7f99715403a"},"vehicle_type_id":"4","last_reported":1744636912,"current_range_meters":20000,"station_id":"ce4bhnh2rcd13ifvqgtg","pricing_plan_id":"cebpf4jnsgd1na2vs0mg"},{"bike_id":"33f29b75-f4e6-4e71-a299-29a3904a9b72","system_id":"levelo_inurba_marseille","lat":43.34152,"lon":5.40913,"is_reserved":false,"is_disabled":false,"rental_uris":{"android":"levelo://app?vid=33f29b75-f4e6-4e71-a299-29a3904a9b72","ios":"levelo://app?vid=33f29b75-f4e6-4e71-a299-29a3904a9b72"},"vehicle_type_id":"4","last_reported":1744636912,"current_range_meters":20000,"station_id":"ce4bhqh2rcd13ifvqhlg","pricing_plan_id":"cebpf4jnsgd1na2vs0mg"},{"bike_id":"33fee0d6-be41-4eb8-ba49-0436c300cb71","system_id":"levelo_inurba_marseille","lat":43.3139,"lon":5.36729,"is_reserved":false,"is_disabled":false,"rental_uris":{"android":"levelo://app?vid=33fee0d6-be41-4eb8-ba49-0436c300cb71","ios":"levelo://app?vid=33fee0d6-be41-4eb8-ba49-0436c300cb71"},"vehicle_type_id":"4","last_reported":1744636912,"current_range_meters":20000,"station_id":"ce4bgr92rcd13ifvqc6g","pricing_plan_id":"cebpf4jnsgd1na2vs0mg"},{"bike_id":"d3a0e309-41d2-4981-b517-0536179b4cff","system_id":"levelo_inurba_marseille","lat":43.3361,"lon":5.40968,"is_reserved":false,"is_disabled":false,"rental_uris":{"android":"levelo://app?vid=d3a0e309-41d2-4981-b517-0536179b4cff","ios":"levelo://app?vid=d3a0e309-41d2-4981-b517-0536179b4cff"},"vehicle_type_id":"4","last_reported":1744636912,"current_range_meters":20000,"station_id":"ce4bhqh2rcd13ifvqhmg","pricing_plan_id":"cebpf4jnsgd1na2vs0mg"},{"bike_id":"84adb4d9-77f2-44ca-b726-c1b21fe9faa4","system_id":"levelo_inurba_marseille","lat":43.323396,"lon":5.364802,"is_reserved":false,"is_disabled":false,"rental_uris":{"android":"levelo://app?vid=84adb4d9-77f2-44ca-b726-c1b21fe9faa4","ios":"levelo://app?vid=84adb4d9-77f2-44ca-b726-c1b21fe9faa4"},"vehicle_type_id":"4","last_reported":1744636912,"current_range_meters":20000,"station_id":"ce4bhs12rcd13ifvqhvg","pricing_plan_id":"cebpf4jnsgd1na2vs0mg"},{"bike_id":"ffa3eae6-4948-4138-88e2-d48ef5a05d8a","system_id":"levelo_inurba_marseille","lat":43.26537,"lon":5.41228,"is_reserved":false,"is_disabled":false,"rental_uris":{"android":"levelo://app?vid=ffa3eae6-4948-4138-88e2-d48ef5a05d8a","ios":"levelo://app?vid=ffa3eae6-4948-4138-88e2-d48ef5a05d8a"},"vehicle_type_id":"4","last_reported":1744636912,"current_range_meters":20400,"station_id":"","pricing_plan_id":"cebpf4jnsgd1na2vs0mg"},{"bike_id":"e2b5c1c3-8a61-4de4-a851-cf768b759e51","system_id":"levelo_inurba_marseille","lat":43.24199,"lon":5.39704,"is_reserved":false,"is_disabled":false,"rental_uris":{"android":"levelo://app?vid=e2b5c1c3-8a61-4de4-a851-cf768b759e51","ios":"levelo://app?vid=e2b5c1c3-8a61-4de4-a851-cf768b759e51"},"vehicle_type_id":"4","last_reported":1744636912,"current_range_meters":20400,"station_id":"ce4bhn12rcd13ifvqgpg","pricing_plan_id":"cebpf4jnsgd1na2vs0mg"},{"bike_id":"a4f5419a-50a0-419f-bbd9-3fd2e6b6f619","system_id":"levelo_inurba_marseille","lat":43.23154,"lon":5.43711,"is_reserved":false,"is_disabled":false,"rental_uris":{"android":"levelo://app?vid=a4f5419a-50a0-419f-bbd9-3fd2e6b6f619","ios":"levelo://app?vid=a4f5419a-50a0-419f-bbd9-3fd2e6b6f619"},"vehicle_type_id":"4","last_reported":1744636912,"current_range_meters":20400,"station_id":"ce4bhmp2rcd13ifvqgog","pricing_plan_id":"cebpf4jnsgd1na2vs0mg"},{"bike_id":"1f9982ff-6547-492d-b5f5-60878a1ca558","system_id":"levelo_inurba_marseille","lat":43.29852,"lon":5.36285,"is_reserved":false,"is_disabled":false,"rental_uris":{"android":"levelo://app?vid=1f9982ff-6547-492d-b5f5-60878a1ca558","ios":"levelo://app?vid=1f9982ff-6547-492d-b5f5-60878a1ca558"},"vehicle_type_id":"4","last_reported":1744636912,"current_range_meters":20400,"station_id":"ce4bgpp2rcd13ifvqc3g","pricing_plan_id":"cebpf4jnsgd1na2vs0mg"},{"bike_id":"841c6f14-e563-41fe-920b-f31a78289fde","system_id":"levelo_inurba_marseille","lat":43.292715,"lon":5.409162,"is_reserved":false,"is_disabled":false,"rental_uris":{"android":"levelo://app?vid=841c6f14-e563-41fe-920b-f31a78289fde","ios":"levelo://app?vid=841c6f14-e563-41fe-920b-f31a78289fde"},"vehicle_type_id":"4","last_reported":1744636912,"current_range_meters":20800,"station_id":"ce4bh192rcd13ifvqdc0","pricing_plan_id":"cebpf4jnsgd1na2vs0mg"},{"bike_id":"0dbb8451-6fbf-4474-9639-bd687b68c8c2","system_id":"levelo_inurba_marseille","lat":43.32571,"lon":5.36157,"is_reserved":false,"is_disabled":false,"rental_uris":{"android":"levelo://app?vid=0dbb8451-6fbf-4474-9639-bd687b68c8c2","ios":"levelo://app?vid=0dbb8451-6fbf-4474-9639-bd687b68c8c2"},"vehicle_type_id":"4","last_reported":1744636912,"current_range_meters":20800,"station_id":"","pricing_plan_id":"cebpf4jnsgd1na2vs0mg"},{"bike_id":"13389c1e-a939-4798-bba2-580ec4936f8e","system_id":"levelo_inurba_marseille","lat":43.30302,"lon":5.36872,"is_reserved":false,"is_disabled":false,"rental_uris":{"android":"levelo://app?vid=13389c1e-a939-4798-bba2-580ec4936f8e","ios":"levelo://app?vid=13389c1e-a939-4798-bba2-580ec4936f8e"},"vehicle_type_id":"4","last_reported":1744636912,"current_range_meters":20800,"station_id":"ce4bgqh2rcd13ifvqc5g","pricing_plan_id":"cebpf4jnsgd1na2vs0mg"},{"bike_id":"f6375cd8-5ddf-4b3f-b398-501a93558e36","system_id":"levelo_inurba_marseille","lat":43.24177,"lon":5.36401,"is_reserved":false,"is_disabled":false,"rental_uris":{"android":"levelo://app?vid=f6375cd8-5ddf-4b3f-b398-501a93558e36","ios":"levelo://app?vid=f6375cd8-5ddf-4b3f-b398-501a93558e36"},"vehicle_type_id":"4","last_reported":1744636912,"current_range_meters":20800,"station_id":"cpo36qri1sfpv3e86is0","pricing_plan_id":"cebpf4jnsgd1na2vs0mg"},{"bike_id":"388444d1-f5ea-46ab-8460-639b8a22d278","system_id":"levelo_inurba_marseille","lat":43.30923,"lon":5.36856,"is_reserved":false,"is_disabled":false,"rental_uris":{"android":"levelo://app?vid=388444d1-f5ea-46ab-8460-639b8a22d278","ios":"levelo://app?vid=388444d1-f5ea-46ab-8460-639b8a22d278"},"vehicle_type_id":"4","last_reported":1744636912,"current_range_meters":21600,"station_id":"ce4bgn92rcd13ifvqbvg","pricing_plan_id":"cebpf4jnsgd1na2vs0mg"},{"bike_id":"05664e36-336b-404a-b8de-2ca42d4238f0","system_id":"levelo_inurba_marseille","lat":43.2498,"lon":5.38211,"is_reserved":false,"is_disabled":false,"rental_uris":{"android":"levelo://app?vid=05664e36-336b-404a-b8de-2ca42d4238f0","ios":"levelo://app?vid=05664e36-336b-404a-b8de-2ca42d4238f0"},"vehicle_type_id":"4","last_reported":1744636912,"current_range_meters":21600,"station_id":"","pricing_plan_id":"cebpf4jnsgd1na2vs0mg"},{"bike_id":"203b4267-a586-449a-91c4-6e4bec2a08e5","system_id":"levelo_inurba_marseille","lat":43.32481,"lon":5.36569,"is_reserved":false,"is_disabled":false,"rental_uris":{"android":"levelo://app?vid=203b4267-a586-449a-91c4-6e4bec2a08e5","ios":"levelo://app?vid=203b4267-a586-449a-91c4-6e4bec2a08e5"},"vehicle_type_id":"4","last_reported":1744636912,"current_range_meters":22000,"station_id":"ce4bhs12rcd13ifvqhvg","pricing_plan_id":"cebpf4jnsgd1na2vs0mg"},{"bike_id":"fdf12297-394c-47e6-8690-ecd998d2f58c","system_id":"levelo_inurba_marseille","lat":43.3054,"lon":5.36546,"is_reserved":false,"is_disabled":false,"rental_uris":{"android":"levelo://app?vid=fdf12297-394c-47e6-8690-ecd998d2f58c","ios":"levelo://app?vid=fdf12297-394c-47e6-8690-ecd998d2f58c"},"vehicle_type_id":"4","last_reported":1744636912,"current_range_meters":22000,"station_id":"ce4bgs12rcd13ifvqcag","pricing_plan_id":"cebpf4jnsgd1na2vs0mg"},{"bike_id":"d23af7c0-9a9a-4781-be5a-d0e68de2db26","system_id":"levelo_inurba_marseille","lat":43.28867,"lon":5.3583,"is_reserved":false,"is_disabled":false,"rental_uris":{"android":"levelo://app?vid=d23af7c0-9a9a-4781-be5a-d0e68de2db26","ios":"levelo://app?vid=d23af7c0-9a9a-4781-be5a-d0e68de2db26"},"vehicle_type_id":"4","last_reported":1744636912,"current_range_meters":22000,"station_id":"ce4bhb12rcd13ifvqem0","pricing_plan_id":"cebpf4jnsgd1na2vs0mg"},{"bike_id":"fd32699e-1fcf-4074-8d41-adde343e3fa7","system_id":"levelo_inurba_marseille","lat":43.30515,"lon":5.36525,"is_reserved":false,"is_disabled":false,"rental_uris":{"android":"levelo://app?vid=fd32699e-1fcf-4074-8d41-adde343e3fa7","ios":"levelo://app?vid=fd32699e-1fcf-4074-8d41-adde343e3fa7"},"vehicle_type_id":"4","last_reported":1744636912,"current_range_meters":20400,"station_id":"","pricing_plan_id":"cebpf4jnsgd1na2vs0mg"},{"bike_id":"9ec46da3-8dea-4ddf-b1b8-4bba5a510396","system_id":"levelo_inurba_marseille","lat":43.30538,"lon":5.36552,"is_reserved":false,"is_disabled":false,"rental_uris":{"android":"levelo://app?vid=9ec46da3-8dea-4ddf-b1b8-4bba5a510396","ios":"levelo://app?vid=9ec46da3-8dea-4ddf-b1b8-4bba5a510396"},"vehicle_type_id":"4","last_reported":1744636912,"current_range_meters":22000,"station_id":"ce4bgs12rcd13ifvqcag","pricing_plan_id":"cebpf4jnsgd1na2vs0mg"},{"bike_id":"deb416d8-f4b1-431e-904b-7013df4def54","system_id":"levelo_inurba_marseille","lat":43.24547,"lon":5.39523,"is_reserved":false,"is_disabled":false,"rental_uris":{"android":"levelo://app?vid=deb416d8-f4b1-431e-904b-7013df4def54","ios":"levelo://app?vid=deb416d8-f4b1-431e-904b-7013df4def54"},"vehicle_type_id":"4","last_reported":1744636912,"current_range_meters":22000,"station_id":"ce4bhlp2rcd13ifvqgjg","pricing_plan_id":"cebpf4jnsgd1na2vs0mg"},{"bike_id":"828f6c32-8d94-4a0a-a5da-320a1de779ce","system_id":"levelo_inurba_marseille","lat":43.24084,"lon":5.37756,"is_reserved":false,"is_disabled":false,"rental_uris":{"android":"levelo://app?vid=828f6c32-8d94-4a0a-a5da-320a1de779ce","ios":"levelo://app?vid=828f6c32-8d94-4a0a-a5da-320a1de779ce"},"vehicle_type_id":"4","last_reported":1744636912,"current_range_meters":22400,"station_id":"ce4bhnp2rcd13ifvqgvg","pricing_plan_id":"cebpf4jnsgd1na2vs0mg"},{"bike_id":"1ec3d831-b77c-4199-89d1-f1c74723e07a","system_id":"levelo_inurba_marseille","lat":43.2954,"lon":5.37496,"is_reserved":false,"is_disabled":false,"rental_uris":{"android":"levelo://app?vid=1ec3d831-b77c-4199-89d1-f1c74723e07a","ios":"levelo://app?vid=1ec3d831-b77c-4199-89d1-f1c74723e07a"},"vehicle_type_id":"4","last_reported":1744636912,"current_range_meters":22400,"station_id":"ce4bgkp2rcd13ifvqbmg","pricing_plan_id":"cebpf4jnsgd1na2vs0mg"},{"bike_id":"2d541472-b9e5-4657-a7ae-e9eff04a911a","system_id":"levelo_inurba_marseille","lat":43.25509,"lon":5.37643,"is_reserved":false,"is_disabled":false,"rental_uris":{"android":"levelo://app?vid=2d541472-b9e5-4657-a7ae-e9eff04a911a","ios":"levelo://app?vid=2d541472-b9e5-4657-a7ae-e9eff04a911a"},"vehicle_type_id":"4","last_reported":1744636912,"current_range_meters":22400,"station_id":"ce4bhh12rcd13ifvqff0","pricing_plan_id":"cebpf4jnsgd1na2vs0mg"},{"bike_id":"b62d6d5a-454b-4645-ba32-f345f677b005","system_id":"levelo_inurba_marseille","lat":43.282627,"lon":5.350678,"is_reserved":false,"is_disabled":false,"rental_uris":{"android":"levelo://app?vid=b62d6d5a-454b-4645-ba32-f345f677b005","ios":"levelo://app?vid=b62d6d5a-454b-4645-ba32-f345f677b005"},"vehicle_type_id":"4","last_reported":1744636912,"current_range_meters":22400,"station_id":"ce4bhbp2rcd13ifvqerg","pricing_plan_id":"cebpf4jnsgd1na2vs0mg"},{"bike_id":"d9b5a379-f40a-457e-afa2-dab0d1023371","system_id":"levelo_inurba_marseille","lat":43.261615,"lon":5.374702,"is_reserved":false,"is_disabled":false,"rental_uris":{"android":"levelo://app?vid=d9b5a379-f40a-457e-afa2-dab0d1023371","ios":"levelo://app?vid=d9b5a379-f40a-457e-afa2-dab0d1023371"},"vehicle_type_id":"4","last_reported":1744636912,"current_range_meters":22400,"station_id":"ce4bhh12rcd13ifvqff0","pricing_plan_id":"cebpf4jnsgd1na2vs0mg"},{"bike_id":"1ac6cae9-5a5f-4765-b8d5-20772275ca89","system_id":"levelo_inurba_marseille","lat":43.233221,"lon":5.361383,"is_reserved":false,"is_disabled":false,"rental_uris":{"android":"levelo://app?vid=1ac6cae9-5a5f-4765-b8d5-20772275ca89","ios":"levelo://app?vid=1ac6cae9-5a5f-4765-b8d5-20772275ca89"},"vehicle_type_id":"4","last_reported":1744636912,"current_range_meters":22400,"station_id":"","pricing_plan_id":"cebpf4jnsgd1na2vs0mg"},{"bike_id":"6f9ef2c6-883e-412b-8947-8bc32c601f3e","system_id":"levelo_inurba_marseille","lat":43.26216,"lon":5.37471,"is_reserved":false,"is_disabled":false,"rental_uris":{"android":"levelo://app?vid=6f9ef2c6-883e-412b-8947-8bc32c601f3e","ios":"levelo://app?vid=6f9ef2c6-883e-412b-8947-8bc32c601f3e"},"vehicle_type_id":"4","last_reported":1744636912,"current_range_meters":22400,"station_id":"ce4bhgp2rcd13ifvqfc0","pricing_plan_id":"cebpf4jnsgd1na2vs0mg"},{"bike_id":"f5937a56-2053-48c6-a25a-972606402463","system_id":"levelo_inurba_marseille","lat":43.2703,"lon":5.42324,"is_reserved":false,"is_disabled":false,"rental_uris":{"android":"levelo://app?vid=f5937a56-2053-48c6-a25a-972606402463","ios":"levelo://app?vid=f5937a56-2053-48c6-a25a-972606402463"},"vehicle_type_id":"4","last_reported":1744636912,"current_range_meters":22400,"station_id":"ce4bhk92rcd13ifvqgb0","pricing_plan_id":"cebpf4jnsgd1na2vs0mg"},{"bike_id":"398c9e66-2add-45e7-a5a8-1519b873b904","system_id":"levelo_inurba_marseille","lat":43.305463,"lon":5.365478,"is_reserved":false,"is_disabled":false,"rental_uris":{"android":"levelo://app?vid=398c9e66-2add-45e7-a5a8-1519b873b904","ios":"levelo://app?vid=398c9e66-2add-45e7-a5a8-1519b873b904"},"vehicle_type_id":"4","last_reported":1744636912,"current_range_meters":22800,"station_id":"ce4bgs12rcd13ifvqcag","pricing_plan_id":"cebpf4jnsgd1na2vs0mg"},{"bike_id":"dab92ad9-845f-45dd-8fad-a49bfcfc531b","system_id":"levelo_inurba_marseille","lat":43.30909,"lon":5.3685,"is_reserved":false,"is_disabled":false,"rental_uris":{"android":"levelo://app?vid=dab92ad9-845f-45dd-8fad-a49bfcfc531b","ios":"levelo://app?vid=dab92ad9-845f-45dd-8fad-a49bfcfc531b"},"vehicle_type_id":"4","last_reported":1744636912,"current_range_meters":22800,"station_id":"ce4bgn92rcd13ifvqbvg","pricing_plan_id":"cebpf4jnsgd1na2vs0mg"},{"bike_id":"f95f9625-51c0-4f21-bcf3-5ceada9e3796","system_id":"levelo_inurba_marseille","lat":43.30732,"lon":5.42446,"is_reserved":false,"is_disabled":false,"rental_uris":{"android":"levelo://app?vid=f95f9625-51c0-4f21-bcf3-5ceada9e3796","ios":"levelo://app?vid=f95f9625-51c0-4f21-bcf3-5ceada9e3796"},"vehicle_type_id":"4","last_reported":1744636912,"current_range_meters":22800,"station_id":"st_cvj6ca6bvosntc0bfgr0","pricing_plan_id":"cebpf4jnsgd1na2vs0mg"},{"bike_id":"8de6001a-6d5b-4dc8-9219-a616aa2d9594","system_id":"levelo_inurba_marseille","lat":43.2971,"lon":5.37694,"is_reserved":false,"is_disabled":false,"rental_uris":{"android":"levelo://app?vid=8de6001a-6d5b-4dc8-9219-a616aa2d9594","ios":"levelo://app?vid=8de6001a-6d5b-4dc8-9219-a616aa2d9594"},"vehicle_type_id":"4","last_reported":1744636912,"current_range_meters":22800,"station_id":"ce4bgkh2rcd13ifvqbl0","pricing_plan_id":"cebpf4jnsgd1na2vs0mg"},{"bike_id":"b035f8ab-1633-42ac-9aa2-e0f018b270f8","system_id":"levelo_inurba_marseille","lat":43.26029,"lon":5.37548,"is_reserved":false,"is_disabled":false,"rental_uris":{"android":"levelo://app?vid=b035f8ab-1633-42ac-9aa2-e0f018b270f8","ios":"levelo://app?vid=b035f8ab-1633-42ac-9aa2-e0f018b270f8"},"vehicle_type_id":"4","last_reported":1744636912,"current_range_meters":22800,"station_id":"ce4bhgh2rcd13ifvqfa0","pricing_plan_id":"cebpf4jnsgd1na2vs0mg"},{"bike_id":"ae794a4d-5447-4ef0-b5d1-60cc5fd1851d","system_id":"levelo_inurba_marseille","lat":43.299698,"lon":5.384792,"is_reserved":false,"is_disabled":false,"rental_uris":{"android":"levelo://app?vid=ae794a4d-5447-4ef0-b5d1-60cc5fd1851d","ios":"levelo://app?vid=ae794a4d-5447-4ef0-b5d1-60cc5fd1851d"},"vehicle_type_id":"4","last_reported":1744636912,"current_range_meters":22800,"station_id":"ce4bgj92rcd13ifvqbd0","pricing_plan_id":"cebpf4jnsgd1na2vs0mg"},{"bike_id":"24acbce7-260f-46c8-9ba2-af24377b2147","system_id":"levelo_inurba_marseille","lat":43.21757,"lon":5.34593,"is_reserved":false,"is_disabled":false,"rental_uris":{"android":"levelo://app?vid=24acbce7-260f-46c8-9ba2-af24377b2147","ios":"levelo://app?vid=24acbce7-260f-46c8-9ba2-af24377b2147"},"vehicle_type_id":"4","last_reported":1744636912,"current_range_meters":22800,"station_id":"","pricing_plan_id":"cebpf4jnsgd1na2vs0mg"},{"bike_id":"80581a5c-f0ad-4895-a131-36c495c1c1df","system_id":"levelo_inurba_marseille","lat":43.30539,"lon":5.36533,"is_reserved":false,"is_disabled":false,"rental_uris":{"android":"levelo://app?vid=80581a5c-f0ad-4895-a131-36c495c1c1df","ios":"levelo://app?vid=80581a5c-f0ad-4895-a131-36c495c1c1df"},"vehicle_type_id":"4","last_reported":1744636912,"current_range_meters":22800,"station_id":"ce4bgs12rcd13ifvqcag","pricing_plan_id":"cebpf4jnsgd1na2vs0mg"},{"bike_id":"29d95d95-9e17-4f7a-b230-abb382bf24ac","system_id":"levelo_inurba_marseille","lat":43.32441,"lon":5.36515,"is_reserved":false,"is_disabled":false,"rental_uris":{"android":"levelo://app?vid=29d95d95-9e17-4f7a-b230-abb382bf24ac","ios":"levelo://app?vid=29d95d95-9e17-4f7a-b230-abb382bf24ac"},"vehicle_type_id":"4","last_reported":1744636912,"current_range_meters":22800,"station_id":"ce4bhs12rcd13ifvqhvg","pricing_plan_id":"cebpf4jnsgd1na2vs0mg"},{"bike_id":"7eacb872-0584-4b06-8fad-feb612d3799a","system_id":"levelo_inurba_marseille","lat":43.30181,"lon":5.38125,"is_reserved":false,"is_disabled":false,"rental_uris":{"android":"levelo://app?vid=7eacb872-0584-4b06-8fad-feb612d3799a","ios":"levelo://app?vid=7eacb872-0584-4b06-8fad-feb612d3799a"},"vehicle_type_id":"4","last_reported":1744636912,"current_range_meters":22800,"station_id":"ce4bgjp2rcd13ifvqbh0","pricing_plan_id":"cebpf4jnsgd1na2vs0mg"},{"bike_id":"6cd3744e-0344-4833-9a0e-f26de91e56d3","system_id":"levelo_inurba_marseille","lat":43.30794,"lon":5.3816,"is_reserved":false,"is_disabled":false,"rental_uris":{"android":"levelo://app?vid=6cd3744e-0344-4833-9a0e-f26de91e56d3","ios":"levelo://app?vid=6cd3744e-0344-4833-9a0e-f26de91e56d3"},"vehicle_type_id":"4","last_reported":1744636912,"current_range_meters":22800,"station_id":"ce4bgt12rcd13ifvqce0","pricing_plan_id":"cebpf4jnsgd1na2vs0mg"},{"bike_id":"15308a00-f264-4316-ae22-ded447448661","system_id":"levelo_inurba_marseille","lat":43.29853,"lon":5.3628,"is_reserved":false,"is_disabled":false,"rental_uris":{"android":"levelo://app?vid=15308a00-f264-4316-ae22-ded447448661","ios":"levelo://app?vid=15308a00-f264-4316-ae22-ded447448661"},"vehicle_type_id":"4","last_reported":1744636912,"current_range_meters":22800,"station_id":"ce4bgpp2rcd13ifvqc3g","pricing_plan_id":"cebpf4jnsgd1na2vs0mg"},{"bike_id":"b6a0eb77-3ef6-4a32-8206-4ef3c2136296","system_id":"levelo_inurba_marseille","lat":43.294586,"lon":5.375792,"is_reserved":false,"is_disabled":false,"rental_uris":{"android":"levelo://app?vid=b6a0eb77-3ef6-4a32-8206-4ef3c2136296","ios":"levelo://app?vid=b6a0eb77-3ef6-4a32-8206-4ef3c2136296"},"vehicle_type_id":"4","last_reported":1744636912,"current_range_meters":22800,"station_id":"","pricing_plan_id":"cebpf4jnsgd1na2vs0mg"},{"bike_id":"e2475d1f-3fc3-4872-bca7-160bb8e80eb0","system_id":"levelo_inurba_marseille","lat":43.29305,"lon":5.377,"is_reserved":false,"is_disabled":false,"rental_uris":{"android":"levelo://app?vid=e2475d1f-3fc3-4872-bca7-160bb8e80eb0","ios":"levelo://app?vid=e2475d1f-3fc3-4872-bca7-160bb8e80eb0"},"vehicle_type_id":"4","last_reported":1744636912,"current_range_meters":22800,"station_id":"","pricing_plan_id":"cebpf4jnsgd1na2vs0mg"},{"bike_id":"10d8789e-4d26-4521-92c0-8ae244d5fb7f","system_id":"levelo_inurba_marseille","lat":43.26556,"lon":5.37287,"is_reserved":false,"is_disabled":false,"rental_uris":{"android":"levelo://app?vid=10d8789e-4d26-4521-92c0-8ae244d5fb7f","ios":"levelo://app?vid=10d8789e-4d26-4521-92c0-8ae244d5fb7f"},"vehicle_type_id":"4","last_reported":1744636912,"current_range_meters":22800,"station_id":"ce4bhg12rcd13ifvqf70","pricing_plan_id":"cebpf4jnsgd1na2vs0mg"},{"bike_id":"4df734a8-0d36-4b27-bbb4-6f70964a0afb","system_id":"levelo_inurba_marseille","lat":43.30953,"lon":5.39031,"is_reserved":false,"is_disabled":false,"rental_uris":{"android":"levelo://app?vid=4df734a8-0d36-4b27-bbb4-6f70964a0afb","ios":"levelo://app?vid=4df734a8-0d36-4b27-bbb4-6f70964a0afb"},"vehicle_type_id":"4","last_reported":1744636912,"current_range_meters":23200,"station_id":"ce4bgup2rcd13ifvqco0","pricing_plan_id":"cebpf4jnsgd1na2vs0mg"},{"bike_id":"a92fa1ea-ad51-473e-a546-67fc8ec6aeca","system_id":"levelo_inurba_marseille","lat":43.31131,"lon":5.37757,"is_reserved":false,"is_disabled":false,"rental_uris":{"android":"levelo://app?vid=a92fa1ea-ad51-473e-a546-67fc8ec6aeca","ios":"levelo://app?vid=a92fa1ea-ad51-473e-a546-67fc8ec6aeca"},"vehicle_type_id":"4","last_reported":1744636912,"current_range_meters":23200,"station_id":"ce4bgt92rcd13ifvqcg0","pricing_plan_id":"cebpf4jnsgd1na2vs0mg"},{"bike_id":"7e340323-52ff-40c0-ab37-eda112e59927","system_id":"levelo_inurba_marseille","lat":43.30156,"lon":5.38086,"is_reserved":false,"is_disabled":false,"rental_uris":{"android":"levelo://app?vid=7e340323-52ff-40c0-ab37-eda112e59927","ios":"levelo://app?vid=7e340323-52ff-40c0-ab37-eda112e59927"},"vehicle_type_id":"4","last_reported":1744636912,"current_range_meters":23200,"station_id":"ce4bgjp2rcd13ifvqbh0","pricing_plan_id":"cebpf4jnsgd1na2vs0mg"},{"bike_id":"6c09bdc4-b589-4071-bb94-5dd45d84714c","system_id":"levelo_inurba_marseille","lat":43.27371,"lon":5.36256,"is_reserved":false,"is_disabled":false,"rental_uris":{"android":"levelo://app?vid=6c09bdc4-b589-4071-bb94-5dd45d84714c","ios":"levelo://app?vid=6c09bdc4-b589-4071-bb94-5dd45d84714c"},"vehicle_type_id":"4","last_reported":1744636912,"current_range_meters":23200,"station_id":"ce4bhbh2rcd13ifvqeo0","pricing_plan_id":"cebpf4jnsgd1na2vs0mg"},{"bike_id":"58865f51-d34a-49ac-8f37-d14aa3ef6ace","system_id":"levelo_inurba_marseille","lat":43.32418,"lon":5.39106,"is_reserved":false,"is_disabled":false,"rental_uris":{"android":"levelo://app?vid=58865f51-d34a-49ac-8f37-d14aa3ef6ace","ios":"levelo://app?vid=58865f51-d34a-49ac-8f37-d14aa3ef6ace"},"vehicle_type_id":"4","last_reported":1744636912,"current_range_meters":23200,"station_id":"","pricing_plan_id":"cebpf4jnsgd1na2vs0mg"},{"bike_id":"3ceb0e6e-57c6-4a13-81ee-5c6c8631a2b0","system_id":"levelo_inurba_marseille","lat":43.26936,"lon":5.4025,"is_reserved":false,"is_disabled":false,"rental_uris":{"android":"levelo://app?vid=3ceb0e6e-57c6-4a13-81ee-5c6c8631a2b0","ios":"levelo://app?vid=3ceb0e6e-57c6-4a13-81ee-5c6c8631a2b0"},"vehicle_type_id":"4","last_reported":1744636912,"current_range_meters":23200,"station_id":"cjm6bp8fraef2m0cb0m0","pricing_plan_id":"cebpf4jnsgd1na2vs0mg"},{"bike_id":"e61eb72d-2152-4e42-a8db-1ea20dfcb944","system_id":"levelo_inurba_marseille","lat":43.25087,"lon":5.39508,"is_reserved":false,"is_disabled":true,"rental_uris":{"android":"levelo://app?vid=e61eb72d-2152-4e42-a8db-1ea20dfcb944","ios":"levelo://app?vid=e61eb72d-2152-4e42-a8db-1ea20dfcb944"},"vehicle_type_id":"4","last_reported":1744636912,"current_range_meters":23200,"station_id":"ce4bhm12rcd13ifvqgkg","pricing_plan_id":"cebpf4jnsgd1na2vs0mg"},{"bike_id":"62f23b0a-e0e3-47bb-83d3-7bfaaad8088d","system_id":"levelo_inurba_marseille","lat":43.30129,"lon":5.37418,"is_reserved":false,"is_disabled":false,"rental_uris":{"android":"levelo://app?vid=62f23b0a-e0e3-47bb-83d3-7bfaaad8088d","ios":"levelo://app?vid=62f23b0a-e0e3-47bb-83d3-7bfaaad8088d"},"vehicle_type_id":"4","last_reported":1744636912,"current_range_meters":23200,"station_id":"ce4bgs92rcd13ifvqcc0","pricing_plan_id":"cebpf4jnsgd1na2vs0mg"},{"bike_id":"df6eceb2-df75-4a7d-8521-2f3d9c5b5499","system_id":"levelo_inurba_marseille","lat":43.29173,"lon":5.37161,"is_reserved":false,"is_disabled":false,"rental_uris":{"android":"levelo://app?vid=df6eceb2-df75-4a7d-8521-2f3d9c5b5499","ios":"levelo://app?vid=df6eceb2-df75-4a7d-8521-2f3d9c5b5499"},"vehicle_type_id":"4","last_reported":1744636912,"current_range_meters":23200,"station_id":"ce4bha92rcd13ifvqeh0","pricing_plan_id":"cebpf4jnsgd1na2vs0mg"},{"bike_id":"e848bba0-26c9-4d99-8b74-7538eef494b3","system_id":"levelo_inurba_marseille","lat":43.279976,"lon":5.400115,"is_reserved":false,"is_disabled":false,"rental_uris":{"android":"levelo://app?vid=e848bba0-26c9-4d99-8b74-7538eef494b3","ios":"levelo://app?vid=e848bba0-26c9-4d99-8b74-7538eef494b3"},"vehicle_type_id":"4","last_reported":1744636912,"current_range_meters":23200,"station_id":"ce4bho92rcd13ifvqh4g","pricing_plan_id":"cebpf4jnsgd1na2vs0mg"},{"bike_id":"be17dbe5-98cc-4839-9d61-65d3dda6da1c","system_id":"levelo_inurba_marseille","lat":43.279729,"lon":5.387433,"is_reserved":false,"is_disabled":false,"rental_uris":{"android":"levelo://app?vid=be17dbe5-98cc-4839-9d61-65d3dda6da1c","ios":"levelo://app?vid=be17dbe5-98cc-4839-9d61-65d3dda6da1c"},"vehicle_type_id":"4","last_reported":1744636912,"current_range_meters":23200,"station_id":"ce4bhb12rcd13ifvqel0","pricing_plan_id":"cebpf4jnsgd1na2vs0mg"},{"bike_id":"b22d70ef-733d-44b9-b485-bf91a6062680","system_id":"levelo_inurba_marseille","lat":43.3211,"lon":5.3677,"is_reserved":false,"is_disabled":false,"rental_uris":{"android":"levelo://app?vid=b22d70ef-733d-44b9-b485-bf91a6062680","ios":"levelo://app?vid=b22d70ef-733d-44b9-b485-bf91a6062680"},"vehicle_type_id":"4","last_reported":1744636912,"current_range_meters":24000,"station_id":"ce4bhrh2rcd13ifvqhug","pricing_plan_id":"cebpf4jnsgd1na2vs0mg"},{"bike_id":"da41f7af-7184-4efd-942e-41ce0bcdceb9","system_id":"levelo_inurba_marseille","lat":43.2315,"lon":5.43706,"is_reserved":false,"is_disabled":false,"rental_uris":{"android":"levelo://app?vid=da41f7af-7184-4efd-942e-41ce0bcdceb9","ios":"levelo://app?vid=da41f7af-7184-4efd-942e-41ce0bcdceb9"},"vehicle_type_id":"4","last_reported":1744636912,"current_range_meters":24000,"station_id":"ce4bhmp2rcd13ifvqgog","pricing_plan_id":"cebpf4jnsgd1na2vs0mg"},{"bike_id":"6b7eb414-9c32-4484-a7c5-23012a9427ff","system_id":"levelo_inurba_marseille","lat":43.25499,"lon":5.37651,"is_reserved":false,"is_disabled":false,"rental_uris":{"android":"levelo://app?vid=6b7eb414-9c32-4484-a7c5-23012a9427ff","ios":"levelo://app?vid=6b7eb414-9c32-4484-a7c5-23012a9427ff"},"vehicle_type_id":"4","last_reported":1744636912,"current_range_meters":24000,"station_id":"ce4bhh12rcd13ifvqff0","pricing_plan_id":"cebpf4jnsgd1na2vs0mg"},{"bike_id":"1981afc4-10ff-4535-b254-3b1b8b7fa094","system_id":"levelo_inurba_marseille","lat":43.229304,"lon":5.35373,"is_reserved":false,"is_disabled":false,"rental_uris":{"android":"levelo://app?vid=1981afc4-10ff-4535-b254-3b1b8b7fa094","ios":"levelo://app?vid=1981afc4-10ff-4535-b254-3b1b8b7fa094"},"vehicle_type_id":"4","last_reported":1744636912,"current_range_meters":24000,"station_id":"cpo3532slgdg3j2ikp40","pricing_plan_id":"cebpf4jnsgd1na2vs0mg"},{"bike_id":"c8577a26-7e73-46df-8e82-914727f13f86","system_id":"levelo_inurba_marseille","lat":43.30138,"lon":5.38113,"is_reserved":false,"is_disabled":true,"rental_uris":{"android":"levelo://app?vid=c8577a26-7e73-46df-8e82-914727f13f86","ios":"levelo://app?vid=c8577a26-7e73-46df-8e82-914727f13f86"},"vehicle_type_id":"4","last_reported":1744636912,"current_range_meters":24000,"station_id":"ce4bgjp2rcd13ifvqbh0","pricing_plan_id":"cebpf4jnsgd1na2vs0mg"},{"bike_id":"ee33e4a3-9ed1-445d-9974-26da2f858986","system_id":"levelo_inurba_marseille","lat":43.32421,"lon":5.39094,"is_reserved":false,"is_disabled":false,"rental_uris":{"android":"levelo://app?vid=ee33e4a3-9ed1-445d-9974-26da2f858986","ios":"levelo://app?vid=ee33e4a3-9ed1-445d-9974-26da2f858986"},"vehicle_type_id":"4","last_reported":1744636912,"current_range_meters":24000,"station_id":"","pricing_plan_id":"cebpf4jnsgd1na2vs0mg"},{"bike_id":"b3634d46-a7cb-44c3-8c04-b2d7138bacb1","system_id":"levelo_inurba_marseille","lat":43.23195,"lon":5.35554,"is_reserved":false,"is_disabled":false,"rental_uris":{"android":"levelo://app?vid=b3634d46-a7cb-44c3-8c04-b2d7138bacb1","ios":"levelo://app?vid=b3634d46-a7cb-44c3-8c04-b2d7138bacb1"},"vehicle_type_id":"4","last_reported":1744636912,"current_range_meters":24000,"station_id":"ce4bhu92rcd13ifvqi70","pricing_plan_id":"cebpf4jnsgd1na2vs0mg"},{"bike_id":"ff3cc019-99c3-492c-8ecb-48ce179d14ed","system_id":"levelo_inurba_marseille","lat":43.28617,"lon":5.35107,"is_reserved":false,"is_disabled":false,"rental_uris":{"android":"levelo://app?vid=ff3cc019-99c3-492c-8ecb-48ce179d14ed","ios":"levelo://app?vid=ff3cc019-99c3-492c-8ecb-48ce179d14ed"},"vehicle_type_id":"4","last_reported":1744636912,"current_range_meters":24000,"station_id":"ce4bhch2rcd13ifvqeug","pricing_plan_id":"cebpf4jnsgd1na2vs0mg"},{"bike_id":"4d677503-d554-4be8-98ea-a97abe415799","system_id":"levelo_inurba_marseille","lat":43.25115,"lon":5.40318,"is_reserved":false,"is_disabled":false,"rental_uris":{"android":"levelo://app?vid=4d677503-d554-4be8-98ea-a97abe415799","ios":"levelo://app?vid=4d677503-d554-4be8-98ea-a97abe415799"},"vehicle_type_id":"4","last_reported":1744636912,"current_range_meters":24000,"station_id":"ce4bhlh2rcd13ifvqgig","pricing_plan_id":"cebpf4jnsgd1na2vs0mg"},{"bike_id":"08a2c2b1-ac71-46d9-8c32-b65b65726c80","system_id":"levelo_inurba_marseille","lat":43.26553,"lon":5.37283,"is_reserved":false,"is_disabled":false,"rental_uris":{"android":"levelo://app?vid=08a2c2b1-ac71-46d9-8c32-b65b65726c80","ios":"levelo://app?vid=08a2c2b1-ac71-46d9-8c32-b65b65726c80"},"vehicle_type_id":"4","last_reported":1744636912,"current_range_meters":24000,"station_id":"ce4bhg12rcd13ifvqf70","pricing_plan_id":"cebpf4jnsgd1na2vs0mg"},{"bike_id":"814768a9-3451-4aea-890a-f9d1dfa710aa","system_id":"levelo_inurba_marseille","lat":43.23081,"lon":5.35482,"is_reserved":false,"is_disabled":false,"rental_uris":{"android":"levelo://app?vid=814768a9-3451-4aea-890a-f9d1dfa710aa","ios":"levelo://app?vid=814768a9-3451-4aea-890a-f9d1dfa710aa"},"vehicle_type_id":"4","last_reported":1744636912,"current_range_meters":24400,"station_id":"cpo3342slgdg3j2ifvpg","pricing_plan_id":"cebpf4jnsgd1na2vs0mg"},{"bike_id":"e52c709d-1dc1-4a27-a133-c1c6ee103e39","system_id":"levelo_inurba_marseille","lat":43.23194,"lon":5.39987,"is_reserved":false,"is_disabled":false,"rental_uris":{"android":"levelo://app?vid=e52c709d-1dc1-4a27-a133-c1c6ee103e39","ios":"levelo://app?vid=e52c709d-1dc1-4a27-a133-c1c6ee103e39"},"vehicle_type_id":"4","last_reported":1744636912,"current_range_meters":24400,"station_id":"ce4bhn12rcd13ifvqgqg","pricing_plan_id":"cebpf4jnsgd1na2vs0mg"},{"bike_id":"267e914c-7a81-4f62-bee8-fa8f7bcebc43","system_id":"levelo_inurba_marseille","lat":43.28935,"lon":5.36633,"is_reserved":false,"is_disabled":false,"rental_uris":{"android":"levelo://app?vid=267e914c-7a81-4f62-bee8-fa8f7bcebc43","ios":"levelo://app?vid=267e914c-7a81-4f62-bee8-fa8f7bcebc43"},"vehicle_type_id":"4","last_reported":1744636912,"current_range_meters":24000,"station_id":"ce4bhap2rcd13ifvqek0","pricing_plan_id":"cebpf4jnsgd1na2vs0mg"},{"bike_id":"d5b9a4de-2a44-4dbf-ba6d-4293398c4b39","system_id":"levelo_inurba_marseille","lat":43.268068,"lon":5.402668,"is_reserved":false,"is_disabled":false,"rental_uris":{"android":"levelo://app?vid=d5b9a4de-2a44-4dbf-ba6d-4293398c4b39","ios":"levelo://app?vid=d5b9a4de-2a44-4dbf-ba6d-4293398c4b39"},"vehicle_type_id":"4","last_reported":1744636912,"current_range_meters":24400,"station_id":"ce501612rcd8frsf0b60","pricing_plan_id":"cebpf4jnsgd1na2vs0mg"},{"bike_id":"2d9c1d08-96a8-449f-be36-f228abafdef2","system_id":"levelo_inurba_marseille","lat":43.30051,"lon":5.37425,"is_reserved":false,"is_disabled":false,"rental_uris":{"android":"levelo://app?vid=2d9c1d08-96a8-449f-be36-f228abafdef2","ios":"levelo://app?vid=2d9c1d08-96a8-449f-be36-f228abafdef2"},"vehicle_type_id":"4","last_reported":1744636912,"current_range_meters":24400,"station_id":"","pricing_plan_id":"cebpf4jnsgd1na2vs0mg"},{"bike_id":"3bec197d-59aa-40eb-abfe-bd81f697a62c","system_id":"levelo_inurba_marseille","lat":43.30537,"lon":5.36532,"is_reserved":false,"is_disabled":false,"rental_uris":{"android":"levelo://app?vid=3bec197d-59aa-40eb-abfe-bd81f697a62c","ios":"levelo://app?vid=3bec197d-59aa-40eb-abfe-bd81f697a62c"},"vehicle_type_id":"4","last_reported":1744636912,"current_range_meters":24400,"station_id":"ce4bgs12rcd13ifvqcag","pricing_plan_id":"cebpf4jnsgd1na2vs0mg"},{"bike_id":"0269dfdf-e7ec-452a-b4b6-a49cf8999f5e","system_id":"levelo_inurba_marseille","lat":43.279125,"lon":5.395798,"is_reserved":false,"is_disabled":false,"rental_uris":{"android":"levelo://app?vid=0269dfdf-e7ec-452a-b4b6-a49cf8999f5e","ios":"levelo://app?vid=0269dfdf-e7ec-452a-b4b6-a49cf8999f5e"},"vehicle_type_id":"4","last_reported":1744636912,"current_range_meters":24400,"station_id":"ce4bhf92rcd13ifvqf40","pricing_plan_id":"cebpf4jnsgd1na2vs0mg"},{"bike_id":"2249cd81-203f-41e3-af9e-590150ba18a9","system_id":"levelo_inurba_marseille","lat":43.24167,"lon":5.36392,"is_reserved":false,"is_disabled":false,"rental_uris":{"android":"levelo://app?vid=2249cd81-203f-41e3-af9e-590150ba18a9","ios":"levelo://app?vid=2249cd81-203f-41e3-af9e-590150ba18a9"},"vehicle_type_id":"4","last_reported":1744636912,"current_range_meters":24400,"station_id":"cpo36qri1sfpv3e86is0","pricing_plan_id":"cebpf4jnsgd1na2vs0mg"},{"bike_id":"fa231499-2520-42a8-b400-f108781310c9","system_id":"levelo_inurba_marseille","lat":43.248052,"lon":5.374617,"is_reserved":false,"is_disabled":false,"rental_uris":{"android":"levelo://app?vid=fa231499-2520-42a8-b400-f108781310c9","ios":"levelo://app?vid=fa231499-2520-42a8-b400-f108781310c9"},"vehicle_type_id":"4","last_reported":1744636912,"current_range_meters":24400,"station_id":"ce4bhgh2rcd13ifvqfb0","pricing_plan_id":"cebpf4jnsgd1na2vs0mg"},{"bike_id":"6b7dd6f3-4543-409f-97cc-4db68642f84e","system_id":"levelo_inurba_marseille","lat":43.261984,"lon":5.374506,"is_reserved":false,"is_disabled":false,"rental_uris":{"android":"levelo://app?vid=6b7dd6f3-4543-409f-97cc-4db68642f84e","ios":"levelo://app?vid=6b7dd6f3-4543-409f-97cc-4db68642f84e"},"vehicle_type_id":"4","last_reported":1744636912,"current_range_meters":24400,"station_id":"ce4bhgp2rcd13ifvqfc0","pricing_plan_id":"cebpf4jnsgd1na2vs0mg"},{"bike_id":"4b35b685-5fed-4de4-838c-4970d7589d89","system_id":"levelo_inurba_marseille","lat":43.28711,"lon":5.40001,"is_reserved":false,"is_disabled":true,"rental_uris":{"android":"levelo://app?vid=4b35b685-5fed-4de4-838c-4970d7589d89","ios":"levelo://app?vid=4b35b685-5fed-4de4-838c-4970d7589d89"},"vehicle_type_id":"4","last_reported":1744636912,"current_range_meters":24400,"station_id":"ce4bho92rcd13ifvqh3g","pricing_plan_id":"cebpf4jnsgd1na2vs0mg"},{"bike_id":"0d2e50cc-b9d2-43d2-aafe-e8b367a94e54","system_id":"levelo_inurba_marseille","lat":43.25493,"lon":5.37647,"is_reserved":false,"is_disabled":false,"rental_uris":{"android":"levelo://app?vid=0d2e50cc-b9d2-43d2-aafe-e8b367a94e54","ios":"levelo://app?vid=0d2e50cc-b9d2-43d2-aafe-e8b367a94e54"},"vehicle_type_id":"4","last_reported":1744636912,"current_range_meters":24400,"station_id":"ce4bhh12rcd13ifvqff0","pricing_plan_id":"cebpf4jnsgd1na2vs0mg"},{"bike_id":"7ccfa739-cccd-4afd-abed-279586de3494","system_id":"levelo_inurba_marseille","lat":43.23136,"lon":5.43731,"is_reserved":false,"is_disabled":false,"rental_uris":{"android":"levelo://app?vid=7ccfa739-cccd-4afd-abed-279586de3494","ios":"levelo://app?vid=7ccfa739-cccd-4afd-abed-279586de3494"},"vehicle_type_id":"4","last_reported":1744636912,"current_range_meters":24400,"station_id":"ce4bhmp2rcd13ifvqgog","pricing_plan_id":"cebpf4jnsgd1na2vs0mg"},{"bike_id":"9de1281b-66bf-40fd-b90a-d0a20134d7be","system_id":"levelo_inurba_marseille","lat":43.32542,"lon":5.41453,"is_reserved":false,"is_disabled":false,"rental_uris":{"android":"levelo://app?vid=9de1281b-66bf-40fd-b90a-d0a20134d7be","ios":"levelo://app?vid=9de1281b-66bf-40fd-b90a-d0a20134d7be"},