{"last_updated":1778774586,"ttl":60,"version":"2.2","data":{"bikes":[{"bike_id":"30388078-cd88-4dde-9070-5a1bdfc97cfb","system_id":"levelo_inurba_marseille","lat":43.31144,"lon":5.39501,"is_reserved":false,"is_disabled":false,"rental_uris":{"android":"levelo://app?vid=30388078-cd88-4dde-9070-5a1bdfc97cfb","ios":"levelo://app?vid=30388078-cd88-4dde-9070-5a1bdfc97cfb"},"vehicle_type_id":"4","last_reported":1778774586,"current_range_meters":2800,"station_id":"","pricing_plan_id":"cebpf4jnsgd1na2vs0mg"},{"bike_id":"8cee99dd-12fd-44e9-b451-8540cf85b9e6","system_id":"levelo_inurba_marseille","lat":43.29305,"lon":5.37168,"is_reserved":false,"is_disabled":false,"rental_uris":{"android":"levelo://app?vid=8cee99dd-12fd-44e9-b451-8540cf85b9e6","ios":"levelo://app?vid=8cee99dd-12fd-44e9-b451-8540cf85b9e6"},"vehicle_type_id":"4","last_reported":1778774586,"current_range_meters":2800,"station_id":"ce4bgh92rcd13ifvqb40","pricing_plan_id":"cebpf4jnsgd1na2vs0mg"},{"bike_id":"4db55bd4-3c9a-42a4-b2f8-4ded99806553","system_id":"levelo_inurba_marseille","lat":43.2957,"lon":5.37516,"is_reserved":false,"is_disabled":false,"rental_uris":{"android":"levelo://app?vid=4db55bd4-3c9a-42a4-b2f8-4ded99806553","ios":"levelo://app?vid=4db55bd4-3c9a-42a4-b2f8-4ded99806553"},"vehicle_type_id":"4","last_reported":1778774586,"current_range_meters":2800,"station_id":"ce4bgh92rcd13ifvqb50","pricing_plan_id":"cebpf4jnsgd1na2vs0mg"},{"bike_id":"533dd215-1c70-4c8d-9258-d243b850f347","system_id":"levelo_inurba_marseille","lat":43.26828,"lon":5.40254,"is_reserved":false,"is_disabled":false,"rental_uris":{"android":"levelo://app?vid=533dd215-1c70-4c8d-9258-d243b850f347","ios":"levelo://app?vid=533dd215-1c70-4c8d-9258-d243b850f347"},"vehicle_type_id":"4","last_reported":1778774586,"current_range_meters":2800,"station_id":"ce501612rcd8frsf0b60","pricing_plan_id":"cebpf4jnsgd1na2vs0mg"},{"bike_id":"3c9818a7-a62e-4347-9e8d-6759c3d03bb9","system_id":"levelo_inurba_marseille","lat":43.24654,"lon":5.38595,"is_reserved":false,"is_disabled":false,"rental_uris":{"android":"levelo://app?vid=3c9818a7-a62e-4347-9e8d-6759c3d03bb9","ios":"levelo://app?vid=3c9818a7-a62e-4347-9e8d-6759c3d03bb9"},"vehicle_type_id":"4","last_reported":1778774586,"current_range_meters":2800,"station_id":"","pricing_plan_id":"cebpf4jnsgd1na2vs0mg"},{"bike_id":"7434ad42-07d5-45d1-93bb-7f3e5e7e2d9c","system_id":"levelo_inurba_marseille","lat":43.30302,"lon":5.39213,"is_reserved":false,"is_disabled":false,"rental_uris":{"android":"levelo://app?vid=7434ad42-07d5-45d1-93bb-7f3e5e7e2d9c","ios":"levelo://app?vid=7434ad42-07d5-45d1-93bb-7f3e5e7e2d9c"},"vehicle_type_id":"4","last_reported":1778774586,"current_range_meters":2800,"station_id":"ce4bgkh2rcd13ifvqbk0","pricing_plan_id":"cebpf4jnsgd1na2vs0mg"},{"bike_id":"a3de4300-9fcb-4657-a3ed-bb1669e8362b","system_id":"levelo_inurba_marseille","lat":43.337428,"lon":5.374807,"is_reserved":false,"is_disabled":false,"rental_uris":{"android":"levelo://app?vid=a3de4300-9fcb-4657-a3ed-bb1669e8362b","ios":"levelo://app?vid=a3de4300-9fcb-4657-a3ed-bb1669e8362b"},"vehicle_type_id":"4","last_reported":1778774586,"current_range_meters":2800,"station_id":"","pricing_plan_id":"cebpf4jnsgd1na2vs0mg"},{"bike_id":"fafce2f2-38ad-4451-a617-b42957df9194","system_id":"levelo_inurba_marseille","lat":43.23973,"lon":5.366203,"is_reserved":false,"is_disabled":false,"rental_uris":{"android":"levelo://app?vid=fafce2f2-38ad-4451-a617-b42957df9194","ios":"levelo://app?vid=fafce2f2-38ad-4451-a617-b42957df9194"},"vehicle_type_id":"4","last_reported":1778774586,"current_range_meters":3200,"station_id":"ce4bhi12rcd13ifvqfp0","pricing_plan_id":"cebpf4jnsgd1na2vs0mg"},{"bike_id":"92ab43c4-65a8-40ad-9026-0da4c99cc465","system_id":"levelo_inurba_marseille","lat":43.25878,"lon":5.4053,"is_reserved":false,"is_disabled":false,"rental_uris":{"android":"levelo://app?vid=92ab43c4-65a8-40ad-9026-0da4c99cc465","ios":"levelo://app?vid=92ab43c4-65a8-40ad-9026-0da4c99cc465"},"vehicle_type_id":"4","last_reported":1778774586,"current_range_meters":3200,"station_id":"","pricing_plan_id":"cebpf4jnsgd1na2vs0mg"},{"bike_id":"48066121-841a-4b69-bb96-5a67813041e0","system_id":"levelo_inurba_marseille","lat":43.28702,"lon":5.46684,"is_reserved":false,"is_disabled":false,"rental_uris":{"android":"levelo://app?vid=48066121-841a-4b69-bb96-5a67813041e0","ios":"levelo://app?vid=48066121-841a-4b69-bb96-5a67813041e0"},"vehicle_type_id":"4","last_reported":1778774586,"current_range_meters":3200,"station_id":"st_d6tc3vkotcvc738tfjhg","pricing_plan_id":"cebpf4jnsgd1na2vs0mg"},{"bike_id":"bbc3c688-839a-4272-ba0f-bd3ff2fd5e51","system_id":"levelo_inurba_marseille","lat":43.29873,"lon":5.421,"is_reserved":false,"is_disabled":false,"rental_uris":{"android":"levelo://app?vid=bbc3c688-839a-4272-ba0f-bd3ff2fd5e51","ios":"levelo://app?vid=bbc3c688-839a-4272-ba0f-bd3ff2fd5e51"},"vehicle_type_id":"4","last_reported":1778774586,"current_range_meters":3200,"station_id":"st_d6tc004otcvc738tfe70","pricing_plan_id":"cebpf4jnsgd1na2vs0mg"},{"bike_id":"95c02ffd-d429-4bb4-9cec-b7834d99f0f6","system_id":"levelo_inurba_marseille","lat":43.33164,"lon":5.37692,"is_reserved":false,"is_disabled":true,"rental_uris":{"android":"levelo://app?vid=95c02ffd-d429-4bb4-9cec-b7834d99f0f6","ios":"levelo://app?vid=95c02ffd-d429-4bb4-9cec-b7834d99f0f6"},"vehicle_type_id":"4","last_reported":1778774586,"current_range_meters":3200,"station_id":"st_d46cu089ee8s73dldbu0","pricing_plan_id":"cebpf4jnsgd1na2vs0mg"},{"bike_id":"970160b1-84d8-465c-8a1c-d48923dac96b","system_id":"levelo_inurba_marseille","lat":43.28103,"lon":5.37841,"is_reserved":false,"is_disabled":false,"rental_uris":{"android":"levelo://app?vid=970160b1-84d8-465c-8a1c-d48923dac96b","ios":"levelo://app?vid=970160b1-84d8-465c-8a1c-d48923dac96b"},"vehicle_type_id":"4","last_reported":1778774586,"current_range_meters":3200,"station_id":"ce4bha12rcd13ifvqee0","pricing_plan_id":"cebpf4jnsgd1na2vs0mg"},{"bike_id":"8d3a3088-0ba1-48ee-ba1b-dec22d34b348","system_id":"levelo_inurba_marseille","lat":43.29941,"lon":5.36542,"is_reserved":false,"is_disabled":false,"rental_uris":{"android":"levelo://app?vid=8d3a3088-0ba1-48ee-ba1b-dec22d34b348","ios":"levelo://app?vid=8d3a3088-0ba1-48ee-ba1b-dec22d34b348"},"vehicle_type_id":"4","last_reported":1778774586,"current_range_meters":3200,"station_id":"ce4bgm92rcd13ifvqbr0","pricing_plan_id":"cebpf4jnsgd1na2vs0mg"},{"bike_id":"0ddd1a44-6a20-4f20-87bb-54f6dbe51696","system_id":"levelo_inurba_marseille","lat":43.31738,"lon":5.4019,"is_reserved":false,"is_disabled":false,"rental_uris":{"android":"levelo://app?vid=0ddd1a44-6a20-4f20-87bb-54f6dbe51696","ios":"levelo://app?vid=0ddd1a44-6a20-4f20-87bb-54f6dbe51696"},"vehicle_type_id":"4","last_reported":1778774586,"current_range_meters":3200,"station_id":"","pricing_plan_id":"cebpf4jnsgd1na2vs0mg"},{"bike_id":"53d1143f-0e28-4cf0-bfb9-fa94d28a54ca","system_id":"levelo_inurba_marseille","lat":43.26062,"lon":5.39373,"is_reserved":false,"is_disabled":false,"rental_uris":{"android":"levelo://app?vid=53d1143f-0e28-4cf0-bfb9-fa94d28a54ca","ios":"levelo://app?vid=53d1143f-0e28-4cf0-bfb9-fa94d28a54ca"},"vehicle_type_id":"4","last_reported":1778774586,"current_range_meters":3200,"station_id":"ce4bhh92rcd13ifvqfj0","pricing_plan_id":"cebpf4jnsgd1na2vs0mg"},{"bike_id":"589c9ab8-429d-4b23-b022-498feaad902c","system_id":"levelo_inurba_marseille","lat":43.29268,"lon":5.39985,"is_reserved":false,"is_disabled":false,"rental_uris":{"android":"levelo://app?vid=589c9ab8-429d-4b23-b022-498feaad902c","ios":"levelo://app?vid=589c9ab8-429d-4b23-b022-498feaad902c"},"vehicle_type_id":"4","last_reported":1778774586,"current_range_meters":3200,"station_id":"","pricing_plan_id":"cebpf4jnsgd1na2vs0mg"},{"bike_id":"1dee72ea-cbbb-4f0f-b373-7962e2bff9d2","system_id":"levelo_inurba_marseille","lat":43.2464,"lon":5.38987,"is_reserved":false,"is_disabled":false,"rental_uris":{"android":"levelo://app?vid=1dee72ea-cbbb-4f0f-b373-7962e2bff9d2","ios":"levelo://app?vid=1dee72ea-cbbb-4f0f-b373-7962e2bff9d2"},"vehicle_type_id":"4","last_reported":1778774586,"current_range_meters":3200,"station_id":"","pricing_plan_id":"cebpf4jnsgd1na2vs0mg"},{"bike_id":"d484c474-9ad7-4217-9617-95b6ab716c3e","system_id":"levelo_inurba_marseille","lat":43.24384,"lon":5.37051,"is_reserved":false,"is_disabled":false,"rental_uris":{"android":"levelo://app?vid=d484c474-9ad7-4217-9617-95b6ab716c3e","ios":"levelo://app?vid=d484c474-9ad7-4217-9617-95b6ab716c3e"},"vehicle_type_id":"4","last_reported":1778774586,"current_range_meters":3200,"station_id":"ce4bhhh2rcd13ifvqfk0","pricing_plan_id":"cebpf4jnsgd1na2vs0mg"},{"bike_id":"a69bbb17-e904-4bbe-b1a6-d8e7b08362c7","system_id":"levelo_inurba_marseille","lat":43.23986,"lon":5.39925,"is_reserved":false,"is_disabled":false,"rental_uris":{"android":"levelo://app?vid=a69bbb17-e904-4bbe-b1a6-d8e7b08362c7","ios":"levelo://app?vid=a69bbb17-e904-4bbe-b1a6-d8e7b08362c7"},"vehicle_type_id":"4","last_reported":1778774586,"current_range_meters":3600,"station_id":"","pricing_plan_id":"cebpf4jnsgd1na2vs0mg"},{"bike_id":"021040d1-7b99-4ed9-9ac7-6385124bc67d","system_id":"levelo_inurba_marseille","lat":43.30943,"lon":5.39035,"is_reserved":false,"is_disabled":false,"rental_uris":{"android":"levelo://app?vid=021040d1-7b99-4ed9-9ac7-6385124bc67d","ios":"levelo://app?vid=021040d1-7b99-4ed9-9ac7-6385124bc67d"},"vehicle_type_id":"4","last_reported":1778774586,"current_range_meters":3600,"station_id":"ce4bgup2rcd13ifvqco0","pricing_plan_id":"cebpf4jnsgd1na2vs0mg"},{"bike_id":"6d21e7ef-3ef9-4f0a-85e3-96eaf28ae7d3","system_id":"levelo_inurba_marseille","lat":43.22536,"lon":5.3483,"is_reserved":false,"is_disabled":true,"rental_uris":{"android":"levelo://app?vid=6d21e7ef-3ef9-4f0a-85e3-96eaf28ae7d3","ios":"levelo://app?vid=6d21e7ef-3ef9-4f0a-85e3-96eaf28ae7d3"},"vehicle_type_id":"4","last_reported":1778774586,"current_range_meters":3600,"station_id":"st_cvj5dfep6f1abm77gieg","pricing_plan_id":"cebpf4jnsgd1na2vs0mg"},{"bike_id":"a00dba06-a422-459a-b26e-8fadb9aa5035","system_id":"levelo_inurba_marseille","lat":43.24627,"lon":5.37979,"is_reserved":false,"is_disabled":false,"rental_uris":{"android":"levelo://app?vid=a00dba06-a422-459a-b26e-8fadb9aa5035","ios":"levelo://app?vid=a00dba06-a422-459a-b26e-8fadb9aa5035"},"vehicle_type_id":"4","last_reported":1778774586,"current_range_meters":3600,"station_id":"","pricing_plan_id":"cebpf4jnsgd1na2vs0mg"},{"bike_id":"04a0ca3c-5ba9-4f48-8f19-1b8d0535e35e","system_id":"levelo_inurba_marseille","lat":43.28418,"lon":5.34974,"is_reserved":false,"is_disabled":false,"rental_uris":{"android":"levelo://app?vid=04a0ca3c-5ba9-4f48-8f19-1b8d0535e35e","ios":"levelo://app?vid=04a0ca3c-5ba9-4f48-8f19-1b8d0535e35e"},"vehicle_type_id":"4","last_reported":1778774586,"current_range_meters":3600,"station_id":"ce4bhbh2rcd13ifvqepg","pricing_plan_id":"cebpf4jnsgd1na2vs0mg"},{"bike_id":"31ece05a-75e8-496e-82f0-3b8d5b3a3ef3","system_id":"levelo_inurba_marseille","lat":43.28528,"lon":5.44096,"is_reserved":false,"is_disabled":false,"rental_uris":{"android":"levelo://app?vid=31ece05a-75e8-496e-82f0-3b8d5b3a3ef3","ios":"levelo://app?vid=31ece05a-75e8-496e-82f0-3b8d5b3a3ef3"},"vehicle_type_id":"4","last_reported":1778774586,"current_range_meters":3600,"station_id":"st_d3j3df2ikq2c7380ej80","pricing_plan_id":"cebpf4jnsgd1na2vs0mg"},{"bike_id":"63e9dbe3-ba38-4897-bd79-802f28b2a860","system_id":"levelo_inurba_marseille","lat":43.33155,"lon":5.37707,"is_reserved":false,"is_disabled":false,"rental_uris":{"android":"levelo://app?vid=63e9dbe3-ba38-4897-bd79-802f28b2a860","ios":"levelo://app?vid=63e9dbe3-ba38-4897-bd79-802f28b2a860"},"vehicle_type_id":"4","last_reported":1778774586,"current_range_meters":3600,"station_id":"st_d46cu089ee8s73dldbu0","pricing_plan_id":"cebpf4jnsgd1na2vs0mg"},{"bike_id":"e0e3f93f-16e8-4b39-b089-98387a4c334d","system_id":"levelo_inurba_marseille","lat":43.33534,"lon":5.37465,"is_reserved":false,"is_disabled":false,"rental_uris":{"android":"levelo://app?vid=e0e3f93f-16e8-4b39-b089-98387a4c334d","ios":"levelo://app?vid=e0e3f93f-16e8-4b39-b089-98387a4c334d"},"vehicle_type_id":"4","last_reported":1778774586,"current_range_meters":3600,"station_id":"st_d46tts09ee8s73dlu43g","pricing_plan_id":"cebpf4jnsgd1na2vs0mg"},{"bike_id":"1d840a3e-6dd6-4d2b-85ce-dce4ef1cb912","system_id":"levelo_inurba_marseille","lat":43.28929,"lon":5.36392,"is_reserved":false,"is_disabled":false,"rental_uris":{"android":"levelo://app?vid=1d840a3e-6dd6-4d2b-85ce-dce4ef1cb912","ios":"levelo://app?vid=1d840a3e-6dd6-4d2b-85ce-dce4ef1cb912"},"vehicle_type_id":"4","last_reported":1778774586,"current_range_meters":3600,"station_id":"ce4bhc92rcd13ifvqetg","pricing_plan_id":"cebpf4jnsgd1na2vs0mg"},{"bike_id":"6206d17b-cf9d-41b3-a41d-c6052f6a6ce2","system_id":"levelo_inurba_marseille","lat":43.33549,"lon":5.37461,"is_reserved":false,"is_disabled":false,"rental_uris":{"android":"levelo://app?vid=6206d17b-cf9d-41b3-a41d-c6052f6a6ce2","ios":"levelo://app?vid=6206d17b-cf9d-41b3-a41d-c6052f6a6ce2"},"vehicle_type_id":"4","last_reported":1778774586,"current_range_meters":4000,"station_id":"st_d46tts09ee8s73dlu43g","pricing_plan_id":"cebpf4jnsgd1na2vs0mg"},{"bike_id":"a25fccba-9e68-479c-9ac1-81a44962ffbc","system_id":"levelo_inurba_marseille","lat":43.31221,"lon":5.37823,"is_reserved":false,"is_disabled":false,"rental_uris":{"android":"levelo://app?vid=a25fccba-9e68-479c-9ac1-81a44962ffbc","ios":"levelo://app?vid=a25fccba-9e68-479c-9ac1-81a44962ffbc"},"vehicle_type_id":"4","last_reported":1778774586,"current_range_meters":4000,"station_id":"","pricing_plan_id":"cebpf4jnsgd1na2vs0mg"},{"bike_id":"7493fdb6-7ba2-4b5a-b64f-a57d8e12d868","system_id":"levelo_inurba_marseille","lat":43.28425,"lon":5.34996,"is_reserved":false,"is_disabled":true,"rental_uris":{"android":"levelo://app?vid=7493fdb6-7ba2-4b5a-b64f-a57d8e12d868","ios":"levelo://app?vid=7493fdb6-7ba2-4b5a-b64f-a57d8e12d868"},"vehicle_type_id":"4","last_reported":1778774586,"current_range_meters":4000,"station_id":"ce4bhbh2rcd13ifvqepg","pricing_plan_id":"cebpf4jnsgd1na2vs0mg"},{"bike_id":"e226a4d6-de81-4a93-925a-f656591fcde6","system_id":"levelo_inurba_marseille","lat":43.30944,"lon":5.39041,"is_reserved":false,"is_disabled":false,"rental_uris":{"android":"levelo://app?vid=e226a4d6-de81-4a93-925a-f656591fcde6","ios":"levelo://app?vid=e226a4d6-de81-4a93-925a-f656591fcde6"},"vehicle_type_id":"4","last_reported":1778774586,"current_range_meters":4000,"station_id":"ce4bgup2rcd13ifvqco0","pricing_plan_id":"cebpf4jnsgd1na2vs0mg"},{"bike_id":"4751127d-3aa2-446e-8601-6629ed659fa5","system_id":"levelo_inurba_marseille","lat":43.22562,"lon":5.41626,"is_reserved":false,"is_disabled":false,"rental_uris":{"android":"levelo://app?vid=4751127d-3aa2-446e-8601-6629ed659fa5","ios":"levelo://app?vid=4751127d-3aa2-446e-8601-6629ed659fa5"},"vehicle_type_id":"4","last_reported":1778774586,"current_range_meters":4000,"station_id":"st_d2o4gvlbi1j2169b742g","pricing_plan_id":"cebpf4jnsgd1na2vs0mg"},{"bike_id":"74107c3e-4a4b-404c-b3eb-5ce68acb0287","system_id":"levelo_inurba_marseille","lat":43.26224,"lon":5.38769,"is_reserved":false,"is_disabled":false,"rental_uris":{"android":"levelo://app?vid=74107c3e-4a4b-404c-b3eb-5ce68acb0287","ios":"levelo://app?vid=74107c3e-4a4b-404c-b3eb-5ce68acb0287"},"vehicle_type_id":"4","last_reported":1778774586,"current_range_meters":4000,"station_id":"","pricing_plan_id":"cebpf4jnsgd1na2vs0mg"},{"bike_id":"b463455a-86a4-4b8f-8b9c-82b94f5b942e","system_id":"levelo_inurba_marseille","lat":43.217477,"lon":5.346052,"is_reserved":false,"is_disabled":false,"rental_uris":{"android":"levelo://app?vid=b463455a-86a4-4b8f-8b9c-82b94f5b942e","ios":"levelo://app?vid=b463455a-86a4-4b8f-8b9c-82b94f5b942e"},"vehicle_type_id":"4","last_reported":1778774586,"current_range_meters":4400,"station_id":"st_cvj6r9ubvosntc0bgbag","pricing_plan_id":"cebpf4jnsgd1na2vs0mg"},{"bike_id":"339c9f18-e8a9-4013-b0a1-1da45a13c042","system_id":"levelo_inurba_marseille","lat":43.30754,"lon":5.42441,"is_reserved":false,"is_disabled":false,"rental_uris":{"android":"levelo://app?vid=339c9f18-e8a9-4013-b0a1-1da45a13c042","ios":"levelo://app?vid=339c9f18-e8a9-4013-b0a1-1da45a13c042"},"vehicle_type_id":"4","last_reported":1778774586,"current_range_meters":4400,"station_id":"st_cvj6ca6bvosntc0bfgr0","pricing_plan_id":"cebpf4jnsgd1na2vs0mg"},{"bike_id":"524db523-0ed8-4b7f-b206-2d2f9213bf9a","system_id":"levelo_inurba_marseille","lat":43.29863,"lon":5.39732,"is_reserved":false,"is_disabled":false,"rental_uris":{"android":"levelo://app?vid=524db523-0ed8-4b7f-b206-2d2f9213bf9a","ios":"levelo://app?vid=524db523-0ed8-4b7f-b206-2d2f9213bf9a"},"vehicle_type_id":"4","last_reported":1778774586,"current_range_meters":4400,"station_id":"ce4bh0h2rcd13ifvqd50","pricing_plan_id":"cebpf4jnsgd1na2vs0mg"},{"bike_id":"1c8551e7-65a0-49fa-ba5d-23c46f24083e","system_id":"levelo_inurba_marseille","lat":43.28698,"lon":5.46688,"is_reserved":false,"is_disabled":false,"rental_uris":{"android":"levelo://app?vid=1c8551e7-65a0-49fa-ba5d-23c46f24083e","ios":"levelo://app?vid=1c8551e7-65a0-49fa-ba5d-23c46f24083e"},"vehicle_type_id":"4","last_reported":1778774586,"current_range_meters":4400,"station_id":"st_d6tc3vkotcvc738tfjhg","pricing_plan_id":"cebpf4jnsgd1na2vs0mg"},{"bike_id":"e6af4dfe-7a13-4929-ac71-9d3454a95813","system_id":"levelo_inurba_marseille","lat":43.27222,"lon":5.39163,"is_reserved":false,"is_disabled":true,"rental_uris":{"android":"levelo://app?vid=e6af4dfe-7a13-4929-ac71-9d3454a95813","ios":"levelo://app?vid=e6af4dfe-7a13-4929-ac71-9d3454a95813"},"vehicle_type_id":"4","last_reported":1778774586,"current_range_meters":4400,"station_id":"ce4bhhp2rcd13ifvqfm0","pricing_plan_id":"cebpf4jnsgd1na2vs0mg"},{"bike_id":"76abce95-1fbb-457c-83c9-8be31c1ba964","system_id":"levelo_inurba_marseille","lat":43.23187,"lon":5.39971,"is_reserved":false,"is_disabled":false,"rental_uris":{"android":"levelo://app?vid=76abce95-1fbb-457c-83c9-8be31c1ba964","ios":"levelo://app?vid=76abce95-1fbb-457c-83c9-8be31c1ba964"},"vehicle_type_id":"4","last_reported":1778774586,"current_range_meters":4400,"station_id":"ce4bhn12rcd13ifvqgqg","pricing_plan_id":"cebpf4jnsgd1na2vs0mg"},{"bike_id":"8bb75740-110f-4d4e-8348-fb9d76c42c05","system_id":"levelo_inurba_marseille","lat":43.28703,"lon":5.46682,"is_reserved":false,"is_disabled":false,"rental_uris":{"android":"levelo://app?vid=8bb75740-110f-4d4e-8348-fb9d76c42c05","ios":"levelo://app?vid=8bb75740-110f-4d4e-8348-fb9d76c42c05"},"vehicle_type_id":"4","last_reported":1778774586,"current_range_meters":4400,"station_id":"st_d6tc3vkotcvc738tfjhg","pricing_plan_id":"cebpf4jnsgd1na2vs0mg"},{"bike_id":"eaa9162b-df1e-4cdf-86fa-1c242477da5f","system_id":"levelo_inurba_marseille","lat":43.24546,"lon":5.39524,"is_reserved":false,"is_disabled":false,"rental_uris":{"android":"levelo://app?vid=eaa9162b-df1e-4cdf-86fa-1c242477da5f","ios":"levelo://app?vid=eaa9162b-df1e-4cdf-86fa-1c242477da5f"},"vehicle_type_id":"4","last_reported":1778774586,"current_range_meters":4800,"station_id":"ce4bhlp2rcd13ifvqgjg","pricing_plan_id":"cebpf4jnsgd1na2vs0mg"},{"bike_id":"961ae3cb-3fb8-4279-8e42-ea1f7ab378e9","system_id":"levelo_inurba_marseille","lat":43.23182,"lon":5.39977,"is_reserved":false,"is_disabled":false,"rental_uris":{"android":"levelo://app?vid=961ae3cb-3fb8-4279-8e42-ea1f7ab378e9","ios":"levelo://app?vid=961ae3cb-3fb8-4279-8e42-ea1f7ab378e9"},"vehicle_type_id":"4","last_reported":1778774586,"current_range_meters":4800,"station_id":"ce4bhn12rcd13ifvqgqg","pricing_plan_id":"cebpf4jnsgd1na2vs0mg"},{"bike_id":"b1f85c10-3a72-4895-b4df-4b7782abd0b1","system_id":"levelo_inurba_marseille","lat":43.2853,"lon":5.44095,"is_reserved":false,"is_disabled":false,"rental_uris":{"android":"levelo://app?vid=b1f85c10-3a72-4895-b4df-4b7782abd0b1","ios":"levelo://app?vid=b1f85c10-3a72-4895-b4df-4b7782abd0b1"},"vehicle_type_id":"4","last_reported":1778774586,"current_range_meters":4800,"station_id":"st_d3j3df2ikq2c7380ej80","pricing_plan_id":"cebpf4jnsgd1na2vs0mg"},{"bike_id":"d26b7c52-84a5-452c-84b8-640ff2160d6b","system_id":"levelo_inurba_marseille","lat":43.29782,"lon":5.38123,"is_reserved":false,"is_disabled":true,"rental_uris":{"android":"levelo://app?vid=d26b7c52-84a5-452c-84b8-640ff2160d6b","ios":"levelo://app?vid=d26b7c52-84a5-452c-84b8-640ff2160d6b"},"vehicle_type_id":"4","last_reported":1778774586,"current_range_meters":4800,"station_id":"ce4bgip2rcd13ifvqbb0","pricing_plan_id":"cebpf4jnsgd1na2vs0mg"},{"bike_id":"5eb0b80a-cdad-4426-9a8a-07687e4cbd6b","system_id":"levelo_inurba_marseille","lat":43.26213,"lon":5.37441,"is_reserved":false,"is_disabled":false,"rental_uris":{"android":"levelo://app?vid=5eb0b80a-cdad-4426-9a8a-07687e4cbd6b","ios":"levelo://app?vid=5eb0b80a-cdad-4426-9a8a-07687e4cbd6b"},"vehicle_type_id":"4","last_reported":1778774586,"current_range_meters":4800,"station_id":"ce4bhgp2rcd13ifvqfc0","pricing_plan_id":"cebpf4jnsgd1na2vs0mg"},{"bike_id":"1e2d26d3-769e-4818-802b-4a146ebc5104","system_id":"levelo_inurba_marseille","lat":43.29868,"lon":5.39744,"is_reserved":false,"is_disabled":false,"rental_uris":{"android":"levelo://app?vid=1e2d26d3-769e-4818-802b-4a146ebc5104","ios":"levelo://app?vid=1e2d26d3-769e-4818-802b-4a146ebc5104"},"vehicle_type_id":"4","last_reported":1778774586,"current_range_meters":4800,"station_id":"ce4bh0h2rcd13ifvqd50","pricing_plan_id":"cebpf4jnsgd1na2vs0mg"},{"bike_id":"c32337e0-8f26-4c6a-b3d2-fd95369cc155","system_id":"levelo_inurba_marseille","lat":43.28727,"lon":5.36073,"is_reserved":false,"is_disabled":false,"rental_uris":{"android":"levelo://app?vid=c32337e0-8f26-4c6a-b3d2-fd95369cc155","ios":"levelo://app?vid=c32337e0-8f26-4c6a-b3d2-fd95369cc155"},"vehicle_type_id":"4","last_reported":1778774586,"current_range_meters":4800,"station_id":"cki0cbj6b192h4jlfktg","pricing_plan_id":"cebpf4jnsgd1na2vs0mg"},{"bike_id":"9db43dae-3d71-490e-820b-f190ccf4c8f2","system_id":"levelo_inurba_marseille","lat":43.2551,"lon":5.37655,"is_reserved":false,"is_disabled":false,"rental_uris":{"android":"levelo://app?vid=9db43dae-3d71-490e-820b-f190ccf4c8f2","ios":"levelo://app?vid=9db43dae-3d71-490e-820b-f190ccf4c8f2"},"vehicle_type_id":"4","last_reported":1778774586,"current_range_meters":4800,"station_id":"ce4bhh12rcd13ifvqff0","pricing_plan_id":"cebpf4jnsgd1na2vs0mg"},{"bike_id":"5dc7c789-42c7-4b51-af6e-0586c6aef868","system_id":"levelo_inurba_marseille","lat":43.30464,"lon":5.3791,"is_reserved":false,"is_disabled":false,"rental_uris":{"android":"levelo://app?vid=5dc7c789-42c7-4b51-af6e-0586c6aef868","ios":"levelo://app?vid=5dc7c789-42c7-4b51-af6e-0586c6aef868"},"vehicle_type_id":"4","last_reported":1778774586,"current_range_meters":5600,"station_id":"ce4bgup2rcd13ifvqcn0","pricing_plan_id":"cebpf4jnsgd1na2vs0mg"},{"bike_id":"81ae9a97-046f-4685-b3d6-f0657cc0dac1","system_id":"levelo_inurba_marseille","lat":43.26937,"lon":5.40303,"is_reserved":false,"is_disabled":false,"rental_uris":{"android":"levelo://app?vid=81ae9a97-046f-4685-b3d6-f0657cc0dac1","ios":"levelo://app?vid=81ae9a97-046f-4685-b3d6-f0657cc0dac1"},"vehicle_type_id":"4","last_reported":1778774586,"current_range_meters":5600,"station_id":"cjm6bp8fraef2m0cb0m0","pricing_plan_id":"cebpf4jnsgd1na2vs0mg"},{"bike_id":"0e1804ca-dccb-4098-accf-62174948ed0a","system_id":"levelo_inurba_marseille","lat":43.29477,"lon":5.38227,"is_reserved":false,"is_disabled":false,"rental_uris":{"android":"levelo://app?vid=0e1804ca-dccb-4098-accf-62174948ed0a","ios":"levelo://app?vid=0e1804ca-dccb-4098-accf-62174948ed0a"},"vehicle_type_id":"4","last_reported":1778774586,"current_range_meters":5600,"station_id":"","pricing_plan_id":"cebpf4jnsgd1na2vs0mg"},{"bike_id":"72179d6d-4306-495c-979e-7fc83e24d3fc","system_id":"levelo_inurba_marseille","lat":43.30187,"lon":5.36562,"is_reserved":false,"is_disabled":false,"rental_uris":{"android":"levelo://app?vid=72179d6d-4306-495c-979e-7fc83e24d3fc","ios":"levelo://app?vid=72179d6d-4306-495c-979e-7fc83e24d3fc"},"vehicle_type_id":"4","last_reported":1778774586,"current_range_meters":5600,"station_id":"","pricing_plan_id":"cebpf4jnsgd1na2vs0mg"},{"bike_id":"1dca4bee-e819-43e2-ad84-7d34b2d8b393","system_id":"levelo_inurba_marseille","lat":43.30804,"lon":5.3816,"is_reserved":false,"is_disabled":false,"rental_uris":{"android":"levelo://app?vid=1dca4bee-e819-43e2-ad84-7d34b2d8b393","ios":"levelo://app?vid=1dca4bee-e819-43e2-ad84-7d34b2d8b393"},"vehicle_type_id":"4","last_reported":1778774586,"current_range_meters":5600,"station_id":"ce4bgt12rcd13ifvqce0","pricing_plan_id":"cebpf4jnsgd1na2vs0mg"},{"bike_id":"cf0b3ef4-a8e8-4fa5-bbd1-2eff2239724e","system_id":"levelo_inurba_marseille","lat":43.297778,"lon":5.393404,"is_reserved":false,"is_disabled":false,"rental_uris":{"android":"levelo://app?vid=cf0b3ef4-a8e8-4fa5-bbd1-2eff2239724e","ios":"levelo://app?vid=cf0b3ef4-a8e8-4fa5-bbd1-2eff2239724e"},"vehicle_type_id":"4","last_reported":1778774586,"current_range_meters":5600,"station_id":"chh1huq6cuj3fo74tm60","pricing_plan_id":"cebpf4jnsgd1na2vs0mg"},{"bike_id":"18df3caf-e3cd-46b1-8a56-af0d8c09400e","system_id":"levelo_inurba_marseille","lat":43.24173,"lon":5.36398,"is_reserved":false,"is_disabled":false,"rental_uris":{"android":"levelo://app?vid=18df3caf-e3cd-46b1-8a56-af0d8c09400e","ios":"levelo://app?vid=18df3caf-e3cd-46b1-8a56-af0d8c09400e"},"vehicle_type_id":"4","last_reported":1778774586,"current_range_meters":5600,"station_id":"cpo36qri1sfpv3e86is0","pricing_plan_id":"cebpf4jnsgd1na2vs0mg"},{"bike_id":"1c06c4f4-000c-46ca-a103-d3374b9b966e","system_id":"levelo_inurba_marseille","lat":43.28036,"lon":5.36949,"is_reserved":false,"is_disabled":false,"rental_uris":{"android":"levelo://app?vid=1c06c4f4-000c-46ca-a103-d3374b9b966e","ios":"levelo://app?vid=1c06c4f4-000c-46ca-a103-d3374b9b966e"},"vehicle_type_id":"4","last_reported":1778774586,"current_range_meters":5600,"station_id":"ce4bha12rcd13ifvqef0","pricing_plan_id":"cebpf4jnsgd1na2vs0mg"},{"bike_id":"e7639aa3-651f-4e26-8dc2-eebbc9adb5f8","system_id":"levelo_inurba_marseille","lat":43.24651,"lon":5.3889,"is_reserved":false,"is_disabled":true,"rental_uris":{"android":"levelo://app?vid=e7639aa3-651f-4e26-8dc2-eebbc9adb5f8","ios":"levelo://app?vid=e7639aa3-651f-4e26-8dc2-eebbc9adb5f8"},"vehicle_type_id":"4","last_reported":1778774586,"current_range_meters":5600,"station_id":"ce4bhg12rcd13ifvqf60","pricing_plan_id":"cebpf4jnsgd1na2vs0mg"},{"bike_id":"788dfa8a-456b-4e1b-8663-b20f000fa194","system_id":"levelo_inurba_marseille","lat":43.26946,"lon":5.40252,"is_reserved":false,"is_disabled":false,"rental_uris":{"android":"levelo://app?vid=788dfa8a-456b-4e1b-8663-b20f000fa194","ios":"levelo://app?vid=788dfa8a-456b-4e1b-8663-b20f000fa194"},"vehicle_type_id":"4","last_reported":1778774586,"current_range_meters":5600,"station_id":"cjm6bp8fraef2m0cb0m0","pricing_plan_id":"cebpf4jnsgd1na2vs0mg"},{"bike_id":"b299766d-661b-4293-b516-1846fa5fb91f","system_id":"levelo_inurba_marseille","lat":43.28587,"lon":5.38614,"is_reserved":false,"is_disabled":false,"rental_uris":{"android":"levelo://app?vid=b299766d-661b-4293-b516-1846fa5fb91f","ios":"levelo://app?vid=b299766d-661b-4293-b516-1846fa5fb91f"},"vehicle_type_id":"4","last_reported":1778774586,"current_range_meters":5600,"station_id":"","pricing_plan_id":"cebpf4jnsgd1na2vs0mg"},{"bike_id":"9b42fa64-9a45-4fcc-a56e-8b25f71385ce","system_id":"levelo_inurba_marseille","lat":43.3414,"lon":5.40895,"is_reserved":false,"is_disabled":false,"rental_uris":{"android":"levelo://app?vid=9b42fa64-9a45-4fcc-a56e-8b25f71385ce","ios":"levelo://app?vid=9b42fa64-9a45-4fcc-a56e-8b25f71385ce"},"vehicle_type_id":"4","last_reported":1778774586,"current_range_meters":5600,"station_id":"ce4bhqh2rcd13ifvqhlg","pricing_plan_id":"cebpf4jnsgd1na2vs0mg"},{"bike_id":"ccd88aa2-825f-44a2-b1e8-a6eabeb545ee","system_id":"levelo_inurba_marseille","lat":43.29071,"lon":5.3716,"is_reserved":false,"is_disabled":false,"rental_uris":{"android":"levelo://app?vid=ccd88aa2-825f-44a2-b1e8-a6eabeb545ee","ios":"levelo://app?vid=ccd88aa2-825f-44a2-b1e8-a6eabeb545ee"},"vehicle_type_id":"4","last_reported":1778774586,"current_range_meters":5600,"station_id":"ce4bh5p2rcd13ifvqe4g","pricing_plan_id":"cebpf4jnsgd1na2vs0mg"},{"bike_id":"ba6cd433-193b-4ee9-9d9b-817cb1445525","system_id":"levelo_inurba_marseille","lat":43.26214,"lon":5.37433,"is_reserved":false,"is_disabled":false,"rental_uris":{"android":"levelo://app?vid=ba6cd433-193b-4ee9-9d9b-817cb1445525","ios":"levelo://app?vid=ba6cd433-193b-4ee9-9d9b-817cb1445525"},"vehicle_type_id":"4","last_reported":1778774586,"current_range_meters":6000,"station_id":"ce4bhgp2rcd13ifvqfc0","pricing_plan_id":"cebpf4jnsgd1na2vs0mg"},{"bike_id":"4066804f-6245-416c-a2b8-375581408be7","system_id":"levelo_inurba_marseille","lat":43.29133,"lon":5.42442,"is_reserved":false,"is_disabled":false,"rental_uris":{"android":"levelo://app?vid=4066804f-6245-416c-a2b8-375581408be7","ios":"levelo://app?vid=4066804f-6245-416c-a2b8-375581408be7"},"vehicle_type_id":"4","last_reported":1778774586,"current_range_meters":6000,"station_id":"","pricing_plan_id":"cebpf4jnsgd1na2vs0mg"},{"bike_id":"d42a7cf1-1fa2-40ee-b441-c73427ab11ef","system_id":"levelo_inurba_marseille","lat":43.23964,"lon":5.36634,"is_reserved":false,"is_disabled":false,"rental_uris":{"android":"levelo://app?vid=d42a7cf1-1fa2-40ee-b441-c73427ab11ef","ios":"levelo://app?vid=d42a7cf1-1fa2-40ee-b441-c73427ab11ef"},"vehicle_type_id":"4","last_reported":1778774586,"current_range_meters":6000,"station_id":"ce4bhi12rcd13ifvqfp0","pricing_plan_id":"cebpf4jnsgd1na2vs0mg"},{"bike_id":"d063157e-4207-4655-a56f-50106c7ef8bd","system_id":"levelo_inurba_marseille","lat":43.297118,"lon":5.365925,"is_reserved":false,"is_disabled":false,"rental_uris":{"android":"levelo://app?vid=d063157e-4207-4655-a56f-50106c7ef8bd","ios":"levelo://app?vid=d063157e-4207-4655-a56f-50106c7ef8bd"},"vehicle_type_id":"4","last_reported":1778774586,"current_range_meters":6000,"station_id":"ce4bgn12rcd13ifvqbt0","pricing_plan_id":"cebpf4jnsgd1na2vs0mg"},{"bike_id":"adb7682e-0820-429e-b1ed-db31bd26c227","system_id":"levelo_inurba_marseille","lat":43.2378,"lon":5.36632,"is_reserved":false,"is_disabled":false,"rental_uris":{"android":"levelo://app?vid=adb7682e-0820-429e-b1ed-db31bd26c227","ios":"levelo://app?vid=adb7682e-0820-429e-b1ed-db31bd26c227"},"vehicle_type_id":"4","last_reported":1778774586,"current_range_meters":6000,"station_id":"st_d3nk18o9ro0c73en2l3g","pricing_plan_id":"cebpf4jnsgd1na2vs0mg"},{"bike_id":"3c9fd14c-8db8-479c-846c-f3dc1ab44fd4","system_id":"levelo_inurba_marseille","lat":43.24739,"lon":5.3925,"is_reserved":false,"is_disabled":false,"rental_uris":{"android":"levelo://app?vid=3c9fd14c-8db8-479c-846c-f3dc1ab44fd4","ios":"levelo://app?vid=3c9fd14c-8db8-479c-846c-f3dc1ab44fd4"},"vehicle_type_id":"4","last_reported":1778774586,"current_range_meters":6000,"station_id":"","pricing_plan_id":"cebpf4jnsgd1na2vs0mg"},{"bike_id":"4808eafe-dc33-42cf-8220-b3819106f91b","system_id":"levelo_inurba_marseille","lat":43.26027,"lon":5.37573,"is_reserved":false,"is_disabled":false,"rental_uris":{"android":"levelo://app?vid=4808eafe-dc33-42cf-8220-b3819106f91b","ios":"levelo://app?vid=4808eafe-dc33-42cf-8220-b3819106f91b"},"vehicle_type_id":"4","last_reported":1778774586,"current_range_meters":6000,"station_id":"ce4bhgh2rcd13ifvqfa0","pricing_plan_id":"cebpf4jnsgd1na2vs0mg"},{"bike_id":"4d2f6501-f59d-42f5-8f2d-638fca42e820","system_id":"levelo_inurba_marseille","lat":43.28487,"lon":5.48388,"is_reserved":false,"is_disabled":false,"rental_uris":{"android":"levelo://app?vid=4d2f6501-f59d-42f5-8f2d-638fca42e820","ios":"levelo://app?vid=4d2f6501-f59d-42f5-8f2d-638fca42e820"},"vehicle_type_id":"4","last_reported":1778774586,"current_range_meters":6000,"station_id":"","pricing_plan_id":"cebpf4jnsgd1na2vs0mg"},{"bike_id":"ba3188a5-afa4-425f-9643-24ea1f47c11a","system_id":"levelo_inurba_marseille","lat":43.25496,"lon":5.37647,"is_reserved":false,"is_disabled":false,"rental_uris":{"android":"levelo://app?vid=ba3188a5-afa4-425f-9643-24ea1f47c11a","ios":"levelo://app?vid=ba3188a5-afa4-425f-9643-24ea1f47c11a"},"vehicle_type_id":"4","last_reported":1778774586,"current_range_meters":6000,"station_id":"ce4bhh12rcd13ifvqff0","pricing_plan_id":"cebpf4jnsgd1na2vs0mg"},{"bike_id":"43dc5ec9-cce1-48fb-99af-2b40ca7b9483","system_id":"levelo_inurba_marseille","lat":43.21747,"lon":5.34612,"is_reserved":false,"is_disabled":false,"rental_uris":{"android":"levelo://app?vid=43dc5ec9-cce1-48fb-99af-2b40ca7b9483","ios":"levelo://app?vid=43dc5ec9-cce1-48fb-99af-2b40ca7b9483"},"vehicle_type_id":"4","last_reported":1778774586,"current_range_meters":6400,"station_id":"st_cvj6r9ubvosntc0bgbag","pricing_plan_id":"cebpf4jnsgd1na2vs0mg"},{"bike_id":"c535ec2c-19c1-44c4-a485-084a2cc5acd3","system_id":"levelo_inurba_marseille","lat":43.26549,"lon":5.39059,"is_reserved":false,"is_disabled":false,"rental_uris":{"android":"levelo://app?vid=c535ec2c-19c1-44c4-a485-084a2cc5acd3","ios":"levelo://app?vid=c535ec2c-19c1-44c4-a485-084a2cc5acd3"},"vehicle_type_id":"4","last_reported":1778774586,"current_range_meters":6400,"station_id":"ce4bhe12rcd13ifvqf30","pricing_plan_id":"cebpf4jnsgd1na2vs0mg"},{"bike_id":"1708bcfb-6900-4ce4-8f2f-40e64297f7b6","system_id":"levelo_inurba_marseille","lat":43.23182,"lon":5.39982,"is_reserved":false,"is_disabled":false,"rental_uris":{"android":"levelo://app?vid=1708bcfb-6900-4ce4-8f2f-40e64297f7b6","ios":"levelo://app?vid=1708bcfb-6900-4ce4-8f2f-40e64297f7b6"},"vehicle_type_id":"4","last_reported":1778774586,"current_range_meters":6400,"station_id":"ce4bhn12rcd13ifvqgqg","pricing_plan_id":"cebpf4jnsgd1na2vs0mg"},{"bike_id":"dbe42d4b-141a-495c-81fb-2666146b6eff","system_id":"levelo_inurba_marseille","lat":43.27915,"lon":5.39587,"is_reserved":false,"is_disabled":false,"rental_uris":{"android":"levelo://app?vid=dbe42d4b-141a-495c-81fb-2666146b6eff","ios":"levelo://app?vid=dbe42d4b-141a-495c-81fb-2666146b6eff"},"vehicle_type_id":"4","last_reported":1778774586,"current_range_meters":6400,"station_id":"ce4bhf92rcd13ifvqf40","pricing_plan_id":"cebpf4jnsgd1na2vs0mg"},{"bike_id":"cd3ca658-5f20-4b9d-9d09-59756e78e9fc","system_id":"levelo_inurba_marseille","lat":43.33168,"lon":5.37684,"is_reserved":false,"is_disabled":false,"rental_uris":{"android":"levelo://app?vid=cd3ca658-5f20-4b9d-9d09-59756e78e9fc","ios":"levelo://app?vid=cd3ca658-5f20-4b9d-9d09-59756e78e9fc"},"vehicle_type_id":"4","last_reported":1778774586,"current_range_meters":6400,"station_id":"st_d46cu089ee8s73dldbu0","pricing_plan_id":"cebpf4jnsgd1na2vs0mg"},{"bike_id":"00197b90-d47f-4410-b9a1-eadbb6c4d657","system_id":"levelo_inurba_marseille","lat":43.25509,"lon":5.37654,"is_reserved":false,"is_disabled":false,"rental_uris":{"android":"levelo://app?vid=00197b90-d47f-4410-b9a1-eadbb6c4d657","ios":"levelo://app?vid=00197b90-d47f-4410-b9a1-eadbb6c4d657"},"vehicle_type_id":"4","last_reported":1778774586,"current_range_meters":6400,"station_id":"ce4bhh12rcd13ifvqff0","pricing_plan_id":"cebpf4jnsgd1na2vs0mg"},{"bike_id":"26269838-0fe9-466a-9025-bf00428cc702","system_id":"levelo_inurba_marseille","lat":43.29892,"lon":5.38914,"is_reserved":false,"is_disabled":false,"rental_uris":{"android":"levelo://app?vid=26269838-0fe9-466a-9025-bf00428cc702","ios":"levelo://app?vid=26269838-0fe9-466a-9025-bf00428cc702"},"vehicle_type_id":"4","last_reported":1778774586,"current_range_meters":6800,"station_id":"ce4bh392rcd13ifvqdl0","pricing_plan_id":"cebpf4jnsgd1na2vs0mg"},{"bike_id":"21f62998-3b95-4605-b6f0-64706b2c9dd0","system_id":"levelo_inurba_marseille","lat":43.30296,"lon":5.39214,"is_reserved":false,"is_disabled":false,"rental_uris":{"android":"levelo://app?vid=21f62998-3b95-4605-b6f0-64706b2c9dd0","ios":"levelo://app?vid=21f62998-3b95-4605-b6f0-64706b2c9dd0"},"vehicle_type_id":"4","last_reported":1778774586,"current_range_meters":6800,"station_id":"ce4bgkh2rcd13ifvqbk0","pricing_plan_id":"cebpf4jnsgd1na2vs0mg"},{"bike_id":"f009bb4b-625b-4482-8ff8-5aeca90a33f4","system_id":"levelo_inurba_marseille","lat":43.26219,"lon":5.37465,"is_reserved":false,"is_disabled":false,"rental_uris":{"android":"levelo://app?vid=f009bb4b-625b-4482-8ff8-5aeca90a33f4","ios":"levelo://app?vid=f009bb4b-625b-4482-8ff8-5aeca90a33f4"},"vehicle_type_id":"4","last_reported":1778774586,"current_range_meters":6800,"station_id":"ce4bhgp2rcd13ifvqfc0","pricing_plan_id":"cebpf4jnsgd1na2vs0mg"},{"bike_id":"e4bbe857-8f7e-43ae-95d5-01547206757c","system_id":"levelo_inurba_marseille","lat":43.33751,"lon":5.37458,"is_reserved":false,"is_disabled":false,"rental_uris":{"android":"levelo://app?vid=e4bbe857-8f7e-43ae-95d5-01547206757c","ios":"levelo://app?vid=e4bbe857-8f7e-43ae-95d5-01547206757c"},"vehicle_type_id":"4","last_reported":1778774586,"current_range_meters":6800,"station_id":"","pricing_plan_id":"cebpf4jnsgd1na2vs0mg"},{"bike_id":"b7aef511-a30b-48e6-924f-5b7ff92819c7","system_id":"levelo_inurba_marseille","lat":43.28155,"lon":5.42657,"is_reserved":false,"is_disabled":false,"rental_uris":{"android":"levelo://app?vid=b7aef511-a30b-48e6-924f-5b7ff92819c7","ios":"levelo://app?vid=b7aef511-a30b-48e6-924f-5b7ff92819c7"},"vehicle_type_id":"4","last_reported":1778774586,"current_range_meters":6800,"station_id":"ce4bhnh2rcd13ifvqgug","pricing_plan_id":"cebpf4jnsgd1na2vs0mg"},{"bike_id":"9a692f79-8a09-4f23-b8ea-84237349bfe2","system_id":"levelo_inurba_marseille","lat":43.25569,"lon":5.38237,"is_reserved":false,"is_disabled":false,"rental_uris":{"android":"levelo://app?vid=9a692f79-8a09-4f23-b8ea-84237349bfe2","ios":"levelo://app?vid=9a692f79-8a09-4f23-b8ea-84237349bfe2"},"vehicle_type_id":"4","last_reported":1778774586,"current_range_meters":6800,"station_id":"ce4bhih2rcd13ifvqfs0","pricing_plan_id":"cebpf4jnsgd1na2vs0mg"},{"bike_id":"c94a37b4-72da-4347-b58a-1e022985b99b","system_id":"levelo_inurba_marseille","lat":43.3054,"lon":5.3656,"is_reserved":false,"is_disabled":false,"rental_uris":{"android":"levelo://app?vid=c94a37b4-72da-4347-b58a-1e022985b99b","ios":"levelo://app?vid=c94a37b4-72da-4347-b58a-1e022985b99b"},"vehicle_type_id":"4","last_reported":1778774586,"current_range_meters":6800,"station_id":"ce4bgs12rcd13ifvqcag","pricing_plan_id":"cebpf4jnsgd1na2vs0mg"},{"bike_id":"50942a80-0af0-4748-8971-33d8413e0f46","system_id":"levelo_inurba_marseille","lat":43.29962,"lon":5.38498,"is_reserved":false,"is_disabled":false,"rental_uris":{"android":"levelo://app?vid=50942a80-0af0-4748-8971-33d8413e0f46","ios":"levelo://app?vid=50942a80-0af0-4748-8971-33d8413e0f46"},"vehicle_type_id":"4","last_reported":1778774586,"current_range_meters":6800,"station_id":"ce4bgj92rcd13ifvqbd0","pricing_plan_id":"cebpf4jnsgd1na2vs0mg"},{"bike_id":"9294d1af-87c4-471a-8bf8-ae8ba1cf59ee","system_id":"levelo_inurba_marseille","lat":43.28476,"lon":5.38417,"is_reserved":false,"is_disabled":false,"rental_uris":{"android":"levelo://app?vid=9294d1af-87c4-471a-8bf8-ae8ba1cf59ee","ios":"levelo://app?vid=9294d1af-87c4-471a-8bf8-ae8ba1cf59ee"},"vehicle_type_id":"4","last_reported":1778774586,"current_range_meters":6800,"station_id":"ce4bh512rcd13ifvqe3g","pricing_plan_id":"cebpf4jnsgd1na2vs0mg"},{"bike_id":"9ab268a0-a8ea-4091-be12-135023a9af46","system_id":"levelo_inurba_marseille","lat":43.3039,"lon":5.39711,"is_reserved":false,"is_disabled":false,"rental_uris":{"android":"levelo://app?vid=9ab268a0-a8ea-4091-be12-135023a9af46","ios":"levelo://app?vid=9ab268a0-a8ea-4091-be12-135023a9af46"},"vehicle_type_id":"4","last_reported":1778774586,"current_range_meters":6800,"station_id":"","pricing_plan_id":"cebpf4jnsgd1na2vs0mg"},{"bike_id":"4590e4d9-0d19-4f5c-a038-6cb082d06753","system_id":"levelo_inurba_marseille","lat":43.30299,"lon":5.39216,"is_reserved":false,"is_disabled":false,"rental_uris":{"android":"levelo://app?vid=4590e4d9-0d19-4f5c-a038-6cb082d06753","ios":"levelo://app?vid=4590e4d9-0d19-4f5c-a038-6cb082d06753"},"vehicle_type_id":"4","last_reported":1778774586,"current_range_meters":6800,"station_id":"ce4bgkh2rcd13ifvqbk0","pricing_plan_id":"cebpf4jnsgd1na2vs0mg"},{"bike_id":"af705914-bb9c-47f1-9802-e7ff0d2548f0","system_id":"levelo_inurba_marseille","lat":43.25484,"lon":5.37629,"is_reserved":false,"is_disabled":false,"rental_uris":{"android":"levelo://app?vid=af705914-bb9c-47f1-9802-e7ff0d2548f0","ios":"levelo://app?vid=af705914-bb9c-47f1-9802-e7ff0d2548f0"},"vehicle_type_id":"4","last_reported":1778774586,"current_range_meters":6800,"station_id":"ce4bhh12rcd13ifvqff0","pricing_plan_id":"cebpf4jnsgd1na2vs0mg"},{"bike_id":"27c37f43-39bd-4db9-b8a5-30b715be0e82","system_id":"levelo_inurba_marseille","lat":43.297062,"lon":5.366114,"is_reserved":false,"is_disabled":false,"rental_uris":{"android":"levelo://app?vid=27c37f43-39bd-4db9-b8a5-30b715be0e82","ios":"levelo://app?vid=27c37f43-39bd-4db9-b8a5-30b715be0e82"},"vehicle_type_id":"4","last_reported":1778774586,"current_range_meters":6800,"station_id":"ce4bgn12rcd13ifvqbt0","pricing_plan_id":"cebpf4jnsgd1na2vs0mg"},{"bike_id":"8d5ec57f-299d-498b-a34e-f9d081b0794b","system_id":"levelo_inurba_marseille","lat":43.29184,"lon":5.39328,"is_reserved":false,"is_disabled":false,"rental_uris":{"android":"levelo://app?vid=8d5ec57f-299d-498b-a34e-f9d081b0794b","ios":"levelo://app?vid=8d5ec57f-299d-498b-a34e-f9d081b0794b"},"vehicle_type_id":"4","last_reported":1778774586,"current_range_meters":6800,"station_id":"ce4bh192rcd13ifvqdd0","pricing_plan_id":"cebpf4jnsgd1na2vs0mg"},{"bike_id":"74e0a55c-f728-403a-abcb-753e42b18540","system_id":"levelo_inurba_marseille","lat":43.28862,"lon":5.42524,"is_reserved":false,"is_disabled":false,"rental_uris":{"android":"levelo://app?vid=74e0a55c-f728-403a-abcb-753e42b18540","ios":"levelo://app?vid=74e0a55c-f728-403a-abcb-753e42b18540"},"vehicle_type_id":"4","last_reported":1778774586,"current_range_meters":6800,"station_id":"st_d3b462108ojc7389ooeg","pricing_plan_id":"cebpf4jnsgd1na2vs0mg"},{"bike_id":"fa5cc865-27c0-4eff-a13a-2198b1912d62","system_id":"levelo_inurba_marseille","lat":43.2827,"lon":5.39059,"is_reserved":false,"is_disabled":false,"rental_uris":{"android":"levelo://app?vid=fa5cc865-27c0-4eff-a13a-2198b1912d62","ios":"levelo://app?vid=fa5cc865-27c0-4eff-a13a-2198b1912d62"},"vehicle_type_id":"4","last_reported":1778774586,"current_range_meters":6800,"station_id":"ce4bhn92rcd13ifvqgsg","pricing_plan_id":"cebpf4jnsgd1na2vs0mg"},{"bike_id":"d1be613e-085b-4259-9861-d62c7bd1b056","system_id":"levelo_inurba_marseille","lat":43.31892,"lon":5.36814,"is_reserved":false,"is_disabled":false,"rental_uris":{"android":"levelo://app?vid=d1be613e-085b-4259-9861-d62c7bd1b056","ios":"levelo://app?vid=d1be613e-085b-4259-9861-d62c7bd1b056"},"vehicle_type_id":"4","last_reported":1778774586,"current_range_meters":6800,"station_id":"st_d6o2h0d0559c73evc1b0","pricing_plan_id":"cebpf4jnsgd1na2vs0mg"},{"bike_id":"11bfc38c-9d4c-45ee-b922-1948cd421490","system_id":"levelo_inurba_marseille","lat":43.24828,"lon":5.37465,"is_reserved":false,"is_disabled":false,"rental_uris":{"android":"levelo://app?vid=11bfc38c-9d4c-45ee-b922-1948cd421490","ios":"levelo://app?vid=11bfc38c-9d4c-45ee-b922-1948cd421490"},"vehicle_type_id":"4","last_reported":1778774586,"current_range_meters":7200,"station_id":"ce4bhgh2rcd13ifvqfb0","pricing_plan_id":"cebpf4jnsgd1na2vs0mg"},{"bike_id":"403abfca-db03-47e4-b8c9-06a6b97b58d4","system_id":"levelo_inurba_marseille","lat":43.33218,"lon":5.43052,"is_reserved":false,"is_disabled":false,"rental_uris":{"android":"levelo://app?vid=403abfca-db03-47e4-b8c9-06a6b97b58d4","ios":"levelo://app?vid=403abfca-db03-47e4-b8c9-06a6b97b58d4"},"vehicle_type_id":"4","last_reported":1778774586,"current_range_meters":7200,"station_id":"","pricing_plan_id":"cebpf4jnsgd1na2vs0mg"},{"bike_id":"527b2ef1-fc72-454f-b26f-256571cce3c9","system_id":"levelo_inurba_marseille","lat":43.26231,"lon":5.38773,"is_reserved":false,"is_disabled":false,"rental_uris":{"android":"levelo://app?vid=527b2ef1-fc72-454f-b26f-256571cce3c9","ios":"levelo://app?vid=527b2ef1-fc72-454f-b26f-256571cce3c9"},"vehicle_type_id":"4","last_reported":1778774586,"current_range_meters":7200,"station_id":"","pricing_plan_id":"cebpf4jnsgd1na2vs0mg"},{"bike_id":"f31498d2-83f5-4dfa-ac97-6cb5ec6bd8f4","system_id":"levelo_inurba_marseille","lat":43.28565,"lon":5.39501,"is_reserved":false,"is_disabled":false,"rental_uris":{"android":"levelo://app?vid=f31498d2-83f5-4dfa-ac97-6cb5ec6bd8f4","ios":"levelo://app?vid=f31498d2-83f5-4dfa-ac97-6cb5ec6bd8f4"},"vehicle_type_id":"4","last_reported":1778774586,"current_range_meters":7200,"station_id":"ce4bh292rcd13ifvqdg0","pricing_plan_id":"cebpf4jnsgd1na2vs0mg"},{"bike_id":"3eb17ea7-504c-4154-a442-3f77f9eb2f74","system_id":"levelo_inurba_marseille","lat":43.25492,"lon":5.37646,"is_reserved":false,"is_disabled":false,"rental_uris":{"android":"levelo://app?vid=3eb17ea7-504c-4154-a442-3f77f9eb2f74","ios":"levelo://app?vid=3eb17ea7-504c-4154-a442-3f77f9eb2f74"},"vehicle_type_id":"4","last_reported":1778774586,"current_range_meters":7200,"station_id":"ce4bhh12rcd13ifvqff0","pricing_plan_id":"cebpf4jnsgd1na2vs0mg"},{"bike_id":"c1aea499-d26f-49bf-8367-447ce7aec604","system_id":"levelo_inurba_marseille","lat":43.25347,"lon":5.42169,"is_reserved":false,"is_disabled":false,"rental_uris":{"android":"levelo://app?vid=c1aea499-d26f-49bf-8367-447ce7aec604","ios":"levelo://app?vid=c1aea499-d26f-49bf-8367-447ce7aec604"},"vehicle_type_id":"4","last_reported":1778774586,"current_range_meters":7200,"station_id":"st_d2m65c5bi1j21697t3ng","pricing_plan_id":"cebpf4jnsgd1na2vs0mg"},{"bike_id":"cf86c92c-3641-4c56-b4a8-89ebd58517ee","system_id":"levelo_inurba_marseille","lat":43.32122,"lon":5.36756,"is_reserved":false,"is_disabled":false,"rental_uris":{"android":"levelo://app?vid=cf86c92c-3641-4c56-b4a8-89ebd58517ee","ios":"levelo://app?vid=cf86c92c-3641-4c56-b4a8-89ebd58517ee"},"vehicle_type_id":"4","last_reported":1778774586,"current_range_meters":7200,"station_id":"ce4bhrh2rcd13ifvqhug","pricing_plan_id":"cebpf4jnsgd1na2vs0mg"},{"bike_id":"89dd55db-b094-46ef-b40d-ec82e3e1c561","system_id":"levelo_inurba_marseille","lat":43.29027,"lon":5.38646,"is_reserved":false,"is_disabled":false,"rental_uris":{"android":"levelo://app?vid=89dd55db-b094-46ef-b40d-ec82e3e1c561","ios":"levelo://app?vid=89dd55db-b094-46ef-b40d-ec82e3e1c561"},"vehicle_type_id":"4","last_reported":1778774586,"current_range_meters":7200,"station_id":"ce4bh4p2rcd13ifvqe0g","pricing_plan_id":"cebpf4jnsgd1na2vs0mg"},{"bike_id":"2bdc3a85-3a89-4a51-8d56-caea0e4ab4b6","system_id":"levelo_inurba_marseille","lat":43.279753,"lon":5.387496,"is_reserved":false,"is_disabled":false,"rental_uris":{"android":"levelo://app?vid=2bdc3a85-3a89-4a51-8d56-caea0e4ab4b6","ios":"levelo://app?vid=2bdc3a85-3a89-4a51-8d56-caea0e4ab4b6"},"vehicle_type_id":"4","last_reported":1778774586,"current_range_meters":7200,"station_id":"ce4bhg12rcd13ifvqf80","pricing_plan_id":"cebpf4jnsgd1na2vs0mg"},{"bike_id":"bdbca204-a816-4d64-82e4-c899c096473c","system_id":"levelo_inurba_marseille","lat":43.30467,"lon":5.37912,"is_reserved":false,"is_disabled":false,"rental_uris":{"android":"levelo://app?vid=bdbca204-a816-4d64-82e4-c899c096473c","ios":"levelo://app?vid=bdbca204-a816-4d64-82e4-c899c096473c"},"vehicle_type_id":"4","last_reported":1778774586,"current_range_meters":7200,"station_id":"ce4bgup2rcd13ifvqcn0","pricing_plan_id":"cebpf4jnsgd1na2vs0mg"},{"bike_id":"fb6a4e03-6a4e-4ff2-aa3f-8e60f26d6bc9","system_id":"levelo_inurba_marseille","lat":43.28861,"lon":5.35847,"is_reserved":false,"is_disabled":false,"rental_uris":{"android":"levelo://app?vid=fb6a4e03-6a4e-4ff2-aa3f-8e60f26d6bc9","ios":"levelo://app?vid=fb6a4e03-6a4e-4ff2-aa3f-8e60f26d6bc9"},"vehicle_type_id":"4","last_reported":1778774586,"current_range_meters":7200,"station_id":"ce4bhb12rcd13ifvqem0","pricing_plan_id":"cebpf4jnsgd1na2vs0mg"},{"bike_id":"c5064abb-27d9-4d07-bd29-66b9a47551af","system_id":"levelo_inurba_marseille","lat":43.287017,"lon":5.399889,"is_reserved":false,"is_disabled":false,"rental_uris":{"android":"levelo://app?vid=c5064abb-27d9-4d07-bd29-66b9a47551af","ios":"levelo://app?vid=c5064abb-27d9-4d07-bd29-66b9a47551af"},"vehicle_type_id":"4","last_reported":1778774586,"current_range_meters":7200,"station_id":"ce4bho92rcd13ifvqh3g","pricing_plan_id":"cebpf4jnsgd1na2vs0mg"},{"bike_id":"8af38655-e65c-465e-83e2-1c3ed295a51f","system_id":"levelo_inurba_marseille","lat":43.24436,"lon":5.42499,"is_reserved":false,"is_disabled":false,"rental_uris":{"android":"levelo://app?vid=8af38655-e65c-465e-83e2-1c3ed295a51f","ios":"levelo://app?vid=8af38655-e65c-465e-83e2-1c3ed295a51f"},"vehicle_type_id":"4","last_reported":1778774586,"current_range_meters":8000,"station_id":"","pricing_plan_id":"cebpf4jnsgd1na2vs0mg"},{"bike_id":"b2b4314a-5925-4700-bab3-038d34f53a7d","system_id":"levelo_inurba_marseille","lat":43.28708,"lon":5.46691,"is_reserved":false,"is_disabled":false,"rental_uris":{"android":"levelo://app?vid=b2b4314a-5925-4700-bab3-038d34f53a7d","ios":"levelo://app?vid=b2b4314a-5925-4700-bab3-038d34f53a7d"},"vehicle_type_id":"4","last_reported":1778774586,"current_range_meters":8000,"station_id":"st_d6tc3vkotcvc738tfjhg","pricing_plan_id":"cebpf4jnsgd1na2vs0mg"},{"bike_id":"003baca3-1b51-47a6-bbf5-e479a5ad0ebd","system_id":"levelo_inurba_marseille","lat":43.33565,"lon":5.37482,"is_reserved":false,"is_disabled":false,"rental_uris":{"android":"levelo://app?vid=003baca3-1b51-47a6-bbf5-e479a5ad0ebd","ios":"levelo://app?vid=003baca3-1b51-47a6-bbf5-e479a5ad0ebd"},"vehicle_type_id":"4","last_reported":1778774586,"current_range_meters":8000,"station_id":"st_d46tts09ee8s73dlu43g","pricing_plan_id":"cebpf4jnsgd1na2vs0mg"},{"bike_id":"c3c82a64-b21c-49b8-b7e2-35d28eb274f7","system_id":"levelo_inurba_marseille","lat":43.27075,"lon":5.42315,"is_reserved":false,"is_disabled":false,"rental_uris":{"android":"levelo://app?vid=c3c82a64-b21c-49b8-b7e2-35d28eb274f7","ios":"levelo://app?vid=c3c82a64-b21c-49b8-b7e2-35d28eb274f7"},"vehicle_type_id":"4","last_reported":1778774586,"current_range_meters":8000,"station_id":"ce4bhk92rcd13ifvqgb0","pricing_plan_id":"cebpf4jnsgd1na2vs0mg"},{"bike_id":"bb1b101c-ac36-488b-8d45-73946554b566","system_id":"levelo_inurba_marseille","lat":43.26371,"lon":5.41081,"is_reserved":false,"is_disabled":false,"rental_uris":{"android":"levelo://app?vid=bb1b101c-ac36-488b-8d45-73946554b566","ios":"levelo://app?vid=bb1b101c-ac36-488b-8d45-73946554b566"},"vehicle_type_id":"4","last_reported":1778774586,"current_range_meters":8000,"station_id":"st_d4e5ca6na9uc73bfl5fg","pricing_plan_id":"cebpf4jnsgd1na2vs0mg"},{"bike_id":"45fc671d-af66-4d62-92fc-b06bbfe5d962","system_id":"levelo_inurba_marseille","lat":43.30135,"lon":5.38795,"is_reserved":false,"is_disabled":false,"rental_uris":{"android":"levelo://app?vid=45fc671d-af66-4d62-92fc-b06bbfe5d962","ios":"levelo://app?vid=45fc671d-af66-4d62-92fc-b06bbfe5d962"},"vehicle_type_id":"4","last_reported":1778774586,"current_range_meters":8000,"station_id":"ce4bghh2rcd13ifvqb60","pricing_plan_id":"cebpf4jnsgd1na2vs0mg"},{"bike_id":"a805dd41-a9d9-4ba0-b517-cd11edd5e755","system_id":"levelo_inurba_marseille","lat":43.28535,"lon":5.44097,"is_reserved":false,"is_disabled":false,"rental_uris":{"android":"levelo://app?vid=a805dd41-a9d9-4ba0-b517-cd11edd5e755","ios":"levelo://app?vid=a805dd41-a9d9-4ba0-b517-cd11edd5e755"},"vehicle_type_id":"4","last_reported":1778774586,"current_range_meters":8000,"station_id":"st_d3j3df2ikq2c7380ej80","pricing_plan_id":"cebpf4jnsgd1na2vs0mg"},{"bike_id":"3f8fe7aa-9700-4c13-8a06-032b6fad2893","system_id":"levelo_inurba_marseille","lat":43.27676,"lon":5.38894,"is_reserved":false,"is_disabled":false,"rental_uris":{"android":"levelo://app?vid=3f8fe7aa-9700-4c13-8a06-032b6fad2893","ios":"levelo://app?vid=3f8fe7aa-9700-4c13-8a06-032b6fad2893"},"vehicle_type_id":"4","last_reported":1778774586,"current_range_meters":8000,"station_id":"ce4bhi12rcd13ifvqfo0","pricing_plan_id":"cebpf4jnsgd1na2vs0mg"},{"bike_id":"cc90a0a8-a1f0-4a30-a8be-482630da4418","system_id":"levelo_inurba_marseille","lat":43.29739,"lon":5.37675,"is_reserved":false,"is_disabled":false,"rental_uris":{"android":"levelo://app?vid=cc90a0a8-a1f0-4a30-a8be-482630da4418","ios":"levelo://app?vid=cc90a0a8-a1f0-4a30-a8be-482630da4418"},"vehicle_type_id":"4","last_reported":1778774586,"current_range_meters":8000,"station_id":"ce4bgkh2rcd13ifvqbl0","pricing_plan_id":"cebpf4jnsgd1na2vs0mg"},{"bike_id":"b1aeb62c-99d7-42de-90eb-0e40a0a34789","system_id":"levelo_inurba_marseille","lat":43.31426,"lon":5.38466,"is_reserved":false,"is_disabled":false,"rental_uris":{"android":"levelo://app?vid=b1aeb62c-99d7-42de-90eb-0e40a0a34789","ios":"levelo://app?vid=b1aeb62c-99d7-42de-90eb-0e40a0a34789"},"vehicle_type_id":"4","last_reported":1778774586,"current_range_meters":8000,"station_id":"","pricing_plan_id":"cebpf4jnsgd1na2vs0mg"},{"bike_id":"ef177c26-6847-405e-8041-8dba91c23ec7","system_id":"levelo_inurba_marseille","lat":43.26546,"lon":5.39066,"is_reserved":false,"is_disabled":false,"rental_uris":{"android":"levelo://app?vid=ef177c26-6847-405e-8041-8dba91c23ec7","ios":"levelo://app?vid=ef177c26-6847-405e-8041-8dba91c23ec7"},"vehicle_type_id":"4","last_reported":1778774586,"current_range_meters":8000,"station_id":"","pricing_plan_id":"cebpf4jnsgd1na2vs0mg"},{"bike_id":"d6adf282-33cc-4281-99d4-4a05d704eed4","system_id":"levelo_inurba_marseille","lat":43.25494,"lon":5.37619,"is_reserved":false,"is_disabled":false,"rental_uris":{"android":"levelo://app?vid=d6adf282-33cc-4281-99d4-4a05d704eed4","ios":"levelo://app?vid=d6adf282-33cc-4281-99d4-4a05d704eed4"},"vehicle_type_id":"4","last_reported":1778774586,"current_range_meters":8000,"station_id":"ce4bhh12rcd13ifvqff0","pricing_plan_id":"cebpf4jnsgd1na2vs0mg"},{"bike_id":"9062255f-0238-4e6e-b972-b53f3708ba09","system_id":"levelo_inurba_marseille","lat":43.25342,"lon":5.42162,"is_reserved":false,"is_disabled":false,"rental_uris":{"android":"levelo://app?vid=9062255f-0238-4e6e-b972-b53f3708ba09","ios":"levelo://app?vid=9062255f-0238-4e6e-b972-b53f3708ba09"},"vehicle_type_id":"4","last_reported":1778774586,"current_range_meters":8000,"station_id":"st_d2m65c5bi1j21697t3ng","pricing_plan_id":"cebpf4jnsgd1na2vs0mg"},{"bike_id":"97bdca69-0922-448f-9cfa-000c9f6d1527","system_id":"levelo_inurba_marseille","lat":43.27992,"lon":5.4001,"is_reserved":false,"is_disabled":false,"rental_uris":{"android":"levelo://app?vid=97bdca69-0922-448f-9cfa-000c9f6d1527","ios":"levelo://app?vid=97bdca69-0922-448f-9cfa-000c9f6d1527"},"vehicle_type_id":"4","last_reported":1778774586,"current_range_meters":8000,"station_id":"ce4bho92rcd13ifvqh4g","pricing_plan_id":"cebpf4jnsgd1na2vs0mg"},{"bike_id":"67c33de1-d483-4d00-89f7-aaa72dae46fe","system_id":"levelo_inurba_marseille","lat":43.2958,"lon":5.3752,"is_reserved":false,"is_disabled":false,"rental_uris":{"android":"levelo://app?vid=67c33de1-d483-4d00-89f7-aaa72dae46fe","ios":"levelo://app?vid=67c33de1-d483-4d00-89f7-aaa72dae46fe"},"vehicle_type_id":"4","last_reported":1778774586,"current_range_meters":8000,"station_id":"ce4bgh92rcd13ifvqb50","pricing_plan_id":"cebpf4jnsgd1na2vs0mg"},{"bike_id":"793614a0-4a6f-4843-b8fe-153398d9bdc0","system_id":"levelo_inurba_marseille","lat":43.26213,"lon":5.3745,"is_reserved":false,"is_disabled":false,"rental_uris":{"android":"levelo://app?vid=793614a0-4a6f-4843-b8fe-153398d9bdc0","ios":"levelo://app?vid=793614a0-4a6f-4843-b8fe-153398d9bdc0"},"vehicle_type_id":"4","last_reported":1778774586,"current_range_meters":8000,"station_id":"ce4bhgp2rcd13ifvqfc0","pricing_plan_id":"cebpf4jnsgd1na2vs0mg"},{"bike_id":"b568065c-d186-44e1-b78e-42efe742176f","system_id":"levelo_inurba_marseille","lat":43.2901,"lon":5.38644,"is_reserved":false,"is_disabled":false,"rental_uris":{"android":"levelo://app?vid=b568065c-d186-44e1-b78e-42efe742176f","ios":"levelo://app?vid=b568065c-d186-44e1-b78e-42efe742176f"},"vehicle_type_id":"4","last_reported":1778774586,"current_range_meters":8000,"station_id":"ce4bh4p2rcd13ifvqe0g","pricing_plan_id":"cebpf4jnsgd1na2vs0mg"},{"bike_id":"01075c60-93ec-4ca4-8341-6560bf09a02b","system_id":"levelo_inurba_marseille","lat":43.29176,"lon":5.37153,"is_reserved":false,"is_disabled":false,"rental_uris":{"android":"levelo://app?vid=01075c60-93ec-4ca4-8341-6560bf09a02b","ios":"levelo://app?vid=01075c60-93ec-4ca4-8341-6560bf09a02b"},"vehicle_type_id":"4","last_reported":1778774586,"current_range_meters":8000,"station_id":"ce4bha92rcd13ifvqeh0","pricing_plan_id":"cebpf4jnsgd1na2vs0mg"},{"bike_id":"befa7ca9-07da-4b3a-822a-5e23279d9209","system_id":"levelo_inurba_marseille","lat":43.29524,"lon":5.42285,"is_reserved":false,"is_disabled":false,"rental_uris":{"android":"levelo://app?vid=befa7ca9-07da-4b3a-822a-5e23279d9209","ios":"levelo://app?vid=befa7ca9-07da-4b3a-822a-5e23279d9209"},"vehicle_type_id":"4","last_reported":1778774586,"current_range_meters":8000,"station_id":"ce4bhph2rcd13ifvqhdg","pricing_plan_id":"cebpf4jnsgd1na2vs0mg"},{"bike_id":"b97ca2c9-214e-411d-929b-8472faf4cb9e","system_id":"levelo_inurba_marseille","lat":43.27373,"lon":5.36245,"is_reserved":false,"is_disabled":false,"rental_uris":{"android":"levelo://app?vid=b97ca2c9-214e-411d-929b-8472faf4cb9e","ios":"levelo://app?vid=b97ca2c9-214e-411d-929b-8472faf4cb9e"},"vehicle_type_id":"4","last_reported":1778774586,"current_range_meters":8000,"station_id":"ce4bhbh2rcd13ifvqeo0","pricing_plan_id":"cebpf4jnsgd1na2vs0mg"},{"bike_id":"56f10c3c-5d40-4146-aea1-bd5b16dc8ee8","system_id":"levelo_inurba_marseille","lat":43.33187,"lon":5.40657,"is_reserved":false,"is_disabled":false,"rental_uris":{"android":"levelo://app?vid=56f10c3c-5d40-4146-aea1-bd5b16dc8ee8","ios":"levelo://app?vid=56f10c3c-5d40-4146-aea1-bd5b16dc8ee8"},"vehicle_type_id":"4","last_reported":1778774586,"current_range_meters":8000,"station_id":"","pricing_plan_id":"cebpf4jnsgd1na2vs0mg"},{"bike_id":"1d02edc8-0afa-4a55-b8a7-edaae5a47512","system_id":"levelo_inurba_marseille","lat":43.28695,"lon":5.42734,"is_reserved":false,"is_disabled":false,"rental_uris":{"android":"levelo://app?vid=1d02edc8-0afa-4a55-b8a7-edaae5a47512","ios":"levelo://app?vid=1d02edc8-0afa-4a55-b8a7-edaae5a47512"},"vehicle_type_id":"4","last_reported":1778774586,"current_range_meters":8000,"station_id":"","pricing_plan_id":"cebpf4jnsgd1na2vs0mg"},{"bike_id":"92724ea8-fb0c-453a-b083-9f4409c2a025","system_id":"levelo_inurba_marseille","lat":43.28679,"lon":5.38651,"is_reserved":false,"is_disabled":false,"rental_uris":{"android":"levelo://app?vid=92724ea8-fb0c-453a-b083-9f4409c2a025","ios":"levelo://app?vid=92724ea8-fb0c-453a-b083-9f4409c2a025"},"vehicle_type_id":"4","last_reported":1778774586,"current_range_meters":8000,"station_id":"ce4bh492rcd13ifvqdug","pricing_plan_id":"cebpf4jnsgd1na2vs0mg"},{"bike_id":"c406066e-e967-488d-904a-207ad82739d7","system_id":"levelo_inurba_marseille","lat":43.29206,"lon":5.35805,"is_reserved":false,"is_disabled":false,"rental_uris":{"android":"levelo://app?vid=c406066e-e967-488d-904a-207ad82739d7","ios":"levelo://app?vid=c406066e-e967-488d-904a-207ad82739d7"},"vehicle_type_id":"4","last_reported":1778774586,"current_range_meters":8000,"station_id":"ce4bhb12rcd13ifvqel0","pricing_plan_id":"cebpf4jnsgd1na2vs0mg"},{"bike_id":"2e05043f-f4c6-421a-b462-0187139a3133","system_id":"levelo_inurba_marseille","lat":43.3133,"lon":5.3974,"is_reserved":false,"is_disabled":false,"rental_uris":{"android":"levelo://app?vid=2e05043f-f4c6-421a-b462-0187139a3133","ios":"levelo://app?vid=2e05043f-f4c6-421a-b462-0187139a3133"},"vehicle_type_id":"4","last_reported":1778774586,"current_range_meters":8400,"station_id":"ce4bgvp2rcd13ifvqcu0","pricing_plan_id":"cebpf4jnsgd1na2vs0mg"},{"bike_id":"5608188d-af23-46a0-ab1a-2bcb89be4f60","system_id":"levelo_inurba_marseille","lat":43.24679,"lon":5.38164,"is_reserved":false,"is_disabled":false,"rental_uris":{"android":"levelo://app?vid=5608188d-af23-46a0-ab1a-2bcb89be4f60","ios":"levelo://app?vid=5608188d-af23-46a0-ab1a-2bcb89be4f60"},"vehicle_type_id":"4","last_reported":1778774586,"current_range_meters":8400,"station_id":"ce4bhih2rcd13ifvqfr0","pricing_plan_id":"cebpf4jnsgd1na2vs0mg"},{"bike_id":"37970aa0-f7cd-4960-a944-b5d7e25f49f5","system_id":"levelo_inurba_marseille","lat":43.28628,"lon":5.36115,"is_reserved":false,"is_disabled":false,"rental_uris":{"android":"levelo://app?vid=37970aa0-f7cd-4960-a944-b5d7e25f49f5","ios":"levelo://app?vid=37970aa0-f7cd-4960-a944-b5d7e25f49f5"},"vehicle_type_id":"4","last_reported":1778774586,"current_range_meters":8400,"station_id":"","pricing_plan_id":"cebpf4jnsgd1na2vs0mg"},{"bike_id":"b4acfc64-8735-4be3-b4a5-218b71f64ea4","system_id":"levelo_inurba_marseille","lat":43.29875,"lon":5.38896,"is_reserved":false,"is_disabled":false,"rental_uris":{"android":"levelo://app?vid=b4acfc64-8735-4be3-b4a5-218b71f64ea4","ios":"levelo://app?vid=b4acfc64-8735-4be3-b4a5-218b71f64ea4"},"vehicle_type_id":"4","last_reported":1778774586,"current_range_meters":8400,"station_id":"ce4bh392rcd13ifvqdl0","pricing_plan_id":"cebpf4jnsgd1na2vs0mg"},{"bike_id":"bffb634c-91ba-4f4a-b2db-6ccba08ac42e","system_id":"levelo_inurba_marseille","lat":43.29878,"lon":5.38919,"is_reserved":false,"is_disabled":true,"rental_uris":{"android":"levelo://app?vid=bffb634c-91ba-4f4a-b2db-6ccba08ac42e","ios":"levelo://app?vid=bffb634c-91ba-4f4a-b2db-6ccba08ac42e"},"vehicle_type_id":"4","last_reported":1778774586,"current_range_meters":8400,"station_id":"ce4bh392rcd13ifvqdl0","pricing_plan_id":"cebpf4jnsgd1na2vs0mg"},{"bike_id":"7ab4ae67-6681-42d6-ba71-37cc55561d1c","system_id":"levelo_inurba_marseille","lat":43.30477,"lon":5.37908,"is_reserved":false,"is_disabled":false,"rental_uris":{"android":"levelo://app?vid=7ab4ae67-6681-42d6-ba71-37cc55561d1c","ios":"levelo://app?vid=7ab4ae67-6681-42d6-ba71-37cc55561d1c"},"vehicle_type_id":"4","last_reported":1778774586,"current_range_meters":8400,"station_id":"ce4bgup2rcd13ifvqcn0","pricing_plan_id":"cebpf4jnsgd1na2vs0mg"},{"bike_id":"203c3a9c-fc85-447d-a294-e61e6217ca54","system_id":"levelo_inurba_marseille","lat":43.30525,"lon":5.36542,"is_reserved":false,"is_disabled":false,"rental_uris":{"android":"levelo://app?vid=203c3a9c-fc85-447d-a294-e61e6217ca54","ios":"levelo://app?vid=203c3a9c-fc85-447d-a294-e61e6217ca54"},"vehicle_type_id":"4","last_reported":1778774586,"current_range_meters":8400,"station_id":"ce4bgs12rcd13ifvqcag","pricing_plan_id":"cebpf4jnsgd1na2vs0mg"},{"bike_id":"97584df1-b6f6-4d5b-a233-f0962dc7cb39","system_id":"levelo_inurba_marseille","lat":43.26033,"lon":5.37552,"is_reserved":false,"is_disabled":false,"rental_uris":{"android":"levelo://app?vid=97584df1-b6f6-4d5b-a233-f0962dc7cb39","ios":"levelo://app?vid=97584df1-b6f6-4d5b-a233-f0962dc7cb39"},"vehicle_type_id":"4","last_reported":1778774586,"current_range_meters":8400,"station_id":"ce4bhgh2rcd13ifvqfa0","pricing_plan_id":"cebpf4jnsgd1na2vs0mg"},{"bike_id":"992041d5-4e17-4512-8359-e953d647cb03","system_id":"levelo_inurba_marseille","lat":43.291905,"lon":5.358099,"is_reserved":false,"is_disabled":false,"rental_uris":{"android":"levelo://app?vid=992041d5-4e17-4512-8359-e953d647cb03","ios":"levelo://app?vid=992041d5-4e17-4512-8359-e953d647cb03"},"vehicle_type_id":"4","last_reported":1778774586,"current_range_meters":8400,"station_id":"ce4bhb12rcd13ifvqel0","pricing_plan_id":"cebpf4jnsgd1na2vs0mg"},{"bike_id":"05fbaa5b-811d-4273-8f30-9f835e62babf","system_id":"levelo_inurba_marseille","lat":43.31039,"lon":5.37171,"is_reserved":false,"is_disabled":false,"rental_uris":{"android":"levelo://app?vid=05fbaa5b-811d-4273-8f30-9f835e62babf","ios":"levelo://app?vid=05fbaa5b-811d-4273-8f30-9f835e62babf"},"vehicle_type_id":"4","last_reported":1778774586,"current_range_meters":8400,"station_id":"st_d4kl2rp97mjs73e7tdfg","pricing_plan_id":"cebpf4jnsgd1na2vs0mg"},{"bike_id":"f0fddcf7-5d98-4d8a-9bda-e27dac14a45c","system_id":"levelo_inurba_marseille","lat":43.33554,"lon":5.37432,"is_reserved":false,"is_disabled":false,"rental_uris":{"android":"levelo://app?vid=f0fddcf7-5d98-4d8a-9bda-e27dac14a45c","ios":"levelo://app?vid=f0fddcf7-5d98-4d8a-9bda-e27dac14a45c"},"vehicle_type_id":"4","last_reported":1778774586,"current_range_meters":8400,"station_id":"st_d46tts09ee8s73dlu43g","pricing_plan_id":"cebpf4jnsgd1na2vs0mg"},{"bike_id":"5e360434-c987-4796-baac-a41f6d54bfe8","system_id":"levelo_inurba_marseille","lat":43.25079,"lon":5.41214,"is_reserved":false,"is_disabled":false,"rental_uris":{"android":"levelo://app?vid=5e360434-c987-4796-baac-a41f6d54bfe8","ios":"levelo://app?vid=5e360434-c987-4796-baac-a41f6d54bfe8"},"vehicle_type_id":"4","last_reported":1778774586,"current_range_meters":8400,"station_id":"","pricing_plan_id":"cebpf4jnsgd1na2vs0mg"},{"bike_id":"1daf7321-7267-490f-b510-d317a2d79da3","system_id":"levelo_inurba_marseille","lat":43.31307,"lon":5.37764,"is_reserved":false,"is_disabled":false,"rental_uris":{"android":"levelo://app?vid=1daf7321-7267-490f-b510-d317a2d79da3","ios":"levelo://app?vid=1daf7321-7267-490f-b510-d317a2d79da3"},"vehicle_type_id":"4","last_reported":1778774586,"current_range_meters":8400,"station_id":"","pricing_plan_id":"cebpf4jnsgd1na2vs0mg"},{"bike_id":"6171fa24-5cbb-4dd4-8a11-21768112000d","system_id":"levelo_inurba_marseille","lat":43.28535,"lon":5.44092,"is_reserved":false,"is_disabled":false,"rental_uris":{"android":"levelo://app?vid=6171fa24-5cbb-4dd4-8a11-21768112000d","ios":"levelo://app?vid=6171fa24-5cbb-4dd4-8a11-21768112000d"},"vehicle_type_id":"4","last_reported":1778774586,"current_range_meters":8400,"station_id":"st_d3j3df2ikq2c7380ej80","pricing_plan_id":"cebpf4jnsgd1na2vs0mg"},{"bike_id":"fd926cd8-f3e7-4ea0-9811-e5d39a863ccd","system_id":"levelo_inurba_marseille","lat":43.29052,"lon":5.3994,"is_reserved":false,"is_disabled":true,"rental_uris":{"android":"levelo://app?vid=fd926cd8-f3e7-4ea0-9811-e5d39a863ccd","ios":"levelo://app?vid=fd926cd8-f3e7-4ea0-9811-e5d39a863ccd"},"vehicle_type_id":"4","last_reported":1778774586,"current_range_meters":8400,"station_id":"ce4bh392rcd13ifvqdm0","pricing_plan_id":"cebpf4jnsgd1na2vs0mg"},{"bike_id":"19a1b87f-2a01-464a-b4e7-0762c73407fe","system_id":"levelo_inurba_marseille","lat":43.25577,"lon":5.38208,"is_reserved":false,"is_disabled":false,"rental_uris":{"android":"levelo://app?vid=19a1b87f-2a01-464a-b4e7-0762c73407fe","ios":"levelo://app?vid=19a1b87f-2a01-464a-b4e7-0762c73407fe"},"vehicle_type_id":"4","last_reported":1778774586,"current_range_meters":8400,"station_id":"ce4bhih2rcd13ifvqfs0","pricing_plan_id":"cebpf4jnsgd1na2vs0mg"},{"bike_id":"f9097205-f100-4886-bf8d-feef076b07a1","system_id":"levelo_inurba_marseille","lat":43.29063,"lon":5.37154,"is_reserved":false,"is_disabled":false,"rental_uris":{"android":"levelo://app?vid=f9097205-f100-4886-bf8d-feef076b07a1","ios":"levelo://app?vid=f9097205-f100-4886-bf8d-feef076b07a1"},"vehicle_type_id":"4","last_reported":1778774586,"current_range_meters":8800,"station_id":"ce4bh5p2rcd13ifvqe4g","pricing_plan_id":"cebpf4jnsgd1na2vs0mg"},{"bike_id":"a749aa3e-52e5-43f2-aef2-449bb7bb45e8","system_id":"levelo_inurba_marseille","lat":43.31227,"lon":5.38487,"is_reserved":false,"is_disabled":false,"rental_uris":{"android":"levelo://app?vid=a749aa3e-52e5-43f2-aef2-449bb7bb45e8","ios":"levelo://app?vid=a749aa3e-52e5-43f2-aef2-449bb7bb45e8"},"vehicle_type_id":"4","last_reported":1778774586,"current_range_meters":8800,"station_id":"","pricing_plan_id":"cebpf4jnsgd1na2vs0mg"},{"bike_id":"4ffa69ad-8bf6-43b2-b568-f5caebac5343","system_id":"levelo_inurba_marseille","lat":43.25497,"lon":5.37648,"is_reserved":false,"is_disabled":false,"rental_uris":{"android":"levelo://app?vid=4ffa69ad-8bf6-43b2-b568-f5caebac5343","ios":"levelo://app?vid=4ffa69ad-8bf6-43b2-b568-f5caebac5343"},"vehicle_type_id":"4","last_reported":1778774586,"current_range_meters":8800,"station_id":"ce4bhh12rcd13ifvqff0","pricing_plan_id":"cebpf4jnsgd1na2vs0mg"},{"bike_id":"4299e16e-b833-45d3-9590-a913c6c2dbf3","system_id":"levelo_inurba_marseille","lat":43.30125,"lon":5.39883,"is_reserved":false,"is_disabled":false,"rental_uris":{"android":"levelo://app?vid=4299e16e-b833-45d3-9590-a913c6c2dbf3","ios":"levelo://app?vid=4299e16e-b833-45d3-9590-a913c6c2dbf3"},"vehicle_type_id":"4","last_reported":1778774586,"current_range_meters":8800,"station_id":"ce4bh0h2rcd13ifvqd40","pricing_plan_id":"cebpf4jnsgd1na2vs0mg"},{"bike_id":"17afe80e-4baa-4a0a-9b44-7c333b764497","system_id":"levelo_inurba_marseille","lat":43.21746,"lon":5.34606,"is_reserved":false,"is_disabled":false,"rental_uris":{"android":"levelo://app?vid=17afe80e-4baa-4a0a-9b44-7c333b764497","ios":"levelo://app?vid=17afe80e-4baa-4a0a-9b44-7c333b764497"},"vehicle_type_id":"4","last_reported":1778774586,"current_range_meters":8800,"station_id":"st_cvj6r9ubvosntc0bgbag","pricing_plan_id":"cebpf4jnsgd1na2vs0mg"},{"bike_id":"bad213e1-775c-4526-9199-e07ee68bfd65","system_id":"levelo_inurba_marseille","lat":43.29218,"lon":5.3606,"is_reserved":false,"is_disabled":false,"rental_uris":{"android":"levelo://app?vid=bad213e1-775c-4526-9199-e07ee68bfd65","ios":"levelo://app?vid=bad213e1-775c-4526-9199-e07ee68bfd65"},"vehicle_type_id":"4","last_reported":1778774586,"current_range_meters":8800,"station_id":"ce4bhbh2rcd13ifvqeqg","pricing_plan_id":"cebpf4jnsgd1na2vs0mg"},{"bike_id":"f41bf807-f317-470a-8160-eb33a73ff142","system_id":"levelo_inurba_marseille","lat":43.29987,"lon":5.37184,"is_reserved":false,"is_disabled":false,"rental_uris":{"android":"levelo://app?vid=f41bf807-f317-470a-8160-eb33a73ff142","ios":"levelo://app?vid=f41bf807-f317-470a-8160-eb33a73ff142"},"vehicle_type_id":"4","last_reported":1778774586,"current_range_meters":8800,"station_id":"ce4bgr92rcd13ifvqc7g","pricing_plan_id":"cebpf4jnsgd1na2vs0mg"},{"bike_id":"83656f0f-1a8b-4521-b778-117a7dbc748b","system_id":"levelo_inurba_marseille","lat":43.28032,"lon":5.36937,"is_reserved":false,"is_disabled":false,"rental_uris":{"android":"levelo://app?vid=83656f0f-1a8b-4521-b778-117a7dbc748b","ios":"levelo://app?vid=83656f0f-1a8b-4521-b778-117a7dbc748b"},"vehicle_type_id":"4","last_reported":1778774586,"current_range_meters":8800,"station_id":"ce4bha12rcd13ifvqef0","pricing_plan_id":"cebpf4jnsgd1na2vs0mg"},{"bike_id":"be5ec2e3-e51c-450e-b635-2e2a7b9f299b","system_id":"levelo_inurba_marseille","lat":43.24395,"lon":5.37051,"is_reserved":false,"is_disabled":false,"rental_uris":{"android":"levelo://app?vid=be5ec2e3-e51c-450e-b635-2e2a7b9f299b","ios":"levelo://app?vid=be5ec2e3-e51c-450e-b635-2e2a7b9f299b"},"vehicle_type_id":"4","last_reported":1778774586,"current_range_meters":8800,"station_id":"ce4bhhh2rcd13ifvqfk0","pricing_plan_id":"cebpf4jnsgd1na2vs0mg"},{"bike_id":"199aff18-7bf3-4b5f-a786-739bc9a3c6ac","system_id":"levelo_inurba_marseille","lat":43.2623,"lon":5.38759,"is_reserved":false,"is_disabled":false,"rental_uris":{"android":"levelo://app?vid=199aff18-7bf3-4b5f-a786-739bc9a3c6ac","ios":"levelo://app?vid=199aff18-7bf3-4b5f-a786-739bc9a3c6ac"},"vehicle_type_id":"4","last_reported":1778774586,"current_range_meters":8800,"station_id":"","pricing_plan_id":"cebpf4jnsgd1na2vs0mg"},{"bike_id":"b35b42df-1e5c-4e3c-be7f-d5351e008fb3","system_id":"levelo_inurba_marseille","lat":43.3355,"lon":5.3747,"is_reserved":false,"is_disabled":false,"rental_uris":{"android":"levelo://app?vid=b35b42df-1e5c-4e3c-be7f-d5351e008fb3","ios":"levelo://app?vid=b35b42df-1e5c-4e3c-be7f-d5351e008fb3"},"vehicle_type_id":"4","last_reported":1778774586,"current_range_meters":8800,"station_id":"st_d46tts09ee8s73dlu43g","pricing_plan_id":"cebpf4jnsgd1na2vs0mg"},{"bike_id":"bdc1e4a6-6881-445e-add5-bdbe16bdea85","system_id":"levelo_inurba_marseille","lat":43.30563,"lon":5.36524,"is_reserved":false,"is_disabled":false,"rental_uris":{"android":"levelo://app?vid=bdc1e4a6-6881-445e-add5-bdbe16bdea85","ios":"levelo://app?vid=bdc1e4a6-6881-445e-add5-bdbe16bdea85"},"vehicle_type_id":"4","last_reported":1778774586,"current_range_meters":8800,"station_id":"ce4bgs12rcd13ifvqcag","pricing_plan_id":"cebpf4jnsgd1na2vs0mg"},{"bike_id":"af951ea6-3a51-4c6a-8a16-0eb6c5f76507","system_id":"levelo_inurba_marseille","lat":43.30542,"lon":5.36544,"is_reserved":false,"is_disabled":false,"rental_uris":{"android":"levelo://app?vid=af951ea6-3a51-4c6a-8a16-0eb6c5f76507","ios":"levelo://app?vid=af951ea6-3a51-4c6a-8a16-0eb6c5f76507"},"vehicle_type_id":"4","last_reported":1778774586,"current_range_meters":8800,"station_id":"ce4bgs12rcd13ifvqcag","pricing_plan_id":"cebpf4jnsgd1na2vs0mg"},{"bike_id":"a8b55d6f-977b-4cfa-a9dc-bbb3b59e05ad","system_id":"levelo_inurba_marseille","lat":43.27941,"lon":5.38466,"is_reserved":false,"is_disabled":false,"rental_uris":{"android":"levelo://app?vid=a8b55d6f-977b-4cfa-a9dc-bbb3b59e05ad","ios":"levelo://app?vid=a8b55d6f-977b-4cfa-a9dc-bbb3b59e05ad"},"vehicle_type_id":"4","last_reported":1778774586,"current_range_meters":8800,"station_id":"","pricing_plan_id":"cebpf4jnsgd1na2vs0mg"},{"bike_id":"60597072-c415-49c2-8236-d93bf349bf49","system_id":"levelo_inurba_marseille","lat":43.3032,"lon":5.40435,"is_reserved":false,"is_disabled":false,"rental_uris":{"android":"levelo://app?vid=60597072-c415-49c2-8236-d93bf349bf49","ios":"levelo://app?vid=60597072-c415-49c2-8236-d93bf349bf49"},"vehicle_type_id":"4","last_reported":1778774586,"current_range_meters":8800,"station_id":"ce4bh012rcd13ifvqd10","pricing_plan_id":"cebpf4jnsgd1na2vs0mg"},{"bike_id":"7e224645-2041-480c-b55a-1476d039d722","system_id":"levelo_inurba_marseille","lat":43.29962,"lon":5.38875,"is_reserved":false,"is_disabled":false,"rental_uris":{"android":"levelo://app?vid=7e224645-2041-480c-b55a-1476d039d722","ios":"levelo://app?vid=7e224645-2041-480c-b55a-1476d039d722"},"vehicle_type_id":"4","last_reported":1778774586,"current_range_meters":8800,"station_id":"","pricing_plan_id":"cebpf4jnsgd1na2vs0mg"},{"bike_id":"587a7f7e-5e69-4c24-b732-584e124682b7","system_id":"levelo_inurba_marseille","lat":43.27339,"lon":5.39121,"is_reserved":false,"is_disabled":false,"rental_uris":{"android":"levelo://app?vid=587a7f7e-5e69-4c24-b732-584e124682b7","ios":"levelo://app?vid=587a7f7e-5e69-4c24-b732-584e124682b7"},"vehicle_type_id":"4","last_reported":1778774586,"current_range_meters":8800,"station_id":"ce4bhgp2rcd13ifvqfe0","pricing_plan_id":"cebpf4jnsgd1na2vs0mg"},{"bike_id":"76d54235-f674-4c31-a555-6326d178a22e","system_id":"levelo_inurba_marseille","lat":43.28417,"lon":5.34988,"is_reserved":false,"is_disabled":false,"rental_uris":{"android":"levelo://app?vid=76d54235-f674-4c31-a555-6326d178a22e","ios":"levelo://app?vid=76d54235-f674-4c31-a555-6326d178a22e"},"vehicle_type_id":"4","last_reported":1778774586,"current_range_meters":8800,"station_id":"ce4bhbh2rcd13ifvqepg","pricing_plan_id":"cebpf4jnsgd1na2vs0mg"},{"bike_id":"ea2ed631-02e6-4f01-8ae6-bc79ee553a34","system_id":"levelo_inurba_marseille","lat":43.30548,"lon":5.36554,"is_reserved":false,"is_disabled":false,"rental_uris":{"android":"levelo://app?vid=ea2ed631-02e6-4f01-8ae6-bc79ee553a34","ios":"levelo://app?vid=ea2ed631-02e6-4f01-8ae6-bc79ee553a34"},"vehicle_type_id":"4","last_reported":1778774586,"current_range_meters":8800,"station_id":"ce4bgs12rcd13ifvqcag","pricing_plan_id":"cebpf4jnsgd1na2vs0mg"},{"bike_id":"ce11b1a1-08b1-4d96-b8d9-a8102ecaffa6","system_id":"levelo_inurba_marseille","lat":43.29258,"lon":5.36859,"is_reserved":false,"is_disabled":false,"rental_uris":{"android":"levelo://app?vid=ce11b1a1-08b1-4d96-b8d9-a8102ecaffa6","ios":"levelo://app?vid=ce11b1a1-08b1-4d96-b8d9-a8102ecaffa6"},"vehicle_type_id":"4","last_reported":1778774586,"current_range_meters":8800,"station_id":"ce4bhbp2rcd13ifvqesg","pricing_plan_id":"cebpf4jnsgd1na2vs0mg"},{"bike_id":"0df9fbae-3ec9-4cc5-a2e1-3a27f2b6f14b","system_id":"levelo_inurba_marseille","lat":43.28699,"lon":5.46683,"is_reserved":false,"is_disabled":false,"rental_uris":{"android":"levelo://app?vid=0df9fbae-3ec9-4cc5-a2e1-3a27f2b6f14b","ios":"levelo://app?vid=0df9fbae-3ec9-4cc5-a2e1-3a27f2b6f14b"},"vehicle_type_id":"4","last_reported":1778774586,"current_range_meters":8800,"station_id":"st_d6tc3vkotcvc738tfjhg","pricing_plan_id":"cebpf4jnsgd1na2vs0mg"},{"bike_id":"69825831-778f-4c25-8522-bbcd87946ca9","system_id":"levelo_inurba_marseille","lat":43.24078,"lon":5.37742,"is_reserved":false,"is_disabled":false,"rental_uris":{"android":"levelo://app?vid=69825831-778f-4c25-8522-bbcd87946ca9","ios":"levelo://app?vid=69825831-778f-4c25-8522-bbcd87946ca9"},"vehicle_type_id":"4","last_reported":1778774586,"current_range_meters":9200,"station_id":"ce4bhnp2rcd13ifvqgvg","pricing_plan_id":"cebpf4jnsgd1na2vs0mg"},{"bike_id":"57e8e789-684c-4e19-a2f3-8bc72d8e0c58","system_id":"levelo_inurba_marseille","lat":43.22938,"lon":5.35365,"is_reserved":false,"is_disabled":false,"rental_uris":{"android":"levelo://app?vid=57e8e789-684c-4e19-a2f3-8bc72d8e0c58","ios":"levelo://app?vid=57e8e789-684c-4e19-a2f3-8bc72d8e0c58"},"vehicle_type_id":"4","last_reported":1778774586,"current_range_meters":9200,"station_id":"cpo3532slgdg3j2ikp40","pricing_plan_id":"cebpf4jnsgd1na2vs0mg"},{"bike_id":"e75ea773-5ccf-462b-8985-665d9c64622e","system_id":"levelo_inurba_marseille","lat":43.29534,"lon":5.375,"is_reserved":false,"is_disabled":false,"rental_uris":{"android":"levelo://app?vid=e75ea773-5ccf-462b-8985-665d9c64622e","ios":"levelo://app?vid=e75ea773-5ccf-462b-8985-665d9c64622e"},"vehicle_type_id":"4","last_reported":1778774586,"current_range_meters":9200,"station_id":"ce4bgkp2rcd13ifvqbmg","pricing_plan_id":"cebpf4jnsgd1na2vs0mg"},{"bike_id":"277c106d-5962-4ac5-8f17-fa3c0a1eecdc","system_id":"levelo_inurba_marseille","lat":43.22558,"lon":5.41642,"is_reserved":false,"is_disabled":false,"rental_uris":{"android":"levelo://app?vid=277c106d-5962-4ac5-8f17-fa3c0a1eecdc","ios":"levelo://app?vid=277c106d-5962-4ac5-8f17-fa3c0a1eecdc"},"vehicle_type_id":"4","last_reported":1778774586,"current_range_meters":9200,"station_id":"st_d2o4gvlbi1j2169b742g","pricing_plan_id":"cebpf4jnsgd1na2vs0mg"},{"bike_id":"3f14f179-5931-49ed-b573-69feb29b515e","system_id":"levelo_inurba_marseille","lat":43.273802,"lon":5.36254,"is_reserved":false,"is_disabled":false,"rental_uris":{"android":"levelo://app?vid=3f14f179-5931-49ed-b573-69feb29b515e","ios":"levelo://app?vid=3f14f179-5931-49ed-b573-69feb29b515e"},"vehicle_type_id":"4","last_reported":1778774586,"current_range_meters":9200,"station_id":"ce4bhbh2rcd13ifvqeo0","pricing_plan_id":"cebpf4jnsgd1na2vs0mg"},{"bike_id":"4b116638-67d5-4baf-a145-594506b96acb","system_id":"levelo_inurba_marseille","lat":43.28703,"lon":5.4669,"is_reserved":false,"is_disabled":false,"rental_uris":{"android":"levelo://app?vid=4b116638-67d5-4baf-a145-594506b96acb","ios":"levelo://app?vid=4b116638-67d5-4baf-a145-594506b96acb"},"vehicle_type_id":"4","last_reported":1778774586,"current_range_meters":9200,"station_id":"st_d6tc3vkotcvc738tfjhg","pricing_plan_id":"cebpf4jnsgd1na2vs0mg"},{"bike_id":"111390c2-b711-460b-8437-bd49adb3615f","system_id":"levelo_inurba_marseille","lat":43.26575,"lon":5.39009,"is_reserved":false,"is_disabled":false,"rental_uris":{"android":"levelo://app?vid=111390c2-b711-460b-8437-bd49adb3615f","ios":"levelo://app?vid=111390c2-b711-460b-8437-bd49adb3615f"},"vehicle_type_id":"4","last_reported":1778774586,"current_range_meters":9200,"station_id":"ce4bhe12rcd13ifvqf30","pricing_plan_id":"cebpf4jnsgd1na2vs0mg"},{"bike_id":"fe15333a-bdf8-42e5-955a-259637f22377","system_id":"levelo_inurba_marseille","lat":43.28485,"lon":5.38562,"is_reserved":false,"is_disabled":false,"rental_uris":{"android":"levelo://app?vid=fe15333a-bdf8-42e5-955a-259637f22377","ios":"levelo://app?vid=fe15333a-bdf8-42e5-955a-259637f22377"},"vehicle_type_id":"4","last_reported":1778774586,"current_range_meters":9200,"station_id":"ce4bh8p2rcd13ifvqeb0","pricing_plan_id":"cebpf4jnsgd1na2vs0mg"},{"bike_id":"ca3ff5ba-beb0-4730-ae3b-017407a047db","system_id":"levelo_inurba_marseille","lat":43.26366,"lon":5.40321,"is_reserved":false,"is_disabled":false,"rental_uris":{"android":"levelo://app?vid=ca3ff5ba-beb0-4730-ae3b-017407a047db","ios":"levelo://app?vid=ca3ff5ba-beb0-4730-ae3b-017407a047db"},"vehicle_type_id":"4","last_reported":1778774586,"current_range_meters":9200,"station_id":"","pricing_plan_id":"cebpf4jnsgd1na2vs0mg"},{"bike_id":"1b0e18cc-ca28-403c-a272-2afcd9b6100d","system_id":"levelo_inurba_marseille","lat":43.29965,"lon":5.38682,"is_reserved":false,"is_disabled":false,"rental_uris":{"android":"levelo://app?vid=1b0e18cc-ca28-403c-a272-2afcd9b6100d","ios":"levelo://app?vid=1b0e18cc-ca28-403c-a272-2afcd9b6100d"},"vehicle_type_id":"4","last_reported":1778774586,"current_range_meters":9200,"station_id":"","pricing_plan_id":"cebpf4jnsgd1na2vs0mg"},{"bike_id":"05ddadef-3851-47f0-b783-87a6ef77449e","system_id":"levelo_inurba_marseille","lat":43.29593,"lon":5.37522,"is_reserved":false,"is_disabled":false,"rental_uris":{"android":"levelo://app?vid=05ddadef-3851-47f0-b783-87a6ef77449e","ios":"levelo://app?vid=05ddadef-3851-47f0-b783-87a6ef77449e"},"vehicle_type_id":"4","last_reported":1778774586,"current_range_meters":9200,"station_id":"ce4bgh92rcd13ifvqb50","pricing_plan_id":"cebpf4jnsgd1na2vs0mg"},{"bike_id":"27e65b6e-d97c-46e4-a04d-93012a20ed6a","system_id":"levelo_inurba_marseille","lat":43.32115,"lon":5.36781,"is_reserved":false,"is_disabled":false,"rental_uris":{"android":"levelo://app?vid=27e65b6e-d97c-46e4-a04d-93012a20ed6a","ios":"levelo://app?vid=27e65b6e-d97c-46e4-a04d-93012a20ed6a"},"vehicle_type_id":"4","last_reported":1778774586,"current_range_meters":9200,"station_id":"ce4bhrh2rcd13ifvqhug","pricing_plan_id":"cebpf4jnsgd1na2vs0mg"},{"bike_id":"b9e56bc3-4066-4f17-b1ed-550ba71ef18e","system_id":"levelo_inurba_marseille","lat":43.23791,"lon":5.4145,"is_reserved":false,"is_disabled":false,"rental_uris":{"android":"levelo://app?vid=b9e56bc3-4066-4f17-b1ed-550ba71ef18e","ios":"levelo://app?vid=b9e56bc3-4066-4f17-b1ed-550ba71ef18e"},"vehicle_type_id":"4","last_reported":1778774586,"current_range_meters":9200,"station_id":"","pricing_plan_id":"cebpf4jnsgd1na2vs0mg"},{"bike_id":"ef50f773-5203-4ddc-9e0d-a167b7587494","system_id":"levelo_inurba_marseille","lat":43.295292,"lon":5.375005,"is_reserved":false,"is_disabled":false,"rental_uris":{"android":"levelo://app?vid=ef50f773-5203-4ddc-9e0d-a167b7587494","ios":"levelo://app?vid=ef50f773-5203-4ddc-9e0d-a167b7587494"},"vehicle_type_id":"4","last_reported":1778774586,"current_range_meters":9600,"station_id":"ce4bgkp2rcd13ifvqbmg","pricing_plan_id":"cebpf4jnsgd1na2vs0mg"},{"bike_id":"9e14cf93-c2da-4ff6-a5dd-4b49777a18a0","system_id":"levelo_inurba_marseille","lat":43.24802,"lon":5.37433,"is_reserved":false,"is_disabled":false,"rental_uris":{"android":"levelo://app?vid=9e14cf93-c2da-4ff6-a5dd-4b49777a18a0","ios":"levelo://app?vid=9e14cf93-c2da-4ff6-a5dd-4b49777a18a0"},"vehicle_type_id":"4","last_reported":1778774586,"current_range_meters":9600,"station_id":"ce4bhgh2rcd13ifvqfb0","pricing_plan_id":"cebpf4jnsgd1na2vs0mg"},{"bike_id":"d7e3c2b8-4d88-4825-8de4-3a00c6307c72","system_id":"levelo_inurba_marseille","lat":43.2988,"lon":5.39746,"is_reserved":false,"is_disabled":false,"rental_uris":{"android":"levelo://app?vid=d7e3c2b8-4d88-4825-8de4-3a00c6307c72","ios":"levelo://app?vid=d7e3c2b8-4d88-4825-8de4-3a00c6307c72"},"vehicle_type_id":"4","last_reported":1778774586,"current_range_meters":9600,"station_id":"ce4bh0h2rcd13ifvqd50","pricing_plan_id":"cebpf4jnsgd1na2vs0mg"},{"bike_id":"cd382ef6-e165-4c5a-9266-61b6eb8de4e7","system_id":"levelo_inurba_marseille","lat":43.26539,"lon":5.37323,"is_reserved":false,"is_disabled":false,"rental_uris":{"android":"levelo://app?vid=cd382ef6-e165-4c5a-9266-61b6eb8de4e7","ios":"levelo://app?vid=cd382ef6-e165-4c5a-9266-61b6eb8de4e7"},"vehicle_type_id":"4","last_reported":1778774586,"current_range_meters":9600,"station_id":"ce4bhg12rcd13ifvqf70","pricing_plan_id":"cebpf4jnsgd1na2vs0mg"},{"bike_id":"3e4ee8b2-547a-42b3-bcb3-00ed055ab339","system_id":"levelo_inurba_marseille","lat":43.24654,"lon":5.4163,"is_reserved":false,"is_disabled":false,"rental_uris":{"android":"levelo://app?vid=3e4ee8b2-547a-42b3-bcb3-00ed055ab339","ios":"levelo://app?vid=3e4ee8b2-547a-42b3-bcb3-00ed055ab339"},"vehicle_type_id":"4","last_reported":1778774586,"current_range_meters":9600,"station_id":"","pricing_plan_id":"cebpf4jnsgd1na2vs0mg"},{"bike_id":"7d8d0e26-eb0f-4158-94da-fe761f77960b","system_id":"levelo_inurba_marseille","lat":43.28913,"lon":5.3622,"is_reserved":false,"is_disabled":false,"rental_uris":{"android":"levelo://app?vid=7d8d0e26-eb0f-4158-94da-fe761f77960b","ios":"levelo://app?vid=7d8d0e26-eb0f-4158-94da-fe761f77960b"},"vehicle_type_id":"4","last_reported":1778774586,"current_range_meters":9600,"station_id":"ce4bhc92rcd13ifvqetg","pricing_plan_id":"cebpf4jnsgd1na2vs0mg"},{"bike_id":"a76be67c-ed20-4003-9861-97e7c513a0d1","system_id":"levelo_inurba_marseille","lat":43.29855,"lon":5.36303,"is_reserved":false,"is_disabled":false,"rental_uris":{"android":"levelo://app?vid=a76be67c-ed20-4003-9861-97e7c513a0d1","ios":"levelo://app?vid=a76be67c-ed20-4003-9861-97e7c513a0d1"},"vehicle_type_id":"4","last_reported":1778774586,"current_range_meters":9600,"station_id":"ce4bgpp2rcd13ifvqc3g","pricing_plan_id":"cebpf4jnsgd1na2vs0mg"},{"bike_id":"b55559a4-44e2-4ad1-8f62-240ee8d1d7fc","system_id":"levelo_inurba_marseille","lat":43.26213,"lon":5.37434,"is_reserved":false,"is_disabled":false,"rental_uris":{"android":"levelo://app?vid=b55559a4-44e2-4ad1-8f62-240ee8d1d7fc","ios":"levelo://app?vid=b55559a4-44e2-4ad1-8f62-240ee8d1d7fc"},"vehicle_type_id":"4","last_reported":1778774586,"current_range_meters":9600,"station_id":"ce4bhgp2rcd13ifvqfc0","pricing_plan_id":"cebpf4jnsgd1na2vs0mg"},{"bike_id":"00047e58-1e65-41e8-a8eb-e95e7193c13f","system_id":"levelo_inurba_marseille","lat":43.28141,"lon":5.42681,"is_reserved":false,"is_disabled":false,"rental_uris":{"android":"levelo://app?vid=00047e58-1e65-41e8-a8eb-e95e7193c13f","ios":"levelo://app?vid=00047e58-1e65-41e8-a8eb-e95e7193c13f"},"vehicle_type_id":"4","last_reported":1778774586,"current_range_meters":9600,"station_id":"ce4bhnh2rcd13ifvqgug","pricing_plan_id":"cebpf4jnsgd1na2vs0mg"},{"bike_id":"29012dfc-28a5-4c5d-a525-5c43c0b48565","system_id":"levelo_inurba_marseille","lat":43.29254,"lon":5.37625,"is_reserved":false,"is_disabled":true,"rental_uris":{"android":"levelo://app?vid=29012dfc-28a5-4c5d-a525-5c43c0b48565","ios":"levelo://app?vid=29012dfc-28a5-4c5d-a525-5c43c0b48565"},"vehicle_type_id":"4","last_reported":1778774586,"current_range_meters":9600,"station_id":"ce4bgi12rcd13ifvqb80","pricing_plan_id":"cebpf4jnsgd1na2vs0mg"},{"bike_id":"be27a1ea-688d-4ad6-b07c-679f1dd30503","system_id":"levelo_inurba_marseille","lat":43.29568,"lon":5.39981,"is_reserved":false,"is_disabled":false,"rental_uris":{"android":"levelo://app?vid=be27a1ea-688d-4ad6-b07c-679f1dd30503","ios":"levelo://app?vid=be27a1ea-688d-4ad6-b07c-679f1dd30503"},"vehicle_type_id":"4","last_reported":1778774586,"current_range_meters":9600,"station_id":"ce4bh312rcd13ifvqdj0","pricing_plan_id":"cebpf4jnsgd1na2vs0mg"},{"bike_id":"15bdaaff-cc29-4a90-94b6-933011749d5d","system_id":"levelo_inurba_marseille","lat":43.282765,"lon":5.350571,"is_reserved":false,"is_disabled":false,"rental_uris":{"android":"levelo://app?vid=15bdaaff-cc29-4a90-94b6-933011749d5d","ios":"levelo://app?vid=15bdaaff-cc29-4a90-94b6-933011749d5d"},"vehicle_type_id":"4","last_reported":1778774586,"current_range_meters":9600,"station_id":"ce4bhbp2rcd13ifvqerg","pricing_plan_id":"cebpf4jnsgd1na2vs0mg"},{"bike_id":"b90a0664-1d50-4a9e-a691-af7c8b1eefef","system_id":"levelo_inurba_marseille","lat":43.324831,"lon":5.365526,"is_reserved":false,"is_disabled":false,"rental_uris":{"android":"levelo://app?vid=b90a0664-1d50-4a9e-a691-af7c8b1eefef","ios":"levelo://app?vid=b90a0664-1d50-4a9e-a691-af7c8b1eefef"},"vehicle_type_id":"4","last_reported":1778774586,"current_range_meters":9600,"station_id":"ce4bhs12rcd13ifvqhvg","pricing_plan_id":"cebpf4jnsgd1na2vs0mg"},{"bike_id":"0704953b-d0d4-41a9-9ea7-6a1c9458e73d","system_id":"levelo_inurba_marseille","lat":43.28424,"lon":5.34979,"is_reserved":false,"is_disabled":false,"rental_uris":{"android":"levelo://app?vid=0704953b-d0d4-41a9-9ea7-6a1c9458e73d","ios":"levelo://app?vid=0704953b-d0d4-41a9-9ea7-6a1c9458e73d"},"vehicle_type_id":"4","last_reported":1778774586,"current_range_meters":9600,"station_id":"ce4bhbh2rcd13ifvqepg","pricing_plan_id":"cebpf4jnsgd1na2vs0mg"},{"bike_id":"1dff7f60-c48e-4ff4-87df-6bc7f11bee78","system_id":"levelo_inurba_marseille","lat":43.31056,"lon":5.37159,"is_reserved":false,"is_disabled":false,"rental_uris":{"android":"levelo://app?vid=1dff7f60-c48e-4ff4-87df-6bc7f11bee78","ios":"levelo://app?vid=1dff7f60-c48e-4ff4-87df-6bc7f11bee78"},"vehicle_type_id":"4","last_reported":1778774586,"current_range_meters":9600,"station_id":"st_d4kl2rp97mjs73e7tdfg","pricing_plan_id":"cebpf4jnsgd1na2vs0mg"},{"bike_id":"c2616576-702c-4400-ba3e-966f79883e49","system_id":"levelo_inurba_marseille","lat":43.291746,"lon":5.371444,"is_reserved":false,"is_disabled":false,"rental_uris":{"android":"levelo://app?vid=c2616576-702c-4400-ba3e-966f79883e49","ios":"levelo://app?vid=c2616576-702c-4400-ba3e-966f79883e49"},"vehicle_type_id":"4","last_reported":1778774586,"current_range_meters":9600,"station_id":"ce4bha92rcd13ifvqeh0","pricing_plan_id":"cebpf4jnsgd1na2vs0mg"},{"bike_id":"1cb489c1-fd8e-4d88-a9c8-5794f7e5b06d","system_id":"levelo_inurba_marseille","lat":43.262005,"lon":5.374392,"is_reserved":false,"is_disabled":false,"rental_uris":{"android":"levelo://app?vid=1cb489c1-fd8e-4d88-a9c8-5794f7e5b06d","ios":"levelo://app?vid=1cb489c1-fd8e-4d88-a9c8-5794f7e5b06d"},"vehicle_type_id":"4","last_reported":1778774586,"current_range_meters":9600,"station_id":"ce4bhgp2rcd13ifvqfc0","pricing_plan_id":"cebpf4jnsgd1na2vs0mg"},{"bike_id":"8e2caaad-2009-4aea-814b-5350daae3b1b","system_id":"levelo_inurba_marseille","lat":43.24327,"lon":5.38413,"is_reserved":false,"is_disabled":false,"rental_uris":{"android":"levelo://app?vid=8e2caaad-2009-4aea-814b-5350daae3b1b","ios":"levelo://app?vid=8e2caaad-2009-4aea-814b-5350daae3b1b"},"vehicle_type_id":"4","last_reported":1778774586,"current_range_meters":9600,"station_id":"","pricing_plan_id":"cebpf4jnsgd1na2vs0mg"},{"bike_id":"03dab748-74b3-4285-b2af-7b0f71da9b57","system_id":"levelo_inurba_marseille","lat":43.23191,"lon":5.35552,"is_reserved":false,"is_disabled":false,"rental_uris":{"android":"levelo://app?vid=03dab748-74b3-4285-b2af-7b0f71da9b57","ios":"levelo://app?vid=03dab748-74b3-4285-b2af-7b0f71da9b57"},"vehicle_type_id":"4","last_reported":1778774586,"current_range_meters":9600,"station_id":"ce4bhu92rcd13ifvqi70","pricing_plan_id":"cebpf4jnsgd1na2vs0mg"},{"bike_id":"992718f0-98a7-452c-8526-ba79f5b9a308","system_id":"levelo_inurba_marseille","lat":43.29256,"lon":5.38441,"is_reserved":false,"is_disabled":false,"rental_uris":{"android":"levelo://app?vid=992718f0-98a7-452c-8526-ba79f5b9a308","ios":"levelo://app?vid=992718f0-98a7-452c-8526-ba79f5b9a308"},"vehicle_type_id":"4","last_reported":1778774586,"current_range_meters":9600,"station_id":"ce4bh692rcd13ifvqea0","pricing_plan_id":"cebpf4jnsgd1na2vs0mg"},{"bike_id":"7c92f876-e972-4ae5-b5f2-79165f0581dd","system_id":"levelo_inurba_marseille","lat":43.29804,"lon":5.38077,"is_reserved":false,"is_disabled":false,"rental_uris":{"android":"levelo://app?vid=7c92f876-e972-4ae5-b5f2-79165f0581dd","ios":"levelo://app?vid=7c92f876-e972-4ae5-b5f2-79165f0581dd"},"vehicle_type_id":"4","last_reported":1778774586,"current_range_meters":10000,"station_id":"ce4bgip2rcd13ifvqbb0","pricing_plan_id":"cebpf4jnsgd1na2vs0mg"},{"bike_id":"998f9cd8-99f2-4c73-91b0-204efe2ea1dc","system_id":"levelo_inurba_marseille","lat":43.23775,"lon":5.36639,"is_reserved":false,"is_disabled":false,"rental_uris":{"android":"levelo://app?vid=998f9cd8-99f2-4c73-91b0-204efe2ea1dc","ios":"levelo://app?vid=998f9cd8-99f2-4c73-91b0-204efe2ea1dc"},"vehicle_type_id":"4","last_reported":1778774586,"current_range_meters":10000,"station_id":"st_d3nk18o9ro0c73en2l3g","pricing_plan_id":"cebpf4jnsgd1na2vs0mg"},{"bike_id":"e887a819-5d07-47bc-a986-00aa2f5b7977","system_id":"levelo_inurba_marseille","lat":43.24181,"lon":5.39724,"is_reserved":false,"is_disabled":false,"rental_uris":{"android":"levelo://app?vid=e887a819-5d07-47bc-a986-00aa2f5b7977","ios":"levelo://app?vid=e887a819-5d07-47bc-a986-00aa2f5b7977"},"vehicle_type_id":"4","last_reported":1778774586,"current_range_meters":10000,"station_id":"ce4bhn12rcd13ifvqgpg","pricing_plan_id":"cebpf4jnsgd1na2vs0mg"},{"bike_id":"054ea04f-0f15-4584-af84-b09e727ce4ec","system_id":"levelo_inurba_marseille","lat":43.25499,"lon":5.37652,"is_reserved":false,"is_disabled":false,"rental_uris":{"android":"levelo://app?vid=054ea04f-0f15-4584-af84-b09e727ce4ec","ios":"levelo://app?vid=054ea04f-0f15-4584-af84-b09e727ce4ec"},"vehicle_type_id":"4","last_reported":1778774586,"current_range_meters":10000,"station_id":"ce4bhh12rcd13ifvqff0","pricing_plan_id":"cebpf4jnsgd1na2vs0mg"},{"bike_id":"0136b265-d75d-41a8-8b23-c2341abe7a63","system_id":"levelo_inurba_marseille","lat":43.2732,"lon":5.39132,"is_reserved":false,"is_disabled":false,"rental_uris":{"android":"levelo://app?vid=0136b265-d75d-41a8-8b23-c2341abe7a63","ios":"levelo://app?vid=0136b265-d75d-41a8-8b23-c2341abe7a63"},"vehicle_type_id":"4","last_reported":1778774586,"current_range_meters":10000,"station_id":"ce4bhgp2rcd13ifvqfe0","pricing_plan_id":"cebpf4jnsgd1na2vs0mg"},{"bike_id":"06d5e8c0-a376-440b-b633-30ca1ebd3fba","system_id":"levelo_inurba_marseille","lat":43.30152,"lon":5.3809,"is_reserved":false,"is_disabled":false,"rental_uris":{"android":"levelo://app?vid=06d5e8c0-a376-440b-b633-30ca1ebd3fba","ios":"levelo://app?vid=06d5e8c0-a376-440b-b633-30ca1ebd3fba"},"vehicle_type_id":"4","last_reported":1778774586,"current_range_meters":10000,"station_id":"ce4bgjp2rcd13ifvqbh0","pricing_plan_id":"cebpf4jnsgd1na2vs0mg"},{"bike_id":"72560541-def5-4210-8902-e0c7d10c0540","system_id":"levelo_inurba_marseille","lat":43.27919,"lon":5.39223,"is_reserved":false,"is_disabled":false,"rental_uris":{"android":"levelo://app?vid=72560541-def5-4210-8902-e0c7d10c0540","ios":"levelo://app?vid=72560541-def5-4210-8902-e0c7d10c0540"},"vehicle_type_id":"4","last_reported":1778774586,"current_range_meters":10000,"station_id":"","pricing_plan_id":"cebpf4jnsgd1na2vs0mg"},{"bike_id":"4b19d262-6362-4a56-a5bc-ae474d9fa935","system_id":"levelo_inurba_marseille","lat":43.29603,"lon":5.3811,"is_reserved":false,"is_disabled":false,"rental_uris":{"android":"levelo://app?vid=4b19d262-6362-4a56-a5bc-ae474d9fa935","ios":"levelo://app?vid=4b19d262-6362-4a56-a5bc-ae474d9fa935"},"vehicle_type_id":"4","last_reported":1778774586,"current_range_meters":10000,"station_id":"ce4bgl12rcd13ifvqbo0","pricing_plan_id":"cebpf4jnsgd1na2vs0mg"},{"bike_id":"22c598a6-5851-4e78-a890-c2cb69684438","system_id":"levelo_inurba_marseille","lat":43.28541,"lon":5.44116,"is_reserved":false,"is_disabled":false,"rental_uris":{"android":"levelo://app?vid=22c598a6-5851-4e78-a890-c2cb69684438","ios":"levelo://app?vid=22c598a6-5851-4e78-a890-c2cb69684438"},"vehicle_type_id":"4","last_reported":1778774586,"current_range_meters":10000,"station_id":"st_d3j3df2ikq2c7380ej80","pricing_plan_id":"cebpf4jnsgd1na2vs0mg"},{"bike_id":"e64ebe22-40b5-4468-964f-97b6e6c98bca","system_id":"levelo_inurba_marseille","lat":43.23964,"lon":5.36627,"is_reserved":false,"is_disabled":false,"rental_uris":{"android":"levelo://app?vid=e64ebe22-40b5-4468-964f-97b6e6c98bca","ios":"levelo://app?vid=e64ebe22-40b5-4468-964f-97b6e6c98bca"},"vehicle_type_id":"4","last_reported":1778774586,"current_range_meters":10000,"station_id":"ce4bhi12rcd13ifvqfp0","pricing_plan_id":"cebpf4jnsgd1na2vs0mg"},{"bike_id":"6f5153fc-6820-4ea3-adee-51676eb30d71","system_id":"levelo_inurba_marseille","lat":43.31049,"lon":5.3719,"is_reserved":false,"is_disabled":false,"rental_uris":{"android":"levelo://app?vid=6f5153fc-6820-4ea3-adee-51676eb30d71","ios":"levelo://app?vid=6f5153fc-6820-4ea3-adee-51676eb30d71"},"vehicle_type_id":"4","last_reported":1778774586,"current_range_meters":10000,"station_id":"st_d4kl2rp97mjs73e7tdfg","pricing_plan_id":"cebpf4jnsgd1na2vs0mg"},{"bike_id":"b36b5e88-fbb6-4cd2-b82d-a34d61abb710","system_id":"levelo_inurba_marseille","lat":43.26209,"lon":5.37449,"is_reserved":false,"is_disabled":false,"rental_uris":{"android":"levelo://app?vid=b36b5e88-fbb6-4cd2-b82d-a34d61abb710","ios":"levelo://app?vid=b36b5e88-fbb6-4cd2-b82d-a34d61abb710"},"vehicle_type_id":"4","last_reported":1778774586,"current_range_meters":10000,"station_id":"ce4bhgp2rcd13ifvqfc0","pricing_plan_id":"cebpf4jnsgd1na2vs0mg"},{"bike_id":"65ed375c-d364-41c0-9798-9e992ff6c909","system_id":"levelo_inurba_marseille","lat":43.22562,"lon":5.41627,"is_reserved":false,"is_disabled":false,"rental_uris":{"android":"levelo://app?vid=65ed375c-d364-41c0-9798-9e992ff6c909","ios":"levelo://app?vid=65ed375c-d364-41c0-9798-9e992ff6c909"},"vehicle_type_id":"4","last_reported":1778774586,"current_range_meters":10000,"station_id":"st_d2o4gvlbi1j2169b742g","pricing_plan_id":"cebpf4jnsgd1na2vs0mg"},{"bike_id":"1a85436f-dd51-4953-8074-53e76fd68e5f","system_id":"levelo_inurba_marseille","lat":43.24727,"lon":5.39244,"is_reserved":false,"is_disabled":false,"rental_uris":{"android":"levelo://app?vid=1a85436f-dd51-4953-8074-53e76fd68e5f","ios":"levelo://app?vid=1a85436f-dd51-4953-8074-53e76fd68e5f"},"vehicle_type_id":"4","last_reported":1778774586,"current_range_meters":10000,"station_id":"","pricing_plan_id":"cebpf4jnsgd1na2vs0mg"},{"bike_id":"96cfd247-fa12-4a0a-b708-b8465a40fe05","system_id":"levelo_inurba_marseille","lat":43.30099,"lon":5.3907,"is_reserved":false,"is_disabled":false,"rental_uris":{"android":"levelo://app?vid=96cfd247-fa12-4a0a-b708-b8465a40fe05","ios":"levelo://app?vid=96cfd247-fa12-4a0a-b708-b8465a40fe05"},"vehicle_type_id":"4","last_reported":1778774586,"current_range_meters":10000,"station_id":"ce4bh192rcd13ifvqdb0","pricing_plan_id":"cebpf4jnsgd1na2vs0mg"},{"bike_id":"b72a83f3-a205-4729-8d3e-3830516874a6","system_id":"levelo_inurba_marseille","lat":43.30611,"lon":5.37207,"is_reserved":false,"is_disabled":true,"rental_uris":{"android":"levelo://app?vid=b72a83f3-a205-4729-8d3e-3830516874a6","ios":"levelo://app?vid=b72a83f3-a205-4729-8d3e-3830516874a6"},"vehicle_type_id":"4","last_reported":1778774586,"current_range_meters":10000,"station_id":"ce4bgqh2rcd13ifvqc4g","pricing_plan_id":"cebpf4jnsgd1na2vs0mg"},{"bike_id":"3e849c92-59a0-4fef-a13c-04223cce3eee","system_id":"levelo_inurba_marseille","lat":43.26554,"lon":5.39083,"is_reserved":false,"is_disabled":false,"rental_uris":{"android":"levelo://app?vid=3e849c92-59a0-4fef-a13c-04223cce3eee","ios":"levelo://app?vid=3e849c92-59a0-4fef-a13c-04223cce3eee"},"vehicle_type_id":"4","last_reported":1778774586,"current_range_meters":10000,"station_id":"ce4bhe12rcd13ifvqf30","pricing_plan_id":"cebpf4jnsgd1na2vs0mg"},{"bike_id":"31bc88b4-4bb8-46f3-86ec-3395ac4d618d","system_id":"levelo_inurba_marseille","lat":43.29178,"lon":5.37129,"is_reserved":false,"is_disabled":false,"rental_uris":{"android":"levelo://app?vid=31bc88b4-4bb8-46f3-86ec-3395ac4d618d","ios":"levelo://app?vid=31bc88b4-4bb8-46f3-86ec-3395ac4d618d"},"vehicle_type_id":"4","last_reported":1778774586,"current_range_meters":10800,"station_id":"ce4bha92rcd13ifvqeh0","pricing_plan_id":"cebpf4jnsgd1na2vs0mg"},{"bike_id":"23fcfdb9-c658-4c3f-9fa7-5fc3b9d7a1f7","system_id":"levelo_inurba_marseille","lat":43.24386,"lon":5.37044,"is_reserved":false,"is_disabled":false,"rental_uris":{"android":"levelo://app?vid=23fcfdb9-c658-4c3f-9fa7-5fc3b9d7a1f7","ios":"levelo://app?vid=23fcfdb9-c658-4c3f-9fa7-5fc3b9d7a1f7"},"vehicle_type_id":"4","last_reported":1778774586,"current_range_meters":10800,"station_id":"ce4bhhh2rcd13ifvqfk0","pricing_plan_id":"cebpf4jnsgd1na2vs0mg"},{"bike_id":"5522bc32-f84c-4758-b96a-fee5013f7838","system_id":"levelo_inurba_marseille","lat":43.2378,"lon":5.36634,"is_reserved":false,"is_disabled":false,"rental_uris":{"android":"levelo://app?vid=5522bc32-f84c-4758-b96a-fee5013f7838","ios":"levelo://app?vid=5522bc32-f84c-4758-b96a-fee5013f7838"},"vehicle_type_id":"4","last_reported":1778774586,"current_range_meters":10800,"station_id":"st_d3nk18o9ro0c73en2l3g","pricing_plan_id":"cebpf4jnsgd1na2vs0mg"},{"bike_id":"58b2394e-4ea2-4995-b926-ab14a6929115","system_id":"levelo_inurba_marseille","lat":43.31362,"lon":5.38487,"is_reserved":false,"is_disabled":false,"rental_uris":{"android":"levelo://app?vid=58b2394e-4ea2-4995-b926-ab14a6929115","ios":"levelo://app?vid=58b2394e-4ea2-4995-b926-ab14a6929115"},