{"last_updated":1777416426,"ttl":60,"version":"2.2","data":{"bikes":[{"bike_id":"f7883914-8a35-41a7-8add-6f343728cd33","system_id":"levelo_inurba_marseille","lat":43.24468,"lon":5.4252,"is_reserved":false,"is_disabled":false,"rental_uris":{"android":"levelo://app?vid=f7883914-8a35-41a7-8add-6f343728cd33","ios":"levelo://app?vid=f7883914-8a35-41a7-8add-6f343728cd33"},"vehicle_type_id":"4","last_reported":1777416426,"current_range_meters":2800,"station_id":"st_d4a3vfp97mjs738cd8kg","pricing_plan_id":"cebpf4jnsgd1na2vs0mg"},{"bike_id":"14330be0-5219-4f5a-987c-6cbb00fa5457","system_id":"levelo_inurba_marseille","lat":43.24391,"lon":5.37051,"is_reserved":false,"is_disabled":false,"rental_uris":{"android":"levelo://app?vid=14330be0-5219-4f5a-987c-6cbb00fa5457","ios":"levelo://app?vid=14330be0-5219-4f5a-987c-6cbb00fa5457"},"vehicle_type_id":"4","last_reported":1777416426,"current_range_meters":2800,"station_id":"ce4bhhh2rcd13ifvqfk0","pricing_plan_id":"cebpf4jnsgd1na2vs0mg"},{"bike_id":"797eb028-4961-4835-b288-d2bf1751d3ab","system_id":"levelo_inurba_marseille","lat":43.31687,"lon":5.40464,"is_reserved":false,"is_disabled":false,"rental_uris":{"android":"levelo://app?vid=797eb028-4961-4835-b288-d2bf1751d3ab","ios":"levelo://app?vid=797eb028-4961-4835-b288-d2bf1751d3ab"},"vehicle_type_id":"4","last_reported":1777416426,"current_range_meters":2800,"station_id":"ce4bh012rcd13ifvqd00","pricing_plan_id":"cebpf4jnsgd1na2vs0mg"},{"bike_id":"28c8fa8e-5903-4839-97e8-7f308c921d99","system_id":"levelo_inurba_marseille","lat":43.31762,"lon":5.39013,"is_reserved":false,"is_disabled":false,"rental_uris":{"android":"levelo://app?vid=28c8fa8e-5903-4839-97e8-7f308c921d99","ios":"levelo://app?vid=28c8fa8e-5903-4839-97e8-7f308c921d99"},"vehicle_type_id":"4","last_reported":1777416426,"current_range_meters":2800,"station_id":"ce4bhqp2rcd13ifvqhng","pricing_plan_id":"cebpf4jnsgd1na2vs0mg"},{"bike_id":"139ab125-3cce-4dc8-9b09-1fa656552044","system_id":"levelo_inurba_marseille","lat":43.25134,"lon":5.40332,"is_reserved":false,"is_disabled":false,"rental_uris":{"android":"levelo://app?vid=139ab125-3cce-4dc8-9b09-1fa656552044","ios":"levelo://app?vid=139ab125-3cce-4dc8-9b09-1fa656552044"},"vehicle_type_id":"4","last_reported":1777416426,"current_range_meters":2800,"station_id":"ce4bhlh2rcd13ifvqgig","pricing_plan_id":"cebpf4jnsgd1na2vs0mg"},{"bike_id":"1627e8c7-34e4-4fa7-9841-49a61eaf6bda","system_id":"levelo_inurba_marseille","lat":43.27919,"lon":5.39567,"is_reserved":false,"is_disabled":false,"rental_uris":{"android":"levelo://app?vid=1627e8c7-34e4-4fa7-9841-49a61eaf6bda","ios":"levelo://app?vid=1627e8c7-34e4-4fa7-9841-49a61eaf6bda"},"vehicle_type_id":"4","last_reported":1777416426,"current_range_meters":2800,"station_id":"ce4bhf92rcd13ifvqf40","pricing_plan_id":"cebpf4jnsgd1na2vs0mg"},{"bike_id":"b0fc715f-4a35-4272-9e2a-b10f7b105dc9","system_id":"levelo_inurba_marseille","lat":43.29364,"lon":5.44542,"is_reserved":false,"is_disabled":false,"rental_uris":{"android":"levelo://app?vid=b0fc715f-4a35-4272-9e2a-b10f7b105dc9","ios":"levelo://app?vid=b0fc715f-4a35-4272-9e2a-b10f7b105dc9"},"vehicle_type_id":"4","last_reported":1777416426,"current_range_meters":2800,"station_id":"","pricing_plan_id":"cebpf4jnsgd1na2vs0mg"},{"bike_id":"6b1d4b4b-7e98-461b-9c84-9f4c70bcd3eb","system_id":"levelo_inurba_marseille","lat":43.29209,"lon":5.40568,"is_reserved":false,"is_disabled":false,"rental_uris":{"android":"levelo://app?vid=6b1d4b4b-7e98-461b-9c84-9f4c70bcd3eb","ios":"levelo://app?vid=6b1d4b4b-7e98-461b-9c84-9f4c70bcd3eb"},"vehicle_type_id":"4","last_reported":1777416426,"current_range_meters":2800,"station_id":"","pricing_plan_id":"cebpf4jnsgd1na2vs0mg"},{"bike_id":"037cf932-e29f-4197-9f29-ee214a80e381","system_id":"levelo_inurba_marseille","lat":43.284485,"lon":5.358714,"is_reserved":false,"is_disabled":false,"rental_uris":{"android":"levelo://app?vid=037cf932-e29f-4197-9f29-ee214a80e381","ios":"levelo://app?vid=037cf932-e29f-4197-9f29-ee214a80e381"},"vehicle_type_id":"4","last_reported":1777416426,"current_range_meters":2800,"station_id":"ce4bhah2rcd13ifvqei0","pricing_plan_id":"cebpf4jnsgd1na2vs0mg"},{"bike_id":"4762e09b-59b8-41ab-9c32-7fa1853bb9b6","system_id":"levelo_inurba_marseille","lat":43.25472,"lon":5.41619,"is_reserved":false,"is_disabled":false,"rental_uris":{"android":"levelo://app?vid=4762e09b-59b8-41ab-9c32-7fa1853bb9b6","ios":"levelo://app?vid=4762e09b-59b8-41ab-9c32-7fa1853bb9b6"},"vehicle_type_id":"4","last_reported":1777416426,"current_range_meters":2800,"station_id":"","pricing_plan_id":"cebpf4jnsgd1na2vs0mg"},{"bike_id":"a7860fc9-f86a-49b2-9133-80ebae293c68","system_id":"levelo_inurba_marseille","lat":43.25108,"lon":5.40309,"is_reserved":false,"is_disabled":false,"rental_uris":{"android":"levelo://app?vid=a7860fc9-f86a-49b2-9133-80ebae293c68","ios":"levelo://app?vid=a7860fc9-f86a-49b2-9133-80ebae293c68"},"vehicle_type_id":"4","last_reported":1777416426,"current_range_meters":2800,"station_id":"ce4bhlh2rcd13ifvqgig","pricing_plan_id":"cebpf4jnsgd1na2vs0mg"},{"bike_id":"e644d3bc-2e1f-414d-bf95-2670db440401","system_id":"levelo_inurba_marseille","lat":43.30929,"lon":5.40152,"is_reserved":false,"is_disabled":false,"rental_uris":{"android":"levelo://app?vid=e644d3bc-2e1f-414d-bf95-2670db440401","ios":"levelo://app?vid=e644d3bc-2e1f-414d-bf95-2670db440401"},"vehicle_type_id":"4","last_reported":1777416426,"current_range_meters":3200,"station_id":"ce4bgvp2rcd13ifvqct0","pricing_plan_id":"cebpf4jnsgd1na2vs0mg"},{"bike_id":"e2ddbd69-54a9-4195-b691-b17861f53caf","system_id":"levelo_inurba_marseille","lat":43.2481,"lon":5.37459,"is_reserved":false,"is_disabled":false,"rental_uris":{"android":"levelo://app?vid=e2ddbd69-54a9-4195-b691-b17861f53caf","ios":"levelo://app?vid=e2ddbd69-54a9-4195-b691-b17861f53caf"},"vehicle_type_id":"4","last_reported":1777416426,"current_range_meters":3200,"station_id":"ce4bhgh2rcd13ifvqfb0","pricing_plan_id":"cebpf4jnsgd1na2vs0mg"},{"bike_id":"c6ae5bca-c80b-4e89-91bd-a9c4df24c62b","system_id":"levelo_inurba_marseille","lat":43.31685,"lon":5.40475,"is_reserved":false,"is_disabled":false,"rental_uris":{"android":"levelo://app?vid=c6ae5bca-c80b-4e89-91bd-a9c4df24c62b","ios":"levelo://app?vid=c6ae5bca-c80b-4e89-91bd-a9c4df24c62b"},"vehicle_type_id":"4","last_reported":1777416426,"current_range_meters":3200,"station_id":"ce4bh012rcd13ifvqd00","pricing_plan_id":"cebpf4jnsgd1na2vs0mg"},{"bike_id":"ac22394e-74ad-49d7-8ce2-7a9e4a1edbca","system_id":"levelo_inurba_marseille","lat":43.30124,"lon":5.43111,"is_reserved":false,"is_disabled":false,"rental_uris":{"android":"levelo://app?vid=ac22394e-74ad-49d7-8ce2-7a9e4a1edbca","ios":"levelo://app?vid=ac22394e-74ad-49d7-8ce2-7a9e4a1edbca"},"vehicle_type_id":"4","last_reported":1777416426,"current_range_meters":3200,"station_id":"st_d3js3co5814s73ftftug","pricing_plan_id":"cebpf4jnsgd1na2vs0mg"},{"bike_id":"87cc790b-60cd-436a-82f4-3796eb0e0cc9","system_id":"levelo_inurba_marseille","lat":43.29173,"lon":5.43579,"is_reserved":false,"is_disabled":false,"rental_uris":{"android":"levelo://app?vid=87cc790b-60cd-436a-82f4-3796eb0e0cc9","ios":"levelo://app?vid=87cc790b-60cd-436a-82f4-3796eb0e0cc9"},"vehicle_type_id":"4","last_reported":1777416426,"current_range_meters":3200,"station_id":"","pricing_plan_id":"cebpf4jnsgd1na2vs0mg"},{"bike_id":"0ba5c473-448e-4959-962b-1ceda7557f74","system_id":"levelo_inurba_marseille","lat":43.29752,"lon":5.42764,"is_reserved":false,"is_disabled":true,"rental_uris":{"android":"levelo://app?vid=0ba5c473-448e-4959-962b-1ceda7557f74","ios":"levelo://app?vid=0ba5c473-448e-4959-962b-1ceda7557f74"},"vehicle_type_id":"4","last_reported":1777416426,"current_range_meters":3200,"station_id":"st_d3md5207bmas73dh9klg","pricing_plan_id":"cebpf4jnsgd1na2vs0mg"},{"bike_id":"c658f009-bae2-4ba4-a0cc-484db7ff8698","system_id":"levelo_inurba_marseille","lat":43.28221,"lon":5.40563,"is_reserved":false,"is_disabled":false,"rental_uris":{"android":"levelo://app?vid=c658f009-bae2-4ba4-a0cc-484db7ff8698","ios":"levelo://app?vid=c658f009-bae2-4ba4-a0cc-484db7ff8698"},"vehicle_type_id":"4","last_reported":1777416426,"current_range_meters":3200,"station_id":"","pricing_plan_id":"cebpf4jnsgd1na2vs0mg"},{"bike_id":"1c3199cd-9bf2-4961-8310-d6964099122f","system_id":"levelo_inurba_marseille","lat":43.29916,"lon":5.3748,"is_reserved":false,"is_disabled":false,"rental_uris":{"android":"levelo://app?vid=1c3199cd-9bf2-4961-8310-d6964099122f","ios":"levelo://app?vid=1c3199cd-9bf2-4961-8310-d6964099122f"},"vehicle_type_id":"4","last_reported":1777416426,"current_range_meters":3200,"station_id":"ce4bgjh2rcd13ifvqbg0","pricing_plan_id":"cebpf4jnsgd1na2vs0mg"},{"bike_id":"a985dfeb-d4b1-4c2e-afbc-5933c3265e0b","system_id":"levelo_inurba_marseille","lat":43.28623,"lon":5.35091,"is_reserved":false,"is_disabled":false,"rental_uris":{"android":"levelo://app?vid=a985dfeb-d4b1-4c2e-afbc-5933c3265e0b","ios":"levelo://app?vid=a985dfeb-d4b1-4c2e-afbc-5933c3265e0b"},"vehicle_type_id":"4","last_reported":1777416426,"current_range_meters":3600,"station_id":"ce4bhch2rcd13ifvqeug","pricing_plan_id":"cebpf4jnsgd1na2vs0mg"},{"bike_id":"f447fec5-f118-42c2-be2c-8ef32b6d20a2","system_id":"levelo_inurba_marseille","lat":43.25963,"lon":5.41685,"is_reserved":false,"is_disabled":false,"rental_uris":{"android":"levelo://app?vid=f447fec5-f118-42c2-be2c-8ef32b6d20a2","ios":"levelo://app?vid=f447fec5-f118-42c2-be2c-8ef32b6d20a2"},"vehicle_type_id":"4","last_reported":1777416426,"current_range_meters":3600,"station_id":"","pricing_plan_id":"cebpf4jnsgd1na2vs0mg"},{"bike_id":"14869599-ab60-4e86-8f2c-d0b35d29b95e","system_id":"levelo_inurba_marseille","lat":43.2562,"lon":5.41772,"is_reserved":false,"is_disabled":false,"rental_uris":{"android":"levelo://app?vid=14869599-ab60-4e86-8f2c-d0b35d29b95e","ios":"levelo://app?vid=14869599-ab60-4e86-8f2c-d0b35d29b95e"},"vehicle_type_id":"4","last_reported":1777416426,"current_range_meters":3600,"station_id":"","pricing_plan_id":"cebpf4jnsgd1na2vs0mg"},{"bike_id":"74929e98-c2e0-43cc-b447-0901251d01cb","system_id":"levelo_inurba_marseille","lat":43.2549,"lon":5.37677,"is_reserved":false,"is_disabled":true,"rental_uris":{"android":"levelo://app?vid=74929e98-c2e0-43cc-b447-0901251d01cb","ios":"levelo://app?vid=74929e98-c2e0-43cc-b447-0901251d01cb"},"vehicle_type_id":"4","last_reported":1777416426,"current_range_meters":3600,"station_id":"ce4bhh12rcd13ifvqff0","pricing_plan_id":"cebpf4jnsgd1na2vs0mg"},{"bike_id":"ced9ef8f-cc56-494d-a5d6-cc473fa1940f","system_id":"levelo_inurba_marseille","lat":43.23191,"lon":5.39989,"is_reserved":false,"is_disabled":false,"rental_uris":{"android":"levelo://app?vid=ced9ef8f-cc56-494d-a5d6-cc473fa1940f","ios":"levelo://app?vid=ced9ef8f-cc56-494d-a5d6-cc473fa1940f"},"vehicle_type_id":"4","last_reported":1777416426,"current_range_meters":3600,"station_id":"ce4bhn12rcd13ifvqgqg","pricing_plan_id":"cebpf4jnsgd1na2vs0mg"},{"bike_id":"e5cd69c7-9379-4379-93b8-62cf25a54177","system_id":"levelo_inurba_marseille","lat":43.337497,"lon":5.374492,"is_reserved":false,"is_disabled":false,"rental_uris":{"android":"levelo://app?vid=e5cd69c7-9379-4379-93b8-62cf25a54177","ios":"levelo://app?vid=e5cd69c7-9379-4379-93b8-62cf25a54177"},"vehicle_type_id":"4","last_reported":1777416426,"current_range_meters":3600,"station_id":"","pricing_plan_id":"cebpf4jnsgd1na2vs0mg"},{"bike_id":"9778396e-7910-40bd-a602-e9dec0e1d154","system_id":"levelo_inurba_marseille","lat":43.24954,"lon":5.40494,"is_reserved":false,"is_disabled":false,"rental_uris":{"android":"levelo://app?vid=9778396e-7910-40bd-a602-e9dec0e1d154","ios":"levelo://app?vid=9778396e-7910-40bd-a602-e9dec0e1d154"},"vehicle_type_id":"4","last_reported":1777416426,"current_range_meters":3600,"station_id":"st_d2ngiaodas8pm72gd1h0","pricing_plan_id":"cebpf4jnsgd1na2vs0mg"},{"bike_id":"18cd8e51-dd4a-4686-a624-b5605e8c1286","system_id":"levelo_inurba_marseille","lat":43.29586,"lon":5.36728,"is_reserved":false,"is_disabled":true,"rental_uris":{"android":"levelo://app?vid=18cd8e51-dd4a-4686-a624-b5605e8c1286","ios":"levelo://app?vid=18cd8e51-dd4a-4686-a624-b5605e8c1286"},"vehicle_type_id":"4","last_reported":1777416426,"current_range_meters":4000,"station_id":"ce4bgph2rcd13ifvqc2g","pricing_plan_id":"cebpf4jnsgd1na2vs0mg"},{"bike_id":"cc68fed6-437b-4f02-934a-f8fb98275413","system_id":"levelo_inurba_marseille","lat":43.24794,"lon":5.37425,"is_reserved":false,"is_disabled":false,"rental_uris":{"android":"levelo://app?vid=cc68fed6-437b-4f02-934a-f8fb98275413","ios":"levelo://app?vid=cc68fed6-437b-4f02-934a-f8fb98275413"},"vehicle_type_id":"4","last_reported":1777416426,"current_range_meters":4000,"station_id":"ce4bhgh2rcd13ifvqfb0","pricing_plan_id":"cebpf4jnsgd1na2vs0mg"},{"bike_id":"d4a1637e-a775-45af-b60d-a5684440f967","system_id":"levelo_inurba_marseille","lat":43.31286,"lon":5.40145,"is_reserved":false,"is_disabled":false,"rental_uris":{"android":"levelo://app?vid=d4a1637e-a775-45af-b60d-a5684440f967","ios":"levelo://app?vid=d4a1637e-a775-45af-b60d-a5684440f967"},"vehicle_type_id":"4","last_reported":1777416426,"current_range_meters":4000,"station_id":"ce4bh092rcd13ifvqd30","pricing_plan_id":"cebpf4jnsgd1na2vs0mg"},{"bike_id":"2b2662f1-d28b-44f2-b2c8-61c6569e4c3d","system_id":"levelo_inurba_marseille","lat":43.29214,"lon":5.40049,"is_reserved":false,"is_disabled":true,"rental_uris":{"android":"levelo://app?vid=2b2662f1-d28b-44f2-b2c8-61c6569e4c3d","ios":"levelo://app?vid=2b2662f1-d28b-44f2-b2c8-61c6569e4c3d"},"vehicle_type_id":"4","last_reported":1777416426,"current_range_meters":4400,"station_id":"","pricing_plan_id":"cebpf4jnsgd1na2vs0mg"},{"bike_id":"1b179618-6ee8-445e-839f-c72e291e8e14","system_id":"levelo_inurba_marseille","lat":43.29452,"lon":5.39746,"is_reserved":false,"is_disabled":false,"rental_uris":{"android":"levelo://app?vid=1b179618-6ee8-445e-839f-c72e291e8e14","ios":"levelo://app?vid=1b179618-6ee8-445e-839f-c72e291e8e14"},"vehicle_type_id":"4","last_reported":1777416426,"current_range_meters":4400,"station_id":"ce4bh3h2rcd13ifvqdo0","pricing_plan_id":"cebpf4jnsgd1na2vs0mg"},{"bike_id":"04e12462-8d7e-420c-a899-3da03ebacc10","system_id":"levelo_inurba_marseille","lat":43.28942,"lon":5.36626,"is_reserved":false,"is_disabled":false,"rental_uris":{"android":"levelo://app?vid=04e12462-8d7e-420c-a899-3da03ebacc10","ios":"levelo://app?vid=04e12462-8d7e-420c-a899-3da03ebacc10"},"vehicle_type_id":"4","last_reported":1777416426,"current_range_meters":4400,"station_id":"ce4bhap2rcd13ifvqek0","pricing_plan_id":"cebpf4jnsgd1na2vs0mg"},{"bike_id":"4a0c3f88-7d02-4319-82cb-95be064595bb","system_id":"levelo_inurba_marseille","lat":43.29485,"lon":5.43297,"is_reserved":false,"is_disabled":false,"rental_uris":{"android":"levelo://app?vid=4a0c3f88-7d02-4319-82cb-95be064595bb","ios":"levelo://app?vid=4a0c3f88-7d02-4319-82cb-95be064595bb"},"vehicle_type_id":"4","last_reported":1777416426,"current_range_meters":4400,"station_id":"st_d3j5ugp08ojc73fj9d10","pricing_plan_id":"cebpf4jnsgd1na2vs0mg"},{"bike_id":"2f6eb83e-be0e-45c8-babd-e734747c077f","system_id":"levelo_inurba_marseille","lat":43.29004,"lon":5.35602,"is_reserved":false,"is_disabled":false,"rental_uris":{"android":"levelo://app?vid=2f6eb83e-be0e-45c8-babd-e734747c077f","ios":"levelo://app?vid=2f6eb83e-be0e-45c8-babd-e734747c077f"},"vehicle_type_id":"4","last_reported":1777416426,"current_range_meters":4400,"station_id":"ce4bhb92rcd13ifvqen0","pricing_plan_id":"cebpf4jnsgd1na2vs0mg"},{"bike_id":"dc4f256b-dad1-4b0e-b0aa-70815278bacb","system_id":"levelo_inurba_marseille","lat":43.28967,"lon":5.39318,"is_reserved":false,"is_disabled":false,"rental_uris":{"android":"levelo://app?vid=dc4f256b-dad1-4b0e-b0aa-70815278bacb","ios":"levelo://app?vid=dc4f256b-dad1-4b0e-b0aa-70815278bacb"},"vehicle_type_id":"4","last_reported":1777416426,"current_range_meters":4400,"station_id":"","pricing_plan_id":"cebpf4jnsgd1na2vs0mg"},{"bike_id":"b7b9a583-86eb-40d9-b9c4-c333feceb670","system_id":"levelo_inurba_marseille","lat":43.30133,"lon":5.38775,"is_reserved":false,"is_disabled":true,"rental_uris":{"android":"levelo://app?vid=b7b9a583-86eb-40d9-b9c4-c333feceb670","ios":"levelo://app?vid=b7b9a583-86eb-40d9-b9c4-c333feceb670"},"vehicle_type_id":"4","last_reported":1777416426,"current_range_meters":4400,"station_id":"ce4bghh2rcd13ifvqb60","pricing_plan_id":"cebpf4jnsgd1na2vs0mg"},{"bike_id":"ae987c10-ec52-4089-8ab4-892c787c36e9","system_id":"levelo_inurba_marseille","lat":43.26227,"lon":5.38778,"is_reserved":false,"is_disabled":true,"rental_uris":{"android":"levelo://app?vid=ae987c10-ec52-4089-8ab4-892c787c36e9","ios":"levelo://app?vid=ae987c10-ec52-4089-8ab4-892c787c36e9"},"vehicle_type_id":"4","last_reported":1777416426,"current_range_meters":4400,"station_id":"","pricing_plan_id":"cebpf4jnsgd1na2vs0mg"},{"bike_id":"bdf457fa-3aa5-4438-906e-72d136f86bcb","system_id":"levelo_inurba_marseille","lat":43.31061,"lon":5.37183,"is_reserved":false,"is_disabled":false,"rental_uris":{"android":"levelo://app?vid=bdf457fa-3aa5-4438-906e-72d136f86bcb","ios":"levelo://app?vid=bdf457fa-3aa5-4438-906e-72d136f86bcb"},"vehicle_type_id":"4","last_reported":1777416426,"current_range_meters":4800,"station_id":"st_d4kl2rp97mjs73e7tdfg","pricing_plan_id":"cebpf4jnsgd1na2vs0mg"},{"bike_id":"ec248166-4493-4f0c-97f2-9f8af3538b8d","system_id":"levelo_inurba_marseille","lat":43.29712,"lon":5.36575,"is_reserved":false,"is_disabled":false,"rental_uris":{"android":"levelo://app?vid=ec248166-4493-4f0c-97f2-9f8af3538b8d","ios":"levelo://app?vid=ec248166-4493-4f0c-97f2-9f8af3538b8d"},"vehicle_type_id":"4","last_reported":1777416426,"current_range_meters":4800,"station_id":"ce4bgn12rcd13ifvqbt0","pricing_plan_id":"cebpf4jnsgd1na2vs0mg"},{"bike_id":"f28956fb-b430-439e-95c9-b3413e830f4d","system_id":"levelo_inurba_marseille","lat":43.24656,"lon":5.38158,"is_reserved":false,"is_disabled":false,"rental_uris":{"android":"levelo://app?vid=f28956fb-b430-439e-95c9-b3413e830f4d","ios":"levelo://app?vid=f28956fb-b430-439e-95c9-b3413e830f4d"},"vehicle_type_id":"4","last_reported":1777416426,"current_range_meters":4800,"station_id":"ce4bhih2rcd13ifvqfr0","pricing_plan_id":"cebpf4jnsgd1na2vs0mg"},{"bike_id":"2096ee48-f326-404a-abdb-d88acfa8683f","system_id":"levelo_inurba_marseille","lat":43.25108,"lon":5.40322,"is_reserved":false,"is_disabled":false,"rental_uris":{"android":"levelo://app?vid=2096ee48-f326-404a-abdb-d88acfa8683f","ios":"levelo://app?vid=2096ee48-f326-404a-abdb-d88acfa8683f"},"vehicle_type_id":"4","last_reported":1777416426,"current_range_meters":4800,"station_id":"ce4bhlh2rcd13ifvqgig","pricing_plan_id":"cebpf4jnsgd1na2vs0mg"},{"bike_id":"61381c34-ecbf-4530-a99e-914a6e7ef9de","system_id":"levelo_inurba_marseille","lat":43.30926,"lon":5.40161,"is_reserved":false,"is_disabled":false,"rental_uris":{"android":"levelo://app?vid=61381c34-ecbf-4530-a99e-914a6e7ef9de","ios":"levelo://app?vid=61381c34-ecbf-4530-a99e-914a6e7ef9de"},"vehicle_type_id":"4","last_reported":1777416426,"current_range_meters":4800,"station_id":"ce4bgvp2rcd13ifvqct0","pricing_plan_id":"cebpf4jnsgd1na2vs0mg"},{"bike_id":"62928f4c-8098-451f-ba82-afa1cd7fcf62","system_id":"levelo_inurba_marseille","lat":43.31497,"lon":5.37311,"is_reserved":false,"is_disabled":false,"rental_uris":{"android":"levelo://app?vid=62928f4c-8098-451f-ba82-afa1cd7fcf62","ios":"levelo://app?vid=62928f4c-8098-451f-ba82-afa1cd7fcf62"},"vehicle_type_id":"4","last_reported":1777416426,"current_range_meters":4800,"station_id":"ce4bgt12rcd13ifvqcd0","pricing_plan_id":"cebpf4jnsgd1na2vs0mg"},{"bike_id":"987eda33-b3ad-4fac-a63c-0e3ff496e921","system_id":"levelo_inurba_marseille","lat":43.32354,"lon":5.36719,"is_reserved":false,"is_disabled":false,"rental_uris":{"android":"levelo://app?vid=987eda33-b3ad-4fac-a63c-0e3ff496e921","ios":"levelo://app?vid=987eda33-b3ad-4fac-a63c-0e3ff496e921"},"vehicle_type_id":"4","last_reported":1777416426,"current_range_meters":4800,"station_id":"ce4bhsh2rcd13ifvqi2g","pricing_plan_id":"cebpf4jnsgd1na2vs0mg"},{"bike_id":"afde96ac-1493-4085-af72-e5da568a87fd","system_id":"levelo_inurba_marseille","lat":43.28481,"lon":5.48388,"is_reserved":false,"is_disabled":false,"rental_uris":{"android":"levelo://app?vid=afde96ac-1493-4085-af72-e5da568a87fd","ios":"levelo://app?vid=afde96ac-1493-4085-af72-e5da568a87fd"},"vehicle_type_id":"4","last_reported":1777416426,"current_range_meters":4800,"station_id":"st_d3svhcjqgbts73a3dn0g","pricing_plan_id":"cebpf4jnsgd1na2vs0mg"},{"bike_id":"33910e7c-efbd-45e2-adb8-47a6f5b3834b","system_id":"levelo_inurba_marseille","lat":43.26218,"lon":5.40449,"is_reserved":false,"is_disabled":false,"rental_uris":{"android":"levelo://app?vid=33910e7c-efbd-45e2-adb8-47a6f5b3834b","ios":"levelo://app?vid=33910e7c-efbd-45e2-adb8-47a6f5b3834b"},"vehicle_type_id":"4","last_reported":1777416426,"current_range_meters":4800,"station_id":"ce4bhmh2rcd13ifvqgmg","pricing_plan_id":"cebpf4jnsgd1na2vs0mg"},{"bike_id":"77102f6b-020f-4998-b953-84d739c150fb","system_id":"levelo_inurba_marseille","lat":43.28462,"lon":5.35881,"is_reserved":false,"is_disabled":false,"rental_uris":{"android":"levelo://app?vid=77102f6b-020f-4998-b953-84d739c150fb","ios":"levelo://app?vid=77102f6b-020f-4998-b953-84d739c150fb"},"vehicle_type_id":"4","last_reported":1777416426,"current_range_meters":4800,"station_id":"ce4bhah2rcd13ifvqei0","pricing_plan_id":"cebpf4jnsgd1na2vs0mg"},{"bike_id":"5367fafd-42a5-4c52-bd35-5d85953af91c","system_id":"levelo_inurba_marseille","lat":43.3145,"lon":5.37379,"is_reserved":false,"is_disabled":true,"rental_uris":{"android":"levelo://app?vid=5367fafd-42a5-4c52-bd35-5d85953af91c","ios":"levelo://app?vid=5367fafd-42a5-4c52-bd35-5d85953af91c"},"vehicle_type_id":"4","last_reported":1777416426,"current_range_meters":5600,"station_id":"","pricing_plan_id":"cebpf4jnsgd1na2vs0mg"},{"bike_id":"35d2ca7b-eddb-4dac-a6fa-182f3250cc48","system_id":"levelo_inurba_marseille","lat":43.304425,"lon":5.388958,"is_reserved":false,"is_disabled":false,"rental_uris":{"android":"levelo://app?vid=35d2ca7b-eddb-4dac-a6fa-182f3250cc48","ios":"levelo://app?vid=35d2ca7b-eddb-4dac-a6fa-182f3250cc48"},"vehicle_type_id":"4","last_reported":1777416426,"current_range_meters":5600,"station_id":"ce4bgk12rcd13ifvqbi0","pricing_plan_id":"cebpf4jnsgd1na2vs0mg"},{"bike_id":"27cd71a7-0940-4415-a67f-21597fbf1cd9","system_id":"levelo_inurba_marseille","lat":43.34534,"lon":5.37787,"is_reserved":false,"is_disabled":true,"rental_uris":{"android":"levelo://app?vid=27cd71a7-0940-4415-a67f-21597fbf1cd9","ios":"levelo://app?vid=27cd71a7-0940-4415-a67f-21597fbf1cd9"},"vehicle_type_id":"4","last_reported":1777416426,"current_range_meters":5600,"station_id":"","pricing_plan_id":"cebpf4jnsgd1na2vs0mg"},{"bike_id":"94b1d427-102e-4c64-aa76-0c93e226150f","system_id":"levelo_inurba_marseille","lat":43.28474,"lon":5.48402,"is_reserved":false,"is_disabled":false,"rental_uris":{"android":"levelo://app?vid=94b1d427-102e-4c64-aa76-0c93e226150f","ios":"levelo://app?vid=94b1d427-102e-4c64-aa76-0c93e226150f"},"vehicle_type_id":"4","last_reported":1777416426,"current_range_meters":5600,"station_id":"st_d3svhcjqgbts73a3dn0g","pricing_plan_id":"cebpf4jnsgd1na2vs0mg"},{"bike_id":"7fe95aa7-d496-427a-8c95-ca07d89d28d7","system_id":"levelo_inurba_marseille","lat":43.24947,"lon":5.40508,"is_reserved":false,"is_disabled":false,"rental_uris":{"android":"levelo://app?vid=7fe95aa7-d496-427a-8c95-ca07d89d28d7","ios":"levelo://app?vid=7fe95aa7-d496-427a-8c95-ca07d89d28d7"},"vehicle_type_id":"4","last_reported":1777416426,"current_range_meters":5600,"station_id":"st_d2ngiaodas8pm72gd1h0","pricing_plan_id":"cebpf4jnsgd1na2vs0mg"},{"bike_id":"d2276d1c-4dd8-4805-b674-72347073e05f","system_id":"levelo_inurba_marseille","lat":43.28863,"lon":5.42514,"is_reserved":false,"is_disabled":false,"rental_uris":{"android":"levelo://app?vid=d2276d1c-4dd8-4805-b674-72347073e05f","ios":"levelo://app?vid=d2276d1c-4dd8-4805-b674-72347073e05f"},"vehicle_type_id":"4","last_reported":1777416426,"current_range_meters":5600,"station_id":"st_d3b462108ojc7389ooeg","pricing_plan_id":"cebpf4jnsgd1na2vs0mg"},{"bike_id":"5dd1d47f-e52c-4fb9-9ce9-571b6fdfd5e9","system_id":"levelo_inurba_marseille","lat":43.32008,"lon":5.38151,"is_reserved":false,"is_disabled":false,"rental_uris":{"android":"levelo://app?vid=5dd1d47f-e52c-4fb9-9ce9-571b6fdfd5e9","ios":"levelo://app?vid=5dd1d47f-e52c-4fb9-9ce9-571b6fdfd5e9"},"vehicle_type_id":"4","last_reported":1777416426,"current_range_meters":5600,"station_id":"ce4bhr12rcd13ifvqhpg","pricing_plan_id":"cebpf4jnsgd1na2vs0mg"},{"bike_id":"92b0e79d-5118-4cdc-a154-ad1d52d847b8","system_id":"levelo_inurba_marseille","lat":43.29608,"lon":5.36065,"is_reserved":false,"is_disabled":false,"rental_uris":{"android":"levelo://app?vid=92b0e79d-5118-4cdc-a154-ad1d52d847b8","ios":"levelo://app?vid=92b0e79d-5118-4cdc-a154-ad1d52d847b8"},"vehicle_type_id":"4","last_reported":1777416426,"current_range_meters":5600,"station_id":"","pricing_plan_id":"cebpf4jnsgd1na2vs0mg"},{"bike_id":"eec401be-82ad-4f63-b0db-33abd6b577d0","system_id":"levelo_inurba_marseille","lat":43.30124,"lon":5.43113,"is_reserved":false,"is_disabled":false,"rental_uris":{"android":"levelo://app?vid=eec401be-82ad-4f63-b0db-33abd6b577d0","ios":"levelo://app?vid=eec401be-82ad-4f63-b0db-33abd6b577d0"},"vehicle_type_id":"4","last_reported":1777416426,"current_range_meters":5600,"station_id":"st_d3js3co5814s73ftftug","pricing_plan_id":"cebpf4jnsgd1na2vs0mg"},{"bike_id":"31cd8ed9-e8f2-45cd-be7c-f8860664bfd2","system_id":"levelo_inurba_marseille","lat":43.30609,"lon":5.37237,"is_reserved":false,"is_disabled":false,"rental_uris":{"android":"levelo://app?vid=31cd8ed9-e8f2-45cd-be7c-f8860664bfd2","ios":"levelo://app?vid=31cd8ed9-e8f2-45cd-be7c-f8860664bfd2"},"vehicle_type_id":"4","last_reported":1777416426,"current_range_meters":6000,"station_id":"ce4bgqh2rcd13ifvqc4g","pricing_plan_id":"cebpf4jnsgd1na2vs0mg"},{"bike_id":"591f6c8b-3d34-4d3b-b1b2-c443b79414b9","system_id":"levelo_inurba_marseille","lat":43.28946,"lon":5.36637,"is_reserved":false,"is_disabled":false,"rental_uris":{"android":"levelo://app?vid=591f6c8b-3d34-4d3b-b1b2-c443b79414b9","ios":"levelo://app?vid=591f6c8b-3d34-4d3b-b1b2-c443b79414b9"},"vehicle_type_id":"4","last_reported":1777416426,"current_range_meters":6000,"station_id":"ce4bhap2rcd13ifvqek0","pricing_plan_id":"cebpf4jnsgd1na2vs0mg"},{"bike_id":"40d58886-f9c3-4163-8c06-ee6310545b15","system_id":"levelo_inurba_marseille","lat":43.29527,"lon":5.39044,"is_reserved":false,"is_disabled":false,"rental_uris":{"android":"levelo://app?vid=40d58886-f9c3-4163-8c06-ee6310545b15","ios":"levelo://app?vid=40d58886-f9c3-4163-8c06-ee6310545b15"},"vehicle_type_id":"4","last_reported":1777416426,"current_range_meters":6000,"station_id":"ce4bh3p2rcd13ifvqdp0","pricing_plan_id":"cebpf4jnsgd1na2vs0mg"},{"bike_id":"6c9e3478-c8a0-478e-a75b-8210e99a855c","system_id":"levelo_inurba_marseille","lat":43.28571,"lon":5.39501,"is_reserved":false,"is_disabled":false,"rental_uris":{"android":"levelo://app?vid=6c9e3478-c8a0-478e-a75b-8210e99a855c","ios":"levelo://app?vid=6c9e3478-c8a0-478e-a75b-8210e99a855c"},"vehicle_type_id":"4","last_reported":1777416426,"current_range_meters":6000,"station_id":"ce4bh292rcd13ifvqdg0","pricing_plan_id":"cebpf4jnsgd1na2vs0mg"},{"bike_id":"f13c1412-9987-4b53-aa5c-79a6ecb2ba2d","system_id":"levelo_inurba_marseille","lat":43.32366,"lon":5.36756,"is_reserved":false,"is_disabled":false,"rental_uris":{"android":"levelo://app?vid=f13c1412-9987-4b53-aa5c-79a6ecb2ba2d","ios":"levelo://app?vid=f13c1412-9987-4b53-aa5c-79a6ecb2ba2d"},"vehicle_type_id":"4","last_reported":1777416426,"current_range_meters":6000,"station_id":"ce4bhsh2rcd13ifvqi2g","pricing_plan_id":"cebpf4jnsgd1na2vs0mg"},{"bike_id":"c1147df9-36e6-4a23-aaa8-3a6820abcf8d","system_id":"levelo_inurba_marseille","lat":43.24955,"lon":5.40481,"is_reserved":false,"is_disabled":false,"rental_uris":{"android":"levelo://app?vid=c1147df9-36e6-4a23-aaa8-3a6820abcf8d","ios":"levelo://app?vid=c1147df9-36e6-4a23-aaa8-3a6820abcf8d"},"vehicle_type_id":"4","last_reported":1777416426,"current_range_meters":6000,"station_id":"st_d2ngiaodas8pm72gd1h0","pricing_plan_id":"cebpf4jnsgd1na2vs0mg"},{"bike_id":"8b4e6bd3-1e82-4277-a45a-3a8abaa4e3ab","system_id":"levelo_inurba_marseille","lat":43.28467,"lon":5.48387,"is_reserved":false,"is_disabled":false,"rental_uris":{"android":"levelo://app?vid=8b4e6bd3-1e82-4277-a45a-3a8abaa4e3ab","ios":"levelo://app?vid=8b4e6bd3-1e82-4277-a45a-3a8abaa4e3ab"},"vehicle_type_id":"4","last_reported":1777416426,"current_range_meters":6000,"station_id":"","pricing_plan_id":"cebpf4jnsgd1na2vs0mg"},{"bike_id":"a73bfeef-4213-427d-af18-4a5d4cb8ea49","system_id":"levelo_inurba_marseille","lat":43.29533,"lon":5.38514,"is_reserved":false,"is_disabled":false,"rental_uris":{"android":"levelo://app?vid=a73bfeef-4213-427d-af18-4a5d4cb8ea49","ios":"levelo://app?vid=a73bfeef-4213-427d-af18-4a5d4cb8ea49"},"vehicle_type_id":"4","last_reported":1777416426,"current_range_meters":6000,"station_id":"ce4bgih2rcd13ifvqba0","pricing_plan_id":"cebpf4jnsgd1na2vs0mg"},{"bike_id":"ded05958-fdcb-498b-9a1c-70818c0ca620","system_id":"levelo_inurba_marseille","lat":43.27566,"lon":5.384,"is_reserved":false,"is_disabled":false,"rental_uris":{"android":"levelo://app?vid=ded05958-fdcb-498b-9a1c-70818c0ca620","ios":"levelo://app?vid=ded05958-fdcb-498b-9a1c-70818c0ca620"},"vehicle_type_id":"4","last_reported":1777416426,"current_range_meters":6000,"station_id":"ce4bhh92rcd13ifvqfi0","pricing_plan_id":"cebpf4jnsgd1na2vs0mg"},{"bike_id":"bb14d922-2204-4233-9a92-1ff7406803cf","system_id":"levelo_inurba_marseille","lat":43.28461,"lon":5.35891,"is_reserved":false,"is_disabled":false,"rental_uris":{"android":"levelo://app?vid=bb14d922-2204-4233-9a92-1ff7406803cf","ios":"levelo://app?vid=bb14d922-2204-4233-9a92-1ff7406803cf"},"vehicle_type_id":"4","last_reported":1777416426,"current_range_meters":6000,"station_id":"ce4bhah2rcd13ifvqei0","pricing_plan_id":"cebpf4jnsgd1na2vs0mg"},{"bike_id":"c1fdc55c-a85b-4b94-b56b-911a03a5712c","system_id":"levelo_inurba_marseille","lat":43.27408,"lon":5.39393,"is_reserved":false,"is_disabled":true,"rental_uris":{"android":"levelo://app?vid=c1fdc55c-a85b-4b94-b56b-911a03a5712c","ios":"levelo://app?vid=c1fdc55c-a85b-4b94-b56b-911a03a5712c"},"vehicle_type_id":"4","last_reported":1777416426,"current_range_meters":6400,"station_id":"ce4bhdp2rcd13ifvqf20","pricing_plan_id":"cebpf4jnsgd1na2vs0mg"},{"bike_id":"6c105401-d057-4b6f-a53e-ebd13a27c00d","system_id":"levelo_inurba_marseille","lat":43.29775,"lon":5.39354,"is_reserved":false,"is_disabled":false,"rental_uris":{"android":"levelo://app?vid=6c105401-d057-4b6f-a53e-ebd13a27c00d","ios":"levelo://app?vid=6c105401-d057-4b6f-a53e-ebd13a27c00d"},"vehicle_type_id":"4","last_reported":1777416426,"current_range_meters":6400,"station_id":"chh1huq6cuj3fo74tm60","pricing_plan_id":"cebpf4jnsgd1na2vs0mg"},{"bike_id":"bcd67e65-43b0-4b23-bb5c-0bdd7484ac57","system_id":"levelo_inurba_marseille","lat":43.33173,"lon":5.37785,"is_reserved":false,"is_disabled":false,"rental_uris":{"android":"levelo://app?vid=bcd67e65-43b0-4b23-bb5c-0bdd7484ac57","ios":"levelo://app?vid=bcd67e65-43b0-4b23-bb5c-0bdd7484ac57"},"vehicle_type_id":"4","last_reported":1777416426,"current_range_meters":6400,"station_id":"","pricing_plan_id":"cebpf4jnsgd1na2vs0mg"},{"bike_id":"e1d26622-7491-4fdf-a6f0-77cbc7cac2ef","system_id":"levelo_inurba_marseille","lat":43.24181,"lon":5.36405,"is_reserved":false,"is_disabled":true,"rental_uris":{"android":"levelo://app?vid=e1d26622-7491-4fdf-a6f0-77cbc7cac2ef","ios":"levelo://app?vid=e1d26622-7491-4fdf-a6f0-77cbc7cac2ef"},"vehicle_type_id":"4","last_reported":1777416426,"current_range_meters":6400,"station_id":"cpo36qri1sfpv3e86is0","pricing_plan_id":"cebpf4jnsgd1na2vs0mg"},{"bike_id":"72c4ccb8-9c06-4f24-9811-df6eccbecf29","system_id":"levelo_inurba_marseille","lat":43.24956,"lon":5.40487,"is_reserved":false,"is_disabled":false,"rental_uris":{"android":"levelo://app?vid=72c4ccb8-9c06-4f24-9811-df6eccbecf29","ios":"levelo://app?vid=72c4ccb8-9c06-4f24-9811-df6eccbecf29"},"vehicle_type_id":"4","last_reported":1777416426,"current_range_meters":6400,"station_id":"st_d2ngiaodas8pm72gd1h0","pricing_plan_id":"cebpf4jnsgd1na2vs0mg"},{"bike_id":"1bf6bc57-f8be-4912-882e-8fb7d21ff70a","system_id":"levelo_inurba_marseille","lat":43.28896,"lon":5.38337,"is_reserved":false,"is_disabled":true,"rental_uris":{"android":"levelo://app?vid=1bf6bc57-f8be-4912-882e-8fb7d21ff70a","ios":"levelo://app?vid=1bf6bc57-f8be-4912-882e-8fb7d21ff70a"},"vehicle_type_id":"4","last_reported":1777416426,"current_range_meters":6400,"station_id":"","pricing_plan_id":"cebpf4jnsgd1na2vs0mg"},{"bike_id":"963ad63d-bb00-4266-b1cc-ea4a169ad0ab","system_id":"levelo_inurba_marseille","lat":43.23177,"lon":5.39983,"is_reserved":false,"is_disabled":false,"rental_uris":{"android":"levelo://app?vid=963ad63d-bb00-4266-b1cc-ea4a169ad0ab","ios":"levelo://app?vid=963ad63d-bb00-4266-b1cc-ea4a169ad0ab"},"vehicle_type_id":"4","last_reported":1777416426,"current_range_meters":6400,"station_id":"ce4bhn12rcd13ifvqgqg","pricing_plan_id":"cebpf4jnsgd1na2vs0mg"},{"bike_id":"ffbffd47-0143-4030-b45c-3f1330f54185","system_id":"levelo_inurba_marseille","lat":43.27998,"lon":5.41663,"is_reserved":false,"is_disabled":false,"rental_uris":{"android":"levelo://app?vid=ffbffd47-0143-4030-b45c-3f1330f54185","ios":"levelo://app?vid=ffbffd47-0143-4030-b45c-3f1330f54185"},"vehicle_type_id":"4","last_reported":1777416426,"current_range_meters":6400,"station_id":"ce4bho12rcd13ifvqh1g","pricing_plan_id":"cebpf4jnsgd1na2vs0mg"},{"bike_id":"f95871d4-60e9-45b7-92ae-ea38e312f818","system_id":"levelo_inurba_marseille","lat":43.29537,"lon":5.38548,"is_reserved":false,"is_disabled":false,"rental_uris":{"android":"levelo://app?vid=f95871d4-60e9-45b7-92ae-ea38e312f818","ios":"levelo://app?vid=f95871d4-60e9-45b7-92ae-ea38e312f818"},"vehicle_type_id":"4","last_reported":1777416426,"current_range_meters":6400,"station_id":"ce4bgih2rcd13ifvqba0","pricing_plan_id":"cebpf4jnsgd1na2vs0mg"},{"bike_id":"76907408-a8ff-4688-9cbf-66e48bb415e8","system_id":"levelo_inurba_marseille","lat":43.28705,"lon":5.46636,"is_reserved":false,"is_disabled":false,"rental_uris":{"android":"levelo://app?vid=76907408-a8ff-4688-9cbf-66e48bb415e8","ios":"levelo://app?vid=76907408-a8ff-4688-9cbf-66e48bb415e8"},"vehicle_type_id":"4","last_reported":1777416426,"current_range_meters":6400,"station_id":"st_d6tc3vkotcvc738tfjhg","pricing_plan_id":"cebpf4jnsgd1na2vs0mg"},{"bike_id":"057b63d0-a98f-4cee-a884-9b5569ace36b","system_id":"levelo_inurba_marseille","lat":43.28089,"lon":5.39645,"is_reserved":false,"is_disabled":false,"rental_uris":{"android":"levelo://app?vid=057b63d0-a98f-4cee-a884-9b5569ace36b","ios":"levelo://app?vid=057b63d0-a98f-4cee-a884-9b5569ace36b"},"vehicle_type_id":"4","last_reported":1777416426,"current_range_meters":6400,"station_id":"ce4bho12rcd13ifvqh2g","pricing_plan_id":"cebpf4jnsgd1na2vs0mg"},{"bike_id":"1e50c851-896e-44dc-a13c-da834270707c","system_id":"levelo_inurba_marseille","lat":43.27677,"lon":5.38885,"is_reserved":false,"is_disabled":true,"rental_uris":{"android":"levelo://app?vid=1e50c851-896e-44dc-a13c-da834270707c","ios":"levelo://app?vid=1e50c851-896e-44dc-a13c-da834270707c"},"vehicle_type_id":"4","last_reported":1777416426,"current_range_meters":6400,"station_id":"ce4bhi12rcd13ifvqfo0","pricing_plan_id":"cebpf4jnsgd1na2vs0mg"},{"bike_id":"6d51d5c1-cb8c-4445-8648-508008832bb4","system_id":"levelo_inurba_marseille","lat":43.29476,"lon":5.38215,"is_reserved":false,"is_disabled":false,"rental_uris":{"android":"levelo://app?vid=6d51d5c1-cb8c-4445-8648-508008832bb4","ios":"levelo://app?vid=6d51d5c1-cb8c-4445-8648-508008832bb4"},"vehicle_type_id":"4","last_reported":1777416426,"current_range_meters":6400,"station_id":"","pricing_plan_id":"cebpf4jnsgd1na2vs0mg"},{"bike_id":"d1982d5d-2b50-4f23-adfc-8fd8d9a0a2f7","system_id":"levelo_inurba_marseille","lat":43.3095,"lon":5.40104,"is_reserved":false,"is_disabled":false,"rental_uris":{"android":"levelo://app?vid=d1982d5d-2b50-4f23-adfc-8fd8d9a0a2f7","ios":"levelo://app?vid=d1982d5d-2b50-4f23-adfc-8fd8d9a0a2f7"},"vehicle_type_id":"4","last_reported":1777416426,"current_range_meters":6400,"station_id":"ce4bgvp2rcd13ifvqct0","pricing_plan_id":"cebpf4jnsgd1na2vs0mg"},{"bike_id":"9f543810-4dfb-4951-9c10-acd2d2940820","system_id":"levelo_inurba_marseille","lat":43.28557,"lon":5.39479,"is_reserved":false,"is_disabled":true,"rental_uris":{"android":"levelo://app?vid=9f543810-4dfb-4951-9c10-acd2d2940820","ios":"levelo://app?vid=9f543810-4dfb-4951-9c10-acd2d2940820"},"vehicle_type_id":"4","last_reported":1777416426,"current_range_meters":6400,"station_id":"ce4bh292rcd13ifvqdg0","pricing_plan_id":"cebpf4jnsgd1na2vs0mg"},{"bike_id":"a1bc6aec-32eb-4ed7-95ac-b3fcbe6dcbe6","system_id":"levelo_inurba_marseille","lat":43.2512,"lon":5.40298,"is_reserved":false,"is_disabled":false,"rental_uris":{"android":"levelo://app?vid=a1bc6aec-32eb-4ed7-95ac-b3fcbe6dcbe6","ios":"levelo://app?vid=a1bc6aec-32eb-4ed7-95ac-b3fcbe6dcbe6"},"vehicle_type_id":"4","last_reported":1777416426,"current_range_meters":6400,"station_id":"ce4bhlh2rcd13ifvqgig","pricing_plan_id":"cebpf4jnsgd1na2vs0mg"},{"bike_id":"e7486e97-ee9a-4358-a321-effb3f889fcb","system_id":"levelo_inurba_marseille","lat":43.3009,"lon":5.39059,"is_reserved":false,"is_disabled":false,"rental_uris":{"android":"levelo://app?vid=e7486e97-ee9a-4358-a321-effb3f889fcb","ios":"levelo://app?vid=e7486e97-ee9a-4358-a321-effb3f889fcb"},"vehicle_type_id":"4","last_reported":1777416426,"current_range_meters":6400,"station_id":"ce4bh192rcd13ifvqdb0","pricing_plan_id":"cebpf4jnsgd1na2vs0mg"},{"bike_id":"0af2bdc7-ba7f-4124-a2da-7600aed05e11","system_id":"levelo_inurba_marseille","lat":43.30793,"lon":5.37636,"is_reserved":false,"is_disabled":false,"rental_uris":{"android":"levelo://app?vid=0af2bdc7-ba7f-4124-a2da-7600aed05e11","ios":"levelo://app?vid=0af2bdc7-ba7f-4124-a2da-7600aed05e11"},"vehicle_type_id":"4","last_reported":1777416426,"current_range_meters":6800,"station_id":"ce4bgv92rcd13ifvqcq0","pricing_plan_id":"cebpf4jnsgd1na2vs0mg"},{"bike_id":"e116e98a-e7c1-4e2d-9ae3-1a759c33b548","system_id":"levelo_inurba_marseille","lat":43.337444,"lon":5.374475,"is_reserved":false,"is_disabled":false,"rental_uris":{"android":"levelo://app?vid=e116e98a-e7c1-4e2d-9ae3-1a759c33b548","ios":"levelo://app?vid=e116e98a-e7c1-4e2d-9ae3-1a759c33b548"},"vehicle_type_id":"4","last_reported":1777416426,"current_range_meters":6800,"station_id":"ce4bgop2rcd13ifvqc1g","pricing_plan_id":"cebpf4jnsgd1na2vs0mg"},{"bike_id":"fceb4850-6c24-4b20-9118-090928fd1a6b","system_id":"levelo_inurba_marseille","lat":43.30127,"lon":5.39865,"is_reserved":false,"is_disabled":false,"rental_uris":{"android":"levelo://app?vid=fceb4850-6c24-4b20-9118-090928fd1a6b","ios":"levelo://app?vid=fceb4850-6c24-4b20-9118-090928fd1a6b"},"vehicle_type_id":"4","last_reported":1777416426,"current_range_meters":6800,"station_id":"ce4bh0h2rcd13ifvqd40","pricing_plan_id":"cebpf4jnsgd1na2vs0mg"},{"bike_id":"dabc5e28-b9df-4b1a-affa-f2e365a8b45b","system_id":"levelo_inurba_marseille","lat":43.32097,"lon":5.36753,"is_reserved":false,"is_disabled":false,"rental_uris":{"android":"levelo://app?vid=dabc5e28-b9df-4b1a-affa-f2e365a8b45b","ios":"levelo://app?vid=dabc5e28-b9df-4b1a-affa-f2e365a8b45b"},"vehicle_type_id":"4","last_reported":1777416426,"current_range_meters":6800,"station_id":"ce4bhrh2rcd13ifvqhug","pricing_plan_id":"cebpf4jnsgd1na2vs0mg"},{"bike_id":"4541a58b-5803-4873-8531-8182c7674429","system_id":"levelo_inurba_marseille","lat":43.28462,"lon":5.48378,"is_reserved":false,"is_disabled":false,"rental_uris":{"android":"levelo://app?vid=4541a58b-5803-4873-8531-8182c7674429","ios":"levelo://app?vid=4541a58b-5803-4873-8531-8182c7674429"},"vehicle_type_id":"4","last_reported":1777416426,"current_range_meters":6800,"station_id":"st_d3svhcjqgbts73a3dn0g","pricing_plan_id":"cebpf4jnsgd1na2vs0mg"},{"bike_id":"03e55db3-d7dd-45ab-9e4c-854d35569d10","system_id":"levelo_inurba_marseille","lat":43.287029,"lon":5.399905,"is_reserved":false,"is_disabled":false,"rental_uris":{"android":"levelo://app?vid=03e55db3-d7dd-45ab-9e4c-854d35569d10","ios":"levelo://app?vid=03e55db3-d7dd-45ab-9e4c-854d35569d10"},"vehicle_type_id":"4","last_reported":1777416426,"current_range_meters":6800,"station_id":"ce4bho92rcd13ifvqh3g","pricing_plan_id":"cebpf4jnsgd1na2vs0mg"},{"bike_id":"d3bd480c-f6ce-4231-a1d5-20e54cb8851a","system_id":"levelo_inurba_marseille","lat":43.29634,"lon":5.37146,"is_reserved":false,"is_disabled":true,"rental_uris":{"android":"levelo://app?vid=d3bd480c-f6ce-4231-a1d5-20e54cb8851a","ios":"levelo://app?vid=d3bd480c-f6ce-4231-a1d5-20e54cb8851a"},"vehicle_type_id":"4","last_reported":1777416426,"current_range_meters":6800,"station_id":"ce4bgnh2rcd13ifvqc0g","pricing_plan_id":"cebpf4jnsgd1na2vs0mg"},{"bike_id":"27cbbdc8-76be-4943-abdc-2247bea40f15","system_id":"levelo_inurba_marseille","lat":43.28403,"lon":5.34974,"is_reserved":false,"is_disabled":false,"rental_uris":{"android":"levelo://app?vid=27cbbdc8-76be-4943-abdc-2247bea40f15","ios":"levelo://app?vid=27cbbdc8-76be-4943-abdc-2247bea40f15"},"vehicle_type_id":"4","last_reported":1777416426,"current_range_meters":6800,"station_id":"ce4bhbh2rcd13ifvqepg","pricing_plan_id":"cebpf4jnsgd1na2vs0mg"},{"bike_id":"e03a9553-f014-4591-84d1-bb481db182e5","system_id":"levelo_inurba_marseille","lat":43.28694,"lon":5.46664,"is_reserved":false,"is_disabled":false,"rental_uris":{"android":"levelo://app?vid=e03a9553-f014-4591-84d1-bb481db182e5","ios":"levelo://app?vid=e03a9553-f014-4591-84d1-bb481db182e5"},"vehicle_type_id":"4","last_reported":1777416426,"current_range_meters":6800,"station_id":"st_d6tc3vkotcvc738tfjhg","pricing_plan_id":"cebpf4jnsgd1na2vs0mg"},{"bike_id":"4bb1465b-4606-43ac-93d7-c06153f58726","system_id":"levelo_inurba_marseille","lat":43.2845,"lon":5.35899,"is_reserved":false,"is_disabled":false,"rental_uris":{"android":"levelo://app?vid=4bb1465b-4606-43ac-93d7-c06153f58726","ios":"levelo://app?vid=4bb1465b-4606-43ac-93d7-c06153f58726"},"vehicle_type_id":"4","last_reported":1777416426,"current_range_meters":6800,"station_id":"ce4bhah2rcd13ifvqei0","pricing_plan_id":"cebpf4jnsgd1na2vs0mg"},{"bike_id":"0d514707-b6af-4ac5-b05c-97857a4fbdc5","system_id":"levelo_inurba_marseille","lat":43.31317,"lon":5.39697,"is_reserved":false,"is_disabled":false,"rental_uris":{"android":"levelo://app?vid=0d514707-b6af-4ac5-b05c-97857a4fbdc5","ios":"levelo://app?vid=0d514707-b6af-4ac5-b05c-97857a4fbdc5"},"vehicle_type_id":"4","last_reported":1777416426,"current_range_meters":6800,"station_id":"ce4bgvp2rcd13ifvqcu0","pricing_plan_id":"cebpf4jnsgd1na2vs0mg"},{"bike_id":"550b61bf-024e-4f9e-9492-2a8f7afeae1e","system_id":"levelo_inurba_marseille","lat":43.30874,"lon":5.40509,"is_reserved":false,"is_disabled":false,"rental_uris":{"android":"levelo://app?vid=550b61bf-024e-4f9e-9492-2a8f7afeae1e","ios":"levelo://app?vid=550b61bf-024e-4f9e-9492-2a8f7afeae1e"},"vehicle_type_id":"4","last_reported":1777416426,"current_range_meters":6800,"station_id":"","pricing_plan_id":"cebpf4jnsgd1na2vs0mg"},{"bike_id":"b1b02246-22ea-48ef-bf03-02ba7ea06573","system_id":"levelo_inurba_marseille","lat":43.25823,"lon":5.39427,"is_reserved":false,"is_disabled":false,"rental_uris":{"android":"levelo://app?vid=b1b02246-22ea-48ef-bf03-02ba7ea06573","ios":"levelo://app?vid=b1b02246-22ea-48ef-bf03-02ba7ea06573"},"vehicle_type_id":"4","last_reported":1777416426,"current_range_meters":6800,"station_id":"ce4bhip2rcd13ifvqft0","pricing_plan_id":"cebpf4jnsgd1na2vs0mg"},{"bike_id":"6f0baaf3-6b30-497b-b235-e4fe8680b7cf","system_id":"levelo_inurba_marseille","lat":43.29645,"lon":5.406,"is_reserved":false,"is_disabled":false,"rental_uris":{"android":"levelo://app?vid=6f0baaf3-6b30-497b-b235-e4fe8680b7cf","ios":"levelo://app?vid=6f0baaf3-6b30-497b-b235-e4fe8680b7cf"},"vehicle_type_id":"4","last_reported":1777416426,"current_range_meters":6800,"station_id":"ce4bh0h2rcd13ifvqd60","pricing_plan_id":"cebpf4jnsgd1na2vs0mg"},{"bike_id":"f6ebec0c-6132-4184-b4b4-5ef9d4d7f62b","system_id":"levelo_inurba_marseille","lat":43.28673,"lon":5.36329,"is_reserved":false,"is_disabled":false,"rental_uris":{"android":"levelo://app?vid=f6ebec0c-6132-4184-b4b4-5ef9d4d7f62b","ios":"levelo://app?vid=f6ebec0c-6132-4184-b4b4-5ef9d4d7f62b"},"vehicle_type_id":"4","last_reported":1777416426,"current_range_meters":6800,"station_id":"ce4bhah2rcd13ifvqej0","pricing_plan_id":"cebpf4jnsgd1na2vs0mg"},{"bike_id":"870cf028-d317-4365-88b3-cfc8b2733cc6","system_id":"levelo_inurba_marseille","lat":43.28711,"lon":5.46689,"is_reserved":false,"is_disabled":false,"rental_uris":{"android":"levelo://app?vid=870cf028-d317-4365-88b3-cfc8b2733cc6","ios":"levelo://app?vid=870cf028-d317-4365-88b3-cfc8b2733cc6"},"vehicle_type_id":"4","last_reported":1777416426,"current_range_meters":7200,"station_id":"st_d6tc3vkotcvc738tfjhg","pricing_plan_id":"cebpf4jnsgd1na2vs0mg"},{"bike_id":"3daee897-890e-4b98-94c3-e7003ca61ad2","system_id":"levelo_inurba_marseille","lat":43.27571,"lon":5.38408,"is_reserved":false,"is_disabled":false,"rental_uris":{"android":"levelo://app?vid=3daee897-890e-4b98-94c3-e7003ca61ad2","ios":"levelo://app?vid=3daee897-890e-4b98-94c3-e7003ca61ad2"},"vehicle_type_id":"4","last_reported":1777416426,"current_range_meters":7200,"station_id":"ce4bhh92rcd13ifvqfi0","pricing_plan_id":"cebpf4jnsgd1na2vs0mg"},{"bike_id":"3ab70a5f-aebb-46c8-816c-44946693cbbe","system_id":"levelo_inurba_marseille","lat":43.27997,"lon":5.41672,"is_reserved":false,"is_disabled":false,"rental_uris":{"android":"levelo://app?vid=3ab70a5f-aebb-46c8-816c-44946693cbbe","ios":"levelo://app?vid=3ab70a5f-aebb-46c8-816c-44946693cbbe"},"vehicle_type_id":"4","last_reported":1777416426,"current_range_meters":7200,"station_id":"ce4bho12rcd13ifvqh1g","pricing_plan_id":"cebpf4jnsgd1na2vs0mg"},{"bike_id":"f3253984-8723-496b-b1f9-f2af0dda8d75","system_id":"levelo_inurba_marseille","lat":43.30892,"lon":5.39623,"is_reserved":false,"is_disabled":false,"rental_uris":{"android":"levelo://app?vid=f3253984-8723-496b-b1f9-f2af0dda8d75","ios":"levelo://app?vid=f3253984-8723-496b-b1f9-f2af0dda8d75"},"vehicle_type_id":"4","last_reported":1777416426,"current_range_meters":7200,"station_id":"ce4bh012rcd13ifvqcv0","pricing_plan_id":"cebpf4jnsgd1na2vs0mg"},{"bike_id":"e2605e88-9f7b-49cc-8a63-119a038d9512","system_id":"levelo_inurba_marseille","lat":43.25627,"lon":5.38565,"is_reserved":false,"is_disabled":false,"rental_uris":{"android":"levelo://app?vid=e2605e88-9f7b-49cc-8a63-119a038d9512","ios":"levelo://app?vid=e2605e88-9f7b-49cc-8a63-119a038d9512"},"vehicle_type_id":"4","last_reported":1777416426,"current_range_meters":7200,"station_id":"","pricing_plan_id":"cebpf4jnsgd1na2vs0mg"},{"bike_id":"b4b00c12-5cb8-4ac6-a93b-068684e57e20","system_id":"levelo_inurba_marseille","lat":43.29789,"lon":5.39334,"is_reserved":false,"is_disabled":false,"rental_uris":{"android":"levelo://app?vid=b4b00c12-5cb8-4ac6-a93b-068684e57e20","ios":"levelo://app?vid=b4b00c12-5cb8-4ac6-a93b-068684e57e20"},"vehicle_type_id":"4","last_reported":1777416426,"current_range_meters":7200,"station_id":"chh1huq6cuj3fo74tm60","pricing_plan_id":"cebpf4jnsgd1na2vs0mg"},{"bike_id":"8ddf78e6-7053-4f51-a052-cbf410efa6bf","system_id":"levelo_inurba_marseille","lat":43.31246,"lon":5.36853,"is_reserved":false,"is_disabled":false,"rental_uris":{"android":"levelo://app?vid=8ddf78e6-7053-4f51-a052-cbf410efa6bf","ios":"levelo://app?vid=8ddf78e6-7053-4f51-a052-cbf410efa6bf"},"vehicle_type_id":"4","last_reported":1777416426,"current_range_meters":7200,"station_id":"ce4bgl92rcd13ifvqbq0","pricing_plan_id":"cebpf4jnsgd1na2vs0mg"},{"bike_id":"a2b05a2c-c09b-4781-8dc2-188e794d958e","system_id":"levelo_inurba_marseille","lat":43.26571,"lon":5.4033,"is_reserved":false,"is_disabled":false,"rental_uris":{"android":"levelo://app?vid=a2b05a2c-c09b-4781-8dc2-188e794d958e","ios":"levelo://app?vid=a2b05a2c-c09b-4781-8dc2-188e794d958e"},"vehicle_type_id":"4","last_reported":1777416426,"current_range_meters":7200,"station_id":"ce4bhmp2rcd13ifvqgng","pricing_plan_id":"cebpf4jnsgd1na2vs0mg"},{"bike_id":"414603da-e13d-45bd-8030-553c0bac536f","system_id":"levelo_inurba_marseille","lat":43.29008,"lon":5.35616,"is_reserved":false,"is_disabled":false,"rental_uris":{"android":"levelo://app?vid=414603da-e13d-45bd-8030-553c0bac536f","ios":"levelo://app?vid=414603da-e13d-45bd-8030-553c0bac536f"},"vehicle_type_id":"4","last_reported":1777416426,"current_range_meters":7200,"station_id":"ce4bhb92rcd13ifvqen0","pricing_plan_id":"cebpf4jnsgd1na2vs0mg"},{"bike_id":"ccc64b12-fba8-4953-9e4c-789c15629674","system_id":"levelo_inurba_marseille","lat":43.23208,"lon":5.35081,"is_reserved":false,"is_disabled":false,"rental_uris":{"android":"levelo://app?vid=ccc64b12-fba8-4953-9e4c-789c15629674","ios":"levelo://app?vid=ccc64b12-fba8-4953-9e4c-789c15629674"},"vehicle_type_id":"4","last_reported":1777416426,"current_range_meters":7200,"station_id":"","pricing_plan_id":"cebpf4jnsgd1na2vs0mg"},{"bike_id":"525129d8-a7e9-4d3a-94c3-9737193fe89b","system_id":"levelo_inurba_marseille","lat":43.32643,"lon":5.41006,"is_reserved":false,"is_disabled":false,"rental_uris":{"android":"levelo://app?vid=525129d8-a7e9-4d3a-94c3-9737193fe89b","ios":"levelo://app?vid=525129d8-a7e9-4d3a-94c3-9737193fe89b"},"vehicle_type_id":"4","last_reported":1777416426,"current_range_meters":7200,"station_id":"ce4bhpp2rcd13ifvqhgg","pricing_plan_id":"cebpf4jnsgd1na2vs0mg"},{"bike_id":"fadbd9a5-2a49-4734-8db0-528994d97e40","system_id":"levelo_inurba_marseille","lat":43.29272,"lon":5.38362,"is_reserved":false,"is_disabled":false,"rental_uris":{"android":"levelo://app?vid=fadbd9a5-2a49-4734-8db0-528994d97e40","ios":"levelo://app?vid=fadbd9a5-2a49-4734-8db0-528994d97e40"},"vehicle_type_id":"4","last_reported":1777416426,"current_range_meters":7200,"station_id":"","pricing_plan_id":"cebpf4jnsgd1na2vs0mg"},{"bike_id":"57f90bd9-fa9d-42c1-93a4-bc60e7acd42f","system_id":"levelo_inurba_marseille","lat":43.26614,"lon":5.37269,"is_reserved":false,"is_disabled":false,"rental_uris":{"android":"levelo://app?vid=57f90bd9-fa9d-42c1-93a4-bc60e7acd42f","ios":"levelo://app?vid=57f90bd9-fa9d-42c1-93a4-bc60e7acd42f"},"vehicle_type_id":"4","last_reported":1777416426,"current_range_meters":7200,"station_id":"","pricing_plan_id":"cebpf4jnsgd1na2vs0mg"},{"bike_id":"01c578b5-d3ac-4295-8963-0b85678912d1","system_id":"levelo_inurba_marseille","lat":43.28414,"lon":5.375,"is_reserved":false,"is_disabled":false,"rental_uris":{"android":"levelo://app?vid=01c578b5-d3ac-4295-8963-0b85678912d1","ios":"levelo://app?vid=01c578b5-d3ac-4295-8963-0b85678912d1"},"vehicle_type_id":"4","last_reported":1777416426,"current_range_meters":7200,"station_id":"ce4bh412rcd13ifvqds0","pricing_plan_id":"cebpf4jnsgd1na2vs0mg"},{"bike_id":"3cabb206-107f-465e-b3d6-d79024127c12","system_id":"levelo_inurba_marseille","lat":43.28455,"lon":5.35867,"is_reserved":false,"is_disabled":false,"rental_uris":{"android":"levelo://app?vid=3cabb206-107f-465e-b3d6-d79024127c12","ios":"levelo://app?vid=3cabb206-107f-465e-b3d6-d79024127c12"},"vehicle_type_id":"4","last_reported":1777416426,"current_range_meters":7200,"station_id":"ce4bhah2rcd13ifvqei0","pricing_plan_id":"cebpf4jnsgd1na2vs0mg"},{"bike_id":"3437955b-1d01-472d-a152-fed8f08dcf0a","system_id":"levelo_inurba_marseille","lat":43.28419,"lon":5.37494,"is_reserved":false,"is_disabled":false,"rental_uris":{"android":"levelo://app?vid=3437955b-1d01-472d-a152-fed8f08dcf0a","ios":"levelo://app?vid=3437955b-1d01-472d-a152-fed8f08dcf0a"},"vehicle_type_id":"4","last_reported":1777416426,"current_range_meters":7200,"station_id":"ce4bh412rcd13ifvqds0","pricing_plan_id":"cebpf4jnsgd1na2vs0mg"},{"bike_id":"0aa77637-d7e3-499b-846d-09967e25c470","system_id":"levelo_inurba_marseille","lat":43.26205,"lon":5.37942,"is_reserved":false,"is_disabled":false,"rental_uris":{"android":"levelo://app?vid=0aa77637-d7e3-499b-846d-09967e25c470","ios":"levelo://app?vid=0aa77637-d7e3-499b-846d-09967e25c470"},"vehicle_type_id":"4","last_reported":1777416426,"current_range_meters":7200,"station_id":"ce4bhjp2rcd13ifvqg90","pricing_plan_id":"cebpf4jnsgd1na2vs0mg"},{"bike_id":"475b56ab-fd61-45ae-be40-05696313ed1d","system_id":"levelo_inurba_marseille","lat":43.29415,"lon":5.40179,"is_reserved":false,"is_disabled":true,"rental_uris":{"android":"levelo://app?vid=475b56ab-fd61-45ae-be40-05696313ed1d","ios":"levelo://app?vid=475b56ab-fd61-45ae-be40-05696313ed1d"},"vehicle_type_id":"4","last_reported":1777416426,"current_range_meters":7200,"station_id":"","pricing_plan_id":"cebpf4jnsgd1na2vs0mg"},{"bike_id":"dcccaf40-3159-4149-92e2-805cd9f81ade","system_id":"levelo_inurba_marseille","lat":43.29355,"lon":5.37521,"is_reserved":false,"is_disabled":false,"rental_uris":{"android":"levelo://app?vid=dcccaf40-3159-4149-92e2-805cd9f81ade","ios":"levelo://app?vid=dcccaf40-3159-4149-92e2-805cd9f81ade"},"vehicle_type_id":"4","last_reported":1777416426,"current_range_meters":7200,"station_id":"","pricing_plan_id":"cebpf4jnsgd1na2vs0mg"},{"bike_id":"b9c0ca4a-61af-4a0b-994f-7b554a71a91c","system_id":"levelo_inurba_marseille","lat":43.32353,"lon":5.36742,"is_reserved":false,"is_disabled":false,"rental_uris":{"android":"levelo://app?vid=b9c0ca4a-61af-4a0b-994f-7b554a71a91c","ios":"levelo://app?vid=b9c0ca4a-61af-4a0b-994f-7b554a71a91c"},"vehicle_type_id":"4","last_reported":1777416426,"current_range_meters":8000,"station_id":"ce4bhsh2rcd13ifvqi2g","pricing_plan_id":"cebpf4jnsgd1na2vs0mg"},{"bike_id":"f876cb19-0749-40f4-8bd3-e18d1d5c19e4","system_id":"levelo_inurba_marseille","lat":43.31279,"lon":5.40153,"is_reserved":false,"is_disabled":false,"rental_uris":{"android":"levelo://app?vid=f876cb19-0749-40f4-8bd3-e18d1d5c19e4","ios":"levelo://app?vid=f876cb19-0749-40f4-8bd3-e18d1d5c19e4"},"vehicle_type_id":"4","last_reported":1777416426,"current_range_meters":8000,"station_id":"ce4bh092rcd13ifvqd30","pricing_plan_id":"cebpf4jnsgd1na2vs0mg"},{"bike_id":"1673f501-eaa7-4558-954b-d52abde6661f","system_id":"levelo_inurba_marseille","lat":43.28463,"lon":5.35869,"is_reserved":false,"is_disabled":false,"rental_uris":{"android":"levelo://app?vid=1673f501-eaa7-4558-954b-d52abde6661f","ios":"levelo://app?vid=1673f501-eaa7-4558-954b-d52abde6661f"},"vehicle_type_id":"4","last_reported":1777416426,"current_range_meters":8000,"station_id":"ce4bhah2rcd13ifvqei0","pricing_plan_id":"cebpf4jnsgd1na2vs0mg"},{"bike_id":"64caf656-9c5b-4754-be7e-5471268d2436","system_id":"levelo_inurba_marseille","lat":43.29009,"lon":5.38616,"is_reserved":false,"is_disabled":true,"rental_uris":{"android":"levelo://app?vid=64caf656-9c5b-4754-be7e-5471268d2436","ios":"levelo://app?vid=64caf656-9c5b-4754-be7e-5471268d2436"},"vehicle_type_id":"4","last_reported":1777416426,"current_range_meters":8000,"station_id":"ce4bh4p2rcd13ifvqe0g","pricing_plan_id":"cebpf4jnsgd1na2vs0mg"},{"bike_id":"19156f03-ab0b-41c7-9a42-bb1ae8fd0140","system_id":"levelo_inurba_marseille","lat":43.3132,"lon":5.39678,"is_reserved":false,"is_disabled":false,"rental_uris":{"android":"levelo://app?vid=19156f03-ab0b-41c7-9a42-bb1ae8fd0140","ios":"levelo://app?vid=19156f03-ab0b-41c7-9a42-bb1ae8fd0140"},"vehicle_type_id":"4","last_reported":1777416426,"current_range_meters":8000,"station_id":"ce4bgvp2rcd13ifvqcu0","pricing_plan_id":"cebpf4jnsgd1na2vs0mg"},{"bike_id":"2122bcc0-2ad5-42d2-bbe3-29d4151dc388","system_id":"levelo_inurba_marseille","lat":43.30329,"lon":5.40435,"is_reserved":false,"is_disabled":false,"rental_uris":{"android":"levelo://app?vid=2122bcc0-2ad5-42d2-bbe3-29d4151dc388","ios":"levelo://app?vid=2122bcc0-2ad5-42d2-bbe3-29d4151dc388"},"vehicle_type_id":"4","last_reported":1777416426,"current_range_meters":8000,"station_id":"ce4bh012rcd13ifvqd10","pricing_plan_id":"cebpf4jnsgd1na2vs0mg"},{"bike_id":"e255e009-8723-4c49-a399-36d62fb85847","system_id":"levelo_inurba_marseille","lat":43.289705,"lon":5.378328,"is_reserved":false,"is_disabled":false,"rental_uris":{"android":"levelo://app?vid=e255e009-8723-4c49-a399-36d62fb85847","ios":"levelo://app?vid=e255e009-8723-4c49-a399-36d62fb85847"},"vehicle_type_id":"4","last_reported":1777416426,"current_range_meters":8000,"station_id":"ce4bh9p2rcd13ifvqed0","pricing_plan_id":"cebpf4jnsgd1na2vs0mg"},{"bike_id":"5cf5cac4-304b-4407-a8e5-357d3ab6bc0b","system_id":"levelo_inurba_marseille","lat":43.23896,"lon":5.37464,"is_reserved":false,"is_disabled":true,"rental_uris":{"android":"levelo://app?vid=5cf5cac4-304b-4407-a8e5-357d3ab6bc0b","ios":"levelo://app?vid=5cf5cac4-304b-4407-a8e5-357d3ab6bc0b"},"vehicle_type_id":"4","last_reported":1777416426,"current_range_meters":8000,"station_id":"st_d6sm7csbq4hs73f8fpjg","pricing_plan_id":"cebpf4jnsgd1na2vs0mg"},{"bike_id":"f11e3633-986d-40f4-8b5f-6b5e41220dfc","system_id":"levelo_inurba_marseille","lat":43.31914,"lon":5.36799,"is_reserved":false,"is_disabled":false,"rental_uris":{"android":"levelo://app?vid=f11e3633-986d-40f4-8b5f-6b5e41220dfc","ios":"levelo://app?vid=f11e3633-986d-40f4-8b5f-6b5e41220dfc"},"vehicle_type_id":"4","last_reported":1777416426,"current_range_meters":8000,"station_id":"st_d6o2h0d0559c73evc1b0","pricing_plan_id":"cebpf4jnsgd1na2vs0mg"},{"bike_id":"6f2719a6-e990-4c38-a5fb-6fe88070ce3b","system_id":"levelo_inurba_marseille","lat":43.30201,"lon":5.36622,"is_reserved":false,"is_disabled":false,"rental_uris":{"android":"levelo://app?vid=6f2719a6-e990-4c38-a5fb-6fe88070ce3b","ios":"levelo://app?vid=6f2719a6-e990-4c38-a5fb-6fe88070ce3b"},"vehicle_type_id":"4","last_reported":1777416426,"current_range_meters":8000,"station_id":"ce4bgrh2rcd13ifvqc8g","pricing_plan_id":"cebpf4jnsgd1na2vs0mg"},{"bike_id":"ef3a68ef-5b94-411a-921f-f7cda00ffdfc","system_id":"levelo_inurba_marseille","lat":43.29479,"lon":5.39006,"is_reserved":false,"is_disabled":false,"rental_uris":{"android":"levelo://app?vid=ef3a68ef-5b94-411a-921f-f7cda00ffdfc","ios":"levelo://app?vid=ef3a68ef-5b94-411a-921f-f7cda00ffdfc"},"vehicle_type_id":"4","last_reported":1777416426,"current_range_meters":8000,"station_id":"","pricing_plan_id":"cebpf4jnsgd1na2vs0mg"},{"bike_id":"a737d892-66f6-4cdf-9919-272e1c73c5b2","system_id":"levelo_inurba_marseille","lat":43.30874,"lon":5.39621,"is_reserved":false,"is_disabled":false,"rental_uris":{"android":"levelo://app?vid=a737d892-66f6-4cdf-9919-272e1c73c5b2","ios":"levelo://app?vid=a737d892-66f6-4cdf-9919-272e1c73c5b2"},"vehicle_type_id":"4","last_reported":1777416426,"current_range_meters":8000,"station_id":"ce4bh012rcd13ifvqcv0","pricing_plan_id":"cebpf4jnsgd1na2vs0mg"},{"bike_id":"fd9a7039-4e51-4a41-8d94-a62cfc47c861","system_id":"levelo_inurba_marseille","lat":43.26496,"lon":5.39516,"is_reserved":false,"is_disabled":false,"rental_uris":{"android":"levelo://app?vid=fd9a7039-4e51-4a41-8d94-a62cfc47c861","ios":"levelo://app?vid=fd9a7039-4e51-4a41-8d94-a62cfc47c861"},"vehicle_type_id":"4","last_reported":1777416426,"current_range_meters":8000,"station_id":"ce4bhi12rcd13ifvqfq0","pricing_plan_id":"cebpf4jnsgd1na2vs0mg"},{"bike_id":"4dbe00ec-feb8-4193-848e-b5324775416c","system_id":"levelo_inurba_marseille","lat":43.28409,"lon":5.34971,"is_reserved":false,"is_disabled":false,"rental_uris":{"android":"levelo://app?vid=4dbe00ec-feb8-4193-848e-b5324775416c","ios":"levelo://app?vid=4dbe00ec-feb8-4193-848e-b5324775416c"},"vehicle_type_id":"4","last_reported":1777416426,"current_range_meters":8400,"station_id":"ce4bhbh2rcd13ifvqepg","pricing_plan_id":"cebpf4jnsgd1na2vs0mg"},{"bike_id":"d4d191c1-1e42-44ce-acaa-f4fdd3a7ce8e","system_id":"levelo_inurba_marseille","lat":43.2851,"lon":5.38524,"is_reserved":false,"is_disabled":false,"rental_uris":{"android":"levelo://app?vid=d4d191c1-1e42-44ce-acaa-f4fdd3a7ce8e","ios":"levelo://app?vid=d4d191c1-1e42-44ce-acaa-f4fdd3a7ce8e"},"vehicle_type_id":"4","last_reported":1777416426,"current_range_meters":8400,"station_id":"ce4bh8p2rcd13ifvqeb0","pricing_plan_id":"cebpf4jnsgd1na2vs0mg"},{"bike_id":"f41b58a1-1143-45d1-8b95-654505063d61","system_id":"levelo_inurba_marseille","lat":43.28827,"lon":5.39361,"is_reserved":false,"is_disabled":false,"rental_uris":{"android":"levelo://app?vid=f41b58a1-1143-45d1-8b95-654505063d61","ios":"levelo://app?vid=f41b58a1-1143-45d1-8b95-654505063d61"},"vehicle_type_id":"4","last_reported":1777416426,"current_range_meters":8400,"station_id":"ce4bh2p2rcd13ifvqdi0","pricing_plan_id":"cebpf4jnsgd1na2vs0mg"},{"bike_id":"de1b4f6f-6b9d-4fc7-894f-85b3adf5ba9d","system_id":"levelo_inurba_marseille","lat":43.27566,"lon":5.38412,"is_reserved":false,"is_disabled":true,"rental_uris":{"android":"levelo://app?vid=de1b4f6f-6b9d-4fc7-894f-85b3adf5ba9d","ios":"levelo://app?vid=de1b4f6f-6b9d-4fc7-894f-85b3adf5ba9d"},"vehicle_type_id":"4","last_reported":1777416426,"current_range_meters":8400,"station_id":"ce4bhh92rcd13ifvqfi0","pricing_plan_id":"cebpf4jnsgd1na2vs0mg"},{"bike_id":"4f81a05a-97e9-44ec-a51e-366c3977229f","system_id":"levelo_inurba_marseille","lat":43.31332,"lon":5.39699,"is_reserved":false,"is_disabled":false,"rental_uris":{"android":"levelo://app?vid=4f81a05a-97e9-44ec-a51e-366c3977229f","ios":"levelo://app?vid=4f81a05a-97e9-44ec-a51e-366c3977229f"},"vehicle_type_id":"4","last_reported":1777416426,"current_range_meters":8400,"station_id":"ce4bgvp2rcd13ifvqcu0","pricing_plan_id":"cebpf4jnsgd1na2vs0mg"},{"bike_id":"6737b6c6-75ae-4970-baf2-1a244729e21f","system_id":"levelo_inurba_marseille","lat":43.29869,"lon":5.39723,"is_reserved":false,"is_disabled":false,"rental_uris":{"android":"levelo://app?vid=6737b6c6-75ae-4970-baf2-1a244729e21f","ios":"levelo://app?vid=6737b6c6-75ae-4970-baf2-1a244729e21f"},"vehicle_type_id":"4","last_reported":1777416426,"current_range_meters":8400,"station_id":"ce4bh0h2rcd13ifvqd50","pricing_plan_id":"cebpf4jnsgd1na2vs0mg"},{"bike_id":"ee5bca21-2a39-4c24-aced-c94d2451e251","system_id":"levelo_inurba_marseille","lat":43.27988,"lon":5.41665,"is_reserved":false,"is_disabled":false,"rental_uris":{"android":"levelo://app?vid=ee5bca21-2a39-4c24-aced-c94d2451e251","ios":"levelo://app?vid=ee5bca21-2a39-4c24-aced-c94d2451e251"},"vehicle_type_id":"4","last_reported":1777416426,"current_range_meters":8400,"station_id":"ce4bho12rcd13ifvqh1g","pricing_plan_id":"cebpf4jnsgd1na2vs0mg"},{"bike_id":"11effbb2-3489-4e85-aec9-0e018fcdcc03","system_id":"levelo_inurba_marseille","lat":43.23205,"lon":5.35542,"is_reserved":false,"is_disabled":false,"rental_uris":{"android":"levelo://app?vid=11effbb2-3489-4e85-aec9-0e018fcdcc03","ios":"levelo://app?vid=11effbb2-3489-4e85-aec9-0e018fcdcc03"},"vehicle_type_id":"4","last_reported":1777416426,"current_range_meters":8400,"station_id":"ce4bhu92rcd13ifvqi70","pricing_plan_id":"cebpf4jnsgd1na2vs0mg"},{"bike_id":"a8bdb7a5-dc75-490e-ae03-5d793618d9ad","system_id":"levelo_inurba_marseille","lat":43.25826,"lon":5.39419,"is_reserved":false,"is_disabled":false,"rental_uris":{"android":"levelo://app?vid=a8bdb7a5-dc75-490e-ae03-5d793618d9ad","ios":"levelo://app?vid=a8bdb7a5-dc75-490e-ae03-5d793618d9ad"},"vehicle_type_id":"4","last_reported":1777416426,"current_range_meters":8400,"station_id":"ce4bhip2rcd13ifvqft0","pricing_plan_id":"cebpf4jnsgd1na2vs0mg"},{"bike_id":"2a9f517f-dc7e-442a-8a6e-b3ad6200cb4e","system_id":"levelo_inurba_marseille","lat":43.33554,"lon":5.37457,"is_reserved":false,"is_disabled":false,"rental_uris":{"android":"levelo://app?vid=2a9f517f-dc7e-442a-8a6e-b3ad6200cb4e","ios":"levelo://app?vid=2a9f517f-dc7e-442a-8a6e-b3ad6200cb4e"},"vehicle_type_id":"4","last_reported":1777416426,"current_range_meters":8400,"station_id":"st_d46tts09ee8s73dlu43g","pricing_plan_id":"cebpf4jnsgd1na2vs0mg"},{"bike_id":"97101e97-9dc1-46b9-aa51-c662f292853d","system_id":"levelo_inurba_marseille","lat":43.28147,"lon":5.42642,"is_reserved":false,"is_disabled":false,"rental_uris":{"android":"levelo://app?vid=97101e97-9dc1-46b9-aa51-c662f292853d","ios":"levelo://app?vid=97101e97-9dc1-46b9-aa51-c662f292853d"},"vehicle_type_id":"4","last_reported":1777416426,"current_range_meters":8400,"station_id":"ce4bhnh2rcd13ifvqgug","pricing_plan_id":"cebpf4jnsgd1na2vs0mg"},{"bike_id":"0256971e-927a-4136-bafd-665aafac7fc7","system_id":"levelo_inurba_marseille","lat":43.21759,"lon":5.34579,"is_reserved":false,"is_disabled":true,"rental_uris":{"android":"levelo://app?vid=0256971e-927a-4136-bafd-665aafac7fc7","ios":"levelo://app?vid=0256971e-927a-4136-bafd-665aafac7fc7"},"vehicle_type_id":"4","last_reported":1777416426,"current_range_meters":8400,"station_id":"st_cvj6r9ubvosntc0bgbag","pricing_plan_id":"cebpf4jnsgd1na2vs0mg"},{"bike_id":"5a082d0b-9dcd-4b27-b749-e7a082c3a4b6","system_id":"levelo_inurba_marseille","lat":43.25156,"lon":5.40459,"is_reserved":false,"is_disabled":false,"rental_uris":{"android":"levelo://app?vid=5a082d0b-9dcd-4b27-b749-e7a082c3a4b6","ios":"levelo://app?vid=5a082d0b-9dcd-4b27-b749-e7a082c3a4b6"},"vehicle_type_id":"4","last_reported":1777416426,"current_range_meters":8400,"station_id":"","pricing_plan_id":"cebpf4jnsgd1na2vs0mg"},{"bike_id":"f85937b2-0ec4-4bc0-9c45-454acbb4424f","system_id":"levelo_inurba_marseille","lat":43.24943,"lon":5.40494,"is_reserved":false,"is_disabled":false,"rental_uris":{"android":"levelo://app?vid=f85937b2-0ec4-4bc0-9c45-454acbb4424f","ios":"levelo://app?vid=f85937b2-0ec4-4bc0-9c45-454acbb4424f"},"vehicle_type_id":"4","last_reported":1777416426,"current_range_meters":8400,"station_id":"st_d2ngiaodas8pm72gd1h0","pricing_plan_id":"cebpf4jnsgd1na2vs0mg"},{"bike_id":"85f3b9c2-6b48-4feb-b43a-7411008343ed","system_id":"levelo_inurba_marseille","lat":43.29598,"lon":5.36769,"is_reserved":false,"is_disabled":false,"rental_uris":{"android":"levelo://app?vid=85f3b9c2-6b48-4feb-b43a-7411008343ed","ios":"levelo://app?vid=85f3b9c2-6b48-4feb-b43a-7411008343ed"},"vehicle_type_id":"4","last_reported":1777416426,"current_range_meters":8400,"station_id":"ce4bgph2rcd13ifvqc2g","pricing_plan_id":"cebpf4jnsgd1na2vs0mg"},{"bike_id":"14015fc9-b839-4138-b4d5-9a2f5afbe521","system_id":"levelo_inurba_marseille","lat":43.29186,"lon":5.42561,"is_reserved":false,"is_disabled":false,"rental_uris":{"android":"levelo://app?vid=14015fc9-b839-4138-b4d5-9a2f5afbe521","ios":"levelo://app?vid=14015fc9-b839-4138-b4d5-9a2f5afbe521"},"vehicle_type_id":"4","last_reported":1777416426,"current_range_meters":8400,"station_id":"","pricing_plan_id":"cebpf4jnsgd1na2vs0mg"},{"bike_id":"a097e494-0d3f-4dd7-be79-ea70422940dc","system_id":"levelo_inurba_marseille","lat":43.30884,"lon":5.39626,"is_reserved":false,"is_disabled":false,"rental_uris":{"android":"levelo://app?vid=a097e494-0d3f-4dd7-be79-ea70422940dc","ios":"levelo://app?vid=a097e494-0d3f-4dd7-be79-ea70422940dc"},"vehicle_type_id":"4","last_reported":1777416426,"current_range_meters":8400,"station_id":"ce4bh012rcd13ifvqcv0","pricing_plan_id":"cebpf4jnsgd1na2vs0mg"},{"bike_id":"37970c61-7528-4352-a724-5c9197d918a1","system_id":"levelo_inurba_marseille","lat":43.24657,"lon":5.38118,"is_reserved":false,"is_disabled":false,"rental_uris":{"android":"levelo://app?vid=37970c61-7528-4352-a724-5c9197d918a1","ios":"levelo://app?vid=37970c61-7528-4352-a724-5c9197d918a1"},"vehicle_type_id":"4","last_reported":1777416426,"current_range_meters":8400,"station_id":"ce4bhih2rcd13ifvqfr0","pricing_plan_id":"cebpf4jnsgd1na2vs0mg"},{"bike_id":"c1edb402-7c06-4cd6-8cc7-15e21ad51dc8","system_id":"levelo_inurba_marseille","lat":43.24176,"lon":5.39717,"is_reserved":false,"is_disabled":false,"rental_uris":{"android":"levelo://app?vid=c1edb402-7c06-4cd6-8cc7-15e21ad51dc8","ios":"levelo://app?vid=c1edb402-7c06-4cd6-8cc7-15e21ad51dc8"},"vehicle_type_id":"4","last_reported":1777416426,"current_range_meters":8400,"station_id":"ce4bhn12rcd13ifvqgpg","pricing_plan_id":"cebpf4jnsgd1na2vs0mg"},{"bike_id":"159f0344-33aa-4474-b32d-fa8eef2e2f62","system_id":"levelo_inurba_marseille","lat":43.29495,"lon":5.43298,"is_reserved":false,"is_disabled":false,"rental_uris":{"android":"levelo://app?vid=159f0344-33aa-4474-b32d-fa8eef2e2f62","ios":"levelo://app?vid=159f0344-33aa-4474-b32d-fa8eef2e2f62"},"vehicle_type_id":"4","last_reported":1777416426,"current_range_meters":8400,"station_id":"st_d3j5ugp08ojc73fj9d10","pricing_plan_id":"cebpf4jnsgd1na2vs0mg"},{"bike_id":"22f07e39-16f3-42f3-9b1a-06a4c964ff00","system_id":"levelo_inurba_marseille","lat":43.30854,"lon":5.39591,"is_reserved":false,"is_disabled":false,"rental_uris":{"android":"levelo://app?vid=22f07e39-16f3-42f3-9b1a-06a4c964ff00","ios":"levelo://app?vid=22f07e39-16f3-42f3-9b1a-06a4c964ff00"},"vehicle_type_id":"4","last_reported":1777416426,"current_range_meters":8400,"station_id":"","pricing_plan_id":"cebpf4jnsgd1na2vs0mg"},{"bike_id":"a6a7e439-2b8e-40ed-81ca-7f49b40dc9a0","system_id":"levelo_inurba_marseille","lat":43.26608,"lon":5.39065,"is_reserved":false,"is_disabled":false,"rental_uris":{"android":"levelo://app?vid=a6a7e439-2b8e-40ed-81ca-7f49b40dc9a0","ios":"levelo://app?vid=a6a7e439-2b8e-40ed-81ca-7f49b40dc9a0"},"vehicle_type_id":"4","last_reported":1777416426,"current_range_meters":8800,"station_id":"ce4bhe12rcd13ifvqf30","pricing_plan_id":"cebpf4jnsgd1na2vs0mg"},{"bike_id":"6fa445d0-494c-4062-944f-f47660cfab7e","system_id":"levelo_inurba_marseille","lat":43.2768,"lon":5.38885,"is_reserved":false,"is_disabled":false,"rental_uris":{"android":"levelo://app?vid=6fa445d0-494c-4062-944f-f47660cfab7e","ios":"levelo://app?vid=6fa445d0-494c-4062-944f-f47660cfab7e"},"vehicle_type_id":"4","last_reported":1777416426,"current_range_meters":8800,"station_id":"ce4bhi12rcd13ifvqfo0","pricing_plan_id":"cebpf4jnsgd1na2vs0mg"},{"bike_id":"5f2b664d-3299-4b97-a16c-944e74430601","system_id":"levelo_inurba_marseille","lat":43.29293,"lon":5.36385,"is_reserved":false,"is_disabled":false,"rental_uris":{"android":"levelo://app?vid=5f2b664d-3299-4b97-a16c-944e74430601","ios":"levelo://app?vid=5f2b664d-3299-4b97-a16c-944e74430601"},"vehicle_type_id":"4","last_reported":1777416426,"current_range_meters":8800,"station_id":"","pricing_plan_id":"cebpf4jnsgd1na2vs0mg"},{"bike_id":"720aaca0-7381-4ad3-a448-e3b6ce6e25fe","system_id":"levelo_inurba_marseille","lat":43.29572,"lon":5.39975,"is_reserved":false,"is_disabled":false,"rental_uris":{"android":"levelo://app?vid=720aaca0-7381-4ad3-a448-e3b6ce6e25fe","ios":"levelo://app?vid=720aaca0-7381-4ad3-a448-e3b6ce6e25fe"},"vehicle_type_id":"4","last_reported":1777416426,"current_range_meters":8800,"station_id":"ce4bh312rcd13ifvqdj0","pricing_plan_id":"cebpf4jnsgd1na2vs0mg"},{"bike_id":"c5d87c94-f8c8-47f4-ae84-ea0b6e6ae165","system_id":"levelo_inurba_marseille","lat":43.26279,"lon":5.389,"is_reserved":false,"is_disabled":false,"rental_uris":{"android":"levelo://app?vid=c5d87c94-f8c8-47f4-ae84-ea0b6e6ae165","ios":"levelo://app?vid=c5d87c94-f8c8-47f4-ae84-ea0b6e6ae165"},"vehicle_type_id":"4","last_reported":1777416426,"current_range_meters":8800,"station_id":"","pricing_plan_id":"cebpf4jnsgd1na2vs0mg"},{"bike_id":"598c6717-67fc-4f6e-925f-0863d093edf7","system_id":"levelo_inurba_marseille","lat":43.28677,"lon":5.38659,"is_reserved":false,"is_disabled":false,"rental_uris":{"android":"levelo://app?vid=598c6717-67fc-4f6e-925f-0863d093edf7","ios":"levelo://app?vid=598c6717-67fc-4f6e-925f-0863d093edf7"},"vehicle_type_id":"4","last_reported":1777416426,"current_range_meters":8800,"station_id":"ce4bh492rcd13ifvqdug","pricing_plan_id":"cebpf4jnsgd1na2vs0mg"},{"bike_id":"1bb8344f-1db0-45ef-ad3e-3af45d1f5a9f","system_id":"levelo_inurba_marseille","lat":43.25736,"lon":5.38717,"is_reserved":false,"is_disabled":false,"rental_uris":{"android":"levelo://app?vid=1bb8344f-1db0-45ef-ad3e-3af45d1f5a9f","ios":"levelo://app?vid=1bb8344f-1db0-45ef-ad3e-3af45d1f5a9f"},"vehicle_type_id":"4","last_reported":1777416426,"current_range_meters":8800,"station_id":"","pricing_plan_id":"cebpf4jnsgd1na2vs0mg"},{"bike_id":"c46d8a22-772b-40f4-a01d-512476bc1bbf","system_id":"levelo_inurba_marseille","lat":43.2497,"lon":5.40506,"is_reserved":false,"is_disabled":false,"rental_uris":{"android":"levelo://app?vid=c46d8a22-772b-40f4-a01d-512476bc1bbf","ios":"levelo://app?vid=c46d8a22-772b-40f4-a01d-512476bc1bbf"},"vehicle_type_id":"4","last_reported":1777416426,"current_range_meters":8800,"station_id":"st_d2ngiaodas8pm72gd1h0","pricing_plan_id":"cebpf4jnsgd1na2vs0mg"},{"bike_id":"2c0808ca-959e-46d2-bd7d-5fa523a2fa9a","system_id":"levelo_inurba_marseille","lat":43.3063,"lon":5.43635,"is_reserved":false,"is_disabled":false,"rental_uris":{"android":"levelo://app?vid=2c0808ca-959e-46d2-bd7d-5fa523a2fa9a","ios":"levelo://app?vid=2c0808ca-959e-46d2-bd7d-5fa523a2fa9a"},"vehicle_type_id":"4","last_reported":1777416426,"current_range_meters":8800,"station_id":"","pricing_plan_id":"cebpf4jnsgd1na2vs0mg"},{"bike_id":"55bac593-352e-4642-8639-19fe2b8d6c00","system_id":"levelo_inurba_marseille","lat":43.27647,"lon":5.35836,"is_reserved":false,"is_disabled":false,"rental_uris":{"android":"levelo://app?vid=55bac593-352e-4642-8639-19fe2b8d6c00","ios":"levelo://app?vid=55bac593-352e-4642-8639-19fe2b8d6c00"},"vehicle_type_id":"4","last_reported":1777416426,"current_range_meters":8800,"station_id":"","pricing_plan_id":"cebpf4jnsgd1na2vs0mg"},{"bike_id":"ef2f410f-463c-4127-8f21-3ae500dd4eda","system_id":"levelo_inurba_marseille","lat":43.28418,"lon":5.37538,"is_reserved":false,"is_disabled":true,"rental_uris":{"android":"levelo://app?vid=ef2f410f-463c-4127-8f21-3ae500dd4eda","ios":"levelo://app?vid=ef2f410f-463c-4127-8f21-3ae500dd4eda"},"vehicle_type_id":"4","last_reported":1777416426,"current_range_meters":8800,"station_id":"ce4bh412rcd13ifvqds0","pricing_plan_id":"cebpf4jnsgd1na2vs0mg"},{"bike_id":"e1bfb3b6-25b1-478e-a2d9-d38c60c7866f","system_id":"levelo_inurba_marseille","lat":43.30241,"lon":5.40043,"is_reserved":false,"is_disabled":false,"rental_uris":{"android":"levelo://app?vid=e1bfb3b6-25b1-478e-a2d9-d38c60c7866f","ios":"levelo://app?vid=e1bfb3b6-25b1-478e-a2d9-d38c60c7866f"},"vehicle_type_id":"4","last_reported":1777416426,"current_range_meters":8800,"station_id":"ce4bgvh2rcd13ifvqcs0","pricing_plan_id":"cebpf4jnsgd1na2vs0mg"},{"bike_id":"d2598843-e05e-47d7-8331-32836a619318","system_id":"levelo_inurba_marseille","lat":43.29776,"lon":5.39346,"is_reserved":false,"is_disabled":false,"rental_uris":{"android":"levelo://app?vid=d2598843-e05e-47d7-8331-32836a619318","ios":"levelo://app?vid=d2598843-e05e-47d7-8331-32836a619318"},"vehicle_type_id":"4","last_reported":1777416426,"current_range_meters":8800,"station_id":"chh1huq6cuj3fo74tm60","pricing_plan_id":"cebpf4jnsgd1na2vs0mg"},{"bike_id":"bd94bc60-9f42-49d8-b356-f62ba9512bc6","system_id":"levelo_inurba_marseille","lat":43.26437,"lon":5.39947,"is_reserved":false,"is_disabled":false,"rental_uris":{"android":"levelo://app?vid=bd94bc60-9f42-49d8-b356-f62ba9512bc6","ios":"levelo://app?vid=bd94bc60-9f42-49d8-b356-f62ba9512bc6"},"vehicle_type_id":"4","last_reported":1777416426,"current_range_meters":8800,"station_id":"","pricing_plan_id":"cebpf4jnsgd1na2vs0mg"},{"bike_id":"fb48eb95-a721-45e3-a917-4c0e5102e02d","system_id":"levelo_inurba_marseille","lat":43.23208,"lon":5.35568,"is_reserved":false,"is_disabled":false,"rental_uris":{"android":"levelo://app?vid=fb48eb95-a721-45e3-a917-4c0e5102e02d","ios":"levelo://app?vid=fb48eb95-a721-45e3-a917-4c0e5102e02d"},"vehicle_type_id":"4","last_reported":1777416426,"current_range_meters":8800,"station_id":"ce4bhu92rcd13ifvqi70","pricing_plan_id":"cebpf4jnsgd1na2vs0mg"},{"bike_id":"13a19b64-2305-48b9-97ca-f768ee4bbad0","system_id":"levelo_inurba_marseille","lat":43.2799,"lon":5.41657,"is_reserved":false,"is_disabled":false,"rental_uris":{"android":"levelo://app?vid=13a19b64-2305-48b9-97ca-f768ee4bbad0","ios":"levelo://app?vid=13a19b64-2305-48b9-97ca-f768ee4bbad0"},"vehicle_type_id":"4","last_reported":1777416426,"current_range_meters":8800,"station_id":"ce4bho12rcd13ifvqh1g","pricing_plan_id":"cebpf4jnsgd1na2vs0mg"},{"bike_id":"e86fde7f-f309-4c5c-9613-864f1a66fd8e","system_id":"levelo_inurba_marseille","lat":43.28869,"lon":5.42527,"is_reserved":false,"is_disabled":false,"rental_uris":{"android":"levelo://app?vid=e86fde7f-f309-4c5c-9613-864f1a66fd8e","ios":"levelo://app?vid=e86fde7f-f309-4c5c-9613-864f1a66fd8e"},"vehicle_type_id":"4","last_reported":1777416426,"current_range_meters":8800,"station_id":"st_d3b462108ojc7389ooeg","pricing_plan_id":"cebpf4jnsgd1na2vs0mg"},{"bike_id":"ea36c9e8-58b8-4f79-a3ce-b396281d3b24","system_id":"levelo_inurba_marseille","lat":43.305074,"lon":5.380769,"is_reserved":false,"is_disabled":false,"rental_uris":{"android":"levelo://app?vid=ea36c9e8-58b8-4f79-a3ce-b396281d3b24","ios":"levelo://app?vid=ea36c9e8-58b8-4f79-a3ce-b396281d3b24"},"vehicle_type_id":"4","last_reported":1777416426,"current_range_meters":8800,"station_id":"","pricing_plan_id":"cebpf4jnsgd1na2vs0mg"},{"bike_id":"5e197578-e13f-44b4-9a21-b9f34c9f44ad","system_id":"levelo_inurba_marseille","lat":43.31172,"lon":5.38721,"is_reserved":false,"is_disabled":false,"rental_uris":{"android":"levelo://app?vid=5e197578-e13f-44b4-9a21-b9f34c9f44ad","ios":"levelo://app?vid=5e197578-e13f-44b4-9a21-b9f34c9f44ad"},"vehicle_type_id":"4","last_reported":1777416426,"current_range_meters":9200,"station_id":"ce4bgv12rcd13ifvqcp0","pricing_plan_id":"cebpf4jnsgd1na2vs0mg"},{"bike_id":"18332f58-81f7-4eda-a375-56b548be15d5","system_id":"levelo_inurba_marseille","lat":43.30644,"lon":5.40063,"is_reserved":false,"is_disabled":false,"rental_uris":{"android":"levelo://app?vid=18332f58-81f7-4eda-a375-56b548be15d5","ios":"levelo://app?vid=18332f58-81f7-4eda-a375-56b548be15d5"},"vehicle_type_id":"4","last_reported":1777416426,"current_range_meters":9200,"station_id":"ce4bh112rcd13ifvqda0","pricing_plan_id":"cebpf4jnsgd1na2vs0mg"},{"bike_id":"d800f8e4-f2df-4e76-9327-b54c86d9f091","system_id":"levelo_inurba_marseille","lat":43.3117,"lon":5.38711,"is_reserved":false,"is_disabled":false,"rental_uris":{"android":"levelo://app?vid=d800f8e4-f2df-4e76-9327-b54c86d9f091","ios":"levelo://app?vid=d800f8e4-f2df-4e76-9327-b54c86d9f091"},"vehicle_type_id":"4","last_reported":1777416426,"current_range_meters":9200,"station_id":"ce4bgv12rcd13ifvqcp0","pricing_plan_id":"cebpf4jnsgd1na2vs0mg"},{"bike_id":"8c2ebc41-7bef-4c6d-91ac-124371586248","system_id":"levelo_inurba_marseille","lat":43.25589,"lon":5.38211,"is_reserved":false,"is_disabled":false,"rental_uris":{"android":"levelo://app?vid=8c2ebc41-7bef-4c6d-91ac-124371586248","ios":"levelo://app?vid=8c2ebc41-7bef-4c6d-91ac-124371586248"},"vehicle_type_id":"4","last_reported":1777416426,"current_range_meters":9200,"station_id":"ce4bhih2rcd13ifvqfs0","pricing_plan_id":"cebpf4jnsgd1na2vs0mg"},{"bike_id":"aa1c53b3-e875-48f6-8f11-5585989ab701","system_id":"levelo_inurba_marseille","lat":43.29179,"lon":5.39299,"is_reserved":false,"is_disabled":true,"rental_uris":{"android":"levelo://app?vid=aa1c53b3-e875-48f6-8f11-5585989ab701","ios":"levelo://app?vid=aa1c53b3-e875-48f6-8f11-5585989ab701"},"vehicle_type_id":"4","last_reported":1777416426,"current_range_meters":9200,"station_id":"ce4bh192rcd13ifvqdd0","pricing_plan_id":"cebpf4jnsgd1na2vs0mg"},{"bike_id":"acc57406-75de-43a2-a6ec-d941193f0be0","system_id":"levelo_inurba_marseille","lat":43.32352,"lon":5.36727,"is_reserved":false,"is_disabled":false,"rental_uris":{"android":"levelo://app?vid=acc57406-75de-43a2-a6ec-d941193f0be0","ios":"levelo://app?vid=acc57406-75de-43a2-a6ec-d941193f0be0"},"vehicle_type_id":"4","last_reported":1777416426,"current_range_meters":9200,"station_id":"ce4bhsh2rcd13ifvqi2g","pricing_plan_id":"cebpf4jnsgd1na2vs0mg"},{"bike_id":"c61342a3-6e47-42a6-94c5-1445c14a9a04","system_id":"levelo_inurba_marseille","lat":43.28853,"lon":5.39314,"is_reserved":false,"is_disabled":false,"rental_uris":{"android":"levelo://app?vid=c61342a3-6e47-42a6-94c5-1445c14a9a04","ios":"levelo://app?vid=c61342a3-6e47-42a6-94c5-1445c14a9a04"},"vehicle_type_id":"4","last_reported":1777416426,"current_range_meters":9200,"station_id":"ce4bh2p2rcd13ifvqdi0","pricing_plan_id":"cebpf4jnsgd1na2vs0mg"},{"bike_id":"f09be4bd-a2d5-46b5-ab6e-102974142b02","system_id":"levelo_inurba_marseille","lat":43.3132,"lon":5.39706,"is_reserved":false,"is_disabled":false,"rental_uris":{"android":"levelo://app?vid=f09be4bd-a2d5-46b5-ab6e-102974142b02","ios":"levelo://app?vid=f09be4bd-a2d5-46b5-ab6e-102974142b02"},"vehicle_type_id":"4","last_reported":1777416426,"current_range_meters":9200,"station_id":"ce4bgvp2rcd13ifvqcu0","pricing_plan_id":"cebpf4jnsgd1na2vs0mg"},{"bike_id":"3d629aa3-896b-404c-8ce1-01df00b063ac","system_id":"levelo_inurba_marseille","lat":43.29655,"lon":5.40587,"is_reserved":false,"is_disabled":true,"rental_uris":{"android":"levelo://app?vid=3d629aa3-896b-404c-8ce1-01df00b063ac","ios":"levelo://app?vid=3d629aa3-896b-404c-8ce1-01df00b063ac"},"vehicle_type_id":"4","last_reported":1777416426,"current_range_meters":9200,"station_id":"ce4bh0h2rcd13ifvqd60","pricing_plan_id":"cebpf4jnsgd1na2vs0mg"},{"bike_id":"87e25f35-2d83-40b5-9491-e5fcf313d252","system_id":"levelo_inurba_marseille","lat":43.2341,"lon":5.41212,"is_reserved":false,"is_disabled":false,"rental_uris":{"android":"levelo://app?vid=87e25f35-2d83-40b5-9491-e5fcf313d252","ios":"levelo://app?vid=87e25f35-2d83-40b5-9491-e5fcf313d252"},"vehicle_type_id":"4","last_reported":1777416426,"current_range_meters":9200,"station_id":"st_d75pvndhf9lc73cqq3eg","pricing_plan_id":"cebpf4jnsgd1na2vs0mg"},{"bike_id":"534b97ea-f6d0-46ed-8cfc-c8717ec6a1bf","system_id":"levelo_inurba_marseille","lat":43.27834,"lon":5.39189,"is_reserved":false,"is_disabled":false,"rental_uris":{"android":"levelo://app?vid=534b97ea-f6d0-46ed-8cfc-c8717ec6a1bf","ios":"levelo://app?vid=534b97ea-f6d0-46ed-8cfc-c8717ec6a1bf"},"vehicle_type_id":"4","last_reported":1777416426,"current_range_meters":9200,"station_id":"ce4bhjp2rcd13ifvqga0","pricing_plan_id":"cebpf4jnsgd1na2vs0mg"},{"bike_id":"ae021663-2e05-40c8-b86d-c1c36d30e619","system_id":"levelo_inurba_marseille","lat":43.28951,"lon":5.36628,"is_reserved":false,"is_disabled":false,"rental_uris":{"android":"levelo://app?vid=ae021663-2e05-40c8-b86d-c1c36d30e619","ios":"levelo://app?vid=ae021663-2e05-40c8-b86d-c1c36d30e619"},"vehicle_type_id":"4","last_reported":1777416426,"current_range_meters":9200,"station_id":"ce4bhap2rcd13ifvqek0","pricing_plan_id":"cebpf4jnsgd1na2vs0mg"},{"bike_id":"b91f4f99-7987-40ea-afbb-1e1af65ec675","system_id":"levelo_inurba_marseille","lat":43.29436,"lon":5.40926,"is_reserved":false,"is_disabled":false,"rental_uris":{"android":"levelo://app?vid=b91f4f99-7987-40ea-afbb-1e1af65ec675","ios":"levelo://app?vid=b91f4f99-7987-40ea-afbb-1e1af65ec675"},"vehicle_type_id":"4","last_reported":1777416426,"current_range_meters":9200,"station_id":"","pricing_plan_id":"cebpf4jnsgd1na2vs0mg"},{"bike_id":"94e3e6f6-fe60-427b-ae52-e1ace34a0263","system_id":"levelo_inurba_marseille","lat":43.27811,"lon":5.40711,"is_reserved":false,"is_disabled":false,"rental_uris":{"android":"levelo://app?vid=94e3e6f6-fe60-427b-ae52-e1ace34a0263","ios":"levelo://app?vid=94e3e6f6-fe60-427b-ae52-e1ace34a0263"},"vehicle_type_id":"4","last_reported":1777416426,"current_range_meters":9200,"station_id":"ce4bhnh2rcd13ifvqgtg","pricing_plan_id":"cebpf4jnsgd1na2vs0mg"},{"bike_id":"86604486-1501-4c77-a082-b7a230256ae3","system_id":"levelo_inurba_marseille","lat":43.29036,"lon":5.38649,"is_reserved":false,"is_disabled":false,"rental_uris":{"android":"levelo://app?vid=86604486-1501-4c77-a082-b7a230256ae3","ios":"levelo://app?vid=86604486-1501-4c77-a082-b7a230256ae3"},"vehicle_type_id":"4","last_reported":1777416426,"current_range_meters":9200,"station_id":"ce4bh4p2rcd13ifvqe0g","pricing_plan_id":"cebpf4jnsgd1na2vs0mg"},{"bike_id":"8ee1aeb0-0fb8-4fdf-81c1-0e85a87931bb","system_id":"levelo_inurba_marseille","lat":43.23152,"lon":5.43705,"is_reserved":false,"is_disabled":false,"rental_uris":{"android":"levelo://app?vid=8ee1aeb0-0fb8-4fdf-81c1-0e85a87931bb","ios":"levelo://app?vid=8ee1aeb0-0fb8-4fdf-81c1-0e85a87931bb"},"vehicle_type_id":"4","last_reported":1777416426,"current_range_meters":9200,"station_id":"ce4bhmp2rcd13ifvqgog","pricing_plan_id":"cebpf4jnsgd1na2vs0mg"},{"bike_id":"84411b6e-0729-42b4-ad32-104ce4a7d9cd","system_id":"levelo_inurba_marseille","lat":43.26919,"lon":5.40237,"is_reserved":false,"is_disabled":false,"rental_uris":{"android":"levelo://app?vid=84411b6e-0729-42b4-ad32-104ce4a7d9cd","ios":"levelo://app?vid=84411b6e-0729-42b4-ad32-104ce4a7d9cd"},"vehicle_type_id":"4","last_reported":1777416426,"current_range_meters":9200,"station_id":"cjm6bp8fraef2m0cb0m0","pricing_plan_id":"cebpf4jnsgd1na2vs0mg"},{"bike_id":"bd994e79-30c5-4529-a688-c995282e2a42","system_id":"levelo_inurba_marseille","lat":43.30233,"lon":5.39994,"is_reserved":false,"is_disabled":false,"rental_uris":{"android":"levelo://app?vid=bd994e79-30c5-4529-a688-c995282e2a42","ios":"levelo://app?vid=bd994e79-30c5-4529-a688-c995282e2a42"},"vehicle_type_id":"4","last_reported":1777416426,"current_range_meters":9200,"station_id":"ce4bgvh2rcd13ifvqcs0","pricing_plan_id":"cebpf4jnsgd1na2vs0mg"},{"bike_id":"b5592bc3-7c5d-4ba9-b1ae-b173928aef8c","system_id":"levelo_inurba_marseille","lat":43.28487,"lon":5.48381,"is_reserved":false,"is_disabled":false,"rental_uris":{"android":"levelo://app?vid=b5592bc3-7c5d-4ba9-b1ae-b173928aef8c","ios":"levelo://app?vid=b5592bc3-7c5d-4ba9-b1ae-b173928aef8c"},"vehicle_type_id":"4","last_reported":1777416426,"current_range_meters":9600,"station_id":"","pricing_plan_id":"cebpf4jnsgd1na2vs0mg"},{"bike_id":"5826704d-6185-4f02-be08-714b7a62d291","system_id":"levelo_inurba_marseille","lat":43.25332,"lon":5.42168,"is_reserved":false,"is_disabled":false,"rental_uris":{"android":"levelo://app?vid=5826704d-6185-4f02-be08-714b7a62d291","ios":"levelo://app?vid=5826704d-6185-4f02-be08-714b7a62d291"},"vehicle_type_id":"4","last_reported":1777416426,"current_range_meters":9600,"station_id":"st_d2m65c5bi1j21697t3ng","pricing_plan_id":"cebpf4jnsgd1na2vs0mg"},{"bike_id":"5117f9bb-68e6-42f9-a694-b69aeb0dd7f0","system_id":"levelo_inurba_marseille","lat":43.3093,"lon":5.40154,"is_reserved":false,"is_disabled":false,"rental_uris":{"android":"levelo://app?vid=5117f9bb-68e6-42f9-a694-b69aeb0dd7f0","ios":"levelo://app?vid=5117f9bb-68e6-42f9-a694-b69aeb0dd7f0"},"vehicle_type_id":"4","last_reported":1777416426,"current_range_meters":9600,"station_id":"ce4bgvp2rcd13ifvqct0","pricing_plan_id":"cebpf4jnsgd1na2vs0mg"},{"bike_id":"ce5dc1f5-63eb-4e58-9a11-607a1a76f928","system_id":"levelo_inurba_marseille","lat":43.28454,"lon":5.35879,"is_reserved":false,"is_disabled":false,"rental_uris":{"android":"levelo://app?vid=ce5dc1f5-63eb-4e58-9a11-607a1a76f928","ios":"levelo://app?vid=ce5dc1f5-63eb-4e58-9a11-607a1a76f928"},"vehicle_type_id":"4","last_reported":1777416426,"current_range_meters":9600,"station_id":"ce4bhah2rcd13ifvqei0","pricing_plan_id":"cebpf4jnsgd1na2vs0mg"},{"bike_id":"abfe3038-441e-4245-b0b4-d038f9714ddd","system_id":"levelo_inurba_marseille","lat":43.31172,"lon":5.38706,"is_reserved":false,"is_disabled":false,"rental_uris":{"android":"levelo://app?vid=abfe3038-441e-4245-b0b4-d038f9714ddd","ios":"levelo://app?vid=abfe3038-441e-4245-b0b4-d038f9714ddd"},"vehicle_type_id":"4","last_reported":1777416426,"current_range_meters":9600,"station_id":"ce4bgv12rcd13ifvqcp0","pricing_plan_id":"cebpf4jnsgd1na2vs0mg"},{"bike_id":"5d330f93-e3ac-4b2c-b309-ba2a98bd8dd7","system_id":"levelo_inurba_marseille","lat":43.29535,"lon":5.38542,"is_reserved":false,"is_disabled":false,"rental_uris":{"android":"levelo://app?vid=5d330f93-e3ac-4b2c-b309-ba2a98bd8dd7","ios":"levelo://app?vid=5d330f93-e3ac-4b2c-b309-ba2a98bd8dd7"},"vehicle_type_id":"4","last_reported":1777416426,"current_range_meters":9600,"station_id":"ce4bgih2rcd13ifvqba0","pricing_plan_id":"cebpf4jnsgd1na2vs0mg"},{"bike_id":"146883f7-ce79-4e13-8aa4-fa49231b74ec","system_id":"levelo_inurba_marseille","lat":43.28441,"lon":5.39178,"is_reserved":false,"is_disabled":false,"rental_uris":{"android":"levelo://app?vid=146883f7-ce79-4e13-8aa4-fa49231b74ec","ios":"levelo://app?vid=146883f7-ce79-4e13-8aa4-fa49231b74ec"},"vehicle_type_id":"4","last_reported":1777416426,"current_range_meters":9600,"station_id":"ce4bhoh2rcd13ifvqh5g","pricing_plan_id":"cebpf4jnsgd1na2vs0mg"},{"bike_id":"e736ef1f-5121-48c5-91b1-6013be2dcb21","system_id":"levelo_inurba_marseille","lat":43.29005,"lon":5.35605,"is_reserved":false,"is_disabled":false,"rental_uris":{"android":"levelo://app?vid=e736ef1f-5121-48c5-91b1-6013be2dcb21","ios":"levelo://app?vid=e736ef1f-5121-48c5-91b1-6013be2dcb21"},"vehicle_type_id":"4","last_reported":1777416426,"current_range_meters":9600,"station_id":"ce4bhb92rcd13ifvqen0","pricing_plan_id":"cebpf4jnsgd1na2vs0mg"},{"bike_id":"148b7b12-4a96-4e51-a8ef-5b0a545de8d0","system_id":"levelo_inurba_marseille","lat":43.2588,"lon":5.40509,"is_reserved":false,"is_disabled":false,"rental_uris":{"android":"levelo://app?vid=148b7b12-4a96-4e51-a8ef-5b0a545de8d0","ios":"levelo://app?vid=148b7b12-4a96-4e51-a8ef-5b0a545de8d0"},"vehicle_type_id":"4","last_reported":1777416426,"current_range_meters":9600,"station_id":"","pricing_plan_id":"cebpf4jnsgd1na2vs0mg"},{"bike_id":"b0cd3801-d5d8-4737-b521-479255b64fe1","system_id":"levelo_inurba_marseille","lat":43.29275,"lon":5.40896,"is_reserved":false,"is_disabled":false,"rental_uris":{"android":"levelo://app?vid=b0cd3801-d5d8-4737-b521-479255b64fe1","ios":"levelo://app?vid=b0cd3801-d5d8-4737-b521-479255b64fe1"},"vehicle_type_id":"4","last_reported":1777416426,"current_range_meters":9600,"station_id":"ce4bh192rcd13ifvqdc0","pricing_plan_id":"cebpf4jnsgd1na2vs0mg"},{"bike_id":"5f107878-7c17-41a5-9872-6ef4a2ca2028","system_id":"levelo_inurba_marseille","lat":43.30264,"lon":5.4004,"is_reserved":false,"is_disabled":false,"rental_uris":{"android":"levelo://app?vid=5f107878-7c17-41a5-9872-6ef4a2ca2028","ios":"levelo://app?vid=5f107878-7c17-41a5-9872-6ef4a2ca2028"},"vehicle_type_id":"4","last_reported":1777416426,"current_range_meters":9600,"station_id":"ce4bgvh2rcd13ifvqcs0","pricing_plan_id":"cebpf4jnsgd1na2vs0mg"},{"bike_id":"a6f69edd-7f92-46ec-b19d-2c3242dfd28a","system_id":"levelo_inurba_marseille","lat":43.30355,"lon":5.41868,"is_reserved":false,"is_disabled":true,"rental_uris":{"android":"levelo://app?vid=a6f69edd-7f92-46ec-b19d-2c3242dfd28a","ios":"levelo://app?vid=a6f69edd-7f92-46ec-b19d-2c3242dfd28a"},"vehicle_type_id":"4","last_reported":1777416426,"current_range_meters":9600,"station_id":"ce4bhop2rcd13ifvqh7g","pricing_plan_id":"cebpf4jnsgd1na2vs0mg"},{"bike_id":"e6fbd7ac-9a8b-48f9-9b46-4504e82d8f74","system_id":"levelo_inurba_marseille","lat":43.24477,"lon":5.42521,"is_reserved":false,"is_disabled":false,"rental_uris":{"android":"levelo://app?vid=e6fbd7ac-9a8b-48f9-9b46-4504e82d8f74","ios":"levelo://app?vid=e6fbd7ac-9a8b-48f9-9b46-4504e82d8f74"},"vehicle_type_id":"4","last_reported":1777416426,"current_range_meters":9600,"station_id":"st_d4a3vfp97mjs738cd8kg","pricing_plan_id":"cebpf4jnsgd1na2vs0mg"},{"bike_id":"13958fda-0db8-4487-ada6-fd3f3b451fa6","system_id":"levelo_inurba_marseille","lat":43.24955,"lon":5.40499,"is_reserved":false,"is_disabled":false,"rental_uris":{"android":"levelo://app?vid=13958fda-0db8-4487-ada6-fd3f3b451fa6","ios":"levelo://app?vid=13958fda-0db8-4487-ada6-fd3f3b451fa6"},"vehicle_type_id":"4","last_reported":1777416426,"current_range_meters":9600,"station_id":"st_d2ngiaodas8pm72gd1h0","pricing_plan_id":"cebpf4jnsgd1na2vs0mg"},{"bike_id":"e5f9afbb-eeaa-4f62-871a-cf997b5d0fb4","system_id":"levelo_inurba_marseille","lat":43.29801,"lon":5.39356,"is_reserved":false,"is_disabled":false,"rental_uris":{"android":"levelo://app?vid=e5f9afbb-eeaa-4f62-871a-cf997b5d0fb4","ios":"levelo://app?vid=e5f9afbb-eeaa-4f62-871a-cf997b5d0fb4"},"vehicle_type_id":"4","last_reported":1777416426,"current_range_meters":9600,"station_id":"chh1huq6cuj3fo74tm60","pricing_plan_id":"cebpf4jnsgd1na2vs0mg"},{"bike_id":"018ac08d-c87e-4be3-89d7-5b9a5ced8481","system_id":"levelo_inurba_marseille","lat":43.2781,"lon":5.40705,"is_reserved":false,"is_disabled":false,"rental_uris":{"android":"levelo://app?vid=018ac08d-c87e-4be3-89d7-5b9a5ced8481","ios":"levelo://app?vid=018ac08d-c87e-4be3-89d7-5b9a5ced8481"},"vehicle_type_id":"4","last_reported":1777416426,"current_range_meters":9600,"station_id":"ce4bhnh2rcd13ifvqgtg","pricing_plan_id":"cebpf4jnsgd1na2vs0mg"},{"bike_id":"1efedd6f-148a-4574-90b0-4f2c329a4ab1","system_id":"levelo_inurba_marseille","lat":43.27944,"lon":5.41036,"is_reserved":false,"is_disabled":false,"rental_uris":{"android":"levelo://app?vid=1efedd6f-148a-4574-90b0-4f2c329a4ab1","ios":"levelo://app?vid=1efedd6f-148a-4574-90b0-4f2c329a4ab1"},"vehicle_type_id":"4","last_reported":1777416426,"current_range_meters":9600,"station_id":"ce4bhnp2rcd13ifvqh0g","pricing_plan_id":"cebpf4jnsgd1na2vs0mg"},{"bike_id":"196939d7-8120-4fa4-8a8f-be34c3561853","system_id":"levelo_inurba_marseille","lat":43.3189,"lon":5.36806,"is_reserved":false,"is_disabled":false,"rental_uris":{"android":"levelo://app?vid=196939d7-8120-4fa4-8a8f-be34c3561853","ios":"levelo://app?vid=196939d7-8120-4fa4-8a8f-be34c3561853"},"vehicle_type_id":"4","last_reported":1777416426,"current_range_meters":9600,"station_id":"st_d6o2h0d0559c73evc1b0","pricing_plan_id":"cebpf4jnsgd1na2vs0mg"},{"bike_id":"e273aded-cde3-4bd0-9604-d92f02fb844d","system_id":"levelo_inurba_marseille","lat":43.30448,"lon":5.3889,"is_reserved":false,"is_disabled":false,"rental_uris":{"android":"levelo://app?vid=e273aded-cde3-4bd0-9604-d92f02fb844d","ios":"levelo://app?vid=e273aded-cde3-4bd0-9604-d92f02fb844d"},"vehicle_type_id":"4","last_reported":1777416426,"current_range_meters":9600,"station_id":"ce4bgk12rcd13ifvqbi0","pricing_plan_id":"cebpf4jnsgd1na2vs0mg"},{"bike_id":"2eb34181-3649-40f8-a329-123a15eadfde","system_id":"levelo_inurba_marseille","lat":43.28565,"lon":5.39481,"is_reserved":false,"is_disabled":false,"rental_uris":{"android":"levelo://app?vid=2eb34181-3649-40f8-a329-123a15eadfde","ios":"levelo://app?vid=2eb34181-3649-40f8-a329-123a15eadfde"},"vehicle_type_id":"4","last_reported":1777416426,"current_range_meters":9600,"station_id":"ce4bh292rcd13ifvqdg0","pricing_plan_id":"cebpf4jnsgd1na2vs0mg"},{"bike_id":"fb222545-3865-4572-bb04-bfa61d726523","system_id":"levelo_inurba_marseille","lat":43.30254,"lon":5.40063,"is_reserved":false,"is_disabled":false,"rental_uris":{"android":"levelo://app?vid=fb222545-3865-4572-bb04-bfa61d726523","ios":"levelo://app?vid=fb222545-3865-4572-bb04-bfa61d726523"},"vehicle_type_id":"4","last_reported":1777416426,"current_range_meters":9600,"station_id":"ce4bgvh2rcd13ifvqcs0","pricing_plan_id":"cebpf4jnsgd1na2vs0mg"},{"bike_id":"9bb32684-44d0-4ee7-af01-0d2039251656","system_id":"levelo_inurba_marseille","lat":43.3169,"lon":5.40465,"is_reserved":false,"is_disabled":false,"rental_uris":{"android":"levelo://app?vid=9bb32684-44d0-4ee7-af01-0d2039251656","ios":"levelo://app?vid=9bb32684-44d0-4ee7-af01-0d2039251656"},"vehicle_type_id":"4","last_reported":1777416426,"current_range_meters":10000,"station_id":"ce4bh012rcd13ifvqd00","pricing_plan_id":"cebpf4jnsgd1na2vs0mg"},{"bike_id":"f33eabf6-f119-4069-8314-c37f3c8df3c6","system_id":"levelo_inurba_marseille","lat":43.30422,"lon":5.4129,"is_reserved":false,"is_disabled":false,"rental_uris":{"android":"levelo://app?vid=f33eabf6-f119-4069-8314-c37f3c8df3c6","ios":"levelo://app?vid=f33eabf6-f119-4069-8314-c37f3c8df3c6"},"vehicle_type_id":"4","last_reported":1777416426,"current_range_meters":10000,"station_id":"ce4bhop2rcd13ifvqh8g","pricing_plan_id":"cebpf4jnsgd1na2vs0mg"},{"bike_id":"8e895859-042e-47e7-9ca8-83e0c06497e4","system_id":"levelo_inurba_marseille","lat":43.30315,"lon":5.36886,"is_reserved":false,"is_disabled":true,"rental_uris":{"android":"levelo://app?vid=8e895859-042e-47e7-9ca8-83e0c06497e4","ios":"levelo://app?vid=8e895859-042e-47e7-9ca8-83e0c06497e4"},"vehicle_type_id":"4","last_reported":1777416426,"current_range_meters":10000,"station_id":"ce4bgqh2rcd13ifvqc5g","pricing_plan_id":"cebpf4jnsgd1na2vs0mg"},{"bike_id":"0438d68d-b4c6-4b23-a7e1-82657231ebe9","system_id":"levelo_inurba_marseille","lat":43.2847,"lon":5.48388,"is_reserved":false,"is_disabled":false,"rental_uris":{"android":"levelo://app?vid=0438d68d-b4c6-4b23-a7e1-82657231ebe9","ios":"levelo://app?vid=0438d68d-b4c6-4b23-a7e1-82657231ebe9"},"vehicle_type_id":"4","last_reported":1777416426,"current_range_meters":10000,"station_id":"","pricing_plan_id":"cebpf4jnsgd1na2vs0mg"},{"bike_id":"00ad198e-589b-4e0d-b4ca-9d14d826d227","system_id":"levelo_inurba_marseille","lat":43.30414,"lon":5.41261,"is_reserved":false,"is_disabled":false,"rental_uris":{"android":"levelo://app?vid=00ad198e-589b-4e0d-b4ca-9d14d826d227","ios":"levelo://app?vid=00ad198e-589b-4e0d-b4ca-9d14d826d227"},"vehicle_type_id":"4","last_reported":1777416426,"current_range_meters":10000,"station_id":"ce4bhop2rcd13ifvqh8g","pricing_plan_id":"cebpf4jnsgd1na2vs0mg"},{"bike_id":"384d8c36-7b52-45be-af88-a3ca984d99ee","system_id":"levelo_inurba_marseille","lat":43.2509,"lon":5.39516,"is_reserved":false,"is_disabled":false,"rental_uris":{"android":"levelo://app?vid=384d8c36-7b52-45be-af88-a3ca984d99ee","ios":"levelo://app?vid=384d8c36-7b52-45be-af88-a3ca984d99ee"},"vehicle_type_id":"4","last_reported":1777416426,"current_range_meters":10000,"station_id":"ce4bhm12rcd13ifvqgkg","pricing_plan_id":"cebpf4jnsgd1na2vs0mg"},{"bike_id":"d848b779-bbcc-4d7a-805e-64de03dc9291","system_id":"levelo_inurba_marseille","lat":43.31052,"lon":5.37166,"is_reserved":false,"is_disabled":false,"rental_uris":{"android":"levelo://app?vid=d848b779-bbcc-4d7a-805e-64de03dc9291","ios":"levelo://app?vid=d848b779-bbcc-4d7a-805e-64de03dc9291"},"vehicle_type_id":"4","last_reported":1777416426,"current_range_meters":10000,"station_id":"st_d4kl2rp97mjs73e7tdfg","pricing_plan_id":"cebpf4jnsgd1na2vs0mg"},{"bike_id":"541d7dc3-a505-4aa7-8f89-509de917dfa3","system_id":"levelo_inurba_marseille","lat":43.28367,"lon":5.38611,"is_reserved":false,"is_disabled":false,"rental_uris":{"android":"levelo://app?vid=541d7dc3-a505-4aa7-8f89-509de917dfa3","ios":"levelo://app?vid=541d7dc3-a505-4aa7-8f89-509de917dfa3"},"vehicle_type_id":"4","last_reported":1777416426,"current_range_meters":10000,"station_id":"ce4bh492rcd13ifvqdvg","pricing_plan_id":"cebpf4jnsgd1na2vs0mg"},{"bike_id":"907b975e-fb54-4198-ad71-0a6fda3075d0","system_id":"levelo_inurba_marseille","lat":43.29876,"lon":5.39745,"is_reserved":false,"is_disabled":true,"rental_uris":{"android":"levelo://app?vid=907b975e-fb54-4198-ad71-0a6fda3075d0","ios":"levelo://app?vid=907b975e-fb54-4198-ad71-0a6fda3075d0"},"vehicle_type_id":"4","last_reported":1777416426,"current_range_meters":10000,"station_id":"ce4bh0h2rcd13ifvqd50","pricing_plan_id":"cebpf4jnsgd1na2vs0mg"},{"bike_id":"56e32ef3-9955-4453-bb0b-f9c81c7090dc","system_id":"levelo_inurba_marseille","lat":43.29017,"lon":5.35619,"is_reserved":false,"is_disabled":false,"rental_uris":{"android":"levelo://app?vid=56e32ef3-9955-4453-bb0b-f9c81c7090dc","ios":"levelo://app?vid=56e32ef3-9955-4453-bb0b-f9c81c7090dc"},"vehicle_type_id":"4","last_reported":1777416426,"current_range_meters":10000,"station_id":"ce4bhb92rcd13ifvqen0","pricing_plan_id":"cebpf4jnsgd1na2vs0mg"},{"bike_id":"b9500117-5a1d-4f32-8c19-77295f782f5b","system_id":"levelo_inurba_marseille","lat":43.29001,"lon":5.35602,"is_reserved":false,"is_disabled":false,"rental_uris":{"android":"levelo://app?vid=b9500117-5a1d-4f32-8c19-77295f782f5b","ios":"levelo://app?vid=b9500117-5a1d-4f32-8c19-77295f782f5b"},"vehicle_type_id":"4","last_reported":1777416426,"current_range_meters":10000,"station_id":"ce4bhb92rcd13ifvqen0","pricing_plan_id":"cebpf4jnsgd1na2vs0mg"},{"bike_id":"a496669f-42ea-4ec8-b909-b71bb128370f","system_id":"levelo_inurba_marseille","lat":43.33533,"lon":5.37458,"is_reserved":false,"is_disabled":false,"rental_uris":{"android":"levelo://app?vid=a496669f-42ea-4ec8-b909-b71bb128370f","ios":"levelo://app?vid=a496669f-42ea-4ec8-b909-b71bb128370f"},"vehicle_type_id":"4","last_reported":1777416426,"current_range_meters":10000,"station_id":"st_d46tts09ee8s73dlu43g","pricing_plan_id":"cebpf4jnsgd1na2vs0mg"},{"bike_id":"557fb6c8-fcd1-4be6-b4e8-a9d8ed965ac6","system_id":"levelo_inurba_marseille","lat":43.27072,"lon":5.38309,"is_reserved":false,"is_disabled":false,"rental_uris":{"android":"levelo://app?vid=557fb6c8-fcd1-4be6-b4e8-a9d8ed965ac6","ios":"levelo://app?vid=557fb6c8-fcd1-4be6-b4e8-a9d8ed965ac6"},