{"last_updated":1758020899,"ttl":60,"version":"2.2","data":{"bikes":[{"bike_id":"d5a9b994-9876-4c5b-b3fe-a560bfabc7d1","system_id":"levelo_inurba_marseille","lat":43.28417,"lon":5.34978,"is_reserved":false,"is_disabled":false,"rental_uris":{"android":"levelo://app?vid=d5a9b994-9876-4c5b-b3fe-a560bfabc7d1","ios":"levelo://app?vid=d5a9b994-9876-4c5b-b3fe-a560bfabc7d1"},"vehicle_type_id":"4","last_reported":1758020899,"current_range_meters":2800,"station_id":"ce4bhbh2rcd13ifvqepg","pricing_plan_id":"cebpf4jnsgd1na2vs0mg"},{"bike_id":"4ec298bd-f862-4bf3-b6a3-e8532e014e58","system_id":"levelo_inurba_marseille","lat":43.30251,"lon":5.40077,"is_reserved":false,"is_disabled":false,"rental_uris":{"android":"levelo://app?vid=4ec298bd-f862-4bf3-b6a3-e8532e014e58","ios":"levelo://app?vid=4ec298bd-f862-4bf3-b6a3-e8532e014e58"},"vehicle_type_id":"4","last_reported":1758020899,"current_range_meters":2800,"station_id":"ce4bgvh2rcd13ifvqcs0","pricing_plan_id":"cebpf4jnsgd1na2vs0mg"},{"bike_id":"202d788a-6c49-4ec4-81fe-faca4c8424b1","system_id":"levelo_inurba_marseille","lat":43.29568,"lon":5.37528,"is_reserved":false,"is_disabled":false,"rental_uris":{"android":"levelo://app?vid=202d788a-6c49-4ec4-81fe-faca4c8424b1","ios":"levelo://app?vid=202d788a-6c49-4ec4-81fe-faca4c8424b1"},"vehicle_type_id":"4","last_reported":1758020899,"current_range_meters":2800,"station_id":"ce4bgh92rcd13ifvqb50","pricing_plan_id":"cebpf4jnsgd1na2vs0mg"},{"bike_id":"e53dca40-c713-4c26-98b5-6661c9f4e586","system_id":"levelo_inurba_marseille","lat":43.30078,"lon":5.39078,"is_reserved":false,"is_disabled":false,"rental_uris":{"android":"levelo://app?vid=e53dca40-c713-4c26-98b5-6661c9f4e586","ios":"levelo://app?vid=e53dca40-c713-4c26-98b5-6661c9f4e586"},"vehicle_type_id":"4","last_reported":1758020899,"current_range_meters":2800,"station_id":"ce4bh192rcd13ifvqdb0","pricing_plan_id":"cebpf4jnsgd1na2vs0mg"},{"bike_id":"15f7f834-9bae-4486-afc2-07389056391c","system_id":"levelo_inurba_marseille","lat":43.28616,"lon":5.35104,"is_reserved":false,"is_disabled":false,"rental_uris":{"android":"levelo://app?vid=15f7f834-9bae-4486-afc2-07389056391c","ios":"levelo://app?vid=15f7f834-9bae-4486-afc2-07389056391c"},"vehicle_type_id":"4","last_reported":1758020899,"current_range_meters":2800,"station_id":"ce4bhch2rcd13ifvqeug","pricing_plan_id":"cebpf4jnsgd1na2vs0mg"},{"bike_id":"d9c11a94-d122-4240-b95b-24fdee8810ac","system_id":"levelo_inurba_marseille","lat":43.28272,"lon":5.39914,"is_reserved":false,"is_disabled":false,"rental_uris":{"android":"levelo://app?vid=d9c11a94-d122-4240-b95b-24fdee8810ac","ios":"levelo://app?vid=d9c11a94-d122-4240-b95b-24fdee8810ac"},"vehicle_type_id":"4","last_reported":1758020899,"current_range_meters":2800,"station_id":"","pricing_plan_id":"cebpf4jnsgd1na2vs0mg"},{"bike_id":"b9e32a05-5f80-45bb-af33-6f0d3b8e5c4f","system_id":"levelo_inurba_marseille","lat":43.284655,"lon":5.35888,"is_reserved":false,"is_disabled":false,"rental_uris":{"android":"levelo://app?vid=b9e32a05-5f80-45bb-af33-6f0d3b8e5c4f","ios":"levelo://app?vid=b9e32a05-5f80-45bb-af33-6f0d3b8e5c4f"},"vehicle_type_id":"4","last_reported":1758020899,"current_range_meters":2800,"station_id":"ce4bhah2rcd13ifvqei0","pricing_plan_id":"cebpf4jnsgd1na2vs0mg"},{"bike_id":"03809294-3a3e-4efa-afda-0ac11dcf72fc","system_id":"levelo_inurba_marseille","lat":43.33684,"lon":5.3741,"is_reserved":false,"is_disabled":false,"rental_uris":{"android":"levelo://app?vid=03809294-3a3e-4efa-afda-0ac11dcf72fc","ios":"levelo://app?vid=03809294-3a3e-4efa-afda-0ac11dcf72fc"},"vehicle_type_id":"4","last_reported":1758020899,"current_range_meters":2800,"station_id":"","pricing_plan_id":"cebpf4jnsgd1na2vs0mg"},{"bike_id":"d765e876-dc94-417e-ad8c-0ac49bf5261a","system_id":"levelo_inurba_marseille","lat":43.33226,"lon":5.36294,"is_reserved":false,"is_disabled":false,"rental_uris":{"android":"levelo://app?vid=d765e876-dc94-417e-ad8c-0ac49bf5261a","ios":"levelo://app?vid=d765e876-dc94-417e-ad8c-0ac49bf5261a"},"vehicle_type_id":"4","last_reported":1758020899,"current_range_meters":3200,"station_id":"","pricing_plan_id":"cebpf4jnsgd1na2vs0mg"},{"bike_id":"0cfef06b-ab97-4ccf-bda7-9b7fdc574740","system_id":"levelo_inurba_marseille","lat":43.267389,"lon":5.382273,"is_reserved":false,"is_disabled":false,"rental_uris":{"android":"levelo://app?vid=0cfef06b-ab97-4ccf-bda7-9b7fdc574740","ios":"levelo://app?vid=0cfef06b-ab97-4ccf-bda7-9b7fdc574740"},"vehicle_type_id":"4","last_reported":1758020899,"current_range_meters":3200,"station_id":"ce4bhg92rcd13ifvqf90","pricing_plan_id":"cebpf4jnsgd1na2vs0mg"},{"bike_id":"4f9bd625-ea72-423e-9234-f59f397dfa3c","system_id":"levelo_inurba_marseille","lat":43.21196,"lon":5.35075,"is_reserved":false,"is_disabled":false,"rental_uris":{"android":"levelo://app?vid=4f9bd625-ea72-423e-9234-f59f397dfa3c","ios":"levelo://app?vid=4f9bd625-ea72-423e-9234-f59f397dfa3c"},"vehicle_type_id":"4","last_reported":1758020899,"current_range_meters":3200,"station_id":"st_cvj6sg6p6f1abm77japg","pricing_plan_id":"cebpf4jnsgd1na2vs0mg"},{"bike_id":"ce3a93b4-1fab-4b26-9c7f-d472546d1842","system_id":"levelo_inurba_marseille","lat":43.30136,"lon":5.38106,"is_reserved":false,"is_disabled":false,"rental_uris":{"android":"levelo://app?vid=ce3a93b4-1fab-4b26-9c7f-d472546d1842","ios":"levelo://app?vid=ce3a93b4-1fab-4b26-9c7f-d472546d1842"},"vehicle_type_id":"4","last_reported":1758020899,"current_range_meters":3200,"station_id":"ce4bgjp2rcd13ifvqbh0","pricing_plan_id":"cebpf4jnsgd1na2vs0mg"},{"bike_id":"92328f20-9c61-4621-aefd-c280af7d31a0","system_id":"levelo_inurba_marseille","lat":43.28861,"lon":5.42523,"is_reserved":false,"is_disabled":false,"rental_uris":{"android":"levelo://app?vid=92328f20-9c61-4621-aefd-c280af7d31a0","ios":"levelo://app?vid=92328f20-9c61-4621-aefd-c280af7d31a0"},"vehicle_type_id":"4","last_reported":1758020899,"current_range_meters":3200,"station_id":"","pricing_plan_id":"cebpf4jnsgd1na2vs0mg"},{"bike_id":"4c161d64-2b35-4022-bae8-64df9fee62b6","system_id":"levelo_inurba_marseille","lat":43.29005,"lon":5.35607,"is_reserved":false,"is_disabled":false,"rental_uris":{"android":"levelo://app?vid=4c161d64-2b35-4022-bae8-64df9fee62b6","ios":"levelo://app?vid=4c161d64-2b35-4022-bae8-64df9fee62b6"},"vehicle_type_id":"4","last_reported":1758020899,"current_range_meters":3600,"station_id":"ce4bhb92rcd13ifvqen0","pricing_plan_id":"cebpf4jnsgd1na2vs0mg"},{"bike_id":"81c72061-e3e0-4841-9238-b49556c90cf1","system_id":"levelo_inurba_marseille","lat":43.30471,"lon":5.37908,"is_reserved":false,"is_disabled":false,"rental_uris":{"android":"levelo://app?vid=81c72061-e3e0-4841-9238-b49556c90cf1","ios":"levelo://app?vid=81c72061-e3e0-4841-9238-b49556c90cf1"},"vehicle_type_id":"4","last_reported":1758020899,"current_range_meters":3600,"station_id":"ce4bgup2rcd13ifvqcn0","pricing_plan_id":"cebpf4jnsgd1na2vs0mg"},{"bike_id":"60c460c9-cc1f-44b2-a184-661032a7551b","system_id":"levelo_inurba_marseille","lat":43.29976,"lon":5.37184,"is_reserved":false,"is_disabled":false,"rental_uris":{"android":"levelo://app?vid=60c460c9-cc1f-44b2-a184-661032a7551b","ios":"levelo://app?vid=60c460c9-cc1f-44b2-a184-661032a7551b"},"vehicle_type_id":"4","last_reported":1758020899,"current_range_meters":3600,"station_id":"ce4bgr92rcd13ifvqc7g","pricing_plan_id":"cebpf4jnsgd1na2vs0mg"},{"bike_id":"866c454b-df53-4bff-922d-da1345565fa0","system_id":"levelo_inurba_marseille","lat":43.30335,"lon":5.404403,"is_reserved":false,"is_disabled":false,"rental_uris":{"android":"levelo://app?vid=866c454b-df53-4bff-922d-da1345565fa0","ios":"levelo://app?vid=866c454b-df53-4bff-922d-da1345565fa0"},"vehicle_type_id":"4","last_reported":1758020899,"current_range_meters":4000,"station_id":"ce4bh012rcd13ifvqd10","pricing_plan_id":"cebpf4jnsgd1na2vs0mg"},{"bike_id":"7c97e3e3-79a1-477b-b03e-bad9e63a96b0","system_id":"levelo_inurba_marseille","lat":43.27655,"lon":5.389,"is_reserved":false,"is_disabled":false,"rental_uris":{"android":"levelo://app?vid=7c97e3e3-79a1-477b-b03e-bad9e63a96b0","ios":"levelo://app?vid=7c97e3e3-79a1-477b-b03e-bad9e63a96b0"},"vehicle_type_id":"4","last_reported":1758020899,"current_range_meters":4000,"station_id":"ce4bhi12rcd13ifvqfo0","pricing_plan_id":"cebpf4jnsgd1na2vs0mg"},{"bike_id":"c37933c6-f301-4e72-ae28-b86236887c46","system_id":"levelo_inurba_marseille","lat":43.225329,"lon":5.348362,"is_reserved":false,"is_disabled":false,"rental_uris":{"android":"levelo://app?vid=c37933c6-f301-4e72-ae28-b86236887c46","ios":"levelo://app?vid=c37933c6-f301-4e72-ae28-b86236887c46"},"vehicle_type_id":"4","last_reported":1758020899,"current_range_meters":4000,"station_id":"","pricing_plan_id":"cebpf4jnsgd1na2vs0mg"},{"bike_id":"df02ed83-0386-4ca0-a413-d879bb917ef8","system_id":"levelo_inurba_marseille","lat":43.24072,"lon":5.37764,"is_reserved":false,"is_disabled":false,"rental_uris":{"android":"levelo://app?vid=df02ed83-0386-4ca0-a413-d879bb917ef8","ios":"levelo://app?vid=df02ed83-0386-4ca0-a413-d879bb917ef8"},"vehicle_type_id":"4","last_reported":1758020899,"current_range_meters":4000,"station_id":"ce4bhnp2rcd13ifvqgvg","pricing_plan_id":"cebpf4jnsgd1na2vs0mg"},{"bike_id":"beb804e6-5020-4f6f-9fc1-b459932ffa07","system_id":"levelo_inurba_marseille","lat":43.28721,"lon":5.37946,"is_reserved":false,"is_disabled":false,"rental_uris":{"android":"levelo://app?vid=beb804e6-5020-4f6f-9fc1-b459932ffa07","ios":"levelo://app?vid=beb804e6-5020-4f6f-9fc1-b459932ffa07"},"vehicle_type_id":"4","last_reported":1758020899,"current_range_meters":4000,"station_id":"ce4bh9p2rcd13ifvqec0","pricing_plan_id":"cebpf4jnsgd1na2vs0mg"},{"bike_id":"4ec115f7-70e2-44a0-950b-cc56db458600","system_id":"levelo_inurba_marseille","lat":43.21751,"lon":5.34614,"is_reserved":false,"is_disabled":true,"rental_uris":{"android":"levelo://app?vid=4ec115f7-70e2-44a0-950b-cc56db458600","ios":"levelo://app?vid=4ec115f7-70e2-44a0-950b-cc56db458600"},"vehicle_type_id":"4","last_reported":1758020899,"current_range_meters":4000,"station_id":"st_cvj6r9ubvosntc0bgbag","pricing_plan_id":"cebpf4jnsgd1na2vs0mg"},{"bike_id":"3d57f76f-a3d2-4615-a356-cb1cda9a828c","system_id":"levelo_inurba_marseille","lat":43.3094,"lon":5.39017,"is_reserved":false,"is_disabled":false,"rental_uris":{"android":"levelo://app?vid=3d57f76f-a3d2-4615-a356-cb1cda9a828c","ios":"levelo://app?vid=3d57f76f-a3d2-4615-a356-cb1cda9a828c"},"vehicle_type_id":"4","last_reported":1758020899,"current_range_meters":4000,"station_id":"ce4bgup2rcd13ifvqco0","pricing_plan_id":"cebpf4jnsgd1na2vs0mg"},{"bike_id":"6b5b3c8e-1efc-443e-8d65-f1b5bb18a3da","system_id":"levelo_inurba_marseille","lat":43.26845,"lon":5.396,"is_reserved":false,"is_disabled":false,"rental_uris":{"android":"levelo://app?vid=6b5b3c8e-1efc-443e-8d65-f1b5bb18a3da","ios":"levelo://app?vid=6b5b3c8e-1efc-443e-8d65-f1b5bb18a3da"},"vehicle_type_id":"4","last_reported":1758020899,"current_range_meters":4000,"station_id":"","pricing_plan_id":"cebpf4jnsgd1na2vs0mg"},{"bike_id":"f6223bfd-c282-4ee9-a576-fda3d2d5bcd9","system_id":"levelo_inurba_marseille","lat":43.308903,"lon":5.372025,"is_reserved":false,"is_disabled":false,"rental_uris":{"android":"levelo://app?vid=f6223bfd-c282-4ee9-a576-fda3d2d5bcd9","ios":"levelo://app?vid=f6223bfd-c282-4ee9-a576-fda3d2d5bcd9"},"vehicle_type_id":"4","last_reported":1758020899,"current_range_meters":3600,"station_id":"ce4bguh2rcd13ifvqckg","pricing_plan_id":"cebpf4jnsgd1na2vs0mg"},{"bike_id":"46d5ba50-38ee-42b9-ac74-7a4b3902ac4a","system_id":"levelo_inurba_marseille","lat":43.28487,"lon":5.3855,"is_reserved":false,"is_disabled":false,"rental_uris":{"android":"levelo://app?vid=46d5ba50-38ee-42b9-ac74-7a4b3902ac4a","ios":"levelo://app?vid=46d5ba50-38ee-42b9-ac74-7a4b3902ac4a"},"vehicle_type_id":"4","last_reported":1758020899,"current_range_meters":4000,"station_id":"ce4bh8p2rcd13ifvqeb0","pricing_plan_id":"cebpf4jnsgd1na2vs0mg"},{"bike_id":"3bd79661-6def-43c8-b210-869fd67a5981","system_id":"levelo_inurba_marseille","lat":43.308953,"lon":5.368859,"is_reserved":false,"is_disabled":false,"rental_uris":{"android":"levelo://app?vid=3bd79661-6def-43c8-b210-869fd67a5981","ios":"levelo://app?vid=3bd79661-6def-43c8-b210-869fd67a5981"},"vehicle_type_id":"4","last_reported":1758020899,"current_range_meters":4400,"station_id":"ce4bgn92rcd13ifvqbvg","pricing_plan_id":"cebpf4jnsgd1na2vs0mg"},{"bike_id":"8f30e9f6-bea5-4cb6-9506-c3f2f4a2e29c","system_id":"levelo_inurba_marseille","lat":43.29801,"lon":5.40406,"is_reserved":false,"is_disabled":false,"rental_uris":{"android":"levelo://app?vid=8f30e9f6-bea5-4cb6-9506-c3f2f4a2e29c","ios":"levelo://app?vid=8f30e9f6-bea5-4cb6-9506-c3f2f4a2e29c"},"vehicle_type_id":"4","last_reported":1758020899,"current_range_meters":4000,"station_id":"ce4bh112rcd13ifvqd90","pricing_plan_id":"cebpf4jnsgd1na2vs0mg"},{"bike_id":"b982f00c-34a9-4ed3-b17f-5c48d0cb70b9","system_id":"levelo_inurba_marseille","lat":43.23714,"lon":5.36052,"is_reserved":false,"is_disabled":false,"rental_uris":{"android":"levelo://app?vid=b982f00c-34a9-4ed3-b17f-5c48d0cb70b9","ios":"levelo://app?vid=b982f00c-34a9-4ed3-b17f-5c48d0cb70b9"},"vehicle_type_id":"4","last_reported":1758020899,"current_range_meters":4400,"station_id":"","pricing_plan_id":"cebpf4jnsgd1na2vs0mg"},{"bike_id":"aa91dd1f-0396-4a43-aa36-e3a577181865","system_id":"levelo_inurba_marseille","lat":43.286735,"lon":5.386801,"is_reserved":false,"is_disabled":false,"rental_uris":{"android":"levelo://app?vid=aa91dd1f-0396-4a43-aa36-e3a577181865","ios":"levelo://app?vid=aa91dd1f-0396-4a43-aa36-e3a577181865"},"vehicle_type_id":"4","last_reported":1758020899,"current_range_meters":4800,"station_id":"","pricing_plan_id":"cebpf4jnsgd1na2vs0mg"},{"bike_id":"b966c7a5-8690-4958-8892-d8088e0f7f8e","system_id":"levelo_inurba_marseille","lat":43.30278,"lon":5.37712,"is_reserved":false,"is_disabled":false,"rental_uris":{"android":"levelo://app?vid=b966c7a5-8690-4958-8892-d8088e0f7f8e","ios":"levelo://app?vid=b966c7a5-8690-4958-8892-d8088e0f7f8e"},"vehicle_type_id":"4","last_reported":1758020899,"current_range_meters":4800,"station_id":"ce4bguh2rcd13ifvqcj0","pricing_plan_id":"cebpf4jnsgd1na2vs0mg"},{"bike_id":"564eeff9-84a4-492e-b859-9219219c57b2","system_id":"levelo_inurba_marseille","lat":43.28414,"lon":5.34986,"is_reserved":false,"is_disabled":false,"rental_uris":{"android":"levelo://app?vid=564eeff9-84a4-492e-b859-9219219c57b2","ios":"levelo://app?vid=564eeff9-84a4-492e-b859-9219219c57b2"},"vehicle_type_id":"4","last_reported":1758020899,"current_range_meters":4800,"station_id":"ce4bhbh2rcd13ifvqepg","pricing_plan_id":"cebpf4jnsgd1na2vs0mg"},{"bike_id":"a234c8d6-1e23-409a-95bc-672a869cb12e","system_id":"levelo_inurba_marseille","lat":43.32688,"lon":5.40297,"is_reserved":false,"is_disabled":false,"rental_uris":{"android":"levelo://app?vid=a234c8d6-1e23-409a-95bc-672a869cb12e","ios":"levelo://app?vid=a234c8d6-1e23-409a-95bc-672a869cb12e"},"vehicle_type_id":"4","last_reported":1758020899,"current_range_meters":4800,"station_id":"","pricing_plan_id":"cebpf4jnsgd1na2vs0mg"},{"bike_id":"40f45572-d65d-40df-916e-a9a3c4f910f5","system_id":"levelo_inurba_marseille","lat":43.27989,"lon":5.4166,"is_reserved":false,"is_disabled":false,"rental_uris":{"android":"levelo://app?vid=40f45572-d65d-40df-916e-a9a3c4f910f5","ios":"levelo://app?vid=40f45572-d65d-40df-916e-a9a3c4f910f5"},"vehicle_type_id":"4","last_reported":1758020899,"current_range_meters":5600,"station_id":"ce4bho12rcd13ifvqh1g","pricing_plan_id":"cebpf4jnsgd1na2vs0mg"},{"bike_id":"aa097397-12cf-40e5-8302-207e2cfadbd4","system_id":"levelo_inurba_marseille","lat":43.282737,"lon":5.350617,"is_reserved":false,"is_disabled":false,"rental_uris":{"android":"levelo://app?vid=aa097397-12cf-40e5-8302-207e2cfadbd4","ios":"levelo://app?vid=aa097397-12cf-40e5-8302-207e2cfadbd4"},"vehicle_type_id":"4","last_reported":1758020899,"current_range_meters":5600,"station_id":"ce4bhbp2rcd13ifvqerg","pricing_plan_id":"cebpf4jnsgd1na2vs0mg"},{"bike_id":"83cacbd4-5b74-4c4f-9023-496eb4f5b6ca","system_id":"levelo_inurba_marseille","lat":43.24389,"lon":5.3706,"is_reserved":false,"is_disabled":false,"rental_uris":{"android":"levelo://app?vid=83cacbd4-5b74-4c4f-9023-496eb4f5b6ca","ios":"levelo://app?vid=83cacbd4-5b74-4c4f-9023-496eb4f5b6ca"},"vehicle_type_id":"4","last_reported":1758020899,"current_range_meters":5600,"station_id":"ce4bhhh2rcd13ifvqfk0","pricing_plan_id":"cebpf4jnsgd1na2vs0mg"},{"bike_id":"98c74989-7f21-4f2f-be53-be3736b46999","system_id":"levelo_inurba_marseille","lat":43.28682,"lon":5.38662,"is_reserved":false,"is_disabled":false,"rental_uris":{"android":"levelo://app?vid=98c74989-7f21-4f2f-be53-be3736b46999","ios":"levelo://app?vid=98c74989-7f21-4f2f-be53-be3736b46999"},"vehicle_type_id":"4","last_reported":1758020899,"current_range_meters":5600,"station_id":"ce4bh492rcd13ifvqdug","pricing_plan_id":"cebpf4jnsgd1na2vs0mg"},{"bike_id":"dafe364a-9222-4ed4-8a49-0bcfa7de9efb","system_id":"levelo_inurba_marseille","lat":43.30124,"lon":5.39867,"is_reserved":false,"is_disabled":false,"rental_uris":{"android":"levelo://app?vid=dafe364a-9222-4ed4-8a49-0bcfa7de9efb","ios":"levelo://app?vid=dafe364a-9222-4ed4-8a49-0bcfa7de9efb"},"vehicle_type_id":"4","last_reported":1758020899,"current_range_meters":4800,"station_id":"ce4bh0h2rcd13ifvqd40","pricing_plan_id":"cebpf4jnsgd1na2vs0mg"},{"bike_id":"dd32f779-e928-424d-999f-b730cf475fa7","system_id":"levelo_inurba_marseille","lat":43.22399,"lon":5.34657,"is_reserved":false,"is_disabled":false,"rental_uris":{"android":"levelo://app?vid=dd32f779-e928-424d-999f-b730cf475fa7","ios":"levelo://app?vid=dd32f779-e928-424d-999f-b730cf475fa7"},"vehicle_type_id":"4","last_reported":1758020899,"current_range_meters":6000,"station_id":"","pricing_plan_id":"cebpf4jnsgd1na2vs0mg"},{"bike_id":"fc5862ad-22be-4696-a69d-eff652750c48","system_id":"levelo_inurba_marseille","lat":43.2495,"lon":5.40484,"is_reserved":false,"is_disabled":false,"rental_uris":{"android":"levelo://app?vid=fc5862ad-22be-4696-a69d-eff652750c48","ios":"levelo://app?vid=fc5862ad-22be-4696-a69d-eff652750c48"},"vehicle_type_id":"4","last_reported":1758020899,"current_range_meters":6000,"station_id":"st_d2ngiaodas8pm72gd1h0","pricing_plan_id":"cebpf4jnsgd1na2vs0mg"},{"bike_id":"6259770d-e708-43fb-bf35-1442fd475dae","system_id":"levelo_inurba_marseille","lat":43.32335,"lon":5.40624,"is_reserved":false,"is_disabled":false,"rental_uris":{"android":"levelo://app?vid=6259770d-e708-43fb-bf35-1442fd475dae","ios":"levelo://app?vid=6259770d-e708-43fb-bf35-1442fd475dae"},"vehicle_type_id":"4","last_reported":1758020899,"current_range_meters":6000,"station_id":"ce4bhq92rcd13ifvqhjg","pricing_plan_id":"cebpf4jnsgd1na2vs0mg"},{"bike_id":"7f2a8108-7def-422d-8177-e1b386edeefa","system_id":"levelo_inurba_marseille","lat":43.29936,"lon":5.36556,"is_reserved":false,"is_disabled":false,"rental_uris":{"android":"levelo://app?vid=7f2a8108-7def-422d-8177-e1b386edeefa","ios":"levelo://app?vid=7f2a8108-7def-422d-8177-e1b386edeefa"},"vehicle_type_id":"4","last_reported":1758020899,"current_range_meters":6000,"station_id":"ce4bgm92rcd13ifvqbr0","pricing_plan_id":"cebpf4jnsgd1na2vs0mg"},{"bike_id":"0a15ba0d-25a8-4aec-8a5a-aa8bd4284804","system_id":"levelo_inurba_marseille","lat":43.24166,"lon":5.36395,"is_reserved":false,"is_disabled":false,"rental_uris":{"android":"levelo://app?vid=0a15ba0d-25a8-4aec-8a5a-aa8bd4284804","ios":"levelo://app?vid=0a15ba0d-25a8-4aec-8a5a-aa8bd4284804"},"vehicle_type_id":"4","last_reported":1758020899,"current_range_meters":6400,"station_id":"cpo36qri1sfpv3e86is0","pricing_plan_id":"cebpf4jnsgd1na2vs0mg"},{"bike_id":"6405339e-cad8-4af1-bfd2-cea1be18d355","system_id":"levelo_inurba_marseille","lat":43.34141,"lon":5.40904,"is_reserved":false,"is_disabled":false,"rental_uris":{"android":"levelo://app?vid=6405339e-cad8-4af1-bfd2-cea1be18d355","ios":"levelo://app?vid=6405339e-cad8-4af1-bfd2-cea1be18d355"},"vehicle_type_id":"4","last_reported":1758020899,"current_range_meters":6000,"station_id":"ce4bhqh2rcd13ifvqhlg","pricing_plan_id":"cebpf4jnsgd1na2vs0mg"},{"bike_id":"dab7535d-ba95-49ff-acfc-3738b5e25104","system_id":"levelo_inurba_marseille","lat":43.27312,"lon":5.3908,"is_reserved":false,"is_disabled":false,"rental_uris":{"android":"levelo://app?vid=dab7535d-ba95-49ff-acfc-3738b5e25104","ios":"levelo://app?vid=dab7535d-ba95-49ff-acfc-3738b5e25104"},"vehicle_type_id":"4","last_reported":1758020899,"current_range_meters":6400,"station_id":"ce4bhgp2rcd13ifvqfe0","pricing_plan_id":"cebpf4jnsgd1na2vs0mg"},{"bike_id":"8b01cb9d-990f-4e9a-be22-10013c8b7e86","system_id":"levelo_inurba_marseille","lat":43.29329,"lon":5.41169,"is_reserved":false,"is_disabled":false,"rental_uris":{"android":"levelo://app?vid=8b01cb9d-990f-4e9a-be22-10013c8b7e86","ios":"levelo://app?vid=8b01cb9d-990f-4e9a-be22-10013c8b7e86"},"vehicle_type_id":"4","last_reported":1758020899,"current_range_meters":6400,"station_id":"","pricing_plan_id":"cebpf4jnsgd1na2vs0mg"},{"bike_id":"63dc1384-fc6c-4684-975f-38f6a5793898","system_id":"levelo_inurba_marseille","lat":43.30539,"lon":5.36564,"is_reserved":false,"is_disabled":false,"rental_uris":{"android":"levelo://app?vid=63dc1384-fc6c-4684-975f-38f6a5793898","ios":"levelo://app?vid=63dc1384-fc6c-4684-975f-38f6a5793898"},"vehicle_type_id":"4","last_reported":1758020899,"current_range_meters":6400,"station_id":"ce4bgs12rcd13ifvqcag","pricing_plan_id":"cebpf4jnsgd1na2vs0mg"},{"bike_id":"093b0d78-cd8a-4cc1-b924-d298bce9c06b","system_id":"levelo_inurba_marseille","lat":43.24547,"lon":5.39528,"is_reserved":false,"is_disabled":false,"rental_uris":{"android":"levelo://app?vid=093b0d78-cd8a-4cc1-b924-d298bce9c06b","ios":"levelo://app?vid=093b0d78-cd8a-4cc1-b924-d298bce9c06b"},"vehicle_type_id":"4","last_reported":1758020899,"current_range_meters":6800,"station_id":"ce4bhlp2rcd13ifvqgjg","pricing_plan_id":"cebpf4jnsgd1na2vs0mg"},{"bike_id":"4d9785ea-13de-4210-bc0d-f170841019c0","system_id":"levelo_inurba_marseille","lat":43.23193,"lon":5.35552,"is_reserved":false,"is_disabled":false,"rental_uris":{"android":"levelo://app?vid=4d9785ea-13de-4210-bc0d-f170841019c0","ios":"levelo://app?vid=4d9785ea-13de-4210-bc0d-f170841019c0"},"vehicle_type_id":"4","last_reported":1758020899,"current_range_meters":6400,"station_id":"ce4bhu92rcd13ifvqi70","pricing_plan_id":"cebpf4jnsgd1na2vs0mg"},{"bike_id":"27bc6b0c-c22e-494b-ab92-4e390584592b","system_id":"levelo_inurba_marseille","lat":43.33747,"lon":5.3748,"is_reserved":false,"is_disabled":false,"rental_uris":{"android":"levelo://app?vid=27bc6b0c-c22e-494b-ab92-4e390584592b","ios":"levelo://app?vid=27bc6b0c-c22e-494b-ab92-4e390584592b"},"vehicle_type_id":"4","last_reported":1758020899,"current_range_meters":6800,"station_id":"","pricing_plan_id":"cebpf4jnsgd1na2vs0mg"},{"bike_id":"c1af1dfa-441b-4c74-bd47-08aa5af39acf","system_id":"levelo_inurba_marseille","lat":43.28673,"lon":5.38664,"is_reserved":false,"is_disabled":false,"rental_uris":{"android":"levelo://app?vid=c1af1dfa-441b-4c74-bd47-08aa5af39acf","ios":"levelo://app?vid=c1af1dfa-441b-4c74-bd47-08aa5af39acf"},"vehicle_type_id":"4","last_reported":1758020899,"current_range_meters":7200,"station_id":"ce4bh492rcd13ifvqdug","pricing_plan_id":"cebpf4jnsgd1na2vs0mg"},{"bike_id":"99ddd021-b081-4c55-b76b-6ee2334dea2c","system_id":"levelo_inurba_marseille","lat":43.28615,"lon":5.35102,"is_reserved":false,"is_disabled":false,"rental_uris":{"android":"levelo://app?vid=99ddd021-b081-4c55-b76b-6ee2334dea2c","ios":"levelo://app?vid=99ddd021-b081-4c55-b76b-6ee2334dea2c"},"vehicle_type_id":"4","last_reported":1758020899,"current_range_meters":7200,"station_id":"ce4bhch2rcd13ifvqeug","pricing_plan_id":"cebpf4jnsgd1na2vs0mg"},{"bike_id":"8312a5a5-16b5-4131-b938-3749044850f1","system_id":"levelo_inurba_marseille","lat":43.25,"lon":5.389201,"is_reserved":false,"is_disabled":false,"rental_uris":{"android":"levelo://app?vid=8312a5a5-16b5-4131-b938-3749044850f1","ios":"levelo://app?vid=8312a5a5-16b5-4131-b938-3749044850f1"},"vehicle_type_id":"4","last_reported":1758020899,"current_range_meters":7200,"station_id":"ce4bhgp2rcd13ifvqfd0","pricing_plan_id":"cebpf4jnsgd1na2vs0mg"},{"bike_id":"dc3746c4-9e90-4b56-9f4b-5ae465027f81","system_id":"levelo_inurba_marseille","lat":43.28671,"lon":5.38664,"is_reserved":false,"is_disabled":false,"rental_uris":{"android":"levelo://app?vid=dc3746c4-9e90-4b56-9f4b-5ae465027f81","ios":"levelo://app?vid=dc3746c4-9e90-4b56-9f4b-5ae465027f81"},"vehicle_type_id":"4","last_reported":1758020899,"current_range_meters":7200,"station_id":"ce4bh492rcd13ifvqdug","pricing_plan_id":"cebpf4jnsgd1na2vs0mg"},{"bike_id":"57127154-7e15-4346-89ed-ab9d76ef9c2c","system_id":"levelo_inurba_marseille","lat":43.28838,"lon":5.36326,"is_reserved":false,"is_disabled":false,"rental_uris":{"android":"levelo://app?vid=57127154-7e15-4346-89ed-ab9d76ef9c2c","ios":"levelo://app?vid=57127154-7e15-4346-89ed-ab9d76ef9c2c"},"vehicle_type_id":"4","last_reported":1758020899,"current_range_meters":7200,"station_id":"","pricing_plan_id":"cebpf4jnsgd1na2vs0mg"},{"bike_id":"b0621110-3508-4b7f-84c7-5d878d3091e6","system_id":"levelo_inurba_marseille","lat":43.30188,"lon":5.36634,"is_reserved":false,"is_disabled":false,"rental_uris":{"android":"levelo://app?vid=b0621110-3508-4b7f-84c7-5d878d3091e6","ios":"levelo://app?vid=b0621110-3508-4b7f-84c7-5d878d3091e6"},"vehicle_type_id":"4","last_reported":1758020899,"current_range_meters":8000,"station_id":"ce4bgrh2rcd13ifvqc8g","pricing_plan_id":"cebpf4jnsgd1na2vs0mg"},{"bike_id":"650da391-2e98-4488-b949-9a449f208a54","system_id":"levelo_inurba_marseille","lat":43.25895,"lon":5.40904,"is_reserved":false,"is_disabled":false,"rental_uris":{"android":"levelo://app?vid=650da391-2e98-4488-b949-9a449f208a54","ios":"levelo://app?vid=650da391-2e98-4488-b949-9a449f208a54"},"vehicle_type_id":"4","last_reported":1758020899,"current_range_meters":8000,"station_id":"ce4bhm92rcd13ifvqglg","pricing_plan_id":"cebpf4jnsgd1na2vs0mg"},{"bike_id":"e7a329bd-ed66-4ac7-aaba-63f2810ddd86","system_id":"levelo_inurba_marseille","lat":43.31859,"lon":5.37206,"is_reserved":false,"is_disabled":true,"rental_uris":{"android":"levelo://app?vid=e7a329bd-ed66-4ac7-aaba-63f2810ddd86","ios":"levelo://app?vid=e7a329bd-ed66-4ac7-aaba-63f2810ddd86"},"vehicle_type_id":"4","last_reported":1758020899,"current_range_meters":8000,"station_id":"","pricing_plan_id":"cebpf4jnsgd1na2vs0mg"},{"bike_id":"3497e7a2-d1ac-45c8-b73f-5afe1dfc9c24","system_id":"levelo_inurba_marseille","lat":43.286133,"lon":5.370858,"is_reserved":false,"is_disabled":false,"rental_uris":{"android":"levelo://app?vid=3497e7a2-d1ac-45c8-b73f-5afe1dfc9c24","ios":"levelo://app?vid=3497e7a2-d1ac-45c8-b73f-5afe1dfc9c24"},"vehicle_type_id":"4","last_reported":1758020899,"current_range_meters":8000,"station_id":"ce4bht12rcd13ifvqi60","pricing_plan_id":"cebpf4jnsgd1na2vs0mg"},{"bike_id":"cc59e246-d192-44ed-8a0c-0700dd03d36e","system_id":"levelo_inurba_marseille","lat":43.217499,"lon":5.346032,"is_reserved":false,"is_disabled":false,"rental_uris":{"android":"levelo://app?vid=cc59e246-d192-44ed-8a0c-0700dd03d36e","ios":"levelo://app?vid=cc59e246-d192-44ed-8a0c-0700dd03d36e"},"vehicle_type_id":"4","last_reported":1758020899,"current_range_meters":8000,"station_id":"st_cvj6r9ubvosntc0bgbag","pricing_plan_id":"cebpf4jnsgd1na2vs0mg"},{"bike_id":"1c66ddd4-dbeb-4b98-83ab-42e74f470f40","system_id":"levelo_inurba_marseille","lat":43.28096,"lon":5.37837,"is_reserved":false,"is_disabled":false,"rental_uris":{"android":"levelo://app?vid=1c66ddd4-dbeb-4b98-83ab-42e74f470f40","ios":"levelo://app?vid=1c66ddd4-dbeb-4b98-83ab-42e74f470f40"},"vehicle_type_id":"4","last_reported":1758020899,"current_range_meters":8000,"station_id":"ce4bha12rcd13ifvqee0","pricing_plan_id":"cebpf4jnsgd1na2vs0mg"},{"bike_id":"0cc43392-0623-46b4-b28b-f93569f72d61","system_id":"levelo_inurba_marseille","lat":43.26079,"lon":5.42021,"is_reserved":false,"is_disabled":false,"rental_uris":{"android":"levelo://app?vid=0cc43392-0623-46b4-b28b-f93569f72d61","ios":"levelo://app?vid=0cc43392-0623-46b4-b28b-f93569f72d61"},"vehicle_type_id":"4","last_reported":1758020899,"current_range_meters":8400,"station_id":"","pricing_plan_id":"cebpf4jnsgd1na2vs0mg"},{"bike_id":"38f183a7-de96-4848-aa5c-1f0039073c01","system_id":"levelo_inurba_marseille","lat":43.25006,"lon":5.38924,"is_reserved":false,"is_disabled":false,"rental_uris":{"android":"levelo://app?vid=38f183a7-de96-4848-aa5c-1f0039073c01","ios":"levelo://app?vid=38f183a7-de96-4848-aa5c-1f0039073c01"},"vehicle_type_id":"4","last_reported":1758020899,"current_range_meters":8000,"station_id":"ce4bhgp2rcd13ifvqfd0","pricing_plan_id":"cebpf4jnsgd1na2vs0mg"},{"bike_id":"f7825ce6-de89-45bf-831f-3599d0d91c3c","system_id":"levelo_inurba_marseille","lat":43.30757,"lon":5.36796,"is_reserved":false,"is_disabled":false,"rental_uris":{"android":"levelo://app?vid=f7825ce6-de89-45bf-831f-3599d0d91c3c","ios":"levelo://app?vid=f7825ce6-de89-45bf-831f-3599d0d91c3c"},"vehicle_type_id":"4","last_reported":1758020899,"current_range_meters":8400,"station_id":"","pricing_plan_id":"cebpf4jnsgd1na2vs0mg"},{"bike_id":"322c1f5a-85db-4ef6-bcd4-1b5c417c8ee0","system_id":"levelo_inurba_marseille","lat":43.3377,"lon":5.37488,"is_reserved":false,"is_disabled":false,"rental_uris":{"android":"levelo://app?vid=322c1f5a-85db-4ef6-bcd4-1b5c417c8ee0","ios":"levelo://app?vid=322c1f5a-85db-4ef6-bcd4-1b5c417c8ee0"},"vehicle_type_id":"4","last_reported":1758020899,"current_range_meters":8800,"station_id":"","pricing_plan_id":"cebpf4jnsgd1na2vs0mg"},{"bike_id":"9454e7ef-ab8c-4fdc-92e1-047fbf969467","system_id":"levelo_inurba_marseille","lat":43.30928,"lon":5.4014,"is_reserved":false,"is_disabled":false,"rental_uris":{"android":"levelo://app?vid=9454e7ef-ab8c-4fdc-92e1-047fbf969467","ios":"levelo://app?vid=9454e7ef-ab8c-4fdc-92e1-047fbf969467"},"vehicle_type_id":"4","last_reported":1758020899,"current_range_meters":8800,"station_id":"ce4bgvp2rcd13ifvqct0","pricing_plan_id":"cebpf4jnsgd1na2vs0mg"},{"bike_id":"d4aa7543-ebdc-43bc-9b85-5dd90accc147","system_id":"levelo_inurba_marseille","lat":43.30551,"lon":5.36544,"is_reserved":false,"is_disabled":false,"rental_uris":{"android":"levelo://app?vid=d4aa7543-ebdc-43bc-9b85-5dd90accc147","ios":"levelo://app?vid=d4aa7543-ebdc-43bc-9b85-5dd90accc147"},"vehicle_type_id":"4","last_reported":1758020899,"current_range_meters":8800,"station_id":"ce4bgs12rcd13ifvqcag","pricing_plan_id":"cebpf4jnsgd1na2vs0mg"},{"bike_id":"97a5f0cc-6cc3-4b12-bf16-937c54e73bdf","system_id":"levelo_inurba_marseille","lat":43.30895,"lon":5.3719,"is_reserved":false,"is_disabled":false,"rental_uris":{"android":"levelo://app?vid=97a5f0cc-6cc3-4b12-bf16-937c54e73bdf","ios":"levelo://app?vid=97a5f0cc-6cc3-4b12-bf16-937c54e73bdf"},"vehicle_type_id":"4","last_reported":1758020899,"current_range_meters":8800,"station_id":"ce4bguh2rcd13ifvqckg","pricing_plan_id":"cebpf4jnsgd1na2vs0mg"},{"bike_id":"fdc8f9ee-efeb-4d02-9d94-2144a245326d","system_id":"levelo_inurba_marseille","lat":43.28343,"lon":5.38116,"is_reserved":false,"is_disabled":false,"rental_uris":{"android":"levelo://app?vid=fdc8f9ee-efeb-4d02-9d94-2144a245326d","ios":"levelo://app?vid=fdc8f9ee-efeb-4d02-9d94-2144a245326d"},"vehicle_type_id":"4","last_reported":1758020899,"current_range_meters":9200,"station_id":"ce4bh412rcd13ifvqdr0","pricing_plan_id":"cebpf4jnsgd1na2vs0mg"},{"bike_id":"40b5c69e-e7fb-47a6-99be-1152debe558c","system_id":"levelo_inurba_marseille","lat":43.30908,"lon":5.36845,"is_reserved":false,"is_disabled":false,"rental_uris":{"android":"levelo://app?vid=40b5c69e-e7fb-47a6-99be-1152debe558c","ios":"levelo://app?vid=40b5c69e-e7fb-47a6-99be-1152debe558c"},"vehicle_type_id":"4","last_reported":1758020899,"current_range_meters":9600,"station_id":"ce4bgn92rcd13ifvqbvg","pricing_plan_id":"cebpf4jnsgd1na2vs0mg"},{"bike_id":"a155e67d-bec0-4326-ae57-c035ef5e1c81","system_id":"levelo_inurba_marseille","lat":43.29902,"lon":5.437,"is_reserved":false,"is_disabled":false,"rental_uris":{"android":"levelo://app?vid=a155e67d-bec0-4326-ae57-c035ef5e1c81","ios":"levelo://app?vid=a155e67d-bec0-4326-ae57-c035ef5e1c81"},"vehicle_type_id":"4","last_reported":1758020899,"current_range_meters":9600,"station_id":"","pricing_plan_id":"cebpf4jnsgd1na2vs0mg"},{"bike_id":"34539d66-9bce-4d1c-8b94-78e2e11c6e1a","system_id":"levelo_inurba_marseille","lat":43.28864,"lon":5.42514,"is_reserved":false,"is_disabled":false,"rental_uris":{"android":"levelo://app?vid=34539d66-9bce-4d1c-8b94-78e2e11c6e1a","ios":"levelo://app?vid=34539d66-9bce-4d1c-8b94-78e2e11c6e1a"},"vehicle_type_id":"4","last_reported":1758020899,"current_range_meters":9600,"station_id":"","pricing_plan_id":"cebpf4jnsgd1na2vs0mg"},{"bike_id":"4b3d29e4-4d48-4f95-a652-be16bfec385d","system_id":"levelo_inurba_marseille","lat":43.29901,"lon":5.37634,"is_reserved":false,"is_disabled":false,"rental_uris":{"android":"levelo://app?vid=4b3d29e4-4d48-4f95-a652-be16bfec385d","ios":"levelo://app?vid=4b3d29e4-4d48-4f95-a652-be16bfec385d"},"vehicle_type_id":"4","last_reported":1758020899,"current_range_meters":9600,"station_id":"","pricing_plan_id":"cebpf4jnsgd1na2vs0mg"},{"bike_id":"336c74d9-d9c9-46d7-a94b-134b36ad023a","system_id":"levelo_inurba_marseille","lat":43.29849,"lon":5.37833,"is_reserved":false,"is_disabled":false,"rental_uris":{"android":"levelo://app?vid=336c74d9-d9c9-46d7-a94b-134b36ad023a","ios":"levelo://app?vid=336c74d9-d9c9-46d7-a94b-134b36ad023a"},"vehicle_type_id":"4","last_reported":1758020899,"current_range_meters":9600,"station_id":"","pricing_plan_id":"cebpf4jnsgd1na2vs0mg"},{"bike_id":"d73ebff0-d957-41dc-a638-29b88edc4926","system_id":"levelo_inurba_marseille","lat":43.225591,"lon":5.416205,"is_reserved":false,"is_disabled":false,"rental_uris":{"android":"levelo://app?vid=d73ebff0-d957-41dc-a638-29b88edc4926","ios":"levelo://app?vid=d73ebff0-d957-41dc-a638-29b88edc4926"},"vehicle_type_id":"4","last_reported":1758020899,"current_range_meters":10000,"station_id":"st_d2o4gvlbi1j2169b742g","pricing_plan_id":"cebpf4jnsgd1na2vs0mg"},{"bike_id":"c07e7a2d-d8a6-4efd-8723-e965be4d1a74","system_id":"levelo_inurba_marseille","lat":43.22533,"lon":5.348367,"is_reserved":false,"is_disabled":false,"rental_uris":{"android":"levelo://app?vid=c07e7a2d-d8a6-4efd-8723-e965be4d1a74","ios":"levelo://app?vid=c07e7a2d-d8a6-4efd-8723-e965be4d1a74"},"vehicle_type_id":"4","last_reported":1758020899,"current_range_meters":10000,"station_id":"","pricing_plan_id":"cebpf4jnsgd1na2vs0mg"},{"bike_id":"56edeee2-9067-47ed-99c3-0fb0fa08b1cf","system_id":"levelo_inurba_marseille","lat":43.29895,"lon":5.38907,"is_reserved":false,"is_disabled":false,"rental_uris":{"android":"levelo://app?vid=56edeee2-9067-47ed-99c3-0fb0fa08b1cf","ios":"levelo://app?vid=56edeee2-9067-47ed-99c3-0fb0fa08b1cf"},"vehicle_type_id":"4","last_reported":1758020899,"current_range_meters":10000,"station_id":"ce4bh392rcd13ifvqdl0","pricing_plan_id":"cebpf4jnsgd1na2vs0mg"},{"bike_id":"9a803f31-b31d-4901-b111-ec7e8c97d5e6","system_id":"levelo_inurba_marseille","lat":43.24067,"lon":5.37752,"is_reserved":false,"is_disabled":false,"rental_uris":{"android":"levelo://app?vid=9a803f31-b31d-4901-b111-ec7e8c97d5e6","ios":"levelo://app?vid=9a803f31-b31d-4901-b111-ec7e8c97d5e6"},"vehicle_type_id":"4","last_reported":1758020899,"current_range_meters":10800,"station_id":"ce4bhnp2rcd13ifvqgvg","pricing_plan_id":"cebpf4jnsgd1na2vs0mg"},{"bike_id":"cd02c080-8936-4e2b-af4d-301cbe8eb8f1","system_id":"levelo_inurba_marseille","lat":43.30055,"lon":5.40353,"is_reserved":false,"is_disabled":false,"rental_uris":{"android":"levelo://app?vid=cd02c080-8936-4e2b-af4d-301cbe8eb8f1","ios":"levelo://app?vid=cd02c080-8936-4e2b-af4d-301cbe8eb8f1"},"vehicle_type_id":"4","last_reported":1758020899,"current_range_meters":10800,"station_id":"","pricing_plan_id":"cebpf4jnsgd1na2vs0mg"},{"bike_id":"68657626-417f-4a6a-b6a9-68ab1b2f5726","system_id":"levelo_inurba_marseille","lat":43.29842,"lon":5.3627,"is_reserved":false,"is_disabled":false,"rental_uris":{"android":"levelo://app?vid=68657626-417f-4a6a-b6a9-68ab1b2f5726","ios":"levelo://app?vid=68657626-417f-4a6a-b6a9-68ab1b2f5726"},"vehicle_type_id":"4","last_reported":1758020899,"current_range_meters":10800,"station_id":"ce4bgpp2rcd13ifvqc3g","pricing_plan_id":"cebpf4jnsgd1na2vs0mg"},{"bike_id":"e5c0f9fa-aa79-401b-ac6b-a846850c5345","system_id":"levelo_inurba_marseille","lat":43.27824,"lon":5.38531,"is_reserved":false,"is_disabled":false,"rental_uris":{"android":"levelo://app?vid=e5c0f9fa-aa79-401b-ac6b-a846850c5345","ios":"levelo://app?vid=e5c0f9fa-aa79-401b-ac6b-a846850c5345"},"vehicle_type_id":"4","last_reported":1758020899,"current_range_meters":10800,"station_id":"","pricing_plan_id":"cebpf4jnsgd1na2vs0mg"},{"bike_id":"4517d4e4-3513-4847-832b-772b40f9bcaa","system_id":"levelo_inurba_marseille","lat":43.290934,"lon":5.359078,"is_reserved":false,"is_disabled":false,"rental_uris":{"android":"levelo://app?vid=4517d4e4-3513-4847-832b-772b40f9bcaa","ios":"levelo://app?vid=4517d4e4-3513-4847-832b-772b40f9bcaa"},"vehicle_type_id":"4","last_reported":1758020899,"current_range_meters":10800,"station_id":"ce4bha92rcd13ifvqeg0","pricing_plan_id":"cebpf4jnsgd1na2vs0mg"},{"bike_id":"8a1cd7b0-73fd-4b5a-8431-98fe6a55b386","system_id":"levelo_inurba_marseille","lat":43.24078,"lon":5.37749,"is_reserved":false,"is_disabled":false,"rental_uris":{"android":"levelo://app?vid=8a1cd7b0-73fd-4b5a-8431-98fe6a55b386","ios":"levelo://app?vid=8a1cd7b0-73fd-4b5a-8431-98fe6a55b386"},"vehicle_type_id":"4","last_reported":1758020899,"current_range_meters":11200,"station_id":"ce4bhnp2rcd13ifvqgvg","pricing_plan_id":"cebpf4jnsgd1na2vs0mg"},{"bike_id":"9feafbe7-d230-445d-bbc0-e7ddc40006bc","system_id":"levelo_inurba_marseille","lat":43.2849,"lon":5.38413,"is_reserved":false,"is_disabled":false,"rental_uris":{"android":"levelo://app?vid=9feafbe7-d230-445d-bbc0-e7ddc40006bc","ios":"levelo://app?vid=9feafbe7-d230-445d-bbc0-e7ddc40006bc"},"vehicle_type_id":"4","last_reported":1758020899,"current_range_meters":11200,"station_id":"ce4bh512rcd13ifvqe3g","pricing_plan_id":"cebpf4jnsgd1na2vs0mg"},{"bike_id":"aef17ce4-0b79-4124-be17-f912e32b928a","system_id":"levelo_inurba_marseille","lat":43.25111,"lon":5.39495,"is_reserved":false,"is_disabled":false,"rental_uris":{"android":"levelo://app?vid=aef17ce4-0b79-4124-be17-f912e32b928a","ios":"levelo://app?vid=aef17ce4-0b79-4124-be17-f912e32b928a"},"vehicle_type_id":"4","last_reported":1758020899,"current_range_meters":11200,"station_id":"ce4bhm12rcd13ifvqgkg","pricing_plan_id":"cebpf4jnsgd1na2vs0mg"},{"bike_id":"8ef8bf7d-8a91-4724-8c2e-ddeef723e28a","system_id":"levelo_inurba_marseille","lat":43.27039,"lon":5.37922,"is_reserved":false,"is_disabled":false,"rental_uris":{"android":"levelo://app?vid=8ef8bf7d-8a91-4724-8c2e-ddeef723e28a","ios":"levelo://app?vid=8ef8bf7d-8a91-4724-8c2e-ddeef723e28a"},"vehicle_type_id":"4","last_reported":1758020899,"current_range_meters":11200,"station_id":"","pricing_plan_id":"cebpf4jnsgd1na2vs0mg"},{"bike_id":"a36f2a18-1bb9-4704-97f1-c22f41f1ca02","system_id":"levelo_inurba_marseille","lat":43.301115,"lon":5.39907,"is_reserved":false,"is_disabled":false,"rental_uris":{"android":"levelo://app?vid=a36f2a18-1bb9-4704-97f1-c22f41f1ca02","ios":"levelo://app?vid=a36f2a18-1bb9-4704-97f1-c22f41f1ca02"},"vehicle_type_id":"4","last_reported":1758020899,"current_range_meters":11200,"station_id":"ce4bh0h2rcd13ifvqd40","pricing_plan_id":"cebpf4jnsgd1na2vs0mg"},{"bike_id":"02d56be7-a682-4563-9ee2-79054ee7d3d9","system_id":"levelo_inurba_marseille","lat":43.34468,"lon":5.4312,"is_reserved":false,"is_disabled":false,"rental_uris":{"android":"levelo://app?vid=02d56be7-a682-4563-9ee2-79054ee7d3d9","ios":"levelo://app?vid=02d56be7-a682-4563-9ee2-79054ee7d3d9"},"vehicle_type_id":"4","last_reported":1758020899,"current_range_meters":11200,"station_id":"","pricing_plan_id":"cebpf4jnsgd1na2vs0mg"},{"bike_id":"77246e06-46b3-406d-9b69-b9b3e2cbdee1","system_id":"levelo_inurba_marseille","lat":43.28066,"lon":5.386696,"is_reserved":false,"is_disabled":false,"rental_uris":{"android":"levelo://app?vid=77246e06-46b3-406d-9b69-b9b3e2cbdee1","ios":"levelo://app?vid=77246e06-46b3-406d-9b69-b9b3e2cbdee1"},"vehicle_type_id":"4","last_reported":1758020899,"current_range_meters":11200,"station_id":"","pricing_plan_id":"cebpf4jnsgd1na2vs0mg"},{"bike_id":"38067274-00e5-42a7-b244-95402f57e2c8","system_id":"levelo_inurba_marseille","lat":43.25862,"lon":5.39904,"is_reserved":false,"is_disabled":false,"rental_uris":{"android":"levelo://app?vid=38067274-00e5-42a7-b244-95402f57e2c8","ios":"levelo://app?vid=38067274-00e5-42a7-b244-95402f57e2c8"},"vehicle_type_id":"4","last_reported":1758020899,"current_range_meters":11200,"station_id":"ce4bhl92rcd13ifvqghg","pricing_plan_id":"cebpf4jnsgd1na2vs0mg"},{"bike_id":"e824d254-16a6-4ae4-983a-05af083f4c81","system_id":"levelo_inurba_marseille","lat":43.21753,"lon":5.34607,"is_reserved":false,"is_disabled":false,"rental_uris":{"android":"levelo://app?vid=e824d254-16a6-4ae4-983a-05af083f4c81","ios":"levelo://app?vid=e824d254-16a6-4ae4-983a-05af083f4c81"},"vehicle_type_id":"4","last_reported":1758020899,"current_range_meters":11600,"station_id":"","pricing_plan_id":"cebpf4jnsgd1na2vs0mg"},{"bike_id":"c37cef7b-4db3-4ab5-bf3d-271472b8a8b1","system_id":"levelo_inurba_marseille","lat":43.29702,"lon":5.37709,"is_reserved":false,"is_disabled":false,"rental_uris":{"android":"levelo://app?vid=c37cef7b-4db3-4ab5-bf3d-271472b8a8b1","ios":"levelo://app?vid=c37cef7b-4db3-4ab5-bf3d-271472b8a8b1"},"vehicle_type_id":"4","last_reported":1758020899,"current_range_meters":11600,"station_id":"ce4bgkh2rcd13ifvqbl0","pricing_plan_id":"cebpf4jnsgd1na2vs0mg"},{"bike_id":"3a3c19d5-d14e-4423-8db4-34416ea35cc2","system_id":"levelo_inurba_marseille","lat":43.2707,"lon":5.42282,"is_reserved":false,"is_disabled":false,"rental_uris":{"android":"levelo://app?vid=3a3c19d5-d14e-4423-8db4-34416ea35cc2","ios":"levelo://app?vid=3a3c19d5-d14e-4423-8db4-34416ea35cc2"},"vehicle_type_id":"4","last_reported":1758020899,"current_range_meters":11600,"station_id":"ce4bhk92rcd13ifvqgb0","pricing_plan_id":"cebpf4jnsgd1na2vs0mg"},{"bike_id":"8994da1b-622c-4bb2-bfe8-5ca5d4854b7e","system_id":"levelo_inurba_marseille","lat":43.29872,"lon":5.3973,"is_reserved":false,"is_disabled":false,"rental_uris":{"android":"levelo://app?vid=8994da1b-622c-4bb2-bfe8-5ca5d4854b7e","ios":"levelo://app?vid=8994da1b-622c-4bb2-bfe8-5ca5d4854b7e"},"vehicle_type_id":"4","last_reported":1758020899,"current_range_meters":11600,"station_id":"ce4bh0h2rcd13ifvqd50","pricing_plan_id":"cebpf4jnsgd1na2vs0mg"},{"bike_id":"a1edb469-4598-420e-8472-6ccf80dad539","system_id":"levelo_inurba_marseille","lat":43.25821,"lon":5.39433,"is_reserved":false,"is_disabled":false,"rental_uris":{"android":"levelo://app?vid=a1edb469-4598-420e-8472-6ccf80dad539","ios":"levelo://app?vid=a1edb469-4598-420e-8472-6ccf80dad539"},"vehicle_type_id":"4","last_reported":1758020899,"current_range_meters":12000,"station_id":"ce4bhip2rcd13ifvqft0","pricing_plan_id":"cebpf4jnsgd1na2vs0mg"},{"bike_id":"ac340abf-24c3-418f-9e97-0eb4212ba73f","system_id":"levelo_inurba_marseille","lat":43.30925,"lon":5.36856,"is_reserved":false,"is_disabled":false,"rental_uris":{"android":"levelo://app?vid=ac340abf-24c3-418f-9e97-0eb4212ba73f","ios":"levelo://app?vid=ac340abf-24c3-418f-9e97-0eb4212ba73f"},"vehicle_type_id":"4","last_reported":1758020899,"current_range_meters":12000,"station_id":"ce4bgn92rcd13ifvqbvg","pricing_plan_id":"cebpf4jnsgd1na2vs0mg"},{"bike_id":"d28c30f7-d993-418e-b279-e6e75970549b","system_id":"levelo_inurba_marseille","lat":43.29627,"lon":5.37687,"is_reserved":false,"is_disabled":true,"rental_uris":{"android":"levelo://app?vid=d28c30f7-d993-418e-b279-e6e75970549b","ios":"levelo://app?vid=d28c30f7-d993-418e-b279-e6e75970549b"},"vehicle_type_id":"4","last_reported":1758020899,"current_range_meters":12000,"station_id":"ce4bgi92rcd13ifvqb90","pricing_plan_id":"cebpf4jnsgd1na2vs0mg"},{"bike_id":"a1599a1a-9437-405d-bb22-b4abfc344577","system_id":"levelo_inurba_marseille","lat":43.3014,"lon":5.374058,"is_reserved":false,"is_disabled":false,"rental_uris":{"android":"levelo://app?vid=a1599a1a-9437-405d-bb22-b4abfc344577","ios":"levelo://app?vid=a1599a1a-9437-405d-bb22-b4abfc344577"},"vehicle_type_id":"4","last_reported":1758020899,"current_range_meters":14800,"station_id":"ce4bgs92rcd13ifvqcc0","pricing_plan_id":"cebpf4jnsgd1na2vs0mg"},{"bike_id":"aa26253d-0905-4257-ab25-1dd1a772a851","system_id":"levelo_inurba_marseille","lat":43.30148,"lon":5.37416,"is_reserved":false,"is_disabled":false,"rental_uris":{"android":"levelo://app?vid=aa26253d-0905-4257-ab25-1dd1a772a851","ios":"levelo://app?vid=aa26253d-0905-4257-ab25-1dd1a772a851"},"vehicle_type_id":"4","last_reported":1758020899,"current_range_meters":12800,"station_id":"ce4bgs92rcd13ifvqcc0","pricing_plan_id":"cebpf4jnsgd1na2vs0mg"},{"bike_id":"2cf85910-9fad-49f8-b64e-55e149c4e749","system_id":"levelo_inurba_marseille","lat":43.32047,"lon":5.41551,"is_reserved":false,"is_disabled":false,"rental_uris":{"android":"levelo://app?vid=2cf85910-9fad-49f8-b64e-55e149c4e749","ios":"levelo://app?vid=2cf85910-9fad-49f8-b64e-55e149c4e749"},"vehicle_type_id":"4","last_reported":1758020899,"current_range_meters":12800,"station_id":"ce4bhq92rcd13ifvqhkg","pricing_plan_id":"cebpf4jnsgd1na2vs0mg"},{"bike_id":"b8e84a21-70dc-466d-8549-b141c11a8cc5","system_id":"levelo_inurba_marseille","lat":43.287244,"lon":5.389227,"is_reserved":false,"is_disabled":false,"rental_uris":{"android":"levelo://app?vid=b8e84a21-70dc-466d-8549-b141c11a8cc5","ios":"levelo://app?vid=b8e84a21-70dc-466d-8549-b141c11a8cc5"},"vehicle_type_id":"4","last_reported":1758020899,"current_range_meters":12400,"station_id":"ce4bh3h2rcd13ifvqdn0","pricing_plan_id":"cebpf4jnsgd1na2vs0mg"},{"bike_id":"9cd34a0d-1c3c-4e14-83a7-fa0de2f92329","system_id":"levelo_inurba_marseille","lat":43.286681,"lon":5.386689,"is_reserved":false,"is_disabled":false,"rental_uris":{"android":"levelo://app?vid=9cd34a0d-1c3c-4e14-83a7-fa0de2f92329","ios":"levelo://app?vid=9cd34a0d-1c3c-4e14-83a7-fa0de2f92329"},"vehicle_type_id":"4","last_reported":1758020899,"current_range_meters":12800,"station_id":"ce4bh492rcd13ifvqdug","pricing_plan_id":"cebpf4jnsgd1na2vs0mg"},{"bike_id":"cbb360a0-73db-484d-90d6-0213d433b386","system_id":"levelo_inurba_marseille","lat":43.31761,"lon":5.3901,"is_reserved":false,"is_disabled":false,"rental_uris":{"android":"levelo://app?vid=cbb360a0-73db-484d-90d6-0213d433b386","ios":"levelo://app?vid=cbb360a0-73db-484d-90d6-0213d433b386"},"vehicle_type_id":"4","last_reported":1758020899,"current_range_meters":12800,"station_id":"ce4bhqp2rcd13ifvqhng","pricing_plan_id":"cebpf4jnsgd1na2vs0mg"},{"bike_id":"fbf68d05-5125-49dc-91fb-265fd58ee496","system_id":"levelo_inurba_marseille","lat":43.24065,"lon":5.377729,"is_reserved":false,"is_disabled":false,"rental_uris":{"android":"levelo://app?vid=fbf68d05-5125-49dc-91fb-265fd58ee496","ios":"levelo://app?vid=fbf68d05-5125-49dc-91fb-265fd58ee496"},"vehicle_type_id":"4","last_reported":1758020899,"current_range_meters":13600,"station_id":"ce4bhnp2rcd13ifvqgvg","pricing_plan_id":"cebpf4jnsgd1na2vs0mg"},{"bike_id":"191f73ad-0a1b-4567-8735-50a66ac4d819","system_id":"levelo_inurba_marseille","lat":43.31361,"lon":5.38488,"is_reserved":false,"is_disabled":false,"rental_uris":{"android":"levelo://app?vid=191f73ad-0a1b-4567-8735-50a66ac4d819","ios":"levelo://app?vid=191f73ad-0a1b-4567-8735-50a66ac4d819"},"vehicle_type_id":"4","last_reported":1758020899,"current_range_meters":13600,"station_id":"ce4bgt92rcd13ifvqcf0","pricing_plan_id":"cebpf4jnsgd1na2vs0mg"},{"bike_id":"b2f68d44-0941-44a1-98d6-1e5cc3593e29","system_id":"levelo_inurba_marseille","lat":43.31695,"lon":5.40473,"is_reserved":false,"is_disabled":false,"rental_uris":{"android":"levelo://app?vid=b2f68d44-0941-44a1-98d6-1e5cc3593e29","ios":"levelo://app?vid=b2f68d44-0941-44a1-98d6-1e5cc3593e29"},"vehicle_type_id":"4","last_reported":1758020899,"current_range_meters":13600,"station_id":"ce4bh012rcd13ifvqd00","pricing_plan_id":"cebpf4jnsgd1na2vs0mg"},{"bike_id":"cd2513dc-3627-4964-a0b1-d4c9260c4c8e","system_id":"levelo_inurba_marseille","lat":43.2409,"lon":5.37753,"is_reserved":false,"is_disabled":false,"rental_uris":{"android":"levelo://app?vid=cd2513dc-3627-4964-a0b1-d4c9260c4c8e","ios":"levelo://app?vid=cd2513dc-3627-4964-a0b1-d4c9260c4c8e"},"vehicle_type_id":"4","last_reported":1758020899,"current_range_meters":13600,"station_id":"ce4bhnp2rcd13ifvqgvg","pricing_plan_id":"cebpf4jnsgd1na2vs0mg"},{"bike_id":"cfb7ac7d-ba8c-4caa-8e9a-c7295b1fca0b","system_id":"levelo_inurba_marseille","lat":43.30461,"lon":5.37902,"is_reserved":false,"is_disabled":false,"rental_uris":{"android":"levelo://app?vid=cfb7ac7d-ba8c-4caa-8e9a-c7295b1fca0b","ios":"levelo://app?vid=cfb7ac7d-ba8c-4caa-8e9a-c7295b1fca0b"},"vehicle_type_id":"4","last_reported":1758020899,"current_range_meters":12800,"station_id":"ce4bgup2rcd13ifvqcn0","pricing_plan_id":"cebpf4jnsgd1na2vs0mg"},{"bike_id":"11109d2a-6f46-459c-bb61-24e0f6016f2f","system_id":"levelo_inurba_marseille","lat":43.29012,"lon":5.38138,"is_reserved":false,"is_disabled":false,"rental_uris":{"android":"levelo://app?vid=11109d2a-6f46-459c-bb61-24e0f6016f2f","ios":"levelo://app?vid=11109d2a-6f46-459c-bb61-24e0f6016f2f"},"vehicle_type_id":"4","last_reported":1758020899,"current_range_meters":12800,"station_id":"ce4bh4p2rcd13ifvqe1g","pricing_plan_id":"cebpf4jnsgd1na2vs0mg"},{"bike_id":"c1b23fe1-71c4-4b0e-b20b-ee3ee550ee61","system_id":"levelo_inurba_marseille","lat":43.27057,"lon":5.40249,"is_reserved":false,"is_disabled":false,"rental_uris":{"android":"levelo://app?vid=c1b23fe1-71c4-4b0e-b20b-ee3ee550ee61","ios":"levelo://app?vid=c1b23fe1-71c4-4b0e-b20b-ee3ee550ee61"},"vehicle_type_id":"4","last_reported":1758020899,"current_range_meters":14000,"station_id":"ce4bhk92rcd13ifvqgc0","pricing_plan_id":"cebpf4jnsgd1na2vs0mg"},{"bike_id":"f921bdf5-38cd-4e0c-8870-778459b9fa7c","system_id":"levelo_inurba_marseille","lat":43.27812,"lon":5.35487,"is_reserved":false,"is_disabled":false,"rental_uris":{"android":"levelo://app?vid=f921bdf5-38cd-4e0c-8870-778459b9fa7c","ios":"levelo://app?vid=f921bdf5-38cd-4e0c-8870-778459b9fa7c"},"vehicle_type_id":"4","last_reported":1758020899,"current_range_meters":14000,"station_id":"","pricing_plan_id":"cebpf4jnsgd1na2vs0mg"},{"bike_id":"3b26aa0d-3679-4b4c-9b55-1096f6d08a9d","system_id":"levelo_inurba_marseille","lat":43.31304,"lon":5.39406,"is_reserved":false,"is_disabled":false,"rental_uris":{"android":"levelo://app?vid=3b26aa0d-3679-4b4c-9b55-1096f6d08a9d","ios":"levelo://app?vid=3b26aa0d-3679-4b4c-9b55-1096f6d08a9d"},"vehicle_type_id":"4","last_reported":1758020899,"current_range_meters":14000,"station_id":"","pricing_plan_id":"cebpf4jnsgd1na2vs0mg"},{"bike_id":"7ddc1d91-2f3c-468c-b8d8-82329760ad9c","system_id":"levelo_inurba_marseille","lat":43.29803,"lon":5.38096,"is_reserved":false,"is_disabled":false,"rental_uris":{"android":"levelo://app?vid=7ddc1d91-2f3c-468c-b8d8-82329760ad9c","ios":"levelo://app?vid=7ddc1d91-2f3c-468c-b8d8-82329760ad9c"},"vehicle_type_id":"4","last_reported":1758020899,"current_range_meters":14000,"station_id":"ce4bgip2rcd13ifvqbb0","pricing_plan_id":"cebpf4jnsgd1na2vs0mg"},{"bike_id":"57489730-7be5-41ee-b73e-01ad5de67686","system_id":"levelo_inurba_marseille","lat":43.2904,"lon":5.39986,"is_reserved":false,"is_disabled":false,"rental_uris":{"android":"levelo://app?vid=57489730-7be5-41ee-b73e-01ad5de67686","ios":"levelo://app?vid=57489730-7be5-41ee-b73e-01ad5de67686"},"vehicle_type_id":"4","last_reported":1758020899,"current_range_meters":14000,"station_id":"ce4bh392rcd13ifvqdm0","pricing_plan_id":"cebpf4jnsgd1na2vs0mg"},{"bike_id":"9c740e69-761d-4034-b327-63addcf5f7f3","system_id":"levelo_inurba_marseille","lat":43.28277,"lon":5.35057,"is_reserved":false,"is_disabled":false,"rental_uris":{"android":"levelo://app?vid=9c740e69-761d-4034-b327-63addcf5f7f3","ios":"levelo://app?vid=9c740e69-761d-4034-b327-63addcf5f7f3"},"vehicle_type_id":"4","last_reported":1758020899,"current_range_meters":14000,"station_id":"ce4bhbp2rcd13ifvqerg","pricing_plan_id":"cebpf4jnsgd1na2vs0mg"},{"bike_id":"2ba6d751-735d-4f3f-b471-7e3f5bc5e1b1","system_id":"levelo_inurba_marseille","lat":43.32117,"lon":5.36784,"is_reserved":false,"is_disabled":false,"rental_uris":{"android":"levelo://app?vid=2ba6d751-735d-4f3f-b471-7e3f5bc5e1b1","ios":"levelo://app?vid=2ba6d751-735d-4f3f-b471-7e3f5bc5e1b1"},"vehicle_type_id":"4","last_reported":1758020899,"current_range_meters":14000,"station_id":"ce4bhrh2rcd13ifvqhug","pricing_plan_id":"cebpf4jnsgd1na2vs0mg"},{"bike_id":"fb351b77-39b9-4407-912a-c1008fce46ae","system_id":"levelo_inurba_marseille","lat":43.31355,"lon":5.3676,"is_reserved":false,"is_disabled":false,"rental_uris":{"android":"levelo://app?vid=fb351b77-39b9-4407-912a-c1008fce46ae","ios":"levelo://app?vid=fb351b77-39b9-4407-912a-c1008fce46ae"},"vehicle_type_id":"4","last_reported":1758020899,"current_range_meters":14000,"station_id":"ce4bgr92rcd13ifvqc6g","pricing_plan_id":"cebpf4jnsgd1na2vs0mg"},{"bike_id":"18b12373-dc87-4089-8465-f816279e5431","system_id":"levelo_inurba_marseille","lat":43.24944,"lon":5.404912,"is_reserved":false,"is_disabled":false,"rental_uris":{"android":"levelo://app?vid=18b12373-dc87-4089-8465-f816279e5431","ios":"levelo://app?vid=18b12373-dc87-4089-8465-f816279e5431"},"vehicle_type_id":"4","last_reported":1758020899,"current_range_meters":14400,"station_id":"st_d2ngiaodas8pm72gd1h0","pricing_plan_id":"cebpf4jnsgd1na2vs0mg"},{"bike_id":"7401f904-c7a5-4420-9a38-b32c76084c39","system_id":"levelo_inurba_marseille","lat":43.2827,"lon":5.35074,"is_reserved":false,"is_disabled":false,"rental_uris":{"android":"levelo://app?vid=7401f904-c7a5-4420-9a38-b32c76084c39","ios":"levelo://app?vid=7401f904-c7a5-4420-9a38-b32c76084c39"},"vehicle_type_id":"4","last_reported":1758020899,"current_range_meters":14400,"station_id":"ce4bhbp2rcd13ifvqerg","pricing_plan_id":"cebpf4jnsgd1na2vs0mg"},{"bike_id":"66e4218a-9958-44a2-8fcb-335bf5fade68","system_id":"levelo_inurba_marseille","lat":43.23152,"lon":5.43718,"is_reserved":false,"is_disabled":false,"rental_uris":{"android":"levelo://app?vid=66e4218a-9958-44a2-8fcb-335bf5fade68","ios":"levelo://app?vid=66e4218a-9958-44a2-8fcb-335bf5fade68"},"vehicle_type_id":"4","last_reported":1758020899,"current_range_meters":14800,"station_id":"ce4bhmp2rcd13ifvqgog","pricing_plan_id":"cebpf4jnsgd1na2vs0mg"},{"bike_id":"0049acfe-97a7-4c73-afbf-6c0e3d2fdff3","system_id":"levelo_inurba_marseille","lat":43.284876,"lon":5.385559,"is_reserved":false,"is_disabled":true,"rental_uris":{"android":"levelo://app?vid=0049acfe-97a7-4c73-afbf-6c0e3d2fdff3","ios":"levelo://app?vid=0049acfe-97a7-4c73-afbf-6c0e3d2fdff3"},"vehicle_type_id":"4","last_reported":1758020899,"current_range_meters":14800,"station_id":"ce4bh8p2rcd13ifvqeb0","pricing_plan_id":"cebpf4jnsgd1na2vs0mg"},{"bike_id":"f8b55e6f-fc3d-4219-a744-334ff9e3907f","system_id":"levelo_inurba_marseille","lat":43.313553,"lon":5.366907,"is_reserved":false,"is_disabled":false,"rental_uris":{"android":"levelo://app?vid=f8b55e6f-fc3d-4219-a744-334ff9e3907f","ios":"levelo://app?vid=f8b55e6f-fc3d-4219-a744-334ff9e3907f"},"vehicle_type_id":"4","last_reported":1758020899,"current_range_meters":14800,"station_id":"ce4bgr92rcd13ifvqc6g","pricing_plan_id":"cebpf4jnsgd1na2vs0mg"},{"bike_id":"0ede21be-37d9-4495-b672-80274a6292be","system_id":"levelo_inurba_marseille","lat":43.35054,"lon":5.34063,"is_reserved":false,"is_disabled":false,"rental_uris":{"android":"levelo://app?vid=0ede21be-37d9-4495-b672-80274a6292be","ios":"levelo://app?vid=0ede21be-37d9-4495-b672-80274a6292be"},"vehicle_type_id":"4","last_reported":1758020899,"current_range_meters":14800,"station_id":"","pricing_plan_id":"cebpf4jnsgd1na2vs0mg"},{"bike_id":"62473aca-5d60-4f9b-8d0a-e6ce0ea7fc2f","system_id":"levelo_inurba_marseille","lat":43.30354,"lon":5.36613,"is_reserved":false,"is_disabled":false,"rental_uris":{"android":"levelo://app?vid=62473aca-5d60-4f9b-8d0a-e6ce0ea7fc2f","ios":"levelo://app?vid=62473aca-5d60-4f9b-8d0a-e6ce0ea7fc2f"},"vehicle_type_id":"4","last_reported":1758020899,"current_range_meters":15200,"station_id":"","pricing_plan_id":"cebpf4jnsgd1na2vs0mg"},{"bike_id":"ece07351-e21d-4c48-bd8e-d6076d0d6379","system_id":"levelo_inurba_marseille","lat":43.28479,"lon":5.37485,"is_reserved":false,"is_disabled":false,"rental_uris":{"android":"levelo://app?vid=ece07351-e21d-4c48-bd8e-d6076d0d6379","ios":"levelo://app?vid=ece07351-e21d-4c48-bd8e-d6076d0d6379"},"vehicle_type_id":"4","last_reported":1758020899,"current_range_meters":15200,"station_id":"","pricing_plan_id":"cebpf4jnsgd1na2vs0mg"},{"bike_id":"b9e68078-d071-4eb2-a06d-5e1c9fcd2741","system_id":"levelo_inurba_marseille","lat":43.29867,"lon":5.39729,"is_reserved":false,"is_disabled":false,"rental_uris":{"android":"levelo://app?vid=b9e68078-d071-4eb2-a06d-5e1c9fcd2741","ios":"levelo://app?vid=b9e68078-d071-4eb2-a06d-5e1c9fcd2741"},"vehicle_type_id":"4","last_reported":1758020899,"current_range_meters":15200,"station_id":"ce4bh0h2rcd13ifvqd50","pricing_plan_id":"cebpf4jnsgd1na2vs0mg"},{"bike_id":"819acd2d-1fa5-4830-afb3-48b5185776e3","system_id":"levelo_inurba_marseille","lat":43.29894,"lon":5.43673,"is_reserved":false,"is_disabled":false,"rental_uris":{"android":"levelo://app?vid=819acd2d-1fa5-4830-afb3-48b5185776e3","ios":"levelo://app?vid=819acd2d-1fa5-4830-afb3-48b5185776e3"},"vehicle_type_id":"4","last_reported":1758020899,"current_range_meters":15200,"station_id":"ce4bhpp2rcd13ifvqhfg","pricing_plan_id":"cebpf4jnsgd1na2vs0mg"},{"bike_id":"c5db8956-5cb9-45c3-98ae-2d5ca5a164f9","system_id":"levelo_inurba_marseille","lat":43.30544,"lon":5.367258,"is_reserved":false,"is_disabled":false,"rental_uris":{"android":"levelo://app?vid=c5db8956-5cb9-45c3-98ae-2d5ca5a164f9","ios":"levelo://app?vid=c5db8956-5cb9-45c3-98ae-2d5ca5a164f9"},"vehicle_type_id":"4","last_reported":1758020899,"current_range_meters":15200,"station_id":"ce4bgrp2rcd13ifvqc9g","pricing_plan_id":"cebpf4jnsgd1na2vs0mg"},{"bike_id":"dd27a207-c7ee-4e72-b1f9-3cfabd1d5e79","system_id":"levelo_inurba_marseille","lat":43.29306,"lon":5.37462,"is_reserved":false,"is_disabled":false,"rental_uris":{"android":"levelo://app?vid=dd27a207-c7ee-4e72-b1f9-3cfabd1d5e79","ios":"levelo://app?vid=dd27a207-c7ee-4e72-b1f9-3cfabd1d5e79"},"vehicle_type_id":"4","last_reported":1758020899,"current_range_meters":14800,"station_id":"ce4bgi12rcd13ifvqb70","pricing_plan_id":"cebpf4jnsgd1na2vs0mg"},{"bike_id":"c8144899-9b41-4fd4-84a4-755117cb116d","system_id":"levelo_inurba_marseille","lat":43.284722,"lon":5.384208,"is_reserved":false,"is_disabled":false,"rental_uris":{"android":"levelo://app?vid=c8144899-9b41-4fd4-84a4-755117cb116d","ios":"levelo://app?vid=c8144899-9b41-4fd4-84a4-755117cb116d"},"vehicle_type_id":"4","last_reported":1758020899,"current_range_meters":15200,"station_id":"","pricing_plan_id":"cebpf4jnsgd1na2vs0mg"},{"bike_id":"b790cddf-9efc-4e43-b7b9-8f0186b4e0ba","system_id":"levelo_inurba_marseille","lat":43.25339,"lon":5.4219,"is_reserved":false,"is_disabled":true,"rental_uris":{"android":"levelo://app?vid=b790cddf-9efc-4e43-b7b9-8f0186b4e0ba","ios":"levelo://app?vid=b790cddf-9efc-4e43-b7b9-8f0186b4e0ba"},"vehicle_type_id":"4","last_reported":1758020899,"current_range_meters":16000,"station_id":"st_d2m65c5bi1j21697t3ng","pricing_plan_id":"cebpf4jnsgd1na2vs0mg"},{"bike_id":"11555ead-152a-4e2f-ac3e-7aaa852c50e5","system_id":"levelo_inurba_marseille","lat":43.225326,"lon":5.348358,"is_reserved":false,"is_disabled":false,"rental_uris":{"android":"levelo://app?vid=11555ead-152a-4e2f-ac3e-7aaa852c50e5","ios":"levelo://app?vid=11555ead-152a-4e2f-ac3e-7aaa852c50e5"},"vehicle_type_id":"4","last_reported":1758020899,"current_range_meters":16000,"station_id":"","pricing_plan_id":"cebpf4jnsgd1na2vs0mg"},{"bike_id":"af855c88-100f-429f-ba0c-3dad51b30928","system_id":"levelo_inurba_marseille","lat":43.2121,"lon":5.35077,"is_reserved":false,"is_disabled":false,"rental_uris":{"android":"levelo://app?vid=af855c88-100f-429f-ba0c-3dad51b30928","ios":"levelo://app?vid=af855c88-100f-429f-ba0c-3dad51b30928"},"vehicle_type_id":"4","last_reported":1758020899,"current_range_meters":16000,"station_id":"st_cvj6sg6p6f1abm77japg","pricing_plan_id":"cebpf4jnsgd1na2vs0mg"},{"bike_id":"a3d33d42-aa34-4635-b98b-9c16c8962415","system_id":"levelo_inurba_marseille","lat":43.29032,"lon":5.35614,"is_reserved":false,"is_disabled":false,"rental_uris":{"android":"levelo://app?vid=a3d33d42-aa34-4635-b98b-9c16c8962415","ios":"levelo://app?vid=a3d33d42-aa34-4635-b98b-9c16c8962415"},"vehicle_type_id":"4","last_reported":1758020899,"current_range_meters":16000,"station_id":"ce4bhb92rcd13ifvqen0","pricing_plan_id":"cebpf4jnsgd1na2vs0mg"},{"bike_id":"df5f82b4-375f-45db-8e0b-e6966010397a","system_id":"levelo_inurba_marseille","lat":43.28852,"lon":5.35853,"is_reserved":false,"is_disabled":false,"rental_uris":{"android":"levelo://app?vid=df5f82b4-375f-45db-8e0b-e6966010397a","ios":"levelo://app?vid=df5f82b4-375f-45db-8e0b-e6966010397a"},"vehicle_type_id":"4","last_reported":1758020899,"current_range_meters":16000,"station_id":"ce4bhb12rcd13ifvqem0","pricing_plan_id":"cebpf4jnsgd1na2vs0mg"},{"bike_id":"10b8538c-9fe1-4873-bc11-f56b18c25ed5","system_id":"levelo_inurba_marseille","lat":43.30297,"lon":5.37692,"is_reserved":false,"is_disabled":false,"rental_uris":{"android":"levelo://app?vid=10b8538c-9fe1-4873-bc11-f56b18c25ed5","ios":"levelo://app?vid=10b8538c-9fe1-4873-bc11-f56b18c25ed5"},"vehicle_type_id":"4","last_reported":1758020899,"current_range_meters":15200,"station_id":"ce4bguh2rcd13ifvqcj0","pricing_plan_id":"cebpf4jnsgd1na2vs0mg"},{"bike_id":"2359b10a-28e9-4951-abfc-36c289299520","system_id":"levelo_inurba_marseille","lat":43.29293,"lon":5.37466,"is_reserved":false,"is_disabled":false,"rental_uris":{"android":"levelo://app?vid=2359b10a-28e9-4951-abfc-36c289299520","ios":"levelo://app?vid=2359b10a-28e9-4951-abfc-36c289299520"},"vehicle_type_id":"4","last_reported":1758020899,"current_range_meters":16000,"station_id":"ce4bgi12rcd13ifvqb70","pricing_plan_id":"cebpf4jnsgd1na2vs0mg"},{"bike_id":"40495e59-b743-486e-987c-cb0c3ab2f191","system_id":"levelo_inurba_marseille","lat":43.3329,"lon":5.41263,"is_reserved":false,"is_disabled":false,"rental_uris":{"android":"levelo://app?vid=40495e59-b743-486e-987c-cb0c3ab2f191","ios":"levelo://app?vid=40495e59-b743-486e-987c-cb0c3ab2f191"},"vehicle_type_id":"4","last_reported":1758020899,"current_range_meters":16000,"station_id":"","pricing_plan_id":"cebpf4jnsgd1na2vs0mg"},{"bike_id":"30dbcd00-b9a9-48cf-9c9a-22422cc17227","system_id":"levelo_inurba_marseille","lat":43.26232,"lon":5.40461,"is_reserved":false,"is_disabled":false,"rental_uris":{"android":"levelo://app?vid=30dbcd00-b9a9-48cf-9c9a-22422cc17227","ios":"levelo://app?vid=30dbcd00-b9a9-48cf-9c9a-22422cc17227"},"vehicle_type_id":"4","last_reported":1758020899,"current_range_meters":16000,"station_id":"ce4bhmh2rcd13ifvqgmg","pricing_plan_id":"cebpf4jnsgd1na2vs0mg"},{"bike_id":"46a49489-92ea-4c0b-918a-1f7092497e67","system_id":"levelo_inurba_marseille","lat":43.21193,"lon":5.3508,"is_reserved":false,"is_disabled":false,"rental_uris":{"android":"levelo://app?vid=46a49489-92ea-4c0b-918a-1f7092497e67","ios":"levelo://app?vid=46a49489-92ea-4c0b-918a-1f7092497e67"},"vehicle_type_id":"4","last_reported":1758020899,"current_range_meters":16000,"station_id":"st_cvj6sg6p6f1abm77japg","pricing_plan_id":"cebpf4jnsgd1na2vs0mg"},{"bike_id":"4bea1fb3-728c-4a71-a6e9-fa6c3e72665a","system_id":"levelo_inurba_marseille","lat":43.28616,"lon":5.35106,"is_reserved":false,"is_disabled":false,"rental_uris":{"android":"levelo://app?vid=4bea1fb3-728c-4a71-a6e9-fa6c3e72665a","ios":"levelo://app?vid=4bea1fb3-728c-4a71-a6e9-fa6c3e72665a"},"vehicle_type_id":"4","last_reported":1758020899,"current_range_meters":16000,"station_id":"ce4bhch2rcd13ifvqeug","pricing_plan_id":"cebpf4jnsgd1na2vs0mg"},{"bike_id":"c90b53f2-ffb7-445d-88ba-3fbf20ae9860","system_id":"levelo_inurba_marseille","lat":43.2749,"lon":5.42454,"is_reserved":false,"is_disabled":true,"rental_uris":{"android":"levelo://app?vid=c90b53f2-ffb7-445d-88ba-3fbf20ae9860","ios":"levelo://app?vid=c90b53f2-ffb7-445d-88ba-3fbf20ae9860"},"vehicle_type_id":"4","last_reported":1758020899,"current_range_meters":16000,"station_id":"ce4bhn92rcd13ifvqgrg","pricing_plan_id":"cebpf4jnsgd1na2vs0mg"},{"bike_id":"6f5db6da-4fc0-4c0c-8f3c-82bebb94ed89","system_id":"levelo_inurba_marseille","lat":43.25012,"lon":5.38947,"is_reserved":false,"is_disabled":false,"rental_uris":{"android":"levelo://app?vid=6f5db6da-4fc0-4c0c-8f3c-82bebb94ed89","ios":"levelo://app?vid=6f5db6da-4fc0-4c0c-8f3c-82bebb94ed89"},"vehicle_type_id":"4","last_reported":1758020899,"current_range_meters":16000,"station_id":"ce4bhgp2rcd13ifvqfd0","pricing_plan_id":"cebpf4jnsgd1na2vs0mg"},{"bike_id":"a05fdb49-e038-4a84-8ea1-52f3eaaf07b1","system_id":"levelo_inurba_marseille","lat":43.22556,"lon":5.41635,"is_reserved":false,"is_disabled":false,"rental_uris":{"android":"levelo://app?vid=a05fdb49-e038-4a84-8ea1-52f3eaaf07b1","ios":"levelo://app?vid=a05fdb49-e038-4a84-8ea1-52f3eaaf07b1"},"vehicle_type_id":"4","last_reported":1758020899,"current_range_meters":16400,"station_id":"st_d2o4gvlbi1j2169b742g","pricing_plan_id":"cebpf4jnsgd1na2vs0mg"},{"bike_id":"88a8a850-d513-47ec-8870-e7210ef51b52","system_id":"levelo_inurba_marseille","lat":43.29929,"lon":5.38523,"is_reserved":false,"is_disabled":false,"rental_uris":{"android":"levelo://app?vid=88a8a850-d513-47ec-8870-e7210ef51b52","ios":"levelo://app?vid=88a8a850-d513-47ec-8870-e7210ef51b52"},"vehicle_type_id":"4","last_reported":1758020899,"current_range_meters":16400,"station_id":"","pricing_plan_id":"cebpf4jnsgd1na2vs0mg"},{"bike_id":"82e0bfcc-bba2-4c2c-9484-d3ca3b13a18b","system_id":"levelo_inurba_marseille","lat":43.29481,"lon":5.3752,"is_reserved":false,"is_disabled":false,"rental_uris":{"android":"levelo://app?vid=82e0bfcc-bba2-4c2c-9484-d3ca3b13a18b","ios":"levelo://app?vid=82e0bfcc-bba2-4c2c-9484-d3ca3b13a18b"},"vehicle_type_id":"4","last_reported":1758020899,"current_range_meters":16400,"station_id":"","pricing_plan_id":"cebpf4jnsgd1na2vs0mg"},{"bike_id":"fd3b4146-0073-4a79-82a9-bfaee63ff612","system_id":"levelo_inurba_marseille","lat":43.29418,"lon":5.38591,"is_reserved":false,"is_disabled":false,"rental_uris":{"android":"levelo://app?vid=fd3b4146-0073-4a79-82a9-bfaee63ff612","ios":"levelo://app?vid=fd3b4146-0073-4a79-82a9-bfaee63ff612"},"vehicle_type_id":"4","last_reported":1758020899,"current_range_meters":16400,"station_id":"","pricing_plan_id":"cebpf4jnsgd1na2vs0mg"},{"bike_id":"f5538dd9-94c3-433e-ada5-fc5d10ad63b0","system_id":"levelo_inurba_marseille","lat":43.30909,"lon":5.36854,"is_reserved":false,"is_disabled":false,"rental_uris":{"android":"levelo://app?vid=f5538dd9-94c3-433e-ada5-fc5d10ad63b0","ios":"levelo://app?vid=f5538dd9-94c3-433e-ada5-fc5d10ad63b0"},"vehicle_type_id":"4","last_reported":1758020899,"current_range_meters":16400,"station_id":"ce4bgn92rcd13ifvqbvg","pricing_plan_id":"cebpf4jnsgd1na2vs0mg"},{"bike_id":"20b55fc7-55c9-4b33-98a2-109605dfc668","system_id":"levelo_inurba_marseille","lat":43.31249,"lon":5.36902,"is_reserved":false,"is_disabled":false,"rental_uris":{"android":"levelo://app?vid=20b55fc7-55c9-4b33-98a2-109605dfc668","ios":"levelo://app?vid=20b55fc7-55c9-4b33-98a2-109605dfc668"},"vehicle_type_id":"4","last_reported":1758020899,"current_range_meters":16400,"station_id":"ce4bgl92rcd13ifvqbq0","pricing_plan_id":"cebpf4jnsgd1na2vs0mg"},{"bike_id":"8ad3dab9-1d2d-4ac0-a622-2705413043f8","system_id":"levelo_inurba_marseille","lat":43.24615,"lon":5.43187,"is_reserved":false,"is_disabled":false,"rental_uris":{"android":"levelo://app?vid=8ad3dab9-1d2d-4ac0-a622-2705413043f8","ios":"levelo://app?vid=8ad3dab9-1d2d-4ac0-a622-2705413043f8"},"vehicle_type_id":"4","last_reported":1758020899,"current_range_meters":16400,"station_id":"st_d2m6c4gdas8pm72e190g","pricing_plan_id":"cebpf4jnsgd1na2vs0mg"},{"bike_id":"e475e9f0-91d5-4f8c-a272-09b31ed2056d","system_id":"levelo_inurba_marseille","lat":43.23159,"lon":5.43696,"is_reserved":false,"is_disabled":false,"rental_uris":{"android":"levelo://app?vid=e475e9f0-91d5-4f8c-a272-09b31ed2056d","ios":"levelo://app?vid=e475e9f0-91d5-4f8c-a272-09b31ed2056d"},"vehicle_type_id":"4","last_reported":1758020899,"current_range_meters":16400,"station_id":"ce4bhmp2rcd13ifvqgog","pricing_plan_id":"cebpf4jnsgd1na2vs0mg"},{"bike_id":"5468743a-d065-4569-944f-260b4bcb1af3","system_id":"levelo_inurba_marseille","lat":43.25936,"lon":5.40904,"is_reserved":false,"is_disabled":false,"rental_uris":{"android":"levelo://app?vid=5468743a-d065-4569-944f-260b4bcb1af3","ios":"levelo://app?vid=5468743a-d065-4569-944f-260b4bcb1af3"},"vehicle_type_id":"4","last_reported":1758020899,"current_range_meters":16800,"station_id":"ce4bhm92rcd13ifvqglg","pricing_plan_id":"cebpf4jnsgd1na2vs0mg"},{"bike_id":"003515e8-8117-44bb-979d-5f47e8d50fda","system_id":"levelo_inurba_marseille","lat":43.30639,"lon":5.37579,"is_reserved":false,"is_disabled":false,"rental_uris":{"android":"levelo://app?vid=003515e8-8117-44bb-979d-5f47e8d50fda","ios":"levelo://app?vid=003515e8-8117-44bb-979d-5f47e8d50fda"},"vehicle_type_id":"4","last_reported":1758020899,"current_range_meters":16800,"station_id":"","pricing_plan_id":"cebpf4jnsgd1na2vs0mg"},{"bike_id":"5961a840-33db-4edd-b578-d1d5e9e82e5f","system_id":"levelo_inurba_marseille","lat":43.30162,"lon":5.38088,"is_reserved":false,"is_disabled":false,"rental_uris":{"android":"levelo://app?vid=5961a840-33db-4edd-b578-d1d5e9e82e5f","ios":"levelo://app?vid=5961a840-33db-4edd-b578-d1d5e9e82e5f"},"vehicle_type_id":"4","last_reported":1758020899,"current_range_meters":16800,"station_id":"ce4bgjp2rcd13ifvqbh0","pricing_plan_id":"cebpf4jnsgd1na2vs0mg"},{"bike_id":"8e39e603-6d26-44dc-ba83-90967d9dedc1","system_id":"levelo_inurba_marseille","lat":43.28279,"lon":5.35086,"is_reserved":false,"is_disabled":false,"rental_uris":{"android":"levelo://app?vid=8e39e603-6d26-44dc-ba83-90967d9dedc1","ios":"levelo://app?vid=8e39e603-6d26-44dc-ba83-90967d9dedc1"},"vehicle_type_id":"4","last_reported":1758020899,"current_range_meters":16800,"station_id":"ce4bhbp2rcd13ifvqerg","pricing_plan_id":"cebpf4jnsgd1na2vs0mg"},{"bike_id":"96644ae3-2807-4f95-a981-fef4ac2b0e69","system_id":"levelo_inurba_marseille","lat":43.225329,"lon":5.34835,"is_reserved":false,"is_disabled":false,"rental_uris":{"android":"levelo://app?vid=96644ae3-2807-4f95-a981-fef4ac2b0e69","ios":"levelo://app?vid=96644ae3-2807-4f95-a981-fef4ac2b0e69"},"vehicle_type_id":"4","last_reported":1758020899,"current_range_meters":16800,"station_id":"","pricing_plan_id":"cebpf4jnsgd1na2vs0mg"},{"bike_id":"453a2908-3680-455f-bda7-00a342891b64","system_id":"levelo_inurba_marseille","lat":43.22561,"lon":5.41625,"is_reserved":false,"is_disabled":false,"rental_uris":{"android":"levelo://app?vid=453a2908-3680-455f-bda7-00a342891b64","ios":"levelo://app?vid=453a2908-3680-455f-bda7-00a342891b64"},"vehicle_type_id":"4","last_reported":1758020899,"current_range_meters":16800,"station_id":"st_d2o4gvlbi1j2169b742g","pricing_plan_id":"cebpf4jnsgd1na2vs0mg"},{"bike_id":"5dbca62f-7019-41e0-bb60-cbaa2e477dc8","system_id":"levelo_inurba_marseille","lat":43.30912,"lon":5.36878,"is_reserved":false,"is_disabled":false,"rental_uris":{"android":"levelo://app?vid=5dbca62f-7019-41e0-bb60-cbaa2e477dc8","ios":"levelo://app?vid=5dbca62f-7019-41e0-bb60-cbaa2e477dc8"},"vehicle_type_id":"4","last_reported":1758020899,"current_range_meters":16800,"station_id":"ce4bgn92rcd13ifvqbvg","pricing_plan_id":"cebpf4jnsgd1na2vs0mg"},{"bike_id":"da3741fe-5c55-4503-95cd-34cc474715d7","system_id":"levelo_inurba_marseille","lat":43.24648,"lon":5.38892,"is_reserved":false,"is_disabled":false,"rental_uris":{"android":"levelo://app?vid=da3741fe-5c55-4503-95cd-34cc474715d7","ios":"levelo://app?vid=da3741fe-5c55-4503-95cd-34cc474715d7"},"vehicle_type_id":"4","last_reported":1758020899,"current_range_meters":16800,"station_id":"ce4bhg12rcd13ifvqf60","pricing_plan_id":"cebpf4jnsgd1na2vs0mg"},{"bike_id":"237ff8c3-18a9-4403-94a8-15862296b062","system_id":"levelo_inurba_marseille","lat":43.23155,"lon":5.43706,"is_reserved":false,"is_disabled":false,"rental_uris":{"android":"levelo://app?vid=237ff8c3-18a9-4403-94a8-15862296b062","ios":"levelo://app?vid=237ff8c3-18a9-4403-94a8-15862296b062"},"vehicle_type_id":"4","last_reported":1758020899,"current_range_meters":17200,"station_id":"ce4bhmp2rcd13ifvqgog","pricing_plan_id":"cebpf4jnsgd1na2vs0mg"},{"bike_id":"ca5a1340-d41e-49f3-95f8-599734e0a36c","system_id":"levelo_inurba_marseille","lat":43.225336,"lon":5.348339,"is_reserved":false,"is_disabled":false,"rental_uris":{"android":"levelo://app?vid=ca5a1340-d41e-49f3-95f8-599734e0a36c","ios":"levelo://app?vid=ca5a1340-d41e-49f3-95f8-599734e0a36c"},"vehicle_type_id":"4","last_reported":1758020899,"current_range_meters":17200,"station_id":"","pricing_plan_id":"cebpf4jnsgd1na2vs0mg"},{"bike_id":"01438acf-d05a-4a03-b390-338d29d3e7e8","system_id":"levelo_inurba_marseille","lat":43.28696,"lon":5.40001,"is_reserved":false,"is_disabled":false,"rental_uris":{"android":"levelo://app?vid=01438acf-d05a-4a03-b390-338d29d3e7e8","ios":"levelo://app?vid=01438acf-d05a-4a03-b390-338d29d3e7e8"},"vehicle_type_id":"4","last_reported":1758020899,"current_range_meters":17200,"station_id":"ce4bho92rcd13ifvqh3g","pricing_plan_id":"cebpf4jnsgd1na2vs0mg"},{"bike_id":"4ce3112d-3fd0-4cf2-a795-7f1c15d094a6","system_id":"levelo_inurba_marseille","lat":43.24168,"lon":5.36404,"is_reserved":false,"is_disabled":false,"rental_uris":{"android":"levelo://app?vid=4ce3112d-3fd0-4cf2-a795-7f1c15d094a6","ios":"levelo://app?vid=4ce3112d-3fd0-4cf2-a795-7f1c15d094a6"},"vehicle_type_id":"4","last_reported":1758020899,"current_range_meters":17200,"station_id":"cpo36qri1sfpv3e86is0","pricing_plan_id":"cebpf4jnsgd1na2vs0mg"},{"bike_id":"8ae7a527-27e9-4e01-851b-8c3ddf17d32c","system_id":"levelo_inurba_marseille","lat":43.29532,"lon":5.38551,"is_reserved":false,"is_disabled":false,"rental_uris":{"android":"levelo://app?vid=8ae7a527-27e9-4e01-851b-8c3ddf17d32c","ios":"levelo://app?vid=8ae7a527-27e9-4e01-851b-8c3ddf17d32c"},"vehicle_type_id":"4","last_reported":1758020899,"current_range_meters":17200,"station_id":"ce4bgih2rcd13ifvqba0","pricing_plan_id":"cebpf4jnsgd1na2vs0mg"},{"bike_id":"b730872c-944f-439c-915a-fe170090d0c4","system_id":"levelo_inurba_marseille","lat":43.28422,"lon":5.34997,"is_reserved":false,"is_disabled":false,"rental_uris":{"android":"levelo://app?vid=b730872c-944f-439c-915a-fe170090d0c4","ios":"levelo://app?vid=b730872c-944f-439c-915a-fe170090d0c4"},"vehicle_type_id":"4","last_reported":1758020899,"current_range_meters":17200,"station_id":"ce4bhbh2rcd13ifvqepg","pricing_plan_id":"cebpf4jnsgd1na2vs0mg"},{"bike_id":"22f0687d-25d3-4094-9c4a-293a61e189a6","system_id":"levelo_inurba_marseille","lat":43.24062,"lon":5.40693,"is_reserved":false,"is_disabled":false,"rental_uris":{"android":"levelo://app?vid=22f0687d-25d3-4094-9c4a-293a61e189a6","ios":"levelo://app?vid=22f0687d-25d3-4094-9c4a-293a61e189a6"},"vehicle_type_id":"4","last_reported":1758020899,"current_range_meters":17200,"station_id":"","pricing_plan_id":"cebpf4jnsgd1na2vs0mg"},{"bike_id":"4b408f22-2b5a-4e2c-ada8-7960993e5028","system_id":"levelo_inurba_marseille","lat":43.248,"lon":5.37459,"is_reserved":false,"is_disabled":false,"rental_uris":{"android":"levelo://app?vid=4b408f22-2b5a-4e2c-ada8-7960993e5028","ios":"levelo://app?vid=4b408f22-2b5a-4e2c-ada8-7960993e5028"},"vehicle_type_id":"4","last_reported":1758020899,"current_range_meters":16800,"station_id":"ce4bhgh2rcd13ifvqfb0","pricing_plan_id":"cebpf4jnsgd1na2vs0mg"},{"bike_id":"88a4bc06-6261-4921-890d-d133aa4606a8","system_id":"levelo_inurba_marseille","lat":43.337444,"lon":5.374475,"is_reserved":false,"is_disabled":true,"rental_uris":{"android":"levelo://app?vid=88a4bc06-6261-4921-890d-d133aa4606a8","ios":"levelo://app?vid=88a4bc06-6261-4921-890d-d133aa4606a8"},"vehicle_type_id":"4","last_reported":1758020899,"current_range_meters":17600,"station_id":"","pricing_plan_id":"cebpf4jnsgd1na2vs0mg"},{"bike_id":"1f3fc832-e058-4737-b274-de5c12dec2c0","system_id":"levelo_inurba_marseille","lat":43.29595,"lon":5.38098,"is_reserved":false,"is_disabled":false,"rental_uris":{"android":"levelo://app?vid=1f3fc832-e058-4737-b274-de5c12dec2c0","ios":"levelo://app?vid=1f3fc832-e058-4737-b274-de5c12dec2c0"},"vehicle_type_id":"4","last_reported":1758020899,"current_range_meters":17600,"station_id":"ce4bgl12rcd13ifvqbo0","pricing_plan_id":"cebpf4jnsgd1na2vs0mg"},{"bike_id":"ea7d4db7-7909-4776-a3ca-6d102c3f72cc","system_id":"levelo_inurba_marseille","lat":43.30613,"lon":5.39345,"is_reserved":false,"is_disabled":false,"rental_uris":{"android":"levelo://app?vid=ea7d4db7-7909-4776-a3ca-6d102c3f72cc","ios":"levelo://app?vid=ea7d4db7-7909-4776-a3ca-6d102c3f72cc"},"vehicle_type_id":"4","last_reported":1758020899,"current_range_meters":17600,"station_id":"ce4bh0p2rcd13ifvqd80","pricing_plan_id":"cebpf4jnsgd1na2vs0mg"},{"bike_id":"1ad7fe2d-1a0d-4b26-9645-05bb047534c7","system_id":"levelo_inurba_marseille","lat":43.25112,"lon":5.40321,"is_reserved":false,"is_disabled":false,"rental_uris":{"android":"levelo://app?vid=1ad7fe2d-1a0d-4b26-9645-05bb047534c7","ios":"levelo://app?vid=1ad7fe2d-1a0d-4b26-9645-05bb047534c7"},"vehicle_type_id":"4","last_reported":1758020899,"current_range_meters":17200,"station_id":"ce4bhlh2rcd13ifvqgig","pricing_plan_id":"cebpf4jnsgd1na2vs0mg"},{"bike_id":"a29bcac0-557b-4b31-b9de-ca3b5590692d","system_id":"levelo_inurba_marseille","lat":43.29525,"lon":5.3751,"is_reserved":false,"is_disabled":false,"rental_uris":{"android":"levelo://app?vid=a29bcac0-557b-4b31-b9de-ca3b5590692d","ios":"levelo://app?vid=a29bcac0-557b-4b31-b9de-ca3b5590692d"},"vehicle_type_id":"4","last_reported":1758020899,"current_range_meters":17600,"station_id":"ce4bgkp2rcd13ifvqbmg","pricing_plan_id":"cebpf4jnsgd1na2vs0mg"},{"bike_id":"23e1572e-7ccb-4eea-8020-599035749c9e","system_id":"levelo_inurba_marseille","lat":43.23844,"lon":5.36551,"is_reserved":false,"is_disabled":false,"rental_uris":{"android":"levelo://app?vid=23e1572e-7ccb-4eea-8020-599035749c9e","ios":"levelo://app?vid=23e1572e-7ccb-4eea-8020-599035749c9e"},"vehicle_type_id":"4","last_reported":1758020899,"current_range_meters":17600,"station_id":"","pricing_plan_id":"cebpf4jnsgd1na2vs0mg"},{"bike_id":"fcd56ccc-f0ab-49ef-a538-8c498b5ecd49","system_id":"levelo_inurba_marseille","lat":43.22556,"lon":5.4161,"is_reserved":false,"is_disabled":false,"rental_uris":{"android":"levelo://app?vid=fcd56ccc-f0ab-49ef-a538-8c498b5ecd49","ios":"levelo://app?vid=fcd56ccc-f0ab-49ef-a538-8c498b5ecd49"},"vehicle_type_id":"4","last_reported":1758020899,"current_range_meters":17600,"station_id":"st_d2o4gvlbi1j2169b742g","pricing_plan_id":"cebpf4jnsgd1na2vs0mg"},{"bike_id":"eb6cbeef-bc92-4528-a915-7b01f98754fe","system_id":"levelo_inurba_marseille","lat":43.30277,"lon":5.3741,"is_reserved":false,"is_disabled":false,"rental_uris":{"android":"levelo://app?vid=eb6cbeef-bc92-4528-a915-7b01f98754fe","ios":"levelo://app?vid=eb6cbeef-bc92-4528-a915-7b01f98754fe"},"vehicle_type_id":"4","last_reported":1758020899,"current_range_meters":17600,"station_id":"","pricing_plan_id":"cebpf4jnsgd1na2vs0mg"},{"bike_id":"d1788760-0706-4b90-8999-db00a9e42210","system_id":"levelo_inurba_marseille","lat":43.32659,"lon":5.41005,"is_reserved":false,"is_disabled":true,"rental_uris":{"android":"levelo://app?vid=d1788760-0706-4b90-8999-db00a9e42210","ios":"levelo://app?vid=d1788760-0706-4b90-8999-db00a9e42210"},"vehicle_type_id":"4","last_reported":1758020899,"current_range_meters":17600,"station_id":"","pricing_plan_id":"cebpf4jnsgd1na2vs0mg"},{"bike_id":"d66079b8-e1e6-49f6-8513-918b3ce83cf8","system_id":"levelo_inurba_marseille","lat":43.26243,"lon":5.40466,"is_reserved":false,"is_disabled":false,"rental_uris":{"android":"levelo://app?vid=d66079b8-e1e6-49f6-8513-918b3ce83cf8","ios":"levelo://app?vid=d66079b8-e1e6-49f6-8513-918b3ce83cf8"},"vehicle_type_id":"4","last_reported":1758020899,"current_range_meters":17600,"station_id":"ce4bhmh2rcd13ifvqgmg","pricing_plan_id":"cebpf4jnsgd1na2vs0mg"},{"bike_id":"5129e005-2452-471a-a768-673c73b41b5f","system_id":"levelo_inurba_marseille","lat":43.33608,"lon":5.41049,"is_reserved":false,"is_disabled":false,"rental_uris":{"android":"levelo://app?vid=5129e005-2452-471a-a768-673c73b41b5f","ios":"levelo://app?vid=5129e005-2452-471a-a768-673c73b41b5f"},"vehicle_type_id":"4","last_reported":1758020899,"current_range_meters":17600,"station_id":"ce4bhqh2rcd13ifvqhmg","pricing_plan_id":"cebpf4jnsgd1na2vs0mg"},{"bike_id":"5c0b2341-c41a-4f62-9e5f-92e6a593fad9","system_id":"levelo_inurba_marseille","lat":43.33774,"lon":5.37439,"is_reserved":false,"is_disabled":false,"rental_uris":{"android":"levelo://app?vid=5c0b2341-c41a-4f62-9e5f-92e6a593fad9","ios":"levelo://app?vid=5c0b2341-c41a-4f62-9e5f-92e6a593fad9"},"vehicle_type_id":"4","last_reported":1758020899,"current_range_meters":18000,"station_id":"","pricing_plan_id":"cebpf4jnsgd1na2vs0mg"},{"bike_id":"f9dbef44-4880-481c-8794-d23a6ad45ca0","system_id":"levelo_inurba_marseille","lat":43.31711,"lon":5.37848,"is_reserved":false,"is_disabled":false,"rental_uris":{"android":"levelo://app?vid=f9dbef44-4880-481c-8794-d23a6ad45ca0","ios":"levelo://app?vid=f9dbef44-4880-481c-8794-d23a6ad45ca0"},"vehicle_type_id":"4","last_reported":1758020899,"current_range_meters":18000,"station_id":"","pricing_plan_id":"cebpf4jnsgd1na2vs0mg"},{"bike_id":"5fef58db-d358-40a4-b054-8d5e4132c10e","system_id":"levelo_inurba_marseille","lat":43.29862,"lon":5.37914,"is_reserved":false,"is_disabled":false,"rental_uris":{"android":"levelo://app?vid=5fef58db-d358-40a4-b054-8d5e4132c10e","ios":"levelo://app?vid=5fef58db-d358-40a4-b054-8d5e4132c10e"},"vehicle_type_id":"4","last_reported":1758020899,"current_range_meters":18000,"station_id":"","pricing_plan_id":"cebpf4jnsgd1na2vs0mg"},{"bike_id":"4d428ea9-1dcb-4a75-b622-5cb7b20a1dad","system_id":"levelo_inurba_marseille","lat":43.32366,"lon":5.36775,"is_reserved":false,"is_disabled":false,"rental_uris":{"android":"levelo://app?vid=4d428ea9-1dcb-4a75-b622-5cb7b20a1dad","ios":"levelo://app?vid=4d428ea9-1dcb-4a75-b622-5cb7b20a1dad"},"vehicle_type_id":"4","last_reported":1758020899,"current_range_meters":18000,"station_id":"ce4bhsh2rcd13ifvqi2g","pricing_plan_id":"cebpf4jnsgd1na2vs0mg"},{"bike_id":"2921459d-63c9-4aed-a19c-c83b132593aa","system_id":"levelo_inurba_marseille","lat":43.30164,"lon":5.38082,"is_reserved":false,"is_disabled":false,"rental_uris":{"android":"levelo://app?vid=2921459d-63c9-4aed-a19c-c83b132593aa","ios":"levelo://app?vid=2921459d-63c9-4aed-a19c-c83b132593aa"},"vehicle_type_id":"4","last_reported":1758020899,"current_range_meters":18000,"station_id":"ce4bgjp2rcd13ifvqbh0","pricing_plan_id":"cebpf4jnsgd1na2vs0mg"},{"bike_id":"340c85d9-38b2-4494-ad7c-a33ccd3aed88","system_id":"levelo_inurba_marseille","lat":43.240716,"lon":5.377495,"is_reserved":false,"is_disabled":false,"rental_uris":{"android":"levelo://app?vid=340c85d9-38b2-4494-ad7c-a33ccd3aed88","ios":"levelo://app?vid=340c85d9-38b2-4494-ad7c-a33ccd3aed88"},"vehicle_type_id":"4","last_reported":1758020899,"current_range_meters":19200,"station_id":"ce4bhnp2rcd13ifvqgvg","pricing_plan_id":"cebpf4jnsgd1na2vs0mg"},{"bike_id":"f1fe2279-b0ed-4000-8627-a2a1af5f39eb","system_id":"levelo_inurba_marseille","lat":43.27998,"lon":5.41658,"is_reserved":false,"is_disabled":false,"rental_uris":{"android":"levelo://app?vid=f1fe2279-b0ed-4000-8627-a2a1af5f39eb","ios":"levelo://app?vid=f1fe2279-b0ed-4000-8627-a2a1af5f39eb"},"vehicle_type_id":"4","last_reported":1758020899,"current_range_meters":18000,"station_id":"ce4bho12rcd13ifvqh1g","pricing_plan_id":"cebpf4jnsgd1na2vs0mg"},{"bike_id":"9b5c1ee9-607f-4083-b4e6-77c1ab9e3f26","system_id":"levelo_inurba_marseille","lat":43.28488,"lon":5.3843,"is_reserved":false,"is_disabled":false,"rental_uris":{"android":"levelo://app?vid=9b5c1ee9-607f-4083-b4e6-77c1ab9e3f26","ios":"levelo://app?vid=9b5c1ee9-607f-4083-b4e6-77c1ab9e3f26"},"vehicle_type_id":"4","last_reported":1758020899,"current_range_meters":18000,"station_id":"ce4bh512rcd13ifvqe3g","pricing_plan_id":"cebpf4jnsgd1na2vs0mg"},{"bike_id":"17d2e23f-2e4e-4271-a94a-92e2b9352a8c","system_id":"levelo_inurba_marseille","lat":43.336078,"lon":5.41028,"is_reserved":false,"is_disabled":false,"rental_uris":{"android":"levelo://app?vid=17d2e23f-2e4e-4271-a94a-92e2b9352a8c","ios":"levelo://app?vid=17d2e23f-2e4e-4271-a94a-92e2b9352a8c"},"vehicle_type_id":"4","last_reported":1758020899,"current_range_meters":18000,"station_id":"ce4bhqh2rcd13ifvqhmg","pricing_plan_id":"cebpf4jnsgd1na2vs0mg"},{"bike_id":"b2b3f118-f930-4549-8d49-265a30e53939","system_id":"levelo_inurba_marseille","lat":43.24168,"lon":5.36394,"is_reserved":false,"is_disabled":false,"rental_uris":{"android":"levelo://app?vid=b2b3f118-f930-4549-8d49-265a30e53939","ios":"levelo://app?vid=b2b3f118-f930-4549-8d49-265a30e53939"},"vehicle_type_id":"4","last_reported":1758020899,"current_range_meters":18000,"station_id":"cpo36qri1sfpv3e86is0","pricing_plan_id":"cebpf4jnsgd1na2vs0mg"},{"bike_id":"508031f8-bf6a-4bfe-aeae-adf3ce513b76","system_id":"levelo_inurba_marseille","lat":43.25944,"lon":5.409,"is_reserved":false,"is_disabled":false,"rental_uris":{"android":"levelo://app?vid=508031f8-bf6a-4bfe-aeae-adf3ce513b76","ios":"levelo://app?vid=508031f8-bf6a-4bfe-aeae-adf3ce513b76"},"vehicle_type_id":"4","last_reported":1758020899,"current_range_meters":18000,"station_id":"ce4bhm92rcd13ifvqglg","pricing_plan_id":"cebpf4jnsgd1na2vs0mg"},{"bike_id":"2098e9cb-557c-4f53-85f2-265df9ccd555","system_id":"levelo_inurba_marseille","lat":43.31239,"lon":5.36893,"is_reserved":false,"is_disabled":false,"rental_uris":{"android":"levelo://app?vid=2098e9cb-557c-4f53-85f2-265df9ccd555","ios":"levelo://app?vid=2098e9cb-557c-4f53-85f2-265df9ccd555"},"vehicle_type_id":"4","last_reported":1758020899,"current_range_meters":18000,"station_id":"ce4bgl92rcd13ifvqbq0","pricing_plan_id":"cebpf4jnsgd1na2vs0mg"},{"bike_id":"9254c924-7df0-470e-8595-09514946a669","system_id":"levelo_inurba_marseille","lat":43.29588,"lon":5.38116,"is_reserved":false,"is_disabled":false,"rental_uris":{"android":"levelo://app?vid=9254c924-7df0-470e-8595-09514946a669","ios":"levelo://app?vid=9254c924-7df0-470e-8595-09514946a669"},"vehicle_type_id":"4","last_reported":1758020899,"current_range_meters":18000,"station_id":"ce4bgl12rcd13ifvqbo0","pricing_plan_id":"cebpf4jnsgd1na2vs0mg"},{"bike_id":"176eac5d-fbdc-453f-a22e-eb7bf985c6c4","system_id":"levelo_inurba_marseille","lat":43.28783,"lon":5.37831,"is_reserved":false,"is_disabled":false,"rental_uris":{"android":"levelo://app?vid=176eac5d-fbdc-453f-a22e-eb7bf985c6c4","ios":"levelo://app?vid=176eac5d-fbdc-453f-a22e-eb7bf985c6c4"},"vehicle_type_id":"4","last_reported":1758020899,"current_range_meters":18800,"station_id":"","pricing_plan_id":"cebpf4jnsgd1na2vs0mg"},{"bike_id":"c8a7dee6-2332-4a84-a508-681234669df9","system_id":"levelo_inurba_marseille","lat":43.25938,"lon":5.40907,"is_reserved":false,"is_disabled":false,"rental_uris":{"android":"levelo://app?vid=c8a7dee6-2332-4a84-a508-681234669df9","ios":"levelo://app?vid=c8a7dee6-2332-4a84-a508-681234669df9"},"vehicle_type_id":"4","last_reported":1758020899,"current_range_meters":18800,"station_id":"ce4bhm92rcd13ifvqglg","pricing_plan_id":"cebpf4jnsgd1na2vs0mg"},{"bike_id":"3f1f73e6-bfac-49a9-8d7e-94c0152665ee","system_id":"levelo_inurba_marseille","lat":43.29582,"lon":5.37506,"is_reserved":false,"is_disabled":false,"rental_uris":{"android":"levelo://app?vid=3f1f73e6-bfac-49a9-8d7e-94c0152665ee","ios":"levelo://app?vid=3f1f73e6-bfac-49a9-8d7e-94c0152665ee"},"vehicle_type_id":"4","last_reported":1758020899,"current_range_meters":18800,"station_id":"ce4bgh92rcd13ifvqb50","pricing_plan_id":"cebpf4jnsgd1na2vs0mg"},{"bike_id":"9cb7e8e8-c001-472f-a356-b0c277fa53a8","system_id":"levelo_inurba_marseille","lat":43.30299,"lon":5.38635,"is_reserved":false,"is_disabled":false,"rental_uris":{"android":"levelo://app?vid=9cb7e8e8-c001-472f-a356-b0c277fa53a8","ios":"levelo://app?vid=9cb7e8e8-c001-472f-a356-b0c277fa53a8"},"vehicle_type_id":"4","last_reported":1758020899,"current_range_meters":18800,"station_id":"","pricing_plan_id":"cebpf4jnsgd1na2vs0mg"},{"bike_id":"46cbcee3-845b-447b-a395-16f85ed6d743","system_id":"levelo_inurba_marseille","lat":43.30536,"lon":5.3674,"is_reserved":false,"is_disabled":false,"rental_uris":{"android":"levelo://app?vid=46cbcee3-845b-447b-a395-16f85ed6d743","ios":"levelo://app?vid=46cbcee3-845b-447b-a395-16f85ed6d743"},"vehicle_type_id":"4","last_reported":1758020899,"current_range_meters":18800,"station_id":"ce4bgrp2rcd13ifvqc9g","pricing_plan_id":"cebpf4jnsgd1na2vs0mg"},{"bike_id":"7f2cfff1-0a79-441a-b7fb-293f712d502e","system_id":"levelo_inurba_marseille","lat":43.30469,"lon":5.37905,"is_reserved":false,"is_disabled":false,"rental_uris":{"android":"levelo://app?vid=7f2cfff1-0a79-441a-b7fb-293f712d502e","ios":"levelo://app?vid=7f2cfff1-0a79-441a-b7fb-293f712d502e"},"vehicle_type_id":"4","last_reported":1758020899,"current_range_meters":18800,"station_id":"ce4bgup2rcd13ifvqcn0","pricing_plan_id":"cebpf4jnsgd1na2vs0mg"},{"bike_id":"26d32f40-abd9-41e8-ad33-e16c33cbf788","system_id":"levelo_inurba_marseille","lat":43.29962,"lon":5.37753,"is_reserved":false,"is_disabled":false,"rental_uris":{"android":"levelo://app?vid=26d32f40-abd9-41e8-ad33-e16c33cbf788","ios":"levelo://app?vid=26d32f40-abd9-41e8-ad33-e16c33cbf788"},"vehicle_type_id":"4","last_reported":1758020899,"current_range_meters":18800,"station_id":"","pricing_plan_id":"cebpf4jnsgd1na2vs0mg"},{"bike_id":"91dc583f-7e3e-4a17-966b-3380d26b2b4b","system_id":"levelo_inurba_marseille","lat":43.26218,"lon":5.40451,"is_reserved":false,"is_disabled":false,"rental_uris":{"android":"levelo://app?vid=91dc583f-7e3e-4a17-966b-3380d26b2b4b","ios":"levelo://app?vid=91dc583f-7e3e-4a17-966b-3380d26b2b4b"},"vehicle_type_id":"4","last_reported":1758020899,"current_range_meters":18800,"station_id":"ce4bhmh2rcd13ifvqgmg","pricing_plan_id":"cebpf4jnsgd1na2vs0mg"},{"bike_id":"f49cf4ae-626f-4d2d-a87b-a3d9e37f409d","system_id":"levelo_inurba_marseille","lat":43.30917,"lon":5.36857,"is_reserved":false,"is_disabled":false,"rental_uris":{"android":"levelo://app?vid=f49cf4ae-626f-4d2d-a87b-a3d9e37f409d","ios":"levelo://app?vid=f49cf4ae-626f-4d2d-a87b-a3d9e37f409d"},"vehicle_type_id":"4","last_reported":1758020899,"current_range_meters":18800,"station_id":"ce4bgn92rcd13ifvqbvg","pricing_plan_id":"cebpf4jnsgd1na2vs0mg"},{"bike_id":"44623df5-7a64-451c-abb0-ba392692b5a5","system_id":"levelo_inurba_marseille","lat":43.31758,"lon":5.39013,"is_reserved":false,"is_disabled":false,"rental_uris":{"android":"levelo://app?vid=44623df5-7a64-451c-abb0-ba392692b5a5","ios":"levelo://app?vid=44623df5-7a64-451c-abb0-ba392692b5a5"},"vehicle_type_id":"4","last_reported":1758020899,"current_range_meters":18000,"station_id":"ce4bhqp2rcd13ifvqhng","pricing_plan_id":"cebpf4jnsgd1na2vs0mg"},{"bike_id":"66fd3017-f255-4f6b-acb4-b289ab432714","system_id":"levelo_inurba_marseille","lat":43.28971,"lon":5.37832,"is_reserved":false,"is_disabled":false,"rental_uris":{"android":"levelo://app?vid=66fd3017-f255-4f6b-acb4-b289ab432714","ios":"levelo://app?vid=66fd3017-f255-4f6b-acb4-b289ab432714"},"vehicle_type_id":"4","last_reported":1758020899,"current_range_meters":18800,"station_id":"ce4bh9p2rcd13ifvqed0","pricing_plan_id":"cebpf4jnsgd1na2vs0mg"},{"bike_id":"797d594a-91b3-4375-ad0d-bc637135bfd1","system_id":"levelo_inurba_marseille","lat":43.3135,"lon":5.37127,"is_reserved":false,"is_disabled":false,"rental_uris":{"android":"levelo://app?vid=797d594a-91b3-4375-ad0d-bc637135bfd1","ios":"levelo://app?vid=797d594a-91b3-4375-ad0d-bc637135bfd1"},"vehicle_type_id":"4","last_reported":1758020899,"current_range_meters":18800,"station_id":"","pricing_plan_id":"cebpf4jnsgd1na2vs0mg"},{"bike_id":"5701fe9c-3e98-4b9f-a910-5eb395d4e5d3","system_id":"levelo_inurba_marseille","lat":43.305389,"lon":5.384223,"is_reserved":false,"is_disabled":false,"rental_uris":{"android":"levelo://app?vid=5701fe9c-3e98-4b9f-a910-5eb395d4e5d3","ios":"levelo://app?vid=5701fe9c-3e98-4b9f-a910-5eb395d4e5d3"},"vehicle_type_id":"4","last_reported":1758020899,"current_range_meters":18800,"station_id":"","pricing_plan_id":"cebpf4jnsgd1na2vs0mg"},{"bike_id":"8792736a-dce3-4dce-99eb-ebed0d7c520e","system_id":"levelo_inurba_marseille","lat":43.298242,"lon":5.371352,"is_reserved":false,"is_disabled":false,"rental_uris":{"android":"levelo://app?vid=8792736a-dce3-4dce-99eb-ebed0d7c520e","ios":"levelo://app?vid=8792736a-dce3-4dce-99eb-ebed0d7c520e"},"vehicle_type_id":"4","last_reported":1758020899,"current_range_meters":18800,"station_id":"ce4bgop2rcd13ifvqc1g","pricing_plan_id":"cebpf4jnsgd1na2vs0mg"},{"bike_id":"d16d25b0-e15e-472f-9b86-3b8202686d4e","system_id":"levelo_inurba_marseille","lat":43.29002,"lon":5.35599,"is_reserved":false,"is_disabled":false,"rental_uris":{"android":"levelo://app?vid=d16d25b0-e15e-472f-9b86-3b8202686d4e","ios":"levelo://app?vid=d16d25b0-e15e-472f-9b86-3b8202686d4e"},"vehicle_type_id":"4","last_reported":1758020899,"current_range_meters":18800,"station_id":"ce4bhb92rcd13ifvqen0","pricing_plan_id":"cebpf4jnsgd1na2vs0mg"},{"bike_id":"c4706891-6ce1-4440-91ff-a3ecf2ff007e","system_id":"levelo_inurba_marseille","lat":43.24382,"lon":5.37479,"is_reserved":false,"is_disabled":false,"rental_uris":{"android":"levelo://app?vid=c4706891-6ce1-4440-91ff-a3ecf2ff007e","ios":"levelo://app?vid=c4706891-6ce1-4440-91ff-a3ecf2ff007e"},"vehicle_type_id":"4","last_reported":1758020899,"current_range_meters":19200,"station_id":"","pricing_plan_id":"cebpf4jnsgd1na2vs0mg"},{"bike_id":"9a84688d-f047-4f81-b6d6-19a03008e67c","system_id":"levelo_inurba_marseille","lat":43.31171,"lon":5.38729,"is_reserved":false,"is_disabled":false,"rental_uris":{"android":"levelo://app?vid=9a84688d-f047-4f81-b6d6-19a03008e67c","ios":"levelo://app?vid=9a84688d-f047-4f81-b6d6-19a03008e67c"},"vehicle_type_id":"4","last_reported":1758020899,"current_range_meters":19200,"station_id":"ce4bgv12rcd13ifvqcp0","pricing_plan_id":"cebpf4jnsgd1na2vs0mg"},{"bike_id":"7bc981e2-9b37-4f57-a238-db58aaaa0f1e","system_id":"levelo_inurba_marseille","lat":43.24655,"lon":5.43159,"is_reserved":false,"is_disabled":false,"rental_uris":{"android":"levelo://app?vid=7bc981e2-9b37-4f57-a238-db58aaaa0f1e","ios":"levelo://app?vid=7bc981e2-9b37-4f57-a238-db58aaaa0f1e"},"vehicle_type_id":"4","last_reported":1758020899,"current_range_meters":19200,"station_id":"st_d2m6c4gdas8pm72e190g","pricing_plan_id":"cebpf4jnsgd1na2vs0mg"},{"bike_id":"ca586d3a-f254-48f8-a0da-7a5b5535e6fb","system_id":"levelo_inurba_marseille","lat":43.25939,"lon":5.40906,"is_reserved":false,"is_disabled":false,"rental_uris":{"android":"levelo://app?vid=ca586d3a-f254-48f8-a0da-7a5b5535e6fb","ios":"levelo://app?vid=ca586d3a-f254-48f8-a0da-7a5b5535e6fb"},"vehicle_type_id":"4","last_reported":1758020899,"current_range_meters":19200,"station_id":"ce4bhm92rcd13ifvqglg","pricing_plan_id":"cebpf4jnsgd1na2vs0mg"},{"bike_id":"64b1deee-ef02-45e9-a66a-3e5e20b8d612","system_id":"levelo_inurba_marseille","lat":43.299284,"lon":5.385203,"is_reserved":false,"is_disabled":false,"rental_uris":{"android":"levelo://app?vid=64b1deee-ef02-45e9-a66a-3e5e20b8d612","ios":"levelo://app?vid=64b1deee-ef02-45e9-a66a-3e5e20b8d612"},"vehicle_type_id":"4","last_reported":1758020899,"current_range_meters":19200,"station_id":"ce4bgop2rcd13ifvqc1g","pricing_plan_id":"cebpf4jnsgd1na2vs0mg"},{"bike_id":"c2a02b0c-0400-47d0-814e-3740047e19dc","system_id":"levelo_inurba_marseille","lat":43.22566,"lon":5.4163,"is_reserved":false,"is_disabled":false,"rental_uris":{"android":"levelo://app?vid=c2a02b0c-0400-47d0-814e-3740047e19dc","ios":"levelo://app?vid=c2a02b0c-0400-47d0-814e-3740047e19dc"},"vehicle_type_id":"4","last_reported":1758020899,"current_range_meters":19200,"station_id":"st_d2o4gvlbi1j2169b742g","pricing_plan_id":"cebpf4jnsgd1na2vs0mg"},{"bike_id":"071bfd01-5f1a-492c-85a6-4117ca996f83","system_id":"levelo_inurba_marseille","lat":43.2848,"lon":5.38433,"is_reserved":false,"is_disabled":false,"rental_uris":{"android":"levelo://app?vid=071bfd01-5f1a-492c-85a6-4117ca996f83","ios":"levelo://app?vid=071bfd01-5f1a-492c-85a6-4117ca996f83"},"vehicle_type_id":"4","last_reported":1758020899,"current_range_meters":19600,"station_id":"ce4bh512rcd13ifvqe3g","pricing_plan_id":"cebpf4jnsgd1na2vs0mg"},{"bike_id":"eafdced8-1196-4f3e-8a1f-747c119e41dc","system_id":"levelo_inurba_marseille","lat":43.23146,"lon":5.43732,"is_reserved":false,"is_disabled":false,"rental_uris":{"android":"levelo://app?vid=eafdced8-1196-4f3e-8a1f-747c119e41dc","ios":"levelo://app?vid=eafdced8-1196-4f3e-8a1f-747c119e41dc"},"vehicle_type_id":"4","last_reported":1758020899,"current_range_meters":19600,"station_id":"ce4bhmp2rcd13ifvqgog","pricing_plan_id":"cebpf4jnsgd1na2vs0mg"},{"bike_id":"73843e92-a79b-41c1-b9b5-76222001261a","system_id":"levelo_inurba_marseille","lat":43.324803,"lon":5.365682,"is_reserved":false,"is_disabled":false,"rental_uris":{"android":"levelo://app?vid=73843e92-a79b-41c1-b9b5-76222001261a","ios":"levelo://app?vid=73843e92-a79b-41c1-b9b5-76222001261a"},"vehicle_type_id":"4","last_reported":1758020899,"current_range_meters":19600,"station_id":"ce4bhs12rcd13ifvqhvg","pricing_plan_id":"cebpf4jnsgd1na2vs0mg"},{"bike_id":"30a01302-94a5-4714-b95e-74e7997cbabb","system_id":"levelo_inurba_marseille","lat":43.28442,"lon":5.39205,"is_reserved":false,"is_disabled":false,"rental_uris":{"android":"levelo://app?vid=30a01302-94a5-4714-b95e-74e7997cbabb","ios":"levelo://app?vid=30a01302-94a5-4714-b95e-74e7997cbabb"},"vehicle_type_id":"4","last_reported":1758020899,"current_range_meters":19600,"station_id":"ce4bhoh2rcd13ifvqh5g","pricing_plan_id":"cebpf4jnsgd1na2vs0mg"},{"bike_id":"5665b39c-baf9-48fe-afba-b9b0e3b65b27","system_id":"levelo_inurba_marseille","lat":43.248,"lon":5.37457,"is_reserved":false,"is_disabled":false,"rental_uris":{"android":"levelo://app?vid=5665b39c-baf9-48fe-afba-b9b0e3b65b27","ios":"levelo://app?vid=5665b39c-baf9-48fe-afba-b9b0e3b65b27"},"vehicle_type_id":"4","last_reported":1758020899,"current_range_meters":19600,"station_id":"ce4bhgh2rcd13ifvqfb0","pricing_plan_id":"cebpf4jnsgd1na2vs0mg"},{"bike_id":"63c2bec2-56ae-42d4-a965-91defc1f04e9","system_id":"levelo_inurba_marseille","lat":43.29697,"lon":5.38016,"is_reserved":false,"is_disabled":false,"rental_uris":{"android":"levelo://app?vid=63c2bec2-56ae-42d4-a965-91defc1f04e9","ios":"levelo://app?vid=63c2bec2-56ae-42d4-a965-91defc1f04e9"},"vehicle_type_id":"4","last_reported":1758020899,"current_range_meters":20000,"station_id":"","pricing_plan_id":"cebpf4jnsgd1na2vs0mg"},{"bike_id":"05c17203-67fc-4c7a-8da8-b00759592e02","system_id":"levelo_inurba_marseille","lat":43.26567,"lon":5.39016,"is_reserved":false,"is_disabled":false,"rental_uris":{"android":"levelo://app?vid=05c17203-67fc-4c7a-8da8-b00759592e02","ios":"levelo://app?vid=05c17203-67fc-4c7a-8da8-b00759592e02"},"vehicle_type_id":"4","last_reported":1758020899,"current_range_meters":20000,"station_id":"ce4bhe12rcd13ifvqf30","pricing_plan_id":"cebpf4jnsgd1na2vs0mg"},{"bike_id":"78921fe8-adfc-4bb2-baf5-c6c7b3d0c5b6","system_id":"levelo_inurba_marseille","lat":43.309465,"lon":5.390312,"is_reserved":false,"is_disabled":false,"rental_uris":{"android":"levelo://app?vid=78921fe8-adfc-4bb2-baf5-c6c7b3d0c5b6","ios":"levelo://app?vid=78921fe8-adfc-4bb2-baf5-c6c7b3d0c5b6"},"vehicle_type_id":"4","last_reported":1758020899,"current_range_meters":20000,"station_id":"ce4bgup2rcd13ifvqco0","pricing_plan_id":"cebpf4jnsgd1na2vs0mg"},{"bike_id":"8b9120a0-ade2-4bc4-a705-0b82d1ec64c1","system_id":"levelo_inurba_marseille","lat":43.3124,"lon":5.36857,"is_reserved":false,"is_disabled":false,"rental_uris":{"android":"levelo://app?vid=8b9120a0-ade2-4bc4-a705-0b82d1ec64c1","ios":"levelo://app?vid=8b9120a0-ade2-4bc4-a705-0b82d1ec64c1"},"vehicle_type_id":"4","last_reported":1758020899,"current_range_meters":20000,"station_id":"ce4bgl92rcd13ifvqbq0","pricing_plan_id":"cebpf4jnsgd1na2vs0mg"},