{"last_updated":1746173654,"ttl":60,"version":"2.2","data":{"bikes":[{"bike_id":"75c65456-f2ff-4679-bf28-aa547ea05590","system_id":"levelo_inurba_marseille","lat":43.24068,"lon":5.37769,"is_reserved":false,"is_disabled":false,"rental_uris":{"android":"levelo://app?vid=75c65456-f2ff-4679-bf28-aa547ea05590","ios":"levelo://app?vid=75c65456-f2ff-4679-bf28-aa547ea05590"},"vehicle_type_id":"4","last_reported":1746173654,"current_range_meters":2800,"station_id":"ce4bhnp2rcd13ifvqgvg","pricing_plan_id":"cebpf4jnsgd1na2vs0mg"},{"bike_id":"2703b902-9408-4d6b-b4eb-1dd093ae1824","system_id":"levelo_inurba_marseille","lat":43.28463,"lon":5.38416,"is_reserved":false,"is_disabled":false,"rental_uris":{"android":"levelo://app?vid=2703b902-9408-4d6b-b4eb-1dd093ae1824","ios":"levelo://app?vid=2703b902-9408-4d6b-b4eb-1dd093ae1824"},"vehicle_type_id":"4","last_reported":1746173654,"current_range_meters":2800,"station_id":"ce4bh512rcd13ifvqe3g","pricing_plan_id":"cebpf4jnsgd1na2vs0mg"},{"bike_id":"59f3d2c8-e1e9-44c2-9b18-9f8959c3273d","system_id":"levelo_inurba_marseille","lat":43.28074,"lon":5.39659,"is_reserved":false,"is_disabled":false,"rental_uris":{"android":"levelo://app?vid=59f3d2c8-e1e9-44c2-9b18-9f8959c3273d","ios":"levelo://app?vid=59f3d2c8-e1e9-44c2-9b18-9f8959c3273d"},"vehicle_type_id":"4","last_reported":1746173654,"current_range_meters":3200,"station_id":"ce4bho12rcd13ifvqh2g","pricing_plan_id":"cebpf4jnsgd1na2vs0mg"},{"bike_id":"c4b85466-3e58-444f-9ebb-af493a1283f6","system_id":"levelo_inurba_marseille","lat":43.30945,"lon":5.39034,"is_reserved":false,"is_disabled":false,"rental_uris":{"android":"levelo://app?vid=c4b85466-3e58-444f-9ebb-af493a1283f6","ios":"levelo://app?vid=c4b85466-3e58-444f-9ebb-af493a1283f6"},"vehicle_type_id":"4","last_reported":1746173654,"current_range_meters":3200,"station_id":"ce4bgup2rcd13ifvqco0","pricing_plan_id":"cebpf4jnsgd1na2vs0mg"},{"bike_id":"7f770ba9-2e48-47c9-8bb4-942855273bad","system_id":"levelo_inurba_marseille","lat":43.25305,"lon":5.42392,"is_reserved":false,"is_disabled":true,"rental_uris":{"android":"levelo://app?vid=7f770ba9-2e48-47c9-8bb4-942855273bad","ios":"levelo://app?vid=7f770ba9-2e48-47c9-8bb4-942855273bad"},"vehicle_type_id":"4","last_reported":1746173654,"current_range_meters":3200,"station_id":"","pricing_plan_id":"cebpf4jnsgd1na2vs0mg"},{"bike_id":"8f01ddc4-f908-44d5-9f28-ffbda00058a8","system_id":"levelo_inurba_marseille","lat":43.23152,"lon":5.43714,"is_reserved":false,"is_disabled":false,"rental_uris":{"android":"levelo://app?vid=8f01ddc4-f908-44d5-9f28-ffbda00058a8","ios":"levelo://app?vid=8f01ddc4-f908-44d5-9f28-ffbda00058a8"},"vehicle_type_id":"4","last_reported":1746173654,"current_range_meters":3600,"station_id":"ce4bhmp2rcd13ifvqgog","pricing_plan_id":"cebpf4jnsgd1na2vs0mg"},{"bike_id":"700ef0bd-3b52-4252-a9c9-81ee31503a11","system_id":"levelo_inurba_marseille","lat":43.30265,"lon":5.4004,"is_reserved":false,"is_disabled":false,"rental_uris":{"android":"levelo://app?vid=700ef0bd-3b52-4252-a9c9-81ee31503a11","ios":"levelo://app?vid=700ef0bd-3b52-4252-a9c9-81ee31503a11"},"vehicle_type_id":"4","last_reported":1746173654,"current_range_meters":3600,"station_id":"ce4bgvh2rcd13ifvqcs0","pricing_plan_id":"cebpf4jnsgd1na2vs0mg"},{"bike_id":"5bd97f00-6b1d-4b72-a033-7b86794074f3","system_id":"levelo_inurba_marseille","lat":43.24383,"lon":5.37059,"is_reserved":false,"is_disabled":false,"rental_uris":{"android":"levelo://app?vid=5bd97f00-6b1d-4b72-a033-7b86794074f3","ios":"levelo://app?vid=5bd97f00-6b1d-4b72-a033-7b86794074f3"},"vehicle_type_id":"4","last_reported":1746173654,"current_range_meters":4000,"station_id":"ce4bhhh2rcd13ifvqfk0","pricing_plan_id":"cebpf4jnsgd1na2vs0mg"},{"bike_id":"30a08134-0276-4ae3-85ce-969fdf6f0c54","system_id":"levelo_inurba_marseille","lat":43.30374,"lon":5.42487,"is_reserved":false,"is_disabled":false,"rental_uris":{"android":"levelo://app?vid=30a08134-0276-4ae3-85ce-969fdf6f0c54","ios":"levelo://app?vid=30a08134-0276-4ae3-85ce-969fdf6f0c54"},"vehicle_type_id":"4","last_reported":1746173654,"current_range_meters":4000,"station_id":"ce4bhoh2rcd13ifvqh6g","pricing_plan_id":"cebpf4jnsgd1na2vs0mg"},{"bike_id":"dbea7e60-3091-4bd7-941f-a79605dd43ad","system_id":"levelo_inurba_marseille","lat":43.23151,"lon":5.43699,"is_reserved":false,"is_disabled":false,"rental_uris":{"android":"levelo://app?vid=dbea7e60-3091-4bd7-941f-a79605dd43ad","ios":"levelo://app?vid=dbea7e60-3091-4bd7-941f-a79605dd43ad"},"vehicle_type_id":"4","last_reported":1746173654,"current_range_meters":4400,"station_id":"ce4bhmp2rcd13ifvqgog","pricing_plan_id":"cebpf4jnsgd1na2vs0mg"},{"bike_id":"f78e6e2a-8107-47fb-b969-25345ac001d6","system_id":"levelo_inurba_marseille","lat":43.30076,"lon":5.378025,"is_reserved":false,"is_disabled":false,"rental_uris":{"android":"levelo://app?vid=f78e6e2a-8107-47fb-b969-25345ac001d6","ios":"levelo://app?vid=f78e6e2a-8107-47fb-b969-25345ac001d6"},"vehicle_type_id":"4","last_reported":1746173654,"current_range_meters":4400,"station_id":"","pricing_plan_id":"cebpf4jnsgd1na2vs0mg"},{"bike_id":"4af62b9a-7259-45f3-b15a-51fcc63c51c5","system_id":"levelo_inurba_marseille","lat":43.25725,"lon":5.41098,"is_reserved":false,"is_disabled":false,"rental_uris":{"android":"levelo://app?vid=4af62b9a-7259-45f3-b15a-51fcc63c51c5","ios":"levelo://app?vid=4af62b9a-7259-45f3-b15a-51fcc63c51c5"},"vehicle_type_id":"4","last_reported":1746173654,"current_range_meters":4800,"station_id":"ce4bhkp2rcd13ifvqgd0","pricing_plan_id":"cebpf4jnsgd1na2vs0mg"},{"bike_id":"0840f843-3a67-4e05-a048-29d3d9d53dba","system_id":"levelo_inurba_marseille","lat":43.257,"lon":5.41121,"is_reserved":false,"is_disabled":false,"rental_uris":{"android":"levelo://app?vid=0840f843-3a67-4e05-a048-29d3d9d53dba","ios":"levelo://app?vid=0840f843-3a67-4e05-a048-29d3d9d53dba"},"vehicle_type_id":"4","last_reported":1746173654,"current_range_meters":4800,"station_id":"ce4bhkp2rcd13ifvqgd0","pricing_plan_id":"cebpf4jnsgd1na2vs0mg"},{"bike_id":"215bdf6f-59e9-4581-ab6a-3306c221d929","system_id":"levelo_inurba_marseille","lat":43.24596,"lon":5.39828,"is_reserved":false,"is_disabled":false,"rental_uris":{"android":"levelo://app?vid=215bdf6f-59e9-4581-ab6a-3306c221d929","ios":"levelo://app?vid=215bdf6f-59e9-4581-ab6a-3306c221d929"},"vehicle_type_id":"4","last_reported":1746173654,"current_range_meters":4800,"station_id":"","pricing_plan_id":"cebpf4jnsgd1na2vs0mg"},{"bike_id":"f805e674-3ff6-493e-adef-39382006cc9a","system_id":"levelo_inurba_marseille","lat":43.29271,"lon":5.36845,"is_reserved":false,"is_disabled":false,"rental_uris":{"android":"levelo://app?vid=f805e674-3ff6-493e-adef-39382006cc9a","ios":"levelo://app?vid=f805e674-3ff6-493e-adef-39382006cc9a"},"vehicle_type_id":"4","last_reported":1746173654,"current_range_meters":4800,"station_id":"ce4bhbp2rcd13ifvqesg","pricing_plan_id":"cebpf4jnsgd1na2vs0mg"},{"bike_id":"05a849e2-6707-41cc-9043-aff49de54929","system_id":"levelo_inurba_marseille","lat":43.27496,"lon":5.42448,"is_reserved":false,"is_disabled":false,"rental_uris":{"android":"levelo://app?vid=05a849e2-6707-41cc-9043-aff49de54929","ios":"levelo://app?vid=05a849e2-6707-41cc-9043-aff49de54929"},"vehicle_type_id":"4","last_reported":1746173654,"current_range_meters":4400,"station_id":"ce4bhn92rcd13ifvqgrg","pricing_plan_id":"cebpf4jnsgd1na2vs0mg"},{"bike_id":"2c8c19ce-4310-4c02-9b49-4530fa198159","system_id":"levelo_inurba_marseille","lat":43.2749,"lon":5.42452,"is_reserved":false,"is_disabled":false,"rental_uris":{"android":"levelo://app?vid=2c8c19ce-4310-4c02-9b49-4530fa198159","ios":"levelo://app?vid=2c8c19ce-4310-4c02-9b49-4530fa198159"},"vehicle_type_id":"4","last_reported":1746173654,"current_range_meters":4800,"station_id":"ce4bhn92rcd13ifvqgrg","pricing_plan_id":"cebpf4jnsgd1na2vs0mg"},{"bike_id":"0f683dc3-4553-4628-87ea-6e7dc6c36a6f","system_id":"levelo_inurba_marseille","lat":43.29645,"lon":5.405987,"is_reserved":false,"is_disabled":true,"rental_uris":{"android":"levelo://app?vid=0f683dc3-4553-4628-87ea-6e7dc6c36a6f","ios":"levelo://app?vid=0f683dc3-4553-4628-87ea-6e7dc6c36a6f"},"vehicle_type_id":"4","last_reported":1746173654,"current_range_meters":4800,"station_id":"ce4bh0h2rcd13ifvqd60","pricing_plan_id":"cebpf4jnsgd1na2vs0mg"},{"bike_id":"cc27b580-2dce-41de-853c-7a23329757f0","system_id":"levelo_inurba_marseille","lat":43.27615,"lon":5.36101,"is_reserved":false,"is_disabled":false,"rental_uris":{"android":"levelo://app?vid=cc27b580-2dce-41de-853c-7a23329757f0","ios":"levelo://app?vid=cc27b580-2dce-41de-853c-7a23329757f0"},"vehicle_type_id":"4","last_reported":1746173654,"current_range_meters":5600,"station_id":"ce4bgj92rcd13ifvqbe0","pricing_plan_id":"cebpf4jnsgd1na2vs0mg"},{"bike_id":"41649255-c38b-42cb-ae7f-67f2787c354c","system_id":"levelo_inurba_marseille","lat":43.23764,"lon":5.43579,"is_reserved":false,"is_disabled":false,"rental_uris":{"android":"levelo://app?vid=41649255-c38b-42cb-ae7f-67f2787c354c","ios":"levelo://app?vid=41649255-c38b-42cb-ae7f-67f2787c354c"},"vehicle_type_id":"4","last_reported":1746173654,"current_range_meters":5600,"station_id":"","pricing_plan_id":"cebpf4jnsgd1na2vs0mg"},{"bike_id":"02f9e63b-769e-4fb4-9d2d-e5e51ef26cd2","system_id":"levelo_inurba_marseille","lat":43.24073,"lon":5.37761,"is_reserved":false,"is_disabled":false,"rental_uris":{"android":"levelo://app?vid=02f9e63b-769e-4fb4-9d2d-e5e51ef26cd2","ios":"levelo://app?vid=02f9e63b-769e-4fb4-9d2d-e5e51ef26cd2"},"vehicle_type_id":"4","last_reported":1746173654,"current_range_meters":5600,"station_id":"ce4bhnp2rcd13ifvqgvg","pricing_plan_id":"cebpf4jnsgd1na2vs0mg"},{"bike_id":"010767ff-62e4-41b9-85a2-d298318bb86a","system_id":"levelo_inurba_marseille","lat":43.2315,"lon":5.43718,"is_reserved":false,"is_disabled":false,"rental_uris":{"android":"levelo://app?vid=010767ff-62e4-41b9-85a2-d298318bb86a","ios":"levelo://app?vid=010767ff-62e4-41b9-85a2-d298318bb86a"},"vehicle_type_id":"4","last_reported":1746173654,"current_range_meters":5600,"station_id":"ce4bhmp2rcd13ifvqgog","pricing_plan_id":"cebpf4jnsgd1na2vs0mg"},{"bike_id":"695a7055-559b-4703-b1b0-c26816b46d0d","system_id":"levelo_inurba_marseille","lat":43.24176,"lon":5.3973,"is_reserved":false,"is_disabled":false,"rental_uris":{"android":"levelo://app?vid=695a7055-559b-4703-b1b0-c26816b46d0d","ios":"levelo://app?vid=695a7055-559b-4703-b1b0-c26816b46d0d"},"vehicle_type_id":"4","last_reported":1746173654,"current_range_meters":6000,"station_id":"ce4bhn12rcd13ifvqgpg","pricing_plan_id":"cebpf4jnsgd1na2vs0mg"},{"bike_id":"fee7396b-8d6a-4ad5-8af7-947693171efd","system_id":"levelo_inurba_marseille","lat":43.27057,"lon":5.42268,"is_reserved":false,"is_disabled":false,"rental_uris":{"android":"levelo://app?vid=fee7396b-8d6a-4ad5-8af7-947693171efd","ios":"levelo://app?vid=fee7396b-8d6a-4ad5-8af7-947693171efd"},"vehicle_type_id":"4","last_reported":1746173654,"current_range_meters":6000,"station_id":"ce4bhk92rcd13ifvqgb0","pricing_plan_id":"cebpf4jnsgd1na2vs0mg"},{"bike_id":"2fa0606e-0900-48b7-a24b-51cd6082d20a","system_id":"levelo_inurba_marseille","lat":43.239408,"lon":5.366408,"is_reserved":false,"is_disabled":false,"rental_uris":{"android":"levelo://app?vid=2fa0606e-0900-48b7-a24b-51cd6082d20a","ios":"levelo://app?vid=2fa0606e-0900-48b7-a24b-51cd6082d20a"},"vehicle_type_id":"4","last_reported":1746173654,"current_range_meters":6000,"station_id":"ce4bhi12rcd13ifvqfp0","pricing_plan_id":"cebpf4jnsgd1na2vs0mg"},{"bike_id":"dfe7cf15-ff2e-46ea-8ca5-b86c3b21df72","system_id":"levelo_inurba_marseille","lat":43.29805,"lon":5.40414,"is_reserved":false,"is_disabled":false,"rental_uris":{"android":"levelo://app?vid=dfe7cf15-ff2e-46ea-8ca5-b86c3b21df72","ios":"levelo://app?vid=dfe7cf15-ff2e-46ea-8ca5-b86c3b21df72"},"vehicle_type_id":"4","last_reported":1746173654,"current_range_meters":6000,"station_id":"ce4bh112rcd13ifvqd90","pricing_plan_id":"cebpf4jnsgd1na2vs0mg"},{"bike_id":"8c60bf1b-798a-4401-97b4-f8b69dd28020","system_id":"levelo_inurba_marseille","lat":43.29868,"lon":5.39725,"is_reserved":false,"is_disabled":false,"rental_uris":{"android":"levelo://app?vid=8c60bf1b-798a-4401-97b4-f8b69dd28020","ios":"levelo://app?vid=8c60bf1b-798a-4401-97b4-f8b69dd28020"},"vehicle_type_id":"4","last_reported":1746173654,"current_range_meters":6400,"station_id":"ce4bh0h2rcd13ifvqd50","pricing_plan_id":"cebpf4jnsgd1na2vs0mg"},{"bike_id":"590c3182-b259-4323-807a-fe38f07e15f2","system_id":"levelo_inurba_marseille","lat":43.33602,"lon":5.40985,"is_reserved":false,"is_disabled":false,"rental_uris":{"android":"levelo://app?vid=590c3182-b259-4323-807a-fe38f07e15f2","ios":"levelo://app?vid=590c3182-b259-4323-807a-fe38f07e15f2"},"vehicle_type_id":"4","last_reported":1746173654,"current_range_meters":6400,"station_id":"ce4bhqh2rcd13ifvqhmg","pricing_plan_id":"cebpf4jnsgd1na2vs0mg"},{"bike_id":"ad39198a-662a-445c-b332-22321ac2536b","system_id":"levelo_inurba_marseille","lat":43.29717,"lon":5.37682,"is_reserved":false,"is_disabled":false,"rental_uris":{"android":"levelo://app?vid=ad39198a-662a-445c-b332-22321ac2536b","ios":"levelo://app?vid=ad39198a-662a-445c-b332-22321ac2536b"},"vehicle_type_id":"4","last_reported":1746173654,"current_range_meters":6400,"station_id":"ce4bgkh2rcd13ifvqbl0","pricing_plan_id":"cebpf4jnsgd1na2vs0mg"},{"bike_id":"c13630b8-7748-4e76-993e-90d7b7c7f346","system_id":"levelo_inurba_marseille","lat":43.23149,"lon":5.43722,"is_reserved":false,"is_disabled":false,"rental_uris":{"android":"levelo://app?vid=c13630b8-7748-4e76-993e-90d7b7c7f346","ios":"levelo://app?vid=c13630b8-7748-4e76-993e-90d7b7c7f346"},"vehicle_type_id":"4","last_reported":1746173654,"current_range_meters":6400,"station_id":"ce4bhmp2rcd13ifvqgog","pricing_plan_id":"cebpf4jnsgd1na2vs0mg"},{"bike_id":"621d9d95-e07e-4cf5-b19a-cabdb95fa585","system_id":"levelo_inurba_marseille","lat":43.251081,"lon":5.403239,"is_reserved":false,"is_disabled":false,"rental_uris":{"android":"levelo://app?vid=621d9d95-e07e-4cf5-b19a-cabdb95fa585","ios":"levelo://app?vid=621d9d95-e07e-4cf5-b19a-cabdb95fa585"},"vehicle_type_id":"4","last_reported":1746173654,"current_range_meters":6400,"station_id":"ce4bhlh2rcd13ifvqgig","pricing_plan_id":"cebpf4jnsgd1na2vs0mg"},{"bike_id":"2a96615e-59ee-48c8-898c-fef9addef5ac","system_id":"levelo_inurba_marseille","lat":43.28264,"lon":5.35059,"is_reserved":false,"is_disabled":false,"rental_uris":{"android":"levelo://app?vid=2a96615e-59ee-48c8-898c-fef9addef5ac","ios":"levelo://app?vid=2a96615e-59ee-48c8-898c-fef9addef5ac"},"vehicle_type_id":"4","last_reported":1746173654,"current_range_meters":6400,"station_id":"ce4bhbp2rcd13ifvqerg","pricing_plan_id":"cebpf4jnsgd1na2vs0mg"},{"bike_id":"828601d4-7582-4761-b82c-8c730787c6ce","system_id":"levelo_inurba_marseille","lat":43.24076,"lon":5.37755,"is_reserved":false,"is_disabled":false,"rental_uris":{"android":"levelo://app?vid=828601d4-7582-4761-b82c-8c730787c6ce","ios":"levelo://app?vid=828601d4-7582-4761-b82c-8c730787c6ce"},"vehicle_type_id":"4","last_reported":1746173654,"current_range_meters":6400,"station_id":"ce4bhnp2rcd13ifvqgvg","pricing_plan_id":"cebpf4jnsgd1na2vs0mg"},{"bike_id":"f809c10e-7c05-4a32-b99f-27fc953b08fc","system_id":"levelo_inurba_marseille","lat":43.27805,"lon":5.40703,"is_reserved":false,"is_disabled":false,"rental_uris":{"android":"levelo://app?vid=f809c10e-7c05-4a32-b99f-27fc953b08fc","ios":"levelo://app?vid=f809c10e-7c05-4a32-b99f-27fc953b08fc"},"vehicle_type_id":"4","last_reported":1746173654,"current_range_meters":6800,"station_id":"ce4bhnh2rcd13ifvqgtg","pricing_plan_id":"cebpf4jnsgd1na2vs0mg"},{"bike_id":"92c9c34a-2661-40c7-b42b-42a1687057dd","system_id":"levelo_inurba_marseille","lat":43.211944,"lon":5.350686,"is_reserved":false,"is_disabled":true,"rental_uris":{"android":"levelo://app?vid=92c9c34a-2661-40c7-b42b-42a1687057dd","ios":"levelo://app?vid=92c9c34a-2661-40c7-b42b-42a1687057dd"},"vehicle_type_id":"4","last_reported":1746173654,"current_range_meters":7200,"station_id":"st_cvj6sg6p6f1abm77japg","pricing_plan_id":"cebpf4jnsgd1na2vs0mg"},{"bike_id":"1a4c2432-5068-4d23-98d3-58366576f115","system_id":"levelo_inurba_marseille","lat":43.31347,"lon":5.36719,"is_reserved":false,"is_disabled":false,"rental_uris":{"android":"levelo://app?vid=1a4c2432-5068-4d23-98d3-58366576f115","ios":"levelo://app?vid=1a4c2432-5068-4d23-98d3-58366576f115"},"vehicle_type_id":"4","last_reported":1746173654,"current_range_meters":7200,"station_id":"ce4bgr92rcd13ifvqc6g","pricing_plan_id":"cebpf4jnsgd1na2vs0mg"},{"bike_id":"51ef9827-05d4-4f72-abc3-c6fec8c5a095","system_id":"levelo_inurba_marseille","lat":43.23145,"lon":5.43715,"is_reserved":false,"is_disabled":false,"rental_uris":{"android":"levelo://app?vid=51ef9827-05d4-4f72-abc3-c6fec8c5a095","ios":"levelo://app?vid=51ef9827-05d4-4f72-abc3-c6fec8c5a095"},"vehicle_type_id":"4","last_reported":1746173654,"current_range_meters":7200,"station_id":"ce4bhmp2rcd13ifvqgog","pricing_plan_id":"cebpf4jnsgd1na2vs0mg"},{"bike_id":"61d94767-4a4c-45ba-baab-5233114f5286","system_id":"levelo_inurba_marseille","lat":43.30953,"lon":5.39044,"is_reserved":false,"is_disabled":false,"rental_uris":{"android":"levelo://app?vid=61d94767-4a4c-45ba-baab-5233114f5286","ios":"levelo://app?vid=61d94767-4a4c-45ba-baab-5233114f5286"},"vehicle_type_id":"4","last_reported":1746173654,"current_range_meters":7200,"station_id":"ce4bgup2rcd13ifvqco0","pricing_plan_id":"cebpf4jnsgd1na2vs0mg"},{"bike_id":"72ba09f8-e0ce-484e-b18f-f57ad6b20afd","system_id":"levelo_inurba_marseille","lat":43.29048,"lon":5.39956,"is_reserved":false,"is_disabled":false,"rental_uris":{"android":"levelo://app?vid=72ba09f8-e0ce-484e-b18f-f57ad6b20afd","ios":"levelo://app?vid=72ba09f8-e0ce-484e-b18f-f57ad6b20afd"},"vehicle_type_id":"4","last_reported":1746173654,"current_range_meters":7200,"station_id":"ce4bh392rcd13ifvqdm0","pricing_plan_id":"cebpf4jnsgd1na2vs0mg"},{"bike_id":"0ce790c8-c330-48e2-89e0-e5ad2f602ff6","system_id":"levelo_inurba_marseille","lat":43.308938,"lon":5.396657,"is_reserved":false,"is_disabled":false,"rental_uris":{"android":"levelo://app?vid=0ce790c8-c330-48e2-89e0-e5ad2f602ff6","ios":"levelo://app?vid=0ce790c8-c330-48e2-89e0-e5ad2f602ff6"},"vehicle_type_id":"4","last_reported":1746173654,"current_range_meters":7200,"station_id":"ce4bh012rcd13ifvqcv0","pricing_plan_id":"cebpf4jnsgd1na2vs0mg"},{"bike_id":"7cf2f118-55e2-491b-8e28-9d73e3c903a4","system_id":"levelo_inurba_marseille","lat":43.27497,"lon":5.42444,"is_reserved":false,"is_disabled":false,"rental_uris":{"android":"levelo://app?vid=7cf2f118-55e2-491b-8e28-9d73e3c903a4","ios":"levelo://app?vid=7cf2f118-55e2-491b-8e28-9d73e3c903a4"},"vehicle_type_id":"4","last_reported":1746173654,"current_range_meters":7200,"station_id":"ce4bhn92rcd13ifvqgrg","pricing_plan_id":"cebpf4jnsgd1na2vs0mg"},{"bike_id":"08ae6229-5a47-4c4c-99ac-4ba6243e9cfe","system_id":"levelo_inurba_marseille","lat":43.23058,"lon":5.35493,"is_reserved":false,"is_disabled":true,"rental_uris":{"android":"levelo://app?vid=08ae6229-5a47-4c4c-99ac-4ba6243e9cfe","ios":"levelo://app?vid=08ae6229-5a47-4c4c-99ac-4ba6243e9cfe"},"vehicle_type_id":"4","last_reported":1746173654,"current_range_meters":7200,"station_id":"cpo3342slgdg3j2ifvpg","pricing_plan_id":"cebpf4jnsgd1na2vs0mg"},{"bike_id":"c15ef4a0-b9a3-475a-a31c-a1d478086df5","system_id":"levelo_inurba_marseille","lat":43.21746,"lon":5.34604,"is_reserved":false,"is_disabled":false,"rental_uris":{"android":"levelo://app?vid=c15ef4a0-b9a3-475a-a31c-a1d478086df5","ios":"levelo://app?vid=c15ef4a0-b9a3-475a-a31c-a1d478086df5"},"vehicle_type_id":"4","last_reported":1746173654,"current_range_meters":7200,"station_id":"st_cvj6r9ubvosntc0bgbag","pricing_plan_id":"cebpf4jnsgd1na2vs0mg"},{"bike_id":"db745dc5-0303-42bb-b118-6d446aa9c3ea","system_id":"levelo_inurba_marseille","lat":43.30425,"lon":5.39742,"is_reserved":false,"is_disabled":false,"rental_uris":{"android":"levelo://app?vid=db745dc5-0303-42bb-b118-6d446aa9c3ea","ios":"levelo://app?vid=db745dc5-0303-42bb-b118-6d446aa9c3ea"},"vehicle_type_id":"4","last_reported":1746173654,"current_range_meters":8000,"station_id":"ce4bh092rcd13ifvqd20","pricing_plan_id":"cebpf4jnsgd1na2vs0mg"},{"bike_id":"dee33eb2-4d65-40af-8286-5bd1604d76f9","system_id":"levelo_inurba_marseille","lat":43.28265,"lon":5.35063,"is_reserved":false,"is_disabled":false,"rental_uris":{"android":"levelo://app?vid=dee33eb2-4d65-40af-8286-5bd1604d76f9","ios":"levelo://app?vid=dee33eb2-4d65-40af-8286-5bd1604d76f9"},"vehicle_type_id":"4","last_reported":1746173654,"current_range_meters":8000,"station_id":"ce4bhbp2rcd13ifvqerg","pricing_plan_id":"cebpf4jnsgd1na2vs0mg"},{"bike_id":"44137701-96fd-466c-876b-72e95bfc3ab1","system_id":"levelo_inurba_marseille","lat":43.28154,"lon":5.4265,"is_reserved":false,"is_disabled":false,"rental_uris":{"android":"levelo://app?vid=44137701-96fd-466c-876b-72e95bfc3ab1","ios":"levelo://app?vid=44137701-96fd-466c-876b-72e95bfc3ab1"},"vehicle_type_id":"4","last_reported":1746173654,"current_range_meters":8000,"station_id":"ce4bhnh2rcd13ifvqgug","pricing_plan_id":"cebpf4jnsgd1na2vs0mg"},{"bike_id":"e398a600-7865-4824-bed4-9375a0514f20","system_id":"levelo_inurba_marseille","lat":43.292999,"lon":5.374652,"is_reserved":false,"is_disabled":false,"rental_uris":{"android":"levelo://app?vid=e398a600-7865-4824-bed4-9375a0514f20","ios":"levelo://app?vid=e398a600-7865-4824-bed4-9375a0514f20"},"vehicle_type_id":"4","last_reported":1746173654,"current_range_meters":8000,"station_id":"ce4bgi12rcd13ifvqb70","pricing_plan_id":"cebpf4jnsgd1na2vs0mg"},{"bike_id":"ca0d7e39-78c8-41f1-97b1-0bd295027c8c","system_id":"levelo_inurba_marseille","lat":43.27811,"lon":5.40709,"is_reserved":false,"is_disabled":false,"rental_uris":{"android":"levelo://app?vid=ca0d7e39-78c8-41f1-97b1-0bd295027c8c","ios":"levelo://app?vid=ca0d7e39-78c8-41f1-97b1-0bd295027c8c"},"vehicle_type_id":"4","last_reported":1746173654,"current_range_meters":8000,"station_id":"ce4bhnh2rcd13ifvqgtg","pricing_plan_id":"cebpf4jnsgd1na2vs0mg"},{"bike_id":"5cda05c5-33c9-4109-89c1-36d218dc0d5f","system_id":"levelo_inurba_marseille","lat":43.31693,"lon":5.40466,"is_reserved":false,"is_disabled":false,"rental_uris":{"android":"levelo://app?vid=5cda05c5-33c9-4109-89c1-36d218dc0d5f","ios":"levelo://app?vid=5cda05c5-33c9-4109-89c1-36d218dc0d5f"},"vehicle_type_id":"4","last_reported":1746173654,"current_range_meters":8000,"station_id":"ce4bh012rcd13ifvqd00","pricing_plan_id":"cebpf4jnsgd1na2vs0mg"},{"bike_id":"ef0fc37e-2b90-4ed2-9ccc-e81a49c38221","system_id":"levelo_inurba_marseille","lat":43.30083,"lon":5.39069,"is_reserved":false,"is_disabled":false,"rental_uris":{"android":"levelo://app?vid=ef0fc37e-2b90-4ed2-9ccc-e81a49c38221","ios":"levelo://app?vid=ef0fc37e-2b90-4ed2-9ccc-e81a49c38221"},"vehicle_type_id":"4","last_reported":1746173654,"current_range_meters":8400,"station_id":"ce4bh192rcd13ifvqdb0","pricing_plan_id":"cebpf4jnsgd1na2vs0mg"},{"bike_id":"8344b010-60a0-415b-a61c-7a8b4708ae8f","system_id":"levelo_inurba_marseille","lat":43.24074,"lon":5.37754,"is_reserved":false,"is_disabled":false,"rental_uris":{"android":"levelo://app?vid=8344b010-60a0-415b-a61c-7a8b4708ae8f","ios":"levelo://app?vid=8344b010-60a0-415b-a61c-7a8b4708ae8f"},"vehicle_type_id":"4","last_reported":1746173654,"current_range_meters":8400,"station_id":"ce4bhnp2rcd13ifvqgvg","pricing_plan_id":"cebpf4jnsgd1na2vs0mg"},{"bike_id":"e0c69642-153a-4cdf-94dd-e50d7657b75d","system_id":"levelo_inurba_marseille","lat":43.31705,"lon":5.40462,"is_reserved":false,"is_disabled":false,"rental_uris":{"android":"levelo://app?vid=e0c69642-153a-4cdf-94dd-e50d7657b75d","ios":"levelo://app?vid=e0c69642-153a-4cdf-94dd-e50d7657b75d"},"vehicle_type_id":"4","last_reported":1746173654,"current_range_meters":8400,"station_id":"ce4bh012rcd13ifvqd00","pricing_plan_id":"cebpf4jnsgd1na2vs0mg"},{"bike_id":"8fcf65fa-e503-4289-858f-113d6c6cf489","system_id":"levelo_inurba_marseille","lat":43.25719,"lon":5.41111,"is_reserved":false,"is_disabled":false,"rental_uris":{"android":"levelo://app?vid=8fcf65fa-e503-4289-858f-113d6c6cf489","ios":"levelo://app?vid=8fcf65fa-e503-4289-858f-113d6c6cf489"},"vehicle_type_id":"4","last_reported":1746173654,"current_range_meters":8400,"station_id":"ce4bhkp2rcd13ifvqgd0","pricing_plan_id":"cebpf4jnsgd1na2vs0mg"},{"bike_id":"2df3c7e7-6f24-4b35-8876-4ea421331109","system_id":"levelo_inurba_marseille","lat":43.25114,"lon":5.4035,"is_reserved":false,"is_disabled":true,"rental_uris":{"android":"levelo://app?vid=2df3c7e7-6f24-4b35-8876-4ea421331109","ios":"levelo://app?vid=2df3c7e7-6f24-4b35-8876-4ea421331109"},"vehicle_type_id":"4","last_reported":1746173654,"current_range_meters":8400,"station_id":"ce4bhlh2rcd13ifvqgig","pricing_plan_id":"cebpf4jnsgd1na2vs0mg"},{"bike_id":"8cd15630-0c69-46e0-a1ee-eebb9363ed75","system_id":"levelo_inurba_marseille","lat":43.30254,"lon":5.40081,"is_reserved":false,"is_disabled":false,"rental_uris":{"android":"levelo://app?vid=8cd15630-0c69-46e0-a1ee-eebb9363ed75","ios":"levelo://app?vid=8cd15630-0c69-46e0-a1ee-eebb9363ed75"},"vehicle_type_id":"4","last_reported":1746173654,"current_range_meters":8400,"station_id":"ce4bgvh2rcd13ifvqcs0","pricing_plan_id":"cebpf4jnsgd1na2vs0mg"},{"bike_id":"e93b949e-1738-47f2-ad13-8f512df2ffaf","system_id":"levelo_inurba_marseille","lat":43.27493,"lon":5.4245,"is_reserved":false,"is_disabled":false,"rental_uris":{"android":"levelo://app?vid=e93b949e-1738-47f2-ad13-8f512df2ffaf","ios":"levelo://app?vid=e93b949e-1738-47f2-ad13-8f512df2ffaf"},"vehicle_type_id":"4","last_reported":1746173654,"current_range_meters":8400,"station_id":"ce4bhn92rcd13ifvqgrg","pricing_plan_id":"cebpf4jnsgd1na2vs0mg"},{"bike_id":"f86d1595-bc23-43f0-b70b-4aabc8d8fddc","system_id":"levelo_inurba_marseille","lat":43.33602,"lon":5.41028,"is_reserved":false,"is_disabled":false,"rental_uris":{"android":"levelo://app?vid=f86d1595-bc23-43f0-b70b-4aabc8d8fddc","ios":"levelo://app?vid=f86d1595-bc23-43f0-b70b-4aabc8d8fddc"},"vehicle_type_id":"4","last_reported":1746173654,"current_range_meters":8800,"station_id":"ce4bhqh2rcd13ifvqhmg","pricing_plan_id":"cebpf4jnsgd1na2vs0mg"},{"bike_id":"4e06d3e6-2b20-4e7b-aea6-0ad1ac5e1edf","system_id":"levelo_inurba_marseille","lat":43.32538,"lon":5.41423,"is_reserved":false,"is_disabled":false,"rental_uris":{"android":"levelo://app?vid=4e06d3e6-2b20-4e7b-aea6-0ad1ac5e1edf","ios":"levelo://app?vid=4e06d3e6-2b20-4e7b-aea6-0ad1ac5e1edf"},"vehicle_type_id":"4","last_reported":1746173654,"current_range_meters":8800,"station_id":"ce4bhq12rcd13ifvqhhg","pricing_plan_id":"cebpf4jnsgd1na2vs0mg"},{"bike_id":"f3d36354-fb65-4d90-83eb-303e5363ade6","system_id":"levelo_inurba_marseille","lat":43.31281,"lon":5.40179,"is_reserved":false,"is_disabled":false,"rental_uris":{"android":"levelo://app?vid=f3d36354-fb65-4d90-83eb-303e5363ade6","ios":"levelo://app?vid=f3d36354-fb65-4d90-83eb-303e5363ade6"},"vehicle_type_id":"4","last_reported":1746173654,"current_range_meters":8800,"station_id":"ce4bh092rcd13ifvqd30","pricing_plan_id":"cebpf4jnsgd1na2vs0mg"},{"bike_id":"bbda5f54-a0b9-4ae2-bf8b-abca31f255f3","system_id":"levelo_inurba_marseille","lat":43.29979,"lon":5.38482,"is_reserved":false,"is_disabled":false,"rental_uris":{"android":"levelo://app?vid=bbda5f54-a0b9-4ae2-bf8b-abca31f255f3","ios":"levelo://app?vid=bbda5f54-a0b9-4ae2-bf8b-abca31f255f3"},"vehicle_type_id":"4","last_reported":1746173654,"current_range_meters":8800,"station_id":"ce4bgj92rcd13ifvqbd0","pricing_plan_id":"cebpf4jnsgd1na2vs0mg"},{"bike_id":"562eabbf-7382-4be2-a968-6a24d64bc7f3","system_id":"levelo_inurba_marseille","lat":43.27072,"lon":5.42279,"is_reserved":false,"is_disabled":false,"rental_uris":{"android":"levelo://app?vid=562eabbf-7382-4be2-a968-6a24d64bc7f3","ios":"levelo://app?vid=562eabbf-7382-4be2-a968-6a24d64bc7f3"},"vehicle_type_id":"4","last_reported":1746173654,"current_range_meters":8800,"station_id":"ce4bhk92rcd13ifvqgb0","pricing_plan_id":"cebpf4jnsgd1na2vs0mg"},{"bike_id":"d3b1021a-8bdb-46a7-8c5a-b68b2f75cb3a","system_id":"levelo_inurba_marseille","lat":43.23174,"lon":5.39986,"is_reserved":false,"is_disabled":false,"rental_uris":{"android":"levelo://app?vid=d3b1021a-8bdb-46a7-8c5a-b68b2f75cb3a","ios":"levelo://app?vid=d3b1021a-8bdb-46a7-8c5a-b68b2f75cb3a"},"vehicle_type_id":"4","last_reported":1746173654,"current_range_meters":8800,"station_id":"ce4bhn12rcd13ifvqgqg","pricing_plan_id":"cebpf4jnsgd1na2vs0mg"},{"bike_id":"20677bec-f723-4a98-9582-28d71c43bf6e","system_id":"levelo_inurba_marseille","lat":43.23144,"lon":5.43723,"is_reserved":false,"is_disabled":false,"rental_uris":{"android":"levelo://app?vid=20677bec-f723-4a98-9582-28d71c43bf6e","ios":"levelo://app?vid=20677bec-f723-4a98-9582-28d71c43bf6e"},"vehicle_type_id":"4","last_reported":1746173654,"current_range_meters":8800,"station_id":"ce4bhmp2rcd13ifvqgog","pricing_plan_id":"cebpf4jnsgd1na2vs0mg"},{"bike_id":"7971fe93-5f1d-4a59-8508-b415e64fcb18","system_id":"levelo_inurba_marseille","lat":43.30926,"lon":5.37377,"is_reserved":false,"is_disabled":false,"rental_uris":{"android":"levelo://app?vid=7971fe93-5f1d-4a59-8508-b415e64fcb18","ios":"levelo://app?vid=7971fe93-5f1d-4a59-8508-b415e64fcb18"},"vehicle_type_id":"4","last_reported":1746173654,"current_range_meters":8800,"station_id":"","pricing_plan_id":"cebpf4jnsgd1na2vs0mg"},{"bike_id":"0275921f-ce6e-42c6-b9cc-724455ffabca","system_id":"levelo_inurba_marseille","lat":43.25707,"lon":5.41108,"is_reserved":false,"is_disabled":false,"rental_uris":{"android":"levelo://app?vid=0275921f-ce6e-42c6-b9cc-724455ffabca","ios":"levelo://app?vid=0275921f-ce6e-42c6-b9cc-724455ffabca"},"vehicle_type_id":"4","last_reported":1746173654,"current_range_meters":8800,"station_id":"ce4bhkp2rcd13ifvqgd0","pricing_plan_id":"cebpf4jnsgd1na2vs0mg"},{"bike_id":"0d6c5100-7db5-44d0-b9d6-cf2b96014798","system_id":"levelo_inurba_marseille","lat":43.310077,"lon":5.375467,"is_reserved":false,"is_disabled":false,"rental_uris":{"android":"levelo://app?vid=0d6c5100-7db5-44d0-b9d6-cf2b96014798","ios":"levelo://app?vid=0d6c5100-7db5-44d0-b9d6-cf2b96014798"},"vehicle_type_id":"4","last_reported":1746173654,"current_range_meters":9200,"station_id":"","pricing_plan_id":"cebpf4jnsgd1na2vs0mg"},{"bike_id":"4a6851f9-34fb-48f6-8387-4b9c13325bed","system_id":"levelo_inurba_marseille","lat":43.32086,"lon":5.36766,"is_reserved":false,"is_disabled":false,"rental_uris":{"android":"levelo://app?vid=4a6851f9-34fb-48f6-8387-4b9c13325bed","ios":"levelo://app?vid=4a6851f9-34fb-48f6-8387-4b9c13325bed"},"vehicle_type_id":"4","last_reported":1746173654,"current_range_meters":9200,"station_id":"ce4bhrh2rcd13ifvqhug","pricing_plan_id":"cebpf4jnsgd1na2vs0mg"},{"bike_id":"a0eab6ab-a61e-409d-b14b-21d333c52cf1","system_id":"levelo_inurba_marseille","lat":43.292999,"lon":5.374657,"is_reserved":false,"is_disabled":false,"rental_uris":{"android":"levelo://app?vid=a0eab6ab-a61e-409d-b14b-21d333c52cf1","ios":"levelo://app?vid=a0eab6ab-a61e-409d-b14b-21d333c52cf1"},"vehicle_type_id":"4","last_reported":1746173654,"current_range_meters":9200,"station_id":"ce4bgi12rcd13ifvqb70","pricing_plan_id":"cebpf4jnsgd1na2vs0mg"},{"bike_id":"32a5b9b2-5177-4b5f-91eb-6f7b00e0f325","system_id":"levelo_inurba_marseille","lat":43.26237,"lon":5.38772,"is_reserved":false,"is_disabled":false,"rental_uris":{"android":"levelo://app?vid=32a5b9b2-5177-4b5f-91eb-6f7b00e0f325","ios":"levelo://app?vid=32a5b9b2-5177-4b5f-91eb-6f7b00e0f325"},"vehicle_type_id":"4","last_reported":1746173654,"current_range_meters":9600,"station_id":"","pricing_plan_id":"cebpf4jnsgd1na2vs0mg"},{"bike_id":"ba1291bf-568d-477b-8e17-c284858000b8","system_id":"levelo_inurba_marseille","lat":43.2933,"lon":5.37048,"is_reserved":false,"is_disabled":false,"rental_uris":{"android":"levelo://app?vid=ba1291bf-568d-477b-8e17-c284858000b8","ios":"levelo://app?vid=ba1291bf-568d-477b-8e17-c284858000b8"},"vehicle_type_id":"4","last_reported":1746173654,"current_range_meters":9600,"station_id":"","pricing_plan_id":"cebpf4jnsgd1na2vs0mg"},{"bike_id":"71947178-4e59-446f-8757-884f1d6feb21","system_id":"levelo_inurba_marseille","lat":43.2918,"lon":5.3581,"is_reserved":false,"is_disabled":false,"rental_uris":{"android":"levelo://app?vid=71947178-4e59-446f-8757-884f1d6feb21","ios":"levelo://app?vid=71947178-4e59-446f-8757-884f1d6feb21"},"vehicle_type_id":"4","last_reported":1746173654,"current_range_meters":9600,"station_id":"ce4bhb12rcd13ifvqel0","pricing_plan_id":"cebpf4jnsgd1na2vs0mg"},{"bike_id":"bf0ded13-567f-4376-9241-fab3660dc401","system_id":"levelo_inurba_marseille","lat":43.23139,"lon":5.43713,"is_reserved":false,"is_disabled":false,"rental_uris":{"android":"levelo://app?vid=bf0ded13-567f-4376-9241-fab3660dc401","ios":"levelo://app?vid=bf0ded13-567f-4376-9241-fab3660dc401"},"vehicle_type_id":"4","last_reported":1746173654,"current_range_meters":9600,"station_id":"ce4bhmp2rcd13ifvqgog","pricing_plan_id":"cebpf4jnsgd1na2vs0mg"},{"bike_id":"767680eb-6481-4676-8654-76dbea1957a9","system_id":"levelo_inurba_marseille","lat":43.26547,"lon":5.37269,"is_reserved":false,"is_disabled":false,"rental_uris":{"android":"levelo://app?vid=767680eb-6481-4676-8654-76dbea1957a9","ios":"levelo://app?vid=767680eb-6481-4676-8654-76dbea1957a9"},"vehicle_type_id":"4","last_reported":1746173654,"current_range_meters":9600,"station_id":"ce4bhg12rcd13ifvqf70","pricing_plan_id":"cebpf4jnsgd1na2vs0mg"},{"bike_id":"5c438e17-5b4a-4b03-9788-c016a163b4ba","system_id":"levelo_inurba_marseille","lat":43.29563,"lon":5.39973,"is_reserved":false,"is_disabled":false,"rental_uris":{"android":"levelo://app?vid=5c438e17-5b4a-4b03-9788-c016a163b4ba","ios":"levelo://app?vid=5c438e17-5b4a-4b03-9788-c016a163b4ba"},"vehicle_type_id":"4","last_reported":1746173654,"current_range_meters":9600,"station_id":"ce4bh312rcd13ifvqdj0","pricing_plan_id":"cebpf4jnsgd1na2vs0mg"},{"bike_id":"cf81bc7c-6fbd-4911-bfcc-ad2ae4d0da60","system_id":"levelo_inurba_marseille","lat":43.25016,"lon":5.38901,"is_reserved":false,"is_disabled":false,"rental_uris":{"android":"levelo://app?vid=cf81bc7c-6fbd-4911-bfcc-ad2ae4d0da60","ios":"levelo://app?vid=cf81bc7c-6fbd-4911-bfcc-ad2ae4d0da60"},"vehicle_type_id":"4","last_reported":1746173654,"current_range_meters":9600,"station_id":"ce4bhgp2rcd13ifvqfd0","pricing_plan_id":"cebpf4jnsgd1na2vs0mg"},{"bike_id":"5e783dca-e9bd-4f97-a67f-f3c52ee23fb9","system_id":"levelo_inurba_marseille","lat":43.296214,"lon":5.377067,"is_reserved":false,"is_disabled":true,"rental_uris":{"android":"levelo://app?vid=5e783dca-e9bd-4f97-a67f-f3c52ee23fb9","ios":"levelo://app?vid=5e783dca-e9bd-4f97-a67f-f3c52ee23fb9"},"vehicle_type_id":"4","last_reported":1746173654,"current_range_meters":10000,"station_id":"","pricing_plan_id":"cebpf4jnsgd1na2vs0mg"},{"bike_id":"5ce5a92f-2072-4e8c-8483-5f453ebe476a","system_id":"levelo_inurba_marseille","lat":43.2313,"lon":5.43654,"is_reserved":false,"is_disabled":false,"rental_uris":{"android":"levelo://app?vid=5ce5a92f-2072-4e8c-8483-5f453ebe476a","ios":"levelo://app?vid=5ce5a92f-2072-4e8c-8483-5f453ebe476a"},"vehicle_type_id":"4","last_reported":1746173654,"current_range_meters":10000,"station_id":"ce4bhmp2rcd13ifvqgog","pricing_plan_id":"cebpf4jnsgd1na2vs0mg"},{"bike_id":"733c7236-2378-4f40-9443-245b71b023fe","system_id":"levelo_inurba_marseille","lat":43.28186,"lon":5.36941,"is_reserved":false,"is_disabled":false,"rental_uris":{"android":"levelo://app?vid=733c7236-2378-4f40-9443-245b71b023fe","ios":"levelo://app?vid=733c7236-2378-4f40-9443-245b71b023fe"},"vehicle_type_id":"4","last_reported":1746173654,"current_range_meters":10000,"station_id":"ce4bha12rcd13ifvqef0","pricing_plan_id":"cebpf4jnsgd1na2vs0mg"},{"bike_id":"fd07a340-a32b-44cc-824b-9474cc171177","system_id":"levelo_inurba_marseille","lat":43.2815,"lon":5.42648,"is_reserved":false,"is_disabled":false,"rental_uris":{"android":"levelo://app?vid=fd07a340-a32b-44cc-824b-9474cc171177","ios":"levelo://app?vid=fd07a340-a32b-44cc-824b-9474cc171177"},"vehicle_type_id":"4","last_reported":1746173654,"current_range_meters":10000,"station_id":"ce4bhnh2rcd13ifvqgug","pricing_plan_id":"cebpf4jnsgd1na2vs0mg"},{"bike_id":"ad6fdfc9-e239-49ec-94be-8050edfbc0f8","system_id":"levelo_inurba_marseille","lat":43.25113,"lon":5.40317,"is_reserved":false,"is_disabled":false,"rental_uris":{"android":"levelo://app?vid=ad6fdfc9-e239-49ec-94be-8050edfbc0f8","ios":"levelo://app?vid=ad6fdfc9-e239-49ec-94be-8050edfbc0f8"},"vehicle_type_id":"4","last_reported":1746173654,"current_range_meters":10000,"station_id":"ce4bhlh2rcd13ifvqgig","pricing_plan_id":"cebpf4jnsgd1na2vs0mg"},{"bike_id":"6d2a17b6-cd42-47a7-91a1-ba18059e336a","system_id":"levelo_inurba_marseille","lat":43.28262,"lon":5.35058,"is_reserved":false,"is_disabled":false,"rental_uris":{"android":"levelo://app?vid=6d2a17b6-cd42-47a7-91a1-ba18059e336a","ios":"levelo://app?vid=6d2a17b6-cd42-47a7-91a1-ba18059e336a"},"vehicle_type_id":"4","last_reported":1746173654,"current_range_meters":10000,"station_id":"ce4bhbp2rcd13ifvqerg","pricing_plan_id":"cebpf4jnsgd1na2vs0mg"},{"bike_id":"3f8bea75-f1b7-42a9-9ff5-4986c0552272","system_id":"levelo_inurba_marseille","lat":43.21742,"lon":5.34617,"is_reserved":false,"is_disabled":true,"rental_uris":{"android":"levelo://app?vid=3f8bea75-f1b7-42a9-9ff5-4986c0552272","ios":"levelo://app?vid=3f8bea75-f1b7-42a9-9ff5-4986c0552272"},"vehicle_type_id":"4","last_reported":1746173654,"current_range_meters":10000,"station_id":"st_cvj6r9ubvosntc0bgbag","pricing_plan_id":"cebpf4jnsgd1na2vs0mg"},{"bike_id":"b9a05eed-e0a2-4779-840d-b0b7cdf8ca33","system_id":"levelo_inurba_marseille","lat":43.25827,"lon":5.39434,"is_reserved":false,"is_disabled":false,"rental_uris":{"android":"levelo://app?vid=b9a05eed-e0a2-4779-840d-b0b7cdf8ca33","ios":"levelo://app?vid=b9a05eed-e0a2-4779-840d-b0b7cdf8ca33"},"vehicle_type_id":"4","last_reported":1746173654,"current_range_meters":10000,"station_id":"ce4bhip2rcd13ifvqft0","pricing_plan_id":"cebpf4jnsgd1na2vs0mg"},{"bike_id":"f0fe129f-486e-4fef-8214-fc71b125c3c4","system_id":"levelo_inurba_marseille","lat":43.25825,"lon":5.3943,"is_reserved":false,"is_disabled":false,"rental_uris":{"android":"levelo://app?vid=f0fe129f-486e-4fef-8214-fc71b125c3c4","ios":"levelo://app?vid=f0fe129f-486e-4fef-8214-fc71b125c3c4"},"vehicle_type_id":"4","last_reported":1746173654,"current_range_meters":9600,"station_id":"ce4bhip2rcd13ifvqft0","pricing_plan_id":"cebpf4jnsgd1na2vs0mg"},{"bike_id":"5779d105-094b-4ec4-b217-7f01d7fd6044","system_id":"levelo_inurba_marseille","lat":43.23153,"lon":5.43703,"is_reserved":false,"is_disabled":false,"rental_uris":{"android":"levelo://app?vid=5779d105-094b-4ec4-b217-7f01d7fd6044","ios":"levelo://app?vid=5779d105-094b-4ec4-b217-7f01d7fd6044"},"vehicle_type_id":"4","last_reported":1746173654,"current_range_meters":10800,"station_id":"ce4bhmp2rcd13ifvqgog","pricing_plan_id":"cebpf4jnsgd1na2vs0mg"},{"bike_id":"045b2767-67d3-41b7-8618-6d27646a5585","system_id":"levelo_inurba_marseille","lat":43.315877,"lon":5.387728,"is_reserved":false,"is_disabled":false,"rental_uris":{"android":"levelo://app?vid=045b2767-67d3-41b7-8618-6d27646a5585","ios":"levelo://app?vid=045b2767-67d3-41b7-8618-6d27646a5585"},"vehicle_type_id":"4","last_reported":1746173654,"current_range_meters":10800,"station_id":"","pricing_plan_id":"cebpf4jnsgd1na2vs0mg"},{"bike_id":"879b61a1-8db3-40d3-a097-41eb20cba322","system_id":"levelo_inurba_marseille","lat":43.29271,"lon":5.36852,"is_reserved":false,"is_disabled":false,"rental_uris":{"android":"levelo://app?vid=879b61a1-8db3-40d3-a097-41eb20cba322","ios":"levelo://app?vid=879b61a1-8db3-40d3-a097-41eb20cba322"},"vehicle_type_id":"4","last_reported":1746173654,"current_range_meters":10800,"station_id":"ce4bhbp2rcd13ifvqesg","pricing_plan_id":"cebpf4jnsgd1na2vs0mg"},{"bike_id":"64882e52-01e4-44f9-a310-fbb4de7b311d","system_id":"levelo_inurba_marseille","lat":43.28263,"lon":5.35058,"is_reserved":false,"is_disabled":false,"rental_uris":{"android":"levelo://app?vid=64882e52-01e4-44f9-a310-fbb4de7b311d","ios":"levelo://app?vid=64882e52-01e4-44f9-a310-fbb4de7b311d"},"vehicle_type_id":"4","last_reported":1746173654,"current_range_meters":11200,"station_id":"ce4bhbp2rcd13ifvqerg","pricing_plan_id":"cebpf4jnsgd1na2vs0mg"},{"bike_id":"3a8f4a60-d867-4141-8c76-22959f2c4156","system_id":"levelo_inurba_marseille","lat":43.30125,"lon":5.39854,"is_reserved":false,"is_disabled":false,"rental_uris":{"android":"levelo://app?vid=3a8f4a60-d867-4141-8c76-22959f2c4156","ios":"levelo://app?vid=3a8f4a60-d867-4141-8c76-22959f2c4156"},"vehicle_type_id":"4","last_reported":1746173654,"current_range_meters":11200,"station_id":"ce4bh0h2rcd13ifvqd40","pricing_plan_id":"cebpf4jnsgd1na2vs0mg"},{"bike_id":"72736b54-e2d7-44bb-8dd1-77951e6435b8","system_id":"levelo_inurba_marseille","lat":43.280808,"lon":5.396649,"is_reserved":false,"is_disabled":false,"rental_uris":{"android":"levelo://app?vid=72736b54-e2d7-44bb-8dd1-77951e6435b8","ios":"levelo://app?vid=72736b54-e2d7-44bb-8dd1-77951e6435b8"},"vehicle_type_id":"4","last_reported":1746173654,"current_range_meters":11200,"station_id":"ce4bho12rcd13ifvqh2g","pricing_plan_id":"cebpf4jnsgd1na2vs0mg"},{"bike_id":"df869c6e-30aa-4a10-bddb-7cd36ccc4eae","system_id":"levelo_inurba_marseille","lat":43.29899,"lon":5.43652,"is_reserved":false,"is_disabled":true,"rental_uris":{"android":"levelo://app?vid=df869c6e-30aa-4a10-bddb-7cd36ccc4eae","ios":"levelo://app?vid=df869c6e-30aa-4a10-bddb-7cd36ccc4eae"},"vehicle_type_id":"4","last_reported":1746173654,"current_range_meters":11200,"station_id":"ce4bhpp2rcd13ifvqhfg","pricing_plan_id":"cebpf4jnsgd1na2vs0mg"},{"bike_id":"56f543c3-cb38-4272-a4e5-cab053dcc3e0","system_id":"levelo_inurba_marseille","lat":43.291966,"lon":5.392961,"is_reserved":false,"is_disabled":true,"rental_uris":{"android":"levelo://app?vid=56f543c3-cb38-4272-a4e5-cab053dcc3e0","ios":"levelo://app?vid=56f543c3-cb38-4272-a4e5-cab053dcc3e0"},"vehicle_type_id":"4","last_reported":1746173654,"current_range_meters":11200,"station_id":"ce4bhbh2rcd13ifvqeo0","pricing_plan_id":"cebpf4jnsgd1na2vs0mg"},{"bike_id":"70343d1e-ded8-4525-8972-02514fdf5b15","system_id":"levelo_inurba_marseille","lat":43.27493,"lon":5.42448,"is_reserved":false,"is_disabled":false,"rental_uris":{"android":"levelo://app?vid=70343d1e-ded8-4525-8972-02514fdf5b15","ios":"levelo://app?vid=70343d1e-ded8-4525-8972-02514fdf5b15"},"vehicle_type_id":"4","last_reported":1746173654,"current_range_meters":11200,"station_id":"ce4bhn92rcd13ifvqgrg","pricing_plan_id":"cebpf4jnsgd1na2vs0mg"},{"bike_id":"213be9bf-50c6-4632-8101-ab3a4cec835a","system_id":"levelo_inurba_marseille","lat":43.29254,"lon":5.36855,"is_reserved":false,"is_disabled":false,"rental_uris":{"android":"levelo://app?vid=213be9bf-50c6-4632-8101-ab3a4cec835a","ios":"levelo://app?vid=213be9bf-50c6-4632-8101-ab3a4cec835a"},"vehicle_type_id":"4","last_reported":1746173654,"current_range_meters":11200,"station_id":"ce4bhbp2rcd13ifvqesg","pricing_plan_id":"cebpf4jnsgd1na2vs0mg"},{"bike_id":"718efd42-4b6f-4ac4-ab28-c4b5a281556e","system_id":"levelo_inurba_marseille","lat":43.3096,"lon":5.39044,"is_reserved":false,"is_disabled":false,"rental_uris":{"android":"levelo://app?vid=718efd42-4b6f-4ac4-ab28-c4b5a281556e","ios":"levelo://app?vid=718efd42-4b6f-4ac4-ab28-c4b5a281556e"},"vehicle_type_id":"4","last_reported":1746173654,"current_range_meters":11200,"station_id":"ce4bgup2rcd13ifvqco0","pricing_plan_id":"cebpf4jnsgd1na2vs0mg"},{"bike_id":"a7b7d5a9-5390-4bc8-a38f-d0a7e6ccbec5","system_id":"levelo_inurba_marseille","lat":43.29803,"lon":5.38121,"is_reserved":false,"is_disabled":false,"rental_uris":{"android":"levelo://app?vid=a7b7d5a9-5390-4bc8-a38f-d0a7e6ccbec5","ios":"levelo://app?vid=a7b7d5a9-5390-4bc8-a38f-d0a7e6ccbec5"},"vehicle_type_id":"4","last_reported":1746173654,"current_range_meters":11600,"station_id":"ce4bgip2rcd13ifvqbb0","pricing_plan_id":"cebpf4jnsgd1na2vs0mg"},{"bike_id":"b3a950d6-27a1-4962-b3d3-6c35f584a539","system_id":"levelo_inurba_marseille","lat":43.27484,"lon":5.4244,"is_reserved":false,"is_disabled":false,"rental_uris":{"android":"levelo://app?vid=b3a950d6-27a1-4962-b3d3-6c35f584a539","ios":"levelo://app?vid=b3a950d6-27a1-4962-b3d3-6c35f584a539"},"vehicle_type_id":"4","last_reported":1746173654,"current_range_meters":11600,"station_id":"ce4bhn92rcd13ifvqgrg","pricing_plan_id":"cebpf4jnsgd1na2vs0mg"},{"bike_id":"9e0a60b3-fe6f-4b98-b8ef-5ef2dfa5e6f2","system_id":"levelo_inurba_marseille","lat":43.3053,"lon":5.36556,"is_reserved":false,"is_disabled":false,"rental_uris":{"android":"levelo://app?vid=9e0a60b3-fe6f-4b98-b8ef-5ef2dfa5e6f2","ios":"levelo://app?vid=9e0a60b3-fe6f-4b98-b8ef-5ef2dfa5e6f2"},"vehicle_type_id":"4","last_reported":1746173654,"current_range_meters":11600,"station_id":"ce4bgs12rcd13ifvqcag","pricing_plan_id":"cebpf4jnsgd1na2vs0mg"},{"bike_id":"4cc2b011-81f2-4910-af9d-0052ec928815","system_id":"levelo_inurba_marseille","lat":43.30392,"lon":5.42489,"is_reserved":false,"is_disabled":false,"rental_uris":{"android":"levelo://app?vid=4cc2b011-81f2-4910-af9d-0052ec928815","ios":"levelo://app?vid=4cc2b011-81f2-4910-af9d-0052ec928815"},"vehicle_type_id":"4","last_reported":1746173654,"current_range_meters":11600,"station_id":"ce4bhoh2rcd13ifvqh6g","pricing_plan_id":"cebpf4jnsgd1na2vs0mg"},{"bike_id":"17c7c1d2-a259-4818-a692-a67a36ab0cbc","system_id":"levelo_inurba_marseille","lat":43.292999,"lon":5.37465,"is_reserved":false,"is_disabled":false,"rental_uris":{"android":"levelo://app?vid=17c7c1d2-a259-4818-a692-a67a36ab0cbc","ios":"levelo://app?vid=17c7c1d2-a259-4818-a692-a67a36ab0cbc"},"vehicle_type_id":"4","last_reported":1746173654,"current_range_meters":12000,"station_id":"ce4bgi12rcd13ifvqb70","pricing_plan_id":"cebpf4jnsgd1na2vs0mg"},{"bike_id":"0c9a8767-a71f-4ef0-b390-c3b7e9c632a8","system_id":"levelo_inurba_marseille","lat":43.21186,"lon":5.35066,"is_reserved":false,"is_disabled":true,"rental_uris":{"android":"levelo://app?vid=0c9a8767-a71f-4ef0-b390-c3b7e9c632a8","ios":"levelo://app?vid=0c9a8767-a71f-4ef0-b390-c3b7e9c632a8"},"vehicle_type_id":"4","last_reported":1746173654,"current_range_meters":12000,"station_id":"st_cvj6sg6p6f1abm77japg","pricing_plan_id":"cebpf4jnsgd1na2vs0mg"},{"bike_id":"5b91057a-8b2e-4c76-ab2a-a07382ccf275","system_id":"levelo_inurba_marseille","lat":43.27175,"lon":5.40991,"is_reserved":false,"is_disabled":false,"rental_uris":{"android":"levelo://app?vid=5b91057a-8b2e-4c76-ab2a-a07382ccf275","ios":"levelo://app?vid=5b91057a-8b2e-4c76-ab2a-a07382ccf275"},"vehicle_type_id":"4","last_reported":1746173654,"current_range_meters":12000,"station_id":"ce4bhl12rcd13ifvqgf0","pricing_plan_id":"cebpf4jnsgd1na2vs0mg"},{"bike_id":"f9eae9cb-3e30-4f98-9b5d-ec7d6955b1e9","system_id":"levelo_inurba_marseille","lat":43.31695,"lon":5.40458,"is_reserved":false,"is_disabled":false,"rental_uris":{"android":"levelo://app?vid=f9eae9cb-3e30-4f98-9b5d-ec7d6955b1e9","ios":"levelo://app?vid=f9eae9cb-3e30-4f98-9b5d-ec7d6955b1e9"},"vehicle_type_id":"4","last_reported":1746173654,"current_range_meters":12400,"station_id":"ce4bh012rcd13ifvqd00","pricing_plan_id":"cebpf4jnsgd1na2vs0mg"},{"bike_id":"4509a37f-4983-432f-ae08-5c718d59797c","system_id":"levelo_inurba_marseille","lat":43.27493,"lon":5.42455,"is_reserved":false,"is_disabled":false,"rental_uris":{"android":"levelo://app?vid=4509a37f-4983-432f-ae08-5c718d59797c","ios":"levelo://app?vid=4509a37f-4983-432f-ae08-5c718d59797c"},"vehicle_type_id":"4","last_reported":1746173654,"current_range_meters":12400,"station_id":"ce4bhn92rcd13ifvqgrg","pricing_plan_id":"cebpf4jnsgd1na2vs0mg"},{"bike_id":"dfab6cb6-055a-44f0-9d77-f6da3af09402","system_id":"levelo_inurba_marseille","lat":43.28708,"lon":5.39999,"is_reserved":false,"is_disabled":false,"rental_uris":{"android":"levelo://app?vid=dfab6cb6-055a-44f0-9d77-f6da3af09402","ios":"levelo://app?vid=dfab6cb6-055a-44f0-9d77-f6da3af09402"},"vehicle_type_id":"4","last_reported":1746173654,"current_range_meters":12400,"station_id":"ce4bho92rcd13ifvqh3g","pricing_plan_id":"cebpf4jnsgd1na2vs0mg"},{"bike_id":"8a0058ae-d47a-4696-afcc-53a66a14ba3f","system_id":"levelo_inurba_marseille","lat":43.29893,"lon":5.43671,"is_reserved":false,"is_disabled":false,"rental_uris":{"android":"levelo://app?vid=8a0058ae-d47a-4696-afcc-53a66a14ba3f","ios":"levelo://app?vid=8a0058ae-d47a-4696-afcc-53a66a14ba3f"},"vehicle_type_id":"4","last_reported":1746173654,"current_range_meters":12800,"station_id":"ce4bhpp2rcd13ifvqhfg","pricing_plan_id":"cebpf4jnsgd1na2vs0mg"},{"bike_id":"ac132c29-f819-4d62-974c-5c055342f4f0","system_id":"levelo_inurba_marseille","lat":43.21753,"lon":5.34589,"is_reserved":false,"is_disabled":true,"rental_uris":{"android":"levelo://app?vid=ac132c29-f819-4d62-974c-5c055342f4f0","ios":"levelo://app?vid=ac132c29-f819-4d62-974c-5c055342f4f0"},"vehicle_type_id":"4","last_reported":1746173654,"current_range_meters":12800,"station_id":"st_cvj6r9ubvosntc0bgbag","pricing_plan_id":"cebpf4jnsgd1na2vs0mg"},{"bike_id":"034dfea1-8bc2-4dfd-8ec6-f8d4680aa707","system_id":"levelo_inurba_marseille","lat":43.29971,"lon":5.37181,"is_reserved":false,"is_disabled":false,"rental_uris":{"android":"levelo://app?vid=034dfea1-8bc2-4dfd-8ec6-f8d4680aa707","ios":"levelo://app?vid=034dfea1-8bc2-4dfd-8ec6-f8d4680aa707"},"vehicle_type_id":"4","last_reported":1746173654,"current_range_meters":12800,"station_id":"ce4bgr92rcd13ifvqc7g","pricing_plan_id":"cebpf4jnsgd1na2vs0mg"},{"bike_id":"aaa7361e-2aed-4ab5-b86b-b5d18c767d33","system_id":"levelo_inurba_marseille","lat":43.299398,"lon":5.394986,"is_reserved":false,"is_disabled":true,"rental_uris":{"android":"levelo://app?vid=aaa7361e-2aed-4ab5-b86b-b5d18c767d33","ios":"levelo://app?vid=aaa7361e-2aed-4ab5-b86b-b5d18c767d33"},"vehicle_type_id":"4","last_reported":1746173654,"current_range_meters":12800,"station_id":"","pricing_plan_id":"cebpf4jnsgd1na2vs0mg"},{"bike_id":"22a78362-f683-4f77-be7b-47d08d068b31","system_id":"levelo_inurba_marseille","lat":43.31483,"lon":5.37305,"is_reserved":false,"is_disabled":false,"rental_uris":{"android":"levelo://app?vid=22a78362-f683-4f77-be7b-47d08d068b31","ios":"levelo://app?vid=22a78362-f683-4f77-be7b-47d08d068b31"},"vehicle_type_id":"4","last_reported":1746173654,"current_range_meters":12800,"station_id":"ce4bgt12rcd13ifvqcd0","pricing_plan_id":"cebpf4jnsgd1na2vs0mg"},{"bike_id":"7bd7c79e-5190-4568-b102-e02604e33904","system_id":"levelo_inurba_marseille","lat":43.29546,"lon":5.39387,"is_reserved":false,"is_disabled":false,"rental_uris":{"android":"levelo://app?vid=7bd7c79e-5190-4568-b102-e02604e33904","ios":"levelo://app?vid=7bd7c79e-5190-4568-b102-e02604e33904"},"vehicle_type_id":"4","last_reported":1746173654,"current_range_meters":12800,"station_id":"","pricing_plan_id":"cebpf4jnsgd1na2vs0mg"},{"bike_id":"76914292-cf72-4124-a718-b363fb33ee06","system_id":"levelo_inurba_marseille","lat":43.24392,"lon":5.37057,"is_reserved":false,"is_disabled":false,"rental_uris":{"android":"levelo://app?vid=76914292-cf72-4124-a718-b363fb33ee06","ios":"levelo://app?vid=76914292-cf72-4124-a718-b363fb33ee06"},"vehicle_type_id":"4","last_reported":1746173654,"current_range_meters":13600,"station_id":"ce4bhhh2rcd13ifvqfk0","pricing_plan_id":"cebpf4jnsgd1na2vs0mg"},{"bike_id":"13c91cbf-8351-404f-bd01-97f1dd2dbceb","system_id":"levelo_inurba_marseille","lat":43.30598,"lon":5.39365,"is_reserved":false,"is_disabled":false,"rental_uris":{"android":"levelo://app?vid=13c91cbf-8351-404f-bd01-97f1dd2dbceb","ios":"levelo://app?vid=13c91cbf-8351-404f-bd01-97f1dd2dbceb"},"vehicle_type_id":"4","last_reported":1746173654,"current_range_meters":13600,"station_id":"ce4bh0p2rcd13ifvqd80","pricing_plan_id":"cebpf4jnsgd1na2vs0mg"},{"bike_id":"03f5b910-d1d5-49c8-a7a4-67a333daaa2e","system_id":"levelo_inurba_marseille","lat":43.32543,"lon":5.41429,"is_reserved":false,"is_disabled":false,"rental_uris":{"android":"levelo://app?vid=03f5b910-d1d5-49c8-a7a4-67a333daaa2e","ios":"levelo://app?vid=03f5b910-d1d5-49c8-a7a4-67a333daaa2e"},"vehicle_type_id":"4","last_reported":1746173654,"current_range_meters":13600,"station_id":"ce4bhq12rcd13ifvqhhg","pricing_plan_id":"cebpf4jnsgd1na2vs0mg"},{"bike_id":"43ad117d-8a47-47bc-a08e-ddf7b33a74c8","system_id":"levelo_inurba_marseille","lat":43.32364,"lon":5.36751,"is_reserved":false,"is_disabled":false,"rental_uris":{"android":"levelo://app?vid=43ad117d-8a47-47bc-a08e-ddf7b33a74c8","ios":"levelo://app?vid=43ad117d-8a47-47bc-a08e-ddf7b33a74c8"},"vehicle_type_id":"4","last_reported":1746173654,"current_range_meters":13600,"station_id":"ce4bhsh2rcd13ifvqi2g","pricing_plan_id":"cebpf4jnsgd1na2vs0mg"},{"bike_id":"58ab4ed0-a69d-4f56-9f56-2c2bfa67cab2","system_id":"levelo_inurba_marseille","lat":43.28159,"lon":5.42647,"is_reserved":false,"is_disabled":false,"rental_uris":{"android":"levelo://app?vid=58ab4ed0-a69d-4f56-9f56-2c2bfa67cab2","ios":"levelo://app?vid=58ab4ed0-a69d-4f56-9f56-2c2bfa67cab2"},"vehicle_type_id":"4","last_reported":1746173654,"current_range_meters":14000,"station_id":"ce4bhnh2rcd13ifvqgug","pricing_plan_id":"cebpf4jnsgd1na2vs0mg"},{"bike_id":"6f56ecb2-620e-4176-bc24-85528e81f60f","system_id":"levelo_inurba_marseille","lat":43.30909,"lon":5.37187,"is_reserved":false,"is_disabled":false,"rental_uris":{"android":"levelo://app?vid=6f56ecb2-620e-4176-bc24-85528e81f60f","ios":"levelo://app?vid=6f56ecb2-620e-4176-bc24-85528e81f60f"},"vehicle_type_id":"4","last_reported":1746173654,"current_range_meters":14000,"station_id":"ce4bguh2rcd13ifvqckg","pricing_plan_id":"cebpf4jnsgd1na2vs0mg"},{"bike_id":"8a53bf42-acb8-4be5-ad1b-38650f6ba791","system_id":"levelo_inurba_marseille","lat":43.2994,"lon":5.36511,"is_reserved":false,"is_disabled":true,"rental_uris":{"android":"levelo://app?vid=8a53bf42-acb8-4be5-ad1b-38650f6ba791","ios":"levelo://app?vid=8a53bf42-acb8-4be5-ad1b-38650f6ba791"},"vehicle_type_id":"4","last_reported":1746173654,"current_range_meters":14000,"station_id":"ce4bgm92rcd13ifvqbr0","pricing_plan_id":"cebpf4jnsgd1na2vs0mg"},{"bike_id":"8a98d962-578d-444b-a5bb-91a62b69d98d","system_id":"levelo_inurba_marseille","lat":43.21195,"lon":5.35075,"is_reserved":false,"is_disabled":true,"rental_uris":{"android":"levelo://app?vid=8a98d962-578d-444b-a5bb-91a62b69d98d","ios":"levelo://app?vid=8a98d962-578d-444b-a5bb-91a62b69d98d"},"vehicle_type_id":"4","last_reported":1746173654,"current_range_meters":14000,"station_id":"st_cvj6sg6p6f1abm77japg","pricing_plan_id":"cebpf4jnsgd1na2vs0mg"},{"bike_id":"62bedf02-1198-47a7-8230-6d263c571ed2","system_id":"levelo_inurba_marseille","lat":43.28918,"lon":5.38395,"is_reserved":false,"is_disabled":false,"rental_uris":{"android":"levelo://app?vid=62bedf02-1198-47a7-8230-6d263c571ed2","ios":"levelo://app?vid=62bedf02-1198-47a7-8230-6d263c571ed2"},"vehicle_type_id":"4","last_reported":1746173654,"current_range_meters":13600,"station_id":"ce4bh612rcd13ifvqe6g","pricing_plan_id":"cebpf4jnsgd1na2vs0mg"},{"bike_id":"47839ad8-b8c9-4bb6-9289-d3381d78f8e3","system_id":"levelo_inurba_marseille","lat":43.26198,"lon":5.37925,"is_reserved":false,"is_disabled":false,"rental_uris":{"android":"levelo://app?vid=47839ad8-b8c9-4bb6-9289-d3381d78f8e3","ios":"levelo://app?vid=47839ad8-b8c9-4bb6-9289-d3381d78f8e3"},"vehicle_type_id":"4","last_reported":1746173654,"current_range_meters":14000,"station_id":"ce4bhjp2rcd13ifvqg90","pricing_plan_id":"cebpf4jnsgd1na2vs0mg"},{"bike_id":"4be54d1b-8b2a-4b0e-94c0-442b124e7838","system_id":"levelo_inurba_marseille","lat":43.29709,"lon":5.37694,"is_reserved":false,"is_disabled":false,"rental_uris":{"android":"levelo://app?vid=4be54d1b-8b2a-4b0e-94c0-442b124e7838","ios":"levelo://app?vid=4be54d1b-8b2a-4b0e-94c0-442b124e7838"},"vehicle_type_id":"4","last_reported":1746173654,"current_range_meters":14400,"station_id":"ce4bgkh2rcd13ifvqbl0","pricing_plan_id":"cebpf4jnsgd1na2vs0mg"},{"bike_id":"7fd80a67-7a4b-4131-aa61-22a40255ad15","system_id":"levelo_inurba_marseille","lat":43.31728,"lon":5.37782,"is_reserved":false,"is_disabled":true,"rental_uris":{"android":"levelo://app?vid=7fd80a67-7a4b-4131-aa61-22a40255ad15","ios":"levelo://app?vid=7fd80a67-7a4b-4131-aa61-22a40255ad15"},"vehicle_type_id":"4","last_reported":1746173654,"current_range_meters":14400,"station_id":"ce4bgth2rcd13ifvqch0","pricing_plan_id":"cebpf4jnsgd1na2vs0mg"},{"bike_id":"ac0db2d3-6c7b-4d89-b73b-ba0144880336","system_id":"levelo_inurba_marseille","lat":43.31084,"lon":5.424244,"is_reserved":false,"is_disabled":false,"rental_uris":{"android":"levelo://app?vid=ac0db2d3-6c7b-4d89-b73b-ba0144880336","ios":"levelo://app?vid=ac0db2d3-6c7b-4d89-b73b-ba0144880336"},"vehicle_type_id":"4","last_reported":1746173654,"current_range_meters":14400,"station_id":"ce4bhp92rcd13ifvqhag","pricing_plan_id":"cebpf4jnsgd1na2vs0mg"},{"bike_id":"cdffe8fb-5e87-4eea-9d91-cbcec8c875bd","system_id":"levelo_inurba_marseille","lat":43.27499,"lon":5.42456,"is_reserved":false,"is_disabled":true,"rental_uris":{"android":"levelo://app?vid=cdffe8fb-5e87-4eea-9d91-cbcec8c875bd","ios":"levelo://app?vid=cdffe8fb-5e87-4eea-9d91-cbcec8c875bd"},"vehicle_type_id":"4","last_reported":1746173654,"current_range_meters":14400,"station_id":"ce4bhn92rcd13ifvqgrg","pricing_plan_id":"cebpf4jnsgd1na2vs0mg"},{"bike_id":"924ebe6f-d3da-412d-b51d-9e4065478efe","system_id":"levelo_inurba_marseille","lat":43.32541,"lon":5.41439,"is_reserved":false,"is_disabled":false,"rental_uris":{"android":"levelo://app?vid=924ebe6f-d3da-412d-b51d-9e4065478efe","ios":"levelo://app?vid=924ebe6f-d3da-412d-b51d-9e4065478efe"},"vehicle_type_id":"4","last_reported":1746173654,"current_range_meters":14800,"station_id":"ce4bhq12rcd13ifvqhhg","pricing_plan_id":"cebpf4jnsgd1na2vs0mg"},{"bike_id":"43570242-c8cc-43fc-a26a-28bd415865fa","system_id":"levelo_inurba_marseille","lat":43.32459,"lon":5.36574,"is_reserved":false,"is_disabled":false,"rental_uris":{"android":"levelo://app?vid=43570242-c8cc-43fc-a26a-28bd415865fa","ios":"levelo://app?vid=43570242-c8cc-43fc-a26a-28bd415865fa"},"vehicle_type_id":"4","last_reported":1746173654,"current_range_meters":14800,"station_id":"ce4bhs12rcd13ifvqhvg","pricing_plan_id":"cebpf4jnsgd1na2vs0mg"},{"bike_id":"1b0835e8-9df9-4bbc-a3c9-6625b6f8ef1f","system_id":"levelo_inurba_marseille","lat":43.30313,"lon":5.39209,"is_reserved":false,"is_disabled":false,"rental_uris":{"android":"levelo://app?vid=1b0835e8-9df9-4bbc-a3c9-6625b6f8ef1f","ios":"levelo://app?vid=1b0835e8-9df9-4bbc-a3c9-6625b6f8ef1f"},"vehicle_type_id":"4","last_reported":1746173654,"current_range_meters":14400,"station_id":"ce4bgkh2rcd13ifvqbk0","pricing_plan_id":"cebpf4jnsgd1na2vs0mg"},{"bike_id":"a9960abe-c106-4119-9876-82478185e949","system_id":"levelo_inurba_marseille","lat":43.23147,"lon":5.4372,"is_reserved":false,"is_disabled":false,"rental_uris":{"android":"levelo://app?vid=a9960abe-c106-4119-9876-82478185e949","ios":"levelo://app?vid=a9960abe-c106-4119-9876-82478185e949"},"vehicle_type_id":"4","last_reported":1746173654,"current_range_meters":15200,"station_id":"ce4bhmp2rcd13ifvqgog","pricing_plan_id":"cebpf4jnsgd1na2vs0mg"},{"bike_id":"8d98f797-09b2-464c-bda2-6594a6df8caa","system_id":"levelo_inurba_marseille","lat":43.27368,"lon":5.36262,"is_reserved":false,"is_disabled":false,"rental_uris":{"android":"levelo://app?vid=8d98f797-09b2-464c-bda2-6594a6df8caa","ios":"levelo://app?vid=8d98f797-09b2-464c-bda2-6594a6df8caa"},"vehicle_type_id":"4","last_reported":1746173654,"current_range_meters":15200,"station_id":"ce4bhbh2rcd13ifvqeo0","pricing_plan_id":"cebpf4jnsgd1na2vs0mg"},{"bike_id":"da658829-0fa2-41f3-ad48-9d30aae08333","system_id":"levelo_inurba_marseille","lat":43.30548,"lon":5.39935,"is_reserved":false,"is_disabled":false,"rental_uris":{"android":"levelo://app?vid=da658829-0fa2-41f3-ad48-9d30aae08333","ios":"levelo://app?vid=da658829-0fa2-41f3-ad48-9d30aae08333"},"vehicle_type_id":"4","last_reported":1746173654,"current_range_meters":16000,"station_id":"","pricing_plan_id":"cebpf4jnsgd1na2vs0mg"},{"bike_id":"8b3ec479-d8ee-41d6-be01-673e6894d710","system_id":"levelo_inurba_marseille","lat":43.29037,"lon":5.40057,"is_reserved":false,"is_disabled":false,"rental_uris":{"android":"levelo://app?vid=8b3ec479-d8ee-41d6-be01-673e6894d710","ios":"levelo://app?vid=8b3ec479-d8ee-41d6-be01-673e6894d710"},"vehicle_type_id":"4","last_reported":1746173654,"current_range_meters":16000,"station_id":"","pricing_plan_id":"cebpf4jnsgd1na2vs0mg"},{"bike_id":"bc8a5da5-6ddc-4873-83ce-d7ba240ecae6","system_id":"levelo_inurba_marseille","lat":43.29707,"lon":5.37693,"is_reserved":false,"is_disabled":false,"rental_uris":{"android":"levelo://app?vid=bc8a5da5-6ddc-4873-83ce-d7ba240ecae6","ios":"levelo://app?vid=bc8a5da5-6ddc-4873-83ce-d7ba240ecae6"},"vehicle_type_id":"4","last_reported":1746173654,"current_range_meters":16000,"station_id":"ce4bgkh2rcd13ifvqbl0","pricing_plan_id":"cebpf4jnsgd1na2vs0mg"},{"bike_id":"fc4c4e12-8bd1-4978-b004-eee184fc087d","system_id":"levelo_inurba_marseille","lat":43.31717,"lon":5.40468,"is_reserved":false,"is_disabled":false,"rental_uris":{"android":"levelo://app?vid=fc4c4e12-8bd1-4978-b004-eee184fc087d","ios":"levelo://app?vid=fc4c4e12-8bd1-4978-b004-eee184fc087d"},"vehicle_type_id":"4","last_reported":1746173654,"current_range_meters":16000,"station_id":"ce4bh012rcd13ifvqd00","pricing_plan_id":"cebpf4jnsgd1na2vs0mg"},{"bike_id":"7512aee9-4fed-428c-81c8-bc4bbc83f5ae","system_id":"levelo_inurba_marseille","lat":43.2721,"lon":5.39196,"is_reserved":false,"is_disabled":true,"rental_uris":{"android":"levelo://app?vid=7512aee9-4fed-428c-81c8-bc4bbc83f5ae","ios":"levelo://app?vid=7512aee9-4fed-428c-81c8-bc4bbc83f5ae"},"vehicle_type_id":"4","last_reported":1746173654,"current_range_meters":16400,"station_id":"ce4bhhp2rcd13ifvqfm0","pricing_plan_id":"cebpf4jnsgd1na2vs0mg"},{"bike_id":"36bdbfab-7ee6-4d1d-aeec-1052e197ac06","system_id":"levelo_inurba_marseille","lat":43.31222,"lon":5.36845,"is_reserved":false,"is_disabled":false,"rental_uris":{"android":"levelo://app?vid=36bdbfab-7ee6-4d1d-aeec-1052e197ac06","ios":"levelo://app?vid=36bdbfab-7ee6-4d1d-aeec-1052e197ac06"},"vehicle_type_id":"4","last_reported":1746173654,"current_range_meters":16400,"station_id":"ce4bgl92rcd13ifvqbq0","pricing_plan_id":"cebpf4jnsgd1na2vs0mg"},{"bike_id":"89b81589-8611-4d99-b503-943f267f9a35","system_id":"levelo_inurba_marseille","lat":43.24174,"lon":5.36401,"is_reserved":false,"is_disabled":false,"rental_uris":{"android":"levelo://app?vid=89b81589-8611-4d99-b503-943f267f9a35","ios":"levelo://app?vid=89b81589-8611-4d99-b503-943f267f9a35"},"vehicle_type_id":"4","last_reported":1746173654,"current_range_meters":16400,"station_id":"cpo36qri1sfpv3e86is0","pricing_plan_id":"cebpf4jnsgd1na2vs0mg"},{"bike_id":"00cada2a-1a3f-47de-bb15-d23ac0bf4f36","system_id":"levelo_inurba_marseille","lat":43.30883,"lon":5.39658,"is_reserved":false,"is_disabled":false,"rental_uris":{"android":"levelo://app?vid=00cada2a-1a3f-47de-bb15-d23ac0bf4f36","ios":"levelo://app?vid=00cada2a-1a3f-47de-bb15-d23ac0bf4f36"},"vehicle_type_id":"4","last_reported":1746173654,"current_range_meters":16000,"station_id":"ce4bh012rcd13ifvqcv0","pricing_plan_id":"cebpf4jnsgd1na2vs0mg"},{"bike_id":"9043f584-538a-49df-827f-5cd3640cf829","system_id":"levelo_inurba_marseille","lat":43.23179,"lon":5.39985,"is_reserved":false,"is_disabled":false,"rental_uris":{"android":"levelo://app?vid=9043f584-538a-49df-827f-5cd3640cf829","ios":"levelo://app?vid=9043f584-538a-49df-827f-5cd3640cf829"},"vehicle_type_id":"4","last_reported":1746173654,"current_range_meters":16400,"station_id":"ce4bhn12rcd13ifvqgqg","pricing_plan_id":"cebpf4jnsgd1na2vs0mg"},{"bike_id":"f451153b-ef9f-4f9d-afc0-4e912b0e1f6f","system_id":"levelo_inurba_marseille","lat":43.31362,"lon":5.36729,"is_reserved":false,"is_disabled":false,"rental_uris":{"android":"levelo://app?vid=f451153b-ef9f-4f9d-afc0-4e912b0e1f6f","ios":"levelo://app?vid=f451153b-ef9f-4f9d-afc0-4e912b0e1f6f"},"vehicle_type_id":"4","last_reported":1746173654,"current_range_meters":16800,"station_id":"ce4bgr92rcd13ifvqc6g","pricing_plan_id":"cebpf4jnsgd1na2vs0mg"},{"bike_id":"14498fc5-0949-4dab-96dd-86f8d2d8b6ad","system_id":"levelo_inurba_marseille","lat":43.31085,"lon":5.42435,"is_reserved":false,"is_disabled":true,"rental_uris":{"android":"levelo://app?vid=14498fc5-0949-4dab-96dd-86f8d2d8b6ad","ios":"levelo://app?vid=14498fc5-0949-4dab-96dd-86f8d2d8b6ad"},"vehicle_type_id":"4","last_reported":1746173654,"current_range_meters":16800,"station_id":"ce4bhp92rcd13ifvqhag","pricing_plan_id":"cebpf4jnsgd1na2vs0mg"},{"bike_id":"5fd15870-1b92-4efa-95ea-745f6d882214","system_id":"levelo_inurba_marseille","lat":43.325545,"lon":5.414575,"is_reserved":false,"is_disabled":false,"rental_uris":{"android":"levelo://app?vid=5fd15870-1b92-4efa-95ea-745f6d882214","ios":"levelo://app?vid=5fd15870-1b92-4efa-95ea-745f6d882214"},"vehicle_type_id":"4","last_reported":1746173654,"current_range_meters":16800,"station_id":"ce4bhq12rcd13ifvqhhg","pricing_plan_id":"cebpf4jnsgd1na2vs0mg"},{"bike_id":"9b3b9852-5174-4499-99ad-752730892d54","system_id":"levelo_inurba_marseille","lat":43.2175,"lon":5.346,"is_reserved":false,"is_disabled":false,"rental_uris":{"android":"levelo://app?vid=9b3b9852-5174-4499-99ad-752730892d54","ios":"levelo://app?vid=9b3b9852-5174-4499-99ad-752730892d54"},"vehicle_type_id":"4","last_reported":1746173654,"current_range_meters":16800,"station_id":"st_cvj6r9ubvosntc0bgbag","pricing_plan_id":"cebpf4jnsgd1na2vs0mg"},{"bike_id":"10a3323d-020d-4039-b625-5454e2604032","system_id":"levelo_inurba_marseille","lat":43.30538,"lon":5.36529,"is_reserved":false,"is_disabled":false,"rental_uris":{"android":"levelo://app?vid=10a3323d-020d-4039-b625-5454e2604032","ios":"levelo://app?vid=10a3323d-020d-4039-b625-5454e2604032"},"vehicle_type_id":"4","last_reported":1746173654,"current_range_meters":16400,"station_id":"ce4bgs12rcd13ifvqcag","pricing_plan_id":"cebpf4jnsgd1na2vs0mg"},{"bike_id":"5b11501a-d5e6-494c-ba57-923a550c3b67","system_id":"levelo_inurba_marseille","lat":43.2931,"lon":5.37171,"is_reserved":false,"is_disabled":false,"rental_uris":{"android":"levelo://app?vid=5b11501a-d5e6-494c-ba57-923a550c3b67","ios":"levelo://app?vid=5b11501a-d5e6-494c-ba57-923a550c3b67"},"vehicle_type_id":"4","last_reported":1746173654,"current_range_meters":17200,"station_id":"ce4bgh92rcd13ifvqb40","pricing_plan_id":"cebpf4jnsgd1na2vs0mg"},{"bike_id":"17026b53-d4a6-40c1-83a3-b183b5a69d3f","system_id":"levelo_inurba_marseille","lat":43.27318,"lon":5.39049,"is_reserved":false,"is_disabled":false,"rental_uris":{"android":"levelo://app?vid=17026b53-d4a6-40c1-83a3-b183b5a69d3f","ios":"levelo://app?vid=17026b53-d4a6-40c1-83a3-b183b5a69d3f"},"vehicle_type_id":"4","last_reported":1746173654,"current_range_meters":17200,"station_id":"ce4bhgp2rcd13ifvqfe0","pricing_plan_id":"cebpf4jnsgd1na2vs0mg"},{"bike_id":"124f45f5-9c1c-4119-89e9-f4f5048abe13","system_id":"levelo_inurba_marseille","lat":43.29526,"lon":5.39401,"is_reserved":false,"is_disabled":false,"rental_uris":{"android":"levelo://app?vid=124f45f5-9c1c-4119-89e9-f4f5048abe13","ios":"levelo://app?vid=124f45f5-9c1c-4119-89e9-f4f5048abe13"},"vehicle_type_id":"4","last_reported":1746173654,"current_range_meters":17600,"station_id":"ce4bh292rcd13ifvqdf0","pricing_plan_id":"cebpf4jnsgd1na2vs0mg"},{"bike_id":"9542f73e-e71e-4f94-acdc-2143ba209098","system_id":"levelo_inurba_marseille","lat":43.29678,"lon":5.37281,"is_reserved":false,"is_disabled":false,"rental_uris":{"android":"levelo://app?vid=9542f73e-e71e-4f94-acdc-2143ba209098","ios":"levelo://app?vid=9542f73e-e71e-4f94-acdc-2143ba209098"},"vehicle_type_id":"4","last_reported":1746173654,"current_range_meters":17600,"station_id":"ce4bgk12rcd13ifvqbj0","pricing_plan_id":"cebpf4jnsgd1na2vs0mg"},{"bike_id":"257a3c78-b9d0-47f4-b131-12078df227b4","system_id":"levelo_inurba_marseille","lat":43.30464,"lon":5.37909,"is_reserved":false,"is_disabled":true,"rental_uris":{"android":"levelo://app?vid=257a3c78-b9d0-47f4-b131-12078df227b4","ios":"levelo://app?vid=257a3c78-b9d0-47f4-b131-12078df227b4"},"vehicle_type_id":"4","last_reported":1746173654,"current_range_meters":17600,"station_id":"ce4bgup2rcd13ifvqcn0","pricing_plan_id":"cebpf4jnsgd1na2vs0mg"},{"bike_id":"cec76fe5-dc6d-4233-b721-de3da35b1841","system_id":"levelo_inurba_marseille","lat":43.30151,"lon":5.38087,"is_reserved":false,"is_disabled":false,"rental_uris":{"android":"levelo://app?vid=cec76fe5-dc6d-4233-b721-de3da35b1841","ios":"levelo://app?vid=cec76fe5-dc6d-4233-b721-de3da35b1841"},"vehicle_type_id":"4","last_reported":1746173654,"current_range_meters":17600,"station_id":"ce4bgjp2rcd13ifvqbh0","pricing_plan_id":"cebpf4jnsgd1na2vs0mg"},{"bike_id":"a5da6a65-99c1-4bec-a49d-d425f166bc1a","system_id":"levelo_inurba_marseille","lat":43.30952,"lon":5.39031,"is_reserved":false,"is_disabled":false,"rental_uris":{"android":"levelo://app?vid=a5da6a65-99c1-4bec-a49d-d425f166bc1a","ios":"levelo://app?vid=a5da6a65-99c1-4bec-a49d-d425f166bc1a"},"vehicle_type_id":"4","last_reported":1746173654,"current_range_meters":17600,"station_id":"ce4bgup2rcd13ifvqco0","pricing_plan_id":"cebpf4jnsgd1na2vs0mg"},{"bike_id":"e3ab53ea-9d4b-43ab-befe-62153a15b856","system_id":"levelo_inurba_marseille","lat":43.33607,"lon":5.41033,"is_reserved":false,"is_disabled":false,"rental_uris":{"android":"levelo://app?vid=e3ab53ea-9d4b-43ab-befe-62153a15b856","ios":"levelo://app?vid=e3ab53ea-9d4b-43ab-befe-62153a15b856"},"vehicle_type_id":"4","last_reported":1746173654,"current_range_meters":17600,"station_id":"ce4bhqh2rcd13ifvqhmg","pricing_plan_id":"cebpf4jnsgd1na2vs0mg"},{"bike_id":"121322ff-1b29-4a85-88c0-1ab0c6c2dfb6","system_id":"levelo_inurba_marseille","lat":43.32477,"lon":5.36547,"is_reserved":false,"is_disabled":false,"rental_uris":{"android":"levelo://app?vid=121322ff-1b29-4a85-88c0-1ab0c6c2dfb6","ios":"levelo://app?vid=121322ff-1b29-4a85-88c0-1ab0c6c2dfb6"},"vehicle_type_id":"4","last_reported":1746173654,"current_range_meters":17600,"station_id":"ce4bhs12rcd13ifvqhvg","pricing_plan_id":"cebpf4jnsgd1na2vs0mg"},{"bike_id":"68d9e7b7-7c55-4cb2-851e-ccf1e1c10c57","system_id":"levelo_inurba_marseille","lat":43.24067,"lon":5.37751,"is_reserved":false,"is_disabled":false,"rental_uris":{"android":"levelo://app?vid=68d9e7b7-7c55-4cb2-851e-ccf1e1c10c57","ios":"levelo://app?vid=68d9e7b7-7c55-4cb2-851e-ccf1e1c10c57"},"vehicle_type_id":"4","last_reported":1746173654,"current_range_meters":18000,"station_id":"ce4bhnp2rcd13ifvqgvg","pricing_plan_id":"cebpf4jnsgd1na2vs0mg"},{"bike_id":"e222f8c9-3bac-4e42-8a25-82ab54564db0","system_id":"levelo_inurba_marseille","lat":43.27058,"lon":5.40264,"is_reserved":false,"is_disabled":false,"rental_uris":{"android":"levelo://app?vid=e222f8c9-3bac-4e42-8a25-82ab54564db0","ios":"levelo://app?vid=e222f8c9-3bac-4e42-8a25-82ab54564db0"},"vehicle_type_id":"4","last_reported":1746173654,"current_range_meters":18000,"station_id":"ce4bhk92rcd13ifvqgc0","pricing_plan_id":"cebpf4jnsgd1na2vs0mg"},{"bike_id":"2cc8decf-01fe-4524-9a20-e8b8f9d20a85","system_id":"levelo_inurba_marseille","lat":43.28344,"lon":5.38097,"is_reserved":false,"is_disabled":false,"rental_uris":{"android":"levelo://app?vid=2cc8decf-01fe-4524-9a20-e8b8f9d20a85","ios":"levelo://app?vid=2cc8decf-01fe-4524-9a20-e8b8f9d20a85"},"vehicle_type_id":"4","last_reported":1746173654,"current_range_meters":17600,"station_id":"ce4bh412rcd13ifvqdr0","pricing_plan_id":"cebpf4jnsgd1na2vs0mg"},{"bike_id":"f3ebaa48-31ea-4176-aeb4-d904000b49a1","system_id":"levelo_inurba_marseille","lat":43.21753,"lon":5.34603,"is_reserved":false,"is_disabled":false,"rental_uris":{"android":"levelo://app?vid=f3ebaa48-31ea-4176-aeb4-d904000b49a1","ios":"levelo://app?vid=f3ebaa48-31ea-4176-aeb4-d904000b49a1"},"vehicle_type_id":"4","last_reported":1746173654,"current_range_meters":18000,"station_id":"st_cvj6r9ubvosntc0bgbag","pricing_plan_id":"cebpf4jnsgd1na2vs0mg"},{"bike_id":"f89fcb80-17ad-413b-ae91-9ca7544df656","system_id":"levelo_inurba_marseille","lat":43.24166,"lon":5.39721,"is_reserved":false,"is_disabled":false,"rental_uris":{"android":"levelo://app?vid=f89fcb80-17ad-413b-ae91-9ca7544df656","ios":"levelo://app?vid=f89fcb80-17ad-413b-ae91-9ca7544df656"},"vehicle_type_id":"4","last_reported":1746173654,"current_range_meters":18000,"station_id":"ce4bhn12rcd13ifvqgpg","pricing_plan_id":"cebpf4jnsgd1na2vs0mg"},{"bike_id":"93649171-4459-4782-b5fe-da9af4a333dc","system_id":"levelo_inurba_marseille","lat":43.23581,"lon":5.40342,"is_reserved":false,"is_disabled":false,"rental_uris":{"android":"levelo://app?vid=93649171-4459-4782-b5fe-da9af4a333dc","ios":"levelo://app?vid=93649171-4459-4782-b5fe-da9af4a333dc"},"vehicle_type_id":"4","last_reported":1746173654,"current_range_meters":18000,"station_id":"","pricing_plan_id":"cebpf4jnsgd1na2vs0mg"},{"bike_id":"fe583f86-fecd-41c3-bd8b-8ba8ebc7db3d","system_id":"levelo_inurba_marseille","lat":43.24081,"lon":5.37748,"is_reserved":false,"is_disabled":false,"rental_uris":{"android":"levelo://app?vid=fe583f86-fecd-41c3-bd8b-8ba8ebc7db3d","ios":"levelo://app?vid=fe583f86-fecd-41c3-bd8b-8ba8ebc7db3d"},"vehicle_type_id":"4","last_reported":1746173654,"current_range_meters":18000,"station_id":"ce4bhnp2rcd13ifvqgvg","pricing_plan_id":"cebpf4jnsgd1na2vs0mg"},{"bike_id":"31206848-7110-4ee4-8d7d-9489a9d1c071","system_id":"levelo_inurba_marseille","lat":43.30143,"lon":5.38086,"is_reserved":false,"is_disabled":false,"rental_uris":{"android":"levelo://app?vid=31206848-7110-4ee4-8d7d-9489a9d1c071","ios":"levelo://app?vid=31206848-7110-4ee4-8d7d-9489a9d1c071"},"vehicle_type_id":"4","last_reported":1746173654,"current_range_meters":18800,"station_id":"ce4bgjp2rcd13ifvqbh0","pricing_plan_id":"cebpf4jnsgd1na2vs0mg"},{"bike_id":"fb970dc0-2974-4aad-b2a9-f4298230f16a","system_id":"levelo_inurba_marseille","lat":43.23128,"lon":5.43732,"is_reserved":false,"is_disabled":false,"rental_uris":{"android":"levelo://app?vid=fb970dc0-2974-4aad-b2a9-f4298230f16a","ios":"levelo://app?vid=fb970dc0-2974-4aad-b2a9-f4298230f16a"},"vehicle_type_id":"4","last_reported":1746173654,"current_range_meters":18800,"station_id":"ce4bhmp2rcd13ifvqgog","pricing_plan_id":"cebpf4jnsgd1na2vs0mg"},{"bike_id":"597372d1-e377-4b1d-87c7-63453be0db72","system_id":"levelo_inurba_marseille","lat":43.29268,"lon":5.36851,"is_reserved":false,"is_disabled":false,"rental_uris":{"android":"levelo://app?vid=597372d1-e377-4b1d-87c7-63453be0db72","ios":"levelo://app?vid=597372d1-e377-4b1d-87c7-63453be0db72"},"vehicle_type_id":"4","last_reported":1746173654,"current_range_meters":18800,"station_id":"ce4bhbp2rcd13ifvqesg","pricing_plan_id":"cebpf4jnsgd1na2vs0mg"},{"bike_id":"efaf1b5c-26d3-40d3-92e9-7f3883b8db84","system_id":"levelo_inurba_marseille","lat":43.3172,"lon":5.3768,"is_reserved":false,"is_disabled":false,"rental_uris":{"android":"levelo://app?vid=efaf1b5c-26d3-40d3-92e9-7f3883b8db84","ios":"levelo://app?vid=efaf1b5c-26d3-40d3-92e9-7f3883b8db84"},"vehicle_type_id":"4","last_reported":1746173654,"current_range_meters":18800,"station_id":"ce4bgth2rcd13ifvqch0","pricing_plan_id":"cebpf4jnsgd1na2vs0mg"},{"bike_id":"545175bd-dc0d-49d1-bc39-a819c7059918","system_id":"levelo_inurba_marseille","lat":43.3055,"lon":5.36696,"is_reserved":false,"is_disabled":false,"rental_uris":{"android":"levelo://app?vid=545175bd-dc0d-49d1-bc39-a819c7059918","ios":"levelo://app?vid=545175bd-dc0d-49d1-bc39-a819c7059918"},"vehicle_type_id":"4","last_reported":1746173654,"current_range_meters":18800,"station_id":"ce4bgrp2rcd13ifvqc9g","pricing_plan_id":"cebpf4jnsgd1na2vs0mg"},{"bike_id":"eb8959cd-b002-41ac-9086-13f67f9a0bf4","system_id":"levelo_inurba_marseille","lat":43.25926,"lon":5.40911,"is_reserved":false,"is_disabled":false,"rental_uris":{"android":"levelo://app?vid=eb8959cd-b002-41ac-9086-13f67f9a0bf4","ios":"levelo://app?vid=eb8959cd-b002-41ac-9086-13f67f9a0bf4"},"vehicle_type_id":"4","last_reported":1746173654,"current_range_meters":18800,"station_id":"ce4bhm92rcd13ifvqglg","pricing_plan_id":"cebpf4jnsgd1na2vs0mg"},{"bike_id":"af1587dc-5529-49dd-abeb-79c445f1dbcf","system_id":"levelo_inurba_marseille","lat":43.286177,"lon":5.351032,"is_reserved":false,"is_disabled":false,"rental_uris":{"android":"levelo://app?vid=af1587dc-5529-49dd-abeb-79c445f1dbcf","ios":"levelo://app?vid=af1587dc-5529-49dd-abeb-79c445f1dbcf"},"vehicle_type_id":"4","last_reported":1746173654,"current_range_meters":19200,"station_id":"ce4bhch2rcd13ifvqeug","pricing_plan_id":"cebpf4jnsgd1na2vs0mg"},{"bike_id":"8351fa19-aa0e-4318-b95b-f1fb285920d9","system_id":"levelo_inurba_marseille","lat":43.2293,"lon":5.35385,"is_reserved":false,"is_disabled":false,"rental_uris":{"android":"levelo://app?vid=8351fa19-aa0e-4318-b95b-f1fb285920d9","ios":"levelo://app?vid=8351fa19-aa0e-4318-b95b-f1fb285920d9"},"vehicle_type_id":"4","last_reported":1746173654,"current_range_meters":19200,"station_id":"cpo3532slgdg3j2ikp40","pricing_plan_id":"cebpf4jnsgd1na2vs0mg"},{"bike_id":"9cea302f-fbfb-44ce-9408-b3b646f28bda","system_id":"levelo_inurba_marseille","lat":43.29018,"lon":5.38126,"is_reserved":false,"is_disabled":false,"rental_uris":{"android":"levelo://app?vid=9cea302f-fbfb-44ce-9408-b3b646f28bda","ios":"levelo://app?vid=9cea302f-fbfb-44ce-9408-b3b646f28bda"},"vehicle_type_id":"4","last_reported":1746173654,"current_range_meters":19200,"station_id":"ce4bh4p2rcd13ifvqe1g","pricing_plan_id":"cebpf4jnsgd1na2vs0mg"},{"bike_id":"f7e54387-0e4d-4fd4-ac73-b1f9be8247e8","system_id":"levelo_inurba_marseille","lat":43.29267,"lon":5.36844,"is_reserved":false,"is_disabled":false,"rental_uris":{"android":"levelo://app?vid=f7e54387-0e4d-4fd4-ac73-b1f9be8247e8","ios":"levelo://app?vid=f7e54387-0e4d-4fd4-ac73-b1f9be8247e8"},"vehicle_type_id":"4","last_reported":1746173654,"current_range_meters":19600,"station_id":"ce4bhbp2rcd13ifvqesg","pricing_plan_id":"cebpf4jnsgd1na2vs0mg"},{"bike_id":"75ffbcad-1aec-45f9-a1dd-462c42f65703","system_id":"levelo_inurba_marseille","lat":43.28257,"lon":5.35062,"is_reserved":false,"is_disabled":false,"rental_uris":{"android":"levelo://app?vid=75ffbcad-1aec-45f9-a1dd-462c42f65703","ios":"levelo://app?vid=75ffbcad-1aec-45f9-a1dd-462c42f65703"},"vehicle_type_id":"4","last_reported":1746173654,"current_range_meters":19600,"station_id":"ce4bhbp2rcd13ifvqerg","pricing_plan_id":"cebpf4jnsgd1na2vs0mg"},{"bike_id":"c069ce18-79b3-4478-8c0f-3948d9aedd09","system_id":"levelo_inurba_marseille","lat":43.29279,"lon":5.36839,"is_reserved":false,"is_disabled":false,"rental_uris":{"android":"levelo://app?vid=c069ce18-79b3-4478-8c0f-3948d9aedd09","ios":"levelo://app?vid=c069ce18-79b3-4478-8c0f-3948d9aedd09"},"vehicle_type_id":"4","last_reported":1746173654,"current_range_meters":19600,"station_id":"ce4bhbp2rcd13ifvqesg","pricing_plan_id":"cebpf4jnsgd1na2vs0mg"},{"bike_id":"822c093c-1042-4bbf-b6e0-9d6a4c4c77ec","system_id":"levelo_inurba_marseille","lat":43.25581,"lon":5.3823,"is_reserved":false,"is_disabled":false,"rental_uris":{"android":"levelo://app?vid=822c093c-1042-4bbf-b6e0-9d6a4c4c77ec","ios":"levelo://app?vid=822c093c-1042-4bbf-b6e0-9d6a4c4c77ec"},"vehicle_type_id":"4","last_reported":1746173654,"current_range_meters":20000,"station_id":"ce4bhih2rcd13ifvqfs0","pricing_plan_id":"cebpf4jnsgd1na2vs0mg"},{"bike_id":"fa8b55e8-446a-4324-87f4-1982d785d70b","system_id":"levelo_inurba_marseille","lat":43.30945,"lon":5.39033,"is_reserved":false,"is_disabled":false,"rental_uris":{"android":"levelo://app?vid=fa8b55e8-446a-4324-87f4-1982d785d70b","ios":"levelo://app?vid=fa8b55e8-446a-4324-87f4-1982d785d70b"},"vehicle_type_id":"4","last_reported":1746173654,"current_range_meters":20000,"station_id":"ce4bgup2rcd13ifvqco0","pricing_plan_id":"cebpf4jnsgd1na2vs0mg"},{"bike_id":"7174effe-8f81-4b7a-8ac6-474bc32b4ff1","system_id":"levelo_inurba_marseille","lat":43.231913,"lon":5.355539,"is_reserved":false,"is_disabled":false,"rental_uris":{"android":"levelo://app?vid=7174effe-8f81-4b7a-8ac6-474bc32b4ff1","ios":"levelo://app?vid=7174effe-8f81-4b7a-8ac6-474bc32b4ff1"},"vehicle_type_id":"4","last_reported":1746173654,"current_range_meters":19600,"station_id":"ce4bhu92rcd13ifvqi70","pricing_plan_id":"cebpf4jnsgd1na2vs0mg"},{"bike_id":"7d1a9982-56f7-4afa-9eb5-6a3308abcc10","system_id":"levelo_inurba_marseille","lat":43.31696,"lon":5.40456,"is_reserved":false,"is_disabled":false,"rental_uris":{"android":"levelo://app?vid=7d1a9982-56f7-4afa-9eb5-6a3308abcc10","ios":"levelo://app?vid=7d1a9982-56f7-4afa-9eb5-6a3308abcc10"},"vehicle_type_id":"4","last_reported":1746173654,"current_range_meters":20400,"station_id":"ce4bh012rcd13ifvqd00","pricing_plan_id":"cebpf4jnsgd1na2vs0mg"},{"bike_id":"bc9b10eb-a079-4f0d-857a-d487abb50ec2","system_id":"levelo_inurba_marseille","lat":43.2762,"lon":5.36151,"is_reserved":false,"is_disabled":true,"rental_uris":{"android":"levelo://app?vid=bc9b10eb-a079-4f0d-857a-d487abb50ec2","ios":"levelo://app?vid=bc9b10eb-a079-4f0d-857a-d487abb50ec2"},"vehicle_type_id":"4","last_reported":1746173654,"current_range_meters":20400,"station_id":"ce4bgj92rcd13ifvqbe0","pricing_plan_id":"cebpf4jnsgd1na2vs0mg"},{"bike_id":"f1094f93-fd43-4c0c-8aa6-ebefd9701c01","system_id":"levelo_inurba_marseille","lat":43.302708,"lon":5.377048,"is_reserved":false,"is_disabled":false,"rental_uris":{"android":"levelo://app?vid=f1094f93-fd43-4c0c-8aa6-ebefd9701c01","ios":"levelo://app?vid=f1094f93-fd43-4c0c-8aa6-ebefd9701c01"},"vehicle_type_id":"4","last_reported":1746173654,"current_range_meters":20400,"station_id":"ce4bguh2rcd13ifvqcj0","pricing_plan_id":"cebpf4jnsgd1na2vs0mg"},{"bike_id":"839fc7d7-76ae-467e-a8c3-aa5457eaa898","system_id":"levelo_inurba_marseille","lat":43.28267,"lon":5.35055,"is_reserved":false,"is_disabled":false,"rental_uris":{"android":"levelo://app?vid=839fc7d7-76ae-467e-a8c3-aa5457eaa898","ios":"levelo://app?vid=839fc7d7-76ae-467e-a8c3-aa5457eaa898"},"vehicle_type_id":"4","last_reported":1746173654,"current_range_meters":20800,"station_id":"ce4bhbp2rcd13ifvqerg","pricing_plan_id":"cebpf4jnsgd1na2vs0mg"},{"bike_id":"ddbdbfb7-aa3a-45fd-86fa-d0dfee8cc80f","system_id":"levelo_inurba_marseille","lat":43.30134,"lon":5.37419,"is_reserved":false,"is_disabled":false,"rental_uris":{"android":"levelo://app?vid=ddbdbfb7-aa3a-45fd-86fa-d0dfee8cc80f","ios":"levelo://app?vid=ddbdbfb7-aa3a-45fd-86fa-d0dfee8cc80f"},"vehicle_type_id":"4","last_reported":1746173654,"current_range_meters":20800,"station_id":"ce4bgs92rcd13ifvqcc0","pricing_plan_id":"cebpf4jnsgd1na2vs0mg"},{"bike_id":"e35f572d-fc98-4676-a2c2-b6fab78a24cc","system_id":"levelo_inurba_marseille","lat":43.21744,"lon":5.346,"is_reserved":false,"is_disabled":false,"rental_uris":{"android":"levelo://app?vid=e35f572d-fc98-4676-a2c2-b6fab78a24cc","ios":"levelo://app?vid=e35f572d-fc98-4676-a2c2-b6fab78a24cc"},"vehicle_type_id":"4","last_reported":1746173654,"current_range_meters":20800,"station_id":"st_cvj6r9ubvosntc0bgbag","pricing_plan_id":"cebpf4jnsgd1na2vs0mg"},{"bike_id":"fd83b218-4b48-42ed-8eb2-460c741f0d43","system_id":"levelo_inurba_marseille","lat":43.29834,"lon":5.36261,"is_reserved":false,"is_disabled":false,"rental_uris":{"android":"levelo://app?vid=fd83b218-4b48-42ed-8eb2-460c741f0d43","ios":"levelo://app?vid=fd83b218-4b48-42ed-8eb2-460c741f0d43"},"vehicle_type_id":"4","last_reported":1746173654,"current_range_meters":20800,"station_id":"ce4bgpp2rcd13ifvqc3g","pricing_plan_id":"cebpf4jnsgd1na2vs0mg"},{"bike_id":"04a0a7fd-b7ff-4b51-a5e0-363212f169d7","system_id":"levelo_inurba_marseille","lat":43.28845,"lon":5.39326,"is_reserved":false,"is_disabled":false,"rental_uris":{"android":"levelo://app?vid=04a0a7fd-b7ff-4b51-a5e0-363212f169d7","ios":"levelo://app?vid=04a0a7fd-b7ff-4b51-a5e0-363212f169d7"},"vehicle_type_id":"4","last_reported":1746173654,"current_range_meters":20400,"station_id":"ce4bh2p2rcd13ifvqdi0","pricing_plan_id":"cebpf4jnsgd1na2vs0mg"},{"bike_id":"744a70b3-0d2b-4c64-b864-97777861f09d","system_id":"levelo_inurba_marseille","lat":43.24069,"lon":5.37755,"is_reserved":false,"is_disabled":false,"rental_uris":{"android":"levelo://app?vid=744a70b3-0d2b-4c64-b864-97777861f09d","ios":"levelo://app?vid=744a70b3-0d2b-4c64-b864-97777861f09d"},"vehicle_type_id":"4","last_reported":1746173654,"current_range_meters":20800,"station_id":"ce4bhnp2rcd13ifvqgvg","pricing_plan_id":"cebpf4jnsgd1na2vs0mg"},{"bike_id":"baf4561c-9bda-477a-8871-110377773ec1","system_id":"levelo_inurba_marseille","lat":43.28165,"lon":5.42629,"is_reserved":false,"is_disabled":false,"rental_uris":{"android":"levelo://app?vid=baf4561c-9bda-477a-8871-110377773ec1","ios":"levelo://app?vid=baf4561c-9bda-477a-8871-110377773ec1"},"vehicle_type_id":"4","last_reported":1746173654,"current_range_meters":21600,"station_id":"ce4bhnh2rcd13ifvqgug","pricing_plan_id":"cebpf4jnsgd1na2vs0mg"},{"bike_id":"5aaa0796-22cb-4134-8a3c-e3f47465c117","system_id":"levelo_inurba_marseille","lat":43.29556,"lon":5.39378,"is_reserved":false,"is_disabled":false,"rental_uris":{"android":"levelo://app?vid=5aaa0796-22cb-4134-8a3c-e3f47465c117","ios":"levelo://app?vid=5aaa0796-22cb-4134-8a3c-e3f47465c117"},"vehicle_type_id":"4","last_reported":1746173654,"current_range_meters":21600,"station_id":"","pricing_plan_id":"cebpf4jnsgd1na2vs0mg"},{"bike_id":"aed9bae5-397e-4bfb-a6cf-4222b9c68e56","system_id":"levelo_inurba_marseille","lat":43.29579,"lon":5.36751,"is_reserved":false,"is_disabled":false,"rental_uris":{"android":"levelo://app?vid=aed9bae5-397e-4bfb-a6cf-4222b9c68e56","ios":"levelo://app?vid=aed9bae5-397e-4bfb-a6cf-4222b9c68e56"},"vehicle_type_id":"4","last_reported":1746173654,"current_range_meters":21600,"station_id":"ce4bgph2rcd13ifvqc2g","pricing_plan_id":"cebpf4jnsgd1na2vs0mg"},{"bike_id":"bf91ae32-1ceb-403c-9518-e11bb8446e69","system_id":"levelo_inurba_marseille","lat":43.28263,"lon":5.35056,"is_reserved":false,"is_disabled":false,"rental_uris":{"android":"levelo://app?vid=bf91ae32-1ceb-403c-9518-e11bb8446e69","ios":"levelo://app?vid=bf91ae32-1ceb-403c-9518-e11bb8446e69"},"vehicle_type_id":"4","last_reported":1746173654,"current_range_meters":21600,"station_id":"ce4bhbp2rcd13ifvqerg","pricing_plan_id":"cebpf4jnsgd1na2vs0mg"},{"bike_id":"4d845e3b-ffa0-4de1-bb93-bc7bce7ebd12","system_id":"levelo_inurba_marseille","lat":43.29578,"lon":5.36736,"is_reserved":false,"is_disabled":false,"rental_uris":{"android":"levelo://app?vid=4d845e3b-ffa0-4de1-bb93-bc7bce7ebd12","ios":"levelo://app?vid=4d845e3b-ffa0-4de1-bb93-bc7bce7ebd12"},"vehicle_type_id":"4","last_reported":1746173654,"current_range_meters":20800,"station_id":"ce4bgph2rcd13ifvqc2g","pricing_plan_id":"cebpf4jnsgd1na2vs0mg"},{"bike_id":"8156e81a-8540-4dd5-a89c-bfbe2c1de216","system_id":"levelo_inurba_marseille","lat":43.28937,"lon":5.36635,"is_reserved":false,"is_disabled":false,"rental_uris":{"android":"levelo://app?vid=8156e81a-8540-4dd5-a89c-bfbe2c1de216","ios":"levelo://app?vid=8156e81a-8540-4dd5-a89c-bfbe2c1de216"},"vehicle_type_id":"4","last_reported":1746173654,"current_range_meters":21600,"station_id":"ce4bhap2rcd13ifvqek0","pricing_plan_id":"cebpf4jnsgd1na2vs0mg"},{"bike_id":"d4a68adb-1c58-40c4-948b-5030d56b0223","system_id":"levelo_inurba_marseille","lat":43.32119,"lon":5.36785,"is_reserved":false,"is_disabled":false,"rental_uris":{"android":"levelo://app?vid=d4a68adb-1c58-40c4-948b-5030d56b0223","ios":"levelo://app?vid=d4a68adb-1c58-40c4-948b-5030d56b0223"},"vehicle_type_id":"4","last_reported":1746173654,"current_range_meters":21600,"station_id":"ce4bhrh2rcd13ifvqhug","pricing_plan_id":"cebpf4jnsgd1na2vs0mg"},{"bike_id":"43d17f65-5b1f-4f15-9f52-08795775e9dc","system_id":"levelo_inurba_marseille","lat":43.30949,"lon":5.39017,"is_reserved":false,"is_disabled":false,"rental_uris":{"android":"levelo://app?vid=43d17f65-5b1f-4f15-9f52-08795775e9dc","ios":"levelo://app?vid=43d17f65-5b1f-4f15-9f52-08795775e9dc"},"vehicle_type_id":"4","last_reported":1746173654,"current_range_meters":21600,"station_id":"ce4bgup2rcd13ifvqco0","pricing_plan_id":"cebpf4jnsgd1na2vs0mg"},{"bike_id":"e0ceefc0-61c9-406f-91eb-ef69db9dbe42","system_id":"levelo_inurba_marseille","lat":43.26121,"lon":5.41477,"is_reserved":false,"is_disabled":false,"rental_uris":{"android":"levelo://app?vid=e0ceefc0-61c9-406f-91eb-ef69db9dbe42","ios":"levelo://app?vid=e0ceefc0-61c9-406f-91eb-ef69db9dbe42"},"vehicle_type_id":"4","last_reported":1746173654,"current_range_meters":22000,"station_id":"","pricing_plan_id":"cebpf4jnsgd1na2vs0mg"},{"bike_id":"46870161-f881-4670-bcda-f942981fca77","system_id":"levelo_inurba_marseille","lat":43.24544,"lon":5.39515,"is_reserved":false,"is_disabled":true,"rental_uris":{"android":"levelo://app?vid=46870161-f881-4670-bcda-f942981fca77","ios":"levelo://app?vid=46870161-f881-4670-bcda-f942981fca77"},"vehicle_type_id":"4","last_reported":1746173654,"current_range_meters":22000,"station_id":"ce4bhlp2rcd13ifvqgjg","pricing_plan_id":"cebpf4jnsgd1na2vs0mg"},{"bike_id":"b4c5fa3f-21e4-45ac-874c-a536ce7e90eb","system_id":"levelo_inurba_marseille","lat":43.30277,"lon":5.37695,"is_reserved":false,"is_disabled":false,"rental_uris":{"android":"levelo://app?vid=b4c5fa3f-21e4-45ac-874c-a536ce7e90eb","ios":"levelo://app?vid=b4c5fa3f-21e4-45ac-874c-a536ce7e90eb"},"vehicle_type_id":"4","last_reported":1746173654,"current_range_meters":22000,"station_id":"ce4bguh2rcd13ifvqcj0","pricing_plan_id":"cebpf4jnsgd1na2vs0mg"},{"bike_id":"6ca88b8d-a671-43ed-966a-07b7e6d6703d","system_id":"levelo_inurba_marseille","lat":43.308981,"lon":5.371814,"is_reserved":false,"is_disabled":false,"rental_uris":{"android":"levelo://app?vid=6ca88b8d-a671-43ed-966a-07b7e6d6703d","ios":"levelo://app?vid=6ca88b8d-a671-43ed-966a-07b7e6d6703d"},"vehicle_type_id":"4","last_reported":1746173654,"current_range_meters":22000,"station_id":"ce4bguh2rcd13ifvqckg","pricing_plan_id":"cebpf4jnsgd1na2vs0mg"},{"bike_id":"8cc679db-f7d1-4a6d-8d03-c01fec30ddf8","system_id":"levelo_inurba_marseille","lat":43.28613,"lon":5.35101,"is_reserved":false,"is_disabled":false,"rental_uris":{"android":"levelo://app?vid=8cc679db-f7d1-4a6d-8d03-c01fec30ddf8","ios":"levelo://app?vid=8cc679db-f7d1-4a6d-8d03-c01fec30ddf8"},"vehicle_type_id":"4","last_reported":1746173654,"current_range_meters":22000,"station_id":"ce4bhch2rcd13ifvqeug","pricing_plan_id":"cebpf4jnsgd1na2vs0mg"},{"bike_id":"bccb368a-24c0-4d5f-a72e-aef86171a0a1","system_id":"levelo_inurba_marseille","lat":43.31164,"lon":5.38725,"is_reserved":false,"is_disabled":false,"rental_uris":{"android":"levelo://app?vid=bccb368a-24c0-4d5f-a72e-aef86171a0a1","ios":"levelo://app?vid=bccb368a-24c0-4d5f-a72e-aef86171a0a1"},"vehicle_type_id":"4","last_reported":1746173654,"current_range_meters":22000,"station_id":"ce4bgv12rcd13ifvqcp0","pricing_plan_id":"cebpf4jnsgd1na2vs0mg"},{"bike_id":"75472671-ac0e-4bfb-a055-2ad02801380a","system_id":"levelo_inurba_marseille","lat":43.27324,"lon":5.39087,"is_reserved":false,"is_disabled":false,"rental_uris":{"android":"levelo://app?vid=75472671-ac0e-4bfb-a055-2ad02801380a","ios":"levelo://app?vid=75472671-ac0e-4bfb-a055-2ad02801380a"},"vehicle_type_id":"4","last_reported":1746173654,"current_range_meters":22400,"station_id":"ce4bhgp2rcd13ifvqfe0","pricing_plan_id":"cebpf4jnsgd1na2vs0mg"},{"bike_id":"87a927bc-7911-45ba-aebd-ee37973eac09","system_id":"levelo_inurba_marseille","lat":43.29003,"lon":5.35603,"is_reserved":false,"is_disabled":false,"rental_uris":{"android":"levelo://app?vid=87a927bc-7911-45ba-aebd-ee37973eac09","ios":"levelo://app?vid=87a927bc-7911-45ba-aebd-ee37973eac09"},"vehicle_type_id":"4","last_reported":1746173654,"current_range_meters":22400,"station_id":"ce4bhb92rcd13ifvqen0","pricing_plan_id":"cebpf4jnsgd1na2vs0mg"},{"bike_id":"f33b8cfa-1134-4bb3-ad4e-97c8a68d196e","system_id":"levelo_inurba_marseille","lat":43.29912,"lon":5.43656,"is_reserved":false,"is_disabled":false,"rental_uris":{"android":"levelo://app?vid=f33b8cfa-1134-4bb3-ad4e-97c8a68d196e","ios":"levelo://app?vid=f33b8cfa-1134-4bb3-ad4e-97c8a68d196e"},"vehicle_type_id":"4","last_reported":1746173654,"current_range_meters":22400,"station_id":"ce4bhpp2rcd13ifvqhfg","pricing_plan_id":"cebpf4jnsgd1na2vs0mg"},{"bike_id":"6119b8bd-4500-4386-ae95-75e0e7bf793e","system_id":"levelo_inurba_marseille","lat":43.29623,"lon":5.37714,"is_reserved":false,"is_disabled":false,"rental_uris":{"android":"levelo://app?vid=6119b8bd-4500-4386-ae95-75e0e7bf793e","ios":"levelo://app?vid=6119b8bd-4500-4386-ae95-75e0e7bf793e"},"vehicle_type_id":"4","last_reported":1746173654,"current_range_meters":22800,"station_id":"ce4bgi92rcd13ifvqb90","pricing_plan_id":"cebpf4jnsgd1na2vs0mg"},{"bike_id":"d191039d-7339-44f1-b063-3edeb496c7bb","system_id":"levelo_inurba_marseille","lat":43.28152,"lon":5.42644,"is_reserved":false,"is_disabled":false,"rental_uris":{"android":"levelo://app?vid=d191039d-7339-44f1-b063-3edeb496c7bb","ios":"levelo://app?vid=d191039d-7339-44f1-b063-3edeb496c7bb"},"vehicle_type_id":"4","last_reported":1746173654,"current_range_meters":22400,"station_id":"ce4bhnh2rcd13ifvqgug","pricing_plan_id":"cebpf4jnsgd1na2vs0mg"},{"bike_id":"2d819c4e-a519-4daa-90d7-4637bce79740","system_id":"levelo_inurba_marseille","lat":43.30537,"lon":5.36704,"is_reserved":false,"is_disabled":false,"rental_uris":{"android":"levelo://app?vid=2d819c4e-a519-4daa-90d7-4637bce79740","ios":"levelo://app?vid=2d819c4e-a519-4daa-90d7-4637bce79740"},"vehicle_type_id":"4","last_reported":1746173654,"current_range_meters":22800,"station_id":"ce4bgrp2rcd13ifvqc9g","pricing_plan_id":"cebpf4jnsgd1na2vs0mg"},{"bike_id":"797678c2-2a74-405a-969c-a3661e5f47d1","system_id":"levelo_inurba_marseille","lat":43.29682,"lon":5.37293,"is_reserved":false,"is_disabled":false,"rental_uris":{"android":"levelo://app?vid=797678c2-2a74-405a-969c-a3661e5f47d1","ios":"levelo://app?vid=797678c2-2a74-405a-969c-a3661e5f47d1"},"vehicle_type_id":"4","last_reported":1746173654,"current_range_meters":22800,"station_id":"ce4bgk12rcd13ifvqbj0","pricing_plan_id":"cebpf4jnsgd1na2vs0mg"},{"bike_id":"7c36b157-8dff-4277-96f5-e8c109553fec","system_id":"levelo_inurba_marseille","lat":43.29515,"lon":5.37491,"is_reserved":false,"is_disabled":true,"rental_uris":{"android":"levelo://app?vid=7c36b157-8dff-4277-96f5-e8c109553fec","ios":"levelo://app?vid=7c36b157-8dff-4277-96f5-e8c109553fec"},"vehicle_type_id":"4","last_reported":1746173654,"current_range_meters":22800,"station_id":"ce4bgkp2rcd13ifvqbmg","pricing_plan_id":"cebpf4jnsgd1na2vs0mg"},{"bike_id":"89bd6900-93b2-40b9-b823-8f438a460a18","system_id":"levelo_inurba_marseille","lat":43.29229,"lon":5.3607,"is_reserved":false,"is_disabled":true,"rental_uris":{"android":"levelo://app?vid=89bd6900-93b2-40b9-b823-8f438a460a18","ios":"levelo://app?vid=89bd6900-93b2-40b9-b823-8f438a460a18"},"vehicle_type_id":"4","last_reported":1746173654,"current_range_meters":22800,"station_id":"ce4bhbh2rcd13ifvqeqg","pricing_plan_id":"cebpf4jnsgd1na2vs0mg"},{"bike_id":"0af6d107-ab0a-468c-b778-73e1d61e7dff","system_id":"levelo_inurba_marseille","lat":43.3254,"lon":5.41433,"is_reserved":false,"is_disabled":false,"rental_uris":{"android":"levelo://app?vid=0af6d107-ab0a-468c-b778-73e1d61e7dff","ios":"levelo://app?vid=0af6d107-ab0a-468c-b778-73e1d61e7dff"},"vehicle_type_id":"4","last_reported":1746173654,"current_range_meters":22800,"station_id":"ce4bhq12rcd13ifvqhhg","pricing_plan_id":"cebpf4jnsgd1na2vs0mg"},{"bike_id":"df8deca6-caca-445b-b96b-4b530dffc00d","system_id":"levelo_inurba_marseille","lat":43.24069,"lon":5.3777,"is_reserved":false,"is_disabled":false,"rental_uris":{"android":"levelo://app?vid=df8deca6-caca-445b-b96b-4b530dffc00d","ios":"levelo://app?vid=df8deca6-caca-445b-b96b-4b530dffc00d"},"vehicle_type_id":"4","last_reported":1746173654,"current_range_meters":22800,"station_id":"ce4bhnp2rcd13ifvqgvg","pricing_plan_id":"cebpf4jnsgd1na2vs0mg"},{"bike_id":"e9d35ebe-8a8e-45e7-9447-fd658a09a5f4","system_id":"levelo_inurba_marseille","lat":43.30552,"lon":5.36702,"is_reserved":false,"is_disabled":false,"rental_uris":{"android":"levelo://app?vid=e9d35ebe-8a8e-45e7-9447-fd658a09a5f4","ios":"levelo://app?vid=e9d35ebe-8a8e-45e7-9447-fd658a09a5f4"},"vehicle_type_id":"4","last_reported":1746173654,"current_range_meters":22800,"station_id":"ce4bgrp2rcd13ifvqc9g","pricing_plan_id":"cebpf4jnsgd1na2vs0mg"},{"bike_id":"492aadb3-537a-4f93-8fc9-d2ea37743a42","system_id":"levelo_inurba_marseille","lat":43.29037,"lon":5.39948,"is_reserved":false,"is_disabled":false,"rental_uris":{"android":"levelo://app?vid=492aadb3-537a-4f93-8fc9-d2ea37743a42","ios":"levelo://app?vid=492aadb3-537a-4f93-8fc9-d2ea37743a42"},"vehicle_type_id":"4","last_reported":1746173654,"current_range_meters":22800,"station_id":"ce4bh392rcd13ifvqdm0","pricing_plan_id":"cebpf4jnsgd1na2vs0mg"},{"bike_id":"7cb9f187-6d75-4cdc-aa3c-7cce4e5d1df6","system_id":"levelo_inurba_marseille","lat":43.29292,"lon":5.3744,"is_reserved":false,"is_disabled":false,"rental_uris":{"android":"levelo://app?vid=7cb9f187-6d75-4cdc-aa3c-7cce4e5d1df6","ios":"levelo://app?vid=7cb9f187-6d75-4cdc-aa3c-7cce4e5d1df6"},"vehicle_type_id":"4","last_reported":1746173654,"current_range_meters":22800,"station_id":"ce4bgi12rcd13ifvqb70","pricing_plan_id":"cebpf4jnsgd1na2vs0mg"},{"bike_id":"645a9f5d-e56f-45b4-8bc7-78b0acbd0c7e","system_id":"levelo_inurba_marseille","lat":43.25578,"lon":5.38236,"is_reserved":false,"is_disabled":true,"rental_uris":{"android":"levelo://app?vid=645a9f5d-e56f-45b4-8bc7-78b0acbd0c7e","ios":"levelo://app?vid=645a9f5d-e56f-45b4-8bc7-78b0acbd0c7e"},"vehicle_type_id":"4","last_reported":1746173654,"current_range_meters":23200,"station_id":"ce4bhih2rcd13ifvqfs0","pricing_plan_id":"cebpf4jnsgd1na2vs0mg"},{"bike_id":"6e5978d6-de64-47c0-99f8-b5d78d75c802","system_id":"levelo_inurba_marseille","lat":43.3052,"lon":5.36524,"is_reserved":false,"is_disabled":false,"rental_uris":{"android":"levelo://app?vid=6e5978d6-de64-47c0-99f8-b5d78d75c802","ios":"levelo://app?vid=6e5978d6-de64-47c0-99f8-b5d78d75c802"},"vehicle_type_id":"4","last_reported":1746173654,"current_range_meters":23200,"station_id":"","pricing_plan_id":"cebpf4jnsgd1na2vs0mg"},{"bike_id":"c13f6a76-7944-48c0-b286-8da1ef6620a1","system_id":"levelo_inurba_marseille","lat":43.2315,"lon":5.43709,"is_reserved":false,"is_disabled":false,"rental_uris":{"android":"levelo://app?vid=c13f6a76-7944-48c0-b286-8da1ef6620a1","ios":"levelo://app?vid=c13f6a76-7944-48c0-b286-8da1ef6620a1"},"vehicle_type_id":"4","last_reported":1746173654,"current_range_meters":23200,"station_id":"ce4bhmp2rcd13ifvqgog","pricing_plan_id":"cebpf4jnsgd1na2vs0mg"},{"bike_id":"31c99700-c557-4b69-aae2-b2b2564d43aa","system_id":"levelo_inurba_marseille","lat":43.317,"lon":5.40471,"is_reserved":false,"is_disabled":false,"rental_uris":{"android":"levelo://app?vid=31c99700-c557-4b69-aae2-b2b2564d43aa","ios":"levelo://app?vid=31c99700-c557-4b69-aae2-b2b2564d43aa"},"vehicle_type_id":"4","last_reported":1746173654,"current_range_meters":23200,"station_id":"ce4bh012rcd13ifvqd00","pricing_plan_id":"cebpf4jnsgd1na2vs0mg"},{"bike_id":"a7b35c25-4ec6-40d9-9a8d-c46927e486df","system_id":"levelo_inurba_marseille","lat":43.29293,"lon":5.37168,"is_reserved":false,"is_disabled":true,"rental_uris":{"android":"levelo://app?vid=a7b35c25-4ec6-40d9-9a8d-c46927e486df","ios":"levelo://app?vid=a7b35c25-4ec6-40d9-9a8d-c46927e486df"},"vehicle_type_id":"4","last_reported":1746173654,"current_range_meters":23200,"station_id":"ce4bgh92rcd13ifvqb40","pricing_plan_id":"cebpf4jnsgd1na2vs0mg"},{"bike_id":"cb59e7a2-5839-49de-bfa8-c1a03fa63df3","system_id":"levelo_inurba_marseille","lat":43.27175,"lon":5.40991,"is_reserved":false,"is_disabled":false,"rental_uris":{"android":"levelo://app?vid=cb59e7a2-5839-49de-bfa8-c1a03fa63df3","ios":"levelo://app?vid=cb59e7a2-5839-49de-bfa8-c1a03fa63df3"},"vehicle_type_id":"4","last_reported":1746173654,"current_range_meters":23200,"station_id":"ce4bhl12rcd13ifvqgf0","pricing_plan_id":"cebpf4jnsgd1na2vs0mg"},{"bike_id":"9104c609-1e77-4b26-881f-99a17d504be1","system_id":"levelo_inurba_marseille","lat":43.28268,"lon":5.35061,"is_reserved":false,"is_disabled":false,"rental_uris":{"android":"levelo://app?vid=9104c609-1e77-4b26-881f-99a17d504be1","ios":"levelo://app?vid=9104c609-1e77-4b26-881f-99a17d504be1"},"vehicle_type_id":"4","last_reported":1746173654,"current_range_meters":23200,"station_id":"ce4bhbp2rcd13ifvqerg","pricing_plan_id":"cebpf4jnsgd1na2vs0mg"},