{"last_updated":1723234146,"ttl":30,"version":"2.2","data":{"bikes":[{"bike_id":"e649f332-4406-485d-9d1a-b200ca2f7590","system_id":"levelo_inurba_marseille","lat":43.313391,"lon":5.36706,"is_reserved":false,"is_disabled":false,"rental_uris":{"android":"levelo://app?vid=e649f332-4406-485d-9d1a-b200ca2f7590","ios":"levelo://app?vid=e649f332-4406-485d-9d1a-b200ca2f7590"},"vehicle_type_id":"4","last_reported":1723234146,"current_range_meters":0,"station_id":"ce4bgr92rcd13ifvqc6g","pricing_plan_id":"cebpf4jnsgd1na2vs0mg"},{"bike_id":"82791a16-fefe-4c9f-ad61-0554c23ba7a7","system_id":"levelo_inurba_marseille","lat":43.312239,"lon":5.368562,"is_reserved":false,"is_disabled":false,"rental_uris":{"android":"levelo://app?vid=82791a16-fefe-4c9f-ad61-0554c23ba7a7","ios":"levelo://app?vid=82791a16-fefe-4c9f-ad61-0554c23ba7a7"},"vehicle_type_id":"4","last_reported":1723234146,"current_range_meters":12000,"station_id":"ce4bgl92rcd13ifvqbq0","pricing_plan_id":"cebpf4jnsgd1na2vs0mg"},{"bike_id":"307f1310-59bc-40ab-a31c-f988f4e4cd2d","system_id":"levelo_inurba_marseille","lat":43.309076,"lon":5.368465,"is_reserved":false,"is_disabled":false,"rental_uris":{"android":"levelo://app?vid=307f1310-59bc-40ab-a31c-f988f4e4cd2d","ios":"levelo://app?vid=307f1310-59bc-40ab-a31c-f988f4e4cd2d"},"vehicle_type_id":"4","last_reported":1723234146,"current_range_meters":4800,"station_id":"ce4bgn92rcd13ifvqbvg","pricing_plan_id":"cebpf4jnsgd1na2vs0mg"},{"bike_id":"dceb7393-da0f-449c-abe1-ce72972c64b4","system_id":"levelo_inurba_marseille","lat":43.315686,"lon":5.372364,"is_reserved":false,"is_disabled":false,"rental_uris":{"android":"levelo://app?vid=dceb7393-da0f-449c-abe1-ce72972c64b4","ios":"levelo://app?vid=dceb7393-da0f-449c-abe1-ce72972c64b4"},"vehicle_type_id":"4","last_reported":1723234146,"current_range_meters":13600,"station_id":"","pricing_plan_id":"cebpf4jnsgd1na2vs0mg"},{"bike_id":"0954c563-413b-4948-866d-bf1f495793af","system_id":"levelo_inurba_marseille","lat":43.314811,"lon":5.373103,"is_reserved":false,"is_disabled":false,"rental_uris":{"android":"levelo://app?vid=0954c563-413b-4948-866d-bf1f495793af","ios":"levelo://app?vid=0954c563-413b-4948-866d-bf1f495793af"},"vehicle_type_id":"4","last_reported":1723234146,"current_range_meters":4000,"station_id":"ce4bgt12rcd13ifvqcd0","pricing_plan_id":"cebpf4jnsgd1na2vs0mg"},{"bike_id":"dc97bf08-1cb0-4ee5-91ff-cac39f04a64b","system_id":"levelo_inurba_marseille","lat":43.309039,"lon":5.371797,"is_reserved":false,"is_disabled":false,"rental_uris":{"android":"levelo://app?vid=dc97bf08-1cb0-4ee5-91ff-cac39f04a64b","ios":"levelo://app?vid=dc97bf08-1cb0-4ee5-91ff-cac39f04a64b"},"vehicle_type_id":"4","last_reported":1723234146,"current_range_meters":24800,"station_id":"ce4bguh2rcd13ifvqckg","pricing_plan_id":"cebpf4jnsgd1na2vs0mg"},{"bike_id":"fad2d1a7-195f-4180-9743-20a51886baa6","system_id":"levelo_inurba_marseille","lat":43.309039,"lon":5.371797,"is_reserved":false,"is_disabled":false,"rental_uris":{"android":"levelo://app?vid=fad2d1a7-195f-4180-9743-20a51886baa6","ios":"levelo://app?vid=fad2d1a7-195f-4180-9743-20a51886baa6"},"vehicle_type_id":"4","last_reported":1723234146,"current_range_meters":4400,"station_id":"ce4bguh2rcd13ifvqckg","pricing_plan_id":"cebpf4jnsgd1na2vs0mg"},{"bike_id":"64211275-6e91-4228-b34d-18fafb4189a2","system_id":"levelo_inurba_marseille","lat":43.305706,"lon":5.365654,"is_reserved":false,"is_disabled":false,"rental_uris":{"android":"levelo://app?vid=64211275-6e91-4228-b34d-18fafb4189a2","ios":"levelo://app?vid=64211275-6e91-4228-b34d-18fafb4189a2"},"vehicle_type_id":"4","last_reported":1723234146,"current_range_meters":0,"station_id":"ce4bgs12rcd13ifvqcag","pricing_plan_id":"cebpf4jnsgd1na2vs0mg"},{"bike_id":"ba62218f-2ee1-4d3a-b3a6-e13a3f38a2c6","system_id":"levelo_inurba_marseille","lat":43.31597,"lon":5.37629,"is_reserved":false,"is_disabled":false,"rental_uris":{"android":"levelo://app?vid=ba62218f-2ee1-4d3a-b3a6-e13a3f38a2c6","ios":"levelo://app?vid=ba62218f-2ee1-4d3a-b3a6-e13a3f38a2c6"},"vehicle_type_id":"4","last_reported":1723234146,"current_range_meters":14800,"station_id":"","pricing_plan_id":"cebpf4jnsgd1na2vs0mg"},{"bike_id":"5f72e07b-b1e2-46fb-91c9-3735128e07d4","system_id":"levelo_inurba_marseille","lat":43.30604,"lon":5.37217,"is_reserved":false,"is_disabled":false,"rental_uris":{"android":"levelo://app?vid=5f72e07b-b1e2-46fb-91c9-3735128e07d4","ios":"levelo://app?vid=5f72e07b-b1e2-46fb-91c9-3735128e07d4"},"vehicle_type_id":"4","last_reported":1723234146,"current_range_meters":30400,"station_id":"","pricing_plan_id":"cebpf4jnsgd1na2vs0mg"},{"bike_id":"b37cd2b6-5f82-41b2-aaac-031457e11d4d","system_id":"levelo_inurba_marseille","lat":43.305989,"lon":5.37225,"is_reserved":false,"is_disabled":false,"rental_uris":{"android":"levelo://app?vid=b37cd2b6-5f82-41b2-aaac-031457e11d4d","ios":"levelo://app?vid=b37cd2b6-5f82-41b2-aaac-031457e11d4d"},"vehicle_type_id":"4","last_reported":1723234146,"current_range_meters":31200,"station_id":"ce4bgqh2rcd13ifvqc4g","pricing_plan_id":"cebpf4jnsgd1na2vs0mg"},{"bike_id":"9dfc7fca-e875-4ea7-a27b-ca63c2f0c0a6","system_id":"levelo_inurba_marseille","lat":43.305989,"lon":5.37225,"is_reserved":false,"is_disabled":false,"rental_uris":{"android":"levelo://app?vid=9dfc7fca-e875-4ea7-a27b-ca63c2f0c0a6","ios":"levelo://app?vid=9dfc7fca-e875-4ea7-a27b-ca63c2f0c0a6"},"vehicle_type_id":"4","last_reported":1723234146,"current_range_meters":28800,"station_id":"ce4bgqh2rcd13ifvqc4g","pricing_plan_id":"cebpf4jnsgd1na2vs0mg"},{"bike_id":"66bdad6a-77f6-47c8-be6d-b993d2f402f7","system_id":"levelo_inurba_marseille","lat":43.30605,"lon":5.37244,"is_reserved":false,"is_disabled":false,"rental_uris":{"android":"levelo://app?vid=66bdad6a-77f6-47c8-be6d-b993d2f402f7","ios":"levelo://app?vid=66bdad6a-77f6-47c8-be6d-b993d2f402f7"},"vehicle_type_id":"4","last_reported":1723234146,"current_range_meters":27200,"station_id":"","pricing_plan_id":"cebpf4jnsgd1na2vs0mg"},{"bike_id":"f13caea3-7a6d-431c-9713-81583b573838","system_id":"levelo_inurba_marseille","lat":43.30592,"lon":5.37223,"is_reserved":false,"is_disabled":false,"rental_uris":{"android":"levelo://app?vid=f13caea3-7a6d-431c-9713-81583b573838","ios":"levelo://app?vid=f13caea3-7a6d-431c-9713-81583b573838"},"vehicle_type_id":"4","last_reported":1723234146,"current_range_meters":31200,"station_id":"ce4bgqh2rcd13ifvqc4g","pricing_plan_id":"cebpf4jnsgd1na2vs0mg"},{"bike_id":"f4351403-be3f-4b74-9cc5-4dd54b449053","system_id":"levelo_inurba_marseille","lat":43.311125,"lon":5.377624,"is_reserved":false,"is_disabled":false,"rental_uris":{"android":"levelo://app?vid=f4351403-be3f-4b74-9cc5-4dd54b449053","ios":"levelo://app?vid=f4351403-be3f-4b74-9cc5-4dd54b449053"},"vehicle_type_id":"4","last_reported":1723234146,"current_range_meters":1600,"station_id":"ce4bgt92rcd13ifvqcg0","pricing_plan_id":"cebpf4jnsgd1na2vs0mg"},{"bike_id":"e9b7eca2-2803-401d-92ea-931a217df66e","system_id":"levelo_inurba_marseille","lat":43.311125,"lon":5.377624,"is_reserved":false,"is_disabled":false,"rental_uris":{"android":"levelo://app?vid=e9b7eca2-2803-401d-92ea-931a217df66e","ios":"levelo://app?vid=e9b7eca2-2803-401d-92ea-931a217df66e"},"vehicle_type_id":"4","last_reported":1723234146,"current_range_meters":11200,"station_id":"ce4bgt92rcd13ifvqcg0","pricing_plan_id":"cebpf4jnsgd1na2vs0mg"},{"bike_id":"e0410ba8-2408-4185-9b04-0dfb117c386a","system_id":"levelo_inurba_marseille","lat":43.317075,"lon":5.377367,"is_reserved":false,"is_disabled":false,"rental_uris":{"android":"levelo://app?vid=e0410ba8-2408-4185-9b04-0dfb117c386a","ios":"levelo://app?vid=e0410ba8-2408-4185-9b04-0dfb117c386a"},"vehicle_type_id":"4","last_reported":1723234146,"current_range_meters":12800,"station_id":"ce4bgth2rcd13ifvqch0","pricing_plan_id":"cebpf4jnsgd1na2vs0mg"},{"bike_id":"a4bd7bbb-2685-4fd0-a27a-2fd4d2d7a442","system_id":"levelo_inurba_marseille","lat":43.317075,"lon":5.377367,"is_reserved":false,"is_disabled":false,"rental_uris":{"android":"levelo://app?vid=a4bd7bbb-2685-4fd0-a27a-2fd4d2d7a442","ios":"levelo://app?vid=a4bd7bbb-2685-4fd0-a27a-2fd4d2d7a442"},"vehicle_type_id":"4","last_reported":1723234146,"current_range_meters":24000,"station_id":"ce4bgth2rcd13ifvqch0","pricing_plan_id":"cebpf4jnsgd1na2vs0mg"},{"bike_id":"09dd09d7-2641-48cc-babf-bff6f9018875","system_id":"levelo_inurba_marseille","lat":43.30779,"lon":5.37956,"is_reserved":false,"is_disabled":false,"rental_uris":{"android":"levelo://app?vid=09dd09d7-2641-48cc-babf-bff6f9018875","ios":"levelo://app?vid=09dd09d7-2641-48cc-babf-bff6f9018875"},"vehicle_type_id":"4","last_reported":1723234146,"current_range_meters":0,"station_id":"","pricing_plan_id":"cebpf4jnsgd1na2vs0mg"},{"bike_id":"1343b0fc-1ea7-4895-941c-0042272c909f","system_id":"levelo_inurba_marseille","lat":43.301939,"lon":5.366286,"is_reserved":false,"is_disabled":false,"rental_uris":{"android":"levelo://app?vid=1343b0fc-1ea7-4895-941c-0042272c909f","ios":"levelo://app?vid=1343b0fc-1ea7-4895-941c-0042272c909f"},"vehicle_type_id":"4","last_reported":1723234146,"current_range_meters":31200,"station_id":"ce4bgrh2rcd13ifvqc8g","pricing_plan_id":"cebpf4jnsgd1na2vs0mg"},{"bike_id":"27ceac5d-76c0-419d-a76d-bf0022f76bd0","system_id":"levelo_inurba_marseille","lat":43.301939,"lon":5.366286,"is_reserved":false,"is_disabled":false,"rental_uris":{"android":"levelo://app?vid=27ceac5d-76c0-419d-a76d-bf0022f76bd0","ios":"levelo://app?vid=27ceac5d-76c0-419d-a76d-bf0022f76bd0"},"vehicle_type_id":"4","last_reported":1723234146,"current_range_meters":31200,"station_id":"ce4bgrh2rcd13ifvqc8g","pricing_plan_id":"cebpf4jnsgd1na2vs0mg"},{"bike_id":"192bc778-be1f-402d-b1df-16d7172e5519","system_id":"levelo_inurba_marseille","lat":43.31359,"lon":5.38283,"is_reserved":false,"is_disabled":false,"rental_uris":{"android":"levelo://app?vid=192bc778-be1f-402d-b1df-16d7172e5519","ios":"levelo://app?vid=192bc778-be1f-402d-b1df-16d7172e5519"},"vehicle_type_id":"4","last_reported":1723234146,"current_range_meters":4000,"station_id":"","pricing_plan_id":"cebpf4jnsgd1na2vs0mg"},{"bike_id":"bb1fa8f7-1834-4a11-94fd-7aa8a354104b","system_id":"levelo_inurba_marseille","lat":43.308012,"lon":5.381511,"is_reserved":false,"is_disabled":false,"rental_uris":{"android":"levelo://app?vid=bb1fa8f7-1834-4a11-94fd-7aa8a354104b","ios":"levelo://app?vid=bb1fa8f7-1834-4a11-94fd-7aa8a354104b"},"vehicle_type_id":"4","last_reported":1723234146,"current_range_meters":3600,"station_id":"ce4bgt12rcd13ifvqce0","pricing_plan_id":"cebpf4jnsgd1na2vs0mg"},{"bike_id":"efd800b0-6a23-4696-a60f-13725ccd7b5a","system_id":"levelo_inurba_marseille","lat":43.30791,"lon":5.38175,"is_reserved":false,"is_disabled":false,"rental_uris":{"android":"levelo://app?vid=efd800b0-6a23-4696-a60f-13725ccd7b5a","ios":"levelo://app?vid=efd800b0-6a23-4696-a60f-13725ccd7b5a"},"vehicle_type_id":"4","last_reported":1723234146,"current_range_meters":17200,"station_id":"ce4bgt12rcd13ifvqce0","pricing_plan_id":"cebpf4jnsgd1na2vs0mg"},{"bike_id":"635f914a-159c-4f4e-837e-7cbbf82255cb","system_id":"levelo_inurba_marseille","lat":43.304606,"lon":5.379026,"is_reserved":false,"is_disabled":false,"rental_uris":{"android":"levelo://app?vid=635f914a-159c-4f4e-837e-7cbbf82255cb","ios":"levelo://app?vid=635f914a-159c-4f4e-837e-7cbbf82255cb"},"vehicle_type_id":"4","last_reported":1723234146,"current_range_meters":27200,"station_id":"ce4bgup2rcd13ifvqcn0","pricing_plan_id":"cebpf4jnsgd1na2vs0mg"},{"bike_id":"ecc2aeae-058f-490b-bc89-04c7907c59c9","system_id":"levelo_inurba_marseille","lat":43.304606,"lon":5.379026,"is_reserved":false,"is_disabled":false,"rental_uris":{"android":"levelo://app?vid=ecc2aeae-058f-490b-bc89-04c7907c59c9","ios":"levelo://app?vid=ecc2aeae-058f-490b-bc89-04c7907c59c9"},"vehicle_type_id":"4","last_reported":1723234146,"current_range_meters":21600,"station_id":"ce4bgup2rcd13ifvqcn0","pricing_plan_id":"cebpf4jnsgd1na2vs0mg"},{"bike_id":"23898d8c-a9cc-4ae5-b49b-e3d1b2801959","system_id":"levelo_inurba_marseille","lat":43.304606,"lon":5.379026,"is_reserved":false,"is_disabled":false,"rental_uris":{"android":"levelo://app?vid=23898d8c-a9cc-4ae5-b49b-e3d1b2801959","ios":"levelo://app?vid=23898d8c-a9cc-4ae5-b49b-e3d1b2801959"},"vehicle_type_id":"4","last_reported":1723234146,"current_range_meters":9200,"station_id":"ce4bgup2rcd13ifvqcn0","pricing_plan_id":"cebpf4jnsgd1na2vs0mg"},{"bike_id":"23b67753-4d42-4d30-b323-e4e0e5536168","system_id":"levelo_inurba_marseille","lat":43.304606,"lon":5.379026,"is_reserved":false,"is_disabled":false,"rental_uris":{"android":"levelo://app?vid=23b67753-4d42-4d30-b323-e4e0e5536168","ios":"levelo://app?vid=23b67753-4d42-4d30-b323-e4e0e5536168"},"vehicle_type_id":"4","last_reported":1723234146,"current_range_meters":14000,"station_id":"ce4bgup2rcd13ifvqcn0","pricing_plan_id":"cebpf4jnsgd1na2vs0mg"},{"bike_id":"a5ad36c9-6631-415b-8e10-7c7e9517d651","system_id":"levelo_inurba_marseille","lat":43.324771,"lon":5.36557,"is_reserved":false,"is_disabled":false,"rental_uris":{"android":"levelo://app?vid=a5ad36c9-6631-415b-8e10-7c7e9517d651","ios":"levelo://app?vid=a5ad36c9-6631-415b-8e10-7c7e9517d651"},"vehicle_type_id":"4","last_reported":1723234146,"current_range_meters":1200,"station_id":"ce4bhs12rcd13ifvqhvg","pricing_plan_id":"cebpf4jnsgd1na2vs0mg"},{"bike_id":"90a02e4a-c569-447b-a0d3-f5c5ca53584e","system_id":"levelo_inurba_marseille","lat":43.324805,"lon":5.365629,"is_reserved":false,"is_disabled":false,"rental_uris":{"android":"levelo://app?vid=90a02e4a-c569-447b-a0d3-f5c5ca53584e","ios":"levelo://app?vid=90a02e4a-c569-447b-a0d3-f5c5ca53584e"},"vehicle_type_id":"4","last_reported":1723234146,"current_range_meters":19600,"station_id":"","pricing_plan_id":"cebpf4jnsgd1na2vs0mg"},{"bike_id":"726937c1-1e2c-4e5b-97bb-084f40ed0b16","system_id":"levelo_inurba_marseille","lat":43.324771,"lon":5.36557,"is_reserved":false,"is_disabled":false,"rental_uris":{"android":"levelo://app?vid=726937c1-1e2c-4e5b-97bb-084f40ed0b16","ios":"levelo://app?vid=726937c1-1e2c-4e5b-97bb-084f40ed0b16"},"vehicle_type_id":"4","last_reported":1723234146,"current_range_meters":11200,"station_id":"ce4bhs12rcd13ifvqhvg","pricing_plan_id":"cebpf4jnsgd1na2vs0mg"},{"bike_id":"282e32e0-db08-42d5-a972-b34979e8de75","system_id":"levelo_inurba_marseille","lat":43.32486,"lon":5.36571,"is_reserved":false,"is_disabled":false,"rental_uris":{"android":"levelo://app?vid=282e32e0-db08-42d5-a972-b34979e8de75","ios":"levelo://app?vid=282e32e0-db08-42d5-a972-b34979e8de75"},"vehicle_type_id":"4","last_reported":1723234146,"current_range_meters":22000,"station_id":"","pricing_plan_id":"cebpf4jnsgd1na2vs0mg"},{"bike_id":"6d5701c8-cd7c-4c7e-b426-697f90092edb","system_id":"levelo_inurba_marseille","lat":43.310804,"lon":5.38359,"is_reserved":false,"is_disabled":false,"rental_uris":{"android":"levelo://app?vid=6d5701c8-cd7c-4c7e-b426-697f90092edb","ios":"levelo://app?vid=6d5701c8-cd7c-4c7e-b426-697f90092edb"},"vehicle_type_id":"4","last_reported":1723234146,"current_range_meters":31200,"station_id":"ce4bgv92rcd13ifvqcr0","pricing_plan_id":"cebpf4jnsgd1na2vs0mg"},{"bike_id":"67602b25-188e-4c9a-95e8-67832db7644a","system_id":"levelo_inurba_marseille","lat":43.310804,"lon":5.38359,"is_reserved":false,"is_disabled":false,"rental_uris":{"android":"levelo://app?vid=67602b25-188e-4c9a-95e8-67832db7644a","ios":"levelo://app?vid=67602b25-188e-4c9a-95e8-67832db7644a"},"vehicle_type_id":"4","last_reported":1723234146,"current_range_meters":7200,"station_id":"ce4bgv92rcd13ifvqcr0","pricing_plan_id":"cebpf4jnsgd1na2vs0mg"},{"bike_id":"4764cba4-0d66-467d-8f55-d44f1d182a4f","system_id":"levelo_inurba_marseille","lat":43.310804,"lon":5.38359,"is_reserved":false,"is_disabled":false,"rental_uris":{"android":"levelo://app?vid=4764cba4-0d66-467d-8f55-d44f1d182a4f","ios":"levelo://app?vid=4764cba4-0d66-467d-8f55-d44f1d182a4f"},"vehicle_type_id":"4","last_reported":1723234146,"current_range_meters":31200,"station_id":"ce4bgv92rcd13ifvqcr0","pricing_plan_id":"cebpf4jnsgd1na2vs0mg"},{"bike_id":"d9afedf3-8043-4850-8c46-65a528c9775d","system_id":"levelo_inurba_marseille","lat":43.310804,"lon":5.38359,"is_reserved":false,"is_disabled":false,"rental_uris":{"android":"levelo://app?vid=d9afedf3-8043-4850-8c46-65a528c9775d","ios":"levelo://app?vid=d9afedf3-8043-4850-8c46-65a528c9775d"},"vehicle_type_id":"4","last_reported":1723234146,"current_range_meters":31200,"station_id":"ce4bgv92rcd13ifvqcr0","pricing_plan_id":"cebpf4jnsgd1na2vs0mg"},{"bike_id":"bdbe9093-996f-4aeb-97e8-a795b99719e6","system_id":"levelo_inurba_marseille","lat":43.310837,"lon":5.383673,"is_reserved":false,"is_disabled":false,"rental_uris":{"android":"levelo://app?vid=bdbe9093-996f-4aeb-97e8-a795b99719e6","ios":"levelo://app?vid=bdbe9093-996f-4aeb-97e8-a795b99719e6"},"vehicle_type_id":"4","last_reported":1723234146,"current_range_meters":6800,"station_id":"ce4bgv92rcd13ifvqcr0","pricing_plan_id":"cebpf4jnsgd1na2vs0mg"},{"bike_id":"1c7c4680-4433-4d1c-9872-d1a6ce5bb732","system_id":"levelo_inurba_marseille","lat":43.30143,"lon":5.37413,"is_reserved":false,"is_disabled":false,"rental_uris":{"android":"levelo://app?vid=1c7c4680-4433-4d1c-9872-d1a6ce5bb732","ios":"levelo://app?vid=1c7c4680-4433-4d1c-9872-d1a6ce5bb732"},"vehicle_type_id":"4","last_reported":1723234146,"current_range_meters":3200,"station_id":"ce4bgs92rcd13ifvqcc0","pricing_plan_id":"cebpf4jnsgd1na2vs0mg"},{"bike_id":"dcf54b05-6e8b-49d0-b4ce-5c4196c42136","system_id":"levelo_inurba_marseille","lat":43.302784,"lon":5.377158,"is_reserved":false,"is_disabled":false,"rental_uris":{"android":"levelo://app?vid=dcf54b05-6e8b-49d0-b4ce-5c4196c42136","ios":"levelo://app?vid=dcf54b05-6e8b-49d0-b4ce-5c4196c42136"},"vehicle_type_id":"4","last_reported":1723234146,"current_range_meters":27200,"station_id":"ce4bguh2rcd13ifvqcj0","pricing_plan_id":"cebpf4jnsgd1na2vs0mg"},{"bike_id":"457e3181-7681-4ad4-9e9f-09b046b459de","system_id":"levelo_inurba_marseille","lat":43.319935,"lon":5.381699,"is_reserved":false,"is_disabled":false,"rental_uris":{"android":"levelo://app?vid=457e3181-7681-4ad4-9e9f-09b046b459de","ios":"levelo://app?vid=457e3181-7681-4ad4-9e9f-09b046b459de"},"vehicle_type_id":"4","last_reported":1723234146,"current_range_meters":5600,"station_id":"ce4bhr12rcd13ifvqhpg","pricing_plan_id":"cebpf4jnsgd1na2vs0mg"},{"bike_id":"28865d78-53c2-4607-a8d4-f5dd392c6e95","system_id":"levelo_inurba_marseille","lat":43.31995,"lon":5.3817,"is_reserved":false,"is_disabled":false,"rental_uris":{"android":"levelo://app?vid=28865d78-53c2-4607-a8d4-f5dd392c6e95","ios":"levelo://app?vid=28865d78-53c2-4607-a8d4-f5dd392c6e95"},"vehicle_type_id":"4","last_reported":1723234146,"current_range_meters":31200,"station_id":"ce4bhr12rcd13ifvqhpg","pricing_plan_id":"cebpf4jnsgd1na2vs0mg"},{"bike_id":"3528cc75-8610-4bbf-b01a-2b59907b0eb7","system_id":"levelo_inurba_marseille","lat":43.31997,"lon":5.38171,"is_reserved":false,"is_disabled":false,"rental_uris":{"android":"levelo://app?vid=3528cc75-8610-4bbf-b01a-2b59907b0eb7","ios":"levelo://app?vid=3528cc75-8610-4bbf-b01a-2b59907b0eb7"},"vehicle_type_id":"4","last_reported":1723234146,"current_range_meters":12400,"station_id":"ce4bhr12rcd13ifvqhpg","pricing_plan_id":"cebpf4jnsgd1na2vs0mg"},{"bike_id":"32ed2379-15ed-4414-872c-ae1a58915657","system_id":"levelo_inurba_marseille","lat":43.313571,"lon":5.384829,"is_reserved":false,"is_disabled":false,"rental_uris":{"android":"levelo://app?vid=32ed2379-15ed-4414-872c-ae1a58915657","ios":"levelo://app?vid=32ed2379-15ed-4414-872c-ae1a58915657"},"vehicle_type_id":"4","last_reported":1723234146,"current_range_meters":7600,"station_id":"ce4bgt92rcd13ifvqcf0","pricing_plan_id":"cebpf4jnsgd1na2vs0mg"},{"bike_id":"2a99c927-9c16-447a-80f2-090b88bd0fad","system_id":"levelo_inurba_marseille","lat":43.31358,"lon":5.38493,"is_reserved":false,"is_disabled":false,"rental_uris":{"android":"levelo://app?vid=2a99c927-9c16-447a-80f2-090b88bd0fad","ios":"levelo://app?vid=2a99c927-9c16-447a-80f2-090b88bd0fad"},"vehicle_type_id":"4","last_reported":1723234146,"current_range_meters":29600,"station_id":"ce4bgt92rcd13ifvqcf0","pricing_plan_id":"cebpf4jnsgd1na2vs0mg"},{"bike_id":"b337f727-ba20-47bc-86c1-da0a6dc8440c","system_id":"levelo_inurba_marseille","lat":43.313571,"lon":5.384829,"is_reserved":false,"is_disabled":false,"rental_uris":{"android":"levelo://app?vid=b337f727-ba20-47bc-86c1-da0a6dc8440c","ios":"levelo://app?vid=b337f727-ba20-47bc-86c1-da0a6dc8440c"},"vehicle_type_id":"4","last_reported":1723234146,"current_range_meters":1200,"station_id":"ce4bgt92rcd13ifvqcf0","pricing_plan_id":"cebpf4jnsgd1na2vs0mg"},{"bike_id":"7188cd8d-d89c-4770-a450-fe0a923aacda","system_id":"levelo_inurba_marseille","lat":43.31362,"lon":5.38494,"is_reserved":false,"is_disabled":false,"rental_uris":{"android":"levelo://app?vid=7188cd8d-d89c-4770-a450-fe0a923aacda","ios":"levelo://app?vid=7188cd8d-d89c-4770-a450-fe0a923aacda"},"vehicle_type_id":"4","last_reported":1723234146,"current_range_meters":5200,"station_id":"ce4bgt92rcd13ifvqcf0","pricing_plan_id":"cebpf4jnsgd1na2vs0mg"},{"bike_id":"1b47cea5-eddb-4662-a03c-2bc8c7794d97","system_id":"levelo_inurba_marseille","lat":43.31365,"lon":5.38494,"is_reserved":false,"is_disabled":false,"rental_uris":{"android":"levelo://app?vid=1b47cea5-eddb-4662-a03c-2bc8c7794d97","ios":"levelo://app?vid=1b47cea5-eddb-4662-a03c-2bc8c7794d97"},"vehicle_type_id":"4","last_reported":1723234146,"current_range_meters":12400,"station_id":"ce4bgt92rcd13ifvqcf0","pricing_plan_id":"cebpf4jnsgd1na2vs0mg"},{"bike_id":"30507afc-4fef-4238-ae0d-12458ecaa308","system_id":"levelo_inurba_marseille","lat":43.313571,"lon":5.384829,"is_reserved":false,"is_disabled":false,"rental_uris":{"android":"levelo://app?vid=30507afc-4fef-4238-ae0d-12458ecaa308","ios":"levelo://app?vid=30507afc-4fef-4238-ae0d-12458ecaa308"},"vehicle_type_id":"4","last_reported":1723234146,"current_range_meters":16800,"station_id":"ce4bgt92rcd13ifvqcf0","pricing_plan_id":"cebpf4jnsgd1na2vs0mg"},{"bike_id":"6346901d-2e78-445f-a84f-ecffcf09db72","system_id":"levelo_inurba_marseille","lat":43.31363,"lon":5.38498,"is_reserved":false,"is_disabled":false,"rental_uris":{"android":"levelo://app?vid=6346901d-2e78-445f-a84f-ecffcf09db72","ios":"levelo://app?vid=6346901d-2e78-445f-a84f-ecffcf09db72"},"vehicle_type_id":"4","last_reported":1723234146,"current_range_meters":21200,"station_id":"ce4bgt92rcd13ifvqcf0","pricing_plan_id":"cebpf4jnsgd1na2vs0mg"},{"bike_id":"6e3c4f74-a986-44fc-851b-87d39451fe44","system_id":"levelo_inurba_marseille","lat":43.31367,"lon":5.384997,"is_reserved":false,"is_disabled":false,"rental_uris":{"android":"levelo://app?vid=6e3c4f74-a986-44fc-851b-87d39451fe44","ios":"levelo://app?vid=6e3c4f74-a986-44fc-851b-87d39451fe44"},"vehicle_type_id":"4","last_reported":1723234146,"current_range_meters":17200,"station_id":"ce4bgt92rcd13ifvqcf0","pricing_plan_id":"cebpf4jnsgd1na2vs0mg"},{"bike_id":"ef687189-99ec-4b3b-a024-af0690118388","system_id":"levelo_inurba_marseille","lat":43.31365,"lon":5.385,"is_reserved":false,"is_disabled":false,"rental_uris":{"android":"levelo://app?vid=ef687189-99ec-4b3b-a024-af0690118388","ios":"levelo://app?vid=ef687189-99ec-4b3b-a024-af0690118388"},"vehicle_type_id":"4","last_reported":1723234146,"current_range_meters":13200,"station_id":"ce4bgt92rcd13ifvqcf0","pricing_plan_id":"cebpf4jnsgd1na2vs0mg"},{"bike_id":"15ed7e84-7ccc-419c-9a3f-4ecaaaf546b9","system_id":"levelo_inurba_marseille","lat":43.299222,"lon":5.365554,"is_reserved":false,"is_disabled":false,"rental_uris":{"android":"levelo://app?vid=15ed7e84-7ccc-419c-9a3f-4ecaaaf546b9","ios":"levelo://app?vid=15ed7e84-7ccc-419c-9a3f-4ecaaaf546b9"},"vehicle_type_id":"4","last_reported":1723234146,"current_range_meters":20400,"station_id":"ce4bgm92rcd13ifvqbr0","pricing_plan_id":"cebpf4jnsgd1na2vs0mg"},{"bike_id":"5da19a7b-9886-44e7-a380-e0ccae406553","system_id":"levelo_inurba_marseille","lat":43.299724,"lon":5.371829,"is_reserved":false,"is_disabled":false,"rental_uris":{"android":"levelo://app?vid=5da19a7b-9886-44e7-a380-e0ccae406553","ios":"levelo://app?vid=5da19a7b-9886-44e7-a380-e0ccae406553"},"vehicle_type_id":"4","last_reported":1723234146,"current_range_meters":28400,"station_id":"ce4bgr92rcd13ifvqc7g","pricing_plan_id":"cebpf4jnsgd1na2vs0mg"},{"bike_id":"c97d2b9a-3df1-468c-8fc7-fc43cbd591fb","system_id":"levelo_inurba_marseille","lat":43.311722,"lon":5.387247,"is_reserved":false,"is_disabled":false,"rental_uris":{"android":"levelo://app?vid=c97d2b9a-3df1-468c-8fc7-fc43cbd591fb","ios":"levelo://app?vid=c97d2b9a-3df1-468c-8fc7-fc43cbd591fb"},"vehicle_type_id":"4","last_reported":1723234146,"current_range_meters":30800,"station_id":"ce4bgv12rcd13ifvqcp0","pricing_plan_id":"cebpf4jnsgd1na2vs0mg"},{"bike_id":"4ee32ba7-66a4-4608-8968-2081dc632fce","system_id":"levelo_inurba_marseille","lat":43.305364,"lon":5.384119,"is_reserved":false,"is_disabled":false,"rental_uris":{"android":"levelo://app?vid=4ee32ba7-66a4-4608-8968-2081dc632fce","ios":"levelo://app?vid=4ee32ba7-66a4-4608-8968-2081dc632fce"},"vehicle_type_id":"4","last_reported":1723234146,"current_range_meters":400,"station_id":"ce4bgg92rcd13ifvqb30","pricing_plan_id":"cebpf4jnsgd1na2vs0mg"},{"bike_id":"075a3422-6539-40ea-ab2c-ed47ae6560ab","system_id":"levelo_inurba_marseille","lat":43.298433,"lon":5.362774,"is_reserved":false,"is_disabled":false,"rental_uris":{"android":"levelo://app?vid=075a3422-6539-40ea-ab2c-ed47ae6560ab","ios":"levelo://app?vid=075a3422-6539-40ea-ab2c-ed47ae6560ab"},"vehicle_type_id":"4","last_reported":1723234146,"current_range_meters":0,"station_id":"ce4bgpp2rcd13ifvqc3g","pricing_plan_id":"cebpf4jnsgd1na2vs0mg"},{"bike_id":"bf71bd14-be8a-4634-b006-db899d46f266","system_id":"levelo_inurba_marseille","lat":43.31173,"lon":5.38716,"is_reserved":false,"is_disabled":false,"rental_uris":{"android":"levelo://app?vid=bf71bd14-be8a-4634-b006-db899d46f266","ios":"levelo://app?vid=bf71bd14-be8a-4634-b006-db899d46f266"},"vehicle_type_id":"4","last_reported":1723234146,"current_range_meters":24400,"station_id":"ce4bgv12rcd13ifvqcp0","pricing_plan_id":"cebpf4jnsgd1na2vs0mg"},{"bike_id":"6aca5d6d-4f81-4f67-b0b1-7bcc978318b3","system_id":"levelo_inurba_marseille","lat":43.311797,"lon":5.38718,"is_reserved":false,"is_disabled":false,"rental_uris":{"android":"levelo://app?vid=6aca5d6d-4f81-4f67-b0b1-7bcc978318b3","ios":"levelo://app?vid=6aca5d6d-4f81-4f67-b0b1-7bcc978318b3"},"vehicle_type_id":"4","last_reported":1723234146,"current_range_meters":29600,"station_id":"ce4bgv12rcd13ifvqcp0","pricing_plan_id":"cebpf4jnsgd1na2vs0mg"},{"bike_id":"fa653936-1624-40f9-af3e-da276919734c","system_id":"levelo_inurba_marseille","lat":43.311722,"lon":5.387247,"is_reserved":false,"is_disabled":false,"rental_uris":{"android":"levelo://app?vid=fa653936-1624-40f9-af3e-da276919734c","ios":"levelo://app?vid=fa653936-1624-40f9-af3e-da276919734c"},"vehicle_type_id":"4","last_reported":1723234146,"current_range_meters":12800,"station_id":"ce4bgv12rcd13ifvqcp0","pricing_plan_id":"cebpf4jnsgd1na2vs0mg"},{"bike_id":"a4c9bac4-91de-44db-bb88-33d95a4cb747","system_id":"levelo_inurba_marseille","lat":43.311722,"lon":5.387247,"is_reserved":false,"is_disabled":false,"rental_uris":{"android":"levelo://app?vid=a4c9bac4-91de-44db-bb88-33d95a4cb747","ios":"levelo://app?vid=a4c9bac4-91de-44db-bb88-33d95a4cb747"},"vehicle_type_id":"4","last_reported":1723234146,"current_range_meters":7600,"station_id":"ce4bgv12rcd13ifvqcp0","pricing_plan_id":"cebpf4jnsgd1na2vs0mg"},{"bike_id":"0bdba93f-4e1d-444c-80aa-b3bcf8ae04fe","system_id":"levelo_inurba_marseille","lat":43.311722,"lon":5.387247,"is_reserved":false,"is_disabled":false,"rental_uris":{"android":"levelo://app?vid=0bdba93f-4e1d-444c-80aa-b3bcf8ae04fe","ios":"levelo://app?vid=0bdba93f-4e1d-444c-80aa-b3bcf8ae04fe"},"vehicle_type_id":"4","last_reported":1723234146,"current_range_meters":31200,"station_id":"ce4bgv12rcd13ifvqcp0","pricing_plan_id":"cebpf4jnsgd1na2vs0mg"},{"bike_id":"dcb94697-2961-46bb-9d96-7621db3467aa","system_id":"levelo_inurba_marseille","lat":43.299243,"lon":5.37481,"is_reserved":false,"is_disabled":false,"rental_uris":{"android":"levelo://app?vid=dcb94697-2961-46bb-9d96-7621db3467aa","ios":"levelo://app?vid=dcb94697-2961-46bb-9d96-7621db3467aa"},"vehicle_type_id":"4","last_reported":1723234146,"current_range_meters":1200,"station_id":"ce4bgjh2rcd13ifvqbg0","pricing_plan_id":"cebpf4jnsgd1na2vs0mg"},{"bike_id":"435cae36-4ed6-4222-85d4-60949a07cac7","system_id":"levelo_inurba_marseille","lat":43.32284,"lon":5.38238,"is_reserved":false,"is_disabled":false,"rental_uris":{"android":"levelo://app?vid=435cae36-4ed6-4222-85d4-60949a07cac7","ios":"levelo://app?vid=435cae36-4ed6-4222-85d4-60949a07cac7"},"vehicle_type_id":"4","last_reported":1723234146,"current_range_meters":31200,"station_id":"ce4bhr12rcd13ifvqhqg","pricing_plan_id":"cebpf4jnsgd1na2vs0mg"},{"bike_id":"8e4672e4-c7d9-4c4a-b294-6d976a965105","system_id":"levelo_inurba_marseille","lat":43.297794,"lon":5.370888,"is_reserved":false,"is_disabled":false,"rental_uris":{"android":"levelo://app?vid=8e4672e4-c7d9-4c4a-b294-6d976a965105","ios":"levelo://app?vid=8e4672e4-c7d9-4c4a-b294-6d976a965105"},"vehicle_type_id":"4","last_reported":1723234146,"current_range_meters":7600,"station_id":"ce4bgop2rcd13ifvqc1g","pricing_plan_id":"cebpf4jnsgd1na2vs0mg"},{"bike_id":"216240ef-238f-48ba-bd26-5d1c9cf540df","system_id":"levelo_inurba_marseille","lat":43.31456,"lon":5.38784,"is_reserved":false,"is_disabled":false,"rental_uris":{"android":"levelo://app?vid=216240ef-238f-48ba-bd26-5d1c9cf540df","ios":"levelo://app?vid=216240ef-238f-48ba-bd26-5d1c9cf540df"},"vehicle_type_id":"4","last_reported":1723234146,"current_range_meters":3200,"station_id":"","pricing_plan_id":"cebpf4jnsgd1na2vs0mg"},{"bike_id":"82f14497-3d6f-4696-b168-54ad0dd479fa","system_id":"levelo_inurba_marseille","lat":43.3229,"lon":5.38275,"is_reserved":false,"is_disabled":false,"rental_uris":{"android":"levelo://app?vid=82f14497-3d6f-4696-b168-54ad0dd479fa","ios":"levelo://app?vid=82f14497-3d6f-4696-b168-54ad0dd479fa"},"vehicle_type_id":"4","last_reported":1723234146,"current_range_meters":31200,"station_id":"ce4bhr12rcd13ifvqhqg","pricing_plan_id":"cebpf4jnsgd1na2vs0mg"},{"bike_id":"80e41dee-35b1-47d3-918a-2fa18a3178b2","system_id":"levelo_inurba_marseille","lat":43.297794,"lon":5.370888,"is_reserved":false,"is_disabled":false,"rental_uris":{"android":"levelo://app?vid=80e41dee-35b1-47d3-918a-2fa18a3178b2","ios":"levelo://app?vid=80e41dee-35b1-47d3-918a-2fa18a3178b2"},"vehicle_type_id":"4","last_reported":1723234146,"current_range_meters":7200,"station_id":"ce4bgop2rcd13ifvqc1g","pricing_plan_id":"cebpf4jnsgd1na2vs0mg"},{"bike_id":"35194bdd-0094-40e7-b9a0-7e8e9e1cead9","system_id":"levelo_inurba_marseille","lat":43.32291,"lon":5.38284,"is_reserved":false,"is_disabled":false,"rental_uris":{"android":"levelo://app?vid=35194bdd-0094-40e7-b9a0-7e8e9e1cead9","ios":"levelo://app?vid=35194bdd-0094-40e7-b9a0-7e8e9e1cead9"},"vehicle_type_id":"4","last_reported":1723234146,"current_range_meters":31200,"station_id":"ce4bhr12rcd13ifvqhqg","pricing_plan_id":"cebpf4jnsgd1na2vs0mg"},{"bike_id":"1ad7717b-0269-4b8a-a0e7-0bd31e7ebdfa","system_id":"levelo_inurba_marseille","lat":43.29714,"lon":5.36617,"is_reserved":false,"is_disabled":false,"rental_uris":{"android":"levelo://app?vid=1ad7717b-0269-4b8a-a0e7-0bd31e7ebdfa","ios":"levelo://app?vid=1ad7717b-0269-4b8a-a0e7-0bd31e7ebdfa"},"vehicle_type_id":"4","last_reported":1723234146,"current_range_meters":31200,"station_id":"ce4bgn12rcd13ifvqbt0","pricing_plan_id":"cebpf4jnsgd1na2vs0mg"},{"bike_id":"b8f4c871-15f5-480d-86ef-d035798be089","system_id":"levelo_inurba_marseille","lat":43.297163,"lon":5.365866,"is_reserved":false,"is_disabled":false,"rental_uris":{"android":"levelo://app?vid=b8f4c871-15f5-480d-86ef-d035798be089","ios":"levelo://app?vid=b8f4c871-15f5-480d-86ef-d035798be089"},"vehicle_type_id":"4","last_reported":1723234146,"current_range_meters":25600,"station_id":"ce4bgn12rcd13ifvqbt0","pricing_plan_id":"cebpf4jnsgd1na2vs0mg"},{"bike_id":"b89b96fc-cf18-4cf8-9a77-26eaf219fe7b","system_id":"levelo_inurba_marseille","lat":43.297163,"lon":5.365866,"is_reserved":false,"is_disabled":false,"rental_uris":{"android":"levelo://app?vid=b89b96fc-cf18-4cf8-9a77-26eaf219fe7b","ios":"levelo://app?vid=b89b96fc-cf18-4cf8-9a77-26eaf219fe7b"},"vehicle_type_id":"4","last_reported":1723234146,"current_range_meters":10800,"station_id":"ce4bgn12rcd13ifvqbt0","pricing_plan_id":"cebpf4jnsgd1na2vs0mg"},{"bike_id":"cdafa527-e40b-4cb9-9a31-bf948c26d6bd","system_id":"levelo_inurba_marseille","lat":43.297163,"lon":5.365866,"is_reserved":false,"is_disabled":false,"rental_uris":{"android":"levelo://app?vid=cdafa527-e40b-4cb9-9a31-bf948c26d6bd","ios":"levelo://app?vid=cdafa527-e40b-4cb9-9a31-bf948c26d6bd"},"vehicle_type_id":"4","last_reported":1723234146,"current_range_meters":31200,"station_id":"ce4bgn12rcd13ifvqbt0","pricing_plan_id":"cebpf4jnsgd1na2vs0mg"},{"bike_id":"a96b122d-b493-46a0-bf4e-9f0dc95101de","system_id":"levelo_inurba_marseille","lat":43.297163,"lon":5.365866,"is_reserved":false,"is_disabled":false,"rental_uris":{"android":"levelo://app?vid=a96b122d-b493-46a0-bf4e-9f0dc95101de","ios":"levelo://app?vid=a96b122d-b493-46a0-bf4e-9f0dc95101de"},"vehicle_type_id":"4","last_reported":1723234146,"current_range_meters":31200,"station_id":"ce4bgn12rcd13ifvqbt0","pricing_plan_id":"cebpf4jnsgd1na2vs0mg"},{"bike_id":"1e4fffee-5265-454f-a0bd-82ffcc308717","system_id":"levelo_inurba_marseille","lat":43.29676,"lon":5.36678,"is_reserved":false,"is_disabled":false,"rental_uris":{"android":"levelo://app?vid=1e4fffee-5265-454f-a0bd-82ffcc308717","ios":"levelo://app?vid=1e4fffee-5265-454f-a0bd-82ffcc308717"},"vehicle_type_id":"4","last_reported":1723234146,"current_range_meters":0,"station_id":"","pricing_plan_id":"cebpf4jnsgd1na2vs0mg"},{"bike_id":"e54f1609-a925-4d61-85d1-4f9d1f145c20","system_id":"levelo_inurba_marseille","lat":43.2968,"lon":5.37291,"is_reserved":false,"is_disabled":false,"rental_uris":{"android":"levelo://app?vid=e54f1609-a925-4d61-85d1-4f9d1f145c20","ios":"levelo://app?vid=e54f1609-a925-4d61-85d1-4f9d1f145c20"},"vehicle_type_id":"4","last_reported":1723234146,"current_range_meters":7200,"station_id":"ce4bgk12rcd13ifvqbj0","pricing_plan_id":"cebpf4jnsgd1na2vs0mg"},{"bike_id":"eafbb3c5-89aa-42ae-b515-c7ac18bdfd82","system_id":"levelo_inurba_marseille","lat":43.296131,"lon":5.370791,"is_reserved":false,"is_disabled":false,"rental_uris":{"android":"levelo://app?vid=eafbb3c5-89aa-42ae-b515-c7ac18bdfd82","ios":"levelo://app?vid=eafbb3c5-89aa-42ae-b515-c7ac18bdfd82"},"vehicle_type_id":"4","last_reported":1723234146,"current_range_meters":12800,"station_id":"ce4bgnh2rcd13ifvqc0g","pricing_plan_id":"cebpf4jnsgd1na2vs0mg"},{"bike_id":"bba906c2-90c5-4cf0-a9f1-d865369d046e","system_id":"levelo_inurba_marseille","lat":43.309589,"lon":5.390258,"is_reserved":false,"is_disabled":false,"rental_uris":{"android":"levelo://app?vid=bba906c2-90c5-4cf0-a9f1-d865369d046e","ios":"levelo://app?vid=bba906c2-90c5-4cf0-a9f1-d865369d046e"},"vehicle_type_id":"4","last_reported":1723234146,"current_range_meters":29600,"station_id":"ce4bgup2rcd13ifvqco0","pricing_plan_id":"cebpf4jnsgd1na2vs0mg"},{"bike_id":"8b7909dc-8854-46ee-80f3-76580189ca46","system_id":"levelo_inurba_marseille","lat":43.296921,"lon":5.376579,"is_reserved":false,"is_disabled":false,"rental_uris":{"android":"levelo://app?vid=8b7909dc-8854-46ee-80f3-76580189ca46","ios":"levelo://app?vid=8b7909dc-8854-46ee-80f3-76580189ca46"},"vehicle_type_id":"4","last_reported":1723234146,"current_range_meters":13200,"station_id":"ce4bgkh2rcd13ifvqbl0","pricing_plan_id":"cebpf4jnsgd1na2vs0mg"},{"bike_id":"124038c2-b647-4159-9c0b-340e24420b57","system_id":"levelo_inurba_marseille","lat":43.30949,"lon":5.39012,"is_reserved":false,"is_disabled":false,"rental_uris":{"android":"levelo://app?vid=124038c2-b647-4159-9c0b-340e24420b57","ios":"levelo://app?vid=124038c2-b647-4159-9c0b-340e24420b57"},"vehicle_type_id":"4","last_reported":1723234146,"current_range_meters":8400,"station_id":"ce4bgup2rcd13ifvqco0","pricing_plan_id":"cebpf4jnsgd1na2vs0mg"},{"bike_id":"8b81bf12-c1cd-4234-b107-a6386fd6943b","system_id":"levelo_inurba_marseille","lat":43.30957,"lon":5.39017,"is_reserved":false,"is_disabled":false,"rental_uris":{"android":"levelo://app?vid=8b81bf12-c1cd-4234-b107-a6386fd6943b","ios":"levelo://app?vid=8b81bf12-c1cd-4234-b107-a6386fd6943b"},"vehicle_type_id":"4","last_reported":1723234146,"current_range_meters":4800,"station_id":"ce4bgup2rcd13ifvqco0","pricing_plan_id":"cebpf4jnsgd1na2vs0mg"},{"bike_id":"6d0d653a-be1d-4e35-8035-56e9678f020c","system_id":"levelo_inurba_marseille","lat":43.309589,"lon":5.390258,"is_reserved":false,"is_disabled":false,"rental_uris":{"android":"levelo://app?vid=6d0d653a-be1d-4e35-8035-56e9678f020c","ios":"levelo://app?vid=6d0d653a-be1d-4e35-8035-56e9678f020c"},"vehicle_type_id":"4","last_reported":1723234146,"current_range_meters":31600,"station_id":"ce4bgup2rcd13ifvqco0","pricing_plan_id":"cebpf4jnsgd1na2vs0mg"},{"bike_id":"511fb0f8-8e47-4434-9abf-733705f5c068","system_id":"levelo_inurba_marseille","lat":43.29731,"lon":5.37748,"is_reserved":false,"is_disabled":false,"rental_uris":{"android":"levelo://app?vid=511fb0f8-8e47-4434-9abf-733705f5c068","ios":"levelo://app?vid=511fb0f8-8e47-4434-9abf-733705f5c068"},"vehicle_type_id":"4","last_reported":1723234146,"current_range_meters":20000,"station_id":"","pricing_plan_id":"cebpf4jnsgd1na2vs0mg"},{"bike_id":"8b6f3069-2f41-403c-9394-8658440116e4","system_id":"levelo_inurba_marseille","lat":43.30944,"lon":5.39019,"is_reserved":false,"is_disabled":false,"rental_uris":{"android":"levelo://app?vid=8b6f3069-2f41-403c-9394-8658440116e4","ios":"levelo://app?vid=8b6f3069-2f41-403c-9394-8658440116e4"},"vehicle_type_id":"4","last_reported":1723234146,"current_range_meters":8400,"station_id":"ce4bgup2rcd13ifvqco0","pricing_plan_id":"cebpf4jnsgd1na2vs0mg"},{"bike_id":"2edd4b96-8aae-4c75-af3b-19a2d6d4edc5","system_id":"levelo_inurba_marseille","lat":43.3095,"lon":5.39021,"is_reserved":false,"is_disabled":false,"rental_uris":{"android":"levelo://app?vid=2edd4b96-8aae-4c75-af3b-19a2d6d4edc5","ios":"levelo://app?vid=2edd4b96-8aae-4c75-af3b-19a2d6d4edc5"},"vehicle_type_id":"4","last_reported":1723234146,"current_range_meters":18800,"station_id":"ce4bgup2rcd13ifvqco0","pricing_plan_id":"cebpf4jnsgd1na2vs0mg"},{"bike_id":"4034b40a-051e-4c20-831e-dcaa254b3560","system_id":"levelo_inurba_marseille","lat":43.30961,"lon":5.39024,"is_reserved":false,"is_disabled":false,"rental_uris":{"android":"levelo://app?vid=4034b40a-051e-4c20-831e-dcaa254b3560","ios":"levelo://app?vid=4034b40a-051e-4c20-831e-dcaa254b3560"},"vehicle_type_id":"4","last_reported":1723234146,"current_range_meters":2000,"station_id":"ce4bgup2rcd13ifvqco0","pricing_plan_id":"cebpf4jnsgd1na2vs0mg"},{"bike_id":"ca788817-f267-4567-badf-bb1f752f1a1f","system_id":"levelo_inurba_marseille","lat":43.30958,"lon":5.39024,"is_reserved":false,"is_disabled":false,"rental_uris":{"android":"levelo://app?vid=ca788817-f267-4567-badf-bb1f752f1a1f","ios":"levelo://app?vid=ca788817-f267-4567-badf-bb1f752f1a1f"},"vehicle_type_id":"4","last_reported":1723234146,"current_range_meters":4000,"station_id":"ce4bgup2rcd13ifvqco0","pricing_plan_id":"cebpf4jnsgd1na2vs0mg"},{"bike_id":"2f327680-870a-45a6-8ff1-4175cf58e28f","system_id":"levelo_inurba_marseille","lat":43.30954,"lon":5.39023,"is_reserved":false,"is_disabled":false,"rental_uris":{"android":"levelo://app?vid=2f327680-870a-45a6-8ff1-4175cf58e28f","ios":"levelo://app?vid=2f327680-870a-45a6-8ff1-4175cf58e28f"},"vehicle_type_id":"4","last_reported":1723234146,"current_range_meters":13600,"station_id":"ce4bgup2rcd13ifvqco0","pricing_plan_id":"cebpf4jnsgd1na2vs0mg"},{"bike_id":"2db2d598-63f4-4353-9905-0b1cf619ce74","system_id":"levelo_inurba_marseille","lat":43.30953,"lon":5.39023,"is_reserved":false,"is_disabled":false,"rental_uris":{"android":"levelo://app?vid=2db2d598-63f4-4353-9905-0b1cf619ce74","ios":"levelo://app?vid=2db2d598-63f4-4353-9905-0b1cf619ce74"},"vehicle_type_id":"4","last_reported":1723234146,"current_range_meters":17600,"station_id":"ce4bgup2rcd13ifvqco0","pricing_plan_id":"cebpf4jnsgd1na2vs0mg"},{"bike_id":"68d81127-f51e-4d4e-bb38-09e142fb5a3f","system_id":"levelo_inurba_marseille","lat":43.309557,"lon":5.390242,"is_reserved":false,"is_disabled":false,"rental_uris":{"android":"levelo://app?vid=68d81127-f51e-4d4e-bb38-09e142fb5a3f","ios":"levelo://app?vid=68d81127-f51e-4d4e-bb38-09e142fb5a3f"},"vehicle_type_id":"4","last_reported":1723234146,"current_range_meters":31200,"station_id":"ce4bgup2rcd13ifvqco0","pricing_plan_id":"cebpf4jnsgd1na2vs0mg"},{"bike_id":"63d2c164-be8d-47a5-a0f1-e7d708d58b32","system_id":"levelo_inurba_marseille","lat":43.3095,"lon":5.39023,"is_reserved":false,"is_disabled":false,"rental_uris":{"android":"levelo://app?vid=63d2c164-be8d-47a5-a0f1-e7d708d58b32","ios":"levelo://app?vid=63d2c164-be8d-47a5-a0f1-e7d708d58b32"},"vehicle_type_id":"4","last_reported":1723234146,"current_range_meters":28800,"station_id":"ce4bgup2rcd13ifvqco0","pricing_plan_id":"cebpf4jnsgd1na2vs0mg"},{"bike_id":"df434ed9-b46e-44cc-b53b-06c33a79ce94","system_id":"levelo_inurba_marseille","lat":43.30956,"lon":5.39025,"is_reserved":false,"is_disabled":false,"rental_uris":{"android":"levelo://app?vid=df434ed9-b46e-44cc-b53b-06c33a79ce94","ios":"levelo://app?vid=df434ed9-b46e-44cc-b53b-06c33a79ce94"},"vehicle_type_id":"4","last_reported":1723234146,"current_range_meters":12000,"station_id":"ce4bgup2rcd13ifvqco0","pricing_plan_id":"cebpf4jnsgd1na2vs0mg"},{"bike_id":"76fcb8a9-9470-4ef5-99be-f27842753d16","system_id":"levelo_inurba_marseille","lat":43.3095,"lon":5.39025,"is_reserved":false,"is_disabled":false,"rental_uris":{"android":"levelo://app?vid=76fcb8a9-9470-4ef5-99be-f27842753d16","ios":"levelo://app?vid=76fcb8a9-9470-4ef5-99be-f27842753d16"},"vehicle_type_id":"4","last_reported":1723234146,"current_range_meters":18400,"station_id":"ce4bgup2rcd13ifvqco0","pricing_plan_id":"cebpf4jnsgd1na2vs0mg"},{"bike_id":"3c262c98-76a9-4c31-9398-fbc893114a51","system_id":"levelo_inurba_marseille","lat":43.309589,"lon":5.390258,"is_reserved":false,"is_disabled":false,"rental_uris":{"android":"levelo://app?vid=3c262c98-76a9-4c31-9398-fbc893114a51","ios":"levelo://app?vid=3c262c98-76a9-4c31-9398-fbc893114a51"},"vehicle_type_id":"4","last_reported":1723234146,"current_range_meters":27600,"station_id":"ce4bgup2rcd13ifvqco0","pricing_plan_id":"cebpf4jnsgd1na2vs0mg"},{"bike_id":"f47befc7-5f5c-4a11-841a-7a8dc36c51d2","system_id":"levelo_inurba_marseille","lat":43.30958,"lon":5.39028,"is_reserved":false,"is_disabled":false,"rental_uris":{"android":"levelo://app?vid=f47befc7-5f5c-4a11-841a-7a8dc36c51d2","ios":"levelo://app?vid=f47befc7-5f5c-4a11-841a-7a8dc36c51d2"},"vehicle_type_id":"4","last_reported":1723234146,"current_range_meters":26400,"station_id":"ce4bgup2rcd13ifvqco0","pricing_plan_id":"cebpf4jnsgd1na2vs0mg"},{"bike_id":"1429ed85-bd67-4ed6-935e-e88e00e8fd03","system_id":"levelo_inurba_marseille","lat":43.309589,"lon":5.390258,"is_reserved":false,"is_disabled":false,"rental_uris":{"android":"levelo://app?vid=1429ed85-bd67-4ed6-935e-e88e00e8fd03","ios":"levelo://app?vid=1429ed85-bd67-4ed6-935e-e88e00e8fd03"},"vehicle_type_id":"4","last_reported":1723234146,"current_range_meters":21600,"station_id":"ce4bgup2rcd13ifvqco0","pricing_plan_id":"cebpf4jnsgd1na2vs0mg"},{"bike_id":"b0b9c2b8-5286-4076-9a24-af11a6f50b2a","system_id":"levelo_inurba_marseille","lat":43.30956,"lon":5.39029,"is_reserved":false,"is_disabled":false,"rental_uris":{"android":"levelo://app?vid=b0b9c2b8-5286-4076-9a24-af11a6f50b2a","ios":"levelo://app?vid=b0b9c2b8-5286-4076-9a24-af11a6f50b2a"},"vehicle_type_id":"4","last_reported":1723234146,"current_range_meters":14400,"station_id":"ce4bgup2rcd13ifvqco0","pricing_plan_id":"cebpf4jnsgd1na2vs0mg"},{"bike_id":"819b6352-bb5a-4318-bc5d-16347e697ff6","system_id":"levelo_inurba_marseille","lat":43.30952,"lon":5.39028,"is_reserved":false,"is_disabled":false,"rental_uris":{"android":"levelo://app?vid=819b6352-bb5a-4318-bc5d-16347e697ff6","ios":"levelo://app?vid=819b6352-bb5a-4318-bc5d-16347e697ff6"},"vehicle_type_id":"4","last_reported":1723234146,"current_range_meters":17600,"station_id":"ce4bgup2rcd13ifvqco0","pricing_plan_id":"cebpf4jnsgd1na2vs0mg"},{"bike_id":"c703e56b-6516-4743-af4f-76875dbc0cd9","system_id":"levelo_inurba_marseille","lat":43.30955,"lon":5.39029,"is_reserved":false,"is_disabled":false,"rental_uris":{"android":"levelo://app?vid=c703e56b-6516-4743-af4f-76875dbc0cd9","ios":"levelo://app?vid=c703e56b-6516-4743-af4f-76875dbc0cd9"},"vehicle_type_id":"4","last_reported":1723234146,"current_range_meters":28800,"station_id":"ce4bgup2rcd13ifvqco0","pricing_plan_id":"cebpf4jnsgd1na2vs0mg"},{"bike_id":"22b26adb-63c8-43f3-8dc9-59539b4f115f","system_id":"levelo_inurba_marseille","lat":43.30962,"lon":5.39031,"is_reserved":false,"is_disabled":false,"rental_uris":{"android":"levelo://app?vid=22b26adb-63c8-43f3-8dc9-59539b4f115f","ios":"levelo://app?vid=22b26adb-63c8-43f3-8dc9-59539b4f115f"},"vehicle_type_id":"4","last_reported":1723234146,"current_range_meters":15200,"station_id":"ce4bgup2rcd13ifvqco0","pricing_plan_id":"cebpf4jnsgd1na2vs0mg"},{"bike_id":"6c85dda2-36e5-4545-ad52-909f5d6e9663","system_id":"levelo_inurba_marseille","lat":43.309589,"lon":5.390258,"is_reserved":false,"is_disabled":false,"rental_uris":{"android":"levelo://app?vid=6c85dda2-36e5-4545-ad52-909f5d6e9663","ios":"levelo://app?vid=6c85dda2-36e5-4545-ad52-909f5d6e9663"},"vehicle_type_id":"4","last_reported":1723234146,"current_range_meters":25200,"station_id":"ce4bgup2rcd13ifvqco0","pricing_plan_id":"cebpf4jnsgd1na2vs0mg"},{"bike_id":"34be3b59-3ac0-435e-8a05-81b7fbf31f55","system_id":"levelo_inurba_marseille","lat":43.30952,"lon":5.39029,"is_reserved":false,"is_disabled":false,"rental_uris":{"android":"levelo://app?vid=34be3b59-3ac0-435e-8a05-81b7fbf31f55","ios":"levelo://app?vid=34be3b59-3ac0-435e-8a05-81b7fbf31f55"},"vehicle_type_id":"4","last_reported":1723234146,"current_range_meters":24800,"station_id":"ce4bgup2rcd13ifvqco0","pricing_plan_id":"cebpf4jnsgd1na2vs0mg"},{"bike_id":"557a384a-5483-495b-8f02-14bc12c295e1","system_id":"levelo_inurba_marseille","lat":43.309589,"lon":5.390258,"is_reserved":false,"is_disabled":false,"rental_uris":{"android":"levelo://app?vid=557a384a-5483-495b-8f02-14bc12c295e1","ios":"levelo://app?vid=557a384a-5483-495b-8f02-14bc12c295e1"},"vehicle_type_id":"4","last_reported":1723234146,"current_range_meters":15600,"station_id":"ce4bgup2rcd13ifvqco0","pricing_plan_id":"cebpf4jnsgd1na2vs0mg"},{"bike_id":"842bebdf-605c-4639-9d77-865a64d512cc","system_id":"levelo_inurba_marseille","lat":43.30954,"lon":5.3903,"is_reserved":false,"is_disabled":false,"rental_uris":{"android":"levelo://app?vid=842bebdf-605c-4639-9d77-865a64d512cc","ios":"levelo://app?vid=842bebdf-605c-4639-9d77-865a64d512cc"},"vehicle_type_id":"4","last_reported":1723234146,"current_range_meters":6000,"station_id":"ce4bgup2rcd13ifvqco0","pricing_plan_id":"cebpf4jnsgd1na2vs0mg"},{"bike_id":"6396c9fa-ff23-492b-8e02-a031aa5ea9cb","system_id":"levelo_inurba_marseille","lat":43.30954,"lon":5.39031,"is_reserved":false,"is_disabled":false,"rental_uris":{"android":"levelo://app?vid=6396c9fa-ff23-492b-8e02-a031aa5ea9cb","ios":"levelo://app?vid=6396c9fa-ff23-492b-8e02-a031aa5ea9cb"},"vehicle_type_id":"4","last_reported":1723234146,"current_range_meters":12000,"station_id":"ce4bgup2rcd13ifvqco0","pricing_plan_id":"cebpf4jnsgd1na2vs0mg"},{"bike_id":"e68754cd-20d2-4b8c-8889-92f302ac364f","system_id":"levelo_inurba_marseille","lat":43.30953,"lon":5.39031,"is_reserved":false,"is_disabled":false,"rental_uris":{"android":"levelo://app?vid=e68754cd-20d2-4b8c-8889-92f302ac364f","ios":"levelo://app?vid=e68754cd-20d2-4b8c-8889-92f302ac364f"},"vehicle_type_id":"4","last_reported":1723234146,"current_range_meters":21600,"station_id":"ce4bgup2rcd13ifvqco0","pricing_plan_id":"cebpf4jnsgd1na2vs0mg"},{"bike_id":"ecf969e0-b05f-439c-b738-547a528e4cdc","system_id":"levelo_inurba_marseille","lat":43.309565,"lon":5.39032,"is_reserved":false,"is_disabled":false,"rental_uris":{"android":"levelo://app?vid=ecf969e0-b05f-439c-b738-547a528e4cdc","ios":"levelo://app?vid=ecf969e0-b05f-439c-b738-547a528e4cdc"},"vehicle_type_id":"4","last_reported":1723234146,"current_range_meters":3600,"station_id":"ce4bgup2rcd13ifvqco0","pricing_plan_id":"cebpf4jnsgd1na2vs0mg"},{"bike_id":"c6a9890c-0636-4312-bfb9-fe332f513c74","system_id":"levelo_inurba_marseille","lat":43.309589,"lon":5.390258,"is_reserved":false,"is_disabled":false,"rental_uris":{"android":"levelo://app?vid=c6a9890c-0636-4312-bfb9-fe332f513c74","ios":"levelo://app?vid=c6a9890c-0636-4312-bfb9-fe332f513c74"},"vehicle_type_id":"4","last_reported":1723234146,"current_range_meters":31600,"station_id":"ce4bgup2rcd13ifvqco0","pricing_plan_id":"cebpf4jnsgd1na2vs0mg"},{"bike_id":"577aea62-1b97-41ab-9732-85970a4a71dd","system_id":"levelo_inurba_marseille","lat":43.309589,"lon":5.390258,"is_reserved":false,"is_disabled":false,"rental_uris":{"android":"levelo://app?vid=577aea62-1b97-41ab-9732-85970a4a71dd","ios":"levelo://app?vid=577aea62-1b97-41ab-9732-85970a4a71dd"},"vehicle_type_id":"4","last_reported":1723234146,"current_range_meters":30400,"station_id":"ce4bgup2rcd13ifvqco0","pricing_plan_id":"cebpf4jnsgd1na2vs0mg"},{"bike_id":"370ba2f6-c043-4f05-b3f9-15c7bab5e087","system_id":"levelo_inurba_marseille","lat":43.309589,"lon":5.390258,"is_reserved":false,"is_disabled":false,"rental_uris":{"android":"levelo://app?vid=370ba2f6-c043-4f05-b3f9-15c7bab5e087","ios":"levelo://app?vid=370ba2f6-c043-4f05-b3f9-15c7bab5e087"},"vehicle_type_id":"4","last_reported":1723234146,"current_range_meters":28000,"station_id":"ce4bgup2rcd13ifvqco0","pricing_plan_id":"cebpf4jnsgd1na2vs0mg"},{"bike_id":"5ab691ab-9605-40b4-bcec-eb2dceed4b63","system_id":"levelo_inurba_marseille","lat":43.3095,"lon":5.390311,"is_reserved":false,"is_disabled":false,"rental_uris":{"android":"levelo://app?vid=5ab691ab-9605-40b4-bcec-eb2dceed4b63","ios":"levelo://app?vid=5ab691ab-9605-40b4-bcec-eb2dceed4b63"},"vehicle_type_id":"4","last_reported":1723234146,"current_range_meters":31200,"station_id":"ce4bgup2rcd13ifvqco0","pricing_plan_id":"cebpf4jnsgd1na2vs0mg"},{"bike_id":"f826df34-ec19-4f47-90e0-7e3cbdd67efa","system_id":"levelo_inurba_marseille","lat":43.299,"lon":5.38142,"is_reserved":false,"is_disabled":false,"rental_uris":{"android":"levelo://app?vid=f826df34-ec19-4f47-90e0-7e3cbdd67efa","ios":"levelo://app?vid=f826df34-ec19-4f47-90e0-7e3cbdd67efa"},"vehicle_type_id":"4","last_reported":1723234146,"current_range_meters":0,"station_id":"ce4bgj12rcd13ifvqbc0","pricing_plan_id":"cebpf4jnsgd1na2vs0mg"},{"bike_id":"bc1fee8f-e298-41cc-ab14-d19e249a4294","system_id":"levelo_inurba_marseille","lat":43.309568,"lon":5.390349,"is_reserved":false,"is_disabled":false,"rental_uris":{"android":"levelo://app?vid=bc1fee8f-e298-41cc-ab14-d19e249a4294","ios":"levelo://app?vid=bc1fee8f-e298-41cc-ab14-d19e249a4294"},"vehicle_type_id":"4","last_reported":1723234146,"current_range_meters":25200,"station_id":"ce4bgup2rcd13ifvqco0","pricing_plan_id":"cebpf4jnsgd1na2vs0mg"},{"bike_id":"ab43db2f-eddd-4fe8-bb37-241bc8027ccc","system_id":"levelo_inurba_marseille","lat":43.309559,"lon":5.39035,"is_reserved":false,"is_disabled":false,"rental_uris":{"android":"levelo://app?vid=ab43db2f-eddd-4fe8-bb37-241bc8027ccc","ios":"levelo://app?vid=ab43db2f-eddd-4fe8-bb37-241bc8027ccc"},"vehicle_type_id":"4","last_reported":1723234146,"current_range_meters":29600,"station_id":"ce4bgup2rcd13ifvqco0","pricing_plan_id":"cebpf4jnsgd1na2vs0mg"},{"bike_id":"8e414a2a-c1a9-4536-9c37-2800a20a9ffd","system_id":"levelo_inurba_marseille","lat":43.309581,"lon":5.390361,"is_reserved":false,"is_disabled":false,"rental_uris":{"android":"levelo://app?vid=8e414a2a-c1a9-4536-9c37-2800a20a9ffd","ios":"levelo://app?vid=8e414a2a-c1a9-4536-9c37-2800a20a9ffd"},"vehicle_type_id":"4","last_reported":1723234146,"current_range_meters":31200,"station_id":"ce4bgup2rcd13ifvqco0","pricing_plan_id":"cebpf4jnsgd1na2vs0mg"},{"bike_id":"d67c8e29-7205-4ce2-8a9d-a25824ee130a","system_id":"levelo_inurba_marseille","lat":43.30953,"lon":5.39035,"is_reserved":false,"is_disabled":false,"rental_uris":{"android":"levelo://app?vid=d67c8e29-7205-4ce2-8a9d-a25824ee130a","ios":"levelo://app?vid=d67c8e29-7205-4ce2-8a9d-a25824ee130a"},"vehicle_type_id":"4","last_reported":1723234146,"current_range_meters":16000,"station_id":"ce4bgup2rcd13ifvqco0","pricing_plan_id":"cebpf4jnsgd1na2vs0mg"},{"bike_id":"c7ed0964-1873-44ae-8c6b-ce8e1aa65688","system_id":"levelo_inurba_marseille","lat":43.309589,"lon":5.390258,"is_reserved":false,"is_disabled":false,"rental_uris":{"android":"levelo://app?vid=c7ed0964-1873-44ae-8c6b-ce8e1aa65688","ios":"levelo://app?vid=c7ed0964-1873-44ae-8c6b-ce8e1aa65688"},"vehicle_type_id":"4","last_reported":1723234146,"current_range_meters":31600,"station_id":"ce4bgup2rcd13ifvqco0","pricing_plan_id":"cebpf4jnsgd1na2vs0mg"},{"bike_id":"839c28b6-72e9-4931-8c37-22583c66b385","system_id":"levelo_inurba_marseille","lat":43.30949,"lon":5.39035,"is_reserved":false,"is_disabled":false,"rental_uris":{"android":"levelo://app?vid=839c28b6-72e9-4931-8c37-22583c66b385","ios":"levelo://app?vid=839c28b6-72e9-4931-8c37-22583c66b385"},"vehicle_type_id":"4","last_reported":1723234146,"current_range_meters":3600,"station_id":"ce4bgup2rcd13ifvqco0","pricing_plan_id":"cebpf4jnsgd1na2vs0mg"},{"bike_id":"935a8a13-6a1d-4fe4-8c47-79d34176241c","system_id":"levelo_inurba_marseille","lat":43.309614,"lon":5.390406,"is_reserved":false,"is_disabled":false,"rental_uris":{"android":"levelo://app?vid=935a8a13-6a1d-4fe4-8c47-79d34176241c","ios":"levelo://app?vid=935a8a13-6a1d-4fe4-8c47-79d34176241c"},"vehicle_type_id":"4","last_reported":1723234146,"current_range_meters":28400,"station_id":"ce4bgup2rcd13ifvqco0","pricing_plan_id":"cebpf4jnsgd1na2vs0mg"},{"bike_id":"cb6d6e70-f764-4e5b-88f5-4bf539a4ad0f","system_id":"levelo_inurba_marseille","lat":43.30954,"lon":5.39039,"is_reserved":false,"is_disabled":false,"rental_uris":{"android":"levelo://app?vid=cb6d6e70-f764-4e5b-88f5-4bf539a4ad0f","ios":"levelo://app?vid=cb6d6e70-f764-4e5b-88f5-4bf539a4ad0f"},"vehicle_type_id":"4","last_reported":1723234146,"current_range_meters":13200,"station_id":"ce4bgup2rcd13ifvqco0","pricing_plan_id":"cebpf4jnsgd1na2vs0mg"},{"bike_id":"d677c143-bef4-42d2-84cd-625cf833c316","system_id":"levelo_inurba_marseille","lat":43.309589,"lon":5.390258,"is_reserved":false,"is_disabled":false,"rental_uris":{"android":"levelo://app?vid=d677c143-bef4-42d2-84cd-625cf833c316","ios":"levelo://app?vid=d677c143-bef4-42d2-84cd-625cf833c316"},"vehicle_type_id":"4","last_reported":1723234146,"current_range_meters":22800,"station_id":"ce4bgup2rcd13ifvqco0","pricing_plan_id":"cebpf4jnsgd1na2vs0mg"},{"bike_id":"a05da720-9c36-4953-a982-09685a3ec689","system_id":"levelo_inurba_marseille","lat":43.309589,"lon":5.390258,"is_reserved":false,"is_disabled":false,"rental_uris":{"android":"levelo://app?vid=a05da720-9c36-4953-a982-09685a3ec689","ios":"levelo://app?vid=a05da720-9c36-4953-a982-09685a3ec689"},"vehicle_type_id":"4","last_reported":1723234146,"current_range_meters":14400,"station_id":"ce4bgup2rcd13ifvqco0","pricing_plan_id":"cebpf4jnsgd1na2vs0mg"},{"bike_id":"faed4896-24d8-4c9b-a168-6ea27355bc3e","system_id":"levelo_inurba_marseille","lat":43.30948,"lon":5.3904,"is_reserved":false,"is_disabled":false,"rental_uris":{"android":"levelo://app?vid=faed4896-24d8-4c9b-a168-6ea27355bc3e","ios":"levelo://app?vid=faed4896-24d8-4c9b-a168-6ea27355bc3e"},"vehicle_type_id":"4","last_reported":1723234146,"current_range_meters":31200,"station_id":"ce4bgup2rcd13ifvqco0","pricing_plan_id":"cebpf4jnsgd1na2vs0mg"},{"bike_id":"9a966c52-7830-4438-94c6-7fddf3d5a721","system_id":"levelo_inurba_marseille","lat":43.30955,"lon":5.39042,"is_reserved":false,"is_disabled":false,"rental_uris":{"android":"levelo://app?vid=9a966c52-7830-4438-94c6-7fddf3d5a721","ios":"levelo://app?vid=9a966c52-7830-4438-94c6-7fddf3d5a721"},"vehicle_type_id":"4","last_reported":1723234146,"current_range_meters":12400,"station_id":"ce4bgup2rcd13ifvqco0","pricing_plan_id":"cebpf4jnsgd1na2vs0mg"},{"bike_id":"5b84900e-94b4-49c4-82ed-79631c8efd56","system_id":"levelo_inurba_marseille","lat":43.309537,"lon":5.39042,"is_reserved":false,"is_disabled":false,"rental_uris":{"android":"levelo://app?vid=5b84900e-94b4-49c4-82ed-79631c8efd56","ios":"levelo://app?vid=5b84900e-94b4-49c4-82ed-79631c8efd56"},"vehicle_type_id":"4","last_reported":1723234146,"current_range_meters":24800,"station_id":"ce4bgup2rcd13ifvqco0","pricing_plan_id":"cebpf4jnsgd1na2vs0mg"},{"bike_id":"abedd177-9fdd-4a0c-ae0d-87a246505754","system_id":"levelo_inurba_marseille","lat":43.30954,"lon":5.39044,"is_reserved":false,"is_disabled":false,"rental_uris":{"android":"levelo://app?vid=abedd177-9fdd-4a0c-ae0d-87a246505754","ios":"levelo://app?vid=abedd177-9fdd-4a0c-ae0d-87a246505754"},"vehicle_type_id":"4","last_reported":1723234146,"current_range_meters":18000,"station_id":"ce4bgup2rcd13ifvqco0","pricing_plan_id":"cebpf4jnsgd1na2vs0mg"},{"bike_id":"66fa0fa7-0b2e-4f47-90a5-1a0b4f5efd49","system_id":"levelo_inurba_marseille","lat":43.30954,"lon":5.39044,"is_reserved":false,"is_disabled":false,"rental_uris":{"android":"levelo://app?vid=66fa0fa7-0b2e-4f47-90a5-1a0b4f5efd49","ios":"levelo://app?vid=66fa0fa7-0b2e-4f47-90a5-1a0b4f5efd49"},"vehicle_type_id":"4","last_reported":1723234146,"current_range_meters":4400,"station_id":"ce4bgup2rcd13ifvqco0","pricing_plan_id":"cebpf4jnsgd1na2vs0mg"},{"bike_id":"cc88674a-9d93-4646-81b1-04c4de3bb250","system_id":"levelo_inurba_marseille","lat":43.309589,"lon":5.390258,"is_reserved":false,"is_disabled":false,"rental_uris":{"android":"levelo://app?vid=cc88674a-9d93-4646-81b1-04c4de3bb250","ios":"levelo://app?vid=cc88674a-9d93-4646-81b1-04c4de3bb250"},"vehicle_type_id":"4","last_reported":1723234146,"current_range_meters":29600,"station_id":"ce4bgup2rcd13ifvqco0","pricing_plan_id":"cebpf4jnsgd1na2vs0mg"},{"bike_id":"7707d947-56bb-48b8-a010-e0ff76502f9f","system_id":"levelo_inurba_marseille","lat":43.309589,"lon":5.390258,"is_reserved":false,"is_disabled":false,"rental_uris":{"android":"levelo://app?vid=7707d947-56bb-48b8-a010-e0ff76502f9f","ios":"levelo://app?vid=7707d947-56bb-48b8-a010-e0ff76502f9f"},"vehicle_type_id":"4","last_reported":1723234146,"current_range_meters":12400,"station_id":"ce4bgup2rcd13ifvqco0","pricing_plan_id":"cebpf4jnsgd1na2vs0mg"},{"bike_id":"2533df20-515a-45a1-a56f-b9fe0abe9867","system_id":"levelo_inurba_marseille","lat":43.309547,"lon":5.390483,"is_reserved":false,"is_disabled":false,"rental_uris":{"android":"levelo://app?vid=2533df20-515a-45a1-a56f-b9fe0abe9867","ios":"levelo://app?vid=2533df20-515a-45a1-a56f-b9fe0abe9867"},"vehicle_type_id":"4","last_reported":1723234146,"current_range_meters":4800,"station_id":"ce4bgup2rcd13ifvqco0","pricing_plan_id":"cebpf4jnsgd1na2vs0mg"},{"bike_id":"cceef251-04de-48ac-93a8-30590922cb68","system_id":"levelo_inurba_marseille","lat":43.309589,"lon":5.390258,"is_reserved":false,"is_disabled":false,"rental_uris":{"android":"levelo://app?vid=cceef251-04de-48ac-93a8-30590922cb68","ios":"levelo://app?vid=cceef251-04de-48ac-93a8-30590922cb68"},"vehicle_type_id":"4","last_reported":1723234146,"current_range_meters":31600,"station_id":"ce4bgup2rcd13ifvqco0","pricing_plan_id":"cebpf4jnsgd1na2vs0mg"},{"bike_id":"f19198d1-50b5-44b5-b6c6-8b0cdd4352bf","system_id":"levelo_inurba_marseille","lat":43.309589,"lon":5.390258,"is_reserved":false,"is_disabled":false,"rental_uris":{"android":"levelo://app?vid=f19198d1-50b5-44b5-b6c6-8b0cdd4352bf","ios":"levelo://app?vid=f19198d1-50b5-44b5-b6c6-8b0cdd4352bf"},"vehicle_type_id":"4","last_reported":1723234146,"current_range_meters":31600,"station_id":"ce4bgup2rcd13ifvqco0","pricing_plan_id":"cebpf4jnsgd1na2vs0mg"},{"bike_id":"34ee64de-41ca-4fe9-9985-cc6d6357f013","system_id":"levelo_inurba_marseille","lat":43.30967,"lon":5.39064,"is_reserved":false,"is_disabled":false,"rental_uris":{"android":"levelo://app?vid=34ee64de-41ca-4fe9-9985-cc6d6357f013","ios":"levelo://app?vid=34ee64de-41ca-4fe9-9985-cc6d6357f013"},"vehicle_type_id":"4","last_reported":1723234146,"current_range_meters":19200,"station_id":"ce4bgup2rcd13ifvqco0","pricing_plan_id":"cebpf4jnsgd1na2vs0mg"},{"bike_id":"9aa4b246-8c0a-4c65-a986-a1d9de3518ab","system_id":"levelo_inurba_marseille","lat":43.317557,"lon":5.390173,"is_reserved":false,"is_disabled":false,"rental_uris":{"android":"levelo://app?vid=9aa4b246-8c0a-4c65-a986-a1d9de3518ab","ios":"levelo://app?vid=9aa4b246-8c0a-4c65-a986-a1d9de3518ab"},"vehicle_type_id":"4","last_reported":1723234146,"current_range_meters":9200,"station_id":"ce4bhqp2rcd13ifvqhng","pricing_plan_id":"cebpf4jnsgd1na2vs0mg"},{"bike_id":"95eb12c1-526d-482e-93e4-f3597c49172b","system_id":"levelo_inurba_marseille","lat":43.31763,"lon":5.39015,"is_reserved":false,"is_disabled":false,"rental_uris":{"android":"levelo://app?vid=95eb12c1-526d-482e-93e4-f3597c49172b","ios":"levelo://app?vid=95eb12c1-526d-482e-93e4-f3597c49172b"},"vehicle_type_id":"4","last_reported":1723234146,"current_range_meters":12000,"station_id":"ce4bhqp2rcd13ifvqhng","pricing_plan_id":"cebpf4jnsgd1na2vs0mg"},{"bike_id":"a466d071-88fb-4058-9edc-36d8f612cb28","system_id":"levelo_inurba_marseille","lat":43.304274,"lon":5.388873,"is_reserved":false,"is_disabled":false,"rental_uris":{"android":"levelo://app?vid=a466d071-88fb-4058-9edc-36d8f612cb28","ios":"levelo://app?vid=a466d071-88fb-4058-9edc-36d8f612cb28"},"vehicle_type_id":"4","last_reported":1723234146,"current_range_meters":0,"station_id":"ce4bgk12rcd13ifvqbi0","pricing_plan_id":"cebpf4jnsgd1na2vs0mg"},{"bike_id":"97ae57ee-b3ee-474f-95f3-54b5d7345188","system_id":"levelo_inurba_marseille","lat":43.298037,"lon":5.381066,"is_reserved":false,"is_disabled":false,"rental_uris":{"android":"levelo://app?vid=97ae57ee-b3ee-474f-95f3-54b5d7345188","ios":"levelo://app?vid=97ae57ee-b3ee-474f-95f3-54b5d7345188"},"vehicle_type_id":"4","last_reported":1723234146,"current_range_meters":29200,"station_id":"ce4bgip2rcd13ifvqbb0","pricing_plan_id":"cebpf4jnsgd1na2vs0mg"},{"bike_id":"01c8c6c6-b858-4d94-9d5f-f0b32cad173d","system_id":"levelo_inurba_marseille","lat":43.295748,"lon":5.37522,"is_reserved":false,"is_disabled":false,"rental_uris":{"android":"levelo://app?vid=01c8c6c6-b858-4d94-9d5f-f0b32cad173d","ios":"levelo://app?vid=01c8c6c6-b858-4d94-9d5f-f0b32cad173d"},"vehicle_type_id":"4","last_reported":1723234146,"current_range_meters":3600,"station_id":"ce4bgh92rcd13ifvqb50","pricing_plan_id":"cebpf4jnsgd1na2vs0mg"},{"bike_id":"65e5d998-6502-41cc-8199-8d116b0e2180","system_id":"levelo_inurba_marseille","lat":43.295748,"lon":5.37522,"is_reserved":false,"is_disabled":false,"rental_uris":{"android":"levelo://app?vid=65e5d998-6502-41cc-8199-8d116b0e2180","ios":"levelo://app?vid=65e5d998-6502-41cc-8199-8d116b0e2180"},"vehicle_type_id":"4","last_reported":1723234146,"current_range_meters":6800,"station_id":"ce4bgh92rcd13ifvqb50","pricing_plan_id":"cebpf4jnsgd1na2vs0mg"},{"bike_id":"ea7a9941-8cce-4326-a055-e2fdaeb904b3","system_id":"levelo_inurba_marseille","lat":43.295748,"lon":5.37522,"is_reserved":false,"is_disabled":false,"rental_uris":{"android":"levelo://app?vid=ea7a9941-8cce-4326-a055-e2fdaeb904b3","ios":"levelo://app?vid=ea7a9941-8cce-4326-a055-e2fdaeb904b3"},"vehicle_type_id":"4","last_reported":1723234146,"current_range_meters":13600,"station_id":"ce4bgh92rcd13ifvqb50","pricing_plan_id":"cebpf4jnsgd1na2vs0mg"},{"bike_id":"6a31e9ee-c9f7-486b-b150-4b22f493e4bc","system_id":"levelo_inurba_marseille","lat":43.296263,"lon":5.377094,"is_reserved":false,"is_disabled":false,"rental_uris":{"android":"levelo://app?vid=6a31e9ee-c9f7-486b-b150-4b22f493e4bc","ios":"levelo://app?vid=6a31e9ee-c9f7-486b-b150-4b22f493e4bc"},"vehicle_type_id":"4","last_reported":1723234146,"current_range_meters":26400,"station_id":"ce4bgi92rcd13ifvqb90","pricing_plan_id":"cebpf4jnsgd1na2vs0mg"},{"bike_id":"e74daa47-718e-4646-a8e0-669ce77796a1","system_id":"levelo_inurba_marseille","lat":43.295279,"lon":5.375048,"is_reserved":false,"is_disabled":false,"rental_uris":{"android":"levelo://app?vid=e74daa47-718e-4646-a8e0-669ce77796a1","ios":"levelo://app?vid=e74daa47-718e-4646-a8e0-669ce77796a1"},"vehicle_type_id":"4","last_reported":1723234146,"current_range_meters":0,"station_id":"ce4bgkp2rcd13ifvqbmg","pricing_plan_id":"cebpf4jnsgd1na2vs0mg"},{"bike_id":"4385894f-5195-4653-8119-e4750b9f5d33","system_id":"levelo_inurba_marseille","lat":43.32367,"lon":5.388836,"is_reserved":false,"is_disabled":false,"rental_uris":{"android":"levelo://app?vid=4385894f-5195-4653-8119-e4750b9f5d33","ios":"levelo://app?vid=4385894f-5195-4653-8119-e4750b9f5d33"},"vehicle_type_id":"4","last_reported":1723234146,"current_range_meters":7200,"station_id":"ce4bhqp2rcd13ifvqhog","pricing_plan_id":"cebpf4jnsgd1na2vs0mg"},{"bike_id":"0494cab8-fe2b-4f85-81eb-a0ff88e21eb1","system_id":"levelo_inurba_marseille","lat":43.29855,"lon":5.38546,"is_reserved":false,"is_disabled":false,"rental_uris":{"android":"levelo://app?vid=0494cab8-fe2b-4f85-81eb-a0ff88e21eb1","ios":"levelo://app?vid=0494cab8-fe2b-4f85-81eb-a0ff88e21eb1"},"vehicle_type_id":"4","last_reported":1723234146,"current_range_meters":27600,"station_id":"","pricing_plan_id":"cebpf4jnsgd1na2vs0mg"},{"bike_id":"cccf9d35-6ff6-444f-bd9b-7f790ae5bc3e","system_id":"levelo_inurba_marseille","lat":43.29602,"lon":5.381084,"is_reserved":false,"is_disabled":false,"rental_uris":{"android":"levelo://app?vid=cccf9d35-6ff6-444f-bd9b-7f790ae5bc3e","ios":"levelo://app?vid=cccf9d35-6ff6-444f-bd9b-7f790ae5bc3e"},"vehicle_type_id":"4","last_reported":1723234146,"current_range_meters":6000,"station_id":"ce4bgl12rcd13ifvqbo0","pricing_plan_id":"cebpf4jnsgd1na2vs0mg"},{"bike_id":"0d60c012-e07f-47f9-9a1d-de64603f65d1","system_id":"levelo_inurba_marseille","lat":43.296,"lon":5.38107,"is_reserved":false,"is_disabled":false,"rental_uris":{"android":"levelo://app?vid=0d60c012-e07f-47f9-9a1d-de64603f65d1","ios":"levelo://app?vid=0d60c012-e07f-47f9-9a1d-de64603f65d1"},"vehicle_type_id":"4","last_reported":1723234146,"current_range_meters":28800,"station_id":"","pricing_plan_id":"cebpf4jnsgd1na2vs0mg"},{"bike_id":"f61405ac-36b2-4974-8992-26026e7be3a1","system_id":"levelo_inurba_marseille","lat":43.29596,"lon":5.38105,"is_reserved":false,"is_disabled":false,"rental_uris":{"android":"levelo://app?vid=f61405ac-36b2-4974-8992-26026e7be3a1","ios":"levelo://app?vid=f61405ac-36b2-4974-8992-26026e7be3a1"},"vehicle_type_id":"4","last_reported":1723234146,"current_range_meters":30000,"station_id":"ce4bgl12rcd13ifvqbo0","pricing_plan_id":"cebpf4jnsgd1na2vs0mg"},{"bike_id":"3c3b3e37-56ef-4662-9780-74143bac4091","system_id":"levelo_inurba_marseille","lat":43.309589,"lon":5.390258,"is_reserved":false,"is_disabled":false,"rental_uris":{"android":"levelo://app?vid=3c3b3e37-56ef-4662-9780-74143bac4091","ios":"levelo://app?vid=3c3b3e37-56ef-4662-9780-74143bac4091"},"vehicle_type_id":"4","last_reported":1723234146,"current_range_meters":8800,"station_id":"ce4bgup2rcd13ifvqco0","pricing_plan_id":"cebpf4jnsgd1na2vs0mg"},{"bike_id":"71d9cc1b-c23a-451f-acfe-f8c29a4b8f3f","system_id":"levelo_inurba_marseille","lat":43.300602,"lon":5.388494,"is_reserved":false,"is_disabled":false,"rental_uris":{"android":"levelo://app?vid=71d9cc1b-c23a-451f-acfe-f8c29a4b8f3f","ios":"levelo://app?vid=71d9cc1b-c23a-451f-acfe-f8c29a4b8f3f"},"vehicle_type_id":"4","last_reported":1723234146,"current_range_meters":7200,"station_id":"","pricing_plan_id":"cebpf4jnsgd1na2vs0mg"},{"bike_id":"8bbe7a8e-20b2-4685-a5fd-1af23001f656","system_id":"levelo_inurba_marseille","lat":43.29276,"lon":5.36843,"is_reserved":false,"is_disabled":false,"rental_uris":{"android":"levelo://app?vid=8bbe7a8e-20b2-4685-a5fd-1af23001f656","ios":"levelo://app?vid=8bbe7a8e-20b2-4685-a5fd-1af23001f656"},"vehicle_type_id":"4","last_reported":1723234146,"current_range_meters":0,"station_id":"ce4bhbp2rcd13ifvqesg","pricing_plan_id":"cebpf4jnsgd1na2vs0mg"},{"bike_id":"db8d6162-29b2-4109-83c2-d3602ad12a04","system_id":"levelo_inurba_marseille","lat":43.29304,"lon":5.3718,"is_reserved":false,"is_disabled":false,"rental_uris":{"android":"levelo://app?vid=db8d6162-29b2-4109-83c2-d3602ad12a04","ios":"levelo://app?vid=db8d6162-29b2-4109-83c2-d3602ad12a04"},"vehicle_type_id":"4","last_reported":1723234146,"current_range_meters":8400,"station_id":"ce4bgh92rcd13ifvqb40","pricing_plan_id":"cebpf4jnsgd1na2vs0mg"},{"bike_id":"650ac5bc-7629-433d-8bed-b00cb016a459","system_id":"levelo_inurba_marseille","lat":43.293974,"lon":5.376532,"is_reserved":false,"is_disabled":false,"rental_uris":{"android":"levelo://app?vid=650ac5bc-7629-433d-8bed-b00cb016a459","ios":"levelo://app?vid=650ac5bc-7629-433d-8bed-b00cb016a459"},"vehicle_type_id":"4","last_reported":1723234146,"current_range_meters":28800,"station_id":"","pricing_plan_id":"cebpf4jnsgd1na2vs0mg"},{"bike_id":"cb28aa7e-30ac-40d3-bf82-fc1920504953","system_id":"levelo_inurba_marseille","lat":43.292749,"lon":5.368398,"is_reserved":false,"is_disabled":false,"rental_uris":{"android":"levelo://app?vid=cb28aa7e-30ac-40d3-bf82-fc1920504953","ios":"levelo://app?vid=cb28aa7e-30ac-40d3-bf82-fc1920504953"},"vehicle_type_id":"4","last_reported":1723234146,"current_range_meters":0,"station_id":"ce4bhbp2rcd13ifvqesg","pricing_plan_id":"cebpf4jnsgd1na2vs0mg"},{"bike_id":"dd8b4997-1017-44dd-b4fd-9d9117fe7360","system_id":"levelo_inurba_marseille","lat":43.304606,"lon":5.379026,"is_reserved":false,"is_disabled":false,"rental_uris":{"android":"levelo://app?vid=dd8b4997-1017-44dd-b4fd-9d9117fe7360","ios":"levelo://app?vid=dd8b4997-1017-44dd-b4fd-9d9117fe7360"},"vehicle_type_id":"4","last_reported":1723234146,"current_range_meters":7200,"station_id":"ce4bgup2rcd13ifvqcn0","pricing_plan_id":"cebpf4jnsgd1na2vs0mg"},{"bike_id":"c342abdb-f7f8-42c7-9c21-f70ac533e688","system_id":"levelo_inurba_marseille","lat":43.29234,"lon":5.36652,"is_reserved":false,"is_disabled":false,"rental_uris":{"android":"levelo://app?vid=c342abdb-f7f8-42c7-9c21-f70ac533e688","ios":"levelo://app?vid=c342abdb-f7f8-42c7-9c21-f70ac533e688"},"vehicle_type_id":"4","last_reported":1723234146,"current_range_meters":0,"station_id":"","pricing_plan_id":"cebpf4jnsgd1na2vs0mg"},{"bike_id":"32fc0145-8296-40c4-a7bb-712c36f836f0","system_id":"levelo_inurba_marseille","lat":43.305994,"lon":5.393687,"is_reserved":false,"is_disabled":false,"rental_uris":{"android":"levelo://app?vid=32fc0145-8296-40c4-a7bb-712c36f836f0","ios":"levelo://app?vid=32fc0145-8296-40c4-a7bb-712c36f836f0"},"vehicle_type_id":"4","last_reported":1723234146,"current_range_meters":0,"station_id":"ce4bh0p2rcd13ifvqd80","pricing_plan_id":"cebpf4jnsgd1na2vs0mg"},{"bike_id":"8d37495d-9961-45f8-ba67-ee81725ae3ae","system_id":"levelo_inurba_marseille","lat":43.29228,"lon":5.36363,"is_reserved":false,"is_disabled":false,"rental_uris":{"android":"levelo://app?vid=8d37495d-9961-45f8-ba67-ee81725ae3ae","ios":"levelo://app?vid=8d37495d-9961-45f8-ba67-ee81725ae3ae"},"vehicle_type_id":"4","last_reported":1723234146,"current_range_meters":11600,"station_id":"","pricing_plan_id":"cebpf4jnsgd1na2vs0mg"},{"bike_id":"ec595513-192c-460c-8aef-b9fb01f11eb7","system_id":"levelo_inurba_marseille","lat":43.2936,"lon":5.37835,"is_reserved":false,"is_disabled":false,"rental_uris":{"android":"levelo://app?vid=ec595513-192c-460c-8aef-b9fb01f11eb7","ios":"levelo://app?vid=ec595513-192c-460c-8aef-b9fb01f11eb7"},"vehicle_type_id":"4","last_reported":1723234146,"current_range_meters":2000,"station_id":"ce4bgjh2rcd13ifvqbf0","pricing_plan_id":"cebpf4jnsgd1na2vs0mg"},{"bike_id":"e9935ab5-123c-4835-a566-6feaf75e8d0e","system_id":"levelo_inurba_marseille","lat":43.30085,"lon":5.390856,"is_reserved":false,"is_disabled":false,"rental_uris":{"android":"levelo://app?vid=e9935ab5-123c-4835-a566-6feaf75e8d0e","ios":"levelo://app?vid=e9935ab5-123c-4835-a566-6feaf75e8d0e"},"vehicle_type_id":"4","last_reported":1723234146,"current_range_meters":31200,"station_id":"ce4bh192rcd13ifvqdb0","pricing_plan_id":"cebpf4jnsgd1na2vs0mg"},{"bike_id":"ef13c058-c43a-4a7a-8442-9ff9287b91c5","system_id":"levelo_inurba_marseille","lat":43.30085,"lon":5.390856,"is_reserved":false,"is_disabled":false,"rental_uris":{"android":"levelo://app?vid=ef13c058-c43a-4a7a-8442-9ff9287b91c5","ios":"levelo://app?vid=ef13c058-c43a-4a7a-8442-9ff9287b91c5"},"vehicle_type_id":"4","last_reported":1723234146,"current_range_meters":31200,"station_id":"ce4bh192rcd13ifvqdb0","pricing_plan_id":"cebpf4jnsgd1na2vs0mg"},{"bike_id":"3a73b3a5-80bd-4179-9959-6e9469b31cbe","system_id":"levelo_inurba_marseille","lat":43.30085,"lon":5.390856,"is_reserved":false,"is_disabled":false,"rental_uris":{"android":"levelo://app?vid=3a73b3a5-80bd-4179-9959-6e9469b31cbe","ios":"levelo://app?vid=3a73b3a5-80bd-4179-9959-6e9469b31cbe"},"vehicle_type_id":"4","last_reported":1723234146,"current_range_meters":31200,"station_id":"ce4bh192rcd13ifvqdb0","pricing_plan_id":"cebpf4jnsgd1na2vs0mg"},{"bike_id":"8669c215-f64f-4991-918a-38e605b47e3d","system_id":"levelo_inurba_marseille","lat":43.292919,"lon":5.355562,"is_reserved":false,"is_disabled":false,"rental_uris":{"android":"levelo://app?vid=8669c215-f64f-4991-918a-38e605b47e3d","ios":"levelo://app?vid=8669c215-f64f-4991-918a-38e605b47e3d"},"vehicle_type_id":"4","last_reported":1723234146,"current_range_meters":11600,"station_id":"","pricing_plan_id":"cebpf4jnsgd1na2vs0mg"},{"bike_id":"29a7e618-e078-48b3-8719-31d61e560921","system_id":"levelo_inurba_marseille","lat":43.31332,"lon":5.39686,"is_reserved":false,"is_disabled":false,"rental_uris":{"android":"levelo://app?vid=29a7e618-e078-48b3-8719-31d61e560921","ios":"levelo://app?vid=29a7e618-e078-48b3-8719-31d61e560921"},"vehicle_type_id":"4","last_reported":1723234146,"current_range_meters":4800,"station_id":"ce4bgvp2rcd13ifvqcu0","pricing_plan_id":"cebpf4jnsgd1na2vs0mg"},{"bike_id":"9d4b68a5-c93f-4844-a235-5ff4a055b660","system_id":"levelo_inurba_marseille","lat":43.292385,"lon":5.37767,"is_reserved":false,"is_disabled":false,"rental_uris":{"android":"levelo://app?vid=9d4b68a5-c93f-4844-a235-5ff4a055b660","ios":"levelo://app?vid=9d4b68a5-c93f-4844-a235-5ff4a055b660"},"vehicle_type_id":"4","last_reported":1723234146,"current_range_meters":14400,"station_id":"","pricing_plan_id":"cebpf4jnsgd1na2vs0mg"},{"bike_id":"20c21c79-79d6-4423-bfbb-e9e3cb4717c1","system_id":"levelo_inurba_marseille","lat":43.31328,"lon":5.39692,"is_reserved":false,"is_disabled":false,"rental_uris":{"android":"levelo://app?vid=20c21c79-79d6-4423-bfbb-e9e3cb4717c1","ios":"levelo://app?vid=20c21c79-79d6-4423-bfbb-e9e3cb4717c1"},"vehicle_type_id":"4","last_reported":1723234146,"current_range_meters":3200,"station_id":"ce4bgvp2rcd13ifvqcu0","pricing_plan_id":"cebpf4jnsgd1na2vs0mg"},{"bike_id":"cbf2cdb7-aacf-4b96-a893-c311ea416985","system_id":"levelo_inurba_marseille","lat":43.3133,"lon":5.39693,"is_reserved":false,"is_disabled":false,"rental_uris":{"android":"levelo://app?vid=cbf2cdb7-aacf-4b96-a893-c311ea416985","ios":"levelo://app?vid=cbf2cdb7-aacf-4b96-a893-c311ea416985"},"vehicle_type_id":"4","last_reported":1723234146,"current_range_meters":7200,"station_id":"ce4bgvp2rcd13ifvqcu0","pricing_plan_id":"cebpf4jnsgd1na2vs0mg"},{"bike_id":"f831ed3e-49e8-43fe-8e52-2f91050fee20","system_id":"levelo_inurba_marseille","lat":43.313291,"lon":5.396838,"is_reserved":false,"is_disabled":false,"rental_uris":{"android":"levelo://app?vid=f831ed3e-49e8-43fe-8e52-2f91050fee20","ios":"levelo://app?vid=f831ed3e-49e8-43fe-8e52-2f91050fee20"},"vehicle_type_id":"4","last_reported":1723234146,"current_range_meters":8800,"station_id":"ce4bgvp2rcd13ifvqcu0","pricing_plan_id":"cebpf4jnsgd1na2vs0mg"},{"bike_id":"af552a12-3061-4ceb-8cae-266883788bf0","system_id":"levelo_inurba_marseille","lat":43.29181,"lon":5.3581,"is_reserved":false,"is_disabled":false,"rental_uris":{"android":"levelo://app?vid=af552a12-3061-4ceb-8cae-266883788bf0","ios":"levelo://app?vid=af552a12-3061-4ceb-8cae-266883788bf0"},"vehicle_type_id":"4","last_reported":1723234146,"current_range_meters":15600,"station_id":"ce4bhb12rcd13ifvqel0","pricing_plan_id":"cebpf4jnsgd1na2vs0mg"},{"bike_id":"015fa83c-8bf6-40d0-9c9e-ccc73e5ccc0e","system_id":"levelo_inurba_marseille","lat":43.29529,"lon":5.385581,"is_reserved":false,"is_disabled":false,"rental_uris":{"android":"levelo://app?vid=015fa83c-8bf6-40d0-9c9e-ccc73e5ccc0e","ios":"levelo://app?vid=015fa83c-8bf6-40d0-9c9e-ccc73e5ccc0e"},"vehicle_type_id":"4","last_reported":1723234146,"current_range_meters":6400,"station_id":"ce4bgih2rcd13ifvqba0","pricing_plan_id":"cebpf4jnsgd1na2vs0mg"},{"bike_id":"2b76263a-b7f9-4256-800e-dc76bb7159e6","system_id":"levelo_inurba_marseille","lat":43.29529,"lon":5.385581,"is_reserved":false,"is_disabled":false,"rental_uris":{"android":"levelo://app?vid=2b76263a-b7f9-4256-800e-dc76bb7159e6","ios":"levelo://app?vid=2b76263a-b7f9-4256-800e-dc76bb7159e6"},"vehicle_type_id":"4","last_reported":1723234146,"current_range_meters":22400,"station_id":"ce4bgih2rcd13ifvqba0","pricing_plan_id":"cebpf4jnsgd1na2vs0mg"},{"bike_id":"91a514df-4b07-4275-bb9d-6e579fbec024","system_id":"levelo_inurba_marseille","lat":43.290779,"lon":5.371482,"is_reserved":false,"is_disabled":false,"rental_uris":{"android":"levelo://app?vid=91a514df-4b07-4275-bb9d-6e579fbec024","ios":"levelo://app?vid=91a514df-4b07-4275-bb9d-6e579fbec024"},"vehicle_type_id":"4","last_reported":1723234146,"current_range_meters":6000,"station_id":"ce4bh5p2rcd13ifvqe4g","pricing_plan_id":"cebpf4jnsgd1na2vs0mg"},{"bike_id":"87a62f24-006f-445c-b6c6-af6692053fd5","system_id":"levelo_inurba_marseille","lat":43.290779,"lon":5.371482,"is_reserved":false,"is_disabled":false,"rental_uris":{"android":"levelo://app?vid=87a62f24-006f-445c-b6c6-af6692053fd5","ios":"levelo://app?vid=87a62f24-006f-445c-b6c6-af6692053fd5"},"vehicle_type_id":"4","last_reported":1723234146,"current_range_meters":12800,"station_id":"ce4bh5p2rcd13ifvqe4g","pricing_plan_id":"cebpf4jnsgd1na2vs0mg"},{"bike_id":"6afb73a5-c9dd-491a-8f94-bcf75acacca0","system_id":"levelo_inurba_marseille","lat":43.290779,"lon":5.371482,"is_reserved":false,"is_disabled":false,"rental_uris":{"android":"levelo://app?vid=6afb73a5-c9dd-491a-8f94-bcf75acacca0","ios":"levelo://app?vid=6afb73a5-c9dd-491a-8f94-bcf75acacca0"},"vehicle_type_id":"4","last_reported":1723234146,"current_range_meters":27600,"station_id":"ce4bh5p2rcd13ifvqe4g","pricing_plan_id":"cebpf4jnsgd1na2vs0mg"},{"bike_id":"acd8948d-5ebc-4155-9936-19317e3513cf","system_id":"levelo_inurba_marseille","lat":43.290779,"lon":5.371482,"is_reserved":false,"is_disabled":false,"rental_uris":{"android":"levelo://app?vid=acd8948d-5ebc-4155-9936-19317e3513cf","ios":"levelo://app?vid=acd8948d-5ebc-4155-9936-19317e3513cf"},"vehicle_type_id":"4","last_reported":1723234146,"current_range_meters":8800,"station_id":"ce4bh5p2rcd13ifvqe4g","pricing_plan_id":"cebpf4jnsgd1na2vs0mg"},{"bike_id":"b13c0e4a-fed9-464a-89b7-9b522dbbd173","system_id":"levelo_inurba_marseille","lat":43.30223,"lon":5.394658,"is_reserved":false,"is_disabled":false,"rental_uris":{"android":"levelo://app?vid=b13c0e4a-fed9-464a-89b7-9b522dbbd173","ios":"levelo://app?vid=b13c0e4a-fed9-464a-89b7-9b522dbbd173"},"vehicle_type_id":"4","last_reported":1723234146,"current_range_meters":13600,"station_id":"","pricing_plan_id":"cebpf4jnsgd1na2vs0mg"},{"bike_id":"f862bc7e-10a1-4ab9-9ee3-a775ed74e0e9","system_id":"levelo_inurba_marseille","lat":43.29037,"lon":5.37571,"is_reserved":false,"is_disabled":false,"rental_uris":{"android":"levelo://app?vid=f862bc7e-10a1-4ab9-9ee3-a775ed74e0e9","ios":"levelo://app?vid=f862bc7e-10a1-4ab9-9ee3-a775ed74e0e9"},"vehicle_type_id":"4","last_reported":1723234146,"current_range_meters":0,"station_id":"ce4bh692rcd13ifvqe90","pricing_plan_id":"cebpf4jnsgd1na2vs0mg"},{"bike_id":"05bf10c7-47e2-46a5-9334-9ed126053392","system_id":"levelo_inurba_marseille","lat":43.29417,"lon":5.38628,"is_reserved":false,"is_disabled":false,"rental_uris":{"android":"levelo://app?vid=05bf10c7-47e2-46a5-9334-9ed126053392","ios":"levelo://app?vid=05bf10c7-47e2-46a5-9334-9ed126053392"},"vehicle_type_id":"4","last_reported":1723234146,"current_range_meters":24000,"station_id":"ce4bh2h2rcd13ifvqdh0","pricing_plan_id":"cebpf4jnsgd1na2vs0mg"},{"bike_id":"46ff405e-c0f6-4e95-9f19-1b178b282b9c","system_id":"levelo_inurba_marseille","lat":43.28856,"lon":5.358371,"is_reserved":false,"is_disabled":false,"rental_uris":{"android":"levelo://app?vid=46ff405e-c0f6-4e95-9f19-1b178b282b9c","ios":"levelo://app?vid=46ff405e-c0f6-4e95-9f19-1b178b282b9c"},"vehicle_type_id":"4","last_reported":1723234146,"current_range_meters":10000,"station_id":"ce4bhb12rcd13ifvqem0","pricing_plan_id":"cebpf4jnsgd1na2vs0mg"},{"bike_id":"e22076cc-4ce4-4da1-ae05-1508d9122244","system_id":"levelo_inurba_marseille","lat":43.289393,"lon":5.363957,"is_reserved":false,"is_disabled":false,"rental_uris":{"android":"levelo://app?vid=e22076cc-4ce4-4da1-ae05-1508d9122244","ios":"levelo://app?vid=e22076cc-4ce4-4da1-ae05-1508d9122244"},"vehicle_type_id":"4","last_reported":1723234146,"current_range_meters":2400,"station_id":"ce4bhc92rcd13ifvqetg","pricing_plan_id":"cebpf4jnsgd1na2vs0mg"},{"bike_id":"05b765ea-7489-4357-bbe2-23a06eb709ed","system_id":"levelo_inurba_marseille","lat":43.28936,"lon":5.36391,"is_reserved":false,"is_disabled":false,"rental_uris":{"android":"levelo://app?vid=05b765ea-7489-4357-bbe2-23a06eb709ed","ios":"levelo://app?vid=05b765ea-7489-4357-bbe2-23a06eb709ed"},"vehicle_type_id":"4","last_reported":1723234146,"current_range_meters":26000,"station_id":"ce4bhc92rcd13ifvqetg","pricing_plan_id":"cebpf4jnsgd1na2vs0mg"},{"bike_id":"9736cacd-843e-493c-a99d-d19fc41a0d38","system_id":"levelo_inurba_marseille","lat":43.292658,"lon":5.384138,"is_reserved":false,"is_disabled":false,"rental_uris":{"android":"levelo://app?vid=9736cacd-843e-493c-a99d-d19fc41a0d38","ios":"levelo://app?vid=9736cacd-843e-493c-a99d-d19fc41a0d38"},"vehicle_type_id":"4","last_reported":1723234146,"current_range_meters":4400,"station_id":"ce4bh8p2rcd13ifvqeb0","pricing_plan_id":"cebpf4jnsgd1na2vs0mg"},{"bike_id":"a5b880ba-35a3-4cc1-94e0-0ddae36171b9","system_id":"levelo_inurba_marseille","lat":43.292644,"lon":5.384257,"is_reserved":false,"is_disabled":false,"rental_uris":{"android":"levelo://app?vid=a5b880ba-35a3-4cc1-94e0-0ddae36171b9","ios":"levelo://app?vid=a5b880ba-35a3-4cc1-94e0-0ddae36171b9"},"vehicle_type_id":"4","last_reported":1723234146,"current_range_meters":0,"station_id":"ce4bh692rcd13ifvqea0","pricing_plan_id":"cebpf4jnsgd1na2vs0mg"},{"bike_id":"66e07e49-613c-4c0c-a8d9-95dee6e0d1fd","system_id":"levelo_inurba_marseille","lat":43.29267,"lon":5.38441,"is_reserved":false,"is_disabled":false,"rental_uris":{"android":"levelo://app?vid=66e07e49-613c-4c0c-a8d9-95dee6e0d1fd","ios":"levelo://app?vid=66e07e49-613c-4c0c-a8d9-95dee6e0d1fd"},"vehicle_type_id":"4","last_reported":1723234146,"current_range_meters":18000,"station_id":"ce4bh692rcd13ifvqea0","pricing_plan_id":"cebpf4jnsgd1na2vs0mg"},{"bike_id":"0da215fa-a1a5-4adc-8c50-0de08a6c2008","system_id":"levelo_inurba_marseille","lat":43.2927,"lon":5.3845,"is_reserved":false,"is_disabled":false,"rental_uris":{"android":"levelo://app?vid=0da215fa-a1a5-4adc-8c50-0de08a6c2008","ios":"levelo://app?vid=0da215fa-a1a5-4adc-8c50-0de08a6c2008"},"vehicle_type_id":"4","last_reported":1723234146,"current_range_meters":2800,"station_id":"ce4bh692rcd13ifvqea0","pricing_plan_id":"cebpf4jnsgd1na2vs0mg"},{"bike_id":"77d23ae7-f2f0-47cb-beda-ef9916a97dea","system_id":"levelo_inurba_marseille","lat":43.292642,"lon":5.384254,"is_reserved":false,"is_disabled":false,"rental_uris":{"android":"levelo://app?vid=77d23ae7-f2f0-47cb-beda-ef9916a97dea","ios":"levelo://app?vid=77d23ae7-f2f0-47cb-beda-ef9916a97dea"},"vehicle_type_id":"4","last_reported":1723234146,"current_range_meters":25600,"station_id":"ce4bh692rcd13ifvqea0","pricing_plan_id":"cebpf4jnsgd1na2vs0mg"},{"bike_id":"3513877c-1f18-450c-aa30-4178e435d8e9","system_id":"levelo_inurba_marseille","lat":43.292642,"lon":5.384254,"is_reserved":false,"is_disabled":false,"rental_uris":{"android":"levelo://app?vid=3513877c-1f18-450c-aa30-4178e435d8e9","ios":"levelo://app?vid=3513877c-1f18-450c-aa30-4178e435d8e9"},"vehicle_type_id":"4","last_reported":1723234146,"current_range_meters":9200,"station_id":"ce4bh692rcd13ifvqea0","pricing_plan_id":"cebpf4jnsgd1na2vs0mg"},{"bike_id":"76d7e4d3-3c67-47f0-ac27-a7f0015b55a5","system_id":"levelo_inurba_marseille","lat":43.29258,"lon":5.38442,"is_reserved":false,"is_disabled":false,"rental_uris":{"android":"levelo://app?vid=76d7e4d3-3c67-47f0-ac27-a7f0015b55a5","ios":"levelo://app?vid=76d7e4d3-3c67-47f0-ac27-a7f0015b55a5"},"vehicle_type_id":"4","last_reported":1723234146,"current_range_meters":2400,"station_id":"ce4bh692rcd13ifvqea0","pricing_plan_id":"cebpf4jnsgd1na2vs0mg"},{"bike_id":"0dc0ffea-6b54-46c3-9b00-0beb00ee6c7c","system_id":"levelo_inurba_marseille","lat":43.29107,"lon":5.381477,"is_reserved":false,"is_disabled":false,"rental_uris":{"android":"levelo://app?vid=0dc0ffea-6b54-46c3-9b00-0beb00ee6c7c","ios":"levelo://app?vid=0dc0ffea-6b54-46c3-9b00-0beb00ee6c7c"},"vehicle_type_id":"4","last_reported":1723234146,"current_range_meters":0,"station_id":"ce4bh512rcd13ifvqe2g","pricing_plan_id":"cebpf4jnsgd1na2vs0mg"},{"bike_id":"f2e31054-0a0a-44aa-b4e8-874281ace208","system_id":"levelo_inurba_marseille","lat":43.297807,"lon":5.393533,"is_reserved":false,"is_disabled":false,"rental_uris":{"android":"levelo://app?vid=f2e31054-0a0a-44aa-b4e8-874281ace208","ios":"levelo://app?vid=f2e31054-0a0a-44aa-b4e8-874281ace208"},"vehicle_type_id":"4","last_reported":1723234146,"current_range_meters":13200,"station_id":"chh1huq6cuj3fo74tm60","pricing_plan_id":"cebpf4jnsgd1na2vs0mg"},{"bike_id":"2b7bf411-fe99-49f0-b639-600baa43e292","system_id":"levelo_inurba_marseille","lat":43.295169,"lon":5.390426,"is_reserved":false,"is_disabled":false,"rental_uris":{"android":"levelo://app?vid=2b7bf411-fe99-49f0-b639-600baa43e292","ios":"levelo://app?vid=2b7bf411-fe99-49f0-b639-600baa43e292"},"vehicle_type_id":"4","last_reported":1723234146,"current_range_meters":25600,"station_id":"ce4bh3p2rcd13ifvqdp0","pricing_plan_id":"cebpf4jnsgd1na2vs0mg"},{"bike_id":"59e1b1bc-6224-4cd2-b215-4034d534ca6a","system_id":"levelo_inurba_marseille","lat":43.297815,"lon":5.393548,"is_reserved":false,"is_disabled":false,"rental_uris":{"android":"levelo://app?vid=59e1b1bc-6224-4cd2-b215-4034d534ca6a","ios":"levelo://app?vid=59e1b1bc-6224-4cd2-b215-4034d534ca6a"},"vehicle_type_id":"4","last_reported":1723234146,"current_range_meters":8800,"station_id":"chh1huq6cuj3fo74tm60","pricing_plan_id":"cebpf4jnsgd1na2vs0mg"},{"bike_id":"09248db0-ba10-45ac-8a4d-f2f6d83f5b87","system_id":"levelo_inurba_marseille","lat":43.297807,"lon":5.393533,"is_reserved":false,"is_disabled":false,"rental_uris":{"android":"levelo://app?vid=09248db0-ba10-45ac-8a4d-f2f6d83f5b87","ios":"levelo://app?vid=09248db0-ba10-45ac-8a4d-f2f6d83f5b87"},"vehicle_type_id":"4","last_reported":1723234146,"current_range_meters":29200,"station_id":"chh1huq6cuj3fo74tm60","pricing_plan_id":"cebpf4jnsgd1na2vs0mg"},{"bike_id":"cb4c29a3-65ac-4e57-8203-3357e6025bbe","system_id":"levelo_inurba_marseille","lat":43.33018,"lon":5.39044,"is_reserved":false,"is_disabled":false,"rental_uris":{"android":"levelo://app?vid=cb4c29a3-65ac-4e57-8203-3357e6025bbe","ios":"levelo://app?vid=cb4c29a3-65ac-4e57-8203-3357e6025bbe"},"vehicle_type_id":"4","last_reported":1723234146,"current_range_meters":29200,"station_id":"ce4bhr92rcd13ifvqhrg","pricing_plan_id":"cebpf4jnsgd1na2vs0mg"},{"bike_id":"21229142-ff43-4b52-9cf0-3fad60a4279a","system_id":"levelo_inurba_marseille","lat":43.330442,"lon":5.389148,"is_reserved":false,"is_disabled":false,"rental_uris":{"android":"levelo://app?vid=21229142-ff43-4b52-9cf0-3fad60a4279a","ios":"levelo://app?vid=21229142-ff43-4b52-9cf0-3fad60a4279a"},"vehicle_type_id":"4","last_reported":1723234146,"current_range_meters":28800,"station_id":"ce4bhr92rcd13ifvqhrg","pricing_plan_id":"cebpf4jnsgd1na2vs0mg"},{"bike_id":"f9824a99-f963-4d72-ade0-f6c563ba6dd3","system_id":"levelo_inurba_marseille","lat":43.330442,"lon":5.389148,"is_reserved":false,"is_disabled":false,"rental_uris":{"android":"levelo://app?vid=f9824a99-f963-4d72-ade0-f6c563ba6dd3","ios":"levelo://app?vid=f9824a99-f963-4d72-ade0-f6c563ba6dd3"},"vehicle_type_id":"4","last_reported":1723234146,"current_range_meters":14400,"station_id":"ce4bhr92rcd13ifvqhrg","pricing_plan_id":"cebpf4jnsgd1na2vs0mg"},{"bike_id":"0247f248-bca9-4736-958c-df1c80c73080","system_id":"levelo_inurba_marseille","lat":43.33026,"lon":5.39047,"is_reserved":false,"is_disabled":false,"rental_uris":{"android":"levelo://app?vid=0247f248-bca9-4736-958c-df1c80c73080","ios":"levelo://app?vid=0247f248-bca9-4736-958c-df1c80c73080"},"vehicle_type_id":"4","last_reported":1723234146,"current_range_meters":8800,"station_id":"ce4bhr92rcd13ifvqhrg","pricing_plan_id":"cebpf4jnsgd1na2vs0mg"},{"bike_id":"791bd711-78eb-4d8c-93ad-3aeb9ffd5c7c","system_id":"levelo_inurba_marseille","lat":43.33026,"lon":5.39047,"is_reserved":false,"is_disabled":false,"rental_uris":{"android":"levelo://app?vid=791bd711-78eb-4d8c-93ad-3aeb9ffd5c7c","ios":"levelo://app?vid=791bd711-78eb-4d8c-93ad-3aeb9ffd5c7c"},"vehicle_type_id":"4","last_reported":1723234146,"current_range_meters":26800,"station_id":"ce4bhr92rcd13ifvqhrg","pricing_plan_id":"cebpf4jnsgd1na2vs0mg"},{"bike_id":"ef8b7789-c1e6-4cb4-aaf1-78217b519977","system_id":"levelo_inurba_marseille","lat":43.330442,"lon":5.389148,"is_reserved":false,"is_disabled":false,"rental_uris":{"android":"levelo://app?vid=ef8b7789-c1e6-4cb4-aaf1-78217b519977","ios":"levelo://app?vid=ef8b7789-c1e6-4cb4-aaf1-78217b519977"},"vehicle_type_id":"4","last_reported":1723234146,"current_range_meters":20000,"station_id":"ce4bhr92rcd13ifvqhrg","pricing_plan_id":"cebpf4jnsgd1na2vs0mg"},{"bike_id":"f7be96d0-1e81-4673-8750-9c757babd00f","system_id":"levelo_inurba_marseille","lat":43.310549,"lon":5.40087,"is_reserved":false,"is_disabled":false,"rental_uris":{"android":"levelo://app?vid=f7be96d0-1e81-4673-8750-9c757babd00f","ios":"levelo://app?vid=f7be96d0-1e81-4673-8750-9c757babd00f"},"vehicle_type_id":"4","last_reported":1723234146,"current_range_meters":27200,"station_id":"","pricing_plan_id":"cebpf4jnsgd1na2vs0mg"},{"bike_id":"0052ddb6-c8f1-4c6e-8545-932735d9558c","system_id":"levelo_inurba_marseille","lat":43.2901,"lon":5.381269,"is_reserved":false,"is_disabled":false,"rental_uris":{"android":"levelo://app?vid=0052ddb6-c8f1-4c6e-8545-932735d9558c","ios":"levelo://app?vid=0052ddb6-c8f1-4c6e-8545-932735d9558c"},"vehicle_type_id":"4","last_reported":1723234146,"current_range_meters":22000,"station_id":"ce4bh4p2rcd13ifvqe1g","pricing_plan_id":"cebpf4jnsgd1na2vs0mg"},{"bike_id":"6a7d694f-f3a2-41eb-86a2-f0b84e84e80f","system_id":"levelo_inurba_marseille","lat":43.2901,"lon":5.381269,"is_reserved":false,"is_disabled":false,"rental_uris":{"android":"levelo://app?vid=6a7d694f-f3a2-41eb-86a2-f0b84e84e80f","ios":"levelo://app?vid=6a7d694f-f3a2-41eb-86a2-f0b84e84e80f"},"vehicle_type_id":"4","last_reported":1723234146,"current_range_meters":4800,"station_id":"ce4bh4p2rcd13ifvqe1g","pricing_plan_id":"cebpf4jnsgd1na2vs0mg"},{"bike_id":"784f9f76-ae6e-4422-8bba-246da8f6a2f9","system_id":"levelo_inurba_marseille","lat":43.290094,"lon":5.381264,"is_reserved":false,"is_disabled":false,"rental_uris":{"android":"levelo://app?vid=784f9f76-ae6e-4422-8bba-246da8f6a2f9","ios":"levelo://app?vid=784f9f76-ae6e-4422-8bba-246da8f6a2f9"},"vehicle_type_id":"4","last_reported":1723234146,"current_range_meters":0,"station_id":"ce4bh4p2rcd13ifvqe1g","pricing_plan_id":"cebpf4jnsgd1na2vs0mg"},{"bike_id":"81225616-26ce-444b-bf31-18896168c680","system_id":"levelo_inurba_marseille","lat":43.308763,"lon":5.401143,"is_reserved":false,"is_disabled":false,"rental_uris":{"android":"levelo://app?vid=81225616-26ce-444b-bf31-18896168c680","ios":"levelo://app?vid=81225616-26ce-444b-bf31-18896168c680"},"vehicle_type_id":"4","last_reported":1723234146,"current_range_meters":0,"station_id":"","pricing_plan_id":"cebpf4jnsgd1na2vs0mg"},{"bike_id":"edaf87d6-2a02-430b-8ef4-d2668b7e140d","system_id":"levelo_inurba_marseille","lat":43.312609,"lon":5.401662,"is_reserved":false,"is_disabled":false,"rental_uris":{"android":"levelo://app?vid=edaf87d6-2a02-430b-8ef4-d2668b7e140d","ios":"levelo://app?vid=edaf87d6-2a02-430b-8ef4-d2668b7e140d"},"vehicle_type_id":"4","last_reported":1723234146,"current_range_meters":28800,"station_id":"ce4bh092rcd13ifvqd30","pricing_plan_id":"cebpf4jnsgd1na2vs0mg"},{"bike_id":"b82d858a-91a0-49bf-a6fc-8ae898ab18fa","system_id":"levelo_inurba_marseille","lat":43.312609,"lon":5.401662,"is_reserved":false,"is_disabled":false,"rental_uris":{"android":"levelo://app?vid=b82d858a-91a0-49bf-a6fc-8ae898ab18fa","ios":"levelo://app?vid=b82d858a-91a0-49bf-a6fc-8ae898ab18fa"},"vehicle_type_id":"4","last_reported":1723234146,"current_range_meters":31600,"station_id":"ce4bh092rcd13ifvqd30","pricing_plan_id":"cebpf4jnsgd1na2vs0mg"},{"bike_id":"ed1c105b-e0c3-46fc-bce8-8cbfdf82e0b1","system_id":"levelo_inurba_marseille","lat":43.312609,"lon":5.401662,"is_reserved":false,"is_disabled":false,"rental_uris":{"android":"levelo://app?vid=ed1c105b-e0c3-46fc-bce8-8cbfdf82e0b1","ios":"levelo://app?vid=ed1c105b-e0c3-46fc-bce8-8cbfdf82e0b1"},"vehicle_type_id":"4","last_reported":1723234146,"current_range_meters":0,"station_id":"ce4bh092rcd13ifvqd30","pricing_plan_id":"cebpf4jnsgd1na2vs0mg"},{"bike_id":"d85346fb-b04c-49d5-a55b-4c99baf7f1c9","system_id":"levelo_inurba_marseille","lat":43.309371,"lon":5.401449,"is_reserved":false,"is_disabled":false,"rental_uris":{"android":"levelo://app?vid=d85346fb-b04c-49d5-a55b-4c99baf7f1c9","ios":"levelo://app?vid=d85346fb-b04c-49d5-a55b-4c99baf7f1c9"},"vehicle_type_id":"4","last_reported":1723234146,"current_range_meters":7200,"station_id":"ce4bgvp2rcd13ifvqct0","pricing_plan_id":"cebpf4jnsgd1na2vs0mg"},{"bike_id":"ac75d8e5-5139-4e43-a64e-51e7994c2517","system_id":"levelo_inurba_marseille","lat":43.337444,"lon":5.374475,"is_reserved":false,"is_disabled":false,"rental_uris":{"android":"levelo://app?vid=ac75d8e5-5139-4e43-a64e-51e7994c2517","ios":"levelo://app?vid=ac75d8e5-5139-4e43-a64e-51e7994c2517"},"vehicle_type_id":"3","last_reported":1723234146,"current_range_meters":24800,"station_id":"","pricing_plan_id":"cebpf4jnsgd1na2vs0mg"},{"bike_id":"8b0757c0-d55e-4543-855b-020c689ea800","system_id":"levelo_inurba_marseille","lat":43.309371,"lon":5.401449,"is_reserved":false,"is_disabled":false,"rental_uris":{"android":"levelo://app?vid=8b0757c0-d55e-4543-855b-020c689ea800","ios":"levelo://app?vid=8b0757c0-d55e-4543-855b-020c689ea800"},"vehicle_type_id":"4","last_reported":1723234146,"current_range_meters":19200,"station_id":"ce4bgvp2rcd13ifvqct0","pricing_plan_id":"cebpf4jnsgd1na2vs0mg"},{"bike_id":"a3481feb-131e-47ad-9867-8323eeb53399","system_id":"levelo_inurba_marseille","lat":43.309371,"lon":5.401449,"is_reserved":false,"is_disabled":false,"rental_uris":{"android":"levelo://app?vid=a3481feb-131e-47ad-9867-8323eeb53399","ios":"levelo://app?vid=a3481feb-131e-47ad-9867-8323eeb53399"},"vehicle_type_id":"4","last_reported":1723234146,"current_range_meters":13200,"station_id":"ce4bgvp2rcd13ifvqct0","pricing_plan_id":"cebpf4jnsgd1na2vs0mg"},{"bike_id":"1596ed5a-2748-4147-884b-51e994b2b8ca","system_id":"levelo_inurba_marseille","lat":43.337482,"lon":5.374568,"is_reserved":false,"is_disabled":false,"rental_uris":{"android":"levelo://app?vid=1596ed5a-2748-4147-884b-51e994b2b8ca","ios":"levelo://app?vid=1596ed5a-2748-4147-884b-51e994b2b8ca"},"vehicle_type_id":"4","last_reported":1723234146,"current_range_meters":19200,"station_id":"","pricing_plan_id":"cebpf4jnsgd1na2vs0mg"},{"bike_id":"6137b86e-8de9-4c4f-94ef-bfa372175031","system_id":"levelo_inurba_marseille","lat":43.337513,"lon":5.37454,"is_reserved":false,"is_disabled":false,"rental_uris":{"android":"levelo://app?vid=6137b86e-8de9-4c4f-94ef-bfa372175031","ios":"levelo://app?vid=6137b86e-8de9-4c4f-94ef-bfa372175031"},"vehicle_type_id":"4","last_reported":1723234146,"current_range_meters":18800,"station_id":"","pricing_plan_id":"cebpf4jnsgd1na2vs0mg"},{"bike_id":"f2c39657-f64b-4c05-b0b3-af94dc52094d","system_id":"levelo_inurba_marseille","lat":43.33756,"lon":5.37441,"is_reserved":false,"is_disabled":false,"rental_uris":{"android":"levelo://app?vid=f2c39657-f64b-4c05-b0b3-af94dc52094d","ios":"levelo://app?vid=f2c39657-f64b-4c05-b0b3-af94dc52094d"},"vehicle_type_id":"4","last_reported":1723234146,"current_range_meters":3200,"station_id":"","pricing_plan_id":"cebpf4jnsgd1na2vs0mg"},{"bike_id":"c24ccdf3-8374-4625-a41a-8280c7fc42b0","system_id":"levelo_inurba_marseille","lat":43.337554,"lon":5.374452,"is_reserved":false,"is_disabled":false,"rental_uris":{"android":"levelo://app?vid=c24ccdf3-8374-4625-a41a-8280c7fc42b0","ios":"levelo://app?vid=c24ccdf3-8374-4625-a41a-8280c7fc42b0"},"vehicle_type_id":"4","last_reported":1723234146,"current_range_meters":28000,"station_id":"","pricing_plan_id":"cebpf4jnsgd1na2vs0mg"},{"bike_id":"95e665ed-afbb-4ece-97e4-ecc3d1a7e7e9","system_id":"levelo_inurba_marseille","lat":43.337638,"lon":5.374361,"is_reserved":false,"is_disabled":false,"rental_uris":{"android":"levelo://app?vid=95e665ed-afbb-4ece-97e4-ecc3d1a7e7e9","ios":"levelo://app?vid=95e665ed-afbb-4ece-97e4-ecc3d1a7e7e9"},"vehicle_type_id":"4","last_reported":1723234146,"current_range_meters":30400,"station_id":"","pricing_plan_id":"cebpf4jnsgd1na2vs0mg"},{"bike_id":"9c370677-6c6f-4d23-8cf0-7d8de4f71f2a","system_id":"levelo_inurba_marseille","lat":43.337676,"lon":5.374333,"is_reserved":false,"is_disabled":false,"rental_uris":{"android":"levelo://app?vid=9c370677-6c6f-4d23-8cf0-7d8de4f71f2a","ios":"levelo://app?vid=9c370677-6c6f-4d23-8cf0-7d8de4f71f2a"},"vehicle_type_id":"4","last_reported":1723234146,"current_range_meters":22000,"station_id":"","pricing_plan_id":"cebpf4jnsgd1na2vs0mg"},{"bike_id":"475ed14f-5d86-4ce1-9e44-9d4d1bef7035","system_id":"levelo_inurba_marseille","lat":43.33771,"lon":5.37479,"is_reserved":false,"is_disabled":false,"rental_uris":{"android":"levelo://app?vid=475ed14f-5d86-4ce1-9e44-9d4d1bef7035","ios":"levelo://app?vid=475ed14f-5d86-4ce1-9e44-9d4d1bef7035"},"vehicle_type_id":"4","last_reported":1723234146,"current_range_meters":27200,"station_id":"","pricing_plan_id":"cebpf4jnsgd1na2vs0mg"},{"bike_id":"c47d5cc0-0c8d-4b40-acaf-93e4acea5b40","system_id":"levelo_inurba_marseille","lat":43.28702,"lon":5.36397,"is_reserved":false,"is_disabled":false,"rental_uris":{"android":"levelo://app?vid=c47d5cc0-0c8d-4b40-acaf-93e4acea5b40","ios":"levelo://app?vid=c47d5cc0-0c8d-4b40-acaf-93e4acea5b40"},"vehicle_type_id":"4","last_reported":1723234146,"current_range_meters":27200,"station_id":"","pricing_plan_id":"cebpf4jnsgd1na2vs0mg"},{"bike_id":"c229ab02-4420-474a-bbe5-f5af77b96b2c","system_id":"levelo_inurba_marseille","lat":43.28727,"lon":5.36078,"is_reserved":false,"is_disabled":false,"rental_uris":{"android":"levelo://app?vid=c229ab02-4420-474a-bbe5-f5af77b96b2c","ios":"levelo://app?vid=c229ab02-4420-474a-bbe5-f5af77b96b2c"},"vehicle_type_id":"4","last_reported":1723234146,"current_range_meters":800,"station_id":"cki0cbj6b192h4jlfktg","pricing_plan_id":"cebpf4jnsgd1na2vs0mg"},{"bike_id":"d685b03c-795e-417b-af0c-567ad42f20cb","system_id":"levelo_inurba_marseille","lat":43.287774,"lon":5.357301,"is_reserved":false,"is_disabled":false,"rental_uris":{"android":"levelo://app?vid=d685b03c-795e-417b-af0c-567ad42f20cb","ios":"levelo://app?vid=d685b03c-795e-417b-af0c-567ad42f20cb"},"vehicle_type_id":"4","last_reported":1723234146,"current_range_meters":11200,"station_id":"","pricing_plan_id":"cebpf4jnsgd1na2vs0mg"},{"bike_id":"ee9db5f5-111d-41a1-a9cd-e2e0a7336666","system_id":"levelo_inurba_marseille","lat":43.287135,"lon":5.373928,"is_reserved":false,"is_disabled":false,"rental_uris":{"android":"levelo://app?vid=ee9db5f5-111d-41a1-a9cd-e2e0a7336666","ios":"levelo://app?vid=ee9db5f5-111d-41a1-a9cd-e2e0a7336666"},