{"last_updated":1702724726,"ttl":30,"version":"2.2","data":{"bikes":[{"bike_id":"4c2c30cc-8d56-49ed-9c18-14e508e9d406","system_id":"levelo_inurba_marseille","lat":43.312239,"lon":5.368562,"is_reserved":false,"is_disabled":false,"rental_uris":{"android":"levelo://app?vid=4c2c30cc-8d56-49ed-9c18-14e508e9d406","ios":"levelo://app?vid=4c2c30cc-8d56-49ed-9c18-14e508e9d406"},"vehicle_type_id":"4","last_reported":1702724726,"current_range_meters":8400,"station_id":"ce4bgl92rcd13ifvqbq0","pricing_plan_id":"free"},{"bike_id":"8417bed0-f08b-4048-a4ee-10626c71eb9b","system_id":"levelo_inurba_marseille","lat":43.312239,"lon":5.368562,"is_reserved":false,"is_disabled":false,"rental_uris":{"android":"levelo://app?vid=8417bed0-f08b-4048-a4ee-10626c71eb9b","ios":"levelo://app?vid=8417bed0-f08b-4048-a4ee-10626c71eb9b"},"vehicle_type_id":"4","last_reported":1702724726,"current_range_meters":30800,"station_id":"ce4bgl92rcd13ifvqbq0","pricing_plan_id":"free"},{"bike_id":"2628431f-da41-45b9-bb5b-b864794506d1","system_id":"levelo_inurba_marseille","lat":43.31422,"lon":5.3733,"is_reserved":false,"is_disabled":false,"rental_uris":{"android":"levelo://app?vid=2628431f-da41-45b9-bb5b-b864794506d1","ios":"levelo://app?vid=2628431f-da41-45b9-bb5b-b864794506d1"},"vehicle_type_id":"4","last_reported":1702724726,"current_range_meters":2800,"station_id":"","pricing_plan_id":"free"},{"bike_id":"579cdc55-849a-44ce-953f-e52eaae88f3c","system_id":"levelo_inurba_marseille","lat":43.309039,"lon":5.371797,"is_reserved":false,"is_disabled":false,"rental_uris":{"android":"levelo://app?vid=579cdc55-849a-44ce-953f-e52eaae88f3c","ios":"levelo://app?vid=579cdc55-849a-44ce-953f-e52eaae88f3c"},"vehicle_type_id":"4","last_reported":1702724726,"current_range_meters":18400,"station_id":"ce4bguh2rcd13ifvqckg","pricing_plan_id":"free"},{"bike_id":"3f8b821f-e430-4a35-bf14-f8b6e777ea11","system_id":"levelo_inurba_marseille","lat":43.313939,"lon":5.375306,"is_reserved":false,"is_disabled":false,"rental_uris":{"android":"levelo://app?vid=3f8b821f-e430-4a35-bf14-f8b6e777ea11","ios":"levelo://app?vid=3f8b821f-e430-4a35-bf14-f8b6e777ea11"},"vehicle_type_id":"4","last_reported":1702724726,"current_range_meters":0,"station_id":"","pricing_plan_id":"free"},{"bike_id":"889c4629-7c85-463c-ba62-d61edfe4ba46","system_id":"levelo_inurba_marseille","lat":43.30544,"lon":5.36706,"is_reserved":false,"is_disabled":false,"rental_uris":{"android":"levelo://app?vid=889c4629-7c85-463c-ba62-d61edfe4ba46","ios":"levelo://app?vid=889c4629-7c85-463c-ba62-d61edfe4ba46"},"vehicle_type_id":"4","last_reported":1702724726,"current_range_meters":24400,"station_id":"ce4bgrp2rcd13ifvqc9g","pricing_plan_id":"free"},{"bike_id":"12c32355-7746-4f4c-b404-f7aa9cc47f6c","system_id":"levelo_inurba_marseille","lat":43.30542,"lon":5.36701,"is_reserved":false,"is_disabled":false,"rental_uris":{"android":"levelo://app?vid=12c32355-7746-4f4c-b404-f7aa9cc47f6c","ios":"levelo://app?vid=12c32355-7746-4f4c-b404-f7aa9cc47f6c"},"vehicle_type_id":"4","last_reported":1702724726,"current_range_meters":28400,"station_id":"ce4bgrp2rcd13ifvqc9g","pricing_plan_id":"free"},{"bike_id":"8be4272a-a214-4afe-8df8-4c3053df48c2","system_id":"levelo_inurba_marseille","lat":43.305706,"lon":5.365654,"is_reserved":false,"is_disabled":false,"rental_uris":{"android":"levelo://app?vid=8be4272a-a214-4afe-8df8-4c3053df48c2","ios":"levelo://app?vid=8be4272a-a214-4afe-8df8-4c3053df48c2"},"vehicle_type_id":"4","last_reported":1702724726,"current_range_meters":21600,"station_id":"ce4bgs12rcd13ifvqcag","pricing_plan_id":"free"},{"bike_id":"b52511d1-bc55-4b1e-9e80-1bb06940b28f","system_id":"levelo_inurba_marseille","lat":43.30533,"lon":5.36707,"is_reserved":false,"is_disabled":false,"rental_uris":{"android":"levelo://app?vid=b52511d1-bc55-4b1e-9e80-1bb06940b28f","ios":"levelo://app?vid=b52511d1-bc55-4b1e-9e80-1bb06940b28f"},"vehicle_type_id":"4","last_reported":1702724726,"current_range_meters":14000,"station_id":"ce4bgrp2rcd13ifvqc9g","pricing_plan_id":"free"},{"bike_id":"a8ec0db7-0207-4c33-bb2f-9e952fe8dc62","system_id":"levelo_inurba_marseille","lat":43.305706,"lon":5.365654,"is_reserved":false,"is_disabled":false,"rental_uris":{"android":"levelo://app?vid=a8ec0db7-0207-4c33-bb2f-9e952fe8dc62","ios":"levelo://app?vid=a8ec0db7-0207-4c33-bb2f-9e952fe8dc62"},"vehicle_type_id":"4","last_reported":1702724726,"current_range_meters":21200,"station_id":"ce4bgs12rcd13ifvqcag","pricing_plan_id":"free"},{"bike_id":"9db36456-7e82-4d4a-adef-67b318d3b9bd","system_id":"levelo_inurba_marseille","lat":43.30531,"lon":5.36701,"is_reserved":false,"is_disabled":false,"rental_uris":{"android":"levelo://app?vid=9db36456-7e82-4d4a-adef-67b318d3b9bd","ios":"levelo://app?vid=9db36456-7e82-4d4a-adef-67b318d3b9bd"},"vehicle_type_id":"4","last_reported":1702724726,"current_range_meters":27600,"station_id":"ce4bgrp2rcd13ifvqc9g","pricing_plan_id":"free"},{"bike_id":"7cd97a8f-948a-43b9-8b30-8710a955902f","system_id":"levelo_inurba_marseille","lat":43.3054,"lon":5.36528,"is_reserved":false,"is_disabled":false,"rental_uris":{"android":"levelo://app?vid=7cd97a8f-948a-43b9-8b30-8710a955902f","ios":"levelo://app?vid=7cd97a8f-948a-43b9-8b30-8710a955902f"},"vehicle_type_id":"4","last_reported":1702724726,"current_range_meters":29600,"station_id":"ce4bgs12rcd13ifvqcag","pricing_plan_id":"free"},{"bike_id":"17bd3303-aa02-4013-82af-58f2652162c1","system_id":"levelo_inurba_marseille","lat":43.305706,"lon":5.365654,"is_reserved":false,"is_disabled":false,"rental_uris":{"android":"levelo://app?vid=17bd3303-aa02-4013-82af-58f2652162c1","ios":"levelo://app?vid=17bd3303-aa02-4013-82af-58f2652162c1"},"vehicle_type_id":"4","last_reported":1702724726,"current_range_meters":28800,"station_id":"ce4bgs12rcd13ifvqcag","pricing_plan_id":"free"},{"bike_id":"955e4ab2-16e5-44e8-a986-a2f50ff96c06","system_id":"levelo_inurba_marseille","lat":43.305382,"lon":5.365389,"is_reserved":false,"is_disabled":false,"rental_uris":{"android":"levelo://app?vid=955e4ab2-16e5-44e8-a986-a2f50ff96c06","ios":"levelo://app?vid=955e4ab2-16e5-44e8-a986-a2f50ff96c06"},"vehicle_type_id":"4","last_reported":1702724726,"current_range_meters":16000,"station_id":"","pricing_plan_id":"free"},{"bike_id":"439d7f52-2b84-454c-a8fb-59d19036981b","system_id":"levelo_inurba_marseille","lat":43.305706,"lon":5.365654,"is_reserved":false,"is_disabled":false,"rental_uris":{"android":"levelo://app?vid=439d7f52-2b84-454c-a8fb-59d19036981b","ios":"levelo://app?vid=439d7f52-2b84-454c-a8fb-59d19036981b"},"vehicle_type_id":"4","last_reported":1702724726,"current_range_meters":22400,"station_id":"ce4bgs12rcd13ifvqcag","pricing_plan_id":"free"},{"bike_id":"f07abc68-2c44-4400-a784-66cf89d6e3fc","system_id":"levelo_inurba_marseille","lat":43.305368,"lon":5.367343,"is_reserved":false,"is_disabled":false,"rental_uris":{"android":"levelo://app?vid=f07abc68-2c44-4400-a784-66cf89d6e3fc","ios":"levelo://app?vid=f07abc68-2c44-4400-a784-66cf89d6e3fc"},"vehicle_type_id":"4","last_reported":1702724726,"current_range_meters":31200,"station_id":"ce4bgrp2rcd13ifvqc9g","pricing_plan_id":"free"},{"bike_id":"95b66f4f-55d9-4478-958b-fc1804e89ee7","system_id":"levelo_inurba_marseille","lat":43.305706,"lon":5.365654,"is_reserved":false,"is_disabled":false,"rental_uris":{"android":"levelo://app?vid=95b66f4f-55d9-4478-958b-fc1804e89ee7","ios":"levelo://app?vid=95b66f4f-55d9-4478-958b-fc1804e89ee7"},"vehicle_type_id":"4","last_reported":1702724726,"current_range_meters":20000,"station_id":"ce4bgs12rcd13ifvqcag","pricing_plan_id":"free"},{"bike_id":"77bb4192-0079-476c-82f6-7c18e34e71e4","system_id":"levelo_inurba_marseille","lat":43.305706,"lon":5.365654,"is_reserved":false,"is_disabled":false,"rental_uris":{"android":"levelo://app?vid=77bb4192-0079-476c-82f6-7c18e34e71e4","ios":"levelo://app?vid=77bb4192-0079-476c-82f6-7c18e34e71e4"},"vehicle_type_id":"4","last_reported":1702724726,"current_range_meters":31600,"station_id":"ce4bgs12rcd13ifvqcag","pricing_plan_id":"free"},{"bike_id":"bf57da45-0163-4a6d-bd72-5fde012e0d1a","system_id":"levelo_inurba_marseille","lat":43.30521,"lon":5.36708,"is_reserved":false,"is_disabled":false,"rental_uris":{"android":"levelo://app?vid=bf57da45-0163-4a6d-bd72-5fde012e0d1a","ios":"levelo://app?vid=bf57da45-0163-4a6d-bd72-5fde012e0d1a"},"vehicle_type_id":"4","last_reported":1702724726,"current_range_meters":16800,"station_id":"ce4bgrp2rcd13ifvqc9g","pricing_plan_id":"free"},{"bike_id":"49e08614-3569-4283-a5bd-a4bdd78edd11","system_id":"levelo_inurba_marseille","lat":43.3052,"lon":5.36705,"is_reserved":false,"is_disabled":false,"rental_uris":{"android":"levelo://app?vid=49e08614-3569-4283-a5bd-a4bdd78edd11","ios":"levelo://app?vid=49e08614-3569-4283-a5bd-a4bdd78edd11"},"vehicle_type_id":"4","last_reported":1702724726,"current_range_meters":22000,"station_id":"ce4bgrp2rcd13ifvqc9g","pricing_plan_id":"free"},{"bike_id":"2386b78f-fa6a-47c4-aafe-2f9c837df8bb","system_id":"levelo_inurba_marseille","lat":43.305706,"lon":5.365654,"is_reserved":false,"is_disabled":false,"rental_uris":{"android":"levelo://app?vid=2386b78f-fa6a-47c4-aafe-2f9c837df8bb","ios":"levelo://app?vid=2386b78f-fa6a-47c4-aafe-2f9c837df8bb"},"vehicle_type_id":"4","last_reported":1702724726,"current_range_meters":28400,"station_id":"ce4bgs12rcd13ifvqcag","pricing_plan_id":"free"},{"bike_id":"2cf38736-5162-4ed8-8ba6-39709262172a","system_id":"levelo_inurba_marseille","lat":43.305706,"lon":5.365654,"is_reserved":false,"is_disabled":false,"rental_uris":{"android":"levelo://app?vid=2cf38736-5162-4ed8-8ba6-39709262172a","ios":"levelo://app?vid=2cf38736-5162-4ed8-8ba6-39709262172a"},"vehicle_type_id":"4","last_reported":1702724726,"current_range_meters":31200,"station_id":"ce4bgs12rcd13ifvqcag","pricing_plan_id":"free"},{"bike_id":"3a74ccfa-fe67-4782-81c9-4e444b872a88","system_id":"levelo_inurba_marseille","lat":43.305989,"lon":5.37225,"is_reserved":false,"is_disabled":false,"rental_uris":{"android":"levelo://app?vid=3a74ccfa-fe67-4782-81c9-4e444b872a88","ios":"levelo://app?vid=3a74ccfa-fe67-4782-81c9-4e444b872a88"},"vehicle_type_id":"4","last_reported":1702724726,"current_range_meters":800,"station_id":"ce4bgqh2rcd13ifvqc4g","pricing_plan_id":"free"},{"bike_id":"1a8cc5dc-f22b-4258-b856-077ed31056b9","system_id":"levelo_inurba_marseille","lat":43.30594,"lon":5.37226,"is_reserved":false,"is_disabled":false,"rental_uris":{"android":"levelo://app?vid=1a8cc5dc-f22b-4258-b856-077ed31056b9","ios":"levelo://app?vid=1a8cc5dc-f22b-4258-b856-077ed31056b9"},"vehicle_type_id":"4","last_reported":1702724726,"current_range_meters":21200,"station_id":"ce4bgqh2rcd13ifvqc4g","pricing_plan_id":"free"},{"bike_id":"64b875e9-8014-4720-8f36-19ba9cf363eb","system_id":"levelo_inurba_marseille","lat":43.30778,"lon":5.37647,"is_reserved":false,"is_disabled":false,"rental_uris":{"android":"levelo://app?vid=64b875e9-8014-4720-8f36-19ba9cf363eb","ios":"levelo://app?vid=64b875e9-8014-4720-8f36-19ba9cf363eb"},"vehicle_type_id":"4","last_reported":1702724726,"current_range_meters":25200,"station_id":"ce4bgv92rcd13ifvqcq0","pricing_plan_id":"free"},{"bike_id":"8f2f2472-686d-4d1b-bd99-8d9acdd0522f","system_id":"levelo_inurba_marseille","lat":43.307798,"lon":5.376501,"is_reserved":false,"is_disabled":false,"rental_uris":{"android":"levelo://app?vid=8f2f2472-686d-4d1b-bd99-8d9acdd0522f","ios":"levelo://app?vid=8f2f2472-686d-4d1b-bd99-8d9acdd0522f"},"vehicle_type_id":"4","last_reported":1702724726,"current_range_meters":22800,"station_id":"ce4bgv92rcd13ifvqcq0","pricing_plan_id":"free"},{"bike_id":"1cac14e1-4099-455b-ab55-73d699c3e506","system_id":"levelo_inurba_marseille","lat":43.307945,"lon":5.376487,"is_reserved":false,"is_disabled":false,"rental_uris":{"android":"levelo://app?vid=1cac14e1-4099-455b-ab55-73d699c3e506","ios":"levelo://app?vid=1cac14e1-4099-455b-ab55-73d699c3e506"},"vehicle_type_id":"4","last_reported":1702724726,"current_range_meters":30800,"station_id":"ce4bgv92rcd13ifvqcq0","pricing_plan_id":"free"},{"bike_id":"9a557d8f-d5f1-4bc5-8063-680898b9e532","system_id":"levelo_inurba_marseille","lat":43.307945,"lon":5.376487,"is_reserved":false,"is_disabled":false,"rental_uris":{"android":"levelo://app?vid=9a557d8f-d5f1-4bc5-8063-680898b9e532","ios":"levelo://app?vid=9a557d8f-d5f1-4bc5-8063-680898b9e532"},"vehicle_type_id":"4","last_reported":1702724726,"current_range_meters":30400,"station_id":"ce4bgv92rcd13ifvqcq0","pricing_plan_id":"free"},{"bike_id":"1fe5e966-96db-4e8c-a4be-30533dd70df6","system_id":"levelo_inurba_marseille","lat":43.307735,"lon":5.376473,"is_reserved":false,"is_disabled":false,"rental_uris":{"android":"levelo://app?vid=1fe5e966-96db-4e8c-a4be-30533dd70df6","ios":"levelo://app?vid=1fe5e966-96db-4e8c-a4be-30533dd70df6"},"vehicle_type_id":"4","last_reported":1702724726,"current_range_meters":13200,"station_id":"ce4bgv92rcd13ifvqcq0","pricing_plan_id":"free"},{"bike_id":"e80b0dce-ff66-4d99-b5a3-df1e3fc4a4b1","system_id":"levelo_inurba_marseille","lat":43.303046,"lon":5.368981,"is_reserved":false,"is_disabled":false,"rental_uris":{"android":"levelo://app?vid=e80b0dce-ff66-4d99-b5a3-df1e3fc4a4b1","ios":"levelo://app?vid=e80b0dce-ff66-4d99-b5a3-df1e3fc4a4b1"},"vehicle_type_id":"4","last_reported":1702724726,"current_range_meters":31600,"station_id":"ce4bgqh2rcd13ifvqc5g","pricing_plan_id":"free"},{"bike_id":"112889bc-8d0f-431d-9767-314715ea602b","system_id":"levelo_inurba_marseille","lat":43.315625,"lon":5.380114,"is_reserved":false,"is_disabled":false,"rental_uris":{"android":"levelo://app?vid=112889bc-8d0f-431d-9767-314715ea602b","ios":"levelo://app?vid=112889bc-8d0f-431d-9767-314715ea602b"},"vehicle_type_id":"4","last_reported":1702724726,"current_range_meters":16800,"station_id":"ce4bhsp2rcd13ifvqi50","pricing_plan_id":"free"},{"bike_id":"c7aa7a1e-7351-4a77-884b-68a733f944cd","system_id":"levelo_inurba_marseille","lat":43.301939,"lon":5.366286,"is_reserved":false,"is_disabled":false,"rental_uris":{"android":"levelo://app?vid=c7aa7a1e-7351-4a77-884b-68a733f944cd","ios":"levelo://app?vid=c7aa7a1e-7351-4a77-884b-68a733f944cd"},"vehicle_type_id":"4","last_reported":1702724726,"current_range_meters":2800,"station_id":"ce4bgrh2rcd13ifvqc8g","pricing_plan_id":"free"},{"bike_id":"b0a25f01-bc9c-4fb0-874f-fb1630882f5a","system_id":"levelo_inurba_marseille","lat":43.301939,"lon":5.366286,"is_reserved":false,"is_disabled":false,"rental_uris":{"android":"levelo://app?vid=b0a25f01-bc9c-4fb0-874f-fb1630882f5a","ios":"levelo://app?vid=b0a25f01-bc9c-4fb0-874f-fb1630882f5a"},"vehicle_type_id":"4","last_reported":1702724726,"current_range_meters":28400,"station_id":"ce4bgrh2rcd13ifvqc8g","pricing_plan_id":"free"},{"bike_id":"8c129f06-a1ae-45de-8d8d-217080b5a000","system_id":"levelo_inurba_marseille","lat":43.301939,"lon":5.366286,"is_reserved":false,"is_disabled":false,"rental_uris":{"android":"levelo://app?vid=8c129f06-a1ae-45de-8d8d-217080b5a000","ios":"levelo://app?vid=8c129f06-a1ae-45de-8d8d-217080b5a000"},"vehicle_type_id":"4","last_reported":1702724726,"current_range_meters":5600,"station_id":"ce4bgrh2rcd13ifvqc8g","pricing_plan_id":"free"},{"bike_id":"f0e7a35d-530d-4c7f-9536-250ca646cc11","system_id":"levelo_inurba_marseille","lat":43.301939,"lon":5.366286,"is_reserved":false,"is_disabled":false,"rental_uris":{"android":"levelo://app?vid=f0e7a35d-530d-4c7f-9536-250ca646cc11","ios":"levelo://app?vid=f0e7a35d-530d-4c7f-9536-250ca646cc11"},"vehicle_type_id":"4","last_reported":1702724726,"current_range_meters":26400,"station_id":"ce4bgrh2rcd13ifvqc8g","pricing_plan_id":"free"},{"bike_id":"13aa9d0e-58cc-4fec-a94a-ab3f7b882878","system_id":"levelo_inurba_marseille","lat":43.30482,"lon":5.37909,"is_reserved":false,"is_disabled":false,"rental_uris":{"android":"levelo://app?vid=13aa9d0e-58cc-4fec-a94a-ab3f7b882878","ios":"levelo://app?vid=13aa9d0e-58cc-4fec-a94a-ab3f7b882878"},"vehicle_type_id":"4","last_reported":1702724726,"current_range_meters":31200,"station_id":"ce4bgup2rcd13ifvqcn0","pricing_plan_id":"free"},{"bike_id":"9c248663-03d1-415b-88d2-6bfbc9175a63","system_id":"levelo_inurba_marseille","lat":43.304606,"lon":5.379026,"is_reserved":false,"is_disabled":false,"rental_uris":{"android":"levelo://app?vid=9c248663-03d1-415b-88d2-6bfbc9175a63","ios":"levelo://app?vid=9c248663-03d1-415b-88d2-6bfbc9175a63"},"vehicle_type_id":"4","last_reported":1702724726,"current_range_meters":30000,"station_id":"ce4bgup2rcd13ifvqcn0","pricing_plan_id":"free"},{"bike_id":"96e19c54-2c35-455f-8ca0-b36babef0b20","system_id":"levelo_inurba_marseille","lat":43.30471,"lon":5.37909,"is_reserved":false,"is_disabled":false,"rental_uris":{"android":"levelo://app?vid=96e19c54-2c35-455f-8ca0-b36babef0b20","ios":"levelo://app?vid=96e19c54-2c35-455f-8ca0-b36babef0b20"},"vehicle_type_id":"4","last_reported":1702724726,"current_range_meters":23200,"station_id":"ce4bgup2rcd13ifvqcn0","pricing_plan_id":"free"},{"bike_id":"4f48a505-0cc7-4024-8fb2-220b9e9a1125","system_id":"levelo_inurba_marseille","lat":43.304606,"lon":5.379026,"is_reserved":false,"is_disabled":false,"rental_uris":{"android":"levelo://app?vid=4f48a505-0cc7-4024-8fb2-220b9e9a1125","ios":"levelo://app?vid=4f48a505-0cc7-4024-8fb2-220b9e9a1125"},"vehicle_type_id":"4","last_reported":1702724726,"current_range_meters":23600,"station_id":"ce4bgup2rcd13ifvqcn0","pricing_plan_id":"free"},{"bike_id":"f1cde3ff-6cd4-4e86-99bc-06e7a73fc0a0","system_id":"levelo_inurba_marseille","lat":43.324771,"lon":5.36557,"is_reserved":false,"is_disabled":false,"rental_uris":{"android":"levelo://app?vid=f1cde3ff-6cd4-4e86-99bc-06e7a73fc0a0","ios":"levelo://app?vid=f1cde3ff-6cd4-4e86-99bc-06e7a73fc0a0"},"vehicle_type_id":"4","last_reported":1702724726,"current_range_meters":17600,"station_id":"ce4bhs12rcd13ifvqhvg","pricing_plan_id":"free"},{"bike_id":"dfe62985-6f65-471f-8bdb-4e96693a7937","system_id":"levelo_inurba_marseille","lat":43.324818,"lon":5.36568,"is_reserved":false,"is_disabled":false,"rental_uris":{"android":"levelo://app?vid=dfe62985-6f65-471f-8bdb-4e96693a7937","ios":"levelo://app?vid=dfe62985-6f65-471f-8bdb-4e96693a7937"},"vehicle_type_id":"4","last_reported":1702724726,"current_range_meters":18800,"station_id":"ce4bhs12rcd13ifvqhvg","pricing_plan_id":"free"},{"bike_id":"88f7ea2a-62f7-4a88-9e9d-900940b4d7e5","system_id":"levelo_inurba_marseille","lat":43.324771,"lon":5.36557,"is_reserved":false,"is_disabled":false,"rental_uris":{"android":"levelo://app?vid=88f7ea2a-62f7-4a88-9e9d-900940b4d7e5","ios":"levelo://app?vid=88f7ea2a-62f7-4a88-9e9d-900940b4d7e5"},"vehicle_type_id":"4","last_reported":1702724726,"current_range_meters":16400,"station_id":"ce4bhs12rcd13ifvqhvg","pricing_plan_id":"free"},{"bike_id":"db814619-100f-4493-a268-998a727ce1a6","system_id":"levelo_inurba_marseille","lat":43.30143,"lon":5.37413,"is_reserved":false,"is_disabled":false,"rental_uris":{"android":"levelo://app?vid=db814619-100f-4493-a268-998a727ce1a6","ios":"levelo://app?vid=db814619-100f-4493-a268-998a727ce1a6"},"vehicle_type_id":"4","last_reported":1702724726,"current_range_meters":24000,"station_id":"ce4bgs92rcd13ifvqcc0","pricing_plan_id":"free"},{"bike_id":"c9cc5d76-2428-4048-9e76-28d04a459267","system_id":"levelo_inurba_marseille","lat":43.313571,"lon":5.384829,"is_reserved":false,"is_disabled":false,"rental_uris":{"android":"levelo://app?vid=c9cc5d76-2428-4048-9e76-28d04a459267","ios":"levelo://app?vid=c9cc5d76-2428-4048-9e76-28d04a459267"},"vehicle_type_id":"4","last_reported":1702724726,"current_range_meters":12400,"station_id":"ce4bgt92rcd13ifvqcf0","pricing_plan_id":"free"},{"bike_id":"610fde15-e288-4e28-9a22-4c264f177b61","system_id":"levelo_inurba_marseille","lat":43.299222,"lon":5.365554,"is_reserved":false,"is_disabled":false,"rental_uris":{"android":"levelo://app?vid=610fde15-e288-4e28-9a22-4c264f177b61","ios":"levelo://app?vid=610fde15-e288-4e28-9a22-4c264f177b61"},"vehicle_type_id":"4","last_reported":1702724726,"current_range_meters":24800,"station_id":"ce4bgm92rcd13ifvqbr0","pricing_plan_id":"free"},{"bike_id":"c4e77394-aef9-4077-b745-e99148625344","system_id":"levelo_inurba_marseille","lat":43.32733,"lon":5.36707,"is_reserved":false,"is_disabled":false,"rental_uris":{"android":"levelo://app?vid=c4e77394-aef9-4077-b745-e99148625344","ios":"levelo://app?vid=c4e77394-aef9-4077-b745-e99148625344"},"vehicle_type_id":"4","last_reported":1702724726,"current_range_meters":23200,"station_id":"","pricing_plan_id":"free"},{"bike_id":"819cb438-2e9c-4e0b-902b-5e19ef554d5c","system_id":"levelo_inurba_marseille","lat":43.305481,"lon":5.384393,"is_reserved":false,"is_disabled":false,"rental_uris":{"android":"levelo://app?vid=819cb438-2e9c-4e0b-902b-5e19ef554d5c","ios":"levelo://app?vid=819cb438-2e9c-4e0b-902b-5e19ef554d5c"},"vehicle_type_id":"4","last_reported":1702724726,"current_range_meters":17200,"station_id":"ce4bgg92rcd13ifvqb30","pricing_plan_id":"free"},{"bike_id":"2e00723a-f74a-4a8d-9cab-9ca30382f3a8","system_id":"levelo_inurba_marseille","lat":43.311722,"lon":5.387247,"is_reserved":false,"is_disabled":false,"rental_uris":{"android":"levelo://app?vid=2e00723a-f74a-4a8d-9cab-9ca30382f3a8","ios":"levelo://app?vid=2e00723a-f74a-4a8d-9cab-9ca30382f3a8"},"vehicle_type_id":"4","last_reported":1702724726,"current_range_meters":16800,"station_id":"ce4bgv12rcd13ifvqcp0","pricing_plan_id":"free"},{"bike_id":"513356ca-3d66-4071-bbb0-1bb6e2397794","system_id":"levelo_inurba_marseille","lat":43.311722,"lon":5.387247,"is_reserved":false,"is_disabled":false,"rental_uris":{"android":"levelo://app?vid=513356ca-3d66-4071-bbb0-1bb6e2397794","ios":"levelo://app?vid=513356ca-3d66-4071-bbb0-1bb6e2397794"},"vehicle_type_id":"4","last_reported":1702724726,"current_range_meters":0,"station_id":"ce4bgv12rcd13ifvqcp0","pricing_plan_id":"free"},{"bike_id":"aec741de-eaa0-4f1f-a404-bddd9c115842","system_id":"levelo_inurba_marseille","lat":43.311722,"lon":5.387247,"is_reserved":false,"is_disabled":false,"rental_uris":{"android":"levelo://app?vid=aec741de-eaa0-4f1f-a404-bddd9c115842","ios":"levelo://app?vid=aec741de-eaa0-4f1f-a404-bddd9c115842"},"vehicle_type_id":"4","last_reported":1702724726,"current_range_meters":26000,"station_id":"ce4bgv12rcd13ifvqcp0","pricing_plan_id":"free"},{"bike_id":"47a0ad14-951c-48e7-bde6-22a60db9ffc5","system_id":"levelo_inurba_marseille","lat":43.32827,"lon":5.36694,"is_reserved":false,"is_disabled":false,"rental_uris":{"android":"levelo://app?vid=47a0ad14-951c-48e7-bde6-22a60db9ffc5","ios":"levelo://app?vid=47a0ad14-951c-48e7-bde6-22a60db9ffc5"},"vehicle_type_id":"4","last_reported":1702724726,"current_range_meters":23200,"station_id":"ce4bhs92rcd13ifvqi0g","pricing_plan_id":"free"},{"bike_id":"1737724e-cb2c-4de9-82f2-77dd2021971f","system_id":"levelo_inurba_marseille","lat":43.328371,"lon":5.366909,"is_reserved":false,"is_disabled":false,"rental_uris":{"android":"levelo://app?vid=1737724e-cb2c-4de9-82f2-77dd2021971f","ios":"levelo://app?vid=1737724e-cb2c-4de9-82f2-77dd2021971f"},"vehicle_type_id":"4","last_reported":1702724726,"current_range_meters":17200,"station_id":"ce4bhs92rcd13ifvqi0g","pricing_plan_id":"free"},{"bike_id":"6d196952-3373-4967-8720-8d5233805191","system_id":"levelo_inurba_marseille","lat":43.2968,"lon":5.37291,"is_reserved":false,"is_disabled":false,"rental_uris":{"android":"levelo://app?vid=6d196952-3373-4967-8720-8d5233805191","ios":"levelo://app?vid=6d196952-3373-4967-8720-8d5233805191"},"vehicle_type_id":"4","last_reported":1702724726,"current_range_meters":30000,"station_id":"ce4bgk12rcd13ifvqbj0","pricing_plan_id":"free"},{"bike_id":"25907433-ef9f-48fe-b1b9-7035239e3847","system_id":"levelo_inurba_marseille","lat":43.29573,"lon":5.367355,"is_reserved":false,"is_disabled":false,"rental_uris":{"android":"levelo://app?vid=25907433-ef9f-48fe-b1b9-7035239e3847","ios":"levelo://app?vid=25907433-ef9f-48fe-b1b9-7035239e3847"},"vehicle_type_id":"4","last_reported":1702724726,"current_range_meters":30000,"station_id":"ce4bgph2rcd13ifvqc2g","pricing_plan_id":"free"},{"bike_id":"7641fd56-c595-4a08-b22c-98431b79f274","system_id":"levelo_inurba_marseille","lat":43.29573,"lon":5.367355,"is_reserved":false,"is_disabled":false,"rental_uris":{"android":"levelo://app?vid=7641fd56-c595-4a08-b22c-98431b79f274","ios":"levelo://app?vid=7641fd56-c595-4a08-b22c-98431b79f274"},"vehicle_type_id":"4","last_reported":1702724726,"current_range_meters":26800,"station_id":"ce4bgph2rcd13ifvqc2g","pricing_plan_id":"free"},{"bike_id":"c8373d57-5459-4d9d-bfa0-a502f99d015f","system_id":"levelo_inurba_marseille","lat":43.296935,"lon":5.376544,"is_reserved":false,"is_disabled":false,"rental_uris":{"android":"levelo://app?vid=c8373d57-5459-4d9d-bfa0-a502f99d015f","ios":"levelo://app?vid=c8373d57-5459-4d9d-bfa0-a502f99d015f"},"vehicle_type_id":"4","last_reported":1702724726,"current_range_meters":30000,"station_id":"ce4bgkh2rcd13ifvqbl0","pricing_plan_id":"free"},{"bike_id":"633509bd-dc37-47e5-b684-5b4fba0acbcc","system_id":"levelo_inurba_marseille","lat":43.317557,"lon":5.390173,"is_reserved":false,"is_disabled":false,"rental_uris":{"android":"levelo://app?vid=633509bd-dc37-47e5-b684-5b4fba0acbcc","ios":"levelo://app?vid=633509bd-dc37-47e5-b684-5b4fba0acbcc"},"vehicle_type_id":"4","last_reported":1702724726,"current_range_meters":27200,"station_id":"ce4bhqp2rcd13ifvqhng","pricing_plan_id":"free"},{"bike_id":"4bd22b2a-a4d7-41bf-b547-b280585890d0","system_id":"levelo_inurba_marseille","lat":43.295748,"lon":5.37522,"is_reserved":false,"is_disabled":false,"rental_uris":{"android":"levelo://app?vid=4bd22b2a-a4d7-41bf-b547-b280585890d0","ios":"levelo://app?vid=4bd22b2a-a4d7-41bf-b547-b280585890d0"},"vehicle_type_id":"4","last_reported":1702724726,"current_range_meters":4400,"station_id":"ce4bgh92rcd13ifvqb50","pricing_plan_id":"free"},{"bike_id":"8e5cd4a4-0ce4-44b6-9360-536e819b3c12","system_id":"levelo_inurba_marseille","lat":43.304291,"lon":5.388888,"is_reserved":false,"is_disabled":false,"rental_uris":{"android":"levelo://app?vid=8e5cd4a4-0ce4-44b6-9360-536e819b3c12","ios":"levelo://app?vid=8e5cd4a4-0ce4-44b6-9360-536e819b3c12"},"vehicle_type_id":"4","last_reported":1702724726,"current_range_meters":28000,"station_id":"ce4bgk12rcd13ifvqbi0","pricing_plan_id":"free"},{"bike_id":"16d0a639-e410-4617-9e0d-37d53f987e80","system_id":"levelo_inurba_marseille","lat":43.296277,"lon":5.377108,"is_reserved":false,"is_disabled":false,"rental_uris":{"android":"levelo://app?vid=16d0a639-e410-4617-9e0d-37d53f987e80","ios":"levelo://app?vid=16d0a639-e410-4617-9e0d-37d53f987e80"},"vehicle_type_id":"4","last_reported":1702724726,"current_range_meters":12800,"station_id":"ce4bgi92rcd13ifvqb90","pricing_plan_id":"free"},{"bike_id":"a7f305ee-0d2a-43bc-a6ce-4b30e5c0c89f","system_id":"levelo_inurba_marseille","lat":43.29542,"lon":5.37504,"is_reserved":false,"is_disabled":false,"rental_uris":{"android":"levelo://app?vid=a7f305ee-0d2a-43bc-a6ce-4b30e5c0c89f","ios":"levelo://app?vid=a7f305ee-0d2a-43bc-a6ce-4b30e5c0c89f"},"vehicle_type_id":"4","last_reported":1702724726,"current_range_meters":22000,"station_id":"ce4bgkp2rcd13ifvqbmg","pricing_plan_id":"free"},{"bike_id":"d7cfc695-46e4-44b3-8ec0-c747855a4a36","system_id":"levelo_inurba_marseille","lat":43.29542,"lon":5.37509,"is_reserved":false,"is_disabled":false,"rental_uris":{"android":"levelo://app?vid=d7cfc695-46e4-44b3-8ec0-c747855a4a36","ios":"levelo://app?vid=d7cfc695-46e4-44b3-8ec0-c747855a4a36"},"vehicle_type_id":"4","last_reported":1702724726,"current_range_meters":26800,"station_id":"ce4bgkp2rcd13ifvqbmg","pricing_plan_id":"free"},{"bike_id":"17b4f92f-4181-4881-a537-74cca6621088","system_id":"levelo_inurba_marseille","lat":43.29276,"lon":5.36844,"is_reserved":false,"is_disabled":false,"rental_uris":{"android":"levelo://app?vid=17b4f92f-4181-4881-a537-74cca6621088","ios":"levelo://app?vid=17b4f92f-4181-4881-a537-74cca6621088"},"vehicle_type_id":"4","last_reported":1702724726,"current_range_meters":25200,"station_id":"ce4bhbp2rcd13ifvqesg","pricing_plan_id":"free"},{"bike_id":"45217ab8-9ba4-4668-a3e4-198a43be2d57","system_id":"levelo_inurba_marseille","lat":43.292749,"lon":5.368402,"is_reserved":false,"is_disabled":false,"rental_uris":{"android":"levelo://app?vid=45217ab8-9ba4-4668-a3e4-198a43be2d57","ios":"levelo://app?vid=45217ab8-9ba4-4668-a3e4-198a43be2d57"},"vehicle_type_id":"4","last_reported":1702724726,"current_range_meters":20000,"station_id":"ce4bhbp2rcd13ifvqesg","pricing_plan_id":"free"},{"bike_id":"b2066529-b3a0-4340-aa58-7a0487a5af7c","system_id":"levelo_inurba_marseille","lat":43.293009,"lon":5.374584,"is_reserved":false,"is_disabled":false,"rental_uris":{"android":"levelo://app?vid=b2066529-b3a0-4340-aa58-7a0487a5af7c","ios":"levelo://app?vid=b2066529-b3a0-4340-aa58-7a0487a5af7c"},"vehicle_type_id":"4","last_reported":1702724726,"current_range_meters":22000,"station_id":"ce4bgi12rcd13ifvqb70","pricing_plan_id":"free"},{"bike_id":"b46eb72d-3cb4-47b8-8a5e-8115fbf01766","system_id":"levelo_inurba_marseille","lat":43.293009,"lon":5.374584,"is_reserved":false,"is_disabled":false,"rental_uris":{"android":"levelo://app?vid=b46eb72d-3cb4-47b8-8a5e-8115fbf01766","ios":"levelo://app?vid=b46eb72d-3cb4-47b8-8a5e-8115fbf01766"},"vehicle_type_id":"4","last_reported":1702724726,"current_range_meters":20000,"station_id":"ce4bgi12rcd13ifvqb70","pricing_plan_id":"free"},{"bike_id":"618d7086-d7c7-4b93-af8d-3bce2214baa6","system_id":"levelo_inurba_marseille","lat":43.293009,"lon":5.374584,"is_reserved":false,"is_disabled":false,"rental_uris":{"android":"levelo://app?vid=618d7086-d7c7-4b93-af8d-3bce2214baa6","ios":"levelo://app?vid=618d7086-d7c7-4b93-af8d-3bce2214baa6"},"vehicle_type_id":"4","last_reported":1702724726,"current_range_meters":23600,"station_id":"ce4bgi12rcd13ifvqb70","pricing_plan_id":"free"},{"bike_id":"773b5805-d7b6-42d7-8867-c9fa859f196b","system_id":"levelo_inurba_marseille","lat":43.293009,"lon":5.374584,"is_reserved":false,"is_disabled":false,"rental_uris":{"android":"levelo://app?vid=773b5805-d7b6-42d7-8867-c9fa859f196b","ios":"levelo://app?vid=773b5805-d7b6-42d7-8867-c9fa859f196b"},"vehicle_type_id":"4","last_reported":1702724726,"current_range_meters":26000,"station_id":"ce4bgi12rcd13ifvqb70","pricing_plan_id":"free"},{"bike_id":"68a7b52a-ef75-4716-a38e-a9c09c200feb","system_id":"levelo_inurba_marseille","lat":43.293009,"lon":5.374584,"is_reserved":false,"is_disabled":false,"rental_uris":{"android":"levelo://app?vid=68a7b52a-ef75-4716-a38e-a9c09c200feb","ios":"levelo://app?vid=68a7b52a-ef75-4716-a38e-a9c09c200feb"},"vehicle_type_id":"4","last_reported":1702724726,"current_range_meters":17600,"station_id":"ce4bgi12rcd13ifvqb70","pricing_plan_id":"free"},{"bike_id":"863e942a-3f85-4ccf-8d55-252fb3e10c66","system_id":"levelo_inurba_marseille","lat":43.293009,"lon":5.374584,"is_reserved":false,"is_disabled":false,"rental_uris":{"android":"levelo://app?vid=863e942a-3f85-4ccf-8d55-252fb3e10c66","ios":"levelo://app?vid=863e942a-3f85-4ccf-8d55-252fb3e10c66"},"vehicle_type_id":"4","last_reported":1702724726,"current_range_meters":18000,"station_id":"ce4bgi12rcd13ifvqb70","pricing_plan_id":"free"},{"bike_id":"db24faef-6ec8-4928-ad38-7909171e077f","system_id":"levelo_inurba_marseille","lat":43.303002,"lon":5.392142,"is_reserved":false,"is_disabled":false,"rental_uris":{"android":"levelo://app?vid=db24faef-6ec8-4928-ad38-7909171e077f","ios":"levelo://app?vid=db24faef-6ec8-4928-ad38-7909171e077f"},"vehicle_type_id":"4","last_reported":1702724726,"current_range_meters":1200,"station_id":"ce4bgkh2rcd13ifvqbk0","pricing_plan_id":"free"},{"bike_id":"fd632869-e62b-4f9a-bc39-a7b94c702ed9","system_id":"levelo_inurba_marseille","lat":43.2936,"lon":5.37835,"is_reserved":false,"is_disabled":false,"rental_uris":{"android":"levelo://app?vid=fd632869-e62b-4f9a-bc39-a7b94c702ed9","ios":"levelo://app?vid=fd632869-e62b-4f9a-bc39-a7b94c702ed9"},"vehicle_type_id":"4","last_reported":1702724726,"current_range_meters":25200,"station_id":"ce4bgjh2rcd13ifvqbf0","pricing_plan_id":"free"},{"bike_id":"62b579cf-ef0c-4e40-8ceb-5f0a1f0234e3","system_id":"levelo_inurba_marseille","lat":43.292311,"lon":5.360731,"is_reserved":false,"is_disabled":false,"rental_uris":{"android":"levelo://app?vid=62b579cf-ef0c-4e40-8ceb-5f0a1f0234e3","ios":"levelo://app?vid=62b579cf-ef0c-4e40-8ceb-5f0a1f0234e3"},"vehicle_type_id":"4","last_reported":1702724726,"current_range_meters":25200,"station_id":"ce4bhbh2rcd13ifvqeqg","pricing_plan_id":"free"},{"bike_id":"ae2d8bb3-a67c-4313-a5bb-6bb68220ea03","system_id":"levelo_inurba_marseille","lat":43.292311,"lon":5.360731,"is_reserved":false,"is_disabled":false,"rental_uris":{"android":"levelo://app?vid=ae2d8bb3-a67c-4313-a5bb-6bb68220ea03","ios":"levelo://app?vid=ae2d8bb3-a67c-4313-a5bb-6bb68220ea03"},"vehicle_type_id":"4","last_reported":1702724726,"current_range_meters":25600,"station_id":"ce4bhbh2rcd13ifvqeqg","pricing_plan_id":"free"},{"bike_id":"e8f14858-0dc5-47d6-a84d-ec371a7ea7eb","system_id":"levelo_inurba_marseille","lat":43.29258,"lon":5.37618,"is_reserved":false,"is_disabled":false,"rental_uris":{"android":"levelo://app?vid=e8f14858-0dc5-47d6-a84d-ec371a7ea7eb","ios":"levelo://app?vid=e8f14858-0dc5-47d6-a84d-ec371a7ea7eb"},"vehicle_type_id":"4","last_reported":1702724726,"current_range_meters":20400,"station_id":"","pricing_plan_id":"free"},{"bike_id":"111119ae-6688-4a0e-946e-810929bd81de","system_id":"levelo_inurba_marseille","lat":43.298766,"lon":5.389062,"is_reserved":false,"is_disabled":false,"rental_uris":{"android":"levelo://app?vid=111119ae-6688-4a0e-946e-810929bd81de","ios":"levelo://app?vid=111119ae-6688-4a0e-946e-810929bd81de"},"vehicle_type_id":"4","last_reported":1702724726,"current_range_meters":4800,"station_id":"","pricing_plan_id":"free"},{"bike_id":"f858b22e-b474-45a5-86cb-d55f32892d62","system_id":"levelo_inurba_marseille","lat":43.29872,"lon":5.38903,"is_reserved":false,"is_disabled":false,"rental_uris":{"android":"levelo://app?vid=f858b22e-b474-45a5-86cb-d55f32892d62","ios":"levelo://app?vid=f858b22e-b474-45a5-86cb-d55f32892d62"},"vehicle_type_id":"4","last_reported":1702724726,"current_range_meters":16400,"station_id":"","pricing_plan_id":"free"},{"bike_id":"d2f06f89-8e3b-47d0-ab46-86a6c86be336","system_id":"levelo_inurba_marseille","lat":43.292749,"lon":5.368402,"is_reserved":false,"is_disabled":false,"rental_uris":{"android":"levelo://app?vid=d2f06f89-8e3b-47d0-ab46-86a6c86be336","ios":"levelo://app?vid=d2f06f89-8e3b-47d0-ab46-86a6c86be336"},"vehicle_type_id":"4","last_reported":1702724726,"current_range_meters":20000,"station_id":"ce4bhbp2rcd13ifvqesg","pricing_plan_id":"free"},{"bike_id":"90398815-4917-4289-8909-5f85b81a4a0f","system_id":"levelo_inurba_marseille","lat":43.29194,"lon":5.358,"is_reserved":false,"is_disabled":false,"rental_uris":{"android":"levelo://app?vid=90398815-4917-4289-8909-5f85b81a4a0f","ios":"levelo://app?vid=90398815-4917-4289-8909-5f85b81a4a0f"},"vehicle_type_id":"4","last_reported":1702724726,"current_range_meters":22800,"station_id":"ce4bhb12rcd13ifvqel0","pricing_plan_id":"free"},{"bike_id":"9521dc04-9638-4b54-a054-cc3de153b60a","system_id":"levelo_inurba_marseille","lat":43.309038,"lon":5.396546,"is_reserved":false,"is_disabled":false,"rental_uris":{"android":"levelo://app?vid=9521dc04-9638-4b54-a054-cc3de153b60a","ios":"levelo://app?vid=9521dc04-9638-4b54-a054-cc3de153b60a"},"vehicle_type_id":"4","last_reported":1702724726,"current_range_meters":23600,"station_id":"ce4bh012rcd13ifvqcv0","pricing_plan_id":"free"},{"bike_id":"94ae0c7e-2cf2-4c76-8516-4d908f17ec75","system_id":"levelo_inurba_marseille","lat":43.309038,"lon":5.396546,"is_reserved":false,"is_disabled":false,"rental_uris":{"android":"levelo://app?vid=94ae0c7e-2cf2-4c76-8516-4d908f17ec75","ios":"levelo://app?vid=94ae0c7e-2cf2-4c76-8516-4d908f17ec75"},"vehicle_type_id":"4","last_reported":1702724726,"current_range_meters":23200,"station_id":"ce4bh012rcd13ifvqcv0","pricing_plan_id":"free"},{"bike_id":"8bbcd642-f5fa-4997-b4a6-43a47b101e71","system_id":"levelo_inurba_marseille","lat":43.29529,"lon":5.385581,"is_reserved":false,"is_disabled":false,"rental_uris":{"android":"levelo://app?vid=8bbcd642-f5fa-4997-b4a6-43a47b101e71","ios":"levelo://app?vid=8bbcd642-f5fa-4997-b4a6-43a47b101e71"},"vehicle_type_id":"4","last_reported":1702724726,"current_range_meters":10000,"station_id":"ce4bgih2rcd13ifvqba0","pricing_plan_id":"free"},{"bike_id":"58f1f261-a1df-4760-9ead-ded95e405d3e","system_id":"levelo_inurba_marseille","lat":43.304296,"lon":5.397513,"is_reserved":false,"is_disabled":false,"rental_uris":{"android":"levelo://app?vid=58f1f261-a1df-4760-9ead-ded95e405d3e","ios":"levelo://app?vid=58f1f261-a1df-4760-9ead-ded95e405d3e"},"vehicle_type_id":"4","last_reported":1702724726,"current_range_meters":18800,"station_id":"ce4bh092rcd13ifvqd20","pricing_plan_id":"free"},{"bike_id":"ac8274f2-02f6-478f-978d-8d63ec6e2239","system_id":"levelo_inurba_marseille","lat":43.3304,"lon":5.38919,"is_reserved":false,"is_disabled":false,"rental_uris":{"android":"levelo://app?vid=ac8274f2-02f6-478f-978d-8d63ec6e2239","ios":"levelo://app?vid=ac8274f2-02f6-478f-978d-8d63ec6e2239"},"vehicle_type_id":"4","last_reported":1702724726,"current_range_meters":7600,"station_id":"ce4bhr92rcd13ifvqhrg","pricing_plan_id":"free"},{"bike_id":"2af1ec1d-db50-4675-b168-902ca134119a","system_id":"levelo_inurba_marseille","lat":43.33044,"lon":5.38918,"is_reserved":false,"is_disabled":false,"rental_uris":{"android":"levelo://app?vid=2af1ec1d-db50-4675-b168-902ca134119a","ios":"levelo://app?vid=2af1ec1d-db50-4675-b168-902ca134119a"},"vehicle_type_id":"4","last_reported":1702724726,"current_range_meters":0,"station_id":"ce4bhr92rcd13ifvqhrg","pricing_plan_id":"free"},{"bike_id":"5f56489f-bb5f-4660-b63f-9d2c051305bd","system_id":"levelo_inurba_marseille","lat":43.290027,"lon":5.356166,"is_reserved":false,"is_disabled":false,"rental_uris":{"android":"levelo://app?vid=5f56489f-bb5f-4660-b63f-9d2c051305bd","ios":"levelo://app?vid=5f56489f-bb5f-4660-b63f-9d2c051305bd"},"vehicle_type_id":"4","last_reported":1702724726,"current_range_meters":22400,"station_id":"","pricing_plan_id":"free"},{"bike_id":"dcb49890-d113-4e8d-9814-51924e3b9fd5","system_id":"levelo_inurba_marseille","lat":43.33047,"lon":5.38924,"is_reserved":false,"is_disabled":false,"rental_uris":{"android":"levelo://app?vid=dcb49890-d113-4e8d-9814-51924e3b9fd5","ios":"levelo://app?vid=dcb49890-d113-4e8d-9814-51924e3b9fd5"},"vehicle_type_id":"4","last_reported":1702724726,"current_range_meters":20400,"station_id":"ce4bhr92rcd13ifvqhrg","pricing_plan_id":"free"},{"bike_id":"0a6a1ed2-fa39-46c3-a9a9-c09441ba9175","system_id":"levelo_inurba_marseille","lat":43.31249,"lon":5.40161,"is_reserved":false,"is_disabled":false,"rental_uris":{"android":"levelo://app?vid=0a6a1ed2-fa39-46c3-a9a9-c09441ba9175","ios":"levelo://app?vid=0a6a1ed2-fa39-46c3-a9a9-c09441ba9175"},"vehicle_type_id":"4","last_reported":1702724726,"current_range_meters":18000,"station_id":"ce4bh092rcd13ifvqd30","pricing_plan_id":"free"},{"bike_id":"f0cd831c-cfb9-44c7-9487-103b6df223ca","system_id":"levelo_inurba_marseille","lat":43.337445,"lon":5.374592,"is_reserved":false,"is_disabled":false,"rental_uris":{"android":"levelo://app?vid=f0cd831c-cfb9-44c7-9487-103b6df223ca","ios":"levelo://app?vid=f0cd831c-cfb9-44c7-9487-103b6df223ca"},"vehicle_type_id":"4","last_reported":1702724726,"current_range_meters":29600,"station_id":"","pricing_plan_id":"free"},{"bike_id":"b006c12d-5f42-407c-84fc-30d873b62927","system_id":"levelo_inurba_marseille","lat":43.309371,"lon":5.401449,"is_reserved":false,"is_disabled":false,"rental_uris":{"android":"levelo://app?vid=b006c12d-5f42-407c-84fc-30d873b62927","ios":"levelo://app?vid=b006c12d-5f42-407c-84fc-30d873b62927"},"vehicle_type_id":"4","last_reported":1702724726,"current_range_meters":6800,"station_id":"ce4bgvp2rcd13ifvqct0","pricing_plan_id":"free"},{"bike_id":"a15a6f31-d26a-498f-aab0-fad2629bd007","system_id":"levelo_inurba_marseille","lat":43.337535,"lon":5.37446,"is_reserved":false,"is_disabled":false,"rental_uris":{"android":"levelo://app?vid=a15a6f31-d26a-498f-aab0-fad2629bd007","ios":"levelo://app?vid=a15a6f31-d26a-498f-aab0-fad2629bd007"},"vehicle_type_id":"4","last_reported":1702724726,"current_range_meters":0,"station_id":"","pricing_plan_id":"free"},{"bike_id":"ef80ceab-dc9f-4b6c-8f52-707d5177f481","system_id":"levelo_inurba_marseille","lat":43.33752,"lon":5.37466,"is_reserved":false,"is_disabled":false,"rental_uris":{"android":"levelo://app?vid=ef80ceab-dc9f-4b6c-8f52-707d5177f481","ios":"levelo://app?vid=ef80ceab-dc9f-4b6c-8f52-707d5177f481"},"vehicle_type_id":"4","last_reported":1702724726,"current_range_meters":29200,"station_id":"","pricing_plan_id":"free"},{"bike_id":"1b1bd80c-92ec-4f8e-8e80-a125315f4b22","system_id":"levelo_inurba_marseille","lat":43.337683,"lon":5.374345,"is_reserved":false,"is_disabled":false,"rental_uris":{"android":"levelo://app?vid=1b1bd80c-92ec-4f8e-8e80-a125315f4b22","ios":"levelo://app?vid=1b1bd80c-92ec-4f8e-8e80-a125315f4b22"},"vehicle_type_id":"4","last_reported":1702724726,"current_range_meters":4000,"station_id":"","pricing_plan_id":"free"},{"bike_id":"0589af4e-8c39-441f-bcf3-a2b62c003b9e","system_id":"levelo_inurba_marseille","lat":43.301117,"lon":5.398795,"is_reserved":false,"is_disabled":false,"rental_uris":{"android":"levelo://app?vid=0589af4e-8c39-441f-bcf3-a2b62c003b9e","ios":"levelo://app?vid=0589af4e-8c39-441f-bcf3-a2b62c003b9e"},"vehicle_type_id":"4","last_reported":1702724726,"current_range_meters":15200,"station_id":"ce4bh0h2rcd13ifvqd40","pricing_plan_id":"free"},{"bike_id":"a4cbac50-96af-416a-96bd-07660d5c5ff4","system_id":"levelo_inurba_marseille","lat":43.298681,"lon":5.397225,"is_reserved":false,"is_disabled":false,"rental_uris":{"android":"levelo://app?vid=a4cbac50-96af-416a-96bd-07660d5c5ff4","ios":"levelo://app?vid=a4cbac50-96af-416a-96bd-07660d5c5ff4"},"vehicle_type_id":"4","last_reported":1702724726,"current_range_meters":23600,"station_id":"ce4bh0h2rcd13ifvqd50","pricing_plan_id":"free"},{"bike_id":"46937d05-36c2-495a-9b30-7603f646a5e5","system_id":"levelo_inurba_marseille","lat":43.307525,"lon":5.402736,"is_reserved":false,"is_disabled":false,"rental_uris":{"android":"levelo://app?vid=46937d05-36c2-495a-9b30-7603f646a5e5","ios":"levelo://app?vid=46937d05-36c2-495a-9b30-7603f646a5e5"},"vehicle_type_id":"4","last_reported":1702724726,"current_range_meters":14000,"station_id":"","pricing_plan_id":"free"},{"bike_id":"e9d0fe3a-6c3c-44a4-a8a2-395442486b50","system_id":"levelo_inurba_marseille","lat":43.290345,"lon":5.38646,"is_reserved":false,"is_disabled":false,"rental_uris":{"android":"levelo://app?vid=e9d0fe3a-6c3c-44a4-a8a2-395442486b50","ios":"levelo://app?vid=e9d0fe3a-6c3c-44a4-a8a2-395442486b50"},"vehicle_type_id":"4","last_reported":1702724726,"current_range_meters":4000,"station_id":"ce4bh4p2rcd13ifvqe0g","pricing_plan_id":"free"},{"bike_id":"da6f8281-187a-41c7-94e0-319db41f0a4c","system_id":"levelo_inurba_marseille","lat":43.302759,"lon":5.400793,"is_reserved":false,"is_disabled":false,"rental_uris":{"android":"levelo://app?vid=da6f8281-187a-41c7-94e0-319db41f0a4c","ios":"levelo://app?vid=da6f8281-187a-41c7-94e0-319db41f0a4c"},"vehicle_type_id":"4","last_reported":1702724726,"current_range_meters":10000,"station_id":"ce4bgvh2rcd13ifvqcs0","pricing_plan_id":"free"},{"bike_id":"12093fb8-e891-4364-b26f-ad0e6b5f7380","system_id":"levelo_inurba_marseille","lat":43.302759,"lon":5.400793,"is_reserved":false,"is_disabled":false,"rental_uris":{"android":"levelo://app?vid=12093fb8-e891-4364-b26f-ad0e6b5f7380","ios":"levelo://app?vid=12093fb8-e891-4364-b26f-ad0e6b5f7380"},"vehicle_type_id":"4","last_reported":1702724726,"current_range_meters":14800,"station_id":"ce4bgvh2rcd13ifvqcs0","pricing_plan_id":"free"},{"bike_id":"246d5fa5-c550-48ea-a6ec-41b624ab5d9f","system_id":"levelo_inurba_marseille","lat":43.286039,"lon":5.370679,"is_reserved":false,"is_disabled":false,"rental_uris":{"android":"levelo://app?vid=246d5fa5-c550-48ea-a6ec-41b624ab5d9f","ios":"levelo://app?vid=246d5fa5-c550-48ea-a6ec-41b624ab5d9f"},"vehicle_type_id":"4","last_reported":1702724726,"current_range_meters":29600,"station_id":"ce4bht12rcd13ifvqi60","pricing_plan_id":"free"},{"bike_id":"ed032d7c-7ff2-47f8-a5a3-85b4e67e221a","system_id":"levelo_inurba_marseille","lat":43.28812,"lon":5.35254,"is_reserved":false,"is_disabled":false,"rental_uris":{"android":"levelo://app?vid=ed032d7c-7ff2-47f8-a5a3-85b4e67e221a","ios":"levelo://app?vid=ed032d7c-7ff2-47f8-a5a3-85b4e67e221a"},"vehicle_type_id":"4","last_reported":1702724726,"current_range_meters":8000,"station_id":"","pricing_plan_id":"free"},{"bike_id":"12a5fd8c-1371-4587-accc-b3754c2414ba","system_id":"levelo_inurba_marseille","lat":43.286597,"lon":5.379423,"is_reserved":false,"is_disabled":false,"rental_uris":{"android":"levelo://app?vid=12a5fd8c-1371-4587-accc-b3754c2414ba","ios":"levelo://app?vid=12a5fd8c-1371-4587-accc-b3754c2414ba"},"vehicle_type_id":"4","last_reported":1702724726,"current_range_meters":20400,"station_id":"","pricing_plan_id":"free"},{"bike_id":"8fe2ce97-fea6-4d3a-bbd1-6da7a56bb1d4","system_id":"levelo_inurba_marseille","lat":43.316965,"lon":5.404588,"is_reserved":false,"is_disabled":false,"rental_uris":{"android":"levelo://app?vid=8fe2ce97-fea6-4d3a-bbd1-6da7a56bb1d4","ios":"levelo://app?vid=8fe2ce97-fea6-4d3a-bbd1-6da7a56bb1d4"},"vehicle_type_id":"4","last_reported":1702724726,"current_range_meters":27600,"station_id":"ce4bh012rcd13ifvqd00","pricing_plan_id":"free"},{"bike_id":"09d0b8f5-ea4e-4c8f-ab16-cb710fa54b84","system_id":"levelo_inurba_marseille","lat":43.286595,"lon":5.386795,"is_reserved":false,"is_disabled":false,"rental_uris":{"android":"levelo://app?vid=09d0b8f5-ea4e-4c8f-ab16-cb710fa54b84","ios":"levelo://app?vid=09d0b8f5-ea4e-4c8f-ab16-cb710fa54b84"},"vehicle_type_id":"4","last_reported":1702724726,"current_range_meters":29600,"station_id":"ce4bh492rcd13ifvqdug","pricing_plan_id":"free"},{"bike_id":"74c5cf30-49f6-42f3-835f-9c531e7566b4","system_id":"levelo_inurba_marseille","lat":43.319179,"lon":5.407725,"is_reserved":false,"is_disabled":false,"rental_uris":{"android":"levelo://app?vid=74c5cf30-49f6-42f3-835f-9c531e7566b4","ios":"levelo://app?vid=74c5cf30-49f6-42f3-835f-9c531e7566b4"},"vehicle_type_id":"4","last_reported":1702724726,"current_range_meters":17200,"station_id":"ce4bhq12rcd13ifvqhig","pricing_plan_id":"free"},{"bike_id":"4e7f35df-b5be-41f8-a088-b359fd0719b0","system_id":"levelo_inurba_marseille","lat":43.323464,"lon":5.406297,"is_reserved":false,"is_disabled":false,"rental_uris":{"android":"levelo://app?vid=4e7f35df-b5be-41f8-a088-b359fd0719b0","ios":"levelo://app?vid=4e7f35df-b5be-41f8-a088-b359fd0719b0"},"vehicle_type_id":"4","last_reported":1702724726,"current_range_meters":27600,"station_id":"ce4bhq92rcd13ifvqhjg","pricing_plan_id":"free"},{"bike_id":"16373837-b161-407f-b0fa-3d0f27559010","system_id":"levelo_inurba_marseille","lat":43.323464,"lon":5.406297,"is_reserved":false,"is_disabled":false,"rental_uris":{"android":"levelo://app?vid=16373837-b161-407f-b0fa-3d0f27559010","ios":"levelo://app?vid=16373837-b161-407f-b0fa-3d0f27559010"},"vehicle_type_id":"4","last_reported":1702724726,"current_range_meters":31600,"station_id":"ce4bhq92rcd13ifvqhjg","pricing_plan_id":"free"},{"bike_id":"3a9d93a3-79c7-45cd-a65a-5b80398f986d","system_id":"levelo_inurba_marseille","lat":43.284787,"lon":5.384116,"is_reserved":false,"is_disabled":false,"rental_uris":{"android":"levelo://app?vid=3a9d93a3-79c7-45cd-a65a-5b80398f986d","ios":"levelo://app?vid=3a9d93a3-79c7-45cd-a65a-5b80398f986d"},"vehicle_type_id":"4","last_reported":1702724726,"current_range_meters":24800,"station_id":"ce4bh512rcd13ifvqe3g","pricing_plan_id":"free"},{"bike_id":"ff339154-36a3-4ac3-962d-cbe9b0abaf56","system_id":"levelo_inurba_marseille","lat":43.284787,"lon":5.384116,"is_reserved":false,"is_disabled":false,"rental_uris":{"android":"levelo://app?vid=ff339154-36a3-4ac3-962d-cbe9b0abaf56","ios":"levelo://app?vid=ff339154-36a3-4ac3-962d-cbe9b0abaf56"},"vehicle_type_id":"4","last_reported":1702724726,"current_range_meters":29200,"station_id":"ce4bh512rcd13ifvqe3g","pricing_plan_id":"free"},{"bike_id":"07a27b17-3e39-4fed-90a2-f6b84abe0322","system_id":"levelo_inurba_marseille","lat":43.28834,"lon":5.393205,"is_reserved":false,"is_disabled":false,"rental_uris":{"android":"levelo://app?vid=07a27b17-3e39-4fed-90a2-f6b84abe0322","ios":"levelo://app?vid=07a27b17-3e39-4fed-90a2-f6b84abe0322"},"vehicle_type_id":"4","last_reported":1702724726,"current_range_meters":0,"station_id":"ce4bh2p2rcd13ifvqdi0","pricing_plan_id":"free"},{"bike_id":"2c2c9502-aef5-4d6c-84e5-3a10d43d1d80","system_id":"levelo_inurba_marseille","lat":43.284217,"lon":5.349697,"is_reserved":false,"is_disabled":false,"rental_uris":{"android":"levelo://app?vid=2c2c9502-aef5-4d6c-84e5-3a10d43d1d80","ios":"levelo://app?vid=2c2c9502-aef5-4d6c-84e5-3a10d43d1d80"},"vehicle_type_id":"4","last_reported":1702724726,"current_range_meters":24800,"station_id":"ce4bhbh2rcd13ifvqepg","pricing_plan_id":"free"},{"bike_id":"b9b6835d-59c9-4885-b0bb-13922aaef52c","system_id":"levelo_inurba_marseille","lat":43.28276,"lon":5.35084,"is_reserved":false,"is_disabled":false,"rental_uris":{"android":"levelo://app?vid=b9b6835d-59c9-4885-b0bb-13922aaef52c","ios":"levelo://app?vid=b9b6835d-59c9-4885-b0bb-13922aaef52c"},"vehicle_type_id":"4","last_reported":1702724726,"current_range_meters":28400,"station_id":"ce4bhbp2rcd13ifvqerg","pricing_plan_id":"free"},{"bike_id":"0175e33d-d332-421b-a0b2-b36020598071","system_id":"levelo_inurba_marseille","lat":43.28269,"lon":5.3507,"is_reserved":false,"is_disabled":false,"rental_uris":{"android":"levelo://app?vid=0175e33d-d332-421b-a0b2-b36020598071","ios":"levelo://app?vid=0175e33d-d332-421b-a0b2-b36020598071"},"vehicle_type_id":"4","last_reported":1702724726,"current_range_meters":24800,"station_id":"ce4bhbp2rcd13ifvqerg","pricing_plan_id":"free"},{"bike_id":"607cb01b-18f8-4491-9206-2d0ee58e7bb9","system_id":"levelo_inurba_marseille","lat":43.285742,"lon":5.395004,"is_reserved":false,"is_disabled":false,"rental_uris":{"android":"levelo://app?vid=607cb01b-18f8-4491-9206-2d0ee58e7bb9","ios":"levelo://app?vid=607cb01b-18f8-4491-9206-2d0ee58e7bb9"},"vehicle_type_id":"4","last_reported":1702724726,"current_range_meters":18800,"station_id":"ce4bh292rcd13ifvqdg0","pricing_plan_id":"free"},{"bike_id":"8f8c4440-17fd-4a97-8502-4e8b4354b11e","system_id":"levelo_inurba_marseille","lat":43.304188,"lon":5.412904,"is_reserved":false,"is_disabled":false,"rental_uris":{"android":"levelo://app?vid=8f8c4440-17fd-4a97-8502-4e8b4354b11e","ios":"levelo://app?vid=8f8c4440-17fd-4a97-8502-4e8b4354b11e"},"vehicle_type_id":"4","last_reported":1702724726,"current_range_meters":17200,"station_id":"ce4bhop2rcd13ifvqh8g","pricing_plan_id":"free"},{"bike_id":"4b4681e8-5ae5-40ac-b6b6-d29c248b4938","system_id":"levelo_inurba_marseille","lat":43.304188,"lon":5.412904,"is_reserved":false,"is_disabled":false,"rental_uris":{"android":"levelo://app?vid=4b4681e8-5ae5-40ac-b6b6-d29c248b4938","ios":"levelo://app?vid=4b4681e8-5ae5-40ac-b6b6-d29c248b4938"},"vehicle_type_id":"4","last_reported":1702724726,"current_range_meters":25200,"station_id":"ce4bhop2rcd13ifvqh8g","pricing_plan_id":"free"},{"bike_id":"39e1f3b9-6491-4f6d-b448-50f375a06476","system_id":"levelo_inurba_marseille","lat":43.320045,"lon":5.415046,"is_reserved":false,"is_disabled":false,"rental_uris":{"android":"levelo://app?vid=39e1f3b9-6491-4f6d-b448-50f375a06476","ios":"levelo://app?vid=39e1f3b9-6491-4f6d-b448-50f375a06476"},"vehicle_type_id":"4","last_reported":1702724726,"current_range_meters":28000,"station_id":"ce4bhq92rcd13ifvqhkg","pricing_plan_id":"free"},{"bike_id":"b9aa727e-2726-4b7e-8032-3d5034ee6ab9","system_id":"levelo_inurba_marseille","lat":43.279742,"lon":5.38744,"is_reserved":false,"is_disabled":false,"rental_uris":{"android":"levelo://app?vid=b9aa727e-2726-4b7e-8032-3d5034ee6ab9","ios":"levelo://app?vid=b9aa727e-2726-4b7e-8032-3d5034ee6ab9"},"vehicle_type_id":"4","last_reported":1702724726,"current_range_meters":30800,"station_id":"ce4bhg12rcd13ifvqf80","pricing_plan_id":"free"},{"bike_id":"f7f2f554-d95f-42bd-86ab-54bc8fdb416f","system_id":"levelo_inurba_marseille","lat":43.320045,"lon":5.415048,"is_reserved":false,"is_disabled":false,"rental_uris":{"android":"levelo://app?vid=f7f2f554-d95f-42bd-86ab-54bc8fdb416f","ios":"levelo://app?vid=f7f2f554-d95f-42bd-86ab-54bc8fdb416f"},"vehicle_type_id":"4","last_reported":1702724726,"current_range_meters":20800,"station_id":"ce4bhq92rcd13ifvqhkg","pricing_plan_id":"free"},{"bike_id":"77003e33-0070-4d21-bc8b-d304fc4f0ad4","system_id":"levelo_inurba_marseille","lat":43.320045,"lon":5.415048,"is_reserved":false,"is_disabled":false,"rental_uris":{"android":"levelo://app?vid=77003e33-0070-4d21-bc8b-d304fc4f0ad4","ios":"levelo://app?vid=77003e33-0070-4d21-bc8b-d304fc4f0ad4"},"vehicle_type_id":"4","last_reported":1702724726,"current_range_meters":26400,"station_id":"ce4bhq92rcd13ifvqhkg","pricing_plan_id":"free"},{"bike_id":"0b2a9383-dcd4-4eca-9ffc-a3f689a543d9","system_id":"levelo_inurba_marseille","lat":43.292569,"lon":5.409107,"is_reserved":false,"is_disabled":false,"rental_uris":{"android":"levelo://app?vid=0b2a9383-dcd4-4eca-9ffc-a3f689a543d9","ios":"levelo://app?vid=0b2a9383-dcd4-4eca-9ffc-a3f689a543d9"},"vehicle_type_id":"4","last_reported":1702724726,"current_range_meters":20400,"station_id":"ce4bh192rcd13ifvqdc0","pricing_plan_id":"free"},{"bike_id":"d58928f5-bde0-4a5e-bded-d2e03f664ff4","system_id":"levelo_inurba_marseille","lat":43.292571,"lon":5.409107,"is_reserved":false,"is_disabled":false,"rental_uris":{"android":"levelo://app?vid=d58928f5-bde0-4a5e-bded-d2e03f664ff4","ios":"levelo://app?vid=d58928f5-bde0-4a5e-bded-d2e03f664ff4"},"vehicle_type_id":"4","last_reported":1702724726,"current_range_meters":23600,"station_id":"ce4bh192rcd13ifvqdc0","pricing_plan_id":"free"},{"bike_id":"3c5660ad-8898-44bd-8822-39fd04adf05f","system_id":"levelo_inurba_marseille","lat":43.276157,"lon":5.361113,"is_reserved":false,"is_disabled":false,"rental_uris":{"android":"levelo://app?vid=3c5660ad-8898-44bd-8822-39fd04adf05f","ios":"levelo://app?vid=3c5660ad-8898-44bd-8822-39fd04adf05f"},"vehicle_type_id":"4","last_reported":1702724726,"current_range_meters":16400,"station_id":"ce4bgj92rcd13ifvqbe0","pricing_plan_id":"free"},{"bike_id":"dbf313d9-6f87-4ed7-8ef5-14d958314e1b","system_id":"levelo_inurba_marseille","lat":43.303837,"lon":5.418724,"is_reserved":false,"is_disabled":false,"rental_uris":{"android":"levelo://app?vid=dbf313d9-6f87-4ed7-8ef5-14d958314e1b","ios":"levelo://app?vid=dbf313d9-6f87-4ed7-8ef5-14d958314e1b"},"vehicle_type_id":"4","last_reported":1702724726,"current_range_meters":16800,"station_id":"ce4bhop2rcd13ifvqh7g","pricing_plan_id":"free"},{"bike_id":"40ba33b1-538c-4a2a-94b2-466c547cee8b","system_id":"levelo_inurba_marseille","lat":43.273613,"lon":5.362705,"is_reserved":false,"is_disabled":false,"rental_uris":{"android":"levelo://app?vid=40ba33b1-538c-4a2a-94b2-466c547cee8b","ios":"levelo://app?vid=40ba33b1-538c-4a2a-94b2-466c547cee8b"},"vehicle_type_id":"4","last_reported":1702724726,"current_range_meters":21200,"station_id":"ce4bhbh2rcd13ifvqeo0","pricing_plan_id":"free"},{"bike_id":"d1da6bd5-be69-4613-838d-0ad1c1fbf98a","system_id":"levelo_inurba_marseille","lat":43.273613,"lon":5.362705,"is_reserved":false,"is_disabled":false,"rental_uris":{"android":"levelo://app?vid=d1da6bd5-be69-4613-838d-0ad1c1fbf98a","ios":"levelo://app?vid=d1da6bd5-be69-4613-838d-0ad1c1fbf98a"},"vehicle_type_id":"4","last_reported":1702724726,"current_range_meters":16800,"station_id":"ce4bhbh2rcd13ifvqeo0","pricing_plan_id":"free"},{"bike_id":"8d386c45-1c6a-4c60-be25-d4023b6d51a8","system_id":"levelo_inurba_marseille","lat":43.276769,"lon":5.388787,"is_reserved":false,"is_disabled":false,"rental_uris":{"android":"levelo://app?vid=8d386c45-1c6a-4c60-be25-d4023b6d51a8","ios":"levelo://app?vid=8d386c45-1c6a-4c60-be25-d4023b6d51a8"},"vehicle_type_id":"4","last_reported":1702724726,"current_range_meters":29600,"station_id":"ce4bhi12rcd13ifvqfo0","pricing_plan_id":"free"},{"bike_id":"6bcec2d8-e9ce-47ad-b5e0-502d84455af6","system_id":"levelo_inurba_marseille","lat":43.279952,"lon":5.400085,"is_reserved":false,"is_disabled":false,"rental_uris":{"android":"levelo://app?vid=6bcec2d8-e9ce-47ad-b5e0-502d84455af6","ios":"levelo://app?vid=6bcec2d8-e9ce-47ad-b5e0-502d84455af6"},"vehicle_type_id":"4","last_reported":1702724726,"current_range_meters":28800,"station_id":"ce4bho92rcd13ifvqh4g","pricing_plan_id":"free"},{"bike_id":"3fe187c6-275d-4ba8-aef1-b2889c29db4d","system_id":"levelo_inurba_marseille","lat":43.279952,"lon":5.400085,"is_reserved":false,"is_disabled":false,"rental_uris":{"android":"levelo://app?vid=3fe187c6-275d-4ba8-aef1-b2889c29db4d","ios":"levelo://app?vid=3fe187c6-275d-4ba8-aef1-b2889c29db4d"},"vehicle_type_id":"4","last_reported":1702724726,"current_range_meters":30800,"station_id":"ce4bho92rcd13ifvqh4g","pricing_plan_id":"free"},{"bike_id":"10eadedf-b2e9-4bb9-a1f0-77df69175439","system_id":"levelo_inurba_marseille","lat":43.28432,"lon":5.408462,"is_reserved":false,"is_disabled":false,"rental_uris":{"android":"levelo://app?vid=10eadedf-b2e9-4bb9-a1f0-77df69175439","ios":"levelo://app?vid=10eadedf-b2e9-4bb9-a1f0-77df69175439"},"vehicle_type_id":"4","last_reported":1702724726,"current_range_meters":12400,"station_id":"","pricing_plan_id":"free"},{"bike_id":"e7f3199b-16c7-4ec8-844a-fb3b2f233e43","system_id":"levelo_inurba_marseille","lat":43.317121,"lon":5.423936,"is_reserved":false,"is_disabled":false,"rental_uris":{"android":"levelo://app?vid=e7f3199b-16c7-4ec8-844a-fb3b2f233e43","ios":"levelo://app?vid=e7f3199b-16c7-4ec8-844a-fb3b2f233e43"},"vehicle_type_id":"4","last_reported":1702724726,"current_range_meters":31600,"station_id":"ce4bhp92rcd13ifvqhbg","pricing_plan_id":"free"},{"bike_id":"13b63d08-aaa3-4985-bf57-1f32727c58d1","system_id":"levelo_inurba_marseille","lat":43.310785,"lon":5.424305,"is_reserved":false,"is_disabled":false,"rental_uris":{"android":"levelo://app?vid=13b63d08-aaa3-4985-bf57-1f32727c58d1","ios":"levelo://app?vid=13b63d08-aaa3-4985-bf57-1f32727c58d1"},"vehicle_type_id":"4","last_reported":1702724726,"current_range_meters":30400,"station_id":"ce4bhp92rcd13ifvqhag","pricing_plan_id":"free"},{"bike_id":"93a9a0b0-f09a-4679-973e-f3ebca0caf36","system_id":"levelo_inurba_marseille","lat":43.310785,"lon":5.424305,"is_reserved":false,"is_disabled":false,"rental_uris":{"android":"levelo://app?vid=93a9a0b0-f09a-4679-973e-f3ebca0caf36","ios":"levelo://app?vid=93a9a0b0-f09a-4679-973e-f3ebca0caf36"},"vehicle_type_id":"4","last_reported":1702724726,"current_range_meters":31600,"station_id":"ce4bhp92rcd13ifvqhag","pricing_plan_id":"free"},{"bike_id":"88d21734-a1ec-434c-836c-b0fde0b8c8e9","system_id":"levelo_inurba_marseille","lat":43.310785,"lon":5.424305,"is_reserved":false,"is_disabled":false,"rental_uris":{"android":"levelo://app?vid=88d21734-a1ec-434c-836c-b0fde0b8c8e9","ios":"levelo://app?vid=88d21734-a1ec-434c-836c-b0fde0b8c8e9"},"vehicle_type_id":"4","last_reported":1702724726,"current_range_meters":30800,"station_id":"ce4bhp92rcd13ifvqhag","pricing_plan_id":"free"},{"bike_id":"cdc69067-dad5-415d-b4f3-0a438e350196","system_id":"levelo_inurba_marseille","lat":43.317121,"lon":5.423936,"is_reserved":false,"is_disabled":false,"rental_uris":{"android":"levelo://app?vid=cdc69067-dad5-415d-b4f3-0a438e350196","ios":"levelo://app?vid=cdc69067-dad5-415d-b4f3-0a438e350196"},"vehicle_type_id":"4","last_reported":1702724726,"current_range_meters":26800,"station_id":"ce4bhp92rcd13ifvqhbg","pricing_plan_id":"free"},{"bike_id":"7b7bfaee-0e53-4459-bbde-886e6805f2a5","system_id":"levelo_inurba_marseille","lat":43.317121,"lon":5.423936,"is_reserved":false,"is_disabled":false,"rental_uris":{"android":"levelo://app?vid=7b7bfaee-0e53-4459-bbde-886e6805f2a5","ios":"levelo://app?vid=7b7bfaee-0e53-4459-bbde-886e6805f2a5"},"vehicle_type_id":"4","last_reported":1702724726,"current_range_meters":31600,"station_id":"ce4bhp92rcd13ifvqhbg","pricing_plan_id":"free"},{"bike_id":"882bb515-0ba4-4c21-83bc-3aa9401cde34","system_id":"levelo_inurba_marseille","lat":43.310785,"lon":5.424305,"is_reserved":false,"is_disabled":false,"rental_uris":{"android":"levelo://app?vid=882bb515-0ba4-4c21-83bc-3aa9401cde34","ios":"levelo://app?vid=882bb515-0ba4-4c21-83bc-3aa9401cde34"},"vehicle_type_id":"4","last_reported":1702724726,"current_range_meters":27200,"station_id":"ce4bhp92rcd13ifvqhag","pricing_plan_id":"free"},{"bike_id":"3ca2c2d2-99b0-4aa6-a05d-e30f02e6a7fb","system_id":"levelo_inurba_marseille","lat":43.276092,"lon":5.395289,"is_reserved":false,"is_disabled":false,"rental_uris":{"android":"levelo://app?vid=3ca2c2d2-99b0-4aa6-a05d-e30f02e6a7fb","ios":"levelo://app?vid=3ca2c2d2-99b0-4aa6-a05d-e30f02e6a7fb"},"vehicle_type_id":"4","last_reported":1702724726,"current_range_meters":22800,"station_id":"","pricing_plan_id":"free"},{"bike_id":"78a5a748-f326-4bba-a9c9-102f5a76f425","system_id":"levelo_inurba_marseille","lat":43.239588,"lon":5.366238,"is_reserved":false,"is_disabled":false,"rental_uris":{"android":"levelo://app?vid=78a5a748-f326-4bba-a9c9-102f5a76f425","ios":"levelo://app?vid=78a5a748-f326-4bba-a9c9-102f5a76f425"},"vehicle_type_id":"4","last_reported":1702724726,"current_range_meters":16400,"station_id":"ce4bhi12rcd13ifvqfp0","pricing_plan_id":"free"},{"bike_id":"b1f43ff3-1f30-4c7c-831a-b12fda09e799","system_id":"levelo_inurba_marseille","lat":43.273129,"lon":5.390725,"is_reserved":false,"is_disabled":false,"rental_uris":{"android":"levelo://app?vid=b1f43ff3-1f30-4c7c-831a-b12fda09e799","ios":"levelo://app?vid=b1f43ff3-1f30-4c7c-831a-b12fda09e799"},"vehicle_type_id":"4","last_reported":1702724726,"current_range_meters":22800,"station_id":"ce4bhgp2rcd13ifvqfe0","pricing_plan_id":"free"},{"bike_id":"99bcb4da-9698-4512-a158-470244d69d6c","system_id":"levelo_inurba_marseille","lat":43.30414,"lon":5.42536,"is_reserved":false,"is_disabled":false,"rental_uris":{"android":"levelo://app?vid=99bcb4da-9698-4512-a158-470244d69d6c","ios":"levelo://app?vid=99bcb4da-9698-4512-a158-470244d69d6c"},"vehicle_type_id":"4","last_reported":1702724726,"current_range_meters":28800,"station_id":"ce4bhoh2rcd13ifvqh6g","pricing_plan_id":"free"},{"bike_id":"549600fb-47b9-4312-8242-de53dbdf980c","system_id":"levelo_inurba_marseille","lat":43.30417,"lon":5.42539,"is_reserved":false,"is_disabled":false,"rental_uris":{"android":"levelo://app?vid=549600fb-47b9-4312-8242-de53dbdf980c","ios":"levelo://app?vid=549600fb-47b9-4312-8242-de53dbdf980c"},"vehicle_type_id":"4","last_reported":1702724726,"current_range_meters":6800,"station_id":"ce4bhoh2rcd13ifvqh6g","pricing_plan_id":"free"},{"bike_id":"127120c9-2a95-4892-91e0-d0f0a2b77fe5","system_id":"levelo_inurba_marseille","lat":43.30411,"lon":5.42541,"is_reserved":false,"is_disabled":false,"rental_uris":{"android":"levelo://app?vid=127120c9-2a95-4892-91e0-d0f0a2b77fe5","ios":"levelo://app?vid=127120c9-2a95-4892-91e0-d0f0a2b77fe5"},"vehicle_type_id":"4","last_reported":1702724726,"current_range_meters":27200,"station_id":"ce4bhoh2rcd13ifvqh6g","pricing_plan_id":"free"},{"bike_id":"9fa6895d-0e68-493e-b1fb-bfed75b1d89e","system_id":"levelo_inurba_marseille","lat":43.304088,"lon":5.425388,"is_reserved":false,"is_disabled":false,"rental_uris":{"android":"levelo://app?vid=9fa6895d-0e68-493e-b1fb-bfed75b1d89e","ios":"levelo://app?vid=9fa6895d-0e68-493e-b1fb-bfed75b1d89e"},"vehicle_type_id":"4","last_reported":1702724726,"current_range_meters":14000,"station_id":"ce4bhoh2rcd13ifvqh6g","pricing_plan_id":"free"},{"bike_id":"54598bfe-b463-404d-b0a9-319a9ffed791","system_id":"levelo_inurba_marseille","lat":43.295511,"lon":5.422926,"is_reserved":false,"is_disabled":false,"rental_uris":{"android":"levelo://app?vid=54598bfe-b463-404d-b0a9-319a9ffed791","ios":"levelo://app?vid=54598bfe-b463-404d-b0a9-319a9ffed791"},"vehicle_type_id":"4","last_reported":1702724726,"current_range_meters":10400,"station_id":"ce4bhph2rcd13ifvqhdg","pricing_plan_id":"free"},{"bike_id":"ada57737-7a79-44c0-8f3e-ecbad75f6298","system_id":"levelo_inurba_marseille","lat":43.272124,"lon":5.391768,"is_reserved":false,"is_disabled":false,"rental_uris":{"android":"levelo://app?vid=ada57737-7a79-44c0-8f3e-ecbad75f6298","ios":"levelo://app?vid=ada57737-7a79-44c0-8f3e-ecbad75f6298"},"vehicle_type_id":"4","last_reported":1702724726,"current_range_meters":31600,"station_id":"ce4bhhp2rcd13ifvqfm0","pricing_plan_id":"free"},{"bike_id":"1bf6ab99-d9aa-4d42-b630-8b2444ef4514","system_id":"levelo_inurba_marseille","lat":43.272116,"lon":5.391763,"is_reserved":false,"is_disabled":false,"rental_uris":{"android":"levelo://app?vid=1bf6ab99-d9aa-4d42-b630-8b2444ef4514","ios":"levelo://app?vid=1bf6ab99-d9aa-4d42-b630-8b2444ef4514"},"vehicle_type_id":"4","last_reported":1702724726,"current_range_meters":31600,"station_id":"ce4bhhp2rcd13ifvqfm0","pricing_plan_id":"free"},{"bike_id":"3099d043-f546-4f22-90eb-19cb7a9ca516","system_id":"levelo_inurba_marseille","lat":43.272116,"lon":5.391747,"is_reserved":false,"is_disabled":false,"rental_uris":{"android":"levelo://app?vid=3099d043-f546-4f22-90eb-19cb7a9ca516","ios":"levelo://app?vid=3099d043-f546-4f22-90eb-19cb7a9ca516"},"vehicle_type_id":"4","last_reported":1702724726,"current_range_meters":5600,"station_id":"ce4bhhp2rcd13ifvqfm0","pricing_plan_id":"free"},{"bike_id":"087230b3-ae12-46fc-8650-d840a066a359","system_id":"levelo_inurba_marseille","lat":43.272124,"lon":5.391768,"is_reserved":false,"is_disabled":false,"rental_uris":{"android":"levelo://app?vid=087230b3-ae12-46fc-8650-d840a066a359","ios":"levelo://app?vid=087230b3-ae12-46fc-8650-d840a066a359"},"vehicle_type_id":"4","last_reported":1702724726,"current_range_meters":31600,"station_id":"ce4bhhp2rcd13ifvqfm0","pricing_plan_id":"free"},{"bike_id":"5aac2092-3d50-4ba7-b8bf-9cc405ea7264","system_id":"levelo_inurba_marseille","lat":43.272118,"lon":5.391758,"is_reserved":false,"is_disabled":false,"rental_uris":{"android":"levelo://app?vid=5aac2092-3d50-4ba7-b8bf-9cc405ea7264","ios":"levelo://app?vid=5aac2092-3d50-4ba7-b8bf-9cc405ea7264"},"vehicle_type_id":"4","last_reported":1702724726,"current_range_meters":26800,"station_id":"ce4bhhp2rcd13ifvqfm0","pricing_plan_id":"free"},{"bike_id":"673e4143-2791-4d60-af90-41dd459eca86","system_id":"levelo_inurba_marseille","lat":43.272116,"lon":5.391763,"is_reserved":false,"is_disabled":false,"rental_uris":{"android":"levelo://app?vid=673e4143-2791-4d60-af90-41dd459eca86","ios":"levelo://app?vid=673e4143-2791-4d60-af90-41dd459eca86"},"vehicle_type_id":"4","last_reported":1702724726,"current_range_meters":31600,"station_id":"ce4bhhp2rcd13ifvqfm0","pricing_plan_id":"free"},{"bike_id":"7c5e5a9a-9f39-4a14-9573-d5b8ab599dd5","system_id":"levelo_inurba_marseille","lat":43.27191,"lon":5.39229,"is_reserved":false,"is_disabled":false,"rental_uris":{"android":"levelo://app?vid=7c5e5a9a-9f39-4a14-9573-d5b8ab599dd5","ios":"levelo://app?vid=7c5e5a9a-9f39-4a14-9573-d5b8ab599dd5"},"vehicle_type_id":"4","last_reported":1702724726,"current_range_meters":19200,"station_id":"ce4bhhp2rcd13ifvqfm0","pricing_plan_id":"free"},{"bike_id":"90df94ec-1b48-4173-9fb9-53fa1026f190","system_id":"levelo_inurba_marseille","lat":43.279465,"lon":5.410561,"is_reserved":false,"is_disabled":false,"rental_uris":{"android":"levelo://app?vid=90df94ec-1b48-4173-9fb9-53fa1026f190","ios":"levelo://app?vid=90df94ec-1b48-4173-9fb9-53fa1026f190"},"vehicle_type_id":"4","last_reported":1702724726,"current_range_meters":22800,"station_id":"ce4bhnp2rcd13ifvqh0g","pricing_plan_id":"free"},{"bike_id":"e6690589-26ad-400c-972b-d5b119e97096","system_id":"levelo_inurba_marseille","lat":43.279465,"lon":5.410561,"is_reserved":false,"is_disabled":false,"rental_uris":{"android":"levelo://app?vid=e6690589-26ad-400c-972b-d5b119e97096","ios":"levelo://app?vid=e6690589-26ad-400c-972b-d5b119e97096"},"vehicle_type_id":"4","last_reported":1702724726,"current_range_meters":9600,"station_id":"ce4bhnp2rcd13ifvqh0g","pricing_plan_id":"free"},{"bike_id":"33bb6f10-589f-41c2-88fe-3952b6871dac","system_id":"levelo_inurba_marseille","lat":43.27943,"lon":5.41047,"is_reserved":false,"is_disabled":false,"rental_uris":{"android":"levelo://app?vid=33bb6f10-589f-41c2-88fe-3952b6871dac","ios":"levelo://app?vid=33bb6f10-589f-41c2-88fe-3952b6871dac"},"vehicle_type_id":"4","last_reported":1702724726,"current_range_meters":24000,"station_id":"ce4bhnp2rcd13ifvqh0g","pricing_plan_id":"free"},{"bike_id":"d8f77d3c-a051-4334-ad19-3f8a78e4e097","system_id":"levelo_inurba_marseille","lat":43.27946,"lon":5.410527,"is_reserved":false,"is_disabled":false,"rental_uris":{"android":"levelo://app?vid=d8f77d3c-a051-4334-ad19-3f8a78e4e097","ios":"levelo://app?vid=d8f77d3c-a051-4334-ad19-3f8a78e4e097"},"vehicle_type_id":"4","last_reported":1702724726,"current_range_meters":22800,"station_id":"ce4bhnp2rcd13ifvqh0g","pricing_plan_id":"free"},{"bike_id":"f7c958b1-1dbb-49e9-99c8-b321cb49dde9","system_id":"levelo_inurba_marseille","lat":43.269319,"lon":5.389397,"is_reserved":false,"is_disabled":false,"rental_uris":{"android":"levelo://app?vid=f7c958b1-1dbb-49e9-99c8-b321cb49dde9","ios":"levelo://app?vid=f7c958b1-1dbb-49e9-99c8-b321cb49dde9"},"vehicle_type_id":"4","last_reported":1702724726,"current_range_meters":21200,"station_id":"ce4bhhh2rcd13ifvqfl0","pricing_plan_id":"free"},{"bike_id":"10fa6778-3c32-4fd3-bf6a-cdb281e62c59","system_id":"levelo_inurba_marseille","lat":43.269319,"lon":5.389397,"is_reserved":false,"is_disabled":false,"rental_uris":{"android":"levelo://app?vid=10fa6778-3c32-4fd3-bf6a-cdb281e62c59","ios":"levelo://app?vid=10fa6778-3c32-4fd3-bf6a-cdb281e62c59"},"vehicle_type_id":"4","last_reported":1702724726,"current_range_meters":18400,"station_id":"ce4bhhh2rcd13ifvqfl0","pricing_plan_id":"free"},{"bike_id":"b4d8e382-96f0-40e1-a921-d369744c4141","system_id":"levelo_inurba_marseille","lat":43.269319,"lon":5.389397,"is_reserved":false,"is_disabled":false,"rental_uris":{"android":"levelo://app?vid=b4d8e382-96f0-40e1-a921-d369744c4141","ios":"levelo://app?vid=b4d8e382-96f0-40e1-a921-d369744c4141"},"vehicle_type_id":"4","last_reported":1702724726,"current_range_meters":29600,"station_id":"ce4bhhh2rcd13ifvqfl0","pricing_plan_id":"free"},{"bike_id":"9359160e-e5b0-40d0-9883-6e22f8c2f14f","system_id":"levelo_inurba_marseille","lat":43.269319,"lon":5.389397,"is_reserved":false,"is_disabled":false,"rental_uris":{"android":"levelo://app?vid=9359160e-e5b0-40d0-9883-6e22f8c2f14f","ios":"levelo://app?vid=9359160e-e5b0-40d0-9883-6e22f8c2f14f"},"vehicle_type_id":"4","last_reported":1702724726,"current_range_meters":20800,"station_id":"ce4bhhh2rcd13ifvqfl0","pricing_plan_id":"free"},{"bike_id":"db774753-4382-453e-a138-c32d538f9839","system_id":"levelo_inurba_marseille","lat":43.358659,"lon":5.356738,"is_reserved":false,"is_disabled":false,"rental_uris":{"android":"levelo://app?vid=db774753-4382-453e-a138-c32d538f9839","ios":"levelo://app?vid=db774753-4382-453e-a138-c32d538f9839"},"vehicle_type_id":"4","last_reported":1702724726,"current_range_meters":10400,"station_id":"","pricing_plan_id":"free"},{"bike_id":"0f678052-28f9-4691-8141-d53e0432b029","system_id":"levelo_inurba_marseille","lat":43.26681,"lon":5.382694,"is_reserved":false,"is_disabled":false,"rental_uris":{"android":"levelo://app?vid=0f678052-28f9-4691-8141-d53e0432b029","ios":"levelo://app?vid=0f678052-28f9-4691-8141-d53e0432b029"},"vehicle_type_id":"4","last_reported":1702724726,"current_range_meters":26400,"station_id":"ce4bhg92rcd13ifvqf90","pricing_plan_id":"free"},{"bike_id":"606a0fa5-3f6e-40c3-93cb-11997652773a","system_id":"levelo_inurba_marseille","lat":43.27996,"lon":5.416624,"is_reserved":false,"is_disabled":false,"rental_uris":{"android":"levelo://app?vid=606a0fa5-3f6e-40c3-93cb-11997652773a","ios":"levelo://app?vid=606a0fa5-3f6e-40c3-93cb-11997652773a"},"vehicle_type_id":"4","last_reported":1702724726,"current_range_meters":19600,"station_id":"ce4bho12rcd13ifvqh1g","pricing_plan_id":"free"},{"bike_id":"7f0576a9-65b1-4b22-915b-2f4d4f2b1f34","system_id":"levelo_inurba_marseille","lat":43.27996,"lon":5.416624,"is_reserved":false,"is_disabled":false,"rental_uris":{"android":"levelo://app?vid=7f0576a9-65b1-4b22-915b-2f4d4f2b1f34","ios":"levelo://app?vid=7f0576a9-65b1-4b22-915b-2f4d4f2b1f34"},"vehicle_type_id":"4","last_reported":1702724726,"current_range_meters":6400,"station_id":"ce4bho12rcd13ifvqh1g","pricing_plan_id":"free"},{"bike_id":"775be494-ecc1-4b5a-a882-3979f4a0ffdd","system_id":"levelo_inurba_marseille","lat":43.27996,"lon":5.416624,"is_reserved":false,"is_disabled":false,"rental_uris":{"android":"levelo://app?vid=775be494-ecc1-4b5a-a882-3979f4a0ffdd","ios":"levelo://app?vid=775be494-ecc1-4b5a-a882-3979f4a0ffdd"},"vehicle_type_id":"4","last_reported":1702724726,"current_range_meters":17200,"station_id":"ce4bho12rcd13ifvqh1g","pricing_plan_id":"free"},{"bike_id":"f9e63a65-a4b8-444f-9007-eff8dba3eec9","system_id":"levelo_inurba_marseille","lat":43.27996,"lon":5.416624,"is_reserved":false,"is_disabled":false,"rental_uris":{"android":"levelo://app?vid=f9e63a65-a4b8-444f-9007-eff8dba3eec9","ios":"levelo://app?vid=f9e63a65-a4b8-444f-9007-eff8dba3eec9"},"vehicle_type_id":"4","last_reported":1702724726,"current_range_meters":30000,"station_id":"ce4bho12rcd13ifvqh1g","pricing_plan_id":"free"},{"bike_id":"074c17f3-0616-4077-94a9-ab7186246daa","system_id":"levelo_inurba_marseille","lat":43.267966,"lon":5.393976,"is_reserved":false,"is_disabled":false,"rental_uris":{"android":"levelo://app?vid=074c17f3-0616-4077-94a9-ab7186246daa","ios":"levelo://app?vid=074c17f3-0616-4077-94a9-ab7186246daa"},"vehicle_type_id":"4","last_reported":1702724726,"current_range_meters":24400,"station_id":"ce4bhh12rcd13ifvqfg0","pricing_plan_id":"free"},{"bike_id":"7b3acfec-7269-4a55-abfa-7819202d73ef","system_id":"levelo_inurba_marseille","lat":43.308051,"lon":5.43527,"is_reserved":false,"is_disabled":false,"rental_uris":{"android":"levelo://app?vid=7b3acfec-7269-4a55-abfa-7819202d73ef","ios":"levelo://app?vid=7b3acfec-7269-4a55-abfa-7819202d73ef"},"vehicle_type_id":"4","last_reported":1702724726,"current_range_meters":28800,"station_id":"ce4bhph2rcd13ifvqheg","pricing_plan_id":"free"},{"bike_id":"6c0fd0bc-f584-4c31-832c-fcbcbbc18ea4","system_id":"levelo_inurba_marseille","lat":43.265569,"lon":5.390047,"is_reserved":false,"is_disabled":false,"rental_uris":{"android":"levelo://app?vid=6c0fd0bc-f584-4c31-832c-fcbcbbc18ea4","ios":"levelo://app?vid=6c0fd0bc-f584-4c31-832c-fcbcbbc18ea4"},"vehicle_type_id":"4","last_reported":1702724726,"current_range_meters":17600,"station_id":"ce4bhe12rcd13ifvqf30","pricing_plan_id":"free"},{"bike_id":"762f3283-1c31-4ebc-ba0b-4061bbd29cc7","system_id":"levelo_inurba_marseille","lat":43.26565,"lon":5.389984,"is_reserved":false,"is_disabled":false,"rental_uris":{"android":"levelo://app?vid=762f3283-1c31-4ebc-ba0b-4061bbd29cc7","ios":"levelo://app?vid=762f3283-1c31-4ebc-ba0b-4061bbd29cc7"},"vehicle_type_id":"4","last_reported":1702724726,"current_range_meters":29200,"station_id":"ce4bhe12rcd13ifvqf30","pricing_plan_id":"free"},{"bike_id":"747f2f3f-ade7-4ff0-9e2d-4ae6380ac6f8","system_id":"levelo_inurba_marseille","lat":43.265571,"lon":5.390032,"is_reserved":false,"is_disabled":false,"rental_uris":{"android":"levelo://app?vid=747f2f3f-ade7-4ff0-9e2d-4ae6380ac6f8","ios":"levelo://app?vid=747f2f3f-ade7-4ff0-9e2d-4ae6380ac6f8"},"vehicle_type_id":"4","last_reported":1702724726,"current_range_meters":23600,"station_id":"ce4bhe12rcd13ifvqf30","pricing_plan_id":"free"},{"bike_id":"03e8eb3b-933a-4396-b6b4-928a61b3e083","system_id":"levelo_inurba_marseille","lat":43.2656,"lon":5.39,"is_reserved":false,"is_disabled":false,"rental_uris":{"android":"levelo://app?vid=03e8eb3b-933a-4396-b6b4-928a61b3e083","ios":"levelo://app?vid=03e8eb3b-933a-4396-b6b4-928a61b3e083"},"vehicle_type_id":"4","last_reported":1702724726,"current_range_meters":0,"station_id":"ce4bhe12rcd13ifvqf30","pricing_plan_id":"free"},{"bike_id":"1f2790e2-627c-449a-83df-898bc053d6da","system_id":"levelo_inurba_marseille","lat":43.265571,"lon":5.390032,"is_reserved":false,"is_disabled":false,"rental_uris":{"android":"levelo://app?vid=1f2790e2-627c-449a-83df-898bc053d6da","ios":"levelo://app?vid=1f2790e2-627c-449a-83df-898bc053d6da"},"vehicle_type_id":"4","last_reported":1702724726,"current_range_meters":18000,"station_id":"ce4bhe12rcd13ifvqf30","pricing_plan_id":"free"},{"bike_id":"f098ff0a-06e1-4e8e-9afa-9d9beaa22c72","system_id":"levelo_inurba_marseille","lat":43.265571,"lon":5.390032,"is_reserved":false,"is_disabled":false,"rental_uris":{"android":"levelo://app?vid=f098ff0a-06e1-4e8e-9afa-9d9beaa22c72","ios":"levelo://app?vid=f098ff0a-06e1-4e8e-9afa-9d9beaa22c72"},"vehicle_type_id":"4","last_reported":1702724726,"current_range_meters":800,"station_id":"ce4bhe12rcd13ifvqf30","pricing_plan_id":"free"},{"bike_id":"40452ca3-80eb-445f-824b-b9c7b797a725","system_id":"levelo_inurba_marseille","lat":43.261782,"lon":5.374515,"is_reserved":false,"is_disabled":false,"rental_uris":{"android":"levelo://app?vid=40452ca3-80eb-445f-824b-b9c7b797a725","ios":"levelo://app?vid=40452ca3-80eb-445f-824b-b9c7b797a725"},"vehicle_type_id":"4","last_reported":1702724726,"current_range_meters":6000,"station_id":"ce4bhgp2rcd13ifvqfc0","pricing_plan_id":"free"},{"bike_id":"3f89a02b-bdc2-4eb0-bdc8-f06806993e8a","system_id":"levelo_inurba_marseille","lat":43.317104,"lon":5.436818,"is_reserved":false,"is_disabled":false,"rental_uris":{"android":"levelo://app?vid=3f89a02b-bdc2-4eb0-bdc8-f06806993e8a","ios":"levelo://app?vid=3f89a02b-bdc2-4eb0-bdc8-f06806993e8a"},"vehicle_type_id":"4","last_reported":1702724726,"current_range_meters":27600,"station_id":"ce4bhp92rcd13ifvqhcg","pricing_plan_id":"free"},{"bike_id":"9a1f3222-7811-4bbe-92c9-9fca09baba8b","system_id":"levelo_inurba_marseille","lat":43.261782,"lon":5.374515,"is_reserved":false,"is_disabled":false,"rental_uris":{"android":"levelo://app?vid=9a1f3222-7811-4bbe-92c9-9fca09baba8b","ios":"levelo://app?vid=9a1f3222-7811-4bbe-92c9-9fca09baba8b"},"vehicle_type_id":"4","last_reported":1702724726,"current_range_meters":19600,"station_id":"ce4bhgp2rcd13ifvqfc0","pricing_plan_id":"free"},{"bike_id":"924dd0b6-11bb-4688-9962-d909c563de41","system_id":"levelo_inurba_marseille","lat":43.26175,"lon":5.37441,"is_reserved":false,"is_disabled":false,"rental_uris":{"android":"levelo://app?vid=924dd0b6-11bb-4688-9962-d909c563de41","ios":"levelo://app?vid=924dd0b6-11bb-4688-9962-d909c563de41"},"vehicle_type_id":"4","last_reported":1702724726,"current_range_meters":18800,"station_id":"ce4bhgp2rcd13ifvqfc0","pricing_plan_id":"free"},{"bike_id":"5bbbe66c-61cd-4750-945d-eb3c296f9462","system_id":"levelo_inurba_marseille","lat":43.271388,"lon":5.409269,"is_reserved":false,"is_disabled":false,"rental_uris":{"android":"levelo://app?vid=5bbbe66c-61cd-4750-945d-eb3c296f9462","ios":"levelo://app?vid=5bbbe66c-61cd-4750-945d-eb3c296f9462"},"vehicle_type_id":"4","last_reported":1702724726,"current_range_meters":22400,"station_id":"ce4bhl12rcd13ifvqgf0","pricing_plan_id":"free"},{"bike_id":"5b509345-0e36-4fab-b318-5b45c0339424","system_id":"levelo_inurba_marseille","lat":43.271368,"lon":5.40928,"is_reserved":false,"is_disabled":false,"rental_uris":{"android":"levelo://app?vid=5b509345-0e36-4fab-b318-5b45c0339424","ios":"levelo://app?vid=5b509345-0e36-4fab-b318-5b45c0339424"},"vehicle_type_id":"4","last_reported":1702724726,"current_range_meters":26000,"station_id":"ce4bhl12rcd13ifvqgf0","pricing_plan_id":"free"},{"bike_id":"75b73393-4920-495d-b824-a5684a0b544d","system_id":"levelo_inurba_marseille","lat":43.262012,"lon":5.379307,"is_reserved":false,"is_disabled":false,"rental_uris":{"android":"levelo://app?vid=75b73393-4920-495d-b824-a5684a0b544d","ios":"levelo://app?vid=75b73393-4920-495d-b824-a5684a0b544d"},"vehicle_type_id":"4","last_reported":1702724726,"current_range_meters":8800,"station_id":"ce4bhjp2rcd13ifvqg90","pricing_plan_id":"free"},{"bike_id":"66d0fe02-42be-4211-8e44-68e0cd5d815e","system_id":"levelo_inurba_marseille","lat":43.26193,"lon":5.37932,"is_reserved":false,"is_disabled":false,"rental_uris":{"android":"levelo://app?vid=66d0fe02-42be-4211-8e44-68e0cd5d815e","ios":"levelo://app?vid=66d0fe02-42be-4211-8e44-68e0cd5d815e"},"vehicle_type_id":"4","last_reported":1702724726,"current_range_meters":31200,"station_id":"ce4bhjp2rcd13ifvqg90","pricing_plan_id":"free"},{"bike_id":"70e4804b-ff19-4896-8413-e94139d46883","system_id":"levelo_inurba_marseille","lat":43.267959,"lon":5.402687,"is_reserved":false,"is_disabled":false,"rental_uris":{"android":"levelo://app?vid=70e4804b-ff19-4896-8413-e94139d46883","ios":"levelo://app?vid=70e4804b-ff19-4896-8413-e94139d46883"},"vehicle_type_id":"4","last_reported":1702724726,"current_range_meters":13600,"station_id":"ce501612rcd8frsf0b60","pricing_plan_id":"free"},{"bike_id":"6a654ea6-9f8e-4295-9a25-939126b7a917","system_id":"levelo_inurba_marseille","lat":43.26499,"lon":5.39539,"is_reserved":false,"is_disabled":false,"rental_uris":{"android":"levelo://app?vid=6a654ea6-9f8e-4295-9a25-939126b7a917","ios":"levelo://app?vid=6a654ea6-9f8e-4295-9a25-939126b7a917"},"vehicle_type_id":"4","last_reported":1702724726,"current_range_meters":25200,"station_id":"","pricing_plan_id":"free"},{"bike_id":"cc5d76b0-a393-4a4c-baa6-a656fc269eb7","system_id":"levelo_inurba_marseille","lat":43.275028,"lon":5.424534,"is_reserved":false,"is_disabled":false,"rental_uris":{"android":"levelo://app?vid=cc5d76b0-a393-4a4c-baa6-a656fc269eb7","ios":"levelo://app?vid=cc5d76b0-a393-4a4c-baa6-a656fc269eb7"},"vehicle_type_id":"4","last_reported":1702724726,"current_range_meters":31600,"station_id":"ce4bhn92rcd13ifvqgrg","pricing_plan_id":"free"},{"bike_id":"0f46f0e8-3eb4-45df-b3ff-63a01897fadd","system_id":"levelo_inurba_marseille","lat":43.275028,"lon":5.424534,"is_reserved":false,"is_disabled":false,"rental_uris":{"android":"levelo://app?vid=0f46f0e8-3eb4-45df-b3ff-63a01897fadd","ios":"levelo://app?vid=0f46f0e8-3eb4-45df-b3ff-63a01897fadd"},"vehicle_type_id":"4","last_reported":1702724726,"current_range_meters":27600,"station_id":"ce4bhn92rcd13ifvqgrg","pricing_plan_id":"free"},{"bike_id":"b76e4b50-f6f0-431f-a6f8-b141c06663a4","system_id":"levelo_inurba_marseille","lat":43.275028,"lon":5.424534,"is_reserved":false,"is_disabled":false,"rental_uris":{"android":"levelo://app?vid=b76e4b50-f6f0-431f-a6f8-b141c06663a4","ios":"levelo://app?vid=b76e4b50-f6f0-431f-a6f8-b141c06663a4"},"vehicle_type_id":"4","last_reported":1702724726,"current_range_meters":16800,"station_id":"ce4bhn92rcd13ifvqgrg","pricing_plan_id":"free"},{"bike_id":"6123f046-ec38-47cd-bb55-182fb160806d","system_id":"levelo_inurba_marseille","lat":43.261125,"lon":5.402145,"is_reserved":false,"is_disabled":false,"rental_uris":{"android":"levelo://app?vid=6123f046-ec38-47cd-bb55-182fb160806d","ios":"levelo://app?vid=6123f046-ec38-47cd-bb55-182fb160806d"},"vehicle_type_id":"4","last_reported":1702724726,"current_range_meters":22800,"station_id":"ce4bhnp2rcd13ifvqgvg","pricing_plan_id":"free"},{"bike_id":"584c03c6-b4f5-4872-b6f2-cf4a7e8a1860","system_id":"levelo_inurba_marseille","lat":43.255803,"lon":5.382235,"is_reserved":false,"is_disabled":false,"rental_uris":{"android":"levelo://app?vid=584c03c6-b4f5-4872-b6f2-cf4a7e8a1860","ios":"levelo://app?vid=584c03c6-b4f5-4872-b6f2-cf4a7e8a1860"},"vehicle_type_id":"4","last_reported":1702724726,"current_range_meters":14000,"station_id":"","pricing_plan_id":"free"},{"bike_id":"8efe26eb-b024-49a0-92f8-a61f90a7c052","system_id":"levelo_inurba_marseille","lat":43.25581,"lon":5.38231,"is_reserved":false,"is_disabled":false,"rental_uris":{"android":"levelo://app?vid=8efe26eb-b024-49a0-92f8-a61f90a7c052","ios":"levelo://app?vid=8efe26eb-b024-49a0-92f8-a61f90a7c052"},"vehicle_type_id":"4","last_reported":1702724726,"current_range_meters":18400,"station_id":"ce4bhih2rcd13ifvqfs0","pricing_plan_id":"free"},{"bike_id":"d49c822c-39f5-4a5d-be91-a7e3c6be2340","system_id":"levelo_inurba_marseille","lat":43.25577,"lon":5.38235,"is_reserved":false,"is_disabled":false,"rental_uris":{"android":"levelo://app?vid=d49c822c-39f5-4a5d-be91-a7e3c6be2340","ios":"levelo://app?vid=d49c822c-39f5-4a5d-be91-a7e3c6be2340"},"vehicle_type_id":"4","last_reported":1702724726,"current_range_meters":13200,"station_id":"ce4bhih2rcd13ifvqfs0","pricing_plan_id":"free"},{"bike_id":"66befe6a-93a7-4a59-9dec-fca81b3c5dee","system_id":"levelo_inurba_marseille","lat":43.258224,"lon":5.394369,"is_reserved":false,"is_disabled":false,"rental_uris":{"android":"levelo://app?vid=66befe6a-93a7-4a59-9dec-fca81b3c5dee","ios":"levelo://app?vid=66befe6a-93a7-4a59-9dec-fca81b3c5dee"},"vehicle_type_id":"4","last_reported":1702724726,"current_range_meters":16800,"station_id":"ce4bhip2rcd13ifvqft0","pricing_plan_id":"free"},{"bike_id":"921b9cbf-9a25-42aa-8b20-f9a9807b4452","system_id":"levelo_inurba_marseille","lat":43.255725,"lon":5.382398,"is_reserved":false,"is_disabled":false,"rental_uris":{"android":"levelo://app?vid=921b9cbf-9a25-42aa-8b20-f9a9807b4452","ios":"levelo://app?vid=921b9cbf-9a25-42aa-8b20-f9a9807b4452"},"vehicle_type_id":"4","last_reported":1702724726,"current_range_meters":24400,"station_id":"ce4bhih2rcd13ifvqfs0","pricing_plan_id":"free"},{"bike_id":"152f0b5f-2e6b-49d7-9e6c-7e17f0f4350b","system_id":"levelo_inurba_marseille","lat":43.270721,"lon":5.422764,"is_reserved":false,"is_disabled":false,"rental_uris":{"android":"levelo://app?vid=152f0b5f-2e6b-49d7-9e6c-7e17f0f4350b","ios":"levelo://app?vid=152f0b5f-2e6b-49d7-9e6c-7e17f0f4350b"},"vehicle_type_id":"4","last_reported":1702724726,"current_range_meters":18400,"station_id":"ce4bhk92rcd13ifvqgb0","pricing_plan_id":"free"},{"bike_id":"9f23c4fe-2b8e-4fa6-aeed-63e5db4fbaf9","system_id":"levelo_inurba_marseille","lat":43.270721,"lon":5.422764,"is_reserved":false,"is_disabled":false,"rental_uris":{"android":"levelo://app?vid=9f23c4fe-2b8e-4fa6-aeed-63e5db4fbaf9","ios":"levelo://app?vid=9f23c4fe-2b8e-4fa6-aeed-63e5db4fbaf9"},"vehicle_type_id":"4","last_reported":1702724726,"current_range_meters":9600,"station_id":"ce4bhk92rcd13ifvqgb0","pricing_plan_id":"free"},{"bike_id":"b1f63a6a-b115-4c25-9a8f-84eb606e95df","system_id":"levelo_inurba_marseille","lat":43.2594,"lon":5.40898,"is_reserved":false,"is_disabled":false,"rental_uris":{"android":"levelo://app?vid=b1f63a6a-b115-4c25-9a8f-84eb606e95df","ios":"levelo://app?vid=b1f63a6a-b115-4c25-9a8f-84eb606e95df"},"vehicle_type_id":"4","last_reported":1702724726,"current_range_meters":22400,"station_id":"ce4bhm92rcd13ifvqglg","pricing_plan_id":"free"},{"bike_id":"33eb5b06-eabb-4af5-8324-fda3edb03521","system_id":"levelo_inurba_marseille","lat":43.25938,"lon":5.40909,"is_reserved":false,"is_disabled":false,"rental_uris":{"android":"levelo://app?vid=33eb5b06-eabb-4af5-8324-fda3edb03521","ios":"levelo://app?vid=33eb5b06-eabb-4af5-8324-fda3edb03521"},"vehicle_type_id":"4","last_reported":1702724726,"current_range_meters":12800,"station_id":"ce4bhm92rcd13ifvqglg","pricing_plan_id":"free"},{"bike_id":"9e9c1ace-693b-4f7b-8f16-ab8c2f2f9236","system_id":"levelo_inurba_marseille","lat":43.25929,"lon":5.40908,"is_reserved":false,"is_disabled":false,"rental_uris":{"android":"levelo://app?vid=9e9c1ace-693b-4f7b-8f16-ab8c2f2f9236","ios":"levelo://app?vid=9e9c1ace-693b-4f7b-8f16-ab8c2f2f9236"},"vehicle_type_id":"4","last_reported":1702724726,"current_range_meters":29200,"station_id":"ce4bhm92rcd13ifvqglg","pricing_plan_id":"free"},{"bike_id":"07e99022-3a40-4b83-a840-d9fbbc83b647","system_id":"levelo_inurba_marseille","lat":43.259009,"lon":5.40929,"is_reserved":false,"is_disabled":false,"rental_uris":{"android":"levelo://app?vid=07e99022-3a40-4b83-a840-d9fbbc83b647","ios":"levelo://app?vid=07e99022-3a40-4b83-a840-d9fbbc83b647"},"vehicle_type_id":"4","last_reported":1702724726,"current_range_meters":20000,"station_id":"ce4bhm92rcd13ifvqglg","pricing_plan_id":"free"},{"bike_id":"898b018b-d803-4540-afb5-aad02fd85533","system_id":"levelo_inurba_marseille","lat":43.24666,"lon":5.3816,"is_reserved":false,"is_disabled":false,"rental_uris":{"android":"levelo://app?vid=898b018b-d803-4540-afb5-aad02fd85533","ios":"levelo://app?vid=898b018b-d803-4540-afb5-aad02fd85533"},"vehicle_type_id":"4","last_reported":1702724726,"current_range_meters":31200,"station_id":"ce4bhih2rcd13ifvqfr0","pricing_plan_id":"free"},{"bike_id":"be66fe85-182c-4a5a-9453-68718da0f866","system_id":"levelo_inurba_marseille","lat":43.25102,"lon":5.403214,"is_reserved":false,"is_disabled":false,"rental_uris":{"android":"levelo://app?vid=be66fe85-182c-4a5a-9453-68718da0f866","ios":"levelo://app?vid=be66fe85-182c-4a5a-9453-68718da0f866"},"vehicle_type_id":"4","last_reported":1702724726,"current_range_meters":11600,"station_id":"ce4bhlh2rcd13ifvqgig","pricing_plan_id":"free"},{"bike_id":"bc7beed4-0a2b-4643-85ff-db9beffd5014","system_id":"levelo_inurba_marseille","lat":43.25102,"lon":5.403214,"is_reserved":false,"is_disabled":false,"rental_uris":{"android":"levelo://app?vid=bc7beed4-0a2b-4643-85ff-db9beffd5014","ios":"levelo://app?vid=bc7beed4-0a2b-4643-85ff-db9beffd5014"},"vehicle_type_id":"4","last_reported":1702724726,"current_range_meters":25200,"station_id":"ce4bhlh2rcd13ifvqgig","pricing_plan_id":"free"},{"bike_id":"e9c46598-00d8-4e39-9ef6-e5e0391f1f1d","system_id":"levelo_inurba_marseille","lat":43.25102,"lon":5.403214,"is_reserved":false,"is_disabled":false,"rental_uris":{"android":"levelo://app?vid=e9c46598-00d8-4e39-9ef6-e5e0391f1f1d","ios":"levelo://app?vid=e9c46598-00d8-4e39-9ef6-e5e0391f1f1d"},"vehicle_type_id":"4","last_reported":1702724726,"current_range_meters":21600,"station_id":"ce4bhlh2rcd13ifvqgig","pricing_plan_id":"free"},{"bike_id":"cda151f2-9ad2-46c9-9115-b73ba9a06619","system_id":"levelo_inurba_marseille","lat":43.25205,"lon":5.40639,"is_reserved":false,"is_disabled":false,"rental_uris":{"android":"levelo://app?vid=cda151f2-9ad2-46c9-9115-b73ba9a06619","ios":"levelo://app?vid=cda151f2-9ad2-46c9-9115-b73ba9a06619"},"vehicle_type_id":"4","last_reported":1702724726,"current_range_meters":4400,"station_id":"","pricing_plan_id":"free"},{"bike_id":"c06d4f4c-4f7c-410e-8262-300f5d94587d","system_id":"levelo_inurba_marseille","lat":43.246461,"lon":5.389014,"is_reserved":false,"is_disabled":false,"rental_uris":{"android":"levelo://app?vid=c06d4f4c-4f7c-410e-8262-300f5d94587d","ios":"levelo://app?vid=c06d4f4c-4f7c-410e-8262-300f5d94587d"},"vehicle_type_id":"4","last_reported":1702724726,"current_range_meters":17600,"station_id":"ce4bhg12rcd13ifvqf60","pricing_plan_id":"free"},{"bike_id":"a8848b8b-995b-43e6-a068-03d2ec054c23","system_id":"levelo_inurba_marseille","lat":43.246467,"lon":5.388984,"is_reserved":false,"is_disabled":false,"rental_uris":{"android":"levelo://app?vid=a8848b8b-995b-43e6-a068-03d2ec054c23","ios":"levelo://app?vid=a8848b8b-995b-43e6-a068-03d2ec054c23"},"vehicle_type_id":"4","last_reported":1702724726,"current_range_meters":23200,"station_id":"ce4bhg12rcd13ifvqf60","pricing_plan_id":"free"},{"bike_id":"d7ad1369-4c1d-4e0a-99a2-ace60e18ffed","system_id":"levelo_inurba_marseille","lat":43.245581,"lon":5.395069,"is_reserved":false,"is_disabled":false,"rental_uris":{"android":"levelo://app?vid=d7ad1369-4c1d-4e0a-99a2-ace60e18ffed","ios":"levelo://app?vid=d7ad1369-4c1d-4e0a-99a2-ace60e18ffed"},"vehicle_type_id":"4","last_reported":1702724726,"current_range_meters":13200,"station_id":"ce4bhlp2rcd13ifvqgjg","pricing_plan_id":"free"},{"bike_id":"2913b0e3-c44c-49f1-ba84-d9d46d3f68b0","system_id":"levelo_inurba_marseille","lat":43.2486,"lon":5.4099,"is_reserved":false,"is_disabled":false,"rental_uris":{"android":"levelo://app?vid=2913b0e3-c44c-49f1-ba84-d9d46d3f68b0","ios":"levelo://app?vid=2913b0e3-c44c-49f1-ba84-d9d46d3f68b0"},"vehicle_type_id":"4","last_reported":1702724726,"current_range_meters":20000,"station_id":"","pricing_plan_id":"free"},{"bike_id":"554ce62f-5f9f-439d-a3cf-6b5fd68927c6","system_id":"levelo_inurba_marseille","lat":43.240623,"lon":5.377642,"is_reserved":false,"is_disabled":false,"rental_uris":{"android":"levelo://app?vid=554ce62f-5f9f-439d-a3cf-6b5fd68927c6","ios":"levelo://app?vid=554ce62f-5f9f-439d-a3cf-6b5fd68927c6"},"vehicle_type_id":"4","last_reported":1702724726,"current_range_meters":18800,"station_id":"ce4bhnp2rcd13ifvqgvg","pricing_plan_id":"free"},{"bike_id":"b1f1efa0-c8a3-4715-a419-6c77c91cb79d","system_id":"levelo_inurba_marseille","lat":43.24066,"lon":5.37755,"is_reserved":false,"is_disabled":false,"rental_uris":{"android":"levelo://app?vid=b1f1efa0-c8a3-4715-a419-6c77c91cb79d","ios":"levelo://app?vid=b1f1efa0-c8a3-4715-a419-6c77c91cb79d"},"vehicle_type_id":"4","last_reported":1702724726,"current_range_meters":21600,"station_id":"ce4bhnp2rcd13ifvqgvg","pricing_plan_id":"free"},{"bike_id":"a9cc9071-b887-4d8b-8efd-24acf05b1e5d","system_id":"levelo_inurba_marseille","lat":43.24053,"lon":5.37702,"is_reserved":false,"is_disabled":false,"rental_uris":{"android":"levelo://app?vid=a9cc9071-b887-4d8b-8efd-24acf05b1e5d","ios":"levelo://app?vid=a9cc9071-b887-4d8b-8efd-24acf05b1e5d"},"vehicle_type_id":"4","last_reported":1702724726,"current_range_meters":26400,"station_id":"","pricing_plan_id":"free"},{"bike_id":"ae3ad7fe-fe7e-4320-bde8-71a385e963a0","system_id":"levelo_inurba_marseille","lat":43.239588,"lon":5.366238,"is_reserved":false,"is_disabled":false,"rental_uris":{"android":"levelo://app?vid=ae3ad7fe-fe7e-4320-bde8-71a385e963a0","ios":"levelo://app?vid=ae3ad7fe-fe7e-4320-bde8-71a385e963a0"},"vehicle_type_id":"4","last_reported":1702724726,"current_range_meters":32000,"station_id":"ce4bhi12rcd13ifvqfp0","pricing_plan_id":"free"},{"bike_id":"e8574d53-a7d7-4f3f-b338-d2d1f79060e1","system_id":"levelo_inurba_marseille","lat":43.239588,"lon":5.366238,"is_reserved":false,"is_disabled":false,"rental_uris":{"android":"levelo://app?vid=e8574d53-a7d7-4f3f-b338-d2d1f79060e1","ios":"levelo://app?vid=e8574d53-a7d7-4f3f-b338-d2d1f79060e1"},"vehicle_type_id":"4","last_reported":1702724726,"current_range_meters":27600,"station_id":"ce4bhi12rcd13ifvqfp0","pricing_plan_id":"free"},{"bike_id":"dc11fc5d-c21b-4c57-9124-9598e1555d4e","system_id":"levelo_inurba_marseille","lat":43.239588,"lon":5.366238,"is_reserved":false,"is_disabled":false,"rental_uris":{"android":"levelo://app?vid=dc11fc5d-c21b-4c57-9124-9598e1555d4e","ios":"levelo://app?vid=dc11fc5d-c21b-4c57-9124-9598e1555d4e"},"vehicle_type_id":"4","last_reported":1702724726,"current_range_meters":30800,"station_id":"ce4bhi12rcd13ifvqfp0","pricing_plan_id":"free"},{"bike_id":"338540ff-c6d1-4419-a435-ded26144dfa2","system_id":"levelo_inurba_marseille","lat":43.239529,"lon":5.366276,"is_reserved":false,"is_disabled":false,"rental_uris":{"android":"levelo://app?vid=338540ff-c6d1-4419-a435-ded26144dfa2","ios":"levelo://app?vid=338540ff-c6d1-4419-a435-ded26144dfa2"},"vehicle_type_id":"4","last_reported":1702724726,"current_range_meters":30000,"station_id":"ce4bhi12rcd13ifvqfp0","pricing_plan_id":"free"},{"bike_id":"e2effc20-8600-4cb3-88e5-e93a2f872714","system_id":"levelo_inurba_marseille","lat":43.231919,"lon":5.355532,"is_reserved":false,"is_disabled":false,"rental_uris":{"android":"levelo://app?vid=e2effc20-8600-4cb3-88e5-e93a2f872714","ios":"levelo://app?vid=e2effc20-8600-4cb3-88e5-e93a2f872714"},"vehicle_type_id":"4","last_reported":1702724726,"current_range_meters":29200,"station_id":"ce4bhu92rcd13ifvqi70","pricing_plan_id":"free"},{"bike_id":"435d75ee-de91-4ee4-89fb-fa5635ccaf42","system_id":"levelo_inurba_marseille","lat":43.231919,"lon":5.355532,"is_reserved":false,"is_disabled":false,"rental_uris":{"android":"levelo://app?vid=435d75ee-de91-4ee4-89fb-fa5635ccaf42","ios":"levelo://app?vid=435d75ee-de91-4ee4-89fb-fa5635ccaf42"},"vehicle_type_id":"4","last_reported":1702724726,"current_range_meters":7200,"station_id":"ce4bhu92rcd13ifvqi70","pricing_plan_id":"free"},{"bike_id":"bb21ca5a-cb13-451e-943b-2dfa4a3b7fbc","system_id":"levelo_inurba_marseille","lat":43.231919,"lon":5.355532,"is_reserved":false,"is_disabled":false,"rental_uris":{"android":"levelo://app?vid=bb21ca5a-cb13-451e-943b-2dfa4a3b7fbc","ios":"levelo://app?vid=bb21ca5a-cb13-451e-943b-2dfa4a3b7fbc"},"vehicle_type_id":"4","last_reported":1702724726,"current_range_meters":32000,"station_id":"ce4bhu92rcd13ifvqi70","pricing_plan_id":"free"},{"bike_id":"c1f76b82-4e66-4ae8-8e5d-049d6742016a","system_id":"levelo_inurba_marseille","lat":43.231919,"lon":5.355532,"is_reserved":false,"is_disabled":false,"rental_uris":{"android":"levelo://app?vid=c1f76b82-4e66-4ae8-8e5d-049d6742016a","ios":"levelo://app?vid=c1f76b82-4e66-4ae8-8e5d-049d6742016a"},"vehicle_type_id":"4","last_reported":1702724726,"current_range_meters":20000,"station_id":"ce4bhu92rcd13ifvqi70","pricing_plan_id":"free"},{"bike_id":"bad9b33d-de7d-4c7c-82d1-be01fc455f93","system_id":"levelo_inurba_marseille","lat":43.23194,"lon":5.35546,"is_reserved":false,"is_disabled":false,"rental_uris":{"android":"levelo://app?vid=bad9b33d-de7d-4c7c-82d1-be01fc455f93","ios":"levelo://app?vid=bad9b33d-de7d-4c7c-82d1-be01fc455f93"},"vehicle_type_id":"4","last_reported":1702724726,"current_range_meters":23600,"station_id":"ce4bhu92rcd13ifvqi70","pricing_plan_id":"free"},{"bike_id":"71fcf375-ec52-4af7-94a3-d195f6ce962d","system_id":"levelo_inurba_marseille","lat":43.231919,"lon":5.355532,"is_reserved":false,"is_disabled":false,"rental_uris":{"android":"levelo://app?vid=71fcf375-ec52-4af7-94a3-d195f6ce962d","ios":"levelo://app?vid=71fcf375-ec52-4af7-94a3-d195f6ce962d"},"vehicle_type_id":"4","last_reported":1702724726,"current_range_meters":0,"station_id":"ce4bhu92rcd13ifvqi70","pricing_plan_id":"free"},{"bike_id":"73cd9c87-b558-4a96-b49b-b12814d070b1","system_id":"levelo_inurba_marseille","lat":43.231919,"lon":5.355532,"is_reserved":false,"is_disabled":false,"rental_uris":{"android":"levelo://app?vid=73cd9c87-b558-4a96-b49b-b12814d070b1","ios":"levelo://app?vid=73cd9c87-b558-4a96-b49b-b12814d070b1"},"vehicle_type_id":"4","last_reported":1702724726,"current_range_meters":6800,"station_id":"ce4bhu92rcd13ifvqi70","pricing_plan_id":"free"},{"bike_id":"600bdeb8-ea2a-4d1c-a6da-f7a255388a48","system_id":"levelo_inurba_marseille","lat":43.231919,"lon":5.355532,"is_reserved":false,"is_disabled":false,"rental_uris":{"android":"levelo://app?vid=600bdeb8-ea2a-4d1c-a6da-f7a255388a48","ios":"levelo://app?vid=600bdeb8-ea2a-4d1c-a6da-f7a255388a48"},"vehicle_type_id":"4","last_reported":1702724726,"current_range_meters":11200,"station_id":"ce4bhu92rcd13ifvqi70","pricing_plan_id":"free"},{"bike_id":"a6ab5f0e-f0ee-41be-b237-17726a43f065","system_id":"levelo_inurba_marseille","lat":43.231875,"lon":5.355444,"is_reserved":false,"is_disabled":false,"rental_uris":{"android":"levelo://app?vid=a6ab5f0e-f0ee-41be-b237-17726a43f065","ios":"levelo://app?vid=a6ab5f0e-f0ee-41be-b237-17726a43f065"},"vehicle_type_id":"4","last_reported":1702724726,"current_range_meters":30000,"station_id":"ce4bhu92rcd13ifvqi70","pricing_plan_id":"free"},{"bike_id":"547672b1-18af-4711-b9a3-86e73cab70b4","system_id":"levelo_inurba_marseille","lat":43.231919,"lon":5.355532,"is_reserved":false,"is_disabled":false,"rental_uris":{"android":"levelo://app?vid=547672b1-18af-4711-b9a3-86e73cab70b4","ios":"levelo://app?vid=547672b1-18af-4711-b9a3-86e73cab70b4"},"vehicle_type_id":"4","last_reported":1702724726,"current_range_meters":16800,"station_id":"ce4bhu92rcd13ifvqi70","pricing_plan_id":"free"},{"bike_id":"7068a496-7061-49f8-8cfd-84d7e44aaae8","system_id":"levelo_inurba_marseille","lat":43.231794,"lon":5.400052,"is_reserved":false,"is_disabled":false,"rental_uris":{"android":"levelo://app?vid=7068a496-7061-49f8-8cfd-84d7e44aaae8","ios":"levelo://app?vid=7068a496-7061-49f8-8cfd-84d7e44aaae8"},"vehicle_type_id":"4","last_reported":1702724726,"current_range_meters":30000,"station_id":"ce4bhn12rcd13ifvqgqg","pricing_plan_id":"free"},{"bike_id":"7591c304-548e-4cab-b2c2-be1de5925a19","system_id":"levelo_inurba_marseille","lat":43.231793,"lon":5.400044,"is_reserved":false,"is_disabled":false,"rental_uris":{"android":"levelo://app?vid=7591c304-548e-4cab-b2c2-be1de5925a19","ios":"levelo://app?vid=7591c304-548e-4cab-b2c2-be1de5925a19"},"vehicle_type_id":"4","last_reported":1702724726,"current_range_meters":18400,"station_id":"ce4bhn12rcd13ifvqgqg","pricing_plan_id":"free"},