{"last_updated":1683223691,"ttl":30,"version":"2.2","data":{"bikes":[{"bike_id":"4f12b456-392a-4457-99e0-606d9e6f8838","system_id":"levelo_inurba_marseille","lat":43.312239,"lon":5.368562,"is_reserved":false,"is_disabled":false,"rental_uris":{"android":"levelo://app?vid=4f12b456-392a-4457-99e0-606d9e6f8838","ios":"levelo://app?vid=4f12b456-392a-4457-99e0-606d9e6f8838"},"vehicle_type_id":"4","last_reported":1683223693,"current_range_meters":26400,"station_id":"ce4bgl92rcd13ifvqbq0","pricing_plan_id":"free"},{"bike_id":"f046f81c-6524-4db6-9337-bb14027a4b05","system_id":"levelo_inurba_marseille","lat":43.30983,"lon":5.36879,"is_reserved":false,"is_disabled":false,"rental_uris":{"android":"levelo://app?vid=f046f81c-6524-4db6-9337-bb14027a4b05","ios":"levelo://app?vid=f046f81c-6524-4db6-9337-bb14027a4b05"},"vehicle_type_id":"4","last_reported":1683223693,"current_range_meters":25600,"station_id":"","pricing_plan_id":"free"},{"bike_id":"6540db50-dec4-4fe3-92a3-89cabaa74361","system_id":"levelo_inurba_marseille","lat":43.31491,"lon":5.37302,"is_reserved":false,"is_disabled":false,"rental_uris":{"android":"levelo://app?vid=6540db50-dec4-4fe3-92a3-89cabaa74361","ios":"levelo://app?vid=6540db50-dec4-4fe3-92a3-89cabaa74361"},"vehicle_type_id":"4","last_reported":1683223693,"current_range_meters":31200,"station_id":"ce4bgt12rcd13ifvqcd0","pricing_plan_id":"free"},{"bike_id":"586a2713-1abd-4e4a-8080-2e0fa1389e9c","system_id":"levelo_inurba_marseille","lat":43.3149,"lon":5.37303,"is_reserved":false,"is_disabled":false,"rental_uris":{"android":"levelo://app?vid=586a2713-1abd-4e4a-8080-2e0fa1389e9c","ios":"levelo://app?vid=586a2713-1abd-4e4a-8080-2e0fa1389e9c"},"vehicle_type_id":"4","last_reported":1683223693,"current_range_meters":28000,"station_id":"ce4bgt12rcd13ifvqcd0","pricing_plan_id":"free"},{"bike_id":"bf64cd87-5d9b-44c9-81a9-865b8475aabb","system_id":"levelo_inurba_marseille","lat":43.314811,"lon":5.373103,"is_reserved":false,"is_disabled":false,"rental_uris":{"android":"levelo://app?vid=bf64cd87-5d9b-44c9-81a9-865b8475aabb","ios":"levelo://app?vid=bf64cd87-5d9b-44c9-81a9-865b8475aabb"},"vehicle_type_id":"4","last_reported":1683223693,"current_range_meters":27600,"station_id":"ce4bgt12rcd13ifvqcd0","pricing_plan_id":"free"},{"bike_id":"1a7595af-2907-4583-858d-1764c59be5e7","system_id":"levelo_inurba_marseille","lat":43.31494,"lon":5.37303,"is_reserved":false,"is_disabled":false,"rental_uris":{"android":"levelo://app?vid=1a7595af-2907-4583-858d-1764c59be5e7","ios":"levelo://app?vid=1a7595af-2907-4583-858d-1764c59be5e7"},"vehicle_type_id":"4","last_reported":1683223693,"current_range_meters":10800,"station_id":"ce4bgt12rcd13ifvqcd0","pricing_plan_id":"free"},{"bike_id":"2e0f24e9-ba2f-42d0-952d-da8615277f2e","system_id":"levelo_inurba_marseille","lat":43.314811,"lon":5.373103,"is_reserved":false,"is_disabled":false,"rental_uris":{"android":"levelo://app?vid=2e0f24e9-ba2f-42d0-952d-da8615277f2e","ios":"levelo://app?vid=2e0f24e9-ba2f-42d0-952d-da8615277f2e"},"vehicle_type_id":"4","last_reported":1683223693,"current_range_meters":31200,"station_id":"ce4bgt12rcd13ifvqcd0","pricing_plan_id":"free"},{"bike_id":"caea2489-5a5d-4f00-8e78-8c319f8ed68e","system_id":"levelo_inurba_marseille","lat":43.3057,"lon":5.36553,"is_reserved":false,"is_disabled":false,"rental_uris":{"android":"levelo://app?vid=caea2489-5a5d-4f00-8e78-8c319f8ed68e","ios":"levelo://app?vid=caea2489-5a5d-4f00-8e78-8c319f8ed68e"},"vehicle_type_id":"4","last_reported":1683223693,"current_range_meters":17600,"station_id":"","pricing_plan_id":"free"},{"bike_id":"82370e27-6978-44d0-ac1b-639bedcaca1a","system_id":"levelo_inurba_marseille","lat":43.305989,"lon":5.37225,"is_reserved":false,"is_disabled":false,"rental_uris":{"android":"levelo://app?vid=82370e27-6978-44d0-ac1b-639bedcaca1a","ios":"levelo://app?vid=82370e27-6978-44d0-ac1b-639bedcaca1a"},"vehicle_type_id":"4","last_reported":1683223693,"current_range_meters":11600,"station_id":"ce4bgqh2rcd13ifvqc4g","pricing_plan_id":"free"},{"bike_id":"21192dc3-72bb-4232-a7c2-c9d8164672e7","system_id":"levelo_inurba_marseille","lat":43.311131,"lon":5.377651,"is_reserved":false,"is_disabled":false,"rental_uris":{"android":"levelo://app?vid=21192dc3-72bb-4232-a7c2-c9d8164672e7","ios":"levelo://app?vid=21192dc3-72bb-4232-a7c2-c9d8164672e7"},"vehicle_type_id":"4","last_reported":1683223693,"current_range_meters":21200,"station_id":"ce4bgt92rcd13ifvqcg0","pricing_plan_id":"free"},{"bike_id":"89c4b4ff-3e42-4652-ac83-7b11e2048ef8","system_id":"levelo_inurba_marseille","lat":43.311131,"lon":5.377651,"is_reserved":false,"is_disabled":false,"rental_uris":{"android":"levelo://app?vid=89c4b4ff-3e42-4652-ac83-7b11e2048ef8","ios":"levelo://app?vid=89c4b4ff-3e42-4652-ac83-7b11e2048ef8"},"vehicle_type_id":"4","last_reported":1683223693,"current_range_meters":16800,"station_id":"ce4bgt92rcd13ifvqcg0","pricing_plan_id":"free"},{"bike_id":"5a600d98-cf81-43e8-a506-2817ca8e4bc5","system_id":"levelo_inurba_marseille","lat":43.31119,"lon":5.37758,"is_reserved":false,"is_disabled":false,"rental_uris":{"android":"levelo://app?vid=5a600d98-cf81-43e8-a506-2817ca8e4bc5","ios":"levelo://app?vid=5a600d98-cf81-43e8-a506-2817ca8e4bc5"},"vehicle_type_id":"4","last_reported":1683223693,"current_range_meters":14400,"station_id":"ce4bgt92rcd13ifvqcg0","pricing_plan_id":"free"},{"bike_id":"027da4a3-199d-4b5f-8ba0-6ec7754f1d5c","system_id":"levelo_inurba_marseille","lat":43.311131,"lon":5.377651,"is_reserved":false,"is_disabled":false,"rental_uris":{"android":"levelo://app?vid=027da4a3-199d-4b5f-8ba0-6ec7754f1d5c","ios":"levelo://app?vid=027da4a3-199d-4b5f-8ba0-6ec7754f1d5c"},"vehicle_type_id":"4","last_reported":1683223693,"current_range_meters":15600,"station_id":"ce4bgt92rcd13ifvqcg0","pricing_plan_id":"free"},{"bike_id":"5ebc5830-d67d-4da6-af89-b03bb064b292","system_id":"levelo_inurba_marseille","lat":43.311131,"lon":5.377651,"is_reserved":false,"is_disabled":false,"rental_uris":{"android":"levelo://app?vid=5ebc5830-d67d-4da6-af89-b03bb064b292","ios":"levelo://app?vid=5ebc5830-d67d-4da6-af89-b03bb064b292"},"vehicle_type_id":"4","last_reported":1683223693,"current_range_meters":18000,"station_id":"ce4bgt92rcd13ifvqcg0","pricing_plan_id":"free"},{"bike_id":"e1090ab3-038a-4dd1-8b96-399171ac7715","system_id":"levelo_inurba_marseille","lat":43.311131,"lon":5.377651,"is_reserved":false,"is_disabled":false,"rental_uris":{"android":"levelo://app?vid=e1090ab3-038a-4dd1-8b96-399171ac7715","ios":"levelo://app?vid=e1090ab3-038a-4dd1-8b96-399171ac7715"},"vehicle_type_id":"4","last_reported":1683223693,"current_range_meters":24000,"station_id":"ce4bgt92rcd13ifvqcg0","pricing_plan_id":"free"},{"bike_id":"aad3ba73-4249-4808-9f43-fd6717ae65ef","system_id":"levelo_inurba_marseille","lat":43.311131,"lon":5.377651,"is_reserved":false,"is_disabled":false,"rental_uris":{"android":"levelo://app?vid=aad3ba73-4249-4808-9f43-fd6717ae65ef","ios":"levelo://app?vid=aad3ba73-4249-4808-9f43-fd6717ae65ef"},"vehicle_type_id":"4","last_reported":1683223693,"current_range_meters":7200,"station_id":"ce4bgt92rcd13ifvqcg0","pricing_plan_id":"free"},{"bike_id":"2af7e03f-0923-4522-af75-5fbbf3775ee7","system_id":"levelo_inurba_marseille","lat":43.311131,"lon":5.377651,"is_reserved":false,"is_disabled":false,"rental_uris":{"android":"levelo://app?vid=2af7e03f-0923-4522-af75-5fbbf3775ee7","ios":"levelo://app?vid=2af7e03f-0923-4522-af75-5fbbf3775ee7"},"vehicle_type_id":"4","last_reported":1683223693,"current_range_meters":8800,"station_id":"ce4bgt92rcd13ifvqcg0","pricing_plan_id":"free"},{"bike_id":"0c7d94b1-fce7-4987-9b18-614878937a2a","system_id":"levelo_inurba_marseille","lat":43.311131,"lon":5.377651,"is_reserved":false,"is_disabled":false,"rental_uris":{"android":"levelo://app?vid=0c7d94b1-fce7-4987-9b18-614878937a2a","ios":"levelo://app?vid=0c7d94b1-fce7-4987-9b18-614878937a2a"},"vehicle_type_id":"4","last_reported":1683223693,"current_range_meters":9200,"station_id":"ce4bgt92rcd13ifvqcg0","pricing_plan_id":"free"},{"bike_id":"273b8bbd-b234-47f5-989a-6b929073a408","system_id":"levelo_inurba_marseille","lat":43.31116,"lon":5.37785,"is_reserved":false,"is_disabled":false,"rental_uris":{"android":"levelo://app?vid=273b8bbd-b234-47f5-989a-6b929073a408","ios":"levelo://app?vid=273b8bbd-b234-47f5-989a-6b929073a408"},"vehicle_type_id":"4","last_reported":1683223693,"current_range_meters":7200,"station_id":"ce4bgt92rcd13ifvqcg0","pricing_plan_id":"free"},{"bike_id":"a2ad40f3-ee96-4fd0-8cfa-b89f7788b1e0","system_id":"levelo_inurba_marseille","lat":43.317075,"lon":5.377367,"is_reserved":false,"is_disabled":false,"rental_uris":{"android":"levelo://app?vid=a2ad40f3-ee96-4fd0-8cfa-b89f7788b1e0","ios":"levelo://app?vid=a2ad40f3-ee96-4fd0-8cfa-b89f7788b1e0"},"vehicle_type_id":"4","last_reported":1683223693,"current_range_meters":15600,"station_id":"ce4bgth2rcd13ifvqch0","pricing_plan_id":"free"},{"bike_id":"826ea5a1-1a49-4d42-9fd0-650a24a6ac5c","system_id":"levelo_inurba_marseille","lat":43.31529,"lon":5.38036,"is_reserved":false,"is_disabled":false,"rental_uris":{"android":"levelo://app?vid=826ea5a1-1a49-4d42-9fd0-650a24a6ac5c","ios":"levelo://app?vid=826ea5a1-1a49-4d42-9fd0-650a24a6ac5c"},"vehicle_type_id":"4","last_reported":1683223693,"current_range_meters":20800,"station_id":"ce4bhsp2rcd13ifvqi50","pricing_plan_id":"free"},{"bike_id":"4e9b849a-ad0e-42fb-810b-40bbff7bbb35","system_id":"levelo_inurba_marseille","lat":43.31536,"lon":5.38041,"is_reserved":false,"is_disabled":false,"rental_uris":{"android":"levelo://app?vid=4e9b849a-ad0e-42fb-810b-40bbff7bbb35","ios":"levelo://app?vid=4e9b849a-ad0e-42fb-810b-40bbff7bbb35"},"vehicle_type_id":"4","last_reported":1683223693,"current_range_meters":28400,"station_id":"ce4bhsp2rcd13ifvqi50","pricing_plan_id":"free"},{"bike_id":"b2e1ac5b-dd33-4540-9d8d-088919061eb0","system_id":"levelo_inurba_marseille","lat":43.31536,"lon":5.38044,"is_reserved":false,"is_disabled":false,"rental_uris":{"android":"levelo://app?vid=b2e1ac5b-dd33-4540-9d8d-088919061eb0","ios":"levelo://app?vid=b2e1ac5b-dd33-4540-9d8d-088919061eb0"},"vehicle_type_id":"4","last_reported":1683223693,"current_range_meters":30400,"station_id":"ce4bhsp2rcd13ifvqi50","pricing_plan_id":"free"},{"bike_id":"29913f1f-381b-4f69-b437-e340ceb56074","system_id":"levelo_inurba_marseille","lat":43.31585,"lon":5.38208,"is_reserved":false,"is_disabled":false,"rental_uris":{"android":"levelo://app?vid=29913f1f-381b-4f69-b437-e340ceb56074","ios":"levelo://app?vid=29913f1f-381b-4f69-b437-e340ceb56074"},"vehicle_type_id":"4","last_reported":1683223693,"current_range_meters":28800,"station_id":"","pricing_plan_id":"free"},{"bike_id":"0ed0ff52-ba5f-4a5d-8a07-01380b01ee61","system_id":"levelo_inurba_marseille","lat":43.30143,"lon":5.37413,"is_reserved":false,"is_disabled":false,"rental_uris":{"android":"levelo://app?vid=0ed0ff52-ba5f-4a5d-8a07-01380b01ee61","ios":"levelo://app?vid=0ed0ff52-ba5f-4a5d-8a07-01380b01ee61"},"vehicle_type_id":"4","last_reported":1683223693,"current_range_meters":21600,"station_id":"ce4bgs92rcd13ifvqcc0","pricing_plan_id":"free"},{"bike_id":"d1e39fed-c898-4d44-913e-b426aa1aece6","system_id":"levelo_inurba_marseille","lat":43.30793,"lon":5.38149,"is_reserved":false,"is_disabled":false,"rental_uris":{"android":"levelo://app?vid=d1e39fed-c898-4d44-913e-b426aa1aece6","ios":"levelo://app?vid=d1e39fed-c898-4d44-913e-b426aa1aece6"},"vehicle_type_id":"4","last_reported":1683223693,"current_range_meters":16000,"station_id":"ce4bgt12rcd13ifvqce0","pricing_plan_id":"free"},{"bike_id":"a16ab283-edcb-4a70-9d6f-51a9be45e174","system_id":"levelo_inurba_marseille","lat":43.308012,"lon":5.381511,"is_reserved":false,"is_disabled":false,"rental_uris":{"android":"levelo://app?vid=a16ab283-edcb-4a70-9d6f-51a9be45e174","ios":"levelo://app?vid=a16ab283-edcb-4a70-9d6f-51a9be45e174"},"vehicle_type_id":"4","last_reported":1683223693,"current_range_meters":18400,"station_id":"ce4bgt12rcd13ifvqce0","pricing_plan_id":"free"},{"bike_id":"0230cea4-c862-4efe-90ef-99297e4c545d","system_id":"levelo_inurba_marseille","lat":43.308012,"lon":5.381511,"is_reserved":false,"is_disabled":false,"rental_uris":{"android":"levelo://app?vid=0230cea4-c862-4efe-90ef-99297e4c545d","ios":"levelo://app?vid=0230cea4-c862-4efe-90ef-99297e4c545d"},"vehicle_type_id":"4","last_reported":1683223693,"current_range_meters":8400,"station_id":"ce4bgt12rcd13ifvqce0","pricing_plan_id":"free"},{"bike_id":"663356f9-7ae8-477a-a03b-15284b68cf51","system_id":"levelo_inurba_marseille","lat":43.308012,"lon":5.381511,"is_reserved":false,"is_disabled":false,"rental_uris":{"android":"levelo://app?vid=663356f9-7ae8-477a-a03b-15284b68cf51","ios":"levelo://app?vid=663356f9-7ae8-477a-a03b-15284b68cf51"},"vehicle_type_id":"4","last_reported":1683223693,"current_range_meters":2800,"station_id":"ce4bgt12rcd13ifvqce0","pricing_plan_id":"free"},{"bike_id":"9f6de8b7-2373-47b0-a66e-f2dbbc5c4119","system_id":"levelo_inurba_marseille","lat":43.308012,"lon":5.381511,"is_reserved":false,"is_disabled":false,"rental_uris":{"android":"levelo://app?vid=9f6de8b7-2373-47b0-a66e-f2dbbc5c4119","ios":"levelo://app?vid=9f6de8b7-2373-47b0-a66e-f2dbbc5c4119"},"vehicle_type_id":"4","last_reported":1683223693,"current_range_meters":24400,"station_id":"ce4bgt12rcd13ifvqce0","pricing_plan_id":"free"},{"bike_id":"f7f5824f-3d5b-4c47-a26c-0ada7a6a5844","system_id":"levelo_inurba_marseille","lat":43.304606,"lon":5.379026,"is_reserved":false,"is_disabled":false,"rental_uris":{"android":"levelo://app?vid=f7f5824f-3d5b-4c47-a26c-0ada7a6a5844","ios":"levelo://app?vid=f7f5824f-3d5b-4c47-a26c-0ada7a6a5844"},"vehicle_type_id":"4","last_reported":1683223693,"current_range_meters":7200,"station_id":"ce4bgup2rcd13ifvqcn0","pricing_plan_id":"free"},{"bike_id":"fc494910-9cb8-436e-91c4-74ab227fb1f2","system_id":"levelo_inurba_marseille","lat":43.304606,"lon":5.379026,"is_reserved":false,"is_disabled":false,"rental_uris":{"android":"levelo://app?vid=fc494910-9cb8-436e-91c4-74ab227fb1f2","ios":"levelo://app?vid=fc494910-9cb8-436e-91c4-74ab227fb1f2"},"vehicle_type_id":"4","last_reported":1683223693,"current_range_meters":26400,"station_id":"ce4bgup2rcd13ifvqcn0","pricing_plan_id":"free"},{"bike_id":"ac486601-e067-4125-9c27-666bcf3928c3","system_id":"levelo_inurba_marseille","lat":43.304606,"lon":5.379026,"is_reserved":false,"is_disabled":false,"rental_uris":{"android":"levelo://app?vid=ac486601-e067-4125-9c27-666bcf3928c3","ios":"levelo://app?vid=ac486601-e067-4125-9c27-666bcf3928c3"},"vehicle_type_id":"4","last_reported":1683223693,"current_range_meters":4800,"station_id":"ce4bgup2rcd13ifvqcn0","pricing_plan_id":"free"},{"bike_id":"4e9c39e7-496b-4169-9707-595bf29213e0","system_id":"levelo_inurba_marseille","lat":43.304606,"lon":5.379026,"is_reserved":false,"is_disabled":false,"rental_uris":{"android":"levelo://app?vid=4e9c39e7-496b-4169-9707-595bf29213e0","ios":"levelo://app?vid=4e9c39e7-496b-4169-9707-595bf29213e0"},"vehicle_type_id":"4","last_reported":1683223693,"current_range_meters":18400,"station_id":"ce4bgup2rcd13ifvqcn0","pricing_plan_id":"free"},{"bike_id":"e807ebd5-e66d-4fd8-95f5-7a8e538a0bf6","system_id":"levelo_inurba_marseille","lat":43.313571,"lon":5.384829,"is_reserved":false,"is_disabled":false,"rental_uris":{"android":"levelo://app?vid=e807ebd5-e66d-4fd8-95f5-7a8e538a0bf6","ios":"levelo://app?vid=e807ebd5-e66d-4fd8-95f5-7a8e538a0bf6"},"vehicle_type_id":"4","last_reported":1683223693,"current_range_meters":24800,"station_id":"ce4bgt92rcd13ifvqcf0","pricing_plan_id":"free"},{"bike_id":"7ce3a277-9e01-49d4-a918-950c29f4dc8c","system_id":"levelo_inurba_marseille","lat":43.313571,"lon":5.384829,"is_reserved":false,"is_disabled":false,"rental_uris":{"android":"levelo://app?vid=7ce3a277-9e01-49d4-a918-950c29f4dc8c","ios":"levelo://app?vid=7ce3a277-9e01-49d4-a918-950c29f4dc8c"},"vehicle_type_id":"4","last_reported":1683223693,"current_range_meters":18800,"station_id":"ce4bgt92rcd13ifvqcf0","pricing_plan_id":"free"},{"bike_id":"df327454-ac2e-424a-9ab8-5294391732b9","system_id":"levelo_inurba_marseille","lat":43.313571,"lon":5.384829,"is_reserved":false,"is_disabled":false,"rental_uris":{"android":"levelo://app?vid=df327454-ac2e-424a-9ab8-5294391732b9","ios":"levelo://app?vid=df327454-ac2e-424a-9ab8-5294391732b9"},"vehicle_type_id":"4","last_reported":1683223693,"current_range_meters":14000,"station_id":"ce4bgt92rcd13ifvqcf0","pricing_plan_id":"free"},{"bike_id":"87240237-0ca4-4ccc-999a-1e887f8afaf2","system_id":"levelo_inurba_marseille","lat":43.313571,"lon":5.384829,"is_reserved":false,"is_disabled":false,"rental_uris":{"android":"levelo://app?vid=87240237-0ca4-4ccc-999a-1e887f8afaf2","ios":"levelo://app?vid=87240237-0ca4-4ccc-999a-1e887f8afaf2"},"vehicle_type_id":"4","last_reported":1683223693,"current_range_meters":20400,"station_id":"ce4bgt92rcd13ifvqcf0","pricing_plan_id":"free"},{"bike_id":"ed7cc3c5-4d82-410f-abb4-cd853412fdc6","system_id":"levelo_inurba_marseille","lat":43.313571,"lon":5.384829,"is_reserved":false,"is_disabled":false,"rental_uris":{"android":"levelo://app?vid=ed7cc3c5-4d82-410f-abb4-cd853412fdc6","ios":"levelo://app?vid=ed7cc3c5-4d82-410f-abb4-cd853412fdc6"},"vehicle_type_id":"4","last_reported":1683223693,"current_range_meters":17600,"station_id":"ce4bgt92rcd13ifvqcf0","pricing_plan_id":"free"},{"bike_id":"d58ca405-471e-46fb-9aa6-744736950df1","system_id":"levelo_inurba_marseille","lat":43.313571,"lon":5.384829,"is_reserved":false,"is_disabled":false,"rental_uris":{"android":"levelo://app?vid=d58ca405-471e-46fb-9aa6-744736950df1","ios":"levelo://app?vid=d58ca405-471e-46fb-9aa6-744736950df1"},"vehicle_type_id":"4","last_reported":1683223693,"current_range_meters":28800,"station_id":"ce4bgt92rcd13ifvqcf0","pricing_plan_id":"free"},{"bike_id":"171ed5d0-32c8-43c5-90af-7544a60f8800","system_id":"levelo_inurba_marseille","lat":43.299222,"lon":5.365554,"is_reserved":false,"is_disabled":false,"rental_uris":{"android":"levelo://app?vid=171ed5d0-32c8-43c5-90af-7544a60f8800","ios":"levelo://app?vid=171ed5d0-32c8-43c5-90af-7544a60f8800"},"vehicle_type_id":"4","last_reported":1683223693,"current_range_meters":12000,"station_id":"ce4bgm92rcd13ifvqbr0","pricing_plan_id":"free"},{"bike_id":"b0293dd2-11d4-45f6-906f-2eb8bfa12f05","system_id":"levelo_inurba_marseille","lat":43.299222,"lon":5.365554,"is_reserved":false,"is_disabled":false,"rental_uris":{"android":"levelo://app?vid=b0293dd2-11d4-45f6-906f-2eb8bfa12f05","ios":"levelo://app?vid=b0293dd2-11d4-45f6-906f-2eb8bfa12f05"},"vehicle_type_id":"4","last_reported":1683223693,"current_range_meters":31600,"station_id":"ce4bgm92rcd13ifvqbr0","pricing_plan_id":"free"},{"bike_id":"344a1682-37fd-40ae-a809-57eec0cc7c58","system_id":"levelo_inurba_marseille","lat":43.299222,"lon":5.365554,"is_reserved":false,"is_disabled":false,"rental_uris":{"android":"levelo://app?vid=344a1682-37fd-40ae-a809-57eec0cc7c58","ios":"levelo://app?vid=344a1682-37fd-40ae-a809-57eec0cc7c58"},"vehicle_type_id":"4","last_reported":1683223693,"current_range_meters":31200,"station_id":"ce4bgm92rcd13ifvqbr0","pricing_plan_id":"free"},{"bike_id":"858751dd-3947-483b-9a7e-769b78216ea6","system_id":"levelo_inurba_marseille","lat":43.299222,"lon":5.365554,"is_reserved":false,"is_disabled":false,"rental_uris":{"android":"levelo://app?vid=858751dd-3947-483b-9a7e-769b78216ea6","ios":"levelo://app?vid=858751dd-3947-483b-9a7e-769b78216ea6"},"vehicle_type_id":"4","last_reported":1683223693,"current_range_meters":24800,"station_id":"ce4bgm92rcd13ifvqbr0","pricing_plan_id":"free"},{"bike_id":"c288b3b8-ebd8-49d6-a123-87f028f460f3","system_id":"levelo_inurba_marseille","lat":43.299222,"lon":5.365554,"is_reserved":false,"is_disabled":false,"rental_uris":{"android":"levelo://app?vid=c288b3b8-ebd8-49d6-a123-87f028f460f3","ios":"levelo://app?vid=c288b3b8-ebd8-49d6-a123-87f028f460f3"},"vehicle_type_id":"4","last_reported":1683223693,"current_range_meters":800,"station_id":"ce4bgm92rcd13ifvqbr0","pricing_plan_id":"free"},{"bike_id":"ba78afab-5d37-491c-9e7f-97376ea6b320","system_id":"levelo_inurba_marseille","lat":43.299222,"lon":5.365554,"is_reserved":false,"is_disabled":false,"rental_uris":{"android":"levelo://app?vid=ba78afab-5d37-491c-9e7f-97376ea6b320","ios":"levelo://app?vid=ba78afab-5d37-491c-9e7f-97376ea6b320"},"vehicle_type_id":"4","last_reported":1683223693,"current_range_meters":31200,"station_id":"ce4bgm92rcd13ifvqbr0","pricing_plan_id":"free"},{"bike_id":"5bea5056-d439-4844-9d61-b33b6818955a","system_id":"levelo_inurba_marseille","lat":43.311722,"lon":5.387247,"is_reserved":false,"is_disabled":false,"rental_uris":{"android":"levelo://app?vid=5bea5056-d439-4844-9d61-b33b6818955a","ios":"levelo://app?vid=5bea5056-d439-4844-9d61-b33b6818955a"},"vehicle_type_id":"4","last_reported":1683223693,"current_range_meters":18400,"station_id":"ce4bgv12rcd13ifvqcp0","pricing_plan_id":"free"},{"bike_id":"17f63937-daa8-4bbe-8bdb-745ee251a52b","system_id":"levelo_inurba_marseille","lat":43.298433,"lon":5.362774,"is_reserved":false,"is_disabled":false,"rental_uris":{"android":"levelo://app?vid=17f63937-daa8-4bbe-8bdb-745ee251a52b","ios":"levelo://app?vid=17f63937-daa8-4bbe-8bdb-745ee251a52b"},"vehicle_type_id":"4","last_reported":1683223693,"current_range_meters":14000,"station_id":"ce4bgpp2rcd13ifvqc3g","pricing_plan_id":"free"},{"bike_id":"e97ec8dc-e2f7-4d68-a06c-7416cda80b2e","system_id":"levelo_inurba_marseille","lat":43.298433,"lon":5.362774,"is_reserved":false,"is_disabled":false,"rental_uris":{"android":"levelo://app?vid=e97ec8dc-e2f7-4d68-a06c-7416cda80b2e","ios":"levelo://app?vid=e97ec8dc-e2f7-4d68-a06c-7416cda80b2e"},"vehicle_type_id":"4","last_reported":1683223693,"current_range_meters":0,"station_id":"ce4bgpp2rcd13ifvqc3g","pricing_plan_id":"free"},{"bike_id":"2126899e-938b-4d9d-aa7e-ddfa547c0fe6","system_id":"levelo_inurba_marseille","lat":43.298433,"lon":5.362774,"is_reserved":false,"is_disabled":false,"rental_uris":{"android":"levelo://app?vid=2126899e-938b-4d9d-aa7e-ddfa547c0fe6","ios":"levelo://app?vid=2126899e-938b-4d9d-aa7e-ddfa547c0fe6"},"vehicle_type_id":"4","last_reported":1683223693,"current_range_meters":9200,"station_id":"ce4bgpp2rcd13ifvqc3g","pricing_plan_id":"free"},{"bike_id":"f6f0a2a4-95e5-4716-b821-a1366b6e6d54","system_id":"levelo_inurba_marseille","lat":43.305364,"lon":5.384119,"is_reserved":false,"is_disabled":false,"rental_uris":{"android":"levelo://app?vid=f6f0a2a4-95e5-4716-b821-a1366b6e6d54","ios":"levelo://app?vid=f6f0a2a4-95e5-4716-b821-a1366b6e6d54"},"vehicle_type_id":"4","last_reported":1683223693,"current_range_meters":13200,"station_id":"ce4bgg92rcd13ifvqb30","pricing_plan_id":"free"},{"bike_id":"37e4bc39-67e8-47b5-933c-303f25d1c01d","system_id":"levelo_inurba_marseille","lat":43.305362,"lon":5.384132,"is_reserved":false,"is_disabled":false,"rental_uris":{"android":"levelo://app?vid=37e4bc39-67e8-47b5-933c-303f25d1c01d","ios":"levelo://app?vid=37e4bc39-67e8-47b5-933c-303f25d1c01d"},"vehicle_type_id":"4","last_reported":1683223693,"current_range_meters":0,"station_id":"","pricing_plan_id":"free"},{"bike_id":"7df6754f-049b-4bce-87df-acecb9e214d0","system_id":"levelo_inurba_marseille","lat":43.298433,"lon":5.362774,"is_reserved":false,"is_disabled":false,"rental_uris":{"android":"levelo://app?vid=7df6754f-049b-4bce-87df-acecb9e214d0","ios":"levelo://app?vid=7df6754f-049b-4bce-87df-acecb9e214d0"},"vehicle_type_id":"4","last_reported":1683223693,"current_range_meters":23600,"station_id":"ce4bgpp2rcd13ifvqc3g","pricing_plan_id":"free"},{"bike_id":"890c4e71-d1b3-422f-9b04-c72d895376ff","system_id":"levelo_inurba_marseille","lat":43.298433,"lon":5.362774,"is_reserved":false,"is_disabled":false,"rental_uris":{"android":"levelo://app?vid=890c4e71-d1b3-422f-9b04-c72d895376ff","ios":"levelo://app?vid=890c4e71-d1b3-422f-9b04-c72d895376ff"},"vehicle_type_id":"4","last_reported":1683223693,"current_range_meters":28400,"station_id":"ce4bgpp2rcd13ifvqc3g","pricing_plan_id":"free"},{"bike_id":"fab296db-e362-43da-b057-838113958aba","system_id":"levelo_inurba_marseille","lat":43.29847,"lon":5.36283,"is_reserved":false,"is_disabled":false,"rental_uris":{"android":"levelo://app?vid=fab296db-e362-43da-b057-838113958aba","ios":"levelo://app?vid=fab296db-e362-43da-b057-838113958aba"},"vehicle_type_id":"4","last_reported":1683223693,"current_range_meters":6000,"station_id":"ce4bgpp2rcd13ifvqc3g","pricing_plan_id":"free"},{"bike_id":"8e69898d-b6cf-49c2-9f7d-4b6203da5352","system_id":"levelo_inurba_marseille","lat":43.298433,"lon":5.362774,"is_reserved":false,"is_disabled":false,"rental_uris":{"android":"levelo://app?vid=8e69898d-b6cf-49c2-9f7d-4b6203da5352","ios":"levelo://app?vid=8e69898d-b6cf-49c2-9f7d-4b6203da5352"},"vehicle_type_id":"4","last_reported":1683223693,"current_range_meters":8800,"station_id":"ce4bgpp2rcd13ifvqc3g","pricing_plan_id":"free"},{"bike_id":"20d09563-20f0-46cd-ba61-9b35f3ac4dff","system_id":"levelo_inurba_marseille","lat":43.298433,"lon":5.362774,"is_reserved":false,"is_disabled":false,"rental_uris":{"android":"levelo://app?vid=20d09563-20f0-46cd-ba61-9b35f3ac4dff","ios":"levelo://app?vid=20d09563-20f0-46cd-ba61-9b35f3ac4dff"},"vehicle_type_id":"4","last_reported":1683223693,"current_range_meters":17200,"station_id":"ce4bgpp2rcd13ifvqc3g","pricing_plan_id":"free"},{"bike_id":"588bacc1-a758-4a5e-963c-aada242ef6d1","system_id":"levelo_inurba_marseille","lat":43.305364,"lon":5.384119,"is_reserved":false,"is_disabled":false,"rental_uris":{"android":"levelo://app?vid=588bacc1-a758-4a5e-963c-aada242ef6d1","ios":"levelo://app?vid=588bacc1-a758-4a5e-963c-aada242ef6d1"},"vehicle_type_id":"4","last_reported":1683223693,"current_range_meters":2800,"station_id":"ce4bgg92rcd13ifvqb30","pricing_plan_id":"free"},{"bike_id":"80fc0c9c-88e4-4d9c-a6b1-096a80ab955a","system_id":"levelo_inurba_marseille","lat":43.298433,"lon":5.362774,"is_reserved":false,"is_disabled":false,"rental_uris":{"android":"levelo://app?vid=80fc0c9c-88e4-4d9c-a6b1-096a80ab955a","ios":"levelo://app?vid=80fc0c9c-88e4-4d9c-a6b1-096a80ab955a"},"vehicle_type_id":"4","last_reported":1683223693,"current_range_meters":31200,"station_id":"ce4bgpp2rcd13ifvqc3g","pricing_plan_id":"free"},{"bike_id":"1fc0b100-0ba9-48ad-8ca4-b0a4cd235887","system_id":"levelo_inurba_marseille","lat":43.298433,"lon":5.362774,"is_reserved":false,"is_disabled":false,"rental_uris":{"android":"levelo://app?vid=1fc0b100-0ba9-48ad-8ca4-b0a4cd235887","ios":"levelo://app?vid=1fc0b100-0ba9-48ad-8ca4-b0a4cd235887"},"vehicle_type_id":"4","last_reported":1683223693,"current_range_meters":31600,"station_id":"ce4bgpp2rcd13ifvqc3g","pricing_plan_id":"free"},{"bike_id":"6fa83ad0-93d5-4d78-9173-797e064ebf8d","system_id":"levelo_inurba_marseille","lat":43.298433,"lon":5.362774,"is_reserved":false,"is_disabled":false,"rental_uris":{"android":"levelo://app?vid=6fa83ad0-93d5-4d78-9173-797e064ebf8d","ios":"levelo://app?vid=6fa83ad0-93d5-4d78-9173-797e064ebf8d"},"vehicle_type_id":"4","last_reported":1683223693,"current_range_meters":31600,"station_id":"ce4bgpp2rcd13ifvqc3g","pricing_plan_id":"free"},{"bike_id":"c4c59a3f-b14f-48dd-978a-9131d47ae035","system_id":"levelo_inurba_marseille","lat":43.298433,"lon":5.362774,"is_reserved":false,"is_disabled":false,"rental_uris":{"android":"levelo://app?vid=c4c59a3f-b14f-48dd-978a-9131d47ae035","ios":"levelo://app?vid=c4c59a3f-b14f-48dd-978a-9131d47ae035"},"vehicle_type_id":"4","last_reported":1683223693,"current_range_meters":0,"station_id":"ce4bgpp2rcd13ifvqc3g","pricing_plan_id":"free"},{"bike_id":"7fd4f443-6fdd-45b1-ae33-f754095655a5","system_id":"levelo_inurba_marseille","lat":43.305364,"lon":5.384119,"is_reserved":false,"is_disabled":false,"rental_uris":{"android":"levelo://app?vid=7fd4f443-6fdd-45b1-ae33-f754095655a5","ios":"levelo://app?vid=7fd4f443-6fdd-45b1-ae33-f754095655a5"},"vehicle_type_id":"4","last_reported":1683223693,"current_range_meters":0,"station_id":"ce4bgg92rcd13ifvqb30","pricing_plan_id":"free"},{"bike_id":"28637eb1-f0d3-43e0-967f-0ba193eec489","system_id":"levelo_inurba_marseille","lat":43.298433,"lon":5.362774,"is_reserved":false,"is_disabled":false,"rental_uris":{"android":"levelo://app?vid=28637eb1-f0d3-43e0-967f-0ba193eec489","ios":"levelo://app?vid=28637eb1-f0d3-43e0-967f-0ba193eec489"},"vehicle_type_id":"4","last_reported":1683223693,"current_range_meters":31200,"station_id":"ce4bgpp2rcd13ifvqc3g","pricing_plan_id":"free"},{"bike_id":"d8287f92-a27f-48eb-8e63-e8bbeaeec553","system_id":"levelo_inurba_marseille","lat":43.311722,"lon":5.387247,"is_reserved":false,"is_disabled":false,"rental_uris":{"android":"levelo://app?vid=d8287f92-a27f-48eb-8e63-e8bbeaeec553","ios":"levelo://app?vid=d8287f92-a27f-48eb-8e63-e8bbeaeec553"},"vehicle_type_id":"4","last_reported":1683223693,"current_range_meters":21200,"station_id":"ce4bgv12rcd13ifvqcp0","pricing_plan_id":"free"},{"bike_id":"4121e4f0-c0a4-4745-a928-fa4a0417e90d","system_id":"levelo_inurba_marseille","lat":43.298433,"lon":5.362774,"is_reserved":false,"is_disabled":false,"rental_uris":{"android":"levelo://app?vid=4121e4f0-c0a4-4745-a928-fa4a0417e90d","ios":"levelo://app?vid=4121e4f0-c0a4-4745-a928-fa4a0417e90d"},"vehicle_type_id":"4","last_reported":1683223693,"current_range_meters":4000,"station_id":"ce4bgpp2rcd13ifvqc3g","pricing_plan_id":"free"},{"bike_id":"3348e9b1-6115-43bd-9e56-09645bd39b84","system_id":"levelo_inurba_marseille","lat":43.298433,"lon":5.362774,"is_reserved":false,"is_disabled":false,"rental_uris":{"android":"levelo://app?vid=3348e9b1-6115-43bd-9e56-09645bd39b84","ios":"levelo://app?vid=3348e9b1-6115-43bd-9e56-09645bd39b84"},"vehicle_type_id":"4","last_reported":1683223693,"current_range_meters":12800,"station_id":"ce4bgpp2rcd13ifvqc3g","pricing_plan_id":"free"},{"bike_id":"3b23f527-e678-42d3-a43e-61790f9a104d","system_id":"levelo_inurba_marseille","lat":43.311722,"lon":5.387247,"is_reserved":false,"is_disabled":false,"rental_uris":{"android":"levelo://app?vid=3b23f527-e678-42d3-a43e-61790f9a104d","ios":"levelo://app?vid=3b23f527-e678-42d3-a43e-61790f9a104d"},"vehicle_type_id":"4","last_reported":1683223693,"current_range_meters":8800,"station_id":"ce4bgv12rcd13ifvqcp0","pricing_plan_id":"free"},{"bike_id":"9a0489d3-5cce-4983-8f5e-7020c820e994","system_id":"levelo_inurba_marseille","lat":43.31178,"lon":5.3871,"is_reserved":false,"is_disabled":false,"rental_uris":{"android":"levelo://app?vid=9a0489d3-5cce-4983-8f5e-7020c820e994","ios":"levelo://app?vid=9a0489d3-5cce-4983-8f5e-7020c820e994"},"vehicle_type_id":"4","last_reported":1683223693,"current_range_meters":17200,"station_id":"ce4bgv12rcd13ifvqcp0","pricing_plan_id":"free"},{"bike_id":"3b9f4f77-5446-44d4-9b33-a03427699e3f","system_id":"levelo_inurba_marseille","lat":43.31166,"lon":5.38709,"is_reserved":false,"is_disabled":false,"rental_uris":{"android":"levelo://app?vid=3b9f4f77-5446-44d4-9b33-a03427699e3f","ios":"levelo://app?vid=3b9f4f77-5446-44d4-9b33-a03427699e3f"},"vehicle_type_id":"4","last_reported":1683223693,"current_range_meters":7200,"station_id":"ce4bgv12rcd13ifvqcp0","pricing_plan_id":"free"},{"bike_id":"87d34810-9c9a-4874-b716-86f59cfef23e","system_id":"levelo_inurba_marseille","lat":43.311722,"lon":5.387247,"is_reserved":false,"is_disabled":false,"rental_uris":{"android":"levelo://app?vid=87d34810-9c9a-4874-b716-86f59cfef23e","ios":"levelo://app?vid=87d34810-9c9a-4874-b716-86f59cfef23e"},"vehicle_type_id":"4","last_reported":1683223693,"current_range_meters":12000,"station_id":"ce4bgv12rcd13ifvqcp0","pricing_plan_id":"free"},{"bike_id":"b7d47179-9d58-4be4-bc71-c6b1dd94a3d8","system_id":"levelo_inurba_marseille","lat":43.311722,"lon":5.387247,"is_reserved":false,"is_disabled":false,"rental_uris":{"android":"levelo://app?vid=b7d47179-9d58-4be4-bc71-c6b1dd94a3d8","ios":"levelo://app?vid=b7d47179-9d58-4be4-bc71-c6b1dd94a3d8"},"vehicle_type_id":"4","last_reported":1683223693,"current_range_meters":28000,"station_id":"ce4bgv12rcd13ifvqcp0","pricing_plan_id":"free"},{"bike_id":"0a93fc6e-cb9e-43e4-af70-dd53dfa0a173","system_id":"levelo_inurba_marseille","lat":43.311722,"lon":5.387247,"is_reserved":false,"is_disabled":false,"rental_uris":{"android":"levelo://app?vid=0a93fc6e-cb9e-43e4-af70-dd53dfa0a173","ios":"levelo://app?vid=0a93fc6e-cb9e-43e4-af70-dd53dfa0a173"},"vehicle_type_id":"4","last_reported":1683223693,"current_range_meters":15600,"station_id":"ce4bgv12rcd13ifvqcp0","pricing_plan_id":"free"},{"bike_id":"ce01887a-f6ca-48c0-8c8b-1729d411b736","system_id":"levelo_inurba_marseille","lat":43.311722,"lon":5.387247,"is_reserved":false,"is_disabled":false,"rental_uris":{"android":"levelo://app?vid=ce01887a-f6ca-48c0-8c8b-1729d411b736","ios":"levelo://app?vid=ce01887a-f6ca-48c0-8c8b-1729d411b736"},"vehicle_type_id":"4","last_reported":1683223693,"current_range_meters":2800,"station_id":"ce4bgv12rcd13ifvqcp0","pricing_plan_id":"free"},{"bike_id":"288e27e1-d660-4438-947d-c610066e42e0","system_id":"levelo_inurba_marseille","lat":43.31178,"lon":5.38716,"is_reserved":false,"is_disabled":false,"rental_uris":{"android":"levelo://app?vid=288e27e1-d660-4438-947d-c610066e42e0","ios":"levelo://app?vid=288e27e1-d660-4438-947d-c610066e42e0"},"vehicle_type_id":"4","last_reported":1683223693,"current_range_meters":4000,"station_id":"ce4bgv12rcd13ifvqcp0","pricing_plan_id":"free"},{"bike_id":"cd920a08-2522-4aa6-8b06-f1e9323a3315","system_id":"levelo_inurba_marseille","lat":43.311722,"lon":5.387247,"is_reserved":false,"is_disabled":false,"rental_uris":{"android":"levelo://app?vid=cd920a08-2522-4aa6-8b06-f1e9323a3315","ios":"levelo://app?vid=cd920a08-2522-4aa6-8b06-f1e9323a3315"},"vehicle_type_id":"4","last_reported":1683223693,"current_range_meters":24400,"station_id":"ce4bgv12rcd13ifvqcp0","pricing_plan_id":"free"},{"bike_id":"5cf214af-9c90-408c-9e16-4a5ded039c48","system_id":"levelo_inurba_marseille","lat":43.311722,"lon":5.387247,"is_reserved":false,"is_disabled":false,"rental_uris":{"android":"levelo://app?vid=5cf214af-9c90-408c-9e16-4a5ded039c48","ios":"levelo://app?vid=5cf214af-9c90-408c-9e16-4a5ded039c48"},"vehicle_type_id":"4","last_reported":1683223693,"current_range_meters":20400,"station_id":"ce4bgv12rcd13ifvqcp0","pricing_plan_id":"free"},{"bike_id":"88676eb3-8d3e-4169-871b-d390d60d498b","system_id":"levelo_inurba_marseille","lat":43.311722,"lon":5.387247,"is_reserved":false,"is_disabled":false,"rental_uris":{"android":"levelo://app?vid=88676eb3-8d3e-4169-871b-d390d60d498b","ios":"levelo://app?vid=88676eb3-8d3e-4169-871b-d390d60d498b"},"vehicle_type_id":"4","last_reported":1683223693,"current_range_meters":8000,"station_id":"ce4bgv12rcd13ifvqcp0","pricing_plan_id":"free"},{"bike_id":"0a0bc31f-4cd5-4b54-be14-9a7eca7ef79f","system_id":"levelo_inurba_marseille","lat":43.311722,"lon":5.387247,"is_reserved":false,"is_disabled":false,"rental_uris":{"android":"levelo://app?vid=0a0bc31f-4cd5-4b54-be14-9a7eca7ef79f","ios":"levelo://app?vid=0a0bc31f-4cd5-4b54-be14-9a7eca7ef79f"},"vehicle_type_id":"4","last_reported":1683223693,"current_range_meters":400,"station_id":"ce4bgv12rcd13ifvqcp0","pricing_plan_id":"free"},{"bike_id":"da9eb64f-24bd-4f40-8b8b-de51c2497ea3","system_id":"levelo_inurba_marseille","lat":43.311722,"lon":5.387247,"is_reserved":false,"is_disabled":false,"rental_uris":{"android":"levelo://app?vid=da9eb64f-24bd-4f40-8b8b-de51c2497ea3","ios":"levelo://app?vid=da9eb64f-24bd-4f40-8b8b-de51c2497ea3"},"vehicle_type_id":"4","last_reported":1683223693,"current_range_meters":18800,"station_id":"ce4bgv12rcd13ifvqcp0","pricing_plan_id":"free"},{"bike_id":"c1a42d12-6a3e-4e52-94de-f99c658a99aa","system_id":"levelo_inurba_marseille","lat":43.311722,"lon":5.387247,"is_reserved":false,"is_disabled":false,"rental_uris":{"android":"levelo://app?vid=c1a42d12-6a3e-4e52-94de-f99c658a99aa","ios":"levelo://app?vid=c1a42d12-6a3e-4e52-94de-f99c658a99aa"},"vehicle_type_id":"4","last_reported":1683223693,"current_range_meters":25600,"station_id":"ce4bgv12rcd13ifvqcp0","pricing_plan_id":"free"},{"bike_id":"c520cdc8-8b6c-4e23-bc3b-9bbb94f865f3","system_id":"levelo_inurba_marseille","lat":43.299243,"lon":5.37481,"is_reserved":false,"is_disabled":false,"rental_uris":{"android":"levelo://app?vid=c520cdc8-8b6c-4e23-bc3b-9bbb94f865f3","ios":"levelo://app?vid=c520cdc8-8b6c-4e23-bc3b-9bbb94f865f3"},"vehicle_type_id":"4","last_reported":1683223693,"current_range_meters":14000,"station_id":"ce4bgjh2rcd13ifvqbg0","pricing_plan_id":"free"},{"bike_id":"86de5478-40cd-4c37-92aa-a002fc27c75d","system_id":"levelo_inurba_marseille","lat":43.311722,"lon":5.387247,"is_reserved":false,"is_disabled":false,"rental_uris":{"android":"levelo://app?vid=86de5478-40cd-4c37-92aa-a002fc27c75d","ios":"levelo://app?vid=86de5478-40cd-4c37-92aa-a002fc27c75d"},"vehicle_type_id":"4","last_reported":1683223693,"current_range_meters":18000,"station_id":"ce4bgv12rcd13ifvqcp0","pricing_plan_id":"free"},{"bike_id":"537df5ab-3907-4991-94fb-3a3a88adb6af","system_id":"levelo_inurba_marseille","lat":43.31167,"lon":5.38724,"is_reserved":false,"is_disabled":false,"rental_uris":{"android":"levelo://app?vid=537df5ab-3907-4991-94fb-3a3a88adb6af","ios":"levelo://app?vid=537df5ab-3907-4991-94fb-3a3a88adb6af"},"vehicle_type_id":"4","last_reported":1683223693,"current_range_meters":18000,"station_id":"ce4bgv12rcd13ifvqcp0","pricing_plan_id":"free"},{"bike_id":"ea4f8c58-534b-47e5-ba44-db8bdb0a94f1","system_id":"levelo_inurba_marseille","lat":43.311722,"lon":5.387247,"is_reserved":false,"is_disabled":false,"rental_uris":{"android":"levelo://app?vid=ea4f8c58-534b-47e5-ba44-db8bdb0a94f1","ios":"levelo://app?vid=ea4f8c58-534b-47e5-ba44-db8bdb0a94f1"},"vehicle_type_id":"4","last_reported":1683223693,"current_range_meters":20800,"station_id":"ce4bgv12rcd13ifvqcp0","pricing_plan_id":"free"},{"bike_id":"22f731ce-3285-4aec-91a5-352b67f7f0c7","system_id":"levelo_inurba_marseille","lat":43.31165,"lon":5.38727,"is_reserved":false,"is_disabled":false,"rental_uris":{"android":"levelo://app?vid=22f731ce-3285-4aec-91a5-352b67f7f0c7","ios":"levelo://app?vid=22f731ce-3285-4aec-91a5-352b67f7f0c7"},"vehicle_type_id":"4","last_reported":1683223693,"current_range_meters":19200,"station_id":"ce4bgv12rcd13ifvqcp0","pricing_plan_id":"free"},{"bike_id":"a9141f8b-4a5c-439f-a2e2-690dafab6744","system_id":"levelo_inurba_marseille","lat":43.297794,"lon":5.370888,"is_reserved":false,"is_disabled":false,"rental_uris":{"android":"levelo://app?vid=a9141f8b-4a5c-439f-a2e2-690dafab6744","ios":"levelo://app?vid=a9141f8b-4a5c-439f-a2e2-690dafab6744"},"vehicle_type_id":"4","last_reported":1683223693,"current_range_meters":31200,"station_id":"ce4bgop2rcd13ifvqc1g","pricing_plan_id":"free"},{"bike_id":"cd998222-1c71-4e64-92f8-564a341ba451","system_id":"levelo_inurba_marseille","lat":43.297774,"lon":5.370875,"is_reserved":false,"is_disabled":false,"rental_uris":{"android":"levelo://app?vid=cd998222-1c71-4e64-92f8-564a341ba451","ios":"levelo://app?vid=cd998222-1c71-4e64-92f8-564a341ba451"},"vehicle_type_id":"4","last_reported":1683223693,"current_range_meters":8400,"station_id":"ce4bgop2rcd13ifvqc1g","pricing_plan_id":"free"},{"bike_id":"786c6af0-ad08-4c5e-a6bb-ba317ba2ebf6","system_id":"levelo_inurba_marseille","lat":43.297774,"lon":5.370875,"is_reserved":false,"is_disabled":false,"rental_uris":{"android":"levelo://app?vid=786c6af0-ad08-4c5e-a6bb-ba317ba2ebf6","ios":"levelo://app?vid=786c6af0-ad08-4c5e-a6bb-ba317ba2ebf6"},"vehicle_type_id":"4","last_reported":1683223693,"current_range_meters":18800,"station_id":"ce4bgop2rcd13ifvqc1g","pricing_plan_id":"free"},{"bike_id":"ba5db858-af31-4cfe-99ff-47f4995f3617","system_id":"levelo_inurba_marseille","lat":43.32829,"lon":5.36679,"is_reserved":false,"is_disabled":false,"rental_uris":{"android":"levelo://app?vid=ba5db858-af31-4cfe-99ff-47f4995f3617","ios":"levelo://app?vid=ba5db858-af31-4cfe-99ff-47f4995f3617"},"vehicle_type_id":"4","last_reported":1683223693,"current_range_meters":22800,"station_id":"ce4bhs92rcd13ifvqi0g","pricing_plan_id":"free"},{"bike_id":"9f8e3a9b-22d0-4019-9a73-4dcf0ba03bca","system_id":"levelo_inurba_marseille","lat":43.32829,"lon":5.36675,"is_reserved":false,"is_disabled":false,"rental_uris":{"android":"levelo://app?vid=9f8e3a9b-22d0-4019-9a73-4dcf0ba03bca","ios":"levelo://app?vid=9f8e3a9b-22d0-4019-9a73-4dcf0ba03bca"},"vehicle_type_id":"4","last_reported":1683223693,"current_range_meters":30000,"station_id":"ce4bhs92rcd13ifvqi0g","pricing_plan_id":"free"},{"bike_id":"52b005a4-3b96-4612-9639-b54a043e178a","system_id":"levelo_inurba_marseille","lat":43.32831,"lon":5.36685,"is_reserved":false,"is_disabled":false,"rental_uris":{"android":"levelo://app?vid=52b005a4-3b96-4612-9639-b54a043e178a","ios":"levelo://app?vid=52b005a4-3b96-4612-9639-b54a043e178a"},"vehicle_type_id":"4","last_reported":1683223693,"current_range_meters":23200,"station_id":"ce4bhs92rcd13ifvqi0g","pricing_plan_id":"free"},{"bike_id":"1886fcb6-c856-40e4-9d68-95e9cecf7514","system_id":"levelo_inurba_marseille","lat":43.32835,"lon":5.36683,"is_reserved":false,"is_disabled":false,"rental_uris":{"android":"levelo://app?vid=1886fcb6-c856-40e4-9d68-95e9cecf7514","ios":"levelo://app?vid=1886fcb6-c856-40e4-9d68-95e9cecf7514"},"vehicle_type_id":"4","last_reported":1683223693,"current_range_meters":20800,"station_id":"ce4bhs92rcd13ifvqi0g","pricing_plan_id":"free"},{"bike_id":"a02e4c11-9b4c-45b9-84b7-d2d9f95ba5ec","system_id":"levelo_inurba_marseille","lat":43.32837,"lon":5.36689,"is_reserved":false,"is_disabled":false,"rental_uris":{"android":"levelo://app?vid=a02e4c11-9b4c-45b9-84b7-d2d9f95ba5ec","ios":"levelo://app?vid=a02e4c11-9b4c-45b9-84b7-d2d9f95ba5ec"},"vehicle_type_id":"4","last_reported":1683223693,"current_range_meters":30400,"station_id":"ce4bhs92rcd13ifvqi0g","pricing_plan_id":"free"},{"bike_id":"fc2e6eba-93d8-42b3-8248-f447c2f1bdc8","system_id":"levelo_inurba_marseille","lat":43.328371,"lon":5.366909,"is_reserved":false,"is_disabled":false,"rental_uris":{"android":"levelo://app?vid=fc2e6eba-93d8-42b3-8248-f447c2f1bdc8","ios":"levelo://app?vid=fc2e6eba-93d8-42b3-8248-f447c2f1bdc8"},"vehicle_type_id":"4","last_reported":1683223693,"current_range_meters":10800,"station_id":"ce4bhs92rcd13ifvqi0g","pricing_plan_id":"free"},{"bike_id":"aafcc005-5e38-4c52-a10d-6d0f89f0012b","system_id":"levelo_inurba_marseille","lat":43.302008,"lon":5.394694,"is_reserved":false,"is_disabled":false,"rental_uris":{"android":"levelo://app?vid=aafcc005-5e38-4c52-a10d-6d0f89f0012b","ios":"levelo://app?vid=aafcc005-5e38-4c52-a10d-6d0f89f0012b"},"vehicle_type_id":"4","last_reported":1683223693,"current_range_meters":14800,"station_id":"ce4bh0p2rcd13ifvqd70","pricing_plan_id":"free"},{"bike_id":"8e12923e-8032-4c28-846b-dd659f52f533","system_id":"levelo_inurba_marseille","lat":43.29573,"lon":5.367355,"is_reserved":false,"is_disabled":false,"rental_uris":{"android":"levelo://app?vid=8e12923e-8032-4c28-846b-dd659f52f533","ios":"levelo://app?vid=8e12923e-8032-4c28-846b-dd659f52f533"},"vehicle_type_id":"4","last_reported":1683223693,"current_range_meters":2800,"station_id":"ce4bgph2rcd13ifvqc2g","pricing_plan_id":"free"},{"bike_id":"7b5a632b-c1bd-4f0a-9d05-cc8b10fa581b","system_id":"levelo_inurba_marseille","lat":43.296129,"lon":5.370777,"is_reserved":false,"is_disabled":false,"rental_uris":{"android":"levelo://app?vid=7b5a632b-c1bd-4f0a-9d05-cc8b10fa581b","ios":"levelo://app?vid=7b5a632b-c1bd-4f0a-9d05-cc8b10fa581b"},"vehicle_type_id":"4","last_reported":1683223693,"current_range_meters":23200,"station_id":"ce4bgnh2rcd13ifvqc0g","pricing_plan_id":"free"},{"bike_id":"09ea21f6-40c0-46fc-8c54-cc058a1762ab","system_id":"levelo_inurba_marseille","lat":43.296131,"lon":5.370791,"is_reserved":false,"is_disabled":false,"rental_uris":{"android":"levelo://app?vid=09ea21f6-40c0-46fc-8c54-cc058a1762ab","ios":"levelo://app?vid=09ea21f6-40c0-46fc-8c54-cc058a1762ab"},"vehicle_type_id":"4","last_reported":1683223693,"current_range_meters":30000,"station_id":"ce4bgnh2rcd13ifvqc0g","pricing_plan_id":"free"},{"bike_id":"31b84abd-ba58-429c-bc53-3cf7073ea395","system_id":"levelo_inurba_marseille","lat":43.309589,"lon":5.390258,"is_reserved":false,"is_disabled":false,"rental_uris":{"android":"levelo://app?vid=31b84abd-ba58-429c-bc53-3cf7073ea395","ios":"levelo://app?vid=31b84abd-ba58-429c-bc53-3cf7073ea395"},"vehicle_type_id":"4","last_reported":1683223693,"current_range_meters":16400,"station_id":"ce4bgup2rcd13ifvqco0","pricing_plan_id":"free"},{"bike_id":"8d2469fb-0057-4be7-8a68-047952d2a95b","system_id":"levelo_inurba_marseille","lat":43.29904,"lon":5.3814,"is_reserved":false,"is_disabled":false,"rental_uris":{"android":"levelo://app?vid=8d2469fb-0057-4be7-8a68-047952d2a95b","ios":"levelo://app?vid=8d2469fb-0057-4be7-8a68-047952d2a95b"},"vehicle_type_id":"4","last_reported":1683223693,"current_range_meters":2800,"station_id":"ce4bgj12rcd13ifvqbc0","pricing_plan_id":"free"},{"bike_id":"0000ae96-ea20-42d0-840d-0b7771f154df","system_id":"levelo_inurba_marseille","lat":43.299028,"lon":5.381509,"is_reserved":false,"is_disabled":false,"rental_uris":{"android":"levelo://app?vid=0000ae96-ea20-42d0-840d-0b7771f154df","ios":"levelo://app?vid=0000ae96-ea20-42d0-840d-0b7771f154df"},"vehicle_type_id":"4","last_reported":1683223693,"current_range_meters":5200,"station_id":"ce4bgj12rcd13ifvqbc0","pricing_plan_id":"free"},{"bike_id":"d39e41c2-982e-4a4f-890e-c9c2ef905749","system_id":"levelo_inurba_marseille","lat":43.309589,"lon":5.390258,"is_reserved":false,"is_disabled":false,"rental_uris":{"android":"levelo://app?vid=d39e41c2-982e-4a4f-890e-c9c2ef905749","ios":"levelo://app?vid=d39e41c2-982e-4a4f-890e-c9c2ef905749"},"vehicle_type_id":"4","last_reported":1683223693,"current_range_meters":7200,"station_id":"ce4bgup2rcd13ifvqco0","pricing_plan_id":"free"},{"bike_id":"850f3415-243a-40cf-88c6-0208ca3ce41e","system_id":"levelo_inurba_marseille","lat":43.309589,"lon":5.390258,"is_reserved":false,"is_disabled":false,"rental_uris":{"android":"levelo://app?vid=850f3415-243a-40cf-88c6-0208ca3ce41e","ios":"levelo://app?vid=850f3415-243a-40cf-88c6-0208ca3ce41e"},"vehicle_type_id":"4","last_reported":1683223693,"current_range_meters":11600,"station_id":"ce4bgup2rcd13ifvqco0","pricing_plan_id":"free"},{"bike_id":"583b91e1-9b0d-414c-b35f-952b24b7a60d","system_id":"levelo_inurba_marseille","lat":43.30948,"lon":5.39034,"is_reserved":false,"is_disabled":false,"rental_uris":{"android":"levelo://app?vid=583b91e1-9b0d-414c-b35f-952b24b7a60d","ios":"levelo://app?vid=583b91e1-9b0d-414c-b35f-952b24b7a60d"},"vehicle_type_id":"4","last_reported":1683223693,"current_range_meters":13600,"station_id":"ce4bgup2rcd13ifvqco0","pricing_plan_id":"free"},{"bike_id":"552d60e4-0aac-4ee9-8522-afdff070aafe","system_id":"levelo_inurba_marseille","lat":43.309589,"lon":5.390258,"is_reserved":false,"is_disabled":false,"rental_uris":{"android":"levelo://app?vid=552d60e4-0aac-4ee9-8522-afdff070aafe","ios":"levelo://app?vid=552d60e4-0aac-4ee9-8522-afdff070aafe"},"vehicle_type_id":"4","last_reported":1683223693,"current_range_meters":24400,"station_id":"ce4bgup2rcd13ifvqco0","pricing_plan_id":"free"},{"bike_id":"1db7a6d6-3763-490b-b627-c34f7397cf32","system_id":"levelo_inurba_marseille","lat":43.30951,"lon":5.39037,"is_reserved":false,"is_disabled":false,"rental_uris":{"android":"levelo://app?vid=1db7a6d6-3763-490b-b627-c34f7397cf32","ios":"levelo://app?vid=1db7a6d6-3763-490b-b627-c34f7397cf32"},"vehicle_type_id":"4","last_reported":1683223693,"current_range_meters":14000,"station_id":"ce4bgup2rcd13ifvqco0","pricing_plan_id":"free"},{"bike_id":"b14cac10-0b7d-42c6-b4cf-11b4a5a6eb6c","system_id":"levelo_inurba_marseille","lat":43.309589,"lon":5.390258,"is_reserved":false,"is_disabled":false,"rental_uris":{"android":"levelo://app?vid=b14cac10-0b7d-42c6-b4cf-11b4a5a6eb6c","ios":"levelo://app?vid=b14cac10-0b7d-42c6-b4cf-11b4a5a6eb6c"},"vehicle_type_id":"4","last_reported":1683223693,"current_range_meters":28400,"station_id":"ce4bgup2rcd13ifvqco0","pricing_plan_id":"free"},{"bike_id":"ea83aec1-3199-4c66-ab05-745a7d174300","system_id":"levelo_inurba_marseille","lat":43.30958,"lon":5.39041,"is_reserved":false,"is_disabled":false,"rental_uris":{"android":"levelo://app?vid=ea83aec1-3199-4c66-ab05-745a7d174300","ios":"levelo://app?vid=ea83aec1-3199-4c66-ab05-745a7d174300"},"vehicle_type_id":"4","last_reported":1683223693,"current_range_meters":27600,"station_id":"ce4bgup2rcd13ifvqco0","pricing_plan_id":"free"},{"bike_id":"a3d1fd8d-a828-417a-b533-e8dbd76d28ec","system_id":"levelo_inurba_marseille","lat":43.30952,"lon":5.3904,"is_reserved":false,"is_disabled":false,"rental_uris":{"android":"levelo://app?vid=a3d1fd8d-a828-417a-b533-e8dbd76d28ec","ios":"levelo://app?vid=a3d1fd8d-a828-417a-b533-e8dbd76d28ec"},"vehicle_type_id":"4","last_reported":1683223693,"current_range_meters":6400,"station_id":"ce4bgup2rcd13ifvqco0","pricing_plan_id":"free"},{"bike_id":"16c9747b-2fa2-4dc8-8433-33503394b514","system_id":"levelo_inurba_marseille","lat":43.30951,"lon":5.3904,"is_reserved":false,"is_disabled":false,"rental_uris":{"android":"levelo://app?vid=16c9747b-2fa2-4dc8-8433-33503394b514","ios":"levelo://app?vid=16c9747b-2fa2-4dc8-8433-33503394b514"},"vehicle_type_id":"4","last_reported":1683223693,"current_range_meters":2000,"station_id":"ce4bgup2rcd13ifvqco0","pricing_plan_id":"free"},{"bike_id":"e8698781-2652-4009-bb1f-179e5b822415","system_id":"levelo_inurba_marseille","lat":43.309589,"lon":5.390258,"is_reserved":false,"is_disabled":false,"rental_uris":{"android":"levelo://app?vid=e8698781-2652-4009-bb1f-179e5b822415","ios":"levelo://app?vid=e8698781-2652-4009-bb1f-179e5b822415"},"vehicle_type_id":"4","last_reported":1683223693,"current_range_meters":23600,"station_id":"ce4bgup2rcd13ifvqco0","pricing_plan_id":"free"},{"bike_id":"22882dae-bfeb-442d-b42e-1874a9a0c262","system_id":"levelo_inurba_marseille","lat":43.3095,"lon":5.3904,"is_reserved":false,"is_disabled":false,"rental_uris":{"android":"levelo://app?vid=22882dae-bfeb-442d-b42e-1874a9a0c262","ios":"levelo://app?vid=22882dae-bfeb-442d-b42e-1874a9a0c262"},"vehicle_type_id":"4","last_reported":1683223693,"current_range_meters":30400,"station_id":"ce4bgup2rcd13ifvqco0","pricing_plan_id":"free"},{"bike_id":"8e1250be-c1cc-49a0-a1e2-7d598feddb76","system_id":"levelo_inurba_marseille","lat":43.309589,"lon":5.390258,"is_reserved":false,"is_disabled":false,"rental_uris":{"android":"levelo://app?vid=8e1250be-c1cc-49a0-a1e2-7d598feddb76","ios":"levelo://app?vid=8e1250be-c1cc-49a0-a1e2-7d598feddb76"},"vehicle_type_id":"4","last_reported":1683223693,"current_range_meters":8400,"station_id":"ce4bgup2rcd13ifvqco0","pricing_plan_id":"free"},{"bike_id":"55aaed2a-453f-4781-973f-a64eefa1860f","system_id":"levelo_inurba_marseille","lat":43.309589,"lon":5.390258,"is_reserved":false,"is_disabled":false,"rental_uris":{"android":"levelo://app?vid=55aaed2a-453f-4781-973f-a64eefa1860f","ios":"levelo://app?vid=55aaed2a-453f-4781-973f-a64eefa1860f"},"vehicle_type_id":"4","last_reported":1683223693,"current_range_meters":8000,"station_id":"ce4bgup2rcd13ifvqco0","pricing_plan_id":"free"},{"bike_id":"05ff7cf5-76f4-4e6e-be93-3eaa2588cda7","system_id":"levelo_inurba_marseille","lat":43.309589,"lon":5.390258,"is_reserved":false,"is_disabled":false,"rental_uris":{"android":"levelo://app?vid=05ff7cf5-76f4-4e6e-be93-3eaa2588cda7","ios":"levelo://app?vid=05ff7cf5-76f4-4e6e-be93-3eaa2588cda7"},"vehicle_type_id":"4","last_reported":1683223693,"current_range_meters":23200,"station_id":"ce4bgup2rcd13ifvqco0","pricing_plan_id":"free"},{"bike_id":"e2febc11-3c61-4b26-bbae-b5b63b4642bd","system_id":"levelo_inurba_marseille","lat":43.30949,"lon":5.39041,"is_reserved":false,"is_disabled":false,"rental_uris":{"android":"levelo://app?vid=e2febc11-3c61-4b26-bbae-b5b63b4642bd","ios":"levelo://app?vid=e2febc11-3c61-4b26-bbae-b5b63b4642bd"},"vehicle_type_id":"4","last_reported":1683223693,"current_range_meters":10800,"station_id":"ce4bgup2rcd13ifvqco0","pricing_plan_id":"free"},{"bike_id":"8257c10b-a521-4528-b36f-93249207ed04","system_id":"levelo_inurba_marseille","lat":43.30948,"lon":5.39041,"is_reserved":false,"is_disabled":false,"rental_uris":{"android":"levelo://app?vid=8257c10b-a521-4528-b36f-93249207ed04","ios":"levelo://app?vid=8257c10b-a521-4528-b36f-93249207ed04"},"vehicle_type_id":"4","last_reported":1683223693,"current_range_meters":16000,"station_id":"ce4bgup2rcd13ifvqco0","pricing_plan_id":"free"},{"bike_id":"96da7952-7c72-4567-9d7d-ea146001ad20","system_id":"levelo_inurba_marseille","lat":43.30948,"lon":5.39041,"is_reserved":false,"is_disabled":false,"rental_uris":{"android":"levelo://app?vid=96da7952-7c72-4567-9d7d-ea146001ad20","ios":"levelo://app?vid=96da7952-7c72-4567-9d7d-ea146001ad20"},"vehicle_type_id":"4","last_reported":1683223693,"current_range_meters":6000,"station_id":"ce4bgup2rcd13ifvqco0","pricing_plan_id":"free"},{"bike_id":"5c77b85b-e635-424a-ad99-5fea11856bdd","system_id":"levelo_inurba_marseille","lat":43.309589,"lon":5.390258,"is_reserved":false,"is_disabled":false,"rental_uris":{"android":"levelo://app?vid=5c77b85b-e635-424a-ad99-5fea11856bdd","ios":"levelo://app?vid=5c77b85b-e635-424a-ad99-5fea11856bdd"},"vehicle_type_id":"4","last_reported":1683223693,"current_range_meters":4800,"station_id":"ce4bgup2rcd13ifvqco0","pricing_plan_id":"free"},{"bike_id":"eb4cba26-ff4b-4d67-b223-e1a555ff043f","system_id":"levelo_inurba_marseille","lat":43.309365,"lon":5.390395,"is_reserved":false,"is_disabled":false,"rental_uris":{"android":"levelo://app?vid=eb4cba26-ff4b-4d67-b223-e1a555ff043f","ios":"levelo://app?vid=eb4cba26-ff4b-4d67-b223-e1a555ff043f"},"vehicle_type_id":"4","last_reported":1683223693,"current_range_meters":26000,"station_id":"ce4bgup2rcd13ifvqco0","pricing_plan_id":"free"},{"bike_id":"440cfa00-feef-4f1d-ae48-2939b74ea9ad","system_id":"levelo_inurba_marseille","lat":43.30949,"lon":5.39044,"is_reserved":false,"is_disabled":false,"rental_uris":{"android":"levelo://app?vid=440cfa00-feef-4f1d-ae48-2939b74ea9ad","ios":"levelo://app?vid=440cfa00-feef-4f1d-ae48-2939b74ea9ad"},"vehicle_type_id":"4","last_reported":1683223693,"current_range_meters":14800,"station_id":"ce4bgup2rcd13ifvqco0","pricing_plan_id":"free"},{"bike_id":"99726dfd-3c24-4433-9abb-6ca8a0887e3f","system_id":"levelo_inurba_marseille","lat":43.30949,"lon":5.39047,"is_reserved":false,"is_disabled":false,"rental_uris":{"android":"levelo://app?vid=99726dfd-3c24-4433-9abb-6ca8a0887e3f","ios":"levelo://app?vid=99726dfd-3c24-4433-9abb-6ca8a0887e3f"},"vehicle_type_id":"4","last_reported":1683223693,"current_range_meters":21600,"station_id":"ce4bgup2rcd13ifvqco0","pricing_plan_id":"free"},{"bike_id":"da779eb0-921d-4d63-88a3-cb8caa706b09","system_id":"levelo_inurba_marseille","lat":43.30948,"lon":5.39048,"is_reserved":false,"is_disabled":false,"rental_uris":{"android":"levelo://app?vid=da779eb0-921d-4d63-88a3-cb8caa706b09","ios":"levelo://app?vid=da779eb0-921d-4d63-88a3-cb8caa706b09"},"vehicle_type_id":"4","last_reported":1683223693,"current_range_meters":2800,"station_id":"ce4bgup2rcd13ifvqco0","pricing_plan_id":"free"},{"bike_id":"85564b8b-bb87-46a4-9254-11ddd113cb79","system_id":"levelo_inurba_marseille","lat":43.30951,"lon":5.39049,"is_reserved":false,"is_disabled":false,"rental_uris":{"android":"levelo://app?vid=85564b8b-bb87-46a4-9254-11ddd113cb79","ios":"levelo://app?vid=85564b8b-bb87-46a4-9254-11ddd113cb79"},"vehicle_type_id":"4","last_reported":1683223693,"current_range_meters":18000,"station_id":"ce4bgup2rcd13ifvqco0","pricing_plan_id":"free"},{"bike_id":"e25a6a3b-b55c-461b-9a34-a1d24684db4f","system_id":"levelo_inurba_marseille","lat":43.30949,"lon":5.39051,"is_reserved":false,"is_disabled":false,"rental_uris":{"android":"levelo://app?vid=e25a6a3b-b55c-461b-9a34-a1d24684db4f","ios":"levelo://app?vid=e25a6a3b-b55c-461b-9a34-a1d24684db4f"},"vehicle_type_id":"4","last_reported":1683223693,"current_range_meters":19200,"station_id":"ce4bgup2rcd13ifvqco0","pricing_plan_id":"free"},{"bike_id":"04cd7453-357b-4795-a5f2-3db5539bf1ab","system_id":"levelo_inurba_marseille","lat":43.30951,"lon":5.39057,"is_reserved":false,"is_disabled":false,"rental_uris":{"android":"levelo://app?vid=04cd7453-357b-4795-a5f2-3db5539bf1ab","ios":"levelo://app?vid=04cd7453-357b-4795-a5f2-3db5539bf1ab"},"vehicle_type_id":"4","last_reported":1683223693,"current_range_meters":30800,"station_id":"ce4bgup2rcd13ifvqco0","pricing_plan_id":"free"},{"bike_id":"c3b8210a-d4a1-4a25-8bb3-7ad7f39115f7","system_id":"levelo_inurba_marseille","lat":43.31755,"lon":5.39011,"is_reserved":false,"is_disabled":false,"rental_uris":{"android":"levelo://app?vid=c3b8210a-d4a1-4a25-8bb3-7ad7f39115f7","ios":"levelo://app?vid=c3b8210a-d4a1-4a25-8bb3-7ad7f39115f7"},"vehicle_type_id":"4","last_reported":1683223693,"current_range_meters":8000,"station_id":"ce4bhqp2rcd13ifvqhng","pricing_plan_id":"free"},{"bike_id":"66696e3c-0692-42c1-9f12-58a4b142f4c6","system_id":"levelo_inurba_marseille","lat":43.317557,"lon":5.390173,"is_reserved":false,"is_disabled":false,"rental_uris":{"android":"levelo://app?vid=66696e3c-0692-42c1-9f12-58a4b142f4c6","ios":"levelo://app?vid=66696e3c-0692-42c1-9f12-58a4b142f4c6"},"vehicle_type_id":"4","last_reported":1683223693,"current_range_meters":26800,"station_id":"ce4bhqp2rcd13ifvqhng","pricing_plan_id":"free"},{"bike_id":"e8b9a2d6-0a3b-46b0-bd3b-f2c12574d931","system_id":"levelo_inurba_marseille","lat":43.317557,"lon":5.390173,"is_reserved":false,"is_disabled":false,"rental_uris":{"android":"levelo://app?vid=e8b9a2d6-0a3b-46b0-bd3b-f2c12574d931","ios":"levelo://app?vid=e8b9a2d6-0a3b-46b0-bd3b-f2c12574d931"},"vehicle_type_id":"4","last_reported":1683223693,"current_range_meters":0,"station_id":"ce4bhqp2rcd13ifvqhng","pricing_plan_id":"free"},{"bike_id":"1ab369f7-7a6f-4ec6-ba9b-4c4ed2f4a921","system_id":"levelo_inurba_marseille","lat":43.317557,"lon":5.390173,"is_reserved":false,"is_disabled":false,"rental_uris":{"android":"levelo://app?vid=1ab369f7-7a6f-4ec6-ba9b-4c4ed2f4a921","ios":"levelo://app?vid=1ab369f7-7a6f-4ec6-ba9b-4c4ed2f4a921"},"vehicle_type_id":"4","last_reported":1683223693,"current_range_meters":13600,"station_id":"ce4bhqp2rcd13ifvqhng","pricing_plan_id":"free"},{"bike_id":"2a4985c2-ec3b-44a5-a620-41de3bc76514","system_id":"levelo_inurba_marseille","lat":43.317557,"lon":5.390173,"is_reserved":false,"is_disabled":false,"rental_uris":{"android":"levelo://app?vid=2a4985c2-ec3b-44a5-a620-41de3bc76514","ios":"levelo://app?vid=2a4985c2-ec3b-44a5-a620-41de3bc76514"},"vehicle_type_id":"4","last_reported":1683223693,"current_range_meters":1600,"station_id":"ce4bhqp2rcd13ifvqhng","pricing_plan_id":"free"},{"bike_id":"75083129-cb37-4ae1-868b-cd09b5374176","system_id":"levelo_inurba_marseille","lat":43.317557,"lon":5.390173,"is_reserved":false,"is_disabled":false,"rental_uris":{"android":"levelo://app?vid=75083129-cb37-4ae1-868b-cd09b5374176","ios":"levelo://app?vid=75083129-cb37-4ae1-868b-cd09b5374176"},"vehicle_type_id":"4","last_reported":1683223693,"current_range_meters":23200,"station_id":"ce4bhqp2rcd13ifvqhng","pricing_plan_id":"free"},{"bike_id":"d3bded05-295a-4e27-816d-28fd9af6ceed","system_id":"levelo_inurba_marseille","lat":43.317557,"lon":5.390173,"is_reserved":false,"is_disabled":false,"rental_uris":{"android":"levelo://app?vid=d3bded05-295a-4e27-816d-28fd9af6ceed","ios":"levelo://app?vid=d3bded05-295a-4e27-816d-28fd9af6ceed"},"vehicle_type_id":"4","last_reported":1683223693,"current_range_meters":15200,"station_id":"ce4bhqp2rcd13ifvqhng","pricing_plan_id":"free"},{"bike_id":"9051c42a-d42e-4e05-a2e1-4c790310aaca","system_id":"levelo_inurba_marseille","lat":43.317557,"lon":5.390173,"is_reserved":false,"is_disabled":false,"rental_uris":{"android":"levelo://app?vid=9051c42a-d42e-4e05-a2e1-4c790310aaca","ios":"levelo://app?vid=9051c42a-d42e-4e05-a2e1-4c790310aaca"},"vehicle_type_id":"4","last_reported":1683223693,"current_range_meters":14400,"station_id":"ce4bhqp2rcd13ifvqhng","pricing_plan_id":"free"},{"bike_id":"e00888f6-99e1-4c69-986f-1e3669edea53","system_id":"levelo_inurba_marseille","lat":43.317557,"lon":5.390173,"is_reserved":false,"is_disabled":false,"rental_uris":{"android":"levelo://app?vid=e00888f6-99e1-4c69-986f-1e3669edea53","ios":"levelo://app?vid=e00888f6-99e1-4c69-986f-1e3669edea53"},"vehicle_type_id":"4","last_reported":1683223693,"current_range_meters":24400,"station_id":"ce4bhqp2rcd13ifvqhng","pricing_plan_id":"free"},{"bike_id":"975b3a47-aa68-47d8-ae61-e7b21b8d2b3c","system_id":"levelo_inurba_marseille","lat":43.317557,"lon":5.390173,"is_reserved":false,"is_disabled":false,"rental_uris":{"android":"levelo://app?vid=975b3a47-aa68-47d8-ae61-e7b21b8d2b3c","ios":"levelo://app?vid=975b3a47-aa68-47d8-ae61-e7b21b8d2b3c"},"vehicle_type_id":"4","last_reported":1683223693,"current_range_meters":12400,"station_id":"ce4bhqp2rcd13ifvqhng","pricing_plan_id":"free"},{"bike_id":"77f34d79-51d0-4db3-ab3a-5aec4d75e78b","system_id":"levelo_inurba_marseille","lat":43.317557,"lon":5.390173,"is_reserved":false,"is_disabled":false,"rental_uris":{"android":"levelo://app?vid=77f34d79-51d0-4db3-ab3a-5aec4d75e78b","ios":"levelo://app?vid=77f34d79-51d0-4db3-ab3a-5aec4d75e78b"},"vehicle_type_id":"4","last_reported":1683223693,"current_range_meters":26400,"station_id":"ce4bhqp2rcd13ifvqhng","pricing_plan_id":"free"},{"bike_id":"7066c1ae-5454-4da3-bfe9-11fe25051709","system_id":"levelo_inurba_marseille","lat":43.304278,"lon":5.388868,"is_reserved":false,"is_disabled":false,"rental_uris":{"android":"levelo://app?vid=7066c1ae-5454-4da3-bfe9-11fe25051709","ios":"levelo://app?vid=7066c1ae-5454-4da3-bfe9-11fe25051709"},"vehicle_type_id":"4","last_reported":1683223693,"current_range_meters":18800,"station_id":"ce4bgk12rcd13ifvqbi0","pricing_plan_id":"free"},{"bike_id":"deccdaef-1753-4170-b3b2-5473fc74dc72","system_id":"levelo_inurba_marseille","lat":43.30442,"lon":5.38891,"is_reserved":false,"is_disabled":false,"rental_uris":{"android":"levelo://app?vid=deccdaef-1753-4170-b3b2-5473fc74dc72","ios":"levelo://app?vid=deccdaef-1753-4170-b3b2-5473fc74dc72"},"vehicle_type_id":"4","last_reported":1683223693,"current_range_meters":23200,"station_id":"ce4bgk12rcd13ifvqbi0","pricing_plan_id":"free"},{"bike_id":"f2fe203a-eb07-4b76-bd95-6436adf8c51b","system_id":"levelo_inurba_marseille","lat":43.3044,"lon":5.3889,"is_reserved":false,"is_disabled":false,"rental_uris":{"android":"levelo://app?vid=f2fe203a-eb07-4b76-bd95-6436adf8c51b","ios":"levelo://app?vid=f2fe203a-eb07-4b76-bd95-6436adf8c51b"},"vehicle_type_id":"4","last_reported":1683223693,"current_range_meters":27200,"station_id":"ce4bgk12rcd13ifvqbi0","pricing_plan_id":"free"},{"bike_id":"93badd2d-8e16-4613-8165-2ccd548775bf","system_id":"levelo_inurba_marseille","lat":43.304278,"lon":5.388868,"is_reserved":false,"is_disabled":false,"rental_uris":{"android":"levelo://app?vid=93badd2d-8e16-4613-8165-2ccd548775bf","ios":"levelo://app?vid=93badd2d-8e16-4613-8165-2ccd548775bf"},"vehicle_type_id":"4","last_reported":1683223693,"current_range_meters":400,"station_id":"ce4bgk12rcd13ifvqbi0","pricing_plan_id":"free"},{"bike_id":"3b996e57-ec03-4634-9f09-4028db9ab0a8","system_id":"levelo_inurba_marseille","lat":43.30436,"lon":5.38894,"is_reserved":false,"is_disabled":false,"rental_uris":{"android":"levelo://app?vid=3b996e57-ec03-4634-9f09-4028db9ab0a8","ios":"levelo://app?vid=3b996e57-ec03-4634-9f09-4028db9ab0a8"},"vehicle_type_id":"4","last_reported":1683223693,"current_range_meters":16400,"station_id":"ce4bgk12rcd13ifvqbi0","pricing_plan_id":"free"},{"bike_id":"af9bbf24-3d04-49ea-b0fb-bb108d4786c8","system_id":"levelo_inurba_marseille","lat":43.298037,"lon":5.381066,"is_reserved":false,"is_disabled":false,"rental_uris":{"android":"levelo://app?vid=af9bbf24-3d04-49ea-b0fb-bb108d4786c8","ios":"levelo://app?vid=af9bbf24-3d04-49ea-b0fb-bb108d4786c8"},"vehicle_type_id":"4","last_reported":1683223693,"current_range_meters":8400,"station_id":"ce4bgip2rcd13ifvqbb0","pricing_plan_id":"free"},{"bike_id":"8a103fe5-e7c3-4b27-8ac5-552781dabe06","system_id":"levelo_inurba_marseille","lat":43.299724,"lon":5.384848,"is_reserved":false,"is_disabled":false,"rental_uris":{"android":"levelo://app?vid=8a103fe5-e7c3-4b27-8ac5-552781dabe06","ios":"levelo://app?vid=8a103fe5-e7c3-4b27-8ac5-552781dabe06"},"vehicle_type_id":"4","last_reported":1683223693,"current_range_meters":26800,"station_id":"ce4bgj92rcd13ifvqbd0","pricing_plan_id":"free"},{"bike_id":"acc40173-efd7-4954-ab7e-980c7e3fffb0","system_id":"levelo_inurba_marseille","lat":43.29972,"lon":5.38479,"is_reserved":false,"is_disabled":false,"rental_uris":{"android":"levelo://app?vid=acc40173-efd7-4954-ab7e-980c7e3fffb0","ios":"levelo://app?vid=acc40173-efd7-4954-ab7e-980c7e3fffb0"},"vehicle_type_id":"4","last_reported":1683223693,"current_range_meters":6800,"station_id":"ce4bgj92rcd13ifvqbd0","pricing_plan_id":"free"},{"bike_id":"bfb547bb-430d-4023-81b9-98e6ce4e4502","system_id":"levelo_inurba_marseille","lat":43.299707,"lon":5.384859,"is_reserved":false,"is_disabled":false,"rental_uris":{"android":"levelo://app?vid=bfb547bb-430d-4023-81b9-98e6ce4e4502","ios":"levelo://app?vid=bfb547bb-430d-4023-81b9-98e6ce4e4502"},"vehicle_type_id":"4","last_reported":1683223693,"current_range_meters":22000,"station_id":"ce4bgj92rcd13ifvqbd0","pricing_plan_id":"free"},{"bike_id":"b12f3606-f0da-45c9-a50d-2b94de5ddef8","system_id":"levelo_inurba_marseille","lat":43.299724,"lon":5.384848,"is_reserved":false,"is_disabled":false,"rental_uris":{"android":"levelo://app?vid=b12f3606-f0da-45c9-a50d-2b94de5ddef8","ios":"levelo://app?vid=b12f3606-f0da-45c9-a50d-2b94de5ddef8"},"vehicle_type_id":"4","last_reported":1683223693,"current_range_meters":2800,"station_id":"ce4bgj92rcd13ifvqbd0","pricing_plan_id":"free"},{"bike_id":"93545fb6-d4df-4f91-b10a-e5ee66370c41","system_id":"levelo_inurba_marseille","lat":43.30864,"lon":5.39174,"is_reserved":false,"is_disabled":false,"rental_uris":{"android":"levelo://app?vid=93545fb6-d4df-4f91-b10a-e5ee66370c41","ios":"levelo://app?vid=93545fb6-d4df-4f91-b10a-e5ee66370c41"},"vehicle_type_id":"4","last_reported":1683223693,"current_range_meters":3600,"station_id":"ce4bgup2rcd13ifvqco0","pricing_plan_id":"free"},{"bike_id":"a68d69d2-97ed-47e3-a3ee-5378a1001044","system_id":"levelo_inurba_marseille","lat":43.29408,"lon":5.37366,"is_reserved":false,"is_disabled":false,"rental_uris":{"android":"levelo://app?vid=a68d69d2-97ed-47e3-a3ee-5378a1001044","ios":"levelo://app?vid=a68d69d2-97ed-47e3-a3ee-5378a1001044"},"vehicle_type_id":"4","last_reported":1683223693,"current_range_meters":0,"station_id":"","pricing_plan_id":"free"},{"bike_id":"1daa4d5c-579a-4a9f-b344-cb6f7250afb9","system_id":"levelo_inurba_marseille","lat":43.30284,"lon":5.38976,"is_reserved":false,"is_disabled":false,"rental_uris":{"android":"levelo://app?vid=1daa4d5c-579a-4a9f-b344-cb6f7250afb9","ios":"levelo://app?vid=1daa4d5c-579a-4a9f-b344-cb6f7250afb9"},"vehicle_type_id":"4","last_reported":1683223693,"current_range_meters":30000,"station_id":"ce4bgk12rcd13ifvqbi0","pricing_plan_id":"free"},{"bike_id":"f8a912ff-766f-4bdd-80ab-2fb206ccea87","system_id":"levelo_inurba_marseille","lat":43.33125,"lon":5.37464,"is_reserved":false,"is_disabled":false,"rental_uris":{"android":"levelo://app?vid=f8a912ff-766f-4bdd-80ab-2fb206ccea87","ios":"levelo://app?vid=f8a912ff-766f-4bdd-80ab-2fb206ccea87"},"vehicle_type_id":"4","last_reported":1683223693,"current_range_meters":31600,"station_id":"","pricing_plan_id":"free"},{"bike_id":"3537399e-e116-4413-83a4-78e9e3ed24ed","system_id":"levelo_inurba_marseille","lat":43.29363,"lon":5.37204,"is_reserved":false,"is_disabled":false,"rental_uris":{"android":"levelo://app?vid=3537399e-e116-4413-83a4-78e9e3ed24ed","ios":"levelo://app?vid=3537399e-e116-4413-83a4-78e9e3ed24ed"},"vehicle_type_id":"4","last_reported":1683223693,"current_range_meters":15600,"station_id":"","pricing_plan_id":"free"},{"bike_id":"f6d57eab-8e87-4d4d-b88b-34cd50d1ee6a","system_id":"levelo_inurba_marseille","lat":43.31411,"lon":5.3938,"is_reserved":false,"is_disabled":false,"rental_uris":{"android":"levelo://app?vid=f6d57eab-8e87-4d4d-b88b-34cd50d1ee6a","ios":"levelo://app?vid=f6d57eab-8e87-4d4d-b88b-34cd50d1ee6a"},"vehicle_type_id":"4","last_reported":1683223693,"current_range_meters":11600,"station_id":"","pricing_plan_id":"free"},{"bike_id":"5c36cd34-4dd1-48b8-bb1a-2266d76a5b12","system_id":"levelo_inurba_marseille","lat":43.29268,"lon":5.36843,"is_reserved":false,"is_disabled":false,"rental_uris":{"android":"levelo://app?vid=5c36cd34-4dd1-48b8-bb1a-2266d76a5b12","ios":"levelo://app?vid=5c36cd34-4dd1-48b8-bb1a-2266d76a5b12"},"vehicle_type_id":"4","last_reported":1683223693,"current_range_meters":12400,"station_id":"ce4bhbp2rcd13ifvqesg","pricing_plan_id":"free"},{"bike_id":"13f34ab5-a0d1-4693-a83e-b8c87ade97a3","system_id":"levelo_inurba_marseille","lat":43.31254,"lon":5.39498,"is_reserved":false,"is_disabled":false,"rental_uris":{"android":"levelo://app?vid=13f34ab5-a0d1-4693-a83e-b8c87ade97a3","ios":"levelo://app?vid=13f34ab5-a0d1-4693-a83e-b8c87ade97a3"},"vehicle_type_id":"4","last_reported":1683223693,"current_range_meters":16800,"station_id":"","pricing_plan_id":"free"},{"bike_id":"845ee796-cb89-4563-923a-2659e9624e29","system_id":"levelo_inurba_marseille","lat":43.305994,"lon":5.393687,"is_reserved":false,"is_disabled":false,"rental_uris":{"android":"levelo://app?vid=845ee796-cb89-4563-923a-2659e9624e29","ios":"levelo://app?vid=845ee796-cb89-4563-923a-2659e9624e29"},"vehicle_type_id":"4","last_reported":1683223693,"current_range_meters":5600,"station_id":"ce4bh0p2rcd13ifvqd80","pricing_plan_id":"free"},{"bike_id":"bc4e089b-3b3f-4984-8f44-69a55724e414","system_id":"levelo_inurba_marseille","lat":43.305994,"lon":5.393687,"is_reserved":false,"is_disabled":false,"rental_uris":{"android":"levelo://app?vid=bc4e089b-3b3f-4984-8f44-69a55724e414","ios":"levelo://app?vid=bc4e089b-3b3f-4984-8f44-69a55724e414"},"vehicle_type_id":"4","last_reported":1683223693,"current_range_meters":29600,"station_id":"ce4bh0p2rcd13ifvqd80","pricing_plan_id":"free"},{"bike_id":"210ef0ab-b9f9-48f4-ae92-42c4949b9502","system_id":"levelo_inurba_marseille","lat":43.305994,"lon":5.393687,"is_reserved":false,"is_disabled":false,"rental_uris":{"android":"levelo://app?vid=210ef0ab-b9f9-48f4-ae92-42c4949b9502","ios":"levelo://app?vid=210ef0ab-b9f9-48f4-ae92-42c4949b9502"},"vehicle_type_id":"4","last_reported":1683223693,"current_range_meters":18400,"station_id":"ce4bh0p2rcd13ifvqd80","pricing_plan_id":"free"},{"bike_id":"e5c81771-bf45-48c9-8bd4-cb995736a75e","system_id":"levelo_inurba_marseille","lat":43.303002,"lon":5.392142,"is_reserved":false,"is_disabled":false,"rental_uris":{"android":"levelo://app?vid=e5c81771-bf45-48c9-8bd4-cb995736a75e","ios":"levelo://app?vid=e5c81771-bf45-48c9-8bd4-cb995736a75e"},"vehicle_type_id":"4","last_reported":1683223693,"current_range_meters":28400,"station_id":"ce4bgkh2rcd13ifvqbk0","pricing_plan_id":"free"},{"bike_id":"9fbb4764-8e11-4607-8ad0-8f7f7cfcb919","system_id":"levelo_inurba_marseille","lat":43.30311,"lon":5.39228,"is_reserved":false,"is_disabled":false,"rental_uris":{"android":"levelo://app?vid=9fbb4764-8e11-4607-8ad0-8f7f7cfcb919","ios":"levelo://app?vid=9fbb4764-8e11-4607-8ad0-8f7f7cfcb919"},"vehicle_type_id":"4","last_reported":1683223693,"current_range_meters":22400,"station_id":"ce4bgkh2rcd13ifvqbk0","pricing_plan_id":"free"},{"bike_id":"52a75fae-562a-41df-b0d3-5dc4726f9dd2","system_id":"levelo_inurba_marseille","lat":43.29887,"lon":5.38922,"is_reserved":false,"is_disabled":false,"rental_uris":{"android":"levelo://app?vid=52a75fae-562a-41df-b0d3-5dc4726f9dd2","ios":"levelo://app?vid=52a75fae-562a-41df-b0d3-5dc4726f9dd2"},"vehicle_type_id":"4","last_reported":1683223693,"current_range_meters":24400,"station_id":"ce4bh392rcd13ifvqdl0","pricing_plan_id":"free"},{"bike_id":"9d172ded-0502-4877-a8b4-075d50b8534d","system_id":"levelo_inurba_marseille","lat":43.291671,"lon":5.371575,"is_reserved":false,"is_disabled":false,"rental_uris":{"android":"levelo://app?vid=9d172ded-0502-4877-a8b4-075d50b8534d","ios":"levelo://app?vid=9d172ded-0502-4877-a8b4-075d50b8534d"},"vehicle_type_id":"4","last_reported":1683223693,"current_range_meters":5600,"station_id":"ce4bha92rcd13ifvqeh0","pricing_plan_id":"free"},{"bike_id":"f70cfcc4-e221-4b35-b5ca-30abae6b9717","system_id":"levelo_inurba_marseille","lat":43.309038,"lon":5.396546,"is_reserved":false,"is_disabled":false,"rental_uris":{"android":"levelo://app?vid=f70cfcc4-e221-4b35-b5ca-30abae6b9717","ios":"levelo://app?vid=f70cfcc4-e221-4b35-b5ca-30abae6b9717"},"vehicle_type_id":"4","last_reported":1683223693,"current_range_meters":6000,"station_id":"ce4bh012rcd13ifvqcv0","pricing_plan_id":"free"},{"bike_id":"5fb2a2c5-f7f6-4ad2-a44c-e2a1b4cc3754","system_id":"levelo_inurba_marseille","lat":43.309038,"lon":5.396546,"is_reserved":false,"is_disabled":false,"rental_uris":{"android":"levelo://app?vid=5fb2a2c5-f7f6-4ad2-a44c-e2a1b4cc3754","ios":"levelo://app?vid=5fb2a2c5-f7f6-4ad2-a44c-e2a1b4cc3754"},"vehicle_type_id":"4","last_reported":1683223693,"current_range_meters":6400,"station_id":"ce4bh012rcd13ifvqcv0","pricing_plan_id":"free"},{"bike_id":"6be3cf76-8b2c-49b5-b333-499048623bb3","system_id":"levelo_inurba_marseille","lat":43.313291,"lon":5.396838,"is_reserved":false,"is_disabled":false,"rental_uris":{"android":"levelo://app?vid=6be3cf76-8b2c-49b5-b333-499048623bb3","ios":"levelo://app?vid=6be3cf76-8b2c-49b5-b333-499048623bb3"},"vehicle_type_id":"4","last_reported":1683223693,"current_range_meters":5600,"station_id":"ce4bgvp2rcd13ifvqcu0","pricing_plan_id":"free"},{"bike_id":"f5f6f3d3-da9c-4591-b593-d7f4178d1053","system_id":"levelo_inurba_marseille","lat":43.313291,"lon":5.396838,"is_reserved":false,"is_disabled":false,"rental_uris":{"android":"levelo://app?vid=f5f6f3d3-da9c-4591-b593-d7f4178d1053","ios":"levelo://app?vid=f5f6f3d3-da9c-4591-b593-d7f4178d1053"},"vehicle_type_id":"4","last_reported":1683223693,"current_range_meters":6800,"station_id":"ce4bgvp2rcd13ifvqcu0","pricing_plan_id":"free"},{"bike_id":"3fb79dc2-8b4e-4822-bae4-e7f773d74b5f","system_id":"levelo_inurba_marseille","lat":43.313291,"lon":5.396838,"is_reserved":false,"is_disabled":false,"rental_uris":{"android":"levelo://app?vid=3fb79dc2-8b4e-4822-bae4-e7f773d74b5f","ios":"levelo://app?vid=3fb79dc2-8b4e-4822-bae4-e7f773d74b5f"},"vehicle_type_id":"4","last_reported":1683223693,"current_range_meters":20000,"station_id":"ce4bgvp2rcd13ifvqcu0","pricing_plan_id":"free"},{"bike_id":"9ca4461f-1252-496d-b0b3-e5b84a0d9aca","system_id":"levelo_inurba_marseille","lat":43.30892,"lon":5.39645,"is_reserved":false,"is_disabled":false,"rental_uris":{"android":"levelo://app?vid=9ca4461f-1252-496d-b0b3-e5b84a0d9aca","ios":"levelo://app?vid=9ca4461f-1252-496d-b0b3-e5b84a0d9aca"},"vehicle_type_id":"4","last_reported":1683223693,"current_range_meters":24000,"station_id":"ce4bh012rcd13ifvqcv0","pricing_plan_id":"free"},{"bike_id":"26af9b07-5a6c-4aba-9833-72cdec40be67","system_id":"levelo_inurba_marseille","lat":43.313291,"lon":5.396838,"is_reserved":false,"is_disabled":false,"rental_uris":{"android":"levelo://app?vid=26af9b07-5a6c-4aba-9833-72cdec40be67","ios":"levelo://app?vid=26af9b07-5a6c-4aba-9833-72cdec40be67"},"vehicle_type_id":"4","last_reported":1683223693,"current_range_meters":17600,"station_id":"ce4bgvp2rcd13ifvqcu0","pricing_plan_id":"free"},{"bike_id":"5906c818-1aa1-427b-ac0e-a25d94059277","system_id":"levelo_inurba_marseille","lat":43.309038,"lon":5.396546,"is_reserved":false,"is_disabled":false,"rental_uris":{"android":"levelo://app?vid=5906c818-1aa1-427b-ac0e-a25d94059277","ios":"levelo://app?vid=5906c818-1aa1-427b-ac0e-a25d94059277"},"vehicle_type_id":"4","last_reported":1683223693,"current_range_meters":2400,"station_id":"ce4bh012rcd13ifvqcv0","pricing_plan_id":"free"},{"bike_id":"4deb20e6-d3ea-44cf-834a-6539c453a5ac","system_id":"levelo_inurba_marseille","lat":43.309038,"lon":5.396546,"is_reserved":false,"is_disabled":false,"rental_uris":{"android":"levelo://app?vid=4deb20e6-d3ea-44cf-834a-6539c453a5ac","ios":"levelo://app?vid=4deb20e6-d3ea-44cf-834a-6539c453a5ac"},"vehicle_type_id":"4","last_reported":1683223693,"current_range_meters":5200,"station_id":"ce4bh012rcd13ifvqcv0","pricing_plan_id":"free"},{"bike_id":"7ca38b28-ce71-4319-b410-be175870bc1b","system_id":"levelo_inurba_marseille","lat":43.309038,"lon":5.396546,"is_reserved":false,"is_disabled":false,"rental_uris":{"android":"levelo://app?vid=7ca38b28-ce71-4319-b410-be175870bc1b","ios":"levelo://app?vid=7ca38b28-ce71-4319-b410-be175870bc1b"},"vehicle_type_id":"4","last_reported":1683223693,"current_range_meters":10400,"station_id":"ce4bh012rcd13ifvqcv0","pricing_plan_id":"free"},{"bike_id":"79708710-567e-4eb3-b1fb-34b798a1e2d8","system_id":"levelo_inurba_marseille","lat":43.29537,"lon":5.38556,"is_reserved":false,"is_disabled":false,"rental_uris":{"android":"levelo://app?vid=79708710-567e-4eb3-b1fb-34b798a1e2d8","ios":"levelo://app?vid=79708710-567e-4eb3-b1fb-34b798a1e2d8"},"vehicle_type_id":"4","last_reported":1683223693,"current_range_meters":15200,"station_id":"ce4bgih2rcd13ifvqba0","pricing_plan_id":"free"},{"bike_id":"7bef1181-c7dc-438a-95c4-d9679b743563","system_id":"levelo_inurba_marseille","lat":43.290779,"lon":5.371482,"is_reserved":false,"is_disabled":false,"rental_uris":{"android":"levelo://app?vid=7bef1181-c7dc-438a-95c4-d9679b743563","ios":"levelo://app?vid=7bef1181-c7dc-438a-95c4-d9679b743563"},"vehicle_type_id":"4","last_reported":1683223693,"current_range_meters":22400,"station_id":"ce4bh5p2rcd13ifvqe4g","pricing_plan_id":"free"},{"bike_id":"8daa1ddc-e1ee-4a30-9e20-ac0171f552ed","system_id":"levelo_inurba_marseille","lat":43.290779,"lon":5.371482,"is_reserved":false,"is_disabled":false,"rental_uris":{"android":"levelo://app?vid=8daa1ddc-e1ee-4a30-9e20-ac0171f552ed","ios":"levelo://app?vid=8daa1ddc-e1ee-4a30-9e20-ac0171f552ed"},"vehicle_type_id":"4","last_reported":1683223693,"current_range_meters":17600,"station_id":"ce4bh5p2rcd13ifvqe4g","pricing_plan_id":"free"},{"bike_id":"06fd555f-f4a9-4cf2-9eb8-dae297ff0add","system_id":"levelo_inurba_marseille","lat":43.290624,"lon":5.359245,"is_reserved":false,"is_disabled":false,"rental_uris":{"android":"levelo://app?vid=06fd555f-f4a9-4cf2-9eb8-dae297ff0add","ios":"levelo://app?vid=06fd555f-f4a9-4cf2-9eb8-dae297ff0add"},"vehicle_type_id":"4","last_reported":1683223693,"current_range_meters":4400,"station_id":"ce4bha92rcd13ifvqeg0","pricing_plan_id":"free"},{"bike_id":"9c1183b1-4df4-4852-ba16-0c778817f32a","system_id":"levelo_inurba_marseille","lat":43.28983,"lon":5.36608,"is_reserved":false,"is_disabled":false,"rental_uris":{"android":"levelo://app?vid=9c1183b1-4df4-4852-ba16-0c778817f32a","ios":"levelo://app?vid=9c1183b1-4df4-4852-ba16-0c778817f32a"},"vehicle_type_id":"4","last_reported":1683223693,"current_range_meters":24400,"station_id":"ce4bhsp2rcd13ifvqi50","pricing_plan_id":"free"},{"bike_id":"90bd2d74-262d-48eb-9438-7763db8bd117","system_id":"levelo_inurba_marseille","lat":43.290624,"lon":5.359245,"is_reserved":false,"is_disabled":false,"rental_uris":{"android":"levelo://app?vid=90bd2d74-262d-48eb-9438-7763db8bd117","ios":"levelo://app?vid=90bd2d74-262d-48eb-9438-7763db8bd117"},"vehicle_type_id":"4","last_reported":1683223693,"current_range_meters":18400,"station_id":"ce4bha92rcd13ifvqeg0","pricing_plan_id":"free"},{"bike_id":"f867a71b-15d6-46f0-9a58-0d9aeb75c848","system_id":"levelo_inurba_marseille","lat":43.294162,"lon":5.386292,"is_reserved":false,"is_disabled":false,"rental_uris":{"android":"levelo://app?vid=f867a71b-15d6-46f0-9a58-0d9aeb75c848","ios":"levelo://app?vid=f867a71b-15d6-46f0-9a58-0d9aeb75c848"},"vehicle_type_id":"4","last_reported":1683223693,"current_range_meters":800,"station_id":"ce4bh2h2rcd13ifvqdh0","pricing_plan_id":"free"},{"bike_id":"56c6beea-604d-4aa5-8fe5-94cdb3f92b65","system_id":"levelo_inurba_marseille","lat":43.290319,"lon":5.375732,"is_reserved":false,"is_disabled":false,"rental_uris":{"android":"levelo://app?vid=56c6beea-604d-4aa5-8fe5-94cdb3f92b65","ios":"levelo://app?vid=56c6beea-604d-4aa5-8fe5-94cdb3f92b65"},"vehicle_type_id":"4","last_reported":1683223693,"current_range_meters":22400,"station_id":"ce4bh692rcd13ifvqe90","pricing_plan_id":"free"},{"bike_id":"7e7bed53-f897-461f-90c3-798808401ce4","system_id":"levelo_inurba_marseille","lat":43.294162,"lon":5.386292,"is_reserved":false,"is_disabled":false,"rental_uris":{"android":"levelo://app?vid=7e7bed53-f897-461f-90c3-798808401ce4","ios":"levelo://app?vid=7e7bed53-f897-461f-90c3-798808401ce4"},"vehicle_type_id":"4","last_reported":1683223693,"current_range_meters":13600,"station_id":"ce4bh2h2rcd13ifvqdh0","pricing_plan_id":"free"},{"bike_id":"cb66e5c6-35a2-4d7a-8aa3-d4e4b8472235","system_id":"levelo_inurba_marseille","lat":43.294162,"lon":5.386292,"is_reserved":false,"is_disabled":false,"rental_uris":{"android":"levelo://app?vid=cb66e5c6-35a2-4d7a-8aa3-d4e4b8472235","ios":"levelo://app?vid=cb66e5c6-35a2-4d7a-8aa3-d4e4b8472235"},"vehicle_type_id":"4","last_reported":1683223693,"current_range_meters":0,"station_id":"ce4bh2h2rcd13ifvqdh0","pricing_plan_id":"free"},{"bike_id":"c7b2e826-63ab-4175-91d2-6295034cfac5","system_id":"levelo_inurba_marseille","lat":43.289184,"lon":5.366408,"is_reserved":false,"is_disabled":false,"rental_uris":{"android":"levelo://app?vid=c7b2e826-63ab-4175-91d2-6295034cfac5","ios":"levelo://app?vid=c7b2e826-63ab-4175-91d2-6295034cfac5"},"vehicle_type_id":"4","last_reported":1683223693,"current_range_meters":18000,"station_id":"ce4bhap2rcd13ifvqek0","pricing_plan_id":"free"},{"bike_id":"c6b37a4b-a6b5-40e9-a169-75f5e0772a5e","system_id":"levelo_inurba_marseille","lat":43.294162,"lon":5.386292,"is_reserved":false,"is_disabled":false,"rental_uris":{"android":"levelo://app?vid=c6b37a4b-a6b5-40e9-a169-75f5e0772a5e","ios":"levelo://app?vid=c6b37a4b-a6b5-40e9-a169-75f5e0772a5e"},"vehicle_type_id":"4","last_reported":1683223693,"current_range_meters":6000,"station_id":"ce4bh2h2rcd13ifvqdh0","pricing_plan_id":"free"},{"bike_id":"9f5f2d04-358d-4359-a2f4-27c0a8c73db5","system_id":"levelo_inurba_marseille","lat":43.294162,"lon":5.386292,"is_reserved":false,"is_disabled":false,"rental_uris":{"android":"levelo://app?vid=9f5f2d04-358d-4359-a2f4-27c0a8c73db5","ios":"levelo://app?vid=9f5f2d04-358d-4359-a2f4-27c0a8c73db5"},"vehicle_type_id":"4","last_reported":1683223693,"current_range_meters":6800,"station_id":"ce4bh2h2rcd13ifvqdh0","pricing_plan_id":"free"},{"bike_id":"b85b1ebb-2a5b-4a09-854e-635127bda809","system_id":"levelo_inurba_marseille","lat":43.29267,"lon":5.38431,"is_reserved":false,"is_disabled":false,"rental_uris":{"android":"levelo://app?vid=b85b1ebb-2a5b-4a09-854e-635127bda809","ios":"levelo://app?vid=b85b1ebb-2a5b-4a09-854e-635127bda809"},"vehicle_type_id":"4","last_reported":1683223693,"current_range_meters":12000,"station_id":"ce4bh692rcd13ifvqea0","pricing_plan_id":"free"},{"bike_id":"0fc263f2-b02f-4fbe-af8f-df47cd74d55f","system_id":"levelo_inurba_marseille","lat":43.304296,"lon":5.397513,"is_reserved":false,"is_disabled":false,"rental_uris":{"android":"levelo://app?vid=0fc263f2-b02f-4fbe-af8f-df47cd74d55f","ios":"levelo://app?vid=0fc263f2-b02f-4fbe-af8f-df47cd74d55f"},"vehicle_type_id":"4","last_reported":1683223693,"current_range_meters":20000,"station_id":"ce4bh092rcd13ifvqd20","pricing_plan_id":"free"},{"bike_id":"bb36a789-1e05-4c0c-8a46-1bde757cfcee","system_id":"levelo_inurba_marseille","lat":43.30421,"lon":5.39739,"is_reserved":false,"is_disabled":false,"rental_uris":{"android":"levelo://app?vid=bb36a789-1e05-4c0c-8a46-1bde757cfcee","ios":"levelo://app?vid=bb36a789-1e05-4c0c-8a46-1bde757cfcee"},"vehicle_type_id":"4","last_reported":1683223693,"current_range_meters":13200,"station_id":"","pricing_plan_id":"free"},{"bike_id":"3446857b-0877-4c17-a309-65dca39732a5","system_id":"levelo_inurba_marseille","lat":43.304296,"lon":5.397513,"is_reserved":false,"is_disabled":false,"rental_uris":{"android":"levelo://app?vid=3446857b-0877-4c17-a309-65dca39732a5","ios":"levelo://app?vid=3446857b-0877-4c17-a309-65dca39732a5"},"vehicle_type_id":"4","last_reported":1683223693,"current_range_meters":20000,"station_id":"ce4bh092rcd13ifvqd20","pricing_plan_id":"free"},{"bike_id":"b59aaff2-a332-4e40-a923-a7c5344dafc4","system_id":"levelo_inurba_marseille","lat":43.292642,"lon":5.384254,"is_reserved":false,"is_disabled":false,"rental_uris":{"android":"levelo://app?vid=b59aaff2-a332-4e40-a923-a7c5344dafc4","ios":"levelo://app?vid=b59aaff2-a332-4e40-a923-a7c5344dafc4"},"vehicle_type_id":"4","last_reported":1683223693,"current_range_meters":1200,"station_id":"ce4bh692rcd13ifvqea0","pricing_plan_id":"free"},{"bike_id":"10238e62-19f9-4156-a3bf-f62834f85ca5","system_id":"levelo_inurba_marseille","lat":43.304296,"lon":5.397513,"is_reserved":false,"is_disabled":false,"rental_uris":{"android":"levelo://app?vid=10238e62-19f9-4156-a3bf-f62834f85ca5","ios":"levelo://app?vid=10238e62-19f9-4156-a3bf-f62834f85ca5"},"vehicle_type_id":"4","last_reported":1683223693,"current_range_meters":30400,"station_id":"ce4bh092rcd13ifvqd20","pricing_plan_id":"free"},{"bike_id":"fc35122b-b02b-4983-8d54-cf7ea8b698ae","system_id":"levelo_inurba_marseille","lat":43.304274,"lon":5.397513,"is_reserved":false,"is_disabled":false,"rental_uris":{"android":"levelo://app?vid=fc35122b-b02b-4983-8d54-cf7ea8b698ae","ios":"levelo://app?vid=fc35122b-b02b-4983-8d54-cf7ea8b698ae"},"vehicle_type_id":"4","last_reported":1683223693,"current_range_meters":30800,"station_id":"ce4bh092rcd13ifvqd20","pricing_plan_id":"free"},{"bike_id":"302e42ef-f2cc-49bd-869c-c3827a9b9d31","system_id":"levelo_inurba_marseille","lat":43.292642,"lon":5.384254,"is_reserved":false,"is_disabled":false,"rental_uris":{"android":"levelo://app?vid=302e42ef-f2cc-49bd-869c-c3827a9b9d31","ios":"levelo://app?vid=302e42ef-f2cc-49bd-869c-c3827a9b9d31"},"vehicle_type_id":"4","last_reported":1683223693,"current_range_meters":27200,"station_id":"ce4bh692rcd13ifvqea0","pricing_plan_id":"free"},{"bike_id":"c51d783f-53ec-4d03-88b9-c8f402fe05a4","system_id":"levelo_inurba_marseille","lat":43.33034,"lon":5.38908,"is_reserved":false,"is_disabled":false,"rental_uris":{"android":"levelo://app?vid=c51d783f-53ec-4d03-88b9-c8f402fe05a4","ios":"levelo://app?vid=c51d783f-53ec-4d03-88b9-c8f402fe05a4"},"vehicle_type_id":"4","last_reported":1683223693,"current_range_meters":31200,"station_id":"ce4bhr92rcd13ifvqhrg","pricing_plan_id":"free"},{"bike_id":"ef0256b7-8b1d-4748-90da-e6443b1a70cb","system_id":"levelo_inurba_marseille","lat":43.29014,"lon":5.35619,"is_reserved":false,"is_disabled":false,"rental_uris":{"android":"levelo://app?vid=ef0256b7-8b1d-4748-90da-e6443b1a70cb","ios":"levelo://app?vid=ef0256b7-8b1d-4748-90da-e6443b1a70cb"},"vehicle_type_id":"4","last_reported":1683223693,"current_range_meters":26000,"station_id":"ce4bhb92rcd13ifvqen0","pricing_plan_id":"free"},{"bike_id":"679d0a9d-6da3-4a1e-b6dd-8bba9ea12d2d","system_id":"levelo_inurba_marseille","lat":43.290103,"lon":5.356114,"is_reserved":false,"is_disabled":false,"rental_uris":{"android":"levelo://app?vid=679d0a9d-6da3-4a1e-b6dd-8bba9ea12d2d","ios":"levelo://app?vid=679d0a9d-6da3-4a1e-b6dd-8bba9ea12d2d"},"vehicle_type_id":"4","last_reported":1683223693,"current_range_meters":8400,"station_id":"ce4bhb92rcd13ifvqen0","pricing_plan_id":"free"},{"bike_id":"ccfad3fb-c4e7-4a10-8a20-384d001faa4b","system_id":"levelo_inurba_marseille","lat":43.29013,"lon":5.35611,"is_reserved":false,"is_disabled":false,"rental_uris":{"android":"levelo://app?vid=ccfad3fb-c4e7-4a10-8a20-384d001faa4b","ios":"levelo://app?vid=ccfad3fb-c4e7-4a10-8a20-384d001faa4b"},"vehicle_type_id":"4","last_reported":1683223693,"current_range_meters":18800,"station_id":"ce4bhb92rcd13ifvqen0","pricing_plan_id":"free"},{"bike_id":"dc7d1bdf-0a54-4cc8-b806-f78657b75a38","system_id":"levelo_inurba_marseille","lat":43.290103,"lon":5.356114,"is_reserved":false,"is_disabled":false,"rental_uris":{"android":"levelo://app?vid=dc7d1bdf-0a54-4cc8-b806-f78657b75a38","ios":"levelo://app?vid=dc7d1bdf-0a54-4cc8-b806-f78657b75a38"},"vehicle_type_id":"4","last_reported":1683223693,"current_range_meters":29600,"station_id":"ce4bhb92rcd13ifvqen0","pricing_plan_id":"free"},{"bike_id":"10a8eeb7-4f93-4e8d-81bd-f27d3d4ef515","system_id":"levelo_inurba_marseille","lat":43.33041,"lon":5.38917,"is_reserved":false,"is_disabled":false,"rental_uris":{"android":"levelo://app?vid=10a8eeb7-4f93-4e8d-81bd-f27d3d4ef515","ios":"levelo://app?vid=10a8eeb7-4f93-4e8d-81bd-f27d3d4ef515"},"vehicle_type_id":"4","last_reported":1683223693,"current_range_meters":8400,"station_id":"ce4bhr92rcd13ifvqhrg","pricing_plan_id":"free"},{"bike_id":"141f0585-81e8-4f07-8cfd-1990462c1208","system_id":"levelo_inurba_marseille","lat":43.29009,"lon":5.35618,"is_reserved":false,"is_disabled":false,"rental_uris":{"android":"levelo://app?vid=141f0585-81e8-4f07-8cfd-1990462c1208","ios":"levelo://app?vid=141f0585-81e8-4f07-8cfd-1990462c1208"},"vehicle_type_id":"4","last_reported":1683223693,"current_range_meters":10400,"station_id":"ce4bhb92rcd13ifvqen0","pricing_plan_id":"free"},{"bike_id":"a21a3b5f-352f-4f8e-98aa-00133f51ad41","system_id":"levelo_inurba_marseille","lat":43.330405,"lon":5.389184,"is_reserved":false,"is_disabled":false,"rental_uris":{"android":"levelo://app?vid=a21a3b5f-352f-4f8e-98aa-00133f51ad41","ios":"levelo://app?vid=a21a3b5f-352f-4f8e-98aa-00133f51ad41"},"vehicle_type_id":"4","last_reported":1683223693,"current_range_meters":5600,"station_id":"ce4bhr92rcd13ifvqhrg","pricing_plan_id":"free"},{"bike_id":"30ad873a-5543-4d2f-bfe8-d10e8f94a3ab","system_id":"levelo_inurba_marseille","lat":43.33039,"lon":5.38921,"is_reserved":false,"is_disabled":false,"rental_uris":{"android":"levelo://app?vid=30ad873a-5543-4d2f-bfe8-d10e8f94a3ab","ios":"levelo://app?vid=30ad873a-5543-4d2f-bfe8-d10e8f94a3ab"},"vehicle_type_id":"4","last_reported":1683223693,"current_range_meters":30800,"station_id":"ce4bhr92rcd13ifvqhrg","pricing_plan_id":"free"},{"bike_id":"f3f24247-5ae2-4927-98db-8e7e6ecaa688","system_id":"levelo_inurba_marseille","lat":43.33044,"lon":5.38915,"is_reserved":false,"is_disabled":false,"rental_uris":{"android":"levelo://app?vid=f3f24247-5ae2-4927-98db-8e7e6ecaa688","ios":"levelo://app?vid=f3f24247-5ae2-4927-98db-8e7e6ecaa688"},"vehicle_type_id":"4","last_reported":1683223693,"current_range_meters":27600,"station_id":"ce4bhr92rcd13ifvqhrg","pricing_plan_id":"free"},{"bike_id":"eb660c79-5ced-4073-bab6-8daff90b04ad","system_id":"levelo_inurba_marseille","lat":43.29009,"lon":5.35613,"is_reserved":false,"is_disabled":false,"rental_uris":{"android":"levelo://app?vid=eb660c79-5ced-4073-bab6-8daff90b04ad","ios":"levelo://app?vid=eb660c79-5ced-4073-bab6-8daff90b04ad"},"vehicle_type_id":"4","last_reported":1683223693,"current_range_meters":22000,"station_id":"ce4bhb92rcd13ifvqen0","pricing_plan_id":"free"},{"bike_id":"8c9f20e3-9dd4-4792-9384-c25aa421ff1b","system_id":"levelo_inurba_marseille","lat":43.2901,"lon":5.35608,"is_reserved":false,"is_disabled":false,"rental_uris":{"android":"levelo://app?vid=8c9f20e3-9dd4-4792-9384-c25aa421ff1b","ios":"levelo://app?vid=8c9f20e3-9dd4-4792-9384-c25aa421ff1b"},"vehicle_type_id":"4","last_reported":1683223693,"current_range_meters":28000,"station_id":"ce4bhb92rcd13ifvqen0","pricing_plan_id":"free"},{"bike_id":"9714825d-a95b-4dcd-88dc-74c8919c0bbe","system_id":"levelo_inurba_marseille","lat":43.330431,"lon":5.389178,"is_reserved":false,"is_disabled":false,"rental_uris":{"android":"levelo://app?vid=9714825d-a95b-4dcd-88dc-74c8919c0bbe","ios":"levelo://app?vid=9714825d-a95b-4dcd-88dc-74c8919c0bbe"},"vehicle_type_id":"4","last_reported":1683223693,"current_range_meters":25200,"station_id":"ce4bhr92rcd13ifvqhrg","pricing_plan_id":"free"},{"bike_id":"da86836b-d020-456b-ad95-a73c452d8db8","system_id":"levelo_inurba_marseille","lat":43.330431,"lon":5.389179,"is_reserved":false,"is_disabled":false,"rental_uris":{"android":"levelo://app?vid=da86836b-d020-456b-ad95-a73c452d8db8","ios":"levelo://app?vid=da86836b-d020-456b-ad95-a73c452d8db8"},"vehicle_type_id":"4","last_reported":1683223693,"current_range_meters":26400,"station_id":"ce4bhr92rcd13ifvqhrg","pricing_plan_id":"free"},{"bike_id":"5c2486a4-3b58-497a-a464-2d992cf4f833","system_id":"levelo_inurba_marseille","lat":43.33046,"lon":5.389146,"is_reserved":false,"is_disabled":false,"rental_uris":{"android":"levelo://app?vid=5c2486a4-3b58-497a-a464-2d992cf4f833","ios":"levelo://app?vid=5c2486a4-3b58-497a-a464-2d992cf4f833"},"vehicle_type_id":"4","last_reported":1683223693,"current_range_meters":24000,"station_id":"ce4bhr92rcd13ifvqhrg","pricing_plan_id":"free"},{"bike_id":"57904891-418c-40e6-a8e4-e94cde187d12","system_id":"levelo_inurba_marseille","lat":43.33046,"lon":5.389146,"is_reserved":false,"is_disabled":false,"rental_uris":{"android":"levelo://app?vid=57904891-418c-40e6-a8e4-e94cde187d12","ios":"levelo://app?vid=57904891-418c-40e6-a8e4-e94cde187d12"},"vehicle_type_id":"4","last_reported":1683223693,"current_range_meters":20800,"station_id":"ce4bhr92rcd13ifvqhrg","pricing_plan_id":"free"},{"bike_id":"8da22e4e-2bcc-4c11-a827-f9f80145fb1c","system_id":"levelo_inurba_marseille","lat":43.290103,"lon":5.356114,"is_reserved":false,"is_disabled":false,"rental_uris":{"android":"levelo://app?vid=8da22e4e-2bcc-4c11-a827-f9f80145fb1c","ios":"levelo://app?vid=8da22e4e-2bcc-4c11-a827-f9f80145fb1c"},"vehicle_type_id":"4","last_reported":1683223693,"current_range_meters":15600,"station_id":"ce4bhb92rcd13ifvqen0","pricing_plan_id":"free"},{"bike_id":"51ef3b46-b44e-4c98-9179-00f2fb9615b6","system_id":"levelo_inurba_marseille","lat":43.29008,"lon":5.35612,"is_reserved":false,"is_disabled":false,"rental_uris":{"android":"levelo://app?vid=51ef3b46-b44e-4c98-9179-00f2fb9615b6","ios":"levelo://app?vid=51ef3b46-b44e-4c98-9179-00f2fb9615b6"},"vehicle_type_id":"4","last_reported":1683223693,"current_range_meters":0,"station_id":"ce4bhb92rcd13ifvqen0","pricing_plan_id":"free"},{"bike_id":"74cae448-e1df-4edc-b77d-928d5818be6b","system_id":"levelo_inurba_marseille","lat":43.33042,"lon":5.38921,"is_reserved":false,"is_disabled":false,"rental_uris":{"android":"levelo://app?vid=74cae448-e1df-4edc-b77d-928d5818be6b","ios":"levelo://app?vid=74cae448-e1df-4edc-b77d-928d5818be6b"},"vehicle_type_id":"4","last_reported":1683223693,"current_range_meters":17200,"station_id":"ce4bhr92rcd13ifvqhrg","pricing_plan_id":"free"},{"bike_id":"2015997c-4a00-4105-bac6-b76c1056b050","system_id":"levelo_inurba_marseille","lat":43.29008,"lon":5.35611,"is_reserved":false,"is_disabled":false,"rental_uris":{"android":"levelo://app?vid=2015997c-4a00-4105-bac6-b76c1056b050","ios":"levelo://app?vid=2015997c-4a00-4105-bac6-b76c1056b050"},"vehicle_type_id":"4","last_reported":1683223693,"current_range_meters":21200,"station_id":"ce4bhb92rcd13ifvqen0","pricing_plan_id":"free"},{"bike_id":"adedc3c7-cffa-4280-be91-dca68dfbafe2","system_id":"levelo_inurba_marseille","lat":43.33043,"lon":5.3892,"is_reserved":false,"is_disabled":false,"rental_uris":{"android":"levelo://app?vid=adedc3c7-cffa-4280-be91-dca68dfbafe2","ios":"levelo://app?vid=adedc3c7-cffa-4280-be91-dca68dfbafe2"},"vehicle_type_id":"4","last_reported":1683223693,"current_range_meters":18800,"station_id":"ce4bhr92rcd13ifvqhrg","pricing_plan_id":"free"},{"bike_id":"c0b39783-7886-4047-9a8d-355fea0e4444","system_id":"levelo_inurba_marseille","lat":43.330462,"lon":5.389152,"is_reserved":false,"is_disabled":false,"rental_uris":{"android":"levelo://app?vid=c0b39783-7886-4047-9a8d-355fea0e4444","ios":"levelo://app?vid=c0b39783-7886-4047-9a8d-355fea0e4444"},"vehicle_type_id":"4","last_reported":1683223693,"current_range_meters":29200,"station_id":"ce4bhr92rcd13ifvqhrg","pricing_plan_id":"free"},{"bike_id":"21984273-151c-40fa-ab9c-b039a68a9897","system_id":"levelo_inurba_marseille","lat":43.330464,"lon":5.38915,"is_reserved":false,"is_disabled":false,"rental_uris":{"android":"levelo://app?vid=21984273-151c-40fa-ab9c-b039a68a9897","ios":"levelo://app?vid=21984273-151c-40fa-ab9c-b039a68a9897"},"vehicle_type_id":"4","last_reported":1683223693,"current_range_meters":31200,"station_id":"ce4bhr92rcd13ifvqhrg","pricing_plan_id":"free"},{"bike_id":"4f1e7325-39fd-4eb4-a591-dab06ee3a976","system_id":"levelo_inurba_marseille","lat":43.330469,"lon":5.389144,"is_reserved":false,"is_disabled":false,"rental_uris":{"android":"levelo://app?vid=4f1e7325-39fd-4eb4-a591-dab06ee3a976","ios":"levelo://app?vid=4f1e7325-39fd-4eb4-a591-dab06ee3a976"},"vehicle_type_id":"4","last_reported":1683223693,"current_range_meters":26800,"station_id":"ce4bhr92rcd13ifvqhrg","pricing_plan_id":"free"},{"bike_id":"5425bff3-6a20-43eb-8a41-92c61f6607e4","system_id":"levelo_inurba_marseille","lat":43.33047,"lon":5.38915,"is_reserved":false,"is_disabled":false,"rental_uris":{"android":"levelo://app?vid=5425bff3-6a20-43eb-8a41-92c61f6607e4","ios":"levelo://app?vid=5425bff3-6a20-43eb-8a41-92c61f6607e4"},"vehicle_type_id":"4","last_reported":1683223693,"current_range_meters":31200,"station_id":"ce4bhr92rcd13ifvqhrg","pricing_plan_id":"free"},{"bike_id":"1067dec6-4371-43f4-a705-4306725993fb","system_id":"levelo_inurba_marseille","lat":43.29007,"lon":5.35612,"is_reserved":false,"is_disabled":false,"rental_uris":{"android":"levelo://app?vid=1067dec6-4371-43f4-a705-4306725993fb","ios":"levelo://app?vid=1067dec6-4371-43f4-a705-4306725993fb"},"vehicle_type_id":"4","last_reported":1683223693,"current_range_meters":0,"station_id":"ce4bhb92rcd13ifvqen0","pricing_plan_id":"free"},{"bike_id":"496fc879-c6a2-4335-9eab-2fdd6a6f8bf1","system_id":"levelo_inurba_marseille","lat":43.33044,"lon":5.3892,"is_reserved":false,"is_disabled":false,"rental_uris":{"android":"levelo://app?vid=496fc879-c6a2-4335-9eab-2fdd6a6f8bf1","ios":"levelo://app?vid=496fc879-c6a2-4335-9eab-2fdd6a6f8bf1"},"vehicle_type_id":"4","last_reported":1683223693,"current_range_meters":25200,"station_id":"ce4bhr92rcd13ifvqhrg","pricing_plan_id":"free"},{"bike_id":"534cf5cb-4d3e-4976-95ae-880426904b5c","system_id":"levelo_inurba_marseille","lat":43.29008,"lon":5.35607,"is_reserved":false,"is_disabled":false,"rental_uris":{"android":"levelo://app?vid=534cf5cb-4d3e-4976-95ae-880426904b5c","ios":"levelo://app?vid=534cf5cb-4d3e-4976-95ae-880426904b5c"},"vehicle_type_id":"4","last_reported":1683223693,"current_range_meters":31200,"station_id":"ce4bhb92rcd13ifvqen0","pricing_plan_id":"free"},{"bike_id":"ad00beee-494a-40c7-a007-504f313d17da","system_id":"levelo_inurba_marseille","lat":43.29008,"lon":5.35607,"is_reserved":false,"is_disabled":false,"rental_uris":{"android":"levelo://app?vid=ad00beee-494a-40c7-a007-504f313d17da","ios":"levelo://app?vid=ad00beee-494a-40c7-a007-504f313d17da"},"vehicle_type_id":"4","last_reported":1683223693,"current_range_meters":30400,"station_id":"ce4bhb92rcd13ifvqen0","pricing_plan_id":"free"},{"bike_id":"0c1cc55e-a891-4eaa-ad65-efafae3f1fa2","system_id":"levelo_inurba_marseille","lat":43.330469,"lon":5.389158,"is_reserved":false,"is_disabled":false,"rental_uris":{"android":"levelo://app?vid=0c1cc55e-a891-4eaa-ad65-efafae3f1fa2","ios":"levelo://app?vid=0c1cc55e-a891-4eaa-ad65-efafae3f1fa2"},"vehicle_type_id":"4","last_reported":1683223693,"current_range_meters":28800,"station_id":"ce4bhr92rcd13ifvqhrg","pricing_plan_id":"free"},{"bike_id":"d6233f8b-531d-433b-b8e9-589e3920c098","system_id":"levelo_inurba_marseille","lat":43.330466,"lon":5.389166,"is_reserved":false,"is_disabled":false,"rental_uris":{"android":"levelo://app?vid=d6233f8b-531d-433b-b8e9-589e3920c098","ios":"levelo://app?vid=d6233f8b-531d-433b-b8e9-589e3920c098"},"vehicle_type_id":"4","last_reported":1683223693,"current_range_meters":29600,"station_id":"ce4bhr92rcd13ifvqhrg","pricing_plan_id":"free"},{"bike_id":"14387557-5e2c-44f3-bce1-52f1996824d8","system_id":"levelo_inurba_marseille","lat":43.29008,"lon":5.35606,"is_reserved":false,"is_disabled":false,"rental_uris":{"android":"levelo://app?vid=14387557-5e2c-44f3-bce1-52f1996824d8","ios":"levelo://app?vid=14387557-5e2c-44f3-bce1-52f1996824d8"},"vehicle_type_id":"4","last_reported":1683223693,"current_range_meters":28000,"station_id":"ce4bhb92rcd13ifvqen0","pricing_plan_id":"free"},