{"last_updated":1747124124,"ttl":60,"version":"2.2","data":{"bikes":[{"bike_id":"83a81ffb-3d1c-4122-a406-60b114a380fc","system_id":"levelo_inurba_marseille","lat":43.21196,"lon":5.35061,"is_reserved":false,"is_disabled":false,"rental_uris":{"android":"levelo://app?vid=83a81ffb-3d1c-4122-a406-60b114a380fc","ios":"levelo://app?vid=83a81ffb-3d1c-4122-a406-60b114a380fc"},"vehicle_type_id":"4","last_reported":1747124124,"current_range_meters":2800,"station_id":"st_cvj6sg6p6f1abm77japg","pricing_plan_id":"cebpf4jnsgd1na2vs0mg"},{"bike_id":"013a5f33-53c3-4289-9669-f9b403578588","system_id":"levelo_inurba_marseille","lat":43.30548,"lon":5.36634,"is_reserved":false,"is_disabled":false,"rental_uris":{"android":"levelo://app?vid=013a5f33-53c3-4289-9669-f9b403578588","ios":"levelo://app?vid=013a5f33-53c3-4289-9669-f9b403578588"},"vehicle_type_id":"4","last_reported":1747124124,"current_range_meters":3200,"station_id":"","pricing_plan_id":"cebpf4jnsgd1na2vs0mg"},{"bike_id":"f8aa787f-6e63-4a84-8604-1a0cb885f431","system_id":"levelo_inurba_marseille","lat":43.29738,"lon":5.38136,"is_reserved":false,"is_disabled":false,"rental_uris":{"android":"levelo://app?vid=f8aa787f-6e63-4a84-8604-1a0cb885f431","ios":"levelo://app?vid=f8aa787f-6e63-4a84-8604-1a0cb885f431"},"vehicle_type_id":"4","last_reported":1747124124,"current_range_meters":3200,"station_id":"","pricing_plan_id":"cebpf4jnsgd1na2vs0mg"},{"bike_id":"e5884487-1016-4565-b59a-ba529b597afc","system_id":"levelo_inurba_marseille","lat":43.2844,"lon":5.39207,"is_reserved":false,"is_disabled":false,"rental_uris":{"android":"levelo://app?vid=e5884487-1016-4565-b59a-ba529b597afc","ios":"levelo://app?vid=e5884487-1016-4565-b59a-ba529b597afc"},"vehicle_type_id":"4","last_reported":1747124124,"current_range_meters":3200,"station_id":"ce4bhoh2rcd13ifvqh5g","pricing_plan_id":"cebpf4jnsgd1na2vs0mg"},{"bike_id":"6e025b54-e7c0-4b11-9bbd-de1605f6606e","system_id":"levelo_inurba_marseille","lat":43.268683,"lon":5.388983,"is_reserved":false,"is_disabled":false,"rental_uris":{"android":"levelo://app?vid=6e025b54-e7c0-4b11-9bbd-de1605f6606e","ios":"levelo://app?vid=6e025b54-e7c0-4b11-9bbd-de1605f6606e"},"vehicle_type_id":"4","last_reported":1747124124,"current_range_meters":3600,"station_id":"ce4bhhp2rcd13ifvqfm0","pricing_plan_id":"cebpf4jnsgd1na2vs0mg"},{"bike_id":"675ffaa2-5e67-4fa4-bf52-fc3c96b11e79","system_id":"levelo_inurba_marseille","lat":43.30423,"lon":5.39734,"is_reserved":false,"is_disabled":true,"rental_uris":{"android":"levelo://app?vid=675ffaa2-5e67-4fa4-bf52-fc3c96b11e79","ios":"levelo://app?vid=675ffaa2-5e67-4fa4-bf52-fc3c96b11e79"},"vehicle_type_id":"4","last_reported":1747124124,"current_range_meters":4000,"station_id":"ce4bh092rcd13ifvqd20","pricing_plan_id":"cebpf4jnsgd1na2vs0mg"},{"bike_id":"77b13040-c262-4220-bb34-a589814547cb","system_id":"levelo_inurba_marseille","lat":43.25493,"lon":5.37646,"is_reserved":false,"is_disabled":false,"rental_uris":{"android":"levelo://app?vid=77b13040-c262-4220-bb34-a589814547cb","ios":"levelo://app?vid=77b13040-c262-4220-bb34-a589814547cb"},"vehicle_type_id":"4","last_reported":1747124124,"current_range_meters":4000,"station_id":"ce4bhh12rcd13ifvqff0","pricing_plan_id":"cebpf4jnsgd1na2vs0mg"},{"bike_id":"54e81f89-d660-44d3-8f7a-f048ea47fa82","system_id":"levelo_inurba_marseille","lat":43.29972,"lon":5.371828,"is_reserved":false,"is_disabled":true,"rental_uris":{"android":"levelo://app?vid=54e81f89-d660-44d3-8f7a-f048ea47fa82","ios":"levelo://app?vid=54e81f89-d660-44d3-8f7a-f048ea47fa82"},"vehicle_type_id":"4","last_reported":1747124124,"current_range_meters":4000,"station_id":"ce4bgr92rcd13ifvqc7g","pricing_plan_id":"cebpf4jnsgd1na2vs0mg"},{"bike_id":"00f53d6a-92e6-4c08-a7b8-d7438a4d7080","system_id":"levelo_inurba_marseille","lat":43.30641,"lon":5.40086,"is_reserved":false,"is_disabled":false,"rental_uris":{"android":"levelo://app?vid=00f53d6a-92e6-4c08-a7b8-d7438a4d7080","ios":"levelo://app?vid=00f53d6a-92e6-4c08-a7b8-d7438a4d7080"},"vehicle_type_id":"4","last_reported":1747124124,"current_range_meters":4000,"station_id":"ce4bh112rcd13ifvqda0","pricing_plan_id":"cebpf4jnsgd1na2vs0mg"},{"bike_id":"42ba6392-3609-40b4-8332-5066f7b15b9e","system_id":"levelo_inurba_marseille","lat":43.25944,"lon":5.40889,"is_reserved":false,"is_disabled":false,"rental_uris":{"android":"levelo://app?vid=42ba6392-3609-40b4-8332-5066f7b15b9e","ios":"levelo://app?vid=42ba6392-3609-40b4-8332-5066f7b15b9e"},"vehicle_type_id":"4","last_reported":1747124124,"current_range_meters":4000,"station_id":"ce4bhm92rcd13ifvqglg","pricing_plan_id":"cebpf4jnsgd1na2vs0mg"},{"bike_id":"2deb1013-2a4e-4281-83f4-5de1b133ca70","system_id":"levelo_inurba_marseille","lat":43.299035,"lon":5.436524,"is_reserved":false,"is_disabled":false,"rental_uris":{"android":"levelo://app?vid=2deb1013-2a4e-4281-83f4-5de1b133ca70","ios":"levelo://app?vid=2deb1013-2a4e-4281-83f4-5de1b133ca70"},"vehicle_type_id":"4","last_reported":1747124124,"current_range_meters":4000,"station_id":"ce4bhpp2rcd13ifvqhfg","pricing_plan_id":"cebpf4jnsgd1na2vs0mg"},{"bike_id":"1de2a0eb-7884-4a71-b601-09cbc636fb81","system_id":"levelo_inurba_marseille","lat":43.255798,"lon":5.382245,"is_reserved":false,"is_disabled":false,"rental_uris":{"android":"levelo://app?vid=1de2a0eb-7884-4a71-b601-09cbc636fb81","ios":"levelo://app?vid=1de2a0eb-7884-4a71-b601-09cbc636fb81"},"vehicle_type_id":"4","last_reported":1747124124,"current_range_meters":4800,"station_id":"ce4bhih2rcd13ifvqfs0","pricing_plan_id":"cebpf4jnsgd1na2vs0mg"},{"bike_id":"c97bfc42-8bb9-4f24-b385-2c8a940fa55c","system_id":"levelo_inurba_marseille","lat":43.2904,"lon":5.39965,"is_reserved":false,"is_disabled":false,"rental_uris":{"android":"levelo://app?vid=c97bfc42-8bb9-4f24-b385-2c8a940fa55c","ios":"levelo://app?vid=c97bfc42-8bb9-4f24-b385-2c8a940fa55c"},"vehicle_type_id":"4","last_reported":1747124124,"current_range_meters":4800,"station_id":"ce4bh392rcd13ifvqdm0","pricing_plan_id":"cebpf4jnsgd1na2vs0mg"},{"bike_id":"dcf57f3c-3012-4f9c-8b5a-64f283cdfafa","system_id":"levelo_inurba_marseille","lat":43.30145,"lon":5.374083,"is_reserved":false,"is_disabled":false,"rental_uris":{"android":"levelo://app?vid=dcf57f3c-3012-4f9c-8b5a-64f283cdfafa","ios":"levelo://app?vid=dcf57f3c-3012-4f9c-8b5a-64f283cdfafa"},"vehicle_type_id":"4","last_reported":1747124124,"current_range_meters":4800,"station_id":"ce4bgs92rcd13ifvqcc0","pricing_plan_id":"cebpf4jnsgd1na2vs0mg"},{"bike_id":"36d839a0-edb3-4318-a48a-be7e488e7740","system_id":"levelo_inurba_marseille","lat":43.31357,"lon":5.38493,"is_reserved":false,"is_disabled":false,"rental_uris":{"android":"levelo://app?vid=36d839a0-edb3-4318-a48a-be7e488e7740","ios":"levelo://app?vid=36d839a0-edb3-4318-a48a-be7e488e7740"},"vehicle_type_id":"4","last_reported":1747124124,"current_range_meters":6000,"station_id":"ce4bgt92rcd13ifvqcf0","pricing_plan_id":"cebpf4jnsgd1na2vs0mg"},{"bike_id":"af932aaf-7e58-428b-b2f7-96d259d51d26","system_id":"levelo_inurba_marseille","lat":43.27907,"lon":5.41246,"is_reserved":false,"is_disabled":true,"rental_uris":{"android":"levelo://app?vid=af932aaf-7e58-428b-b2f7-96d259d51d26","ios":"levelo://app?vid=af932aaf-7e58-428b-b2f7-96d259d51d26"},"vehicle_type_id":"4","last_reported":1747124124,"current_range_meters":6000,"station_id":"","pricing_plan_id":"cebpf4jnsgd1na2vs0mg"},{"bike_id":"de3d7391-2c99-4d28-a053-4b7978ff0797","system_id":"levelo_inurba_marseille","lat":43.30462,"lon":5.37897,"is_reserved":false,"is_disabled":true,"rental_uris":{"android":"levelo://app?vid=de3d7391-2c99-4d28-a053-4b7978ff0797","ios":"levelo://app?vid=de3d7391-2c99-4d28-a053-4b7978ff0797"},"vehicle_type_id":"4","last_reported":1747124124,"current_range_meters":6000,"station_id":"ce4bgup2rcd13ifvqcn0","pricing_plan_id":"cebpf4jnsgd1na2vs0mg"},{"bike_id":"b624861a-543e-42d4-a5f3-bef12b5a4d8c","system_id":"levelo_inurba_marseille","lat":43.26207,"lon":5.37442,"is_reserved":false,"is_disabled":false,"rental_uris":{"android":"levelo://app?vid=b624861a-543e-42d4-a5f3-bef12b5a4d8c","ios":"levelo://app?vid=b624861a-543e-42d4-a5f3-bef12b5a4d8c"},"vehicle_type_id":"4","last_reported":1747124124,"current_range_meters":6400,"station_id":"ce4bhgp2rcd13ifvqfc0","pricing_plan_id":"cebpf4jnsgd1na2vs0mg"},{"bike_id":"d447a9b2-bdb2-4009-8a67-b6ef2e99934c","system_id":"levelo_inurba_marseille","lat":43.27491,"lon":5.42454,"is_reserved":false,"is_disabled":false,"rental_uris":{"android":"levelo://app?vid=d447a9b2-bdb2-4009-8a67-b6ef2e99934c","ios":"levelo://app?vid=d447a9b2-bdb2-4009-8a67-b6ef2e99934c"},"vehicle_type_id":"4","last_reported":1747124124,"current_range_meters":6400,"station_id":"ce4bhn92rcd13ifvqgrg","pricing_plan_id":"cebpf4jnsgd1na2vs0mg"},{"bike_id":"b0ac8040-90e0-41ee-a2e3-e5462910fefc","system_id":"levelo_inurba_marseille","lat":43.27533,"lon":5.41293,"is_reserved":false,"is_disabled":false,"rental_uris":{"android":"levelo://app?vid=b0ac8040-90e0-41ee-a2e3-e5462910fefc","ios":"levelo://app?vid=b0ac8040-90e0-41ee-a2e3-e5462910fefc"},"vehicle_type_id":"4","last_reported":1747124124,"current_range_meters":6400,"station_id":"","pricing_plan_id":"cebpf4jnsgd1na2vs0mg"},{"bike_id":"0a7e584e-880e-41a6-aef5-ff83f35e27d8","system_id":"levelo_inurba_marseille","lat":43.3061,"lon":5.40464,"is_reserved":false,"is_disabled":false,"rental_uris":{"android":"levelo://app?vid=0a7e584e-880e-41a6-aef5-ff83f35e27d8","ios":"levelo://app?vid=0a7e584e-880e-41a6-aef5-ff83f35e27d8"},"vehicle_type_id":"4","last_reported":1747124124,"current_range_meters":6400,"station_id":"","pricing_plan_id":"cebpf4jnsgd1na2vs0mg"},{"bike_id":"7e8c3c01-68d4-4786-baf3-baa30f37590e","system_id":"levelo_inurba_marseille","lat":43.29554,"lon":5.4229,"is_reserved":false,"is_disabled":false,"rental_uris":{"android":"levelo://app?vid=7e8c3c01-68d4-4786-baf3-baa30f37590e","ios":"levelo://app?vid=7e8c3c01-68d4-4786-baf3-baa30f37590e"},"vehicle_type_id":"4","last_reported":1747124124,"current_range_meters":6400,"station_id":"ce4bhph2rcd13ifvqhdg","pricing_plan_id":"cebpf4jnsgd1na2vs0mg"},{"bike_id":"ea43783d-8b54-48fc-b7dc-9031385273ca","system_id":"levelo_inurba_marseille","lat":43.26056,"lon":5.39397,"is_reserved":false,"is_disabled":false,"rental_uris":{"android":"levelo://app?vid=ea43783d-8b54-48fc-b7dc-9031385273ca","ios":"levelo://app?vid=ea43783d-8b54-48fc-b7dc-9031385273ca"},"vehicle_type_id":"4","last_reported":1747124124,"current_range_meters":6400,"station_id":"ce4bhh92rcd13ifvqfj0","pricing_plan_id":"cebpf4jnsgd1na2vs0mg"},{"bike_id":"45e59acf-e5ba-4b37-90d2-c3dae3ac2106","system_id":"levelo_inurba_marseille","lat":43.25933,"lon":5.40909,"is_reserved":false,"is_disabled":false,"rental_uris":{"android":"levelo://app?vid=45e59acf-e5ba-4b37-90d2-c3dae3ac2106","ios":"levelo://app?vid=45e59acf-e5ba-4b37-90d2-c3dae3ac2106"},"vehicle_type_id":"4","last_reported":1747124124,"current_range_meters":6800,"station_id":"ce4bhm92rcd13ifvqglg","pricing_plan_id":"cebpf4jnsgd1na2vs0mg"},{"bike_id":"bab1d54c-b97e-4bc3-9dc0-e1277431a25f","system_id":"levelo_inurba_marseille","lat":43.27203,"lon":5.39178,"is_reserved":false,"is_disabled":false,"rental_uris":{"android":"levelo://app?vid=bab1d54c-b97e-4bc3-9dc0-e1277431a25f","ios":"levelo://app?vid=bab1d54c-b97e-4bc3-9dc0-e1277431a25f"},"vehicle_type_id":"4","last_reported":1747124124,"current_range_meters":6800,"station_id":"ce4bhhp2rcd13ifvqfm0","pricing_plan_id":"cebpf4jnsgd1na2vs0mg"},{"bike_id":"31dc98d3-f22e-4b7f-b9ba-6c85d6860141","system_id":"levelo_inurba_marseille","lat":43.29794,"lon":5.38089,"is_reserved":false,"is_disabled":false,"rental_uris":{"android":"levelo://app?vid=31dc98d3-f22e-4b7f-b9ba-6c85d6860141","ios":"levelo://app?vid=31dc98d3-f22e-4b7f-b9ba-6c85d6860141"},"vehicle_type_id":"4","last_reported":1747124124,"current_range_meters":6800,"station_id":"ce4bgip2rcd13ifvqbb0","pricing_plan_id":"cebpf4jnsgd1na2vs0mg"},{"bike_id":"5d601b07-ed36-41ed-a81b-62a8bc7d335d","system_id":"levelo_inurba_marseille","lat":43.30559,"lon":5.36654,"is_reserved":false,"is_disabled":false,"rental_uris":{"android":"levelo://app?vid=5d601b07-ed36-41ed-a81b-62a8bc7d335d","ios":"levelo://app?vid=5d601b07-ed36-41ed-a81b-62a8bc7d335d"},"vehicle_type_id":"4","last_reported":1747124124,"current_range_meters":7200,"station_id":"ce4bgrp2rcd13ifvqc9g","pricing_plan_id":"cebpf4jnsgd1na2vs0mg"},{"bike_id":"8dd06cc4-15d0-4439-b55a-250736d68405","system_id":"levelo_inurba_marseille","lat":43.27501,"lon":5.42455,"is_reserved":false,"is_disabled":false,"rental_uris":{"android":"levelo://app?vid=8dd06cc4-15d0-4439-b55a-250736d68405","ios":"levelo://app?vid=8dd06cc4-15d0-4439-b55a-250736d68405"},"vehicle_type_id":"4","last_reported":1747124124,"current_range_meters":7200,"station_id":"ce4bhn92rcd13ifvqgrg","pricing_plan_id":"cebpf4jnsgd1na2vs0mg"},{"bike_id":"8b3eac21-bb1f-4170-9c40-95292bcf13c4","system_id":"levelo_inurba_marseille","lat":43.3174,"lon":5.40399,"is_reserved":false,"is_disabled":false,"rental_uris":{"android":"levelo://app?vid=8b3eac21-bb1f-4170-9c40-95292bcf13c4","ios":"levelo://app?vid=8b3eac21-bb1f-4170-9c40-95292bcf13c4"},"vehicle_type_id":"4","last_reported":1747124124,"current_range_meters":7200,"station_id":"","pricing_plan_id":"cebpf4jnsgd1na2vs0mg"},{"bike_id":"52379935-97e0-42e7-9abb-355aa9877532","system_id":"levelo_inurba_marseille","lat":43.25934,"lon":5.40909,"is_reserved":false,"is_disabled":false,"rental_uris":{"android":"levelo://app?vid=52379935-97e0-42e7-9abb-355aa9877532","ios":"levelo://app?vid=52379935-97e0-42e7-9abb-355aa9877532"},"vehicle_type_id":"4","last_reported":1747124124,"current_range_meters":7200,"station_id":"ce4bhm92rcd13ifvqglg","pricing_plan_id":"cebpf4jnsgd1na2vs0mg"},{"bike_id":"cf119389-8c06-4449-a205-2b18fbb577ee","system_id":"levelo_inurba_marseille","lat":43.31698,"lon":5.40457,"is_reserved":false,"is_disabled":false,"rental_uris":{"android":"levelo://app?vid=cf119389-8c06-4449-a205-2b18fbb577ee","ios":"levelo://app?vid=cf119389-8c06-4449-a205-2b18fbb577ee"},"vehicle_type_id":"4","last_reported":1747124124,"current_range_meters":7200,"station_id":"ce4bh012rcd13ifvqd00","pricing_plan_id":"cebpf4jnsgd1na2vs0mg"},{"bike_id":"6dc6b7fc-2beb-4141-8b30-cc4179e02d57","system_id":"levelo_inurba_marseille","lat":43.2678,"lon":5.39411,"is_reserved":false,"is_disabled":false,"rental_uris":{"android":"levelo://app?vid=6dc6b7fc-2beb-4141-8b30-cc4179e02d57","ios":"levelo://app?vid=6dc6b7fc-2beb-4141-8b30-cc4179e02d57"},"vehicle_type_id":"4","last_reported":1747124124,"current_range_meters":8000,"station_id":"ce4bhh12rcd13ifvqfg0","pricing_plan_id":"cebpf4jnsgd1na2vs0mg"},{"bike_id":"55aeea8c-5b20-493c-9d32-40a5a9a19770","system_id":"levelo_inurba_marseille","lat":43.32365,"lon":5.38878,"is_reserved":false,"is_disabled":false,"rental_uris":{"android":"levelo://app?vid=55aeea8c-5b20-493c-9d32-40a5a9a19770","ios":"levelo://app?vid=55aeea8c-5b20-493c-9d32-40a5a9a19770"},"vehicle_type_id":"4","last_reported":1747124124,"current_range_meters":8000,"station_id":"ce4bhqp2rcd13ifvqhog","pricing_plan_id":"cebpf4jnsgd1na2vs0mg"},{"bike_id":"c7b813c9-6316-41bd-bf8b-71a4f268c8f3","system_id":"levelo_inurba_marseille","lat":43.30935,"lon":5.40138,"is_reserved":false,"is_disabled":false,"rental_uris":{"android":"levelo://app?vid=c7b813c9-6316-41bd-bf8b-71a4f268c8f3","ios":"levelo://app?vid=c7b813c9-6316-41bd-bf8b-71a4f268c8f3"},"vehicle_type_id":"4","last_reported":1747124124,"current_range_meters":8000,"station_id":"ce4bgvp2rcd13ifvqct0","pricing_plan_id":"cebpf4jnsgd1na2vs0mg"},{"bike_id":"9df488ec-a829-4c25-a919-b07a0b9f14c5","system_id":"levelo_inurba_marseille","lat":43.29849,"lon":5.36286,"is_reserved":false,"is_disabled":false,"rental_uris":{"android":"levelo://app?vid=9df488ec-a829-4c25-a919-b07a0b9f14c5","ios":"levelo://app?vid=9df488ec-a829-4c25-a919-b07a0b9f14c5"},"vehicle_type_id":"4","last_reported":1747124124,"current_range_meters":8400,"station_id":"ce4bgpp2rcd13ifvqc3g","pricing_plan_id":"cebpf4jnsgd1na2vs0mg"},{"bike_id":"c2cdc810-a80b-4b1e-ab8d-2ea3b4f98e83","system_id":"levelo_inurba_marseille","lat":43.2986,"lon":5.36252,"is_reserved":false,"is_disabled":false,"rental_uris":{"android":"levelo://app?vid=c2cdc810-a80b-4b1e-ab8d-2ea3b4f98e83","ios":"levelo://app?vid=c2cdc810-a80b-4b1e-ab8d-2ea3b4f98e83"},"vehicle_type_id":"4","last_reported":1747124124,"current_range_meters":8400,"station_id":"ce4bgpp2rcd13ifvqc3g","pricing_plan_id":"cebpf4jnsgd1na2vs0mg"},{"bike_id":"e0d99a85-facf-4212-9ad5-5ca875ad5eb7","system_id":"levelo_inurba_marseille","lat":43.29878,"lon":5.3973,"is_reserved":false,"is_disabled":false,"rental_uris":{"android":"levelo://app?vid=e0d99a85-facf-4212-9ad5-5ca875ad5eb7","ios":"levelo://app?vid=e0d99a85-facf-4212-9ad5-5ca875ad5eb7"},"vehicle_type_id":"4","last_reported":1747124124,"current_range_meters":8400,"station_id":"ce4bh0h2rcd13ifvqd50","pricing_plan_id":"cebpf4jnsgd1na2vs0mg"},{"bike_id":"cbc7eed1-f7c6-43f2-b64f-3b59b18e7401","system_id":"levelo_inurba_marseille","lat":43.22498,"lon":5.34747,"is_reserved":false,"is_disabled":true,"rental_uris":{"android":"levelo://app?vid=cbc7eed1-f7c6-43f2-b64f-3b59b18e7401","ios":"levelo://app?vid=cbc7eed1-f7c6-43f2-b64f-3b59b18e7401"},"vehicle_type_id":"4","last_reported":1747124124,"current_range_meters":8400,"station_id":"st_cvj5dfep6f1abm77gieg","pricing_plan_id":"cebpf4jnsgd1na2vs0mg"},{"bike_id":"33a545ff-6bb3-4b83-bd30-0a98fdfe7d18","system_id":"levelo_inurba_marseille","lat":43.27495,"lon":5.4245,"is_reserved":false,"is_disabled":false,"rental_uris":{"android":"levelo://app?vid=33a545ff-6bb3-4b83-bd30-0a98fdfe7d18","ios":"levelo://app?vid=33a545ff-6bb3-4b83-bd30-0a98fdfe7d18"},"vehicle_type_id":"4","last_reported":1747124124,"current_range_meters":8400,"station_id":"ce4bhn92rcd13ifvqgrg","pricing_plan_id":"cebpf4jnsgd1na2vs0mg"},{"bike_id":"2ee4d910-0ee1-4bc5-86c8-c77afad12b4f","system_id":"levelo_inurba_marseille","lat":43.321083,"lon":5.367805,"is_reserved":false,"is_disabled":false,"rental_uris":{"android":"levelo://app?vid=2ee4d910-0ee1-4bc5-86c8-c77afad12b4f","ios":"levelo://app?vid=2ee4d910-0ee1-4bc5-86c8-c77afad12b4f"},"vehicle_type_id":"4","last_reported":1747124124,"current_range_meters":8400,"station_id":"ce4bhrh2rcd13ifvqhug","pricing_plan_id":"cebpf4jnsgd1na2vs0mg"},{"bike_id":"90f7a598-8665-4e96-9fad-a3d0baca5f5f","system_id":"levelo_inurba_marseille","lat":43.297113,"lon":5.376923,"is_reserved":false,"is_disabled":false,"rental_uris":{"android":"levelo://app?vid=90f7a598-8665-4e96-9fad-a3d0baca5f5f","ios":"levelo://app?vid=90f7a598-8665-4e96-9fad-a3d0baca5f5f"},"vehicle_type_id":"4","last_reported":1747124124,"current_range_meters":8800,"station_id":"ce4bgkh2rcd13ifvqbl0","pricing_plan_id":"cebpf4jnsgd1na2vs0mg"},{"bike_id":"07f4e1a4-6053-4f5d-987c-f7c9b01c4468","system_id":"levelo_inurba_marseille","lat":43.269528,"lon":5.386354,"is_reserved":false,"is_disabled":false,"rental_uris":{"android":"levelo://app?vid=07f4e1a4-6053-4f5d-987c-f7c9b01c4468","ios":"levelo://app?vid=07f4e1a4-6053-4f5d-987c-f7c9b01c4468"},"vehicle_type_id":"4","last_reported":1747124124,"current_range_meters":8800,"station_id":"ce4bhh92rcd13ifvqfh0","pricing_plan_id":"cebpf4jnsgd1na2vs0mg"},{"bike_id":"ad3b42f4-5ed8-429a-90a9-7e6d8ddc3961","system_id":"levelo_inurba_marseille","lat":43.25944,"lon":5.40914,"is_reserved":false,"is_disabled":false,"rental_uris":{"android":"levelo://app?vid=ad3b42f4-5ed8-429a-90a9-7e6d8ddc3961","ios":"levelo://app?vid=ad3b42f4-5ed8-429a-90a9-7e6d8ddc3961"},"vehicle_type_id":"4","last_reported":1747124124,"current_range_meters":8800,"station_id":"ce4bhm92rcd13ifvqglg","pricing_plan_id":"cebpf4jnsgd1na2vs0mg"},{"bike_id":"4dc8daa4-d312-4319-8983-5b0377018fcc","system_id":"levelo_inurba_marseille","lat":43.239591,"lon":5.366229,"is_reserved":false,"is_disabled":false,"rental_uris":{"android":"levelo://app?vid=4dc8daa4-d312-4319-8983-5b0377018fcc","ios":"levelo://app?vid=4dc8daa4-d312-4319-8983-5b0377018fcc"},"vehicle_type_id":"4","last_reported":1747124124,"current_range_meters":8400,"station_id":"ce4bhi12rcd13ifvqfp0","pricing_plan_id":"cebpf4jnsgd1na2vs0mg"},{"bike_id":"eed97d04-55c9-4469-844e-e04e6b043690","system_id":"levelo_inurba_marseille","lat":43.23965,"lon":5.36631,"is_reserved":false,"is_disabled":false,"rental_uris":{"android":"levelo://app?vid=eed97d04-55c9-4469-844e-e04e6b043690","ios":"levelo://app?vid=eed97d04-55c9-4469-844e-e04e6b043690"},"vehicle_type_id":"4","last_reported":1747124124,"current_range_meters":8800,"station_id":"ce4bhi12rcd13ifvqfp0","pricing_plan_id":"cebpf4jnsgd1na2vs0mg"},{"bike_id":"ed540130-b78f-4c87-8f88-0c0211b93e1c","system_id":"levelo_inurba_marseille","lat":43.25905,"lon":5.40865,"is_reserved":false,"is_disabled":false,"rental_uris":{"android":"levelo://app?vid=ed540130-b78f-4c87-8f88-0c0211b93e1c","ios":"levelo://app?vid=ed540130-b78f-4c87-8f88-0c0211b93e1c"},"vehicle_type_id":"4","last_reported":1747124124,"current_range_meters":8800,"station_id":"ce4bhm92rcd13ifvqglg","pricing_plan_id":"cebpf4jnsgd1na2vs0mg"},{"bike_id":"4d42a573-7ea3-48b5-a447-4fda0af734fb","system_id":"levelo_inurba_marseille","lat":43.25924,"lon":5.40865,"is_reserved":false,"is_disabled":false,"rental_uris":{"android":"levelo://app?vid=4d42a573-7ea3-48b5-a447-4fda0af734fb","ios":"levelo://app?vid=4d42a573-7ea3-48b5-a447-4fda0af734fb"},"vehicle_type_id":"4","last_reported":1747124124,"current_range_meters":9200,"station_id":"ce4bhm92rcd13ifvqglg","pricing_plan_id":"cebpf4jnsgd1na2vs0mg"},{"bike_id":"6b0a2887-7565-43a6-949c-d6ae4fe9866e","system_id":"levelo_inurba_marseille","lat":43.2679,"lon":5.40267,"is_reserved":false,"is_disabled":false,"rental_uris":{"android":"levelo://app?vid=6b0a2887-7565-43a6-949c-d6ae4fe9866e","ios":"levelo://app?vid=6b0a2887-7565-43a6-949c-d6ae4fe9866e"},"vehicle_type_id":"4","last_reported":1747124124,"current_range_meters":9200,"station_id":"ce501612rcd8frsf0b60","pricing_plan_id":"cebpf4jnsgd1na2vs0mg"},{"bike_id":"7e0a4aee-c233-4422-b318-f49623265f19","system_id":"levelo_inurba_marseille","lat":43.28474,"lon":5.38434,"is_reserved":false,"is_disabled":true,"rental_uris":{"android":"levelo://app?vid=7e0a4aee-c233-4422-b318-f49623265f19","ios":"levelo://app?vid=7e0a4aee-c233-4422-b318-f49623265f19"},"vehicle_type_id":"4","last_reported":1747124124,"current_range_meters":9200,"station_id":"ce4bh512rcd13ifvqe3g","pricing_plan_id":"cebpf4jnsgd1na2vs0mg"},{"bike_id":"5b9e64ba-9899-4b23-a690-13b257eef563","system_id":"levelo_inurba_marseille","lat":43.24802,"lon":5.37453,"is_reserved":false,"is_disabled":false,"rental_uris":{"android":"levelo://app?vid=5b9e64ba-9899-4b23-a690-13b257eef563","ios":"levelo://app?vid=5b9e64ba-9899-4b23-a690-13b257eef563"},"vehicle_type_id":"4","last_reported":1747124124,"current_range_meters":9200,"station_id":"ce4bhgh2rcd13ifvqfb0","pricing_plan_id":"cebpf4jnsgd1na2vs0mg"},{"bike_id":"5082294a-d0ed-451e-beab-e6c2f6524f06","system_id":"levelo_inurba_marseille","lat":43.25934,"lon":5.40907,"is_reserved":false,"is_disabled":false,"rental_uris":{"android":"levelo://app?vid=5082294a-d0ed-451e-beab-e6c2f6524f06","ios":"levelo://app?vid=5082294a-d0ed-451e-beab-e6c2f6524f06"},"vehicle_type_id":"4","last_reported":1747124124,"current_range_meters":9200,"station_id":"ce4bhm92rcd13ifvqglg","pricing_plan_id":"cebpf4jnsgd1na2vs0mg"},{"bike_id":"c00db854-6d7f-46b0-b0ff-3b4337274a1f","system_id":"levelo_inurba_marseille","lat":43.29615,"lon":5.37737,"is_reserved":false,"is_disabled":false,"rental_uris":{"android":"levelo://app?vid=c00db854-6d7f-46b0-b0ff-3b4337274a1f","ios":"levelo://app?vid=c00db854-6d7f-46b0-b0ff-3b4337274a1f"},"vehicle_type_id":"4","last_reported":1747124124,"current_range_meters":9600,"station_id":"ce4bgi92rcd13ifvqb90","pricing_plan_id":"cebpf4jnsgd1na2vs0mg"},{"bike_id":"8d991d4b-60ef-4c9f-a70c-1bbbbc5a3cff","system_id":"levelo_inurba_marseille","lat":43.24994,"lon":5.389285,"is_reserved":false,"is_disabled":false,"rental_uris":{"android":"levelo://app?vid=8d991d4b-60ef-4c9f-a70c-1bbbbc5a3cff","ios":"levelo://app?vid=8d991d4b-60ef-4c9f-a70c-1bbbbc5a3cff"},"vehicle_type_id":"4","last_reported":1747124124,"current_range_meters":9600,"station_id":"ce4bhgp2rcd13ifvqfd0","pricing_plan_id":"cebpf4jnsgd1na2vs0mg"},{"bike_id":"581fa52b-d332-45e3-9d7f-f18fbfd08e95","system_id":"levelo_inurba_marseille","lat":43.34152,"lon":5.40911,"is_reserved":false,"is_disabled":true,"rental_uris":{"android":"levelo://app?vid=581fa52b-d332-45e3-9d7f-f18fbfd08e95","ios":"levelo://app?vid=581fa52b-d332-45e3-9d7f-f18fbfd08e95"},"vehicle_type_id":"4","last_reported":1747124124,"current_range_meters":10000,"station_id":"ce4bhqh2rcd13ifvqhlg","pricing_plan_id":"cebpf4jnsgd1na2vs0mg"},{"bike_id":"0cc4eb21-80ad-4141-8799-66402bf47bda","system_id":"levelo_inurba_marseille","lat":43.324816,"lon":5.365608,"is_reserved":false,"is_disabled":false,"rental_uris":{"android":"levelo://app?vid=0cc4eb21-80ad-4141-8799-66402bf47bda","ios":"levelo://app?vid=0cc4eb21-80ad-4141-8799-66402bf47bda"},"vehicle_type_id":"4","last_reported":1747124124,"current_range_meters":10000,"station_id":"ce4bhs12rcd13ifvqhvg","pricing_plan_id":"cebpf4jnsgd1na2vs0mg"},{"bike_id":"d0a588e0-7e62-4c58-bb05-703ea488762e","system_id":"levelo_inurba_marseille","lat":43.26939,"lon":5.38655,"is_reserved":false,"is_disabled":false,"rental_uris":{"android":"levelo://app?vid=d0a588e0-7e62-4c58-bb05-703ea488762e","ios":"levelo://app?vid=d0a588e0-7e62-4c58-bb05-703ea488762e"},"vehicle_type_id":"4","last_reported":1747124124,"current_range_meters":10800,"station_id":"ce4bhh92rcd13ifvqfh0","pricing_plan_id":"cebpf4jnsgd1na2vs0mg"},{"bike_id":"0e89a721-196d-4572-b905-e39e1dafff7a","system_id":"levelo_inurba_marseille","lat":43.320981,"lon":5.367788,"is_reserved":false,"is_disabled":false,"rental_uris":{"android":"levelo://app?vid=0e89a721-196d-4572-b905-e39e1dafff7a","ios":"levelo://app?vid=0e89a721-196d-4572-b905-e39e1dafff7a"},"vehicle_type_id":"4","last_reported":1747124124,"current_range_meters":10800,"station_id":"ce4bhrh2rcd13ifvqhug","pricing_plan_id":"cebpf4jnsgd1na2vs0mg"},{"bike_id":"e84c688a-ffef-4e36-a7b2-d296ffd6333d","system_id":"levelo_inurba_marseille","lat":43.29565,"lon":5.42278,"is_reserved":false,"is_disabled":false,"rental_uris":{"android":"levelo://app?vid=e84c688a-ffef-4e36-a7b2-d296ffd6333d","ios":"levelo://app?vid=e84c688a-ffef-4e36-a7b2-d296ffd6333d"},"vehicle_type_id":"4","last_reported":1747124124,"current_range_meters":10800,"station_id":"ce4bhph2rcd13ifvqhdg","pricing_plan_id":"cebpf4jnsgd1na2vs0mg"},{"bike_id":"5de1e8df-cec1-47cf-b554-41f6e726d337","system_id":"levelo_inurba_marseille","lat":43.27412,"lon":5.406162,"is_reserved":false,"is_disabled":false,"rental_uris":{"android":"levelo://app?vid=5de1e8df-cec1-47cf-b554-41f6e726d337","ios":"levelo://app?vid=5de1e8df-cec1-47cf-b554-41f6e726d337"},"vehicle_type_id":"4","last_reported":1747124124,"current_range_meters":10800,"station_id":"","pricing_plan_id":"cebpf4jnsgd1na2vs0mg"},{"bike_id":"b30f391a-af9d-4674-a2e3-40864566bbcb","system_id":"levelo_inurba_marseille","lat":43.27485,"lon":5.42475,"is_reserved":false,"is_disabled":false,"rental_uris":{"android":"levelo://app?vid=b30f391a-af9d-4674-a2e3-40864566bbcb","ios":"levelo://app?vid=b30f391a-af9d-4674-a2e3-40864566bbcb"},"vehicle_type_id":"4","last_reported":1747124124,"current_range_meters":10800,"station_id":"ce4bhn92rcd13ifvqgrg","pricing_plan_id":"cebpf4jnsgd1na2vs0mg"},{"bike_id":"ab6e5cba-5635-420d-bf06-69ca122ab69d","system_id":"levelo_inurba_marseille","lat":43.29271,"lon":5.36844,"is_reserved":false,"is_disabled":false,"rental_uris":{"android":"levelo://app?vid=ab6e5cba-5635-420d-bf06-69ca122ab69d","ios":"levelo://app?vid=ab6e5cba-5635-420d-bf06-69ca122ab69d"},"vehicle_type_id":"4","last_reported":1747124124,"current_range_meters":11200,"station_id":"ce4bhbp2rcd13ifvqesg","pricing_plan_id":"cebpf4jnsgd1na2vs0mg"},{"bike_id":"61642ca3-630c-43ed-b625-1c95041c6ad0","system_id":"levelo_inurba_marseille","lat":43.29515,"lon":5.3751,"is_reserved":false,"is_disabled":false,"rental_uris":{"android":"levelo://app?vid=61642ca3-630c-43ed-b625-1c95041c6ad0","ios":"levelo://app?vid=61642ca3-630c-43ed-b625-1c95041c6ad0"},"vehicle_type_id":"4","last_reported":1747124124,"current_range_meters":11200,"station_id":"ce4bgkp2rcd13ifvqbmg","pricing_plan_id":"cebpf4jnsgd1na2vs0mg"},{"bike_id":"ccb6fedc-f69a-425c-8981-be536231bd9e","system_id":"levelo_inurba_marseille","lat":43.299803,"lon":5.384763,"is_reserved":false,"is_disabled":false,"rental_uris":{"android":"levelo://app?vid=ccb6fedc-f69a-425c-8981-be536231bd9e","ios":"levelo://app?vid=ccb6fedc-f69a-425c-8981-be536231bd9e"},"vehicle_type_id":"4","last_reported":1747124124,"current_range_meters":11200,"station_id":"ce4bgj92rcd13ifvqbd0","pricing_plan_id":"cebpf4jnsgd1na2vs0mg"},{"bike_id":"bfaa093e-5a0f-4c5b-b6d6-0fa018750020","system_id":"levelo_inurba_marseille","lat":43.30581,"lon":5.393576,"is_reserved":false,"is_disabled":false,"rental_uris":{"android":"levelo://app?vid=bfaa093e-5a0f-4c5b-b6d6-0fa018750020","ios":"levelo://app?vid=bfaa093e-5a0f-4c5b-b6d6-0fa018750020"},"vehicle_type_id":"4","last_reported":1747124124,"current_range_meters":11600,"station_id":"","pricing_plan_id":"cebpf4jnsgd1na2vs0mg"},{"bike_id":"3e2de553-1da6-485a-af3c-c7dc6a5ab065","system_id":"levelo_inurba_marseille","lat":43.29715,"lon":5.37686,"is_reserved":false,"is_disabled":false,"rental_uris":{"android":"levelo://app?vid=3e2de553-1da6-485a-af3c-c7dc6a5ab065","ios":"levelo://app?vid=3e2de553-1da6-485a-af3c-c7dc6a5ab065"},"vehicle_type_id":"4","last_reported":1747124124,"current_range_meters":11600,"station_id":"ce4bgkh2rcd13ifvqbl0","pricing_plan_id":"cebpf4jnsgd1na2vs0mg"},{"bike_id":"ec0f827f-10e2-4296-bb83-7273ac749de2","system_id":"levelo_inurba_marseille","lat":43.29962,"lon":5.3717,"is_reserved":false,"is_disabled":false,"rental_uris":{"android":"levelo://app?vid=ec0f827f-10e2-4296-bb83-7273ac749de2","ios":"levelo://app?vid=ec0f827f-10e2-4296-bb83-7273ac749de2"},"vehicle_type_id":"4","last_reported":1747124124,"current_range_meters":11600,"station_id":"ce4bgr92rcd13ifvqc7g","pricing_plan_id":"cebpf4jnsgd1na2vs0mg"},{"bike_id":"893d7dd7-0a99-4e9d-867a-1af5a0254c07","system_id":"levelo_inurba_marseille","lat":43.27489,"lon":5.42457,"is_reserved":false,"is_disabled":false,"rental_uris":{"android":"levelo://app?vid=893d7dd7-0a99-4e9d-867a-1af5a0254c07","ios":"levelo://app?vid=893d7dd7-0a99-4e9d-867a-1af5a0254c07"},"vehicle_type_id":"4","last_reported":1747124124,"current_range_meters":12000,"station_id":"ce4bhn92rcd13ifvqgrg","pricing_plan_id":"cebpf4jnsgd1na2vs0mg"},{"bike_id":"a9fdfac9-13ae-4a51-8f3d-a89bb8a08b3d","system_id":"levelo_inurba_marseille","lat":43.23176,"lon":5.43742,"is_reserved":false,"is_disabled":false,"rental_uris":{"android":"levelo://app?vid=a9fdfac9-13ae-4a51-8f3d-a89bb8a08b3d","ios":"levelo://app?vid=a9fdfac9-13ae-4a51-8f3d-a89bb8a08b3d"},"vehicle_type_id":"4","last_reported":1747124124,"current_range_meters":12000,"station_id":"ce4bhmp2rcd13ifvqgog","pricing_plan_id":"cebpf4jnsgd1na2vs0mg"},{"bike_id":"0f760a05-8688-4092-988b-8aa98d007cb1","system_id":"levelo_inurba_marseille","lat":43.31368,"lon":5.36646,"is_reserved":false,"is_disabled":false,"rental_uris":{"android":"levelo://app?vid=0f760a05-8688-4092-988b-8aa98d007cb1","ios":"levelo://app?vid=0f760a05-8688-4092-988b-8aa98d007cb1"},"vehicle_type_id":"4","last_reported":1747124124,"current_range_meters":12000,"station_id":"","pricing_plan_id":"cebpf4jnsgd1na2vs0mg"},{"bike_id":"ac0112c9-313e-422c-910b-a3523b05b0c9","system_id":"levelo_inurba_marseille","lat":43.23053,"lon":5.35491,"is_reserved":false,"is_disabled":false,"rental_uris":{"android":"levelo://app?vid=ac0112c9-313e-422c-910b-a3523b05b0c9","ios":"levelo://app?vid=ac0112c9-313e-422c-910b-a3523b05b0c9"},"vehicle_type_id":"4","last_reported":1747124124,"current_range_meters":12400,"station_id":"cpo3342slgdg3j2ifvpg","pricing_plan_id":"cebpf4jnsgd1na2vs0mg"},{"bike_id":"1889b8ad-b11b-46d9-8116-26654ae3a059","system_id":"levelo_inurba_marseille","lat":43.28,"lon":5.4166,"is_reserved":false,"is_disabled":false,"rental_uris":{"android":"levelo://app?vid=1889b8ad-b11b-46d9-8116-26654ae3a059","ios":"levelo://app?vid=1889b8ad-b11b-46d9-8116-26654ae3a059"},"vehicle_type_id":"4","last_reported":1747124124,"current_range_meters":12400,"station_id":"ce4bho12rcd13ifvqh1g","pricing_plan_id":"cebpf4jnsgd1na2vs0mg"},{"bike_id":"85c0c8c2-a849-4d6d-b0f9-e585af005f4a","system_id":"levelo_inurba_marseille","lat":43.30545,"lon":5.36538,"is_reserved":false,"is_disabled":false,"rental_uris":{"android":"levelo://app?vid=85c0c8c2-a849-4d6d-b0f9-e585af005f4a","ios":"levelo://app?vid=85c0c8c2-a849-4d6d-b0f9-e585af005f4a"},"vehicle_type_id":"4","last_reported":1747124124,"current_range_meters":12800,"station_id":"ce4bgs12rcd13ifvqcag","pricing_plan_id":"cebpf4jnsgd1na2vs0mg"},{"bike_id":"44c5047d-1d44-4482-8acc-21bdfa903a84","system_id":"levelo_inurba_marseille","lat":43.26943,"lon":5.38631,"is_reserved":false,"is_disabled":false,"rental_uris":{"android":"levelo://app?vid=44c5047d-1d44-4482-8acc-21bdfa903a84","ios":"levelo://app?vid=44c5047d-1d44-4482-8acc-21bdfa903a84"},"vehicle_type_id":"4","last_reported":1747124124,"current_range_meters":12800,"station_id":"ce4bhh92rcd13ifvqfh0","pricing_plan_id":"cebpf4jnsgd1na2vs0mg"},{"bike_id":"ec756094-7b94-48ad-bc49-bc6731e894a4","system_id":"levelo_inurba_marseille","lat":43.29707,"lon":5.37692,"is_reserved":false,"is_disabled":false,"rental_uris":{"android":"levelo://app?vid=ec756094-7b94-48ad-bc49-bc6731e894a4","ios":"levelo://app?vid=ec756094-7b94-48ad-bc49-bc6731e894a4"},"vehicle_type_id":"4","last_reported":1747124124,"current_range_meters":12800,"station_id":"ce4bgkh2rcd13ifvqbl0","pricing_plan_id":"cebpf4jnsgd1na2vs0mg"},{"bike_id":"c5aee7ee-6430-44e6-9c4d-8af207d24af5","system_id":"levelo_inurba_marseille","lat":43.30136,"lon":5.37428,"is_reserved":false,"is_disabled":false,"rental_uris":{"android":"levelo://app?vid=c5aee7ee-6430-44e6-9c4d-8af207d24af5","ios":"levelo://app?vid=c5aee7ee-6430-44e6-9c4d-8af207d24af5"},"vehicle_type_id":"4","last_reported":1747124124,"current_range_meters":12800,"station_id":"ce4bgs92rcd13ifvqcc0","pricing_plan_id":"cebpf4jnsgd1na2vs0mg"},{"bike_id":"538ea052-8900-497a-9fb2-9da8e5720321","system_id":"levelo_inurba_marseille","lat":43.316813,"lon":5.389665,"is_reserved":false,"is_disabled":false,"rental_uris":{"android":"levelo://app?vid=538ea052-8900-497a-9fb2-9da8e5720321","ios":"levelo://app?vid=538ea052-8900-497a-9fb2-9da8e5720321"},"vehicle_type_id":"4","last_reported":1747124124,"current_range_meters":12800,"station_id":"","pricing_plan_id":"cebpf4jnsgd1na2vs0mg"},{"bike_id":"f702f1f1-baff-4710-b092-d4b131f8acb6","system_id":"levelo_inurba_marseille","lat":43.3037,"lon":5.42487,"is_reserved":false,"is_disabled":false,"rental_uris":{"android":"levelo://app?vid=f702f1f1-baff-4710-b092-d4b131f8acb6","ios":"levelo://app?vid=f702f1f1-baff-4710-b092-d4b131f8acb6"},"vehicle_type_id":"4","last_reported":1747124124,"current_range_meters":12800,"station_id":"ce4bhoh2rcd13ifvqh6g","pricing_plan_id":"cebpf4jnsgd1na2vs0mg"},{"bike_id":"f02696c0-f5b6-4cc3-b333-0870ffedead0","system_id":"levelo_inurba_marseille","lat":43.27966,"lon":5.38749,"is_reserved":false,"is_disabled":false,"rental_uris":{"android":"levelo://app?vid=f02696c0-f5b6-4cc3-b333-0870ffedead0","ios":"levelo://app?vid=f02696c0-f5b6-4cc3-b333-0870ffedead0"},"vehicle_type_id":"4","last_reported":1747124124,"current_range_meters":12800,"station_id":"ce4bhg12rcd13ifvqf80","pricing_plan_id":"cebpf4jnsgd1na2vs0mg"},{"bike_id":"3f9fc2f0-9223-4e10-83fe-f5bf34ba666b","system_id":"levelo_inurba_marseille","lat":43.23054,"lon":5.35494,"is_reserved":false,"is_disabled":false,"rental_uris":{"android":"levelo://app?vid=3f9fc2f0-9223-4e10-83fe-f5bf34ba666b","ios":"levelo://app?vid=3f9fc2f0-9223-4e10-83fe-f5bf34ba666b"},"vehicle_type_id":"4","last_reported":1747124124,"current_range_meters":13600,"station_id":"cpo3342slgdg3j2ifvpg","pricing_plan_id":"cebpf4jnsgd1na2vs0mg"},{"bike_id":"35a505e9-04f7-4347-81cc-30b41d88e289","system_id":"levelo_inurba_marseille","lat":43.30544,"lon":5.36706,"is_reserved":false,"is_disabled":false,"rental_uris":{"android":"levelo://app?vid=35a505e9-04f7-4347-81cc-30b41d88e289","ios":"levelo://app?vid=35a505e9-04f7-4347-81cc-30b41d88e289"},"vehicle_type_id":"4","last_reported":1747124124,"current_range_meters":13600,"station_id":"ce4bgrp2rcd13ifvqc9g","pricing_plan_id":"cebpf4jnsgd1na2vs0mg"},{"bike_id":"594573a6-84a2-4905-916c-17d9a6a266cd","system_id":"levelo_inurba_marseille","lat":43.25918,"lon":5.40906,"is_reserved":false,"is_disabled":false,"rental_uris":{"android":"levelo://app?vid=594573a6-84a2-4905-916c-17d9a6a266cd","ios":"levelo://app?vid=594573a6-84a2-4905-916c-17d9a6a266cd"},"vehicle_type_id":"4","last_reported":1747124124,"current_range_meters":14000,"station_id":"ce4bhm92rcd13ifvqglg","pricing_plan_id":"cebpf4jnsgd1na2vs0mg"},{"bike_id":"42557dae-bbe0-42c6-8015-b1021735213b","system_id":"levelo_inurba_marseille","lat":43.28474,"lon":5.35861,"is_reserved":false,"is_disabled":true,"rental_uris":{"android":"levelo://app?vid=42557dae-bbe0-42c6-8015-b1021735213b","ios":"levelo://app?vid=42557dae-bbe0-42c6-8015-b1021735213b"},"vehicle_type_id":"4","last_reported":1747124124,"current_range_meters":14000,"station_id":"ce4bhah2rcd13ifvqei0","pricing_plan_id":"cebpf4jnsgd1na2vs0mg"},{"bike_id":"92afb81e-0740-4403-a739-dfce020b88ef","system_id":"levelo_inurba_marseille","lat":43.308994,"lon":5.368404,"is_reserved":false,"is_disabled":false,"rental_uris":{"android":"levelo://app?vid=92afb81e-0740-4403-a739-dfce020b88ef","ios":"levelo://app?vid=92afb81e-0740-4403-a739-dfce020b88ef"},"vehicle_type_id":"4","last_reported":1747124124,"current_range_meters":14000,"station_id":"ce4bgn92rcd13ifvqbvg","pricing_plan_id":"cebpf4jnsgd1na2vs0mg"},{"bike_id":"a99d3dec-86f9-4358-9352-951da6a0c222","system_id":"levelo_inurba_marseille","lat":43.27424,"lon":5.39421,"is_reserved":false,"is_disabled":false,"rental_uris":{"android":"levelo://app?vid=a99d3dec-86f9-4358-9352-951da6a0c222","ios":"levelo://app?vid=a99d3dec-86f9-4358-9352-951da6a0c222"},"vehicle_type_id":"4","last_reported":1747124124,"current_range_meters":14000,"station_id":"ce4bhdp2rcd13ifvqf20","pricing_plan_id":"cebpf4jnsgd1na2vs0mg"},{"bike_id":"dd03de54-abbd-4017-b90b-3915fbd6f4b3","system_id":"levelo_inurba_marseille","lat":43.24373,"lon":5.37065,"is_reserved":false,"is_disabled":false,"rental_uris":{"android":"levelo://app?vid=dd03de54-abbd-4017-b90b-3915fbd6f4b3","ios":"levelo://app?vid=dd03de54-abbd-4017-b90b-3915fbd6f4b3"},"vehicle_type_id":"4","last_reported":1747124124,"current_range_meters":14400,"station_id":"ce4bhhh2rcd13ifvqfk0","pricing_plan_id":"cebpf4jnsgd1na2vs0mg"},{"bike_id":"82016476-3fc4-4cbc-bca2-a989535f16a6","system_id":"levelo_inurba_marseille","lat":43.31084,"lon":5.4243,"is_reserved":false,"is_disabled":false,"rental_uris":{"android":"levelo://app?vid=82016476-3fc4-4cbc-bca2-a989535f16a6","ios":"levelo://app?vid=82016476-3fc4-4cbc-bca2-a989535f16a6"},"vehicle_type_id":"4","last_reported":1747124124,"current_range_meters":14000,"station_id":"ce4bhp92rcd13ifvqhag","pricing_plan_id":"cebpf4jnsgd1na2vs0mg"},{"bike_id":"b6a34b9f-55ea-4a2b-b0ef-ca81c1bf74cb","system_id":"levelo_inurba_marseille","lat":43.3134,"lon":5.36748,"is_reserved":false,"is_disabled":false,"rental_uris":{"android":"levelo://app?vid=b6a34b9f-55ea-4a2b-b0ef-ca81c1bf74cb","ios":"levelo://app?vid=b6a34b9f-55ea-4a2b-b0ef-ca81c1bf74cb"},"vehicle_type_id":"4","last_reported":1747124124,"current_range_meters":14400,"station_id":"ce4bgr92rcd13ifvqc6g","pricing_plan_id":"cebpf4jnsgd1na2vs0mg"},{"bike_id":"70c8d0f0-8ef7-4637-8804-612ac3fa5023","system_id":"levelo_inurba_marseille","lat":43.303,"lon":5.36896,"is_reserved":false,"is_disabled":false,"rental_uris":{"android":"levelo://app?vid=70c8d0f0-8ef7-4637-8804-612ac3fa5023","ios":"levelo://app?vid=70c8d0f0-8ef7-4637-8804-612ac3fa5023"},"vehicle_type_id":"4","last_reported":1747124124,"current_range_meters":14400,"station_id":"ce4bgqh2rcd13ifvqc5g","pricing_plan_id":"cebpf4jnsgd1na2vs0mg"},{"bike_id":"40093641-a413-410f-b6ab-4e6a24ea2573","system_id":"levelo_inurba_marseille","lat":43.30569,"lon":5.36683,"is_reserved":false,"is_disabled":false,"rental_uris":{"android":"levelo://app?vid=40093641-a413-410f-b6ab-4e6a24ea2573","ios":"levelo://app?vid=40093641-a413-410f-b6ab-4e6a24ea2573"},"vehicle_type_id":"4","last_reported":1747124124,"current_range_meters":14800,"station_id":"ce4bgrp2rcd13ifvqc9g","pricing_plan_id":"cebpf4jnsgd1na2vs0mg"},{"bike_id":"073dd34b-303b-4307-8ea6-7fb07015c198","system_id":"levelo_inurba_marseille","lat":43.26934,"lon":5.40258,"is_reserved":false,"is_disabled":false,"rental_uris":{"android":"levelo://app?vid=073dd34b-303b-4307-8ea6-7fb07015c198","ios":"levelo://app?vid=073dd34b-303b-4307-8ea6-7fb07015c198"},"vehicle_type_id":"4","last_reported":1747124124,"current_range_meters":14800,"station_id":"cjm6bp8fraef2m0cb0m0","pricing_plan_id":"cebpf4jnsgd1na2vs0mg"},{"bike_id":"7f45f847-242e-42de-bf42-6618f57ca502","system_id":"levelo_inurba_marseille","lat":43.28483,"lon":5.38416,"is_reserved":false,"is_disabled":false,"rental_uris":{"android":"levelo://app?vid=7f45f847-242e-42de-bf42-6618f57ca502","ios":"levelo://app?vid=7f45f847-242e-42de-bf42-6618f57ca502"},"vehicle_type_id":"4","last_reported":1747124124,"current_range_meters":14800,"station_id":"ce4bh512rcd13ifvqe3g","pricing_plan_id":"cebpf4jnsgd1na2vs0mg"},{"bike_id":"f78f6c74-3083-4a6d-8eaa-785e9caad5bc","system_id":"levelo_inurba_marseille","lat":43.24177,"lon":5.39728,"is_reserved":false,"is_disabled":false,"rental_uris":{"android":"levelo://app?vid=f78f6c74-3083-4a6d-8eaa-785e9caad5bc","ios":"levelo://app?vid=f78f6c74-3083-4a6d-8eaa-785e9caad5bc"},"vehicle_type_id":"4","last_reported":1747124124,"current_range_meters":15200,"station_id":"ce4bhn12rcd13ifvqgpg","pricing_plan_id":"cebpf4jnsgd1na2vs0mg"},{"bike_id":"330a9154-2049-439c-931d-aa45b0a49bf4","system_id":"levelo_inurba_marseille","lat":43.28421,"lon":5.34977,"is_reserved":false,"is_disabled":true,"rental_uris":{"android":"levelo://app?vid=330a9154-2049-439c-931d-aa45b0a49bf4","ios":"levelo://app?vid=330a9154-2049-439c-931d-aa45b0a49bf4"},"vehicle_type_id":"4","last_reported":1747124124,"current_range_meters":15200,"station_id":"ce4bhbh2rcd13ifvqepg","pricing_plan_id":"cebpf4jnsgd1na2vs0mg"},{"bike_id":"386d5dbf-2a14-4801-8ee7-a8f50e4a87d8","system_id":"levelo_inurba_marseille","lat":43.217574,"lon":5.345968,"is_reserved":false,"is_disabled":true,"rental_uris":{"android":"levelo://app?vid=386d5dbf-2a14-4801-8ee7-a8f50e4a87d8","ios":"levelo://app?vid=386d5dbf-2a14-4801-8ee7-a8f50e4a87d8"},"vehicle_type_id":"4","last_reported":1747124124,"current_range_meters":15200,"station_id":"st_cvj6r9ubvosntc0bgbag","pricing_plan_id":"cebpf4jnsgd1na2vs0mg"},{"bike_id":"423d6e82-1559-4745-bd1d-c39d16e91885","system_id":"levelo_inurba_marseille","lat":43.30961,"lon":5.39041,"is_reserved":false,"is_disabled":true,"rental_uris":{"android":"levelo://app?vid=423d6e82-1559-4745-bd1d-c39d16e91885","ios":"levelo://app?vid=423d6e82-1559-4745-bd1d-c39d16e91885"},"vehicle_type_id":"4","last_reported":1747124124,"current_range_meters":15200,"station_id":"ce4bgup2rcd13ifvqco0","pricing_plan_id":"cebpf4jnsgd1na2vs0mg"},{"bike_id":"b0f64407-0527-4621-97bc-c28b02462a02","system_id":"levelo_inurba_marseille","lat":43.289279,"lon":5.384151,"is_reserved":false,"is_disabled":false,"rental_uris":{"android":"levelo://app?vid=b0f64407-0527-4621-97bc-c28b02462a02","ios":"levelo://app?vid=b0f64407-0527-4621-97bc-c28b02462a02"},"vehicle_type_id":"4","last_reported":1747124124,"current_range_meters":16000,"station_id":"ce4bh612rcd13ifvqe6g","pricing_plan_id":"cebpf4jnsgd1na2vs0mg"},{"bike_id":"33a32edf-7804-4bc5-a9f0-bb24bec4e43f","system_id":"levelo_inurba_marseille","lat":43.26955,"lon":5.38632,"is_reserved":false,"is_disabled":false,"rental_uris":{"android":"levelo://app?vid=33a32edf-7804-4bc5-a9f0-bb24bec4e43f","ios":"levelo://app?vid=33a32edf-7804-4bc5-a9f0-bb24bec4e43f"},"vehicle_type_id":"4","last_reported":1747124124,"current_range_meters":16000,"station_id":"ce4bhh92rcd13ifvqfh0","pricing_plan_id":"cebpf4jnsgd1na2vs0mg"},{"bike_id":"ba514e44-6b68-46f5-98bc-d99c9a5ef0e7","system_id":"levelo_inurba_marseille","lat":43.24183,"lon":5.39732,"is_reserved":false,"is_disabled":false,"rental_uris":{"android":"levelo://app?vid=ba514e44-6b68-46f5-98bc-d99c9a5ef0e7","ios":"levelo://app?vid=ba514e44-6b68-46f5-98bc-d99c9a5ef0e7"},"vehicle_type_id":"4","last_reported":1747124124,"current_range_meters":16000,"station_id":"ce4bhn12rcd13ifvqgpg","pricing_plan_id":"cebpf4jnsgd1na2vs0mg"},{"bike_id":"36a99864-bac5-4613-bafe-cdd3cf51e676","system_id":"levelo_inurba_marseille","lat":43.30176,"lon":5.36625,"is_reserved":false,"is_disabled":false,"rental_uris":{"android":"levelo://app?vid=36a99864-bac5-4613-bafe-cdd3cf51e676","ios":"levelo://app?vid=36a99864-bac5-4613-bafe-cdd3cf51e676"},"vehicle_type_id":"4","last_reported":1747124124,"current_range_meters":16000,"station_id":"ce4bgrh2rcd13ifvqc8g","pricing_plan_id":"cebpf4jnsgd1na2vs0mg"},{"bike_id":"3b5fc1fc-ce92-4848-955a-32d53b23baec","system_id":"levelo_inurba_marseille","lat":43.25589,"lon":5.38224,"is_reserved":false,"is_disabled":false,"rental_uris":{"android":"levelo://app?vid=3b5fc1fc-ce92-4848-955a-32d53b23baec","ios":"levelo://app?vid=3b5fc1fc-ce92-4848-955a-32d53b23baec"},"vehicle_type_id":"4","last_reported":1747124124,"current_range_meters":16000,"station_id":"ce4bhih2rcd13ifvqfs0","pricing_plan_id":"cebpf4jnsgd1na2vs0mg"},{"bike_id":"6849816a-14a2-4736-aae2-e7373738bc80","system_id":"levelo_inurba_marseille","lat":43.25859,"lon":5.40899,"is_reserved":false,"is_disabled":false,"rental_uris":{"android":"levelo://app?vid=6849816a-14a2-4736-aae2-e7373738bc80","ios":"levelo://app?vid=6849816a-14a2-4736-aae2-e7373738bc80"},"vehicle_type_id":"4","last_reported":1747124124,"current_range_meters":16000,"station_id":"","pricing_plan_id":"cebpf4jnsgd1na2vs0mg"},{"bike_id":"8cce29b7-df2e-4737-8628-5187c4c38ce8","system_id":"levelo_inurba_marseille","lat":43.24803,"lon":5.37454,"is_reserved":false,"is_disabled":false,"rental_uris":{"android":"levelo://app?vid=8cce29b7-df2e-4737-8628-5187c4c38ce8","ios":"levelo://app?vid=8cce29b7-df2e-4737-8628-5187c4c38ce8"},"vehicle_type_id":"4","last_reported":1747124124,"current_range_meters":16000,"station_id":"ce4bhgh2rcd13ifvqfb0","pricing_plan_id":"cebpf4jnsgd1na2vs0mg"},{"bike_id":"2356357f-c4a4-4c5e-8534-ce720fe490ac","system_id":"levelo_inurba_marseille","lat":43.27169,"lon":5.40989,"is_reserved":false,"is_disabled":false,"rental_uris":{"android":"levelo://app?vid=2356357f-c4a4-4c5e-8534-ce720fe490ac","ios":"levelo://app?vid=2356357f-c4a4-4c5e-8534-ce720fe490ac"},"vehicle_type_id":"4","last_reported":1747124124,"current_range_meters":16000,"station_id":"ce4bhl12rcd13ifvqgf0","pricing_plan_id":"cebpf4jnsgd1na2vs0mg"},{"bike_id":"520f07fc-e2a5-442e-bcdc-caa8376efe3e","system_id":"levelo_inurba_marseille","lat":43.31703,"lon":5.40422,"is_reserved":false,"is_disabled":false,"rental_uris":{"android":"levelo://app?vid=520f07fc-e2a5-442e-bcdc-caa8376efe3e","ios":"levelo://app?vid=520f07fc-e2a5-442e-bcdc-caa8376efe3e"},"vehicle_type_id":"4","last_reported":1747124124,"current_range_meters":16000,"station_id":"ce4bh012rcd13ifvqd00","pricing_plan_id":"cebpf4jnsgd1na2vs0mg"},{"bike_id":"9d352004-7b2c-43e3-9328-20e4f737c9c4","system_id":"levelo_inurba_marseille","lat":43.262294,"lon":5.404539,"is_reserved":false,"is_disabled":false,"rental_uris":{"android":"levelo://app?vid=9d352004-7b2c-43e3-9328-20e4f737c9c4","ios":"levelo://app?vid=9d352004-7b2c-43e3-9328-20e4f737c9c4"},"vehicle_type_id":"4","last_reported":1747124124,"current_range_meters":16400,"station_id":"","pricing_plan_id":"cebpf4jnsgd1na2vs0mg"},{"bike_id":"4bc8c5a0-5ff2-4faf-8513-f3f46cb92133","system_id":"levelo_inurba_marseille","lat":43.29971,"lon":5.38468,"is_reserved":false,"is_disabled":true,"rental_uris":{"android":"levelo://app?vid=4bc8c5a0-5ff2-4faf-8513-f3f46cb92133","ios":"levelo://app?vid=4bc8c5a0-5ff2-4faf-8513-f3f46cb92133"},"vehicle_type_id":"4","last_reported":1747124124,"current_range_meters":16400,"station_id":"ce4bgj92rcd13ifvqbd0","pricing_plan_id":"cebpf4jnsgd1na2vs0mg"},{"bike_id":"644cbac2-4656-48be-8fa8-41dea6b6702d","system_id":"levelo_inurba_marseille","lat":43.29275,"lon":5.36855,"is_reserved":false,"is_disabled":false,"rental_uris":{"android":"levelo://app?vid=644cbac2-4656-48be-8fa8-41dea6b6702d","ios":"levelo://app?vid=644cbac2-4656-48be-8fa8-41dea6b6702d"},"vehicle_type_id":"4","last_reported":1747124124,"current_range_meters":16400,"station_id":"ce4bhbp2rcd13ifvqesg","pricing_plan_id":"cebpf4jnsgd1na2vs0mg"},{"bike_id":"77a2d7ec-1502-4375-bfc8-04f10c3f28c9","system_id":"levelo_inurba_marseille","lat":43.28615,"lon":5.35106,"is_reserved":false,"is_disabled":false,"rental_uris":{"android":"levelo://app?vid=77a2d7ec-1502-4375-bfc8-04f10c3f28c9","ios":"levelo://app?vid=77a2d7ec-1502-4375-bfc8-04f10c3f28c9"},"vehicle_type_id":"4","last_reported":1747124124,"current_range_meters":16400,"station_id":"ce4bhch2rcd13ifvqeug","pricing_plan_id":"cebpf4jnsgd1na2vs0mg"},{"bike_id":"2064d8ad-c121-472c-a67d-5dfda4a122da","system_id":"levelo_inurba_marseille","lat":43.29572,"lon":5.375,"is_reserved":false,"is_disabled":true,"rental_uris":{"android":"levelo://app?vid=2064d8ad-c121-472c-a67d-5dfda4a122da","ios":"levelo://app?vid=2064d8ad-c121-472c-a67d-5dfda4a122da"},"vehicle_type_id":"4","last_reported":1747124124,"current_range_meters":16400,"station_id":"ce4bgh92rcd13ifvqb50","pricing_plan_id":"cebpf4jnsgd1na2vs0mg"},{"bike_id":"dc5806bc-95cd-4a1d-aec9-1a7a090d655f","system_id":"levelo_inurba_marseille","lat":43.295705,"lon":5.399825,"is_reserved":false,"is_disabled":false,"rental_uris":{"android":"levelo://app?vid=dc5806bc-95cd-4a1d-aec9-1a7a090d655f","ios":"levelo://app?vid=dc5806bc-95cd-4a1d-aec9-1a7a090d655f"},"vehicle_type_id":"4","last_reported":1747124124,"current_range_meters":16400,"station_id":"ce4bh312rcd13ifvqdj0","pricing_plan_id":"cebpf4jnsgd1na2vs0mg"},{"bike_id":"d47e0ef5-128e-4c82-8e08-c07c79e20732","system_id":"levelo_inurba_marseille","lat":43.32478,"lon":5.36566,"is_reserved":false,"is_disabled":false,"rental_uris":{"android":"levelo://app?vid=d47e0ef5-128e-4c82-8e08-c07c79e20732","ios":"levelo://app?vid=d47e0ef5-128e-4c82-8e08-c07c79e20732"},"vehicle_type_id":"4","last_reported":1747124124,"current_range_meters":16800,"station_id":"ce4bhs12rcd13ifvqhvg","pricing_plan_id":"cebpf4jnsgd1na2vs0mg"},{"bike_id":"cd766bf2-f3c8-4637-a7ca-9f0dda3dae59","system_id":"levelo_inurba_marseille","lat":43.29003,"lon":5.35612,"is_reserved":false,"is_disabled":false,"rental_uris":{"android":"levelo://app?vid=cd766bf2-f3c8-4637-a7ca-9f0dda3dae59","ios":"levelo://app?vid=cd766bf2-f3c8-4637-a7ca-9f0dda3dae59"},"vehicle_type_id":"4","last_reported":1747124124,"current_range_meters":16400,"station_id":"ce4bhb92rcd13ifvqen0","pricing_plan_id":"cebpf4jnsgd1na2vs0mg"},{"bike_id":"73c4d68c-0536-409c-acba-94a1392a1c77","system_id":"levelo_inurba_marseille","lat":43.241803,"lon":5.397157,"is_reserved":false,"is_disabled":false,"rental_uris":{"android":"levelo://app?vid=73c4d68c-0536-409c-acba-94a1392a1c77","ios":"levelo://app?vid=73c4d68c-0536-409c-acba-94a1392a1c77"},"vehicle_type_id":"4","last_reported":1747124124,"current_range_meters":16800,"station_id":"ce4bhn12rcd13ifvqgpg","pricing_plan_id":"cebpf4jnsgd1na2vs0mg"},{"bike_id":"093d9d6e-dc5c-405c-ab3a-f2a234d4b3a1","system_id":"levelo_inurba_marseille","lat":43.240627,"lon":5.37777,"is_reserved":false,"is_disabled":false,"rental_uris":{"android":"levelo://app?vid=093d9d6e-dc5c-405c-ab3a-f2a234d4b3a1","ios":"levelo://app?vid=093d9d6e-dc5c-405c-ab3a-f2a234d4b3a1"},"vehicle_type_id":"4","last_reported":1747124124,"current_range_meters":16800,"station_id":"ce4bhnp2rcd13ifvqgvg","pricing_plan_id":"cebpf4jnsgd1na2vs0mg"},{"bike_id":"370f62b0-8ff8-4ce1-b00f-3b9934275e4d","system_id":"levelo_inurba_marseille","lat":43.26685,"lon":5.38273,"is_reserved":false,"is_disabled":false,"rental_uris":{"android":"levelo://app?vid=370f62b0-8ff8-4ce1-b00f-3b9934275e4d","ios":"levelo://app?vid=370f62b0-8ff8-4ce1-b00f-3b9934275e4d"},"vehicle_type_id":"4","last_reported":1747124124,"current_range_meters":16800,"station_id":"ce4bhg92rcd13ifvqf90","pricing_plan_id":"cebpf4jnsgd1na2vs0mg"},{"bike_id":"9e10921d-d693-409f-8777-722cd03590de","system_id":"levelo_inurba_marseille","lat":43.240836,"lon":5.377492,"is_reserved":false,"is_disabled":true,"rental_uris":{"android":"levelo://app?vid=9e10921d-d693-409f-8777-722cd03590de","ios":"levelo://app?vid=9e10921d-d693-409f-8777-722cd03590de"},"vehicle_type_id":"4","last_reported":1747124124,"current_range_meters":17200,"station_id":"ce4bhnp2rcd13ifvqgvg","pricing_plan_id":"cebpf4jnsgd1na2vs0mg"},{"bike_id":"4bd38a4b-7662-4958-85f7-f378ca94b19a","system_id":"levelo_inurba_marseille","lat":43.29711,"lon":5.37693,"is_reserved":false,"is_disabled":false,"rental_uris":{"android":"levelo://app?vid=4bd38a4b-7662-4958-85f7-f378ca94b19a","ios":"levelo://app?vid=4bd38a4b-7662-4958-85f7-f378ca94b19a"},"vehicle_type_id":"4","last_reported":1747124124,"current_range_meters":17200,"station_id":"ce4bgkh2rcd13ifvqbl0","pricing_plan_id":"cebpf4jnsgd1na2vs0mg"},{"bike_id":"9b02d18d-e942-4ad3-b1e4-18cc7102caef","system_id":"levelo_inurba_marseille","lat":43.26953,"lon":5.38637,"is_reserved":false,"is_disabled":false,"rental_uris":{"android":"levelo://app?vid=9b02d18d-e942-4ad3-b1e4-18cc7102caef","ios":"levelo://app?vid=9b02d18d-e942-4ad3-b1e4-18cc7102caef"},"vehicle_type_id":"4","last_reported":1747124124,"current_range_meters":17600,"station_id":"ce4bhh92rcd13ifvqfh0","pricing_plan_id":"cebpf4jnsgd1na2vs0mg"},{"bike_id":"625bf33b-dc2e-4284-b561-fdcce2330f7e","system_id":"levelo_inurba_marseille","lat":43.3091,"lon":5.36847,"is_reserved":false,"is_disabled":false,"rental_uris":{"android":"levelo://app?vid=625bf33b-dc2e-4284-b561-fdcce2330f7e","ios":"levelo://app?vid=625bf33b-dc2e-4284-b561-fdcce2330f7e"},"vehicle_type_id":"4","last_reported":1747124124,"current_range_meters":17600,"station_id":"ce4bgn92rcd13ifvqbvg","pricing_plan_id":"cebpf4jnsgd1na2vs0mg"},{"bike_id":"da18d5b1-a1e0-4788-b49e-8a8e3d5203f9","system_id":"levelo_inurba_marseille","lat":43.23055,"lon":5.35506,"is_reserved":false,"is_disabled":false,"rental_uris":{"android":"levelo://app?vid=da18d5b1-a1e0-4788-b49e-8a8e3d5203f9","ios":"levelo://app?vid=da18d5b1-a1e0-4788-b49e-8a8e3d5203f9"},"vehicle_type_id":"4","last_reported":1747124124,"current_range_meters":17600,"station_id":"cpo3342slgdg3j2ifvpg","pricing_plan_id":"cebpf4jnsgd1na2vs0mg"},{"bike_id":"e9dc658a-eaa4-4f98-8111-9734ea55ddea","system_id":"levelo_inurba_marseille","lat":43.27053,"lon":5.42275,"is_reserved":false,"is_disabled":false,"rental_uris":{"android":"levelo://app?vid=e9dc658a-eaa4-4f98-8111-9734ea55ddea","ios":"levelo://app?vid=e9dc658a-eaa4-4f98-8111-9734ea55ddea"},"vehicle_type_id":"4","last_reported":1747124124,"current_range_meters":17600,"station_id":"ce4bhk92rcd13ifvqgb0","pricing_plan_id":"cebpf4jnsgd1na2vs0mg"},{"bike_id":"d3768589-0594-48f6-adbe-f5694b3f5a7d","system_id":"levelo_inurba_marseille","lat":43.30904,"lon":5.36855,"is_reserved":false,"is_disabled":false,"rental_uris":{"android":"levelo://app?vid=d3768589-0594-48f6-adbe-f5694b3f5a7d","ios":"levelo://app?vid=d3768589-0594-48f6-adbe-f5694b3f5a7d"},"vehicle_type_id":"4","last_reported":1747124124,"current_range_meters":18000,"station_id":"ce4bgn92rcd13ifvqbvg","pricing_plan_id":"cebpf4jnsgd1na2vs0mg"},{"bike_id":"d32218ce-6dcd-4434-b02c-43be0b0712b6","system_id":"levelo_inurba_marseille","lat":43.26934,"lon":5.38918,"is_reserved":false,"is_disabled":false,"rental_uris":{"android":"levelo://app?vid=d32218ce-6dcd-4434-b02c-43be0b0712b6","ios":"levelo://app?vid=d32218ce-6dcd-4434-b02c-43be0b0712b6"},"vehicle_type_id":"4","last_reported":1747124124,"current_range_meters":18000,"station_id":"ce4bhhh2rcd13ifvqfl0","pricing_plan_id":"cebpf4jnsgd1na2vs0mg"},{"bike_id":"9d76660f-c284-49a2-8765-48337aa51471","system_id":"levelo_inurba_marseille","lat":43.32094,"lon":5.36787,"is_reserved":false,"is_disabled":false,"rental_uris":{"android":"levelo://app?vid=9d76660f-c284-49a2-8765-48337aa51471","ios":"levelo://app?vid=9d76660f-c284-49a2-8765-48337aa51471"},"vehicle_type_id":"4","last_reported":1747124124,"current_range_meters":18000,"station_id":"ce4bhrh2rcd13ifvqhug","pricing_plan_id":"cebpf4jnsgd1na2vs0mg"},{"bike_id":"85bb6071-e792-4f67-a718-8548b40eced6","system_id":"levelo_inurba_marseille","lat":43.28685,"lon":5.38659,"is_reserved":false,"is_disabled":true,"rental_uris":{"android":"levelo://app?vid=85bb6071-e792-4f67-a718-8548b40eced6","ios":"levelo://app?vid=85bb6071-e792-4f67-a718-8548b40eced6"},"vehicle_type_id":"4","last_reported":1747124124,"current_range_meters":18000,"station_id":"ce4bh492rcd13ifvqdug","pricing_plan_id":"cebpf4jnsgd1na2vs0mg"},{"bike_id":"0c893fb7-8626-4706-85bf-f404b871dea5","system_id":"levelo_inurba_marseille","lat":43.281211,"lon":5.446042,"is_reserved":false,"is_disabled":false,"rental_uris":{"android":"levelo://app?vid=0c893fb7-8626-4706-85bf-f404b871dea5","ios":"levelo://app?vid=0c893fb7-8626-4706-85bf-f404b871dea5"},"vehicle_type_id":"4","last_reported":1747124124,"current_range_meters":18800,"station_id":"","pricing_plan_id":"cebpf4jnsgd1na2vs0mg"},{"bike_id":"0769b516-bf89-4a85-8128-6b2d02698d9c","system_id":"levelo_inurba_marseille","lat":43.30905,"lon":5.36852,"is_reserved":false,"is_disabled":false,"rental_uris":{"android":"levelo://app?vid=0769b516-bf89-4a85-8128-6b2d02698d9c","ios":"levelo://app?vid=0769b516-bf89-4a85-8128-6b2d02698d9c"},"vehicle_type_id":"4","last_reported":1747124124,"current_range_meters":18800,"station_id":"ce4bgn92rcd13ifvqbvg","pricing_plan_id":"cebpf4jnsgd1na2vs0mg"},{"bike_id":"3626ee4b-3852-4989-999e-5bc0d8d20c3f","system_id":"levelo_inurba_marseille","lat":43.33602,"lon":5.4103,"is_reserved":false,"is_disabled":false,"rental_uris":{"android":"levelo://app?vid=3626ee4b-3852-4989-999e-5bc0d8d20c3f","ios":"levelo://app?vid=3626ee4b-3852-4989-999e-5bc0d8d20c3f"},"vehicle_type_id":"4","last_reported":1747124124,"current_range_meters":18800,"station_id":"ce4bhqh2rcd13ifvqhmg","pricing_plan_id":"cebpf4jnsgd1na2vs0mg"},{"bike_id":"116fcc67-1873-4896-bd6f-d2374e2ad85a","system_id":"levelo_inurba_marseille","lat":43.28264,"lon":5.35058,"is_reserved":false,"is_disabled":false,"rental_uris":{"android":"levelo://app?vid=116fcc67-1873-4896-bd6f-d2374e2ad85a","ios":"levelo://app?vid=116fcc67-1873-4896-bd6f-d2374e2ad85a"},"vehicle_type_id":"4","last_reported":1747124124,"current_range_meters":18800,"station_id":"ce4bhbp2rcd13ifvqerg","pricing_plan_id":"cebpf4jnsgd1na2vs0mg"},{"bike_id":"6bd2a8ac-44d7-45d3-8b92-5d3844ac7365","system_id":"levelo_inurba_marseille","lat":43.2953,"lon":5.37503,"is_reserved":false,"is_disabled":false,"rental_uris":{"android":"levelo://app?vid=6bd2a8ac-44d7-45d3-8b92-5d3844ac7365","ios":"levelo://app?vid=6bd2a8ac-44d7-45d3-8b92-5d3844ac7365"},"vehicle_type_id":"4","last_reported":1747124124,"current_range_meters":18800,"station_id":"ce4bgkp2rcd13ifvqbmg","pricing_plan_id":"cebpf4jnsgd1na2vs0mg"},{"bike_id":"a5aaf42f-63b7-46db-a612-60915ca21e9a","system_id":"levelo_inurba_marseille","lat":43.23957,"lon":5.36642,"is_reserved":false,"is_disabled":false,"rental_uris":{"android":"levelo://app?vid=a5aaf42f-63b7-46db-a612-60915ca21e9a","ios":"levelo://app?vid=a5aaf42f-63b7-46db-a612-60915ca21e9a"},"vehicle_type_id":"4","last_reported":1747124124,"current_range_meters":18800,"station_id":"ce4bhi12rcd13ifvqfp0","pricing_plan_id":"cebpf4jnsgd1na2vs0mg"},{"bike_id":"9e58481b-e369-46a5-adc4-6b2f125c0296","system_id":"levelo_inurba_marseille","lat":43.29706,"lon":5.37696,"is_reserved":false,"is_disabled":false,"rental_uris":{"android":"levelo://app?vid=9e58481b-e369-46a5-adc4-6b2f125c0296","ios":"levelo://app?vid=9e58481b-e369-46a5-adc4-6b2f125c0296"},"vehicle_type_id":"4","last_reported":1747124124,"current_range_meters":18800,"station_id":"ce4bgkh2rcd13ifvqbl0","pricing_plan_id":"cebpf4jnsgd1na2vs0mg"},{"bike_id":"eeb882a8-fe36-4d5c-a964-fc0d0f965523","system_id":"levelo_inurba_marseille","lat":43.30663,"lon":5.36734,"is_reserved":false,"is_disabled":false,"rental_uris":{"android":"levelo://app?vid=eeb882a8-fe36-4d5c-a964-fc0d0f965523","ios":"levelo://app?vid=eeb882a8-fe36-4d5c-a964-fc0d0f965523"},"vehicle_type_id":"4","last_reported":1747124124,"current_range_meters":18800,"station_id":"","pricing_plan_id":"cebpf4jnsgd1na2vs0mg"},{"bike_id":"581a76c6-406f-436c-80cf-424046378536","system_id":"levelo_inurba_marseille","lat":43.23134,"lon":5.43705,"is_reserved":false,"is_disabled":false,"rental_uris":{"android":"levelo://app?vid=581a76c6-406f-436c-80cf-424046378536","ios":"levelo://app?vid=581a76c6-406f-436c-80cf-424046378536"},"vehicle_type_id":"4","last_reported":1747124124,"current_range_meters":18800,"station_id":"ce4bhmp2rcd13ifvqgog","pricing_plan_id":"cebpf4jnsgd1na2vs0mg"},{"bike_id":"1e297e0e-a907-489c-9a22-1dfb89bfb64f","system_id":"levelo_inurba_marseille","lat":43.29242,"lon":5.36399,"is_reserved":false,"is_disabled":false,"rental_uris":{"android":"levelo://app?vid=1e297e0e-a907-489c-9a22-1dfb89bfb64f","ios":"levelo://app?vid=1e297e0e-a907-489c-9a22-1dfb89bfb64f"},"vehicle_type_id":"4","last_reported":1747124124,"current_range_meters":19200,"station_id":"","pricing_plan_id":"cebpf4jnsgd1na2vs0mg"},{"bike_id":"67daee1f-d9a5-4341-a00c-9ecf520b35df","system_id":"levelo_inurba_marseille","lat":43.30534,"lon":5.3671,"is_reserved":false,"is_disabled":false,"rental_uris":{"android":"levelo://app?vid=67daee1f-d9a5-4341-a00c-9ecf520b35df","ios":"levelo://app?vid=67daee1f-d9a5-4341-a00c-9ecf520b35df"},"vehicle_type_id":"4","last_reported":1747124124,"current_range_meters":19200,"station_id":"ce4bgrp2rcd13ifvqc9g","pricing_plan_id":"cebpf4jnsgd1na2vs0mg"},{"bike_id":"1fa88e2b-10bd-479d-b821-6fbd219ef7ed","system_id":"levelo_inurba_marseille","lat":43.27326,"lon":5.39088,"is_reserved":false,"is_disabled":true,"rental_uris":{"android":"levelo://app?vid=1fa88e2b-10bd-479d-b821-6fbd219ef7ed","ios":"levelo://app?vid=1fa88e2b-10bd-479d-b821-6fbd219ef7ed"},"vehicle_type_id":"4","last_reported":1747124124,"current_range_meters":19200,"station_id":"ce4bhgp2rcd13ifvqfe0","pricing_plan_id":"cebpf4jnsgd1na2vs0mg"},{"bike_id":"9e7ebd91-af82-4549-976b-c088b359c00b","system_id":"levelo_inurba_marseille","lat":43.321058,"lon":5.367718,"is_reserved":false,"is_disabled":false,"rental_uris":{"android":"levelo://app?vid=9e7ebd91-af82-4549-976b-c088b359c00b","ios":"levelo://app?vid=9e7ebd91-af82-4549-976b-c088b359c00b"},"vehicle_type_id":"4","last_reported":1747124124,"current_range_meters":19200,"station_id":"ce4bhrh2rcd13ifvqhug","pricing_plan_id":"cebpf4jnsgd1na2vs0mg"},{"bike_id":"a9a3c033-b9ce-4dee-bd49-e3d24094d09c","system_id":"levelo_inurba_marseille","lat":43.25926,"lon":5.40912,"is_reserved":false,"is_disabled":false,"rental_uris":{"android":"levelo://app?vid=a9a3c033-b9ce-4dee-bd49-e3d24094d09c","ios":"levelo://app?vid=a9a3c033-b9ce-4dee-bd49-e3d24094d09c"},"vehicle_type_id":"4","last_reported":1747124124,"current_range_meters":19200,"station_id":"ce4bhm92rcd13ifvqglg","pricing_plan_id":"cebpf4jnsgd1na2vs0mg"},{"bike_id":"5e8c3e97-ce12-482b-a08b-84b3250882af","system_id":"levelo_inurba_marseille","lat":43.30139,"lon":5.3741,"is_reserved":false,"is_disabled":false,"rental_uris":{"android":"levelo://app?vid=5e8c3e97-ce12-482b-a08b-84b3250882af","ios":"levelo://app?vid=5e8c3e97-ce12-482b-a08b-84b3250882af"},"vehicle_type_id":"4","last_reported":1747124124,"current_range_meters":19200,"station_id":"ce4bgs92rcd13ifvqcc0","pricing_plan_id":"cebpf4jnsgd1na2vs0mg"},{"bike_id":"bd88d41b-f29d-44c2-8d5d-19a0735af1da","system_id":"levelo_inurba_marseille","lat":43.25923,"lon":5.40868,"is_reserved":false,"is_disabled":false,"rental_uris":{"android":"levelo://app?vid=bd88d41b-f29d-44c2-8d5d-19a0735af1da","ios":"levelo://app?vid=bd88d41b-f29d-44c2-8d5d-19a0735af1da"},"vehicle_type_id":"4","last_reported":1747124124,"current_range_meters":19200,"station_id":"ce4bhm92rcd13ifvqglg","pricing_plan_id":"cebpf4jnsgd1na2vs0mg"},{"bike_id":"ab37f6e7-56ff-4a90-a22e-b5cee4f79770","system_id":"levelo_inurba_marseille","lat":43.302823,"lon":5.376925,"is_reserved":false,"is_disabled":false,"rental_uris":{"android":"levelo://app?vid=ab37f6e7-56ff-4a90-a22e-b5cee4f79770","ios":"levelo://app?vid=ab37f6e7-56ff-4a90-a22e-b5cee4f79770"},"vehicle_type_id":"4","last_reported":1747124124,"current_range_meters":19600,"station_id":"ce4bguh2rcd13ifvqcj0","pricing_plan_id":"cebpf4jnsgd1na2vs0mg"},{"bike_id":"dfb26c04-9de1-4729-8adf-3c97609170dc","system_id":"levelo_inurba_marseille","lat":43.31077,"lon":5.42434,"is_reserved":false,"is_disabled":false,"rental_uris":{"android":"levelo://app?vid=dfb26c04-9de1-4729-8adf-3c97609170dc","ios":"levelo://app?vid=dfb26c04-9de1-4729-8adf-3c97609170dc"},"vehicle_type_id":"4","last_reported":1747124124,"current_range_meters":19600,"station_id":"ce4bhp92rcd13ifvqhag","pricing_plan_id":"cebpf4jnsgd1na2vs0mg"},{"bike_id":"687d78f7-3517-403a-a139-1e6be83b5fe8","system_id":"levelo_inurba_marseille","lat":43.30542,"lon":5.36674,"is_reserved":false,"is_disabled":false,"rental_uris":{"android":"levelo://app?vid=687d78f7-3517-403a-a139-1e6be83b5fe8","ios":"levelo://app?vid=687d78f7-3517-403a-a139-1e6be83b5fe8"},"vehicle_type_id":"4","last_reported":1747124124,"current_range_meters":19600,"station_id":"ce4bgrp2rcd13ifvqc9g","pricing_plan_id":"cebpf4jnsgd1na2vs0mg"},{"bike_id":"7cb7e122-1806-4c96-a98e-f5bb7331a49e","system_id":"levelo_inurba_marseille","lat":43.34136,"lon":5.40911,"is_reserved":false,"is_disabled":false,"rental_uris":{"android":"levelo://app?vid=7cb7e122-1806-4c96-a98e-f5bb7331a49e","ios":"levelo://app?vid=7cb7e122-1806-4c96-a98e-f5bb7331a49e"},"vehicle_type_id":"4","last_reported":1747124124,"current_range_meters":19600,"station_id":"ce4bhqh2rcd13ifvqhlg","pricing_plan_id":"cebpf4jnsgd1na2vs0mg"},{"bike_id":"41a4bf39-49b2-4db9-8370-a61b5011ecbd","system_id":"levelo_inurba_marseille","lat":43.2897,"lon":5.37813,"is_reserved":false,"is_disabled":true,"rental_uris":{"android":"levelo://app?vid=41a4bf39-49b2-4db9-8370-a61b5011ecbd","ios":"levelo://app?vid=41a4bf39-49b2-4db9-8370-a61b5011ecbd"},"vehicle_type_id":"4","last_reported":1747124124,"current_range_meters":19600,"station_id":"ce4bh9p2rcd13ifvqed0","pricing_plan_id":"cebpf4jnsgd1na2vs0mg"},{"bike_id":"3ec1a827-7913-48c5-8e79-e63893f42af6","system_id":"levelo_inurba_marseille","lat":43.30909,"lon":5.36851,"is_reserved":false,"is_disabled":false,"rental_uris":{"android":"levelo://app?vid=3ec1a827-7913-48c5-8e79-e63893f42af6","ios":"levelo://app?vid=3ec1a827-7913-48c5-8e79-e63893f42af6"},"vehicle_type_id":"4","last_reported":1747124124,"current_range_meters":19600,"station_id":"ce4bgn92rcd13ifvqbvg","pricing_plan_id":"cebpf4jnsgd1na2vs0mg"},{"bike_id":"43186736-ae76-48bb-bdf6-967161a54a90","system_id":"levelo_inurba_marseille","lat":43.275586,"lon":5.423925,"is_reserved":false,"is_disabled":false,"rental_uris":{"android":"levelo://app?vid=43186736-ae76-48bb-bdf6-967161a54a90","ios":"levelo://app?vid=43186736-ae76-48bb-bdf6-967161a54a90"},"vehicle_type_id":"4","last_reported":1747124124,"current_range_meters":19600,"station_id":"ce4bhn92rcd13ifvqgrg","pricing_plan_id":"cebpf4jnsgd1na2vs0mg"},{"bike_id":"7a313574-f514-4bf2-9d37-9ffddbfc7f3a","system_id":"levelo_inurba_marseille","lat":43.29531,"lon":5.37507,"is_reserved":false,"is_disabled":false,"rental_uris":{"android":"levelo://app?vid=7a313574-f514-4bf2-9d37-9ffddbfc7f3a","ios":"levelo://app?vid=7a313574-f514-4bf2-9d37-9ffddbfc7f3a"},"vehicle_type_id":"4","last_reported":1747124124,"current_range_meters":19600,"station_id":"ce4bgkp2rcd13ifvqbmg","pricing_plan_id":"cebpf4jnsgd1na2vs0mg"},{"bike_id":"d9976147-f579-4595-922a-9de396060312","system_id":"levelo_inurba_marseille","lat":43.25864,"lon":5.39899,"is_reserved":false,"is_disabled":false,"rental_uris":{"android":"levelo://app?vid=d9976147-f579-4595-922a-9de396060312","ios":"levelo://app?vid=d9976147-f579-4595-922a-9de396060312"},"vehicle_type_id":"4","last_reported":1747124124,"current_range_meters":20000,"station_id":"ce4bhl92rcd13ifvqghg","pricing_plan_id":"cebpf4jnsgd1na2vs0mg"},{"bike_id":"68cba90a-f341-46b7-8447-66a01a4dc908","system_id":"levelo_inurba_marseille","lat":43.312397,"lon":5.368453,"is_reserved":false,"is_disabled":false,"rental_uris":{"android":"levelo://app?vid=68cba90a-f341-46b7-8447-66a01a4dc908","ios":"levelo://app?vid=68cba90a-f341-46b7-8447-66a01a4dc908"},"vehicle_type_id":"4","last_reported":1747124124,"current_range_meters":20000,"station_id":"ce4bgl92rcd13ifvqbq0","pricing_plan_id":"cebpf4jnsgd1na2vs0mg"},{"bike_id":"a5e11739-9f4e-4a5c-a67a-316bdd3705d0","system_id":"levelo_inurba_marseille","lat":43.26807,"lon":5.4027,"is_reserved":false,"is_disabled":false,"rental_uris":{"android":"levelo://app?vid=a5e11739-9f4e-4a5c-a67a-316bdd3705d0","ios":"levelo://app?vid=a5e11739-9f4e-4a5c-a67a-316bdd3705d0"},"vehicle_type_id":"4","last_reported":1747124124,"current_range_meters":20000,"station_id":"ce501612rcd8frsf0b60","pricing_plan_id":"cebpf4jnsgd1na2vs0mg"},{"bike_id":"e64ccb21-b07c-4dc1-a129-1e19c593a376","system_id":"levelo_inurba_marseille","lat":43.2315,"lon":5.43716,"is_reserved":false,"is_disabled":false,"rental_uris":{"android":"levelo://app?vid=e64ccb21-b07c-4dc1-a129-1e19c593a376","ios":"levelo://app?vid=e64ccb21-b07c-4dc1-a129-1e19c593a376"},"vehicle_type_id":"4","last_reported":1747124124,"current_range_meters":20000,"station_id":"ce4bhmp2rcd13ifvqgog","pricing_plan_id":"cebpf4jnsgd1na2vs0mg"},{"bike_id":"e76a46d7-6ed0-44b9-a6f3-d699414d72b1","system_id":"levelo_inurba_marseille","lat":43.24075,"lon":5.37755,"is_reserved":false,"is_disabled":false,"rental_uris":{"android":"levelo://app?vid=e76a46d7-6ed0-44b9-a6f3-d699414d72b1","ios":"levelo://app?vid=e76a46d7-6ed0-44b9-a6f3-d699414d72b1"},"vehicle_type_id":"4","last_reported":1747124124,"current_range_meters":20000,"station_id":"ce4bhnp2rcd13ifvqgvg","pricing_plan_id":"cebpf4jnsgd1na2vs0mg"},{"bike_id":"8927ea8d-cb3e-40cb-9a06-8fbdb405c32b","system_id":"levelo_inurba_marseille","lat":43.31985,"lon":5.38152,"is_reserved":false,"is_disabled":true,"rental_uris":{"android":"levelo://app?vid=8927ea8d-cb3e-40cb-9a06-8fbdb405c32b","ios":"levelo://app?vid=8927ea8d-cb3e-40cb-9a06-8fbdb405c32b"},"vehicle_type_id":"4","last_reported":1747124124,"current_range_meters":20400,"station_id":"ce4bhr12rcd13ifvqhpg","pricing_plan_id":"cebpf4jnsgd1na2vs0mg"},{"bike_id":"16fe3168-ada2-4879-b616-7d6f82a83577","system_id":"levelo_inurba_marseille","lat":43.26491,"lon":5.39545,"is_reserved":false,"is_disabled":false,"rental_uris":{"android":"levelo://app?vid=16fe3168-ada2-4879-b616-7d6f82a83577","ios":"levelo://app?vid=16fe3168-ada2-4879-b616-7d6f82a83577"},"vehicle_type_id":"4","last_reported":1747124124,"current_range_meters":20400,"station_id":"ce4bhi12rcd13ifvqfq0","pricing_plan_id":"cebpf4jnsgd1na2vs0mg"},{"bike_id":"6e3094ae-584b-4b23-8747-809792d486b5","system_id":"levelo_inurba_marseille","lat":43.21189,"lon":5.3507,"is_reserved":false,"is_disabled":false,"rental_uris":{"android":"levelo://app?vid=6e3094ae-584b-4b23-8747-809792d486b5","ios":"levelo://app?vid=6e3094ae-584b-4b23-8747-809792d486b5"},"vehicle_type_id":"4","last_reported":1747124124,"current_range_meters":20400,"station_id":"st_cvj6sg6p6f1abm77japg","pricing_plan_id":"cebpf4jnsgd1na2vs0mg"},{"bike_id":"a28a30a2-06f0-4b3b-8e70-48f3c2b08280","system_id":"levelo_inurba_marseille","lat":43.32042,"lon":5.41538,"is_reserved":false,"is_disabled":false,"rental_uris":{"android":"levelo://app?vid=a28a30a2-06f0-4b3b-8e70-48f3c2b08280","ios":"levelo://app?vid=a28a30a2-06f0-4b3b-8e70-48f3c2b08280"},"vehicle_type_id":"4","last_reported":1747124124,"current_range_meters":20400,"station_id":"ce4bhq92rcd13ifvqhkg","pricing_plan_id":"cebpf4jnsgd1na2vs0mg"},{"bike_id":"01f00d9a-4502-48d9-b7f0-5115a952a1a1","system_id":"levelo_inurba_marseille","lat":43.28438,"lon":5.39204,"is_reserved":false,"is_disabled":false,"rental_uris":{"android":"levelo://app?vid=01f00d9a-4502-48d9-b7f0-5115a952a1a1","ios":"levelo://app?vid=01f00d9a-4502-48d9-b7f0-5115a952a1a1"},"vehicle_type_id":"4","last_reported":1747124124,"current_range_meters":20400,"station_id":"ce4bhoh2rcd13ifvqh5g","pricing_plan_id":"cebpf4jnsgd1na2vs0mg"},{"bike_id":"f821c6c3-9e98-4820-a6e3-6cfeb4281e7e","system_id":"levelo_inurba_marseille","lat":43.298006,"lon":5.3811,"is_reserved":false,"is_disabled":false,"rental_uris":{"android":"levelo://app?vid=f821c6c3-9e98-4820-a6e3-6cfeb4281e7e","ios":"levelo://app?vid=f821c6c3-9e98-4820-a6e3-6cfeb4281e7e"},"vehicle_type_id":"4","last_reported":1747124124,"current_range_meters":20800,"station_id":"ce4bgkh2rcd13ifvqbk0","pricing_plan_id":"cebpf4jnsgd1na2vs0mg"},{"bike_id":"ae0510dd-41be-4f58-95f7-feea4be11841","system_id":"levelo_inurba_marseille","lat":43.2314,"lon":5.43723,"is_reserved":false,"is_disabled":false,"rental_uris":{"android":"levelo://app?vid=ae0510dd-41be-4f58-95f7-feea4be11841","ios":"levelo://app?vid=ae0510dd-41be-4f58-95f7-feea4be11841"},"vehicle_type_id":"4","last_reported":1747124124,"current_range_meters":20800,"station_id":"ce4bhmp2rcd13ifvqgog","pricing_plan_id":"cebpf4jnsgd1na2vs0mg"},{"bike_id":"1f6c8b6d-922c-466f-bf09-dfb7253bda7d","system_id":"levelo_inurba_marseille","lat":43.32544,"lon":5.41449,"is_reserved":false,"is_disabled":false,"rental_uris":{"android":"levelo://app?vid=1f6c8b6d-922c-466f-bf09-dfb7253bda7d","ios":"levelo://app?vid=1f6c8b6d-922c-466f-bf09-dfb7253bda7d"},"vehicle_type_id":"4","last_reported":1747124124,"current_range_meters":20800,"station_id":"ce4bhq12rcd13ifvqhhg","pricing_plan_id":"cebpf4jnsgd1na2vs0mg"},{"bike_id":"d3ee0d64-5680-4380-93bd-954f0eacacee","system_id":"levelo_inurba_marseille","lat":43.295549,"lon":5.422923,"is_reserved":false,"is_disabled":false,"rental_uris":{"android":"levelo://app?vid=d3ee0d64-5680-4380-93bd-954f0eacacee","ios":"levelo://app?vid=d3ee0d64-5680-4380-93bd-954f0eacacee"},"vehicle_type_id":"4","last_reported":1747124124,"current_range_meters":20800,"station_id":"ce4bhph2rcd13ifvqhdg","pricing_plan_id":"cebpf4jnsgd1na2vs0mg"},{"bike_id":"a9f02b19-c176-448d-bbd7-70872e29aab1","system_id":"levelo_inurba_marseille","lat":43.23145,"lon":5.43713,"is_reserved":false,"is_disabled":false,"rental_uris":{"android":"levelo://app?vid=a9f02b19-c176-448d-bbd7-70872e29aab1","ios":"levelo://app?vid=a9f02b19-c176-448d-bbd7-70872e29aab1"},"vehicle_type_id":"4","last_reported":1747124124,"current_range_meters":20800,"station_id":"ce4bhmp2rcd13ifvqgog","pricing_plan_id":"cebpf4jnsgd1na2vs0mg"},{"bike_id":"c5a6038e-e242-4c42-a6da-186787771b16","system_id":"levelo_inurba_marseille","lat":43.21782,"lon":5.3458,"is_reserved":false,"is_disabled":true,"rental_uris":{"android":"levelo://app?vid=c5a6038e-e242-4c42-a6da-186787771b16","ios":"levelo://app?vid=c5a6038e-e242-4c42-a6da-186787771b16"},"vehicle_type_id":"4","last_reported":1747124124,"current_range_meters":21600,"station_id":"st_cvj6r9ubvosntc0bgbag","pricing_plan_id":"cebpf4jnsgd1na2vs0mg"},{"bike_id":"0f7a187f-a153-4607-b550-4d0dc5ab9aa0","system_id":"levelo_inurba_marseille","lat":43.32285,"lon":5.38273,"is_reserved":false,"is_disabled":false,"rental_uris":{"android":"levelo://app?vid=0f7a187f-a153-4607-b550-4d0dc5ab9aa0","ios":"levelo://app?vid=0f7a187f-a153-4607-b550-4d0dc5ab9aa0"},"vehicle_type_id":"4","last_reported":1747124124,"current_range_meters":21600,"station_id":"ce4bhr12rcd13ifvqhqg","pricing_plan_id":"cebpf4jnsgd1na2vs0mg"},{"bike_id":"e9a10071-6e17-4cc2-ab9d-9365c47cacdc","system_id":"levelo_inurba_marseille","lat":43.30637,"lon":5.401,"is_reserved":false,"is_disabled":false,"rental_uris":{"android":"levelo://app?vid=e9a10071-6e17-4cc2-ab9d-9365c47cacdc","ios":"levelo://app?vid=e9a10071-6e17-4cc2-ab9d-9365c47cacdc"},"vehicle_type_id":"4","last_reported":1747124124,"current_range_meters":21600,"station_id":"ce4bh112rcd13ifvqda0","pricing_plan_id":"cebpf4jnsgd1na2vs0mg"},{"bike_id":"ab9ec616-eeb0-462d-b0f9-a766f4cb52ab","system_id":"levelo_inurba_marseille","lat":43.30889,"lon":5.36862,"is_reserved":false,"is_disabled":false,"rental_uris":{"android":"levelo://app?vid=ab9ec616-eeb0-462d-b0f9-a766f4cb52ab","ios":"levelo://app?vid=ab9ec616-eeb0-462d-b0f9-a766f4cb52ab"},"vehicle_type_id":"4","last_reported":1747124124,"current_range_meters":21600,"station_id":"ce4bgn92rcd13ifvqbvg","pricing_plan_id":"cebpf4jnsgd1na2vs0mg"},{"bike_id":"3c8b2a8e-116b-4783-8030-383508abd82e","system_id":"levelo_inurba_marseille","lat":43.30896,"lon":5.36846,"is_reserved":false,"is_disabled":false,"rental_uris":{"android":"levelo://app?vid=3c8b2a8e-116b-4783-8030-383508abd82e","ios":"levelo://app?vid=3c8b2a8e-116b-4783-8030-383508abd82e"},"vehicle_type_id":"4","last_reported":1747124124,"current_range_meters":21600,"station_id":"ce4bgn92rcd13ifvqbvg","pricing_plan_id":"cebpf4jnsgd1na2vs0mg"},{"bike_id":"8a96a144-9322-40d8-8495-6d1b4974630a","system_id":"levelo_inurba_marseille","lat":43.29294,"lon":5.37459,"is_reserved":false,"is_disabled":false,"rental_uris":{"android":"levelo://app?vid=8a96a144-9322-40d8-8495-6d1b4974630a","ios":"levelo://app?vid=8a96a144-9322-40d8-8495-6d1b4974630a"},"vehicle_type_id":"4","last_reported":1747124124,"current_range_meters":21600,"station_id":"ce4bgi12rcd13ifvqb70","pricing_plan_id":"cebpf4jnsgd1na2vs0mg"},{"bike_id":"af774b77-a50b-4a97-922f-e678d9c1e86f","system_id":"levelo_inurba_marseille","lat":43.25109,"lon":5.40321,"is_reserved":false,"is_disabled":false,"rental_uris":{"android":"levelo://app?vid=af774b77-a50b-4a97-922f-e678d9c1e86f","ios":"levelo://app?vid=af774b77-a50b-4a97-922f-e678d9c1e86f"},"vehicle_type_id":"4","last_reported":1747124124,"current_range_meters":21600,"station_id":"ce4bhlh2rcd13ifvqgig","pricing_plan_id":"cebpf4jnsgd1na2vs0mg"},{"bike_id":"5586737f-6455-4ea2-9af8-69a63f84810a","system_id":"levelo_inurba_marseille","lat":43.23967,"lon":5.3663,"is_reserved":false,"is_disabled":false,"rental_uris":{"android":"levelo://app?vid=5586737f-6455-4ea2-9af8-69a63f84810a","ios":"levelo://app?vid=5586737f-6455-4ea2-9af8-69a63f84810a"},"vehicle_type_id":"4","last_reported":1747124124,"current_range_meters":22000,"station_id":"ce4bhi12rcd13ifvqfp0","pricing_plan_id":"cebpf4jnsgd1na2vs0mg"},{"bike_id":"8aea1482-d83c-43a6-9b4d-74632d7dcd35","system_id":"levelo_inurba_marseille","lat":43.25575,"lon":5.38242,"is_reserved":false,"is_disabled":false,"rental_uris":{"android":"levelo://app?vid=8aea1482-d83c-43a6-9b4d-74632d7dcd35","ios":"levelo://app?vid=8aea1482-d83c-43a6-9b4d-74632d7dcd35"},"vehicle_type_id":"4","last_reported":1747124124,"current_range_meters":22000,"station_id":"ce4bhih2rcd13ifvqfs0","pricing_plan_id":"cebpf4jnsgd1na2vs0mg"},{"bike_id":"b01d3454-14a5-488e-96c8-107c9ca2d8cc","system_id":"levelo_inurba_marseille","lat":43.31692,"lon":5.40456,"is_reserved":false,"is_disabled":false,"rental_uris":{"android":"levelo://app?vid=b01d3454-14a5-488e-96c8-107c9ca2d8cc","ios":"levelo://app?vid=b01d3454-14a5-488e-96c8-107c9ca2d8cc"},"vehicle_type_id":"4","last_reported":1747124124,"current_range_meters":22000,"station_id":"ce4bh012rcd13ifvqd00","pricing_plan_id":"cebpf4jnsgd1na2vs0mg"},{"bike_id":"4fd621e0-8bc7-4ef4-b86e-940c38d6e3f8","system_id":"levelo_inurba_marseille","lat":43.28368,"lon":5.4324,"is_reserved":false,"is_disabled":false,"rental_uris":{"android":"levelo://app?vid=4fd621e0-8bc7-4ef4-b86e-940c38d6e3f8","ios":"levelo://app?vid=4fd621e0-8bc7-4ef4-b86e-940c38d6e3f8"},"vehicle_type_id":"4","last_reported":1747124124,"current_range_meters":22000,"station_id":"","pricing_plan_id":"cebpf4jnsgd1na2vs0mg"},{"bike_id":"8d360da7-0f31-4ee0-a62a-9c82686cb85a","system_id":"levelo_inurba_marseille","lat":43.26945,"lon":5.38641,"is_reserved":false,"is_disabled":false,"rental_uris":{"android":"levelo://app?vid=8d360da7-0f31-4ee0-a62a-9c82686cb85a","ios":"levelo://app?vid=8d360da7-0f31-4ee0-a62a-9c82686cb85a"},"vehicle_type_id":"4","last_reported":1747124124,"current_range_meters":22000,"station_id":"ce4bhh92rcd13ifvqfh0","pricing_plan_id":"cebpf4jnsgd1na2vs0mg"},{"bike_id":"4ba59a6f-12c7-455f-985a-fb369b61327a","system_id":"levelo_inurba_marseille","lat":43.29278,"lon":5.36839,"is_reserved":false,"is_disabled":false,"rental_uris":{"android":"levelo://app?vid=4ba59a6f-12c7-455f-985a-fb369b61327a","ios":"levelo://app?vid=4ba59a6f-12c7-455f-985a-fb369b61327a"},"vehicle_type_id":"4","last_reported":1747124124,"current_range_meters":22000,"station_id":"ce4bhbp2rcd13ifvqesg","pricing_plan_id":"cebpf4jnsgd1na2vs0mg"},{"bike_id":"23a9b919-c523-4e7b-8ce9-164b7bc4071d","system_id":"levelo_inurba_marseille","lat":43.28721,"lon":5.37944,"is_reserved":false,"is_disabled":false,"rental_uris":{"android":"levelo://app?vid=23a9b919-c523-4e7b-8ce9-164b7bc4071d","ios":"levelo://app?vid=23a9b919-c523-4e7b-8ce9-164b7bc4071d"},"vehicle_type_id":"4","last_reported":1747124124,"current_range_meters":22000,"station_id":"ce4bh9p2rcd13ifvqec0","pricing_plan_id":"cebpf4jnsgd1na2vs0mg"},{"bike_id":"42d8b9b3-aca0-4f1b-90a9-1afccf1d7601","system_id":"levelo_inurba_marseille","lat":43.26928,"lon":5.38923,"is_reserved":false,"is_disabled":false,"rental_uris":{"android":"levelo://app?vid=42d8b9b3-aca0-4f1b-90a9-1afccf1d7601","ios":"levelo://app?vid=42d8b9b3-aca0-4f1b-90a9-1afccf1d7601"},"vehicle_type_id":"4","last_reported":1747124124,"current_range_meters":22000,"station_id":"ce4bhhh2rcd13ifvqfl0","pricing_plan_id":"cebpf4jnsgd1na2vs0mg"},{"bike_id":"05669342-cb45-4c08-a397-74c64938fdba","system_id":"levelo_inurba_marseille","lat":43.25906,"lon":5.40884,"is_reserved":false,"is_disabled":false,"rental_uris":{"android":"levelo://app?vid=05669342-cb45-4c08-a397-74c64938fdba","ios":"levelo://app?vid=05669342-cb45-4c08-a397-74c64938fdba"},"vehicle_type_id":"4","last_reported":1747124124,"current_range_meters":22000,"station_id":"ce4bhm92rcd13ifvqglg","pricing_plan_id":"cebpf4jnsgd1na2vs0mg"},{"bike_id":"68de0bc8-9dd9-439f-a3d8-6e6ed5736280","system_id":"levelo_inurba_marseille","lat":43.25112,"lon":5.40313,"is_reserved":false,"is_disabled":false,"rental_uris":{"android":"levelo://app?vid=68de0bc8-9dd9-439f-a3d8-6e6ed5736280","ios":"levelo://app?vid=68de0bc8-9dd9-439f-a3d8-6e6ed5736280"},"vehicle_type_id":"4","last_reported":1747124124,"current_range_meters":22400,"station_id":"ce4bhlh2rcd13ifvqgig","pricing_plan_id":"cebpf4jnsgd1na2vs0mg"},{"bike_id":"63bf3578-8331-4f5c-9837-4398bf1e6e37","system_id":"levelo_inurba_marseille","lat":43.30541,"lon":5.36551,"is_reserved":false,"is_disabled":false,"rental_uris":{"android":"levelo://app?vid=63bf3578-8331-4f5c-9837-4398bf1e6e37","ios":"levelo://app?vid=63bf3578-8331-4f5c-9837-4398bf1e6e37"},"vehicle_type_id":"4","last_reported":1747124124,"current_range_meters":22400,"station_id":"ce4bgs12rcd13ifvqcag","pricing_plan_id":"cebpf4jnsgd1na2vs0mg"},{"bike_id":"b5638609-019f-4b39-8401-2faad7c79a2d","system_id":"levelo_inurba_marseille","lat":43.29698,"lon":5.36608,"is_reserved":false,"is_disabled":false,"rental_uris":{"android":"levelo://app?vid=b5638609-019f-4b39-8401-2faad7c79a2d","ios":"levelo://app?vid=b5638609-019f-4b39-8401-2faad7c79a2d"},"vehicle_type_id":"4","last_reported":1747124124,"current_range_meters":22400,"station_id":"ce4bgn12rcd13ifvqbt0","pricing_plan_id":"cebpf4jnsgd1na2vs0mg"},{"bike_id":"4c96e461-6918-437d-b1d1-c5c7db68aa93","system_id":"levelo_inurba_marseille","lat":43.2594,"lon":5.409,"is_reserved":false,"is_disabled":false,"rental_uris":{"android":"levelo://app?vid=4c96e461-6918-437d-b1d1-c5c7db68aa93","ios":"levelo://app?vid=4c96e461-6918-437d-b1d1-c5c7db68aa93"},"vehicle_type_id":"4","last_reported":1747124124,"current_range_meters":22400,"station_id":"ce4bhm92rcd13ifvqglg","pricing_plan_id":"cebpf4jnsgd1na2vs0mg"},{"bike_id":"32c4297d-700e-456e-b1ab-9788fe2e644b","system_id":"levelo_inurba_marseille","lat":43.31494,"lon":5.37311,"is_reserved":false,"is_disabled":true,"rental_uris":{"android":"levelo://app?vid=32c4297d-700e-456e-b1ab-9788fe2e644b","ios":"levelo://app?vid=32c4297d-700e-456e-b1ab-9788fe2e644b"},"vehicle_type_id":"4","last_reported":1747124124,"current_range_meters":22400,"station_id":"ce4bgt12rcd13ifvqcd0","pricing_plan_id":"cebpf4jnsgd1na2vs0mg"},{"bike_id":"9cc409ad-5e29-4888-8995-93817f55debb","system_id":"levelo_inurba_marseille","lat":43.30544,"lon":5.36697,"is_reserved":false,"is_disabled":false,"rental_uris":{"android":"levelo://app?vid=9cc409ad-5e29-4888-8995-93817f55debb","ios":"levelo://app?vid=9cc409ad-5e29-4888-8995-93817f55debb"},"vehicle_type_id":"4","last_reported":1747124124,"current_range_meters":22400,"station_id":"ce4bgrp2rcd13ifvqc9g","pricing_plan_id":"cebpf4jnsgd1na2vs0mg"},{"bike_id":"e70e47c0-7e35-45ee-b7f6-ab8a468ac3b7","system_id":"levelo_inurba_marseille","lat":43.30537,"lon":5.36669,"is_reserved":false,"is_disabled":false,"rental_uris":{"android":"levelo://app?vid=e70e47c0-7e35-45ee-b7f6-ab8a468ac3b7","ios":"levelo://app?vid=e70e47c0-7e35-45ee-b7f6-ab8a468ac3b7"},"vehicle_type_id":"4","last_reported":1747124124,"current_range_meters":22400,"station_id":"","pricing_plan_id":"cebpf4jnsgd1na2vs0mg"},{"bike_id":"304fc888-8031-42c6-ac94-c248632c4501","system_id":"levelo_inurba_marseille","lat":43.33601,"lon":5.41011,"is_reserved":false,"is_disabled":false,"rental_uris":{"android":"levelo://app?vid=304fc888-8031-42c6-ac94-c248632c4501","ios":"levelo://app?vid=304fc888-8031-42c6-ac94-c248632c4501"},"vehicle_type_id":"4","last_reported":1747124124,"current_range_meters":22400,"station_id":"ce4bhqh2rcd13ifvqhmg","pricing_plan_id":"cebpf4jnsgd1na2vs0mg"},{"bike_id":"152a8b5e-e8fc-4c70-a7fd-9add15ef06b9","system_id":"levelo_inurba_marseille","lat":43.30189,"lon":5.36611,"is_reserved":false,"is_disabled":false,"rental_uris":{"android":"levelo://app?vid=152a8b5e-e8fc-4c70-a7fd-9add15ef06b9","ios":"levelo://app?vid=152a8b5e-e8fc-4c70-a7fd-9add15ef06b9"},"vehicle_type_id":"4","last_reported":1747124124,"current_range_meters":22400,"station_id":"ce4bgrh2rcd13ifvqc8g","pricing_plan_id":"cebpf4jnsgd1na2vs0mg"},{"bike_id":"de43c205-8bc1-4efe-8e0b-7d90c72e613b","system_id":"levelo_inurba_marseille","lat":43.26936,"lon":5.38917,"is_reserved":false,"is_disabled":true,"rental_uris":{"android":"levelo://app?vid=de43c205-8bc1-4efe-8e0b-7d90c72e613b","ios":"levelo://app?vid=de43c205-8bc1-4efe-8e0b-7d90c72e613b"},"vehicle_type_id":"4","last_reported":1747124124,"current_range_meters":22800,"station_id":"ce4bhhh2rcd13ifvqfl0","pricing_plan_id":"cebpf4jnsgd1na2vs0mg"},{"bike_id":"c82610de-e2b1-423e-b931-96050f8e119a","system_id":"levelo_inurba_marseille","lat":43.3254,"lon":5.4143,"is_reserved":false,"is_disabled":false,"rental_uris":{"android":"levelo://app?vid=c82610de-e2b1-423e-b931-96050f8e119a","ios":"levelo://app?vid=c82610de-e2b1-423e-b931-96050f8e119a"},"vehicle_type_id":"4","last_reported":1747124124,"current_range_meters":22800,"station_id":"ce4bhq12rcd13ifvqhhg","pricing_plan_id":"cebpf4jnsgd1na2vs0mg"},{"bike_id":"e753fca7-77cd-4454-9e59-ee2ddd0637fc","system_id":"levelo_inurba_marseille","lat":43.27495,"lon":5.424508,"is_reserved":false,"is_disabled":false,"rental_uris":{"android":"levelo://app?vid=e753fca7-77cd-4454-9e59-ee2ddd0637fc","ios":"levelo://app?vid=e753fca7-77cd-4454-9e59-ee2ddd0637fc"},"vehicle_type_id":"4","last_reported":1747124124,"current_range_meters":22800,"station_id":"ce4bhn92rcd13ifvqgrg","pricing_plan_id":"cebpf4jnsgd1na2vs0mg"},{"bike_id":"5647a91f-31a6-41fb-82bb-83893a94fc73","system_id":"levelo_inurba_marseille","lat":43.21198,"lon":5.35109,"is_reserved":false,"is_disabled":false,"rental_uris":{"android":"levelo://app?vid=5647a91f-31a6-41fb-82bb-83893a94fc73","ios":"levelo://app?vid=5647a91f-31a6-41fb-82bb-83893a94fc73"},"vehicle_type_id":"4","last_reported":1747124124,"current_range_meters":22800,"station_id":"st_cvj6sg6p6f1abm77japg","pricing_plan_id":"cebpf4jnsgd1na2vs0mg"},{"bike_id":"1b7d212e-cba0-4822-898a-db176ec8e7ea","system_id":"levelo_inurba_marseille","lat":43.30433,"lon":5.38881,"is_reserved":false,"is_disabled":true,"rental_uris":{"android":"levelo://app?vid=1b7d212e-cba0-4822-898a-db176ec8e7ea","ios":"levelo://app?vid=1b7d212e-cba0-4822-898a-db176ec8e7ea"},"vehicle_type_id":"4","last_reported":1747124124,"current_range_meters":22800,"station_id":"ce4bgk12rcd13ifvqbi0","pricing_plan_id":"cebpf4jnsgd1na2vs0mg"},{"bike_id":"312cf0fa-89c7-41e2-ab6c-83d3c271172c","system_id":"levelo_inurba_marseille","lat":43.31708,"lon":5.40472,"is_reserved":false,"is_disabled":false,"rental_uris":{"android":"levelo://app?vid=312cf0fa-89c7-41e2-ab6c-83d3c271172c","ios":"levelo://app?vid=312cf0fa-89c7-41e2-ab6c-83d3c271172c"},"vehicle_type_id":"4","last_reported":1747124124,"current_range_meters":22800,"station_id":"ce4bh012rcd13ifvqd00","pricing_plan_id":"cebpf4jnsgd1na2vs0mg"},{"bike_id":"76d53898-8a1b-49ff-a49e-4d2b2a17c2e8","system_id":"levelo_inurba_marseille","lat":43.30275,"lon":5.37711,"is_reserved":false,"is_disabled":false,"rental_uris":{"android":"levelo://app?vid=76d53898-8a1b-49ff-a49e-4d2b2a17c2e8","ios":"levelo://app?vid=76d53898-8a1b-49ff-a49e-4d2b2a17c2e8"},"vehicle_type_id":"4","last_reported":1747124124,"current_range_meters":22800,"station_id":"ce4bguh2rcd13ifvqcj0","pricing_plan_id":"cebpf4jnsgd1na2vs0mg"},{"bike_id":"dabc8fad-2426-46d9-887a-00b23b75eb4f","system_id":"levelo_inurba_marseille","lat":43.29594,"lon":5.38095,"is_reserved":false,"is_disabled":false,"rental_uris":{"android":"levelo://app?vid=dabc8fad-2426-46d9-887a-00b23b75eb4f","ios":"levelo://app?vid=dabc8fad-2426-46d9-887a-00b23b75eb4f"},"vehicle_type_id":"4","last_reported":1747124124,"current_range_meters":22800,"station_id":"ce4bgl12rcd13ifvqbo0","pricing_plan_id":"cebpf4jnsgd1na2vs0mg"},{"bike_id":"b329ed15-f03b-447a-9ce6-f26e0aa8385d","system_id":"levelo_inurba_marseille","lat":43.29296,"lon":5.37455,"is_reserved":false,"is_disabled":false,"rental_uris":{"android":"levelo://app?vid=b329ed15-f03b-447a-9ce6-f26e0aa8385d","ios":"levelo://app?vid=b329ed15-f03b-447a-9ce6-f26e0aa8385d"},"vehicle_type_id":"4","last_reported":1747124124,"current_range_meters":22800,"station_id":"ce4bgi12rcd13ifvqb70","pricing_plan_id":"cebpf4jnsgd1na2vs0mg"},{"bike_id":"354f0639-e2ee-49bc-b649-f0d89cf9efb0","system_id":"levelo_inurba_marseille","lat":43.32479,"lon":5.36559,"is_reserved":false,"is_disabled":false,"rental_uris":{"android":"levelo://app?vid=354f0639-e2ee-49bc-b649-f0d89cf9efb0","ios":"levelo://app?vid=354f0639-e2ee-49bc-b649-f0d89cf9efb0"},"vehicle_type_id":"4","last_reported":1747124124,"current_range_meters":22800,"station_id":"ce4bhs12rcd13ifvqhvg","pricing_plan_id":"cebpf4jnsgd1na2vs0mg"},{"bike_id":"0a8ca5c2-40f2-4245-9b84-8e8cc11c2ffd","system_id":"levelo_inurba_marseille","lat":43.26072,"lon":5.3938,"is_reserved":false,"is_disabled":true,"rental_uris":{"android":"levelo://app?vid=0a8ca5c2-40f2-4245-9b84-8e8cc11c2ffd","ios":"levelo://app?vid=0a8ca5c2-40f2-4245-9b84-8e8cc11c2ffd"},"vehicle_type_id":"4","last_reported":1747124124,"current_range_meters":22800,"station_id":"ce4bhh92rcd13ifvqfj0","pricing_plan_id":"cebpf4jnsgd1na2vs0mg"},{"bike_id":"40a1c000-90a0-4865-a7e7-3a2a723ed018","system_id":"levelo_inurba_marseille","lat":43.2595,"lon":5.40882,"is_reserved":false,"is_disabled":false,"rental_uris":{"android":"levelo://app?vid=40a1c000-90a0-4865-a7e7-3a2a723ed018","ios":"levelo://app?vid=40a1c000-90a0-4865-a7e7-3a2a723ed018"},"vehicle_type_id":"4","last_reported":1747124124,"current_range_meters":23200,"station_id":"ce4bhm92rcd13ifvqglg","pricing_plan_id":"cebpf4jnsgd1na2vs0mg"},{"bike_id":"fa9b5eb1-3a93-479a-8cb9-213b854bfdc2","system_id":"levelo_inurba_marseille","lat":43.28268,"lon":5.35054,"is_reserved":false,"is_disabled":false,"rental_uris":{"android":"levelo://app?vid=fa9b5eb1-3a93-479a-8cb9-213b854bfdc2","ios":"levelo://app?vid=fa9b5eb1-3a93-479a-8cb9-213b854bfdc2"},"vehicle_type_id":"4","last_reported":1747124124,"current_range_meters":22800,"station_id":"ce4bhbp2rcd13ifvqerg","pricing_plan_id":"cebpf4jnsgd1na2vs0mg"},{"bike_id":"092b04fe-eb95-45f7-8186-54e418969201","system_id":"levelo_inurba_marseille","lat":43.30175,"lon":5.38099,"is_reserved":false,"is_disabled":true,"rental_uris":{"android":"levelo://app?vid=092b04fe-eb95-45f7-8186-54e418969201","ios":"levelo://app?vid=092b04fe-eb95-45f7-8186-54e418969201"},"vehicle_type_id":"4","last_reported":1747124124,"current_range_meters":23200,"station_id":"ce4bgjp2rcd13ifvqbh0","pricing_plan_id":"cebpf4jnsgd1na2vs0mg"},{"bike_id":"f1d5255b-8c61-431a-ae0b-f0e258cc0cfc","system_id":"levelo_inurba_marseille","lat":43.30154,"lon":5.38088,"is_reserved":false,"is_disabled":true,"rental_uris":{"android":"levelo://app?vid=f1d5255b-8c61-431a-ae0b-f0e258cc0cfc","ios":"levelo://app?vid=f1d5255b-8c61-431a-ae0b-f0e258cc0cfc"},"vehicle_type_id":"4","last_reported":1747124124,"current_range_meters":23200,"station_id":"ce4bgjp2rcd13ifvqbh0","pricing_plan_id":"cebpf4jnsgd1na2vs0mg"},{"bike_id":"0ed778d2-7fdd-418a-9bed-37e679d6749f","system_id":"levelo_inurba_marseille","lat":43.28445,"lon":5.39208,"is_reserved":false,"is_disabled":false,"rental_uris":{"android":"levelo://app?vid=0ed778d2-7fdd-418a-9bed-37e679d6749f","ios":"levelo://app?vid=0ed778d2-7fdd-418a-9bed-37e679d6749f"},"vehicle_type_id":"4","last_reported":1747124124,"current_range_meters":24000,"station_id":"ce4bhoh2rcd13ifvqh5g","pricing_plan_id":"cebpf4jnsgd1na2vs0mg"},{"bike_id":"6cfd09dc-acea-4e54-93c8-1a0e54afb5b6","system_id":"levelo_inurba_marseille","lat":43.30899,"lon":5.36861,"is_reserved":false,"is_disabled":false,"rental_uris":{"android":"levelo://app?vid=6cfd09dc-acea-4e54-93c8-1a0e54afb5b6","ios":"levelo://app?vid=6cfd09dc-acea-4e54-93c8-1a0e54afb5b6"},"vehicle_type_id":"4","last_reported":1747124124,"current_range_meters":24000,"station_id":"ce4bgn92rcd13ifvqbvg","pricing_plan_id":"cebpf4jnsgd1na2vs0mg"},{"bike_id":"37d5f844-94bc-41a9-8425-161f6ab55352","system_id":"levelo_inurba_marseille","lat":43.302853,"lon":5.376987,"is_reserved":false,"is_disabled":true,"rental_uris":{"android":"levelo://app?vid=37d5f844-94bc-41a9-8425-161f6ab55352","ios":"levelo://app?vid=37d5f844-94bc-41a9-8425-161f6ab55352"},"vehicle_type_id":"4","last_reported":1747124124,"current_range_meters":24000,"station_id":"ce4bguh2rcd13ifvqcj0","pricing_plan_id":"cebpf4jnsgd1na2vs0mg"},{"bike_id":"1311b7be-7448-4e46-8540-0cecbf3a9518","system_id":"levelo_inurba_marseille","lat":43.321192,"lon":5.367818,"is_reserved":false,"is_disabled":false,"rental_uris":{"android":"levelo://app?vid=1311b7be-7448-4e46-8540-0cecbf3a9518","ios":"levelo://app?vid=1311b7be-7448-4e46-8540-0cecbf3a9518"},"vehicle_type_id":"4","last_reported":1747124124,"current_range_meters":24000,"station_id":"ce4bhrh2rcd13ifvqhug","pricing_plan_id":"cebpf4jnsgd1na2vs0mg"},{"bike_id":"81bb441c-20d7-4046-95a3-f4404ce77d6f","system_id":"levelo_inurba_marseille","lat":43.29793,"lon":5.38106,"is_reserved":false,"is_disabled":false,"rental_uris":{"android":"levelo://app?vid=81bb441c-20d7-4046-95a3-f4404ce77d6f","ios":"levelo://app?vid=81bb441c-20d7-4046-95a3-f4404ce77d6f"},"vehicle_type_id":"4","last_reported":1747124124,"current_range_meters":24000,"station_id":"ce4bgip2rcd13ifvqbb0","pricing_plan_id":"cebpf4jnsgd1na2vs0mg"},{"bike_id":"93362b3f-2597-4629-a6d9-baa2de57db56","system_id":"levelo_inurba_marseille","lat":43.29517,"lon":5.39401,"is_reserved":false,"is_disabled":true,"rental_uris":{"android":"levelo://app?vid=93362b3f-2597-4629-a6d9-baa2de57db56","ios":"levelo://app?vid=93362b3f-2597-4629-a6d9-baa2de57db56"},"vehicle_type_id":"4","last_reported":1747124124,"current_range_meters":24000,"station_id":"ce4bh292rcd13ifvqdf0","pricing_plan_id":"cebpf4jnsgd1na2vs0mg"},{"bike_id":"cc120e7d-61c0-4348-9e0f-8241daab6954","system_id":"levelo_inurba_marseille","lat":43.31263,"lon":5.36841,"is_reserved":false,"is_disabled":false,"rental_uris":{"android":"levelo://app?vid=cc120e7d-61c0-4348-9e0f-8241daab6954","ios":"levelo://app?vid=cc120e7d-61c0-4348-9e0f-8241daab6954"},"vehicle_type_id":"4","last_reported":1747124124,"current_range_meters":24000,"station_id":"ce4bgl92rcd13ifvqbq0","pricing_plan_id":"cebpf4jnsgd1na2vs0mg"},{"bike_id":"6ce7cb86-61fa-4d6b-bf00-97fa7d8c1718","system_id":"levelo_inurba_marseille","lat":43.26791,"lon":5.40253,"is_reserved":false,"is_disabled":false,"rental_uris":{"android":"levelo://app?vid=6ce7cb86-61fa-4d6b-bf00-97fa7d8c1718","ios":"levelo://app?vid=6ce7cb86-61fa-4d6b-bf00-97fa7d8c1718"},"vehicle_type_id":"4","last_reported":1747124124,"current_range_meters":24000,"station_id":"ce501612rcd8frsf0b60","pricing_plan_id":"cebpf4jnsgd1na2vs0mg"},{"bike_id":"856edd1c-41fa-4163-ac94-3c5b1ee3b929","system_id":"levelo_inurba_marseille","lat":43.273819,"lon":5.362534,"is_reserved":false,"is_disabled":true,"rental_uris":{"android":"levelo://app?vid=856edd1c-41fa-4163-ac94-3c5b1ee3b929","ios":"levelo://app?vid=856edd1c-41fa-4163-ac94-3c5b1ee3b929"},"vehicle_type_id":"4","last_reported":1747124124,"current_range_meters":24000,"station_id":"ce4bhbh2rcd13ifvqeo0","pricing_plan_id":"cebpf4jnsgd1na2vs0mg"},{"bike_id":"9419948e-4bd4-4fc8-849a-66bff1b9465e","system_id":"levelo_inurba_marseille","lat":43.2748,"lon":5.42473,"is_reserved":false,"is_disabled":false,"rental_uris":{"android":"levelo://app?vid=9419948e-4bd4-4fc8-849a-66bff1b9465e","ios":"levelo://app?vid=9419948e-4bd4-4fc8-849a-66bff1b9465e"},"vehicle_type_id":"4","last_reported":1747124124,"current_range_meters":24000,"station_id":"ce4bhn92rcd13ifvqgrg","pricing_plan_id":"cebpf4jnsgd1na2vs0mg"},{"bike_id":"3015caa5-c6e8-446b-ada8-4c9f9c36d485","system_id":"levelo_inurba_marseille","lat":43.23965,"lon":5.36616,"is_reserved":false,"is_disabled":false,"rental_uris":{"android":"levelo://app?vid=3015caa5-c6e8-446b-ada8-4c9f9c36d485","ios":"levelo://app?vid=3015caa5-c6e8-446b-ada8-4c9f9c36d485"},"vehicle_type_id":"4","last_reported":1747124124,"current_range_meters":24000,"station_id":"ce4bhi12rcd13ifvqfp0","pricing_plan_id":"cebpf4jnsgd1na2vs0mg"},{"bike_id":"18556955-6e5e-44de-8de6-34b971734618","system_id":"levelo_inurba_marseille","lat":43.3212,"lon":5.36765,"is_reserved":false,"is_disabled":false,"rental_uris":{"android":"levelo://app?vid=18556955-6e5e-44de-8de6-34b971734618","ios":"levelo://app?vid=18556955-6e5e-44de-8de6-34b971734618"},"vehicle_type_id":"4","last_reported":1747124124,"current_range_meters":24400,"station_id":"ce4bhrh2rcd13ifvqhug","pricing_plan_id":"cebpf4jnsgd1na2vs0mg"},{"bike_id":"1c7f6792-cc6c-4358-878d-ab0737dd6dd9","system_id":"levelo_inurba_marseille","lat":43.29264,"lon":5.37627,"is_reserved":false,"is_disabled":false,"rental_uris":{"android":"levelo://app?vid=1c7f6792-cc6c-4358-878d-ab0737dd6dd9","ios":"levelo://app?vid=1c7f6792-cc6c-4358-878d-ab0737dd6dd9"},"vehicle_type_id":"4","last_reported":1747124124,"current_range_meters":24400,"station_id":"ce4bgi12rcd13ifvqb80","pricing_plan_id":"cebpf4jnsgd1na2vs0mg"},{"bike_id":"e9c4473d-4bf1-48d7-be7b-f01cb07478b3","system_id":"levelo_inurba_marseille","lat":43.25925,"lon":5.40908,"is_reserved":false,"is_disabled":false,"rental_uris":{"android":"levelo://app?vid=e9c4473d-4bf1-48d7-be7b-f01cb07478b3","ios":"levelo://app?vid=e9c4473d-4bf1-48d7-be7b-f01cb07478b3"},"vehicle_type_id":"4","last_reported":1747124124,"current_range_meters":24400,"station_id":"ce4bhm92rcd13ifvqglg","pricing_plan_id":"cebpf4jnsgd1na2vs0mg"},{"bike_id":"a3c2f1e2-e0c5-4acf-bdcb-bc272f737254","system_id":"levelo_inurba_marseille","lat":43.30543,"lon":5.36715,"is_reserved":false,"is_disabled":false,"rental_uris":{"android":"levelo://app?vid=a3c2f1e2-e0c5-4acf-bdcb-bc272f737254","ios":"levelo://app?vid=a3c2f1e2-e0c5-4acf-bdcb-bc272f737254"},"vehicle_type_id":"4","last_reported":1747124124,"current_range_meters":24400,"station_id":"ce4bgrp2rcd13ifvqc9g","pricing_plan_id":"cebpf4jnsgd1na2vs0mg"},