{"last_updated":1767200979,"ttl":60,"version":"2.2","data":{"bikes":[{"bike_id":"f005dcda-e481-42d9-a417-5a5ff74d475a","system_id":"levelo_inurba_marseille","lat":43.30462,"lon":5.37912,"is_reserved":false,"is_disabled":false,"rental_uris":{"android":"levelo://app?vid=f005dcda-e481-42d9-a417-5a5ff74d475a","ios":"levelo://app?vid=f005dcda-e481-42d9-a417-5a5ff74d475a"},"vehicle_type_id":"4","last_reported":1767200979,"current_range_meters":2800,"station_id":"ce4bgup2rcd13ifvqcn0","pricing_plan_id":"cebpf4jnsgd1na2vs0mg"},{"bike_id":"6b4765f2-d345-4b0e-b081-d62d660a95a8","system_id":"levelo_inurba_marseille","lat":43.25581,"lon":5.38226,"is_reserved":false,"is_disabled":false,"rental_uris":{"android":"levelo://app?vid=6b4765f2-d345-4b0e-b081-d62d660a95a8","ios":"levelo://app?vid=6b4765f2-d345-4b0e-b081-d62d660a95a8"},"vehicle_type_id":"4","last_reported":1767200979,"current_range_meters":2800,"station_id":"ce4bhih2rcd13ifvqfs0","pricing_plan_id":"cebpf4jnsgd1na2vs0mg"},{"bike_id":"12c38b32-5974-4311-910a-572392b8079a","system_id":"levelo_inurba_marseille","lat":43.280422,"lon":5.350876,"is_reserved":false,"is_disabled":false,"rental_uris":{"android":"levelo://app?vid=12c38b32-5974-4311-910a-572392b8079a","ios":"levelo://app?vid=12c38b32-5974-4311-910a-572392b8079a"},"vehicle_type_id":"4","last_reported":1767200979,"current_range_meters":3200,"station_id":"","pricing_plan_id":"cebpf4jnsgd1na2vs0mg"},{"bike_id":"8e23bdba-3cfc-4e84-b5a6-8f30a614eb84","system_id":"levelo_inurba_marseille","lat":43.278381,"lon":5.39211,"is_reserved":false,"is_disabled":false,"rental_uris":{"android":"levelo://app?vid=8e23bdba-3cfc-4e84-b5a6-8f30a614eb84","ios":"levelo://app?vid=8e23bdba-3cfc-4e84-b5a6-8f30a614eb84"},"vehicle_type_id":"4","last_reported":1767200979,"current_range_meters":3200,"station_id":"ce4bhjp2rcd13ifvqga0","pricing_plan_id":"cebpf4jnsgd1na2vs0mg"},{"bike_id":"5db22cea-5a6d-457c-a764-d22243e492f9","system_id":"levelo_inurba_marseille","lat":43.30637,"lon":5.40099,"is_reserved":false,"is_disabled":false,"rental_uris":{"android":"levelo://app?vid=5db22cea-5a6d-457c-a764-d22243e492f9","ios":"levelo://app?vid=5db22cea-5a6d-457c-a764-d22243e492f9"},"vehicle_type_id":"4","last_reported":1767200979,"current_range_meters":3200,"station_id":"ce4bh112rcd13ifvqda0","pricing_plan_id":"cebpf4jnsgd1na2vs0mg"},{"bike_id":"006874ba-f572-4e5d-8eaa-b1e7849ad1e8","system_id":"levelo_inurba_marseille","lat":43.22925,"lon":5.35367,"is_reserved":false,"is_disabled":false,"rental_uris":{"android":"levelo://app?vid=006874ba-f572-4e5d-8eaa-b1e7849ad1e8","ios":"levelo://app?vid=006874ba-f572-4e5d-8eaa-b1e7849ad1e8"},"vehicle_type_id":"4","last_reported":1767200979,"current_range_meters":3600,"station_id":"cpo3532slgdg3j2ikp40","pricing_plan_id":"cebpf4jnsgd1na2vs0mg"},{"bike_id":"e846815f-6e47-4876-afa5-6f3d940c1caf","system_id":"levelo_inurba_marseille","lat":43.29873,"lon":5.39744,"is_reserved":false,"is_disabled":false,"rental_uris":{"android":"levelo://app?vid=e846815f-6e47-4876-afa5-6f3d940c1caf","ios":"levelo://app?vid=e846815f-6e47-4876-afa5-6f3d940c1caf"},"vehicle_type_id":"4","last_reported":1767200979,"current_range_meters":3600,"station_id":"ce4bh0h2rcd13ifvqd50","pricing_plan_id":"cebpf4jnsgd1na2vs0mg"},{"bike_id":"36ac86e1-b516-4db5-896a-1cf9b7bb1b41","system_id":"levelo_inurba_marseille","lat":43.308946,"lon":5.382017,"is_reserved":false,"is_disabled":false,"rental_uris":{"android":"levelo://app?vid=36ac86e1-b516-4db5-896a-1cf9b7bb1b41","ios":"levelo://app?vid=36ac86e1-b516-4db5-896a-1cf9b7bb1b41"},"vehicle_type_id":"4","last_reported":1767200979,"current_range_meters":3600,"station_id":"ce4bhh92rcd13ifvqfi0","pricing_plan_id":"cebpf4jnsgd1na2vs0mg"},{"bike_id":"b4cf7106-73c2-4109-b6f1-be10e1ccce58","system_id":"levelo_inurba_marseille","lat":43.29674,"lon":5.38521,"is_reserved":false,"is_disabled":false,"rental_uris":{"android":"levelo://app?vid=b4cf7106-73c2-4109-b6f1-be10e1ccce58","ios":"levelo://app?vid=b4cf7106-73c2-4109-b6f1-be10e1ccce58"},"vehicle_type_id":"4","last_reported":1767200979,"current_range_meters":3600,"station_id":"","pricing_plan_id":"cebpf4jnsgd1na2vs0mg"},{"bike_id":"970f6c1d-f464-4249-baad-9d8636c41627","system_id":"levelo_inurba_marseille","lat":43.29171,"lon":5.37511,"is_reserved":false,"is_disabled":false,"rental_uris":{"android":"levelo://app?vid=970f6c1d-f464-4249-baad-9d8636c41627","ios":"levelo://app?vid=970f6c1d-f464-4249-baad-9d8636c41627"},"vehicle_type_id":"4","last_reported":1767200979,"current_range_meters":4000,"station_id":"","pricing_plan_id":"cebpf4jnsgd1na2vs0mg"},{"bike_id":"047732f6-df7f-445a-9793-d2f21c52a2ff","system_id":"levelo_inurba_marseille","lat":43.29883,"lon":5.39744,"is_reserved":false,"is_disabled":false,"rental_uris":{"android":"levelo://app?vid=047732f6-df7f-445a-9793-d2f21c52a2ff","ios":"levelo://app?vid=047732f6-df7f-445a-9793-d2f21c52a2ff"},"vehicle_type_id":"4","last_reported":1767200979,"current_range_meters":4000,"station_id":"ce4bh0h2rcd13ifvqd50","pricing_plan_id":"cebpf4jnsgd1na2vs0mg"},{"bike_id":"0e63cc20-f42b-4426-a981-3d236ad773c6","system_id":"levelo_inurba_marseille","lat":43.2925,"lon":5.37627,"is_reserved":false,"is_disabled":false,"rental_uris":{"android":"levelo://app?vid=0e63cc20-f42b-4426-a981-3d236ad773c6","ios":"levelo://app?vid=0e63cc20-f42b-4426-a981-3d236ad773c6"},"vehicle_type_id":"4","last_reported":1767200979,"current_range_meters":4400,"station_id":"ce4bgi12rcd13ifvqb80","pricing_plan_id":"cebpf4jnsgd1na2vs0mg"},{"bike_id":"d1028c8d-4c1a-4ce3-bb87-06b106258967","system_id":"levelo_inurba_marseille","lat":43.3009,"lon":5.37081,"is_reserved":false,"is_disabled":false,"rental_uris":{"android":"levelo://app?vid=d1028c8d-4c1a-4ce3-bb87-06b106258967","ios":"levelo://app?vid=d1028c8d-4c1a-4ce3-bb87-06b106258967"},"vehicle_type_id":"4","last_reported":1767200979,"current_range_meters":4400,"station_id":"","pricing_plan_id":"cebpf4jnsgd1na2vs0mg"},{"bike_id":"1f986bde-e823-4547-a8eb-43be952db802","system_id":"levelo_inurba_marseille","lat":43.29442,"lon":5.37288,"is_reserved":false,"is_disabled":false,"rental_uris":{"android":"levelo://app?vid=1f986bde-e823-4547-a8eb-43be952db802","ios":"levelo://app?vid=1f986bde-e823-4547-a8eb-43be952db802"},"vehicle_type_id":"4","last_reported":1767200979,"current_range_meters":4400,"station_id":"","pricing_plan_id":"cebpf4jnsgd1na2vs0mg"},{"bike_id":"638b9a6f-628a-4f31-9aab-672bd58cf3c6","system_id":"levelo_inurba_marseille","lat":43.23976,"lon":5.36626,"is_reserved":false,"is_disabled":false,"rental_uris":{"android":"levelo://app?vid=638b9a6f-628a-4f31-9aab-672bd58cf3c6","ios":"levelo://app?vid=638b9a6f-628a-4f31-9aab-672bd58cf3c6"},"vehicle_type_id":"4","last_reported":1767200979,"current_range_meters":4400,"station_id":"ce4bhi12rcd13ifvqfp0","pricing_plan_id":"cebpf4jnsgd1na2vs0mg"},{"bike_id":"6de3307c-544d-4946-a465-2938af5040f0","system_id":"levelo_inurba_marseille","lat":43.28448,"lon":5.35886,"is_reserved":false,"is_disabled":false,"rental_uris":{"android":"levelo://app?vid=6de3307c-544d-4946-a465-2938af5040f0","ios":"levelo://app?vid=6de3307c-544d-4946-a465-2938af5040f0"},"vehicle_type_id":"4","last_reported":1767200979,"current_range_meters":4800,"station_id":"ce4bhah2rcd13ifvqei0","pricing_plan_id":"cebpf4jnsgd1na2vs0mg"},{"bike_id":"dfdb8918-f102-483b-a9c5-0286e0f75424","system_id":"levelo_inurba_marseille","lat":43.30153,"lon":5.38083,"is_reserved":false,"is_disabled":false,"rental_uris":{"android":"levelo://app?vid=dfdb8918-f102-483b-a9c5-0286e0f75424","ios":"levelo://app?vid=dfdb8918-f102-483b-a9c5-0286e0f75424"},"vehicle_type_id":"4","last_reported":1767200979,"current_range_meters":4800,"station_id":"ce4bgjp2rcd13ifvqbh0","pricing_plan_id":"cebpf4jnsgd1na2vs0mg"},{"bike_id":"7646bce7-cbd0-4556-9f8e-6a5a0b67646e","system_id":"levelo_inurba_marseille","lat":43.282552,"lon":5.350662,"is_reserved":false,"is_disabled":false,"rental_uris":{"android":"levelo://app?vid=7646bce7-cbd0-4556-9f8e-6a5a0b67646e","ios":"levelo://app?vid=7646bce7-cbd0-4556-9f8e-6a5a0b67646e"},"vehicle_type_id":"4","last_reported":1767200979,"current_range_meters":4800,"station_id":"ce4bhi12rcd13ifvqfp0","pricing_plan_id":"cebpf4jnsgd1na2vs0mg"},{"bike_id":"7cfcce27-d7e0-440f-9157-9312934b0125","system_id":"levelo_inurba_marseille","lat":43.29526,"lon":5.39034,"is_reserved":false,"is_disabled":false,"rental_uris":{"android":"levelo://app?vid=7cfcce27-d7e0-440f-9157-9312934b0125","ios":"levelo://app?vid=7cfcce27-d7e0-440f-9157-9312934b0125"},"vehicle_type_id":"4","last_reported":1767200979,"current_range_meters":5600,"station_id":"ce4bh3p2rcd13ifvqdp0","pricing_plan_id":"cebpf4jnsgd1na2vs0mg"},{"bike_id":"b2b7d040-6379-4a7a-a0d2-d47ce476ec56","system_id":"levelo_inurba_marseille","lat":43.28973,"lon":5.37863,"is_reserved":false,"is_disabled":false,"rental_uris":{"android":"levelo://app?vid=b2b7d040-6379-4a7a-a0d2-d47ce476ec56","ios":"levelo://app?vid=b2b7d040-6379-4a7a-a0d2-d47ce476ec56"},"vehicle_type_id":"4","last_reported":1767200979,"current_range_meters":5600,"station_id":"ce4bh9p2rcd13ifvqed0","pricing_plan_id":"cebpf4jnsgd1na2vs0mg"},{"bike_id":"9d3e3e82-0274-479c-bc33-0268ceec6e2d","system_id":"levelo_inurba_marseille","lat":43.28938,"lon":5.36381,"is_reserved":false,"is_disabled":false,"rental_uris":{"android":"levelo://app?vid=9d3e3e82-0274-479c-bc33-0268ceec6e2d","ios":"levelo://app?vid=9d3e3e82-0274-479c-bc33-0268ceec6e2d"},"vehicle_type_id":"4","last_reported":1767200979,"current_range_meters":5600,"station_id":"ce4bhc92rcd13ifvqetg","pricing_plan_id":"cebpf4jnsgd1na2vs0mg"},{"bike_id":"3400d737-a32e-4dca-a00a-47ca201c9735","system_id":"levelo_inurba_marseille","lat":43.29543,"lon":5.42285,"is_reserved":false,"is_disabled":true,"rental_uris":{"android":"levelo://app?vid=3400d737-a32e-4dca-a00a-47ca201c9735","ios":"levelo://app?vid=3400d737-a32e-4dca-a00a-47ca201c9735"},"vehicle_type_id":"4","last_reported":1767200979,"current_range_meters":5600,"station_id":"ce4bhph2rcd13ifvqhdg","pricing_plan_id":"cebpf4jnsgd1na2vs0mg"},{"bike_id":"7451e2f1-97cc-4a6a-824e-1c725c74e9d6","system_id":"levelo_inurba_marseille","lat":43.293656,"lon":5.381034,"is_reserved":false,"is_disabled":false,"rental_uris":{"android":"levelo://app?vid=7451e2f1-97cc-4a6a-824e-1c725c74e9d6","ios":"levelo://app?vid=7451e2f1-97cc-4a6a-824e-1c725c74e9d6"},"vehicle_type_id":"4","last_reported":1767200979,"current_range_meters":5600,"station_id":"","pricing_plan_id":"cebpf4jnsgd1na2vs0mg"},{"bike_id":"744c4de8-0bd6-41c5-bddc-0f6acdafb102","system_id":"levelo_inurba_marseille","lat":43.3014,"lon":5.39874,"is_reserved":false,"is_disabled":false,"rental_uris":{"android":"levelo://app?vid=744c4de8-0bd6-41c5-bddc-0f6acdafb102","ios":"levelo://app?vid=744c4de8-0bd6-41c5-bddc-0f6acdafb102"},"vehicle_type_id":"4","last_reported":1767200979,"current_range_meters":5600,"station_id":"ce4bh0h2rcd13ifvqd40","pricing_plan_id":"cebpf4jnsgd1na2vs0mg"},{"bike_id":"40112a2a-c71c-4b9b-8b05-d3a02a9f6212","system_id":"levelo_inurba_marseille","lat":43.293616,"lon":5.37836,"is_reserved":false,"is_disabled":false,"rental_uris":{"android":"levelo://app?vid=40112a2a-c71c-4b9b-8b05-d3a02a9f6212","ios":"levelo://app?vid=40112a2a-c71c-4b9b-8b05-d3a02a9f6212"},"vehicle_type_id":"4","last_reported":1767200979,"current_range_meters":5600,"station_id":"ce4bh392rcd13ifvqdl0","pricing_plan_id":"cebpf4jnsgd1na2vs0mg"},{"bike_id":"1d9db99f-522b-4988-b919-241c95e15dea","system_id":"levelo_inurba_marseille","lat":43.30932,"lon":5.40144,"is_reserved":false,"is_disabled":false,"rental_uris":{"android":"levelo://app?vid=1d9db99f-522b-4988-b919-241c95e15dea","ios":"levelo://app?vid=1d9db99f-522b-4988-b919-241c95e15dea"},"vehicle_type_id":"4","last_reported":1767200979,"current_range_meters":5600,"station_id":"ce4bgvp2rcd13ifvqct0","pricing_plan_id":"cebpf4jnsgd1na2vs0mg"},{"bike_id":"b286a79d-3a7b-4126-8fba-0d799ac093e3","system_id":"levelo_inurba_marseille","lat":43.29568,"lon":5.39988,"is_reserved":false,"is_disabled":false,"rental_uris":{"android":"levelo://app?vid=b286a79d-3a7b-4126-8fba-0d799ac093e3","ios":"levelo://app?vid=b286a79d-3a7b-4126-8fba-0d799ac093e3"},"vehicle_type_id":"4","last_reported":1767200979,"current_range_meters":5600,"station_id":"ce4bh312rcd13ifvqdj0","pricing_plan_id":"cebpf4jnsgd1na2vs0mg"},{"bike_id":"c51d25a2-9931-4751-a2b1-fe9d8ebd5ffd","system_id":"levelo_inurba_marseille","lat":43.211958,"lon":5.350704,"is_reserved":false,"is_disabled":false,"rental_uris":{"android":"levelo://app?vid=c51d25a2-9931-4751-a2b1-fe9d8ebd5ffd","ios":"levelo://app?vid=c51d25a2-9931-4751-a2b1-fe9d8ebd5ffd"},"vehicle_type_id":"4","last_reported":1767200979,"current_range_meters":6000,"station_id":"st_cvj6sg6p6f1abm77japg","pricing_plan_id":"cebpf4jnsgd1na2vs0mg"},{"bike_id":"7ccf75bd-b0e6-4111-8d29-d9bb8f33eeca","system_id":"levelo_inurba_marseille","lat":43.28074,"lon":5.39661,"is_reserved":false,"is_disabled":false,"rental_uris":{"android":"levelo://app?vid=7ccf75bd-b0e6-4111-8d29-d9bb8f33eeca","ios":"levelo://app?vid=7ccf75bd-b0e6-4111-8d29-d9bb8f33eeca"},"vehicle_type_id":"4","last_reported":1767200979,"current_range_meters":6000,"station_id":"ce4bho12rcd13ifvqh2g","pricing_plan_id":"cebpf4jnsgd1na2vs0mg"},{"bike_id":"ecac823e-dd78-4afd-8d02-b055c4a7cb60","system_id":"levelo_inurba_marseille","lat":43.30138,"lon":5.39873,"is_reserved":false,"is_disabled":false,"rental_uris":{"android":"levelo://app?vid=ecac823e-dd78-4afd-8d02-b055c4a7cb60","ios":"levelo://app?vid=ecac823e-dd78-4afd-8d02-b055c4a7cb60"},"vehicle_type_id":"4","last_reported":1767200979,"current_range_meters":6000,"station_id":"ce4bh0h2rcd13ifvqd40","pricing_plan_id":"cebpf4jnsgd1na2vs0mg"},{"bike_id":"893ba8a0-157f-4e5d-917e-08bfc2989854","system_id":"levelo_inurba_marseille","lat":43.30168,"lon":5.38861,"is_reserved":false,"is_disabled":false,"rental_uris":{"android":"levelo://app?vid=893ba8a0-157f-4e5d-917e-08bfc2989854","ios":"levelo://app?vid=893ba8a0-157f-4e5d-917e-08bfc2989854"},"vehicle_type_id":"4","last_reported":1767200979,"current_range_meters":6000,"station_id":"","pricing_plan_id":"cebpf4jnsgd1na2vs0mg"},{"bike_id":"df63e62e-c06a-462e-903b-d344f6eede77","system_id":"levelo_inurba_marseille","lat":43.286539,"lon":5.363523,"is_reserved":false,"is_disabled":false,"rental_uris":{"android":"levelo://app?vid=df63e62e-c06a-462e-903b-d344f6eede77","ios":"levelo://app?vid=df63e62e-c06a-462e-903b-d344f6eede77"},"vehicle_type_id":"4","last_reported":1767200979,"current_range_meters":6000,"station_id":"ce4bhah2rcd13ifvqej0","pricing_plan_id":"cebpf4jnsgd1na2vs0mg"},{"bike_id":"1f7dc01e-7987-4661-bba7-66ef31c008d0","system_id":"levelo_inurba_marseille","lat":43.290392,"lon":5.356093,"is_reserved":false,"is_disabled":false,"rental_uris":{"android":"levelo://app?vid=1f7dc01e-7987-4661-bba7-66ef31c008d0","ios":"levelo://app?vid=1f7dc01e-7987-4661-bba7-66ef31c008d0"},"vehicle_type_id":"4","last_reported":1767200979,"current_range_meters":6000,"station_id":"ce4bhbh2rcd13ifvqeo0","pricing_plan_id":"cebpf4jnsgd1na2vs0mg"},{"bike_id":"9db88bf9-0f82-4b80-b494-72631e239fd8","system_id":"levelo_inurba_marseille","lat":43.282654,"lon":5.35059,"is_reserved":false,"is_disabled":false,"rental_uris":{"android":"levelo://app?vid=9db88bf9-0f82-4b80-b494-72631e239fd8","ios":"levelo://app?vid=9db88bf9-0f82-4b80-b494-72631e239fd8"},"vehicle_type_id":"4","last_reported":1767200979,"current_range_meters":6400,"station_id":"ce4bhbp2rcd13ifvqerg","pricing_plan_id":"cebpf4jnsgd1na2vs0mg"},{"bike_id":"88a7df2f-6d89-4ecd-bdb7-0c852f275c22","system_id":"levelo_inurba_marseille","lat":43.29255,"lon":5.38462,"is_reserved":false,"is_disabled":false,"rental_uris":{"android":"levelo://app?vid=88a7df2f-6d89-4ecd-bdb7-0c852f275c22","ios":"levelo://app?vid=88a7df2f-6d89-4ecd-bdb7-0c852f275c22"},"vehicle_type_id":"4","last_reported":1767200979,"current_range_meters":6400,"station_id":"ce4bh692rcd13ifvqea0","pricing_plan_id":"cebpf4jnsgd1na2vs0mg"},{"bike_id":"35c2f20d-9abb-4282-aeb2-44d52a5d707b","system_id":"levelo_inurba_marseille","lat":43.24388,"lon":5.37065,"is_reserved":false,"is_disabled":false,"rental_uris":{"android":"levelo://app?vid=35c2f20d-9abb-4282-aeb2-44d52a5d707b","ios":"levelo://app?vid=35c2f20d-9abb-4282-aeb2-44d52a5d707b"},"vehicle_type_id":"4","last_reported":1767200979,"current_range_meters":6400,"station_id":"ce4bhhh2rcd13ifvqfk0","pricing_plan_id":"cebpf4jnsgd1na2vs0mg"},{"bike_id":"cc63311c-dc5c-4174-9303-3b27308cfb2e","system_id":"levelo_inurba_marseille","lat":43.31069,"lon":5.3835,"is_reserved":false,"is_disabled":false,"rental_uris":{"android":"levelo://app?vid=cc63311c-dc5c-4174-9303-3b27308cfb2e","ios":"levelo://app?vid=cc63311c-dc5c-4174-9303-3b27308cfb2e"},"vehicle_type_id":"4","last_reported":1767200979,"current_range_meters":6400,"station_id":"ce4bgv92rcd13ifvqcr0","pricing_plan_id":"cebpf4jnsgd1na2vs0mg"},{"bike_id":"baf8eeb7-e209-42c0-8213-8014ca078ed5","system_id":"levelo_inurba_marseille","lat":43.30748,"lon":5.41834,"is_reserved":false,"is_disabled":false,"rental_uris":{"android":"levelo://app?vid=baf8eeb7-e209-42c0-8213-8014ca078ed5","ios":"levelo://app?vid=baf8eeb7-e209-42c0-8213-8014ca078ed5"},"vehicle_type_id":"4","last_reported":1767200979,"current_range_meters":6400,"station_id":"","pricing_plan_id":"cebpf4jnsgd1na2vs0mg"},{"bike_id":"9934dfac-cc5a-4592-ba33-7ae8377a65f1","system_id":"levelo_inurba_marseille","lat":43.272913,"lon":5.390833,"is_reserved":false,"is_disabled":false,"rental_uris":{"android":"levelo://app?vid=9934dfac-cc5a-4592-ba33-7ae8377a65f1","ios":"levelo://app?vid=9934dfac-cc5a-4592-ba33-7ae8377a65f1"},"vehicle_type_id":"4","last_reported":1767200979,"current_range_meters":6400,"station_id":"ce4bhgp2rcd13ifvqfe0","pricing_plan_id":"cebpf4jnsgd1na2vs0mg"},{"bike_id":"2eb4987a-3ed2-4ab7-9a71-089bbfe13ccd","system_id":"levelo_inurba_marseille","lat":43.28844,"lon":5.39303,"is_reserved":false,"is_disabled":false,"rental_uris":{"android":"levelo://app?vid=2eb4987a-3ed2-4ab7-9a71-089bbfe13ccd","ios":"levelo://app?vid=2eb4987a-3ed2-4ab7-9a71-089bbfe13ccd"},"vehicle_type_id":"4","last_reported":1767200979,"current_range_meters":6400,"station_id":"ce4bh2p2rcd13ifvqdi0","pricing_plan_id":"cebpf4jnsgd1na2vs0mg"},{"bike_id":"66e60d20-d40d-4b1e-babe-c73e3233d2ed","system_id":"levelo_inurba_marseille","lat":43.295306,"lon":5.385321,"is_reserved":false,"is_disabled":false,"rental_uris":{"android":"levelo://app?vid=66e60d20-d40d-4b1e-babe-c73e3233d2ed","ios":"levelo://app?vid=66e60d20-d40d-4b1e-babe-c73e3233d2ed"},"vehicle_type_id":"4","last_reported":1767200979,"current_range_meters":6400,"station_id":"ce4bgih2rcd13ifvqba0","pricing_plan_id":"cebpf4jnsgd1na2vs0mg"},{"bike_id":"742f1e99-972a-4415-9c07-2696da1383a1","system_id":"levelo_inurba_marseille","lat":43.29646,"lon":5.40587,"is_reserved":false,"is_disabled":false,"rental_uris":{"android":"levelo://app?vid=742f1e99-972a-4415-9c07-2696da1383a1","ios":"levelo://app?vid=742f1e99-972a-4415-9c07-2696da1383a1"},"vehicle_type_id":"4","last_reported":1767200979,"current_range_meters":6800,"station_id":"","pricing_plan_id":"cebpf4jnsgd1na2vs0mg"},{"bike_id":"1e17cdbf-aae0-4b4b-a751-d7cf3490ace0","system_id":"levelo_inurba_marseille","lat":43.308941,"lon":5.39665,"is_reserved":false,"is_disabled":false,"rental_uris":{"android":"levelo://app?vid=1e17cdbf-aae0-4b4b-a751-d7cf3490ace0","ios":"levelo://app?vid=1e17cdbf-aae0-4b4b-a751-d7cf3490ace0"},"vehicle_type_id":"4","last_reported":1767200979,"current_range_meters":6800,"station_id":"ce4bh012rcd13ifvqcv0","pricing_plan_id":"cebpf4jnsgd1na2vs0mg"},{"bike_id":"ec5fae6d-47b5-4030-bf64-4af050af9ecb","system_id":"levelo_inurba_marseille","lat":43.30953,"lon":5.37794,"is_reserved":false,"is_disabled":false,"rental_uris":{"android":"levelo://app?vid=ec5fae6d-47b5-4030-bf64-4af050af9ecb","ios":"levelo://app?vid=ec5fae6d-47b5-4030-bf64-4af050af9ecb"},"vehicle_type_id":"4","last_reported":1767200979,"current_range_meters":6800,"station_id":"","pricing_plan_id":"cebpf4jnsgd1na2vs0mg"},{"bike_id":"f5bfe5e8-55b0-46bc-9fed-a01d57204670","system_id":"levelo_inurba_marseille","lat":43.29618,"lon":5.37709,"is_reserved":false,"is_disabled":false,"rental_uris":{"android":"levelo://app?vid=f5bfe5e8-55b0-46bc-9fed-a01d57204670","ios":"levelo://app?vid=f5bfe5e8-55b0-46bc-9fed-a01d57204670"},"vehicle_type_id":"4","last_reported":1767200979,"current_range_meters":7200,"station_id":"ce4bgi92rcd13ifvqb90","pricing_plan_id":"cebpf4jnsgd1na2vs0mg"},{"bike_id":"b765262d-1e90-432f-b785-523eb2ca010d","system_id":"levelo_inurba_marseille","lat":43.31159,"lon":5.40728,"is_reserved":false,"is_disabled":false,"rental_uris":{"android":"levelo://app?vid=b765262d-1e90-432f-b785-523eb2ca010d","ios":"levelo://app?vid=b765262d-1e90-432f-b785-523eb2ca010d"},"vehicle_type_id":"4","last_reported":1767200979,"current_range_meters":7200,"station_id":"","pricing_plan_id":"cebpf4jnsgd1na2vs0mg"},{"bike_id":"eebd855c-8596-4aa2-8342-3a346d6fe79f","system_id":"levelo_inurba_marseille","lat":43.30887,"lon":5.39642,"is_reserved":false,"is_disabled":false,"rental_uris":{"android":"levelo://app?vid=eebd855c-8596-4aa2-8342-3a346d6fe79f","ios":"levelo://app?vid=eebd855c-8596-4aa2-8342-3a346d6fe79f"},"vehicle_type_id":"4","last_reported":1767200979,"current_range_meters":7200,"station_id":"ce4bh012rcd13ifvqcv0","pricing_plan_id":"cebpf4jnsgd1na2vs0mg"},{"bike_id":"3ae180a1-ad81-4fbd-8d8e-5122c1af76f4","system_id":"levelo_inurba_marseille","lat":43.337444,"lon":5.374475,"is_reserved":false,"is_disabled":false,"rental_uris":{"android":"levelo://app?vid=3ae180a1-ad81-4fbd-8d8e-5122c1af76f4","ios":"levelo://app?vid=3ae180a1-ad81-4fbd-8d8e-5122c1af76f4"},"vehicle_type_id":"4","last_reported":1767200979,"current_range_meters":7200,"station_id":"","pricing_plan_id":"cebpf4jnsgd1na2vs0mg"},{"bike_id":"e973bed7-e75a-4b88-bb85-a8ec730da809","system_id":"levelo_inurba_marseille","lat":43.29607,"lon":5.37718,"is_reserved":false,"is_disabled":false,"rental_uris":{"android":"levelo://app?vid=e973bed7-e75a-4b88-bb85-a8ec730da809","ios":"levelo://app?vid=e973bed7-e75a-4b88-bb85-a8ec730da809"},"vehicle_type_id":"4","last_reported":1767200979,"current_range_meters":7200,"station_id":"ce4bgi92rcd13ifvqb90","pricing_plan_id":"cebpf4jnsgd1na2vs0mg"},{"bike_id":"1c453a3e-2830-40fb-8c48-d613d6925abb","system_id":"levelo_inurba_marseille","lat":43.28616,"lon":5.35108,"is_reserved":false,"is_disabled":false,"rental_uris":{"android":"levelo://app?vid=1c453a3e-2830-40fb-8c48-d613d6925abb","ios":"levelo://app?vid=1c453a3e-2830-40fb-8c48-d613d6925abb"},"vehicle_type_id":"4","last_reported":1767200979,"current_range_meters":7200,"station_id":"ce4bhch2rcd13ifvqeug","pricing_plan_id":"cebpf4jnsgd1na2vs0mg"},{"bike_id":"553dc950-9a8c-463e-bd3c-210b3d4af814","system_id":"levelo_inurba_marseille","lat":43.2921,"lon":5.36046,"is_reserved":false,"is_disabled":true,"rental_uris":{"android":"levelo://app?vid=553dc950-9a8c-463e-bd3c-210b3d4af814","ios":"levelo://app?vid=553dc950-9a8c-463e-bd3c-210b3d4af814"},"vehicle_type_id":"4","last_reported":1767200979,"current_range_meters":7200,"station_id":"ce4bhbh2rcd13ifvqeqg","pricing_plan_id":"cebpf4jnsgd1na2vs0mg"},{"bike_id":"42bf7a6c-73ec-405b-92b4-0f2c775a10af","system_id":"levelo_inurba_marseille","lat":43.275613,"lon":5.384339,"is_reserved":false,"is_disabled":false,"rental_uris":{"android":"levelo://app?vid=42bf7a6c-73ec-405b-92b4-0f2c775a10af","ios":"levelo://app?vid=42bf7a6c-73ec-405b-92b4-0f2c775a10af"},"vehicle_type_id":"4","last_reported":1767200979,"current_range_meters":7200,"station_id":"ce4bhh92rcd13ifvqfi0","pricing_plan_id":"cebpf4jnsgd1na2vs0mg"},{"bike_id":"39d2c3eb-e5f9-42d2-85b4-4927452f6615","system_id":"levelo_inurba_marseille","lat":43.3009,"lon":5.39086,"is_reserved":false,"is_disabled":false,"rental_uris":{"android":"levelo://app?vid=39d2c3eb-e5f9-42d2-85b4-4927452f6615","ios":"levelo://app?vid=39d2c3eb-e5f9-42d2-85b4-4927452f6615"},"vehicle_type_id":"4","last_reported":1767200979,"current_range_meters":8000,"station_id":"ce4bh192rcd13ifvqdb0","pricing_plan_id":"cebpf4jnsgd1na2vs0mg"},{"bike_id":"1d30429d-6ac7-4dab-af91-cf64a7770212","system_id":"levelo_inurba_marseille","lat":43.298706,"lon":5.397274,"is_reserved":false,"is_disabled":false,"rental_uris":{"android":"levelo://app?vid=1d30429d-6ac7-4dab-af91-cf64a7770212","ios":"levelo://app?vid=1d30429d-6ac7-4dab-af91-cf64a7770212"},"vehicle_type_id":"4","last_reported":1767200979,"current_range_meters":8000,"station_id":"ce4bh0h2rcd13ifvqd50","pricing_plan_id":"cebpf4jnsgd1na2vs0mg"},{"bike_id":"a274e1f3-90e8-4548-9a2a-4f53c59abc4e","system_id":"levelo_inurba_marseille","lat":43.31706,"lon":5.40428,"is_reserved":false,"is_disabled":true,"rental_uris":{"android":"levelo://app?vid=a274e1f3-90e8-4548-9a2a-4f53c59abc4e","ios":"levelo://app?vid=a274e1f3-90e8-4548-9a2a-4f53c59abc4e"},"vehicle_type_id":"4","last_reported":1767200979,"current_range_meters":8000,"station_id":"ce4bh012rcd13ifvqd00","pricing_plan_id":"cebpf4jnsgd1na2vs0mg"},{"bike_id":"e475d0ff-b528-43b3-96fa-9ef090e10c91","system_id":"levelo_inurba_marseille","lat":43.240712,"lon":5.377644,"is_reserved":false,"is_disabled":false,"rental_uris":{"android":"levelo://app?vid=e475d0ff-b528-43b3-96fa-9ef090e10c91","ios":"levelo://app?vid=e475d0ff-b528-43b3-96fa-9ef090e10c91"},"vehicle_type_id":"4","last_reported":1767200979,"current_range_meters":8000,"station_id":"ce4bhnp2rcd13ifvqgvg","pricing_plan_id":"cebpf4jnsgd1na2vs0mg"},{"bike_id":"98762a2b-0392-4c2f-aeb3-b36b7f977a42","system_id":"levelo_inurba_marseille","lat":43.3026,"lon":5.3773,"is_reserved":false,"is_disabled":false,"rental_uris":{"android":"levelo://app?vid=98762a2b-0392-4c2f-aeb3-b36b7f977a42","ios":"levelo://app?vid=98762a2b-0392-4c2f-aeb3-b36b7f977a42"},"vehicle_type_id":"4","last_reported":1767200979,"current_range_meters":8000,"station_id":"ce4bguh2rcd13ifvqcj0","pricing_plan_id":"cebpf4jnsgd1na2vs0mg"},{"bike_id":"3830e44e-1d23-4681-b535-906832fc6bbd","system_id":"levelo_inurba_marseille","lat":43.24382,"lon":5.37061,"is_reserved":false,"is_disabled":false,"rental_uris":{"android":"levelo://app?vid=3830e44e-1d23-4681-b535-906832fc6bbd","ios":"levelo://app?vid=3830e44e-1d23-4681-b535-906832fc6bbd"},"vehicle_type_id":"4","last_reported":1767200979,"current_range_meters":8000,"station_id":"ce4bhhh2rcd13ifvqfk0","pricing_plan_id":"cebpf4jnsgd1na2vs0mg"},{"bike_id":"dce28840-1b59-4930-917a-12d88071d00f","system_id":"levelo_inurba_marseille","lat":43.285371,"lon":5.441019,"is_reserved":false,"is_disabled":false,"rental_uris":{"android":"levelo://app?vid=dce28840-1b59-4930-917a-12d88071d00f","ios":"levelo://app?vid=dce28840-1b59-4930-917a-12d88071d00f"},"vehicle_type_id":"4","last_reported":1767200979,"current_range_meters":8400,"station_id":"st_d3j3df2ikq2c7380ej80","pricing_plan_id":"cebpf4jnsgd1na2vs0mg"},{"bike_id":"cf946bb0-846d-4628-be38-f386d490ee8c","system_id":"levelo_inurba_marseille","lat":43.29308,"lon":5.37176,"is_reserved":false,"is_disabled":false,"rental_uris":{"android":"levelo://app?vid=cf946bb0-846d-4628-be38-f386d490ee8c","ios":"levelo://app?vid=cf946bb0-846d-4628-be38-f386d490ee8c"},"vehicle_type_id":"4","last_reported":1767200979,"current_range_meters":8400,"station_id":"ce4bgh92rcd13ifvqb40","pricing_plan_id":"cebpf4jnsgd1na2vs0mg"},{"bike_id":"d1e9a7b4-a8fa-4db9-954e-f727417995e2","system_id":"levelo_inurba_marseille","lat":43.27181,"lon":5.390489,"is_reserved":false,"is_disabled":false,"rental_uris":{"android":"levelo://app?vid=d1e9a7b4-a8fa-4db9-954e-f727417995e2","ios":"levelo://app?vid=d1e9a7b4-a8fa-4db9-954e-f727417995e2"},"vehicle_type_id":"4","last_reported":1767200979,"current_range_meters":8400,"station_id":"","pricing_plan_id":"cebpf4jnsgd1na2vs0mg"},{"bike_id":"7c20e148-2a07-439c-8007-95ff3dd732b8","system_id":"levelo_inurba_marseille","lat":43.21201,"lon":5.35059,"is_reserved":false,"is_disabled":true,"rental_uris":{"android":"levelo://app?vid=7c20e148-2a07-439c-8007-95ff3dd732b8","ios":"levelo://app?vid=7c20e148-2a07-439c-8007-95ff3dd732b8"},"vehicle_type_id":"4","last_reported":1767200979,"current_range_meters":8400,"station_id":"st_cvj6sg6p6f1abm77japg","pricing_plan_id":"cebpf4jnsgd1na2vs0mg"},{"bike_id":"241ae811-82aa-4c49-b9a9-2b2f9bfecd36","system_id":"levelo_inurba_marseille","lat":43.27571,"lon":5.38431,"is_reserved":false,"is_disabled":false,"rental_uris":{"android":"levelo://app?vid=241ae811-82aa-4c49-b9a9-2b2f9bfecd36","ios":"levelo://app?vid=241ae811-82aa-4c49-b9a9-2b2f9bfecd36"},"vehicle_type_id":"4","last_reported":1767200979,"current_range_meters":8400,"station_id":"ce4bhh92rcd13ifvqfi0","pricing_plan_id":"cebpf4jnsgd1na2vs0mg"},{"bike_id":"dabfe40b-52c7-4deb-b993-e379f777fdcf","system_id":"levelo_inurba_marseille","lat":43.27212,"lon":5.39168,"is_reserved":false,"is_disabled":false,"rental_uris":{"android":"levelo://app?vid=dabfe40b-52c7-4deb-b993-e379f777fdcf","ios":"levelo://app?vid=dabfe40b-52c7-4deb-b993-e379f777fdcf"},"vehicle_type_id":"4","last_reported":1767200979,"current_range_meters":8400,"station_id":"ce4bhhp2rcd13ifvqfm0","pricing_plan_id":"cebpf4jnsgd1na2vs0mg"},{"bike_id":"c255b81a-3348-466e-9e0b-551409392c0b","system_id":"levelo_inurba_marseille","lat":43.266844,"lon":5.38276,"is_reserved":false,"is_disabled":true,"rental_uris":{"android":"levelo://app?vid=c255b81a-3348-466e-9e0b-551409392c0b","ios":"levelo://app?vid=c255b81a-3348-466e-9e0b-551409392c0b"},"vehicle_type_id":"4","last_reported":1767200979,"current_range_meters":8400,"station_id":"","pricing_plan_id":"cebpf4jnsgd1na2vs0mg"},{"bike_id":"0fa76090-b264-4d7f-a0bc-7de1e50f19da","system_id":"levelo_inurba_marseille","lat":43.28016,"lon":5.40421,"is_reserved":false,"is_disabled":false,"rental_uris":{"android":"levelo://app?vid=0fa76090-b264-4d7f-a0bc-7de1e50f19da","ios":"levelo://app?vid=0fa76090-b264-4d7f-a0bc-7de1e50f19da"},"vehicle_type_id":"4","last_reported":1767200979,"current_range_meters":8400,"station_id":"","pricing_plan_id":"cebpf4jnsgd1na2vs0mg"},{"bike_id":"ea05810b-9b85-48c4-89f6-09a65d6ff064","system_id":"levelo_inurba_marseille","lat":43.24818,"lon":5.37461,"is_reserved":false,"is_disabled":false,"rental_uris":{"android":"levelo://app?vid=ea05810b-9b85-48c4-89f6-09a65d6ff064","ios":"levelo://app?vid=ea05810b-9b85-48c4-89f6-09a65d6ff064"},"vehicle_type_id":"4","last_reported":1767200979,"current_range_meters":8400,"station_id":"ce4bhgh2rcd13ifvqfb0","pricing_plan_id":"cebpf4jnsgd1na2vs0mg"},{"bike_id":"d71f2cc9-34f1-4eed-8707-d0bf53e9f9dd","system_id":"levelo_inurba_marseille","lat":43.33538,"lon":5.37439,"is_reserved":false,"is_disabled":false,"rental_uris":{"android":"levelo://app?vid=d71f2cc9-34f1-4eed-8707-d0bf53e9f9dd","ios":"levelo://app?vid=d71f2cc9-34f1-4eed-8707-d0bf53e9f9dd"},"vehicle_type_id":"4","last_reported":1767200979,"current_range_meters":8400,"station_id":"st_d46tts09ee8s73dlu43g","pricing_plan_id":"cebpf4jnsgd1na2vs0mg"},{"bike_id":"4059237c-8962-47fe-81b1-8c8a5ccba95e","system_id":"levelo_inurba_marseille","lat":43.31754,"lon":5.39015,"is_reserved":false,"is_disabled":false,"rental_uris":{"android":"levelo://app?vid=4059237c-8962-47fe-81b1-8c8a5ccba95e","ios":"levelo://app?vid=4059237c-8962-47fe-81b1-8c8a5ccba95e"},"vehicle_type_id":"4","last_reported":1767200979,"current_range_meters":8400,"station_id":"ce4bhqp2rcd13ifvqhng","pricing_plan_id":"cebpf4jnsgd1na2vs0mg"},{"bike_id":"0182be73-6b74-4cfa-824d-7ef5df86f28e","system_id":"levelo_inurba_marseille","lat":43.30929,"lon":5.36848,"is_reserved":false,"is_disabled":false,"rental_uris":{"android":"levelo://app?vid=0182be73-6b74-4cfa-824d-7ef5df86f28e","ios":"levelo://app?vid=0182be73-6b74-4cfa-824d-7ef5df86f28e"},"vehicle_type_id":"4","last_reported":1767200979,"current_range_meters":8400,"station_id":"ce4bgn92rcd13ifvqbvg","pricing_plan_id":"cebpf4jnsgd1na2vs0mg"},{"bike_id":"ca2ef393-c579-4521-ae6a-f53bb8be7e42","system_id":"levelo_inurba_marseille","lat":43.28971,"lon":5.37858,"is_reserved":false,"is_disabled":false,"rental_uris":{"android":"levelo://app?vid=ca2ef393-c579-4521-ae6a-f53bb8be7e42","ios":"levelo://app?vid=ca2ef393-c579-4521-ae6a-f53bb8be7e42"},"vehicle_type_id":"4","last_reported":1767200979,"current_range_meters":8400,"station_id":"ce4bh9p2rcd13ifvqed0","pricing_plan_id":"cebpf4jnsgd1na2vs0mg"},{"bike_id":"b8218b86-9c67-44b2-af7a-c0a5340c5723","system_id":"levelo_inurba_marseille","lat":43.33541,"lon":5.37469,"is_reserved":false,"is_disabled":false,"rental_uris":{"android":"levelo://app?vid=b8218b86-9c67-44b2-af7a-c0a5340c5723","ios":"levelo://app?vid=b8218b86-9c67-44b2-af7a-c0a5340c5723"},"vehicle_type_id":"4","last_reported":1767200979,"current_range_meters":8400,"station_id":"st_d46tts09ee8s73dlu43g","pricing_plan_id":"cebpf4jnsgd1na2vs0mg"},{"bike_id":"426a3b6c-7746-45dc-a67a-75272bd2feaf","system_id":"levelo_inurba_marseille","lat":43.29262,"lon":5.38434,"is_reserved":false,"is_disabled":false,"rental_uris":{"android":"levelo://app?vid=426a3b6c-7746-45dc-a67a-75272bd2feaf","ios":"levelo://app?vid=426a3b6c-7746-45dc-a67a-75272bd2feaf"},"vehicle_type_id":"4","last_reported":1767200979,"current_range_meters":8400,"station_id":"ce4bh692rcd13ifvqea0","pricing_plan_id":"cebpf4jnsgd1na2vs0mg"},{"bike_id":"dfe9fd3c-5abe-43a6-9dd9-361bc63cb59e","system_id":"levelo_inurba_marseille","lat":43.26214,"lon":5.37438,"is_reserved":false,"is_disabled":false,"rental_uris":{"android":"levelo://app?vid=dfe9fd3c-5abe-43a6-9dd9-361bc63cb59e","ios":"levelo://app?vid=dfe9fd3c-5abe-43a6-9dd9-361bc63cb59e"},"vehicle_type_id":"4","last_reported":1767200979,"current_range_meters":8400,"station_id":"ce4bhgp2rcd13ifvqfc0","pricing_plan_id":"cebpf4jnsgd1na2vs0mg"},{"bike_id":"09d7a395-2cc7-4891-8c4c-d100200b12a5","system_id":"levelo_inurba_marseille","lat":43.29611,"lon":5.37716,"is_reserved":false,"is_disabled":false,"rental_uris":{"android":"levelo://app?vid=09d7a395-2cc7-4891-8c4c-d100200b12a5","ios":"levelo://app?vid=09d7a395-2cc7-4891-8c4c-d100200b12a5"},"vehicle_type_id":"4","last_reported":1767200979,"current_range_meters":8400,"station_id":"ce4bgi92rcd13ifvqb90","pricing_plan_id":"cebpf4jnsgd1na2vs0mg"},{"bike_id":"8d39a28b-6766-4dd2-9cb0-2a9ef3a2a93b","system_id":"levelo_inurba_marseille","lat":43.33149,"lon":5.37701,"is_reserved":false,"is_disabled":false,"rental_uris":{"android":"levelo://app?vid=8d39a28b-6766-4dd2-9cb0-2a9ef3a2a93b","ios":"levelo://app?vid=8d39a28b-6766-4dd2-9cb0-2a9ef3a2a93b"},"vehicle_type_id":"4","last_reported":1767200979,"current_range_meters":8800,"station_id":"st_d46cu089ee8s73dldbu0","pricing_plan_id":"cebpf4jnsgd1na2vs0mg"},{"bike_id":"efd33062-2cef-445f-af98-648f578e9c2a","system_id":"levelo_inurba_marseille","lat":43.32606,"lon":5.4198,"is_reserved":false,"is_disabled":false,"rental_uris":{"android":"levelo://app?vid=efd33062-2cef-445f-af98-648f578e9c2a","ios":"levelo://app?vid=efd33062-2cef-445f-af98-648f578e9c2a"},"vehicle_type_id":"4","last_reported":1767200979,"current_range_meters":8800,"station_id":"","pricing_plan_id":"cebpf4jnsgd1na2vs0mg"},{"bike_id":"d3194e6d-fd36-43db-a4d8-f67a76606721","system_id":"levelo_inurba_marseille","lat":43.28693,"lon":5.40014,"is_reserved":false,"is_disabled":false,"rental_uris":{"android":"levelo://app?vid=d3194e6d-fd36-43db-a4d8-f67a76606721","ios":"levelo://app?vid=d3194e6d-fd36-43db-a4d8-f67a76606721"},"vehicle_type_id":"4","last_reported":1767200979,"current_range_meters":8800,"station_id":"ce4bho92rcd13ifvqh3g","pricing_plan_id":"cebpf4jnsgd1na2vs0mg"},{"bike_id":"08d9da5e-884a-4cd7-846c-0a2f92b4f2db","system_id":"levelo_inurba_marseille","lat":43.30538,"lon":5.36533,"is_reserved":false,"is_disabled":false,"rental_uris":{"android":"levelo://app?vid=08d9da5e-884a-4cd7-846c-0a2f92b4f2db","ios":"levelo://app?vid=08d9da5e-884a-4cd7-846c-0a2f92b4f2db"},"vehicle_type_id":"4","last_reported":1767200979,"current_range_meters":8800,"station_id":"ce4bgs12rcd13ifvqcag","pricing_plan_id":"cebpf4jnsgd1na2vs0mg"},{"bike_id":"78ed77cb-47f0-4c82-bf8a-f958576ec953","system_id":"levelo_inurba_marseille","lat":43.28157,"lon":5.42634,"is_reserved":false,"is_disabled":false,"rental_uris":{"android":"levelo://app?vid=78ed77cb-47f0-4c82-bf8a-f958576ec953","ios":"levelo://app?vid=78ed77cb-47f0-4c82-bf8a-f958576ec953"},"vehicle_type_id":"4","last_reported":1767200979,"current_range_meters":8800,"station_id":"ce4bhnh2rcd13ifvqgug","pricing_plan_id":"cebpf4jnsgd1na2vs0mg"},{"bike_id":"fe0484f9-c4db-4c82-9c3c-7ef7fbcb82fd","system_id":"levelo_inurba_marseille","lat":43.29572,"lon":5.3996,"is_reserved":false,"is_disabled":false,"rental_uris":{"android":"levelo://app?vid=fe0484f9-c4db-4c82-9c3c-7ef7fbcb82fd","ios":"levelo://app?vid=fe0484f9-c4db-4c82-9c3c-7ef7fbcb82fd"},"vehicle_type_id":"4","last_reported":1767200979,"current_range_meters":8800,"station_id":"ce4bh312rcd13ifvqdj0","pricing_plan_id":"cebpf4jnsgd1na2vs0mg"},{"bike_id":"7cc08dd6-826c-4451-a490-86ca460ba99b","system_id":"levelo_inurba_marseille","lat":43.32109,"lon":5.36761,"is_reserved":false,"is_disabled":false,"rental_uris":{"android":"levelo://app?vid=7cc08dd6-826c-4451-a490-86ca460ba99b","ios":"levelo://app?vid=7cc08dd6-826c-4451-a490-86ca460ba99b"},"vehicle_type_id":"4","last_reported":1767200979,"current_range_meters":8800,"station_id":"ce4bhrh2rcd13ifvqhug","pricing_plan_id":"cebpf4jnsgd1na2vs0mg"},{"bike_id":"292e3628-a216-4299-9869-e12ba05a75e3","system_id":"levelo_inurba_marseille","lat":43.29969,"lon":5.37191,"is_reserved":false,"is_disabled":false,"rental_uris":{"android":"levelo://app?vid=292e3628-a216-4299-9869-e12ba05a75e3","ios":"levelo://app?vid=292e3628-a216-4299-9869-e12ba05a75e3"},"vehicle_type_id":"4","last_reported":1767200979,"current_range_meters":8800,"station_id":"ce4bgr92rcd13ifvqc7g","pricing_plan_id":"cebpf4jnsgd1na2vs0mg"},{"bike_id":"149a94e7-8065-4440-a1ab-1ba416a8f181","system_id":"levelo_inurba_marseille","lat":43.2848,"lon":5.48428,"is_reserved":false,"is_disabled":false,"rental_uris":{"android":"levelo://app?vid=149a94e7-8065-4440-a1ab-1ba416a8f181","ios":"levelo://app?vid=149a94e7-8065-4440-a1ab-1ba416a8f181"},"vehicle_type_id":"4","last_reported":1767200979,"current_range_meters":8800,"station_id":"","pricing_plan_id":"cebpf4jnsgd1na2vs0mg"},{"bike_id":"2228e865-af6c-457b-9d52-5ab44dea4830","system_id":"levelo_inurba_marseille","lat":43.2465,"lon":5.381604,"is_reserved":false,"is_disabled":false,"rental_uris":{"android":"levelo://app?vid=2228e865-af6c-457b-9d52-5ab44dea4830","ios":"levelo://app?vid=2228e865-af6c-457b-9d52-5ab44dea4830"},"vehicle_type_id":"4","last_reported":1767200979,"current_range_meters":8800,"station_id":"ce4bhih2rcd13ifvqfr0","pricing_plan_id":"cebpf4jnsgd1na2vs0mg"},{"bike_id":"0c9ca243-897c-4d38-8127-8933d39eb60f","system_id":"levelo_inurba_marseille","lat":43.28856,"lon":5.42528,"is_reserved":false,"is_disabled":false,"rental_uris":{"android":"levelo://app?vid=0c9ca243-897c-4d38-8127-8933d39eb60f","ios":"levelo://app?vid=0c9ca243-897c-4d38-8127-8933d39eb60f"},"vehicle_type_id":"4","last_reported":1767200979,"current_range_meters":8800,"station_id":"st_d3b462108ojc7389ooeg","pricing_plan_id":"cebpf4jnsgd1na2vs0mg"},{"bike_id":"9cb5ae99-5884-40a4-9c3b-7a9c989d5f03","system_id":"levelo_inurba_marseille","lat":43.28481,"lon":5.3843,"is_reserved":false,"is_disabled":false,"rental_uris":{"android":"levelo://app?vid=9cb5ae99-5884-40a4-9c3b-7a9c989d5f03","ios":"levelo://app?vid=9cb5ae99-5884-40a4-9c3b-7a9c989d5f03"},"vehicle_type_id":"4","last_reported":1767200979,"current_range_meters":9200,"station_id":"ce4bh512rcd13ifvqe3g","pricing_plan_id":"cebpf4jnsgd1na2vs0mg"},{"bike_id":"25f3b82f-06ca-4f8f-a005-18bf90572843","system_id":"levelo_inurba_marseille","lat":43.30223,"lon":5.36535,"is_reserved":false,"is_disabled":false,"rental_uris":{"android":"levelo://app?vid=25f3b82f-06ca-4f8f-a005-18bf90572843","ios":"levelo://app?vid=25f3b82f-06ca-4f8f-a005-18bf90572843"},"vehicle_type_id":"4","last_reported":1767200979,"current_range_meters":9200,"station_id":"","pricing_plan_id":"cebpf4jnsgd1na2vs0mg"},{"bike_id":"2736b34b-98dd-4ca9-b701-f4278e5f6e64","system_id":"levelo_inurba_marseille","lat":43.3236,"lon":5.36763,"is_reserved":false,"is_disabled":false,"rental_uris":{"android":"levelo://app?vid=2736b34b-98dd-4ca9-b701-f4278e5f6e64","ios":"levelo://app?vid=2736b34b-98dd-4ca9-b701-f4278e5f6e64"},"vehicle_type_id":"4","last_reported":1767200979,"current_range_meters":9200,"station_id":"ce4bhsh2rcd13ifvqi2g","pricing_plan_id":"cebpf4jnsgd1na2vs0mg"},{"bike_id":"1485075b-1bb5-48d2-b0e5-402379126b05","system_id":"levelo_inurba_marseille","lat":43.29871,"lon":5.38085,"is_reserved":false,"is_disabled":true,"rental_uris":{"android":"levelo://app?vid=1485075b-1bb5-48d2-b0e5-402379126b05","ios":"levelo://app?vid=1485075b-1bb5-48d2-b0e5-402379126b05"},"vehicle_type_id":"4","last_reported":1767200979,"current_range_meters":9200,"station_id":"","pricing_plan_id":"cebpf4jnsgd1na2vs0mg"},{"bike_id":"b9f5bb9a-d9aa-4714-a9ae-ceaed3ab533e","system_id":"levelo_inurba_marseille","lat":43.29638,"lon":5.38048,"is_reserved":false,"is_disabled":false,"rental_uris":{"android":"levelo://app?vid=b9f5bb9a-d9aa-4714-a9ae-ceaed3ab533e","ios":"levelo://app?vid=b9f5bb9a-d9aa-4714-a9ae-ceaed3ab533e"},"vehicle_type_id":"4","last_reported":1767200979,"current_range_meters":9200,"station_id":"","pricing_plan_id":"cebpf4jnsgd1na2vs0mg"},{"bike_id":"9a2077a2-cebc-468c-82f9-fecda68a9ec3","system_id":"levelo_inurba_marseille","lat":43.2949,"lon":5.40896,"is_reserved":false,"is_disabled":false,"rental_uris":{"android":"levelo://app?vid=9a2077a2-cebc-468c-82f9-fecda68a9ec3","ios":"levelo://app?vid=9a2077a2-cebc-468c-82f9-fecda68a9ec3"},"vehicle_type_id":"4","last_reported":1767200979,"current_range_meters":9200,"station_id":"","pricing_plan_id":"cebpf4jnsgd1na2vs0mg"},{"bike_id":"39fbab48-2f07-4197-a98d-1184b202269d","system_id":"levelo_inurba_marseille","lat":43.28333,"lon":5.38109,"is_reserved":false,"is_disabled":false,"rental_uris":{"android":"levelo://app?vid=39fbab48-2f07-4197-a98d-1184b202269d","ios":"levelo://app?vid=39fbab48-2f07-4197-a98d-1184b202269d"},"vehicle_type_id":"4","last_reported":1767200979,"current_range_meters":9200,"station_id":"ce4bh412rcd13ifvqdr0","pricing_plan_id":"cebpf4jnsgd1na2vs0mg"},{"bike_id":"14cb03f8-e057-4feb-a4ad-4c9bfb729a23","system_id":"levelo_inurba_marseille","lat":43.25585,"lon":5.38228,"is_reserved":false,"is_disabled":false,"rental_uris":{"android":"levelo://app?vid=14cb03f8-e057-4feb-a4ad-4c9bfb729a23","ios":"levelo://app?vid=14cb03f8-e057-4feb-a4ad-4c9bfb729a23"},"vehicle_type_id":"4","last_reported":1767200979,"current_range_meters":9200,"station_id":"ce4bhih2rcd13ifvqfs0","pricing_plan_id":"cebpf4jnsgd1na2vs0mg"},{"bike_id":"b70777f7-adf8-4e6e-890f-cc006b0ff808","system_id":"levelo_inurba_marseille","lat":43.28613,"lon":5.35101,"is_reserved":false,"is_disabled":false,"rental_uris":{"android":"levelo://app?vid=b70777f7-adf8-4e6e-890f-cc006b0ff808","ios":"levelo://app?vid=b70777f7-adf8-4e6e-890f-cc006b0ff808"},"vehicle_type_id":"4","last_reported":1767200979,"current_range_meters":9200,"station_id":"ce4bhch2rcd13ifvqeug","pricing_plan_id":"cebpf4jnsgd1na2vs0mg"},{"bike_id":"90dac6f2-4e58-4623-b929-4f8d06ec1c31","system_id":"levelo_inurba_marseille","lat":43.285,"lon":5.42542,"is_reserved":false,"is_disabled":false,"rental_uris":{"android":"levelo://app?vid=90dac6f2-4e58-4623-b929-4f8d06ec1c31","ios":"levelo://app?vid=90dac6f2-4e58-4623-b929-4f8d06ec1c31"},"vehicle_type_id":"4","last_reported":1767200979,"current_range_meters":9600,"station_id":"","pricing_plan_id":"cebpf4jnsgd1na2vs0mg"},{"bike_id":"e93c83d5-bafc-41ab-b80f-422d8d8d6d2a","system_id":"levelo_inurba_marseille","lat":43.26848,"lon":5.40078,"is_reserved":false,"is_disabled":false,"rental_uris":{"android":"levelo://app?vid=e93c83d5-bafc-41ab-b80f-422d8d8d6d2a","ios":"levelo://app?vid=e93c83d5-bafc-41ab-b80f-422d8d8d6d2a"},"vehicle_type_id":"4","last_reported":1767200979,"current_range_meters":9600,"station_id":"","pricing_plan_id":"cebpf4jnsgd1na2vs0mg"},{"bike_id":"950c0338-ee03-4bb1-82b4-c4470bbb4acc","system_id":"levelo_inurba_marseille","lat":43.31159,"lon":5.36824,"is_reserved":false,"is_disabled":false,"rental_uris":{"android":"levelo://app?vid=950c0338-ee03-4bb1-82b4-c4470bbb4acc","ios":"levelo://app?vid=950c0338-ee03-4bb1-82b4-c4470bbb4acc"},"vehicle_type_id":"4","last_reported":1767200979,"current_range_meters":9600,"station_id":"ce4bgl92rcd13ifvqbq0","pricing_plan_id":"cebpf4jnsgd1na2vs0mg"},{"bike_id":"9967a316-f7a4-4616-9f95-b9e09a686124","system_id":"levelo_inurba_marseille","lat":43.31076,"lon":5.38371,"is_reserved":false,"is_disabled":false,"rental_uris":{"android":"levelo://app?vid=9967a316-f7a4-4616-9f95-b9e09a686124","ios":"levelo://app?vid=9967a316-f7a4-4616-9f95-b9e09a686124"},"vehicle_type_id":"4","last_reported":1767200979,"current_range_meters":9600,"station_id":"ce4bgv92rcd13ifvqcr0","pricing_plan_id":"cebpf4jnsgd1na2vs0mg"},{"bike_id":"9b0ea029-ef72-4f1a-ad09-7933944fbf0a","system_id":"levelo_inurba_marseille","lat":43.29062,"lon":5.37165,"is_reserved":false,"is_disabled":false,"rental_uris":{"android":"levelo://app?vid=9b0ea029-ef72-4f1a-ad09-7933944fbf0a","ios":"levelo://app?vid=9b0ea029-ef72-4f1a-ad09-7933944fbf0a"},"vehicle_type_id":"4","last_reported":1767200979,"current_range_meters":9600,"station_id":"ce4bh5p2rcd13ifvqe4g","pricing_plan_id":"cebpf4jnsgd1na2vs0mg"},{"bike_id":"96657df9-7d68-4cd8-9f06-a5e501866c49","system_id":"levelo_inurba_marseille","lat":43.29342,"lon":5.37577,"is_reserved":false,"is_disabled":false,"rental_uris":{"android":"levelo://app?vid=96657df9-7d68-4cd8-9f06-a5e501866c49","ios":"levelo://app?vid=96657df9-7d68-4cd8-9f06-a5e501866c49"},"vehicle_type_id":"4","last_reported":1767200979,"current_range_meters":9600,"station_id":"","pricing_plan_id":"cebpf4jnsgd1na2vs0mg"},{"bike_id":"5265762e-9468-4f8e-963d-e1d647f4d72d","system_id":"levelo_inurba_marseille","lat":43.337444,"lon":5.374475,"is_reserved":false,"is_disabled":false,"rental_uris":{"android":"levelo://app?vid=5265762e-9468-4f8e-963d-e1d647f4d72d","ios":"levelo://app?vid=5265762e-9468-4f8e-963d-e1d647f4d72d"},"vehicle_type_id":"4","last_reported":1767200979,"current_range_meters":10000,"station_id":"","pricing_plan_id":"cebpf4jnsgd1na2vs0mg"},{"bike_id":"4bc57557-a1ff-4445-8883-a2ab5098f534","system_id":"levelo_inurba_marseille","lat":43.336,"lon":5.35417,"is_reserved":false,"is_disabled":false,"rental_uris":{"android":"levelo://app?vid=4bc57557-a1ff-4445-8883-a2ab5098f534","ios":"levelo://app?vid=4bc57557-a1ff-4445-8883-a2ab5098f534"},"vehicle_type_id":"4","last_reported":1767200979,"current_range_meters":10000,"station_id":"","pricing_plan_id":"cebpf4jnsgd1na2vs0mg"},{"bike_id":"2b4254b6-2980-4b27-b2d9-8a3253708fac","system_id":"levelo_inurba_marseille","lat":43.27207,"lon":5.39174,"is_reserved":false,"is_disabled":false,"rental_uris":{"android":"levelo://app?vid=2b4254b6-2980-4b27-b2d9-8a3253708fac","ios":"levelo://app?vid=2b4254b6-2980-4b27-b2d9-8a3253708fac"},"vehicle_type_id":"4","last_reported":1767200979,"current_range_meters":10000,"station_id":"ce4bhhp2rcd13ifvqfm0","pricing_plan_id":"cebpf4jnsgd1na2vs0mg"},{"bike_id":"4372a42a-b334-4e8f-9141-9b6d15dd3e03","system_id":"levelo_inurba_marseille","lat":43.28497,"lon":5.48373,"is_reserved":false,"is_disabled":false,"rental_uris":{"android":"levelo://app?vid=4372a42a-b334-4e8f-9141-9b6d15dd3e03","ios":"levelo://app?vid=4372a42a-b334-4e8f-9141-9b6d15dd3e03"},"vehicle_type_id":"4","last_reported":1767200979,"current_range_meters":10000,"station_id":"","pricing_plan_id":"cebpf4jnsgd1na2vs0mg"},{"bike_id":"da5669f0-d7ed-4918-9e6d-cd00034eb11f","system_id":"levelo_inurba_marseille","lat":43.24175,"lon":5.39722,"is_reserved":false,"is_disabled":false,"rental_uris":{"android":"levelo://app?vid=da5669f0-d7ed-4918-9e6d-cd00034eb11f","ios":"levelo://app?vid=da5669f0-d7ed-4918-9e6d-cd00034eb11f"},"vehicle_type_id":"4","last_reported":1767200979,"current_range_meters":10000,"station_id":"ce4bhn12rcd13ifvqgpg","pricing_plan_id":"cebpf4jnsgd1na2vs0mg"},{"bike_id":"6d34a40a-3c31-4e57-aba7-ad6f30894876","system_id":"levelo_inurba_marseille","lat":43.29921,"lon":5.37433,"is_reserved":false,"is_disabled":false,"rental_uris":{"android":"levelo://app?vid=6d34a40a-3c31-4e57-aba7-ad6f30894876","ios":"levelo://app?vid=6d34a40a-3c31-4e57-aba7-ad6f30894876"},"vehicle_type_id":"4","last_reported":1767200979,"current_range_meters":10000,"station_id":"ce4bgjh2rcd13ifvqbg0","pricing_plan_id":"cebpf4jnsgd1na2vs0mg"},{"bike_id":"cf61d156-dac6-4f0e-b382-70446db78ff3","system_id":"levelo_inurba_marseille","lat":43.32345,"lon":5.36742,"is_reserved":false,"is_disabled":false,"rental_uris":{"android":"levelo://app?vid=cf61d156-dac6-4f0e-b382-70446db78ff3","ios":"levelo://app?vid=cf61d156-dac6-4f0e-b382-70446db78ff3"},"vehicle_type_id":"4","last_reported":1767200979,"current_range_meters":10000,"station_id":"ce4bhsh2rcd13ifvqi2g","pricing_plan_id":"cebpf4jnsgd1na2vs0mg"},{"bike_id":"d285cd77-c7b4-4ad4-ad28-ed6edfeaa990","system_id":"levelo_inurba_marseille","lat":43.296085,"lon":5.380846,"is_reserved":false,"is_disabled":true,"rental_uris":{"android":"levelo://app?vid=d285cd77-c7b4-4ad4-ad28-ed6edfeaa990","ios":"levelo://app?vid=d285cd77-c7b4-4ad4-ad28-ed6edfeaa990"},"vehicle_type_id":"4","last_reported":1767200979,"current_range_meters":10000,"station_id":"ce4bgl12rcd13ifvqbo0","pricing_plan_id":"cebpf4jnsgd1na2vs0mg"},{"bike_id":"08185d9a-30c4-4554-b3db-078c65fff08c","system_id":"levelo_inurba_marseille","lat":43.31757,"lon":5.39013,"is_reserved":false,"is_disabled":false,"rental_uris":{"android":"levelo://app?vid=08185d9a-30c4-4554-b3db-078c65fff08c","ios":"levelo://app?vid=08185d9a-30c4-4554-b3db-078c65fff08c"},"vehicle_type_id":"4","last_reported":1767200979,"current_range_meters":10000,"station_id":"ce4bhqp2rcd13ifvqhng","pricing_plan_id":"cebpf4jnsgd1na2vs0mg"},{"bike_id":"650cf425-f87e-4c30-9156-354d5fef94cd","system_id":"levelo_inurba_marseille","lat":43.30131,"lon":5.36752,"is_reserved":false,"is_disabled":false,"rental_uris":{"android":"levelo://app?vid=650cf425-f87e-4c30-9156-354d5fef94cd","ios":"levelo://app?vid=650cf425-f87e-4c30-9156-354d5fef94cd"},"vehicle_type_id":"4","last_reported":1767200979,"current_range_meters":10000,"station_id":"","pricing_plan_id":"cebpf4jnsgd1na2vs0mg"},{"bike_id":"d49fd2c9-dca5-4864-87e0-359520dd27b8","system_id":"levelo_inurba_marseille","lat":43.2614,"lon":5.39741,"is_reserved":false,"is_disabled":false,"rental_uris":{"android":"levelo://app?vid=d49fd2c9-dca5-4864-87e0-359520dd27b8","ios":"levelo://app?vid=d49fd2c9-dca5-4864-87e0-359520dd27b8"},"vehicle_type_id":"4","last_reported":1767200979,"current_range_meters":10000,"station_id":"","pricing_plan_id":"cebpf4jnsgd1na2vs0mg"},{"bike_id":"d98baefd-4a2d-4d92-b8d9-46ebabf8a3a0","system_id":"levelo_inurba_marseille","lat":43.29573,"lon":5.39982,"is_reserved":false,"is_disabled":false,"rental_uris":{"android":"levelo://app?vid=d98baefd-4a2d-4d92-b8d9-46ebabf8a3a0","ios":"levelo://app?vid=d98baefd-4a2d-4d92-b8d9-46ebabf8a3a0"},"vehicle_type_id":"4","last_reported":1767200979,"current_range_meters":10000,"station_id":"ce4bh312rcd13ifvqdj0","pricing_plan_id":"cebpf4jnsgd1na2vs0mg"},{"bike_id":"bebfe7ea-f824-4306-ad94-9d5d87ac8f64","system_id":"levelo_inurba_marseille","lat":43.31083,"lon":5.38352,"is_reserved":false,"is_disabled":false,"rental_uris":{"android":"levelo://app?vid=bebfe7ea-f824-4306-ad94-9d5d87ac8f64","ios":"levelo://app?vid=bebfe7ea-f824-4306-ad94-9d5d87ac8f64"},"vehicle_type_id":"4","last_reported":1767200979,"current_range_meters":10000,"station_id":"ce4bgv92rcd13ifvqcr0","pricing_plan_id":"cebpf4jnsgd1na2vs0mg"},{"bike_id":"4285e530-5ba1-4900-9d8a-cdee106fe67f","system_id":"levelo_inurba_marseille","lat":43.30558,"lon":5.36689,"is_reserved":false,"is_disabled":false,"rental_uris":{"android":"levelo://app?vid=4285e530-5ba1-4900-9d8a-cdee106fe67f","ios":"levelo://app?vid=4285e530-5ba1-4900-9d8a-cdee106fe67f"},"vehicle_type_id":"4","last_reported":1767200979,"current_range_meters":10000,"station_id":"ce4bgrp2rcd13ifvqc9g","pricing_plan_id":"cebpf4jnsgd1na2vs0mg"},{"bike_id":"7d27019d-a0a5-4e2f-89e2-4ec2d9fe6c55","system_id":"levelo_inurba_marseille","lat":43.295347,"lon":5.390509,"is_reserved":false,"is_disabled":false,"rental_uris":{"android":"levelo://app?vid=7d27019d-a0a5-4e2f-89e2-4ec2d9fe6c55","ios":"levelo://app?vid=7d27019d-a0a5-4e2f-89e2-4ec2d9fe6c55"},"vehicle_type_id":"4","last_reported":1767200979,"current_range_meters":10000,"station_id":"ce4bh3p2rcd13ifvqdp0","pricing_plan_id":"cebpf4jnsgd1na2vs0mg"},{"bike_id":"41f05f5d-197f-4a6e-9397-89539d840bd3","system_id":"levelo_inurba_marseille","lat":43.26672,"lon":5.38283,"is_reserved":false,"is_disabled":false,"rental_uris":{"android":"levelo://app?vid=41f05f5d-197f-4a6e-9397-89539d840bd3","ios":"levelo://app?vid=41f05f5d-197f-4a6e-9397-89539d840bd3"},"vehicle_type_id":"4","last_reported":1767200979,"current_range_meters":10000,"station_id":"ce4bhg92rcd13ifvqf90","pricing_plan_id":"cebpf4jnsgd1na2vs0mg"},{"bike_id":"58f15008-1760-4877-a3b7-7b6ed6dea863","system_id":"levelo_inurba_marseille","lat":43.28492,"lon":5.38574,"is_reserved":false,"is_disabled":false,"rental_uris":{"android":"levelo://app?vid=58f15008-1760-4877-a3b7-7b6ed6dea863","ios":"levelo://app?vid=58f15008-1760-4877-a3b7-7b6ed6dea863"},"vehicle_type_id":"4","last_reported":1767200979,"current_range_meters":10800,"station_id":"ce4bh8p2rcd13ifvqeb0","pricing_plan_id":"cebpf4jnsgd1na2vs0mg"},{"bike_id":"090deb3c-b463-4496-9a6a-019b5e498763","system_id":"levelo_inurba_marseille","lat":43.32363,"lon":5.36719,"is_reserved":false,"is_disabled":false,"rental_uris":{"android":"levelo://app?vid=090deb3c-b463-4496-9a6a-019b5e498763","ios":"levelo://app?vid=090deb3c-b463-4496-9a6a-019b5e498763"},"vehicle_type_id":"4","last_reported":1767200979,"current_range_meters":10800,"station_id":"ce4bhsh2rcd13ifvqi2g","pricing_plan_id":"cebpf4jnsgd1na2vs0mg"},{"bike_id":"3c554b37-3b38-4c8a-be17-815a87aa6e42","system_id":"levelo_inurba_marseille","lat":43.29797,"lon":5.38082,"is_reserved":false,"is_disabled":false,"rental_uris":{"android":"levelo://app?vid=3c554b37-3b38-4c8a-be17-815a87aa6e42","ios":"levelo://app?vid=3c554b37-3b38-4c8a-be17-815a87aa6e42"},"vehicle_type_id":"4","last_reported":1767200979,"current_range_meters":10800,"station_id":"ce4bgip2rcd13ifvqbb0","pricing_plan_id":"cebpf4jnsgd1na2vs0mg"},{"bike_id":"8fa53ddb-80a9-4b81-a17d-6b07554edef4","system_id":"levelo_inurba_marseille","lat":43.28474,"lon":5.48396,"is_reserved":false,"is_disabled":false,"rental_uris":{"android":"levelo://app?vid=8fa53ddb-80a9-4b81-a17d-6b07554edef4","ios":"levelo://app?vid=8fa53ddb-80a9-4b81-a17d-6b07554edef4"},"vehicle_type_id":"4","last_reported":1767200979,"current_range_meters":10800,"station_id":"st_d3svhcjqgbts73a3dn0g","pricing_plan_id":"cebpf4jnsgd1na2vs0mg"},{"bike_id":"fcc4455e-e19e-48e0-b001-ee057db51f5e","system_id":"levelo_inurba_marseille","lat":43.29794,"lon":5.38096,"is_reserved":false,"is_disabled":false,"rental_uris":{"android":"levelo://app?vid=fcc4455e-e19e-48e0-b001-ee057db51f5e","ios":"levelo://app?vid=fcc4455e-e19e-48e0-b001-ee057db51f5e"},"vehicle_type_id":"4","last_reported":1767200979,"current_range_meters":10800,"station_id":"ce4bgip2rcd13ifvqbb0","pricing_plan_id":"cebpf4jnsgd1na2vs0mg"},{"bike_id":"c78b7752-9cb7-4b06-a8ef-1f65d9ce20cf","system_id":"levelo_inurba_marseille","lat":43.31648,"lon":5.38808,"is_reserved":false,"is_disabled":false,"rental_uris":{"android":"levelo://app?vid=c78b7752-9cb7-4b06-a8ef-1f65d9ce20cf","ios":"levelo://app?vid=c78b7752-9cb7-4b06-a8ef-1f65d9ce20cf"},"vehicle_type_id":"4","last_reported":1767200979,"current_range_meters":10800,"station_id":"","pricing_plan_id":"cebpf4jnsgd1na2vs0mg"},{"bike_id":"b810ce5a-9165-42e6-b9bc-ddcaeef03fa2","system_id":"levelo_inurba_marseille","lat":43.31225,"lon":5.36841,"is_reserved":false,"is_disabled":false,"rental_uris":{"android":"levelo://app?vid=b810ce5a-9165-42e6-b9bc-ddcaeef03fa2","ios":"levelo://app?vid=b810ce5a-9165-42e6-b9bc-ddcaeef03fa2"},"vehicle_type_id":"4","last_reported":1767200979,"current_range_meters":10800,"station_id":"ce4bgl92rcd13ifvqbq0","pricing_plan_id":"cebpf4jnsgd1na2vs0mg"},{"bike_id":"17ed143c-c6a8-4d0a-bc59-6cc80ba2c7cb","system_id":"levelo_inurba_marseille","lat":43.321168,"lon":5.367857,"is_reserved":false,"is_disabled":false,"rental_uris":{"android":"levelo://app?vid=17ed143c-c6a8-4d0a-bc59-6cc80ba2c7cb","ios":"levelo://app?vid=17ed143c-c6a8-4d0a-bc59-6cc80ba2c7cb"},"vehicle_type_id":"4","last_reported":1767200979,"current_range_meters":10800,"station_id":"ce4bhrh2rcd13ifvqhug","pricing_plan_id":"cebpf4jnsgd1na2vs0mg"},{"bike_id":"1e979309-d823-4aaf-b851-f1be8461cefe","system_id":"levelo_inurba_marseille","lat":43.284823,"lon":5.483962,"is_reserved":false,"is_disabled":false,"rental_uris":{"android":"levelo://app?vid=1e979309-d823-4aaf-b851-f1be8461cefe","ios":"levelo://app?vid=1e979309-d823-4aaf-b851-f1be8461cefe"},"vehicle_type_id":"4","last_reported":1767200979,"current_range_meters":10800,"station_id":"st_d3svhcjqgbts73a3dn0g","pricing_plan_id":"cebpf4jnsgd1na2vs0mg"},{"bike_id":"5e3992e1-3845-440a-9483-348a04f37ec6","system_id":"levelo_inurba_marseille","lat":43.29198,"lon":5.35797,"is_reserved":false,"is_disabled":false,"rental_uris":{"android":"levelo://app?vid=5e3992e1-3845-440a-9483-348a04f37ec6","ios":"levelo://app?vid=5e3992e1-3845-440a-9483-348a04f37ec6"},"vehicle_type_id":"4","last_reported":1767200979,"current_range_meters":10800,"station_id":"ce4bhb12rcd13ifvqel0","pricing_plan_id":"cebpf4jnsgd1na2vs0mg"},{"bike_id":"f297e1d0-d6d1-470d-832a-7cfd1d704b5f","system_id":"levelo_inurba_marseille","lat":43.26904,"lon":5.39364,"is_reserved":false,"is_disabled":false,"rental_uris":{"android":"levelo://app?vid=f297e1d0-d6d1-470d-832a-7cfd1d704b5f","ios":"levelo://app?vid=f297e1d0-d6d1-470d-832a-7cfd1d704b5f"},"vehicle_type_id":"4","last_reported":1767200979,"current_range_meters":10800,"station_id":"","pricing_plan_id":"cebpf4jnsgd1na2vs0mg"},{"bike_id":"64261d8c-6043-4f56-95bc-d20642b963c0","system_id":"levelo_inurba_marseille","lat":43.33346,"lon":5.41102,"is_reserved":false,"is_disabled":false,"rental_uris":{"android":"levelo://app?vid=64261d8c-6043-4f56-95bc-d20642b963c0","ios":"levelo://app?vid=64261d8c-6043-4f56-95bc-d20642b963c0"},"vehicle_type_id":"4","last_reported":1767200979,"current_range_meters":10800,"station_id":"","pricing_plan_id":"cebpf4jnsgd1na2vs0mg"},{"bike_id":"30774d10-0803-4a88-8d09-13264a788284","system_id":"levelo_inurba_marseille","lat":43.29043,"lon":5.39975,"is_reserved":false,"is_disabled":false,"rental_uris":{"android":"levelo://app?vid=30774d10-0803-4a88-8d09-13264a788284","ios":"levelo://app?vid=30774d10-0803-4a88-8d09-13264a788284"},"vehicle_type_id":"4","last_reported":1767200979,"current_range_meters":10800,"station_id":"ce4bh392rcd13ifvqdm0","pricing_plan_id":"cebpf4jnsgd1na2vs0mg"},{"bike_id":"8839e193-b009-49b7-b914-15a05d6dcf3d","system_id":"levelo_inurba_marseille","lat":43.28613,"lon":5.35105,"is_reserved":false,"is_disabled":false,"rental_uris":{"android":"levelo://app?vid=8839e193-b009-49b7-b914-15a05d6dcf3d","ios":"levelo://app?vid=8839e193-b009-49b7-b914-15a05d6dcf3d"},"vehicle_type_id":"4","last_reported":1767200979,"current_range_meters":10800,"station_id":"ce4bhch2rcd13ifvqeug","pricing_plan_id":"cebpf4jnsgd1na2vs0mg"},{"bike_id":"084ebf6c-0617-4301-be58-b60bca429fc4","system_id":"levelo_inurba_marseille","lat":43.24661,"lon":5.38166,"is_reserved":false,"is_disabled":false,"rental_uris":{"android":"levelo://app?vid=084ebf6c-0617-4301-be58-b60bca429fc4","ios":"levelo://app?vid=084ebf6c-0617-4301-be58-b60bca429fc4"},"vehicle_type_id":"4","last_reported":1767200979,"current_range_meters":10800,"station_id":"ce4bhih2rcd13ifvqfr0","pricing_plan_id":"cebpf4jnsgd1na2vs0mg"},{"bike_id":"20449e9d-3619-4236-ae8e-feb7d0fb6043","system_id":"levelo_inurba_marseille","lat":43.29927,"lon":5.37472,"is_reserved":false,"is_disabled":false,"rental_uris":{"android":"levelo://app?vid=20449e9d-3619-4236-ae8e-feb7d0fb6043","ios":"levelo://app?vid=20449e9d-3619-4236-ae8e-feb7d0fb6043"},"vehicle_type_id":"4","last_reported":1767200979,"current_range_meters":10800,"station_id":"ce4bgjh2rcd13ifvqbg0","pricing_plan_id":"cebpf4jnsgd1na2vs0mg"},{"bike_id":"4eb984c0-cff5-47bc-8a26-322fcbc1459a","system_id":"levelo_inurba_marseille","lat":43.28421,"lon":5.34988,"is_reserved":false,"is_disabled":false,"rental_uris":{"android":"levelo://app?vid=4eb984c0-cff5-47bc-8a26-322fcbc1459a","ios":"levelo://app?vid=4eb984c0-cff5-47bc-8a26-322fcbc1459a"},"vehicle_type_id":"4","last_reported":1767200979,"current_range_meters":10800,"station_id":"ce4bhbh2rcd13ifvqepg","pricing_plan_id":"cebpf4jnsgd1na2vs0mg"},{"bike_id":"cb433141-825a-49cd-bbee-623c4e5c0fcd","system_id":"levelo_inurba_marseille","lat":43.29752,"lon":5.42757,"is_reserved":false,"is_disabled":false,"rental_uris":{"android":"levelo://app?vid=cb433141-825a-49cd-bbee-623c4e5c0fcd","ios":"levelo://app?vid=cb433141-825a-49cd-bbee-623c4e5c0fcd"},"vehicle_type_id":"4","last_reported":1767200979,"current_range_meters":10800,"station_id":"st_d3md5207bmas73dh9klg","pricing_plan_id":"cebpf4jnsgd1na2vs0mg"},{"bike_id":"e422d1e6-989b-48c2-be56-4107da9ba332","system_id":"levelo_inurba_marseille","lat":43.32109,"lon":5.36777,"is_reserved":false,"is_disabled":false,"rental_uris":{"android":"levelo://app?vid=e422d1e6-989b-48c2-be56-4107da9ba332","ios":"levelo://app?vid=e422d1e6-989b-48c2-be56-4107da9ba332"},"vehicle_type_id":"4","last_reported":1767200979,"current_range_meters":11200,"station_id":"ce4bhrh2rcd13ifvqhug","pricing_plan_id":"cebpf4jnsgd1na2vs0mg"},{"bike_id":"b018ac7a-409a-4f35-a3d6-8e57321ee810","system_id":"levelo_inurba_marseille","lat":43.31044,"lon":5.3717,"is_reserved":false,"is_disabled":false,"rental_uris":{"android":"levelo://app?vid=b018ac7a-409a-4f35-a3d6-8e57321ee810","ios":"levelo://app?vid=b018ac7a-409a-4f35-a3d6-8e57321ee810"},"vehicle_type_id":"4","last_reported":1767200979,"current_range_meters":11200,"station_id":"st_d4kl2rp97mjs73e7tdfg","pricing_plan_id":"cebpf4jnsgd1na2vs0mg"},{"bike_id":"a02fb672-5bdf-46c8-9fc1-e8fcbc8dc4d2","system_id":"levelo_inurba_marseille","lat":43.303199,"lon":5.386564,"is_reserved":false,"is_disabled":false,"rental_uris":{"android":"levelo://app?vid=a02fb672-5bdf-46c8-9fc1-e8fcbc8dc4d2","ios":"levelo://app?vid=a02fb672-5bdf-46c8-9fc1-e8fcbc8dc4d2"},"vehicle_type_id":"4","last_reported":1767200979,"current_range_meters":11200,"station_id":"","pricing_plan_id":"cebpf4jnsgd1na2vs0mg"},{"bike_id":"94e16f28-7dcf-4273-940d-294336091110","system_id":"levelo_inurba_marseille","lat":43.2956,"lon":5.38147,"is_reserved":false,"is_disabled":false,"rental_uris":{"android":"levelo://app?vid=94e16f28-7dcf-4273-940d-294336091110","ios":"levelo://app?vid=94e16f28-7dcf-4273-940d-294336091110"},"vehicle_type_id":"4","last_reported":1767200979,"current_range_meters":11200,"station_id":"","pricing_plan_id":"cebpf4jnsgd1na2vs0mg"},{"bike_id":"ac91dfcc-4134-40a6-b5c1-5ba0e33ed7b3","system_id":"levelo_inurba_marseille","lat":43.30123,"lon":5.39861,"is_reserved":false,"is_disabled":false,"rental_uris":{"android":"levelo://app?vid=ac91dfcc-4134-40a6-b5c1-5ba0e33ed7b3","ios":"levelo://app?vid=ac91dfcc-4134-40a6-b5c1-5ba0e33ed7b3"},"vehicle_type_id":"4","last_reported":1767200979,"current_range_meters":11200,"station_id":"ce4bh0h2rcd13ifvqd40","pricing_plan_id":"cebpf4jnsgd1na2vs0mg"},{"bike_id":"513b3d3c-33ad-4ba4-b7b0-f07af75c2eec","system_id":"levelo_inurba_marseille","lat":43.28947,"lon":5.36634,"is_reserved":false,"is_disabled":false,"rental_uris":{"android":"levelo://app?vid=513b3d3c-33ad-4ba4-b7b0-f07af75c2eec","ios":"levelo://app?vid=513b3d3c-33ad-4ba4-b7b0-f07af75c2eec"},"vehicle_type_id":"4","last_reported":1767200979,"current_range_meters":11200,"station_id":"ce4bhap2rcd13ifvqek0","pricing_plan_id":"cebpf4jnsgd1na2vs0mg"},{"bike_id":"9a8097de-6a01-41dd-8c4f-74021afee8cc","system_id":"levelo_inurba_marseille","lat":43.25091,"lon":5.39519,"is_reserved":false,"is_disabled":false,"rental_uris":{"android":"levelo://app?vid=9a8097de-6a01-41dd-8c4f-74021afee8cc","ios":"levelo://app?vid=9a8097de-6a01-41dd-8c4f-74021afee8cc"},"vehicle_type_id":"4","last_reported":1767200979,"current_range_meters":11200,"station_id":"ce4bhm12rcd13ifvqgkg","pricing_plan_id":"cebpf4jnsgd1na2vs0mg"},{"bike_id":"f489c472-ee6d-42dd-8be8-3a531cfd3f02","system_id":"levelo_inurba_marseille","lat":43.287546,"lon":5.454808,"is_reserved":false,"is_disabled":false,"rental_uris":{"android":"levelo://app?vid=f489c472-ee6d-42dd-8be8-3a531cfd3f02","ios":"levelo://app?vid=f489c472-ee6d-42dd-8be8-3a531cfd3f02"},"vehicle_type_id":"4","last_reported":1767200979,"current_range_meters":11200,"station_id":"","pricing_plan_id":"cebpf4jnsgd1na2vs0mg"},{"bike_id":"1ebd2a0c-42a1-4a60-8730-e1ef90962935","system_id":"levelo_inurba_marseille","lat":43.32355,"lon":5.36763,"is_reserved":false,"is_disabled":false,"rental_uris":{"android":"levelo://app?vid=1ebd2a0c-42a1-4a60-8730-e1ef90962935","ios":"levelo://app?vid=1ebd2a0c-42a1-4a60-8730-e1ef90962935"},"vehicle_type_id":"4","last_reported":1767200979,"current_range_meters":11600,"station_id":"ce4bhsh2rcd13ifvqi2g","pricing_plan_id":"cebpf4jnsgd1na2vs0mg"},{"bike_id":"79b5f154-7cc7-44e6-a387-d261a3ea65b3","system_id":"levelo_inurba_marseille","lat":43.29852,"lon":5.3628,"is_reserved":false,"is_disabled":false,"rental_uris":{"android":"levelo://app?vid=79b5f154-7cc7-44e6-a387-d261a3ea65b3","ios":"levelo://app?vid=79b5f154-7cc7-44e6-a387-d261a3ea65b3"},"vehicle_type_id":"4","last_reported":1767200979,"current_range_meters":11600,"station_id":"ce4bgpp2rcd13ifvqc3g","pricing_plan_id":"cebpf4jnsgd1na2vs0mg"},{"bike_id":"b5f80a1c-7345-44ae-9c2d-843287ace1f8","system_id":"levelo_inurba_marseille","lat":43.27451,"lon":5.42401,"is_reserved":false,"is_disabled":false,"rental_uris":{"android":"levelo://app?vid=b5f80a1c-7345-44ae-9c2d-843287ace1f8","ios":"levelo://app?vid=b5f80a1c-7345-44ae-9c2d-843287ace1f8"},"vehicle_type_id":"4","last_reported":1767200979,"current_range_meters":11600,"station_id":"","pricing_plan_id":"cebpf4jnsgd1na2vs0mg"},{"bike_id":"9e5dafc7-f2da-4d0b-b668-e32cc043ceb4","system_id":"levelo_inurba_marseille","lat":43.28047,"lon":5.40073,"is_reserved":false,"is_disabled":false,"rental_uris":{"android":"levelo://app?vid=9e5dafc7-f2da-4d0b-b668-e32cc043ceb4","ios":"levelo://app?vid=9e5dafc7-f2da-4d0b-b668-e32cc043ceb4"},"vehicle_type_id":"4","last_reported":1767200979,"current_range_meters":11600,"station_id":"","pricing_plan_id":"cebpf4jnsgd1na2vs0mg"},{"bike_id":"bf03ad52-b06a-4c37-89aa-16a46aae5760","system_id":"levelo_inurba_marseille","lat":43.29875,"lon":5.39735,"is_reserved":false,"is_disabled":false,"rental_uris":{"android":"levelo://app?vid=bf03ad52-b06a-4c37-89aa-16a46aae5760","ios":"levelo://app?vid=bf03ad52-b06a-4c37-89aa-16a46aae5760"},"vehicle_type_id":"4","last_reported":1767200979,"current_range_meters":11600,"station_id":"ce4bh0h2rcd13ifvqd50","pricing_plan_id":"cebpf4jnsgd1na2vs0mg"},{"bike_id":"1fbbda71-5120-4f4e-ac76-faccd2c768a6","system_id":"levelo_inurba_marseille","lat":43.28704,"lon":5.39989,"is_reserved":false,"is_disabled":false,"rental_uris":{"android":"levelo://app?vid=1fbbda71-5120-4f4e-ac76-faccd2c768a6","ios":"levelo://app?vid=1fbbda71-5120-4f4e-ac76-faccd2c768a6"},"vehicle_type_id":"4","last_reported":1767200979,"current_range_meters":11600,"station_id":"ce4bho92rcd13ifvqh3g","pricing_plan_id":"cebpf4jnsgd1na2vs0mg"},{"bike_id":"fd01e0ac-f4f2-4b3e-bfd2-de5d52eda19e","system_id":"levelo_inurba_marseille","lat":43.30246,"lon":5.40069,"is_reserved":false,"is_disabled":false,"rental_uris":{"android":"levelo://app?vid=fd01e0ac-f4f2-4b3e-bfd2-de5d52eda19e","ios":"levelo://app?vid=fd01e0ac-f4f2-4b3e-bfd2-de5d52eda19e"},"vehicle_type_id":"4","last_reported":1767200979,"current_range_meters":11600,"station_id":"ce4bgvh2rcd13ifvqcs0","pricing_plan_id":"cebpf4jnsgd1na2vs0mg"},{"bike_id":"602f0694-d002-4ef3-ad6b-d90ada23311f","system_id":"levelo_inurba_marseille","lat":43.297787,"lon":5.371014,"is_reserved":false,"is_disabled":false,"rental_uris":{"android":"levelo://app?vid=602f0694-d002-4ef3-ad6b-d90ada23311f","ios":"levelo://app?vid=602f0694-d002-4ef3-ad6b-d90ada23311f"},"vehicle_type_id":"4","last_reported":1767200979,"current_range_meters":11600,"station_id":"ce4bgop2rcd13ifvqc1g","pricing_plan_id":"cebpf4jnsgd1na2vs0mg"},{"bike_id":"1a670a54-1840-4940-b62b-05b0e394ae95","system_id":"levelo_inurba_marseille","lat":43.284309,"lon":5.349903,"is_reserved":false,"is_disabled":false,"rental_uris":{"android":"levelo://app?vid=1a670a54-1840-4940-b62b-05b0e394ae95","ios":"levelo://app?vid=1a670a54-1840-4940-b62b-05b0e394ae95"},"vehicle_type_id":"4","last_reported":1767200979,"current_range_meters":11600,"station_id":"ce4bhbh2rcd13ifvqepg","pricing_plan_id":"cebpf4jnsgd1na2vs0mg"},{"bike_id":"f6b382f1-2f54-4f2a-8abd-265696951f1f","system_id":"levelo_inurba_marseille","lat":43.29611,"lon":5.37724,"is_reserved":false,"is_disabled":false,"rental_uris":{"android":"levelo://app?vid=f6b382f1-2f54-4f2a-8abd-265696951f1f","ios":"levelo://app?vid=f6b382f1-2f54-4f2a-8abd-265696951f1f"},"vehicle_type_id":"4","last_reported":1767200979,"current_range_meters":11600,"station_id":"ce4bgi92rcd13ifvqb90","pricing_plan_id":"cebpf4jnsgd1na2vs0mg"},{"bike_id":"6895ecdd-1253-423c-93ba-1d2572fa6898","system_id":"levelo_inurba_marseille","lat":43.270592,"lon":5.38301,"is_reserved":false,"is_disabled":false,"rental_uris":{"android":"levelo://app?vid=6895ecdd-1253-423c-93ba-1d2572fa6898","ios":"levelo://app?vid=6895ecdd-1253-423c-93ba-1d2572fa6898"},"vehicle_type_id":"4","last_reported":1767200979,"current_range_meters":12000,"station_id":"st_d3n2fo6cfp8s73cte1j0","pricing_plan_id":"cebpf4jnsgd1na2vs0mg"},{"bike_id":"ae16ff2f-039d-4cdf-a936-aa3dd9f21d44","system_id":"levelo_inurba_marseille","lat":43.27067,"lon":5.38286,"is_reserved":false,"is_disabled":false,"rental_uris":{"android":"levelo://app?vid=ae16ff2f-039d-4cdf-a936-aa3dd9f21d44","ios":"levelo://app?vid=ae16ff2f-039d-4cdf-a936-aa3dd9f21d44"},"vehicle_type_id":"4","last_reported":1767200979,"current_range_meters":12000,"station_id":"st_d3n2fo6cfp8s73cte1j0","pricing_plan_id":"cebpf4jnsgd1na2vs0mg"},{"bike_id":"14d851ab-a12d-4956-a0aa-19036330573c","system_id":"levelo_inurba_marseille","lat":43.312132,"lon":5.368689,"is_reserved":false,"is_disabled":false,"rental_uris":{"android":"levelo://app?vid=14d851ab-a12d-4956-a0aa-19036330573c","ios":"levelo://app?vid=14d851ab-a12d-4956-a0aa-19036330573c"},"vehicle_type_id":"4","last_reported":1767200979,"current_range_meters":12000,"station_id":"ce4bgl92rcd13ifvqbq0","pricing_plan_id":"cebpf4jnsgd1na2vs0mg"},{"bike_id":"4b612c97-f84b-459a-bc6d-0cd90c252bf8","system_id":"levelo_inurba_marseille","lat":43.26517,"lon":5.37956,"is_reserved":false,"is_disabled":false,"rental_uris":{"android":"levelo://app?vid=4b612c97-f84b-459a-bc6d-0cd90c252bf8","ios":"levelo://app?vid=4b612c97-f84b-459a-bc6d-0cd90c252bf8"},"vehicle_type_id":"4","last_reported":1767200979,"current_range_meters":12000,"station_id":"","pricing_plan_id":"cebpf4jnsgd1na2vs0mg"},{"bike_id":"2f6c6f7b-f9f8-4f76-b9a7-b08a8eff2692","system_id":"levelo_inurba_marseille","lat":43.21704,"lon":5.34656,"is_reserved":false,"is_disabled":false,"rental_uris":{"android":"levelo://app?vid=2f6c6f7b-f9f8-4f76-b9a7-b08a8eff2692","ios":"levelo://app?vid=2f6c6f7b-f9f8-4f76-b9a7-b08a8eff2692"},"vehicle_type_id":"4","last_reported":1767200979,"current_range_meters":12000,"station_id":"","pricing_plan_id":"cebpf4jnsgd1na2vs0mg"},{"bike_id":"542b2ba6-9fa8-48fd-b661-4556081d0be1","system_id":"levelo_inurba_marseille","lat":43.3088,"lon":5.36855,"is_reserved":false,"is_disabled":false,"rental_uris":{"android":"levelo://app?vid=542b2ba6-9fa8-48fd-b661-4556081d0be1","ios":"levelo://app?vid=542b2ba6-9fa8-48fd-b661-4556081d0be1"},"vehicle_type_id":"4","last_reported":1767200979,"current_range_meters":12000,"station_id":"ce4bgn92rcd13ifvqbvg","pricing_plan_id":"cebpf4jnsgd1na2vs0mg"},{"bike_id":"4b33b5cb-7bec-4712-9fcc-36239248ffed","system_id":"levelo_inurba_marseille","lat":43.27152,"lon":5.39233,"is_reserved":false,"is_disabled":false,"rental_uris":{"android":"levelo://app?vid=4b33b5cb-7bec-4712-9fcc-36239248ffed","ios":"levelo://app?vid=4b33b5cb-7bec-4712-9fcc-36239248ffed"},"vehicle_type_id":"4","last_reported":1767200979,"current_range_meters":12000,"station_id":"","pricing_plan_id":"cebpf4jnsgd1na2vs0mg"},{"bike_id":"0788e991-1623-4154-b614-e1261a941949","system_id":"levelo_inurba_marseille","lat":43.31282,"lon":5.37403,"is_reserved":false,"is_disabled":false,"rental_uris":{"android":"levelo://app?vid=0788e991-1623-4154-b614-e1261a941949","ios":"levelo://app?vid=0788e991-1623-4154-b614-e1261a941949"},"vehicle_type_id":"4","last_reported":1767200979,"current_range_meters":12000,"station_id":"","pricing_plan_id":"cebpf4jnsgd1na2vs0mg"},{"bike_id":"ae8158ae-5098-479c-a0e1-90a3218c356d","system_id":"levelo_inurba_marseille","lat":43.28622,"lon":5.35089,"is_reserved":false,"is_disabled":false,"rental_uris":{"android":"levelo://app?vid=ae8158ae-5098-479c-a0e1-90a3218c356d","ios":"levelo://app?vid=ae8158ae-5098-479c-a0e1-90a3218c356d"},"vehicle_type_id":"4","last_reported":1767200979,"current_range_meters":12000,"station_id":"ce4bhch2rcd13ifvqeug","pricing_plan_id":"cebpf4jnsgd1na2vs0mg"},{"bike_id":"1e5db37b-5dba-4201-a98c-2bb0a524186e","system_id":"levelo_inurba_marseille","lat":43.31719,"lon":5.42394,"is_reserved":false,"is_disabled":false,"rental_uris":{"android":"levelo://app?vid=1e5db37b-5dba-4201-a98c-2bb0a524186e","ios":"levelo://app?vid=1e5db37b-5dba-4201-a98c-2bb0a524186e"},"vehicle_type_id":"4","last_reported":1767200979,"current_range_meters":12000,"station_id":"ce4bhp92rcd13ifvqhbg","pricing_plan_id":"cebpf4jnsgd1na2vs0mg"},{"bike_id":"9b31c737-9919-4753-902d-88d0177986b8","system_id":"levelo_inurba_marseille","lat":43.28872,"lon":5.42516,"is_reserved":false,"is_disabled":false,"rental_uris":{"android":"levelo://app?vid=9b31c737-9919-4753-902d-88d0177986b8","ios":"levelo://app?vid=9b31c737-9919-4753-902d-88d0177986b8"},"vehicle_type_id":"4","last_reported":1767200979,"current_range_meters":12000,"station_id":"st_d3b462108ojc7389ooeg","pricing_plan_id":"cebpf4jnsgd1na2vs0mg"},{"bike_id":"db899ea3-2600-47da-99d2-e144f658473b","system_id":"levelo_inurba_marseille","lat":43.283441,"lon":5.381036,"is_reserved":false,"is_disabled":false,"rental_uris":{"android":"levelo://app?vid=db899ea3-2600-47da-99d2-e144f658473b","ios":"levelo://app?vid=db899ea3-2600-47da-99d2-e144f658473b"},"vehicle_type_id":"4","last_reported":1767200979,"current_range_meters":12000,"station_id":"ce4bh412rcd13ifvqdr0","pricing_plan_id":"cebpf4jnsgd1na2vs0mg"},{"bike_id":"36fc440a-33a3-4913-a0d8-b4b76e46bd70","system_id":"levelo_inurba_marseille","lat":43.32218,"lon":5.39434,"is_reserved":false,"is_disabled":false,"rental_uris":{"android":"levelo://app?vid=36fc440a-33a3-4913-a0d8-b4b76e46bd70","ios":"levelo://app?vid=36fc440a-33a3-4913-a0d8-b4b76e46bd70"},"vehicle_type_id":"4","last_reported":1767200979,"current_range_meters":12000,"station_id":"","pricing_plan_id":"cebpf4jnsgd1na2vs0mg"},{"bike_id":"b6923337-265b-47b8-9a6f-b225e6267e40","system_id":"levelo_inurba_marseille","lat":43.2848,"lon":5.38517,"is_reserved":false,"is_disabled":false,"rental_uris":{"android":"levelo://app?vid=b6923337-265b-47b8-9a6f-b225e6267e40","ios":"levelo://app?vid=b6923337-265b-47b8-9a6f-b225e6267e40"},"vehicle_type_id":"4","last_reported":1767200979,"current_range_meters":12000,"station_id":"ce4bh8p2rcd13ifvqeb0","pricing_plan_id":"cebpf4jnsgd1na2vs0mg"},{"bike_id":"f7907c1c-af28-49fc-9bf1-6ea5c9b9576d","system_id":"levelo_inurba_marseille","lat":43.281533,"lon":5.426376,"is_reserved":false,"is_disabled":true,"rental_uris":{"android":"levelo://app?vid=f7907c1c-af28-49fc-9bf1-6ea5c9b9576d","ios":"levelo://app?vid=f7907c1c-af28-49fc-9bf1-6ea5c9b9576d"},"vehicle_type_id":"4","last_reported":1767200979,"current_range_meters":12400,"station_id":"ce4bhnh2rcd13ifvqgug","pricing_plan_id":"cebpf4jnsgd1na2vs0mg"},{"bike_id":"d884c4a6-0be1-44d1-a381-33637463734c","system_id":"levelo_inurba_marseille","lat":43.29614,"lon":5.37694,"is_reserved":false,"is_disabled":false,"rental_uris":{"android":"levelo://app?vid=d884c4a6-0be1-44d1-a381-33637463734c","ios":"levelo://app?vid=d884c4a6-0be1-44d1-a381-33637463734c"},"vehicle_type_id":"4","last_reported":1767200979,"current_range_meters":12400,"station_id":"ce4bgi92rcd13ifvqb90","pricing_plan_id":"cebpf4jnsgd1na2vs0mg"},{"bike_id":"594997e6-4558-459d-b7f7-e5073b95f1b3","system_id":"levelo_inurba_marseille","lat":43.29913,"lon":5.38147,"is_reserved":false,"is_disabled":false,"rental_uris":{"android":"levelo://app?vid=594997e6-4558-459d-b7f7-e5073b95f1b3","ios":"levelo://app?vid=594997e6-4558-459d-b7f7-e5073b95f1b3"},"vehicle_type_id":"4","last_reported":1767200979,"current_range_meters":12400,"station_id":"ce4bgj12rcd13ifvqbc0","pricing_plan_id":"cebpf4jnsgd1na2vs0mg"},{"bike_id":"5ec5f671-59c3-4ecd-9999-1ced96b35817","system_id":"levelo_inurba_marseille","lat":43.24164,"lon":5.36393,"is_reserved":false,"is_disabled":false,"rental_uris":{"android":"levelo://app?vid=5ec5f671-59c3-4ecd-9999-1ced96b35817","ios":"levelo://app?vid=5ec5f671-59c3-4ecd-9999-1ced96b35817"},"vehicle_type_id":"4","last_reported":1767200979,"current_range_meters":12400,"station_id":"cpo36qri1sfpv3e86is0","pricing_plan_id":"cebpf4jnsgd1na2vs0mg"},{"bike_id":"0938995e-ba33-411e-93cd-bce44cddc3e7","system_id":"levelo_inurba_marseille","lat":43.29972,"lon":5.37194,"is_reserved":false,"is_disabled":false,"rental_uris":{"android":"levelo://app?vid=0938995e-ba33-411e-93cd-bce44cddc3e7","ios":"levelo://app?vid=0938995e-ba33-411e-93cd-bce44cddc3e7"},"vehicle_type_id":"4","last_reported":1767200979,"current_range_meters":12400,"station_id":"ce4bgr92rcd13ifvqc7g","pricing_plan_id":"cebpf4jnsgd1na2vs0mg"},{"bike_id":"a770eb5f-2a92-46a3-b6fe-450aef9acb4a","system_id":"levelo_inurba_marseille","lat":43.301269,"lon":5.43116,"is_reserved":false,"is_disabled":false,"rental_uris":{"android":"levelo://app?vid=a770eb5f-2a92-46a3-b6fe-450aef9acb4a","ios":"levelo://app?vid=a770eb5f-2a92-46a3-b6fe-450aef9acb4a"},"vehicle_type_id":"4","last_reported":1767200979,"current_range_meters":12400,"station_id":"st_d3js3co5814s73ftftug","pricing_plan_id":"cebpf4jnsgd1na2vs0mg"},{"bike_id":"5d353937-f4c5-407f-bdc9-db5bc981b2ff","system_id":"levelo_inurba_marseille","lat":43.31121,"lon":5.37747,"is_reserved":false,"is_disabled":false,"rental_uris":{"android":"levelo://app?vid=5d353937-f4c5-407f-bdc9-db5bc981b2ff","ios":"levelo://app?vid=5d353937-f4c5-407f-bdc9-db5bc981b2ff"},"vehicle_type_id":"4","last_reported":1767200979,"current_range_meters":12400,"station_id":"ce4bgt92rcd13ifvqcg0","pricing_plan_id":"cebpf4jnsgd1na2vs0mg"},{"bike_id":"17a15864-2b99-4641-9e61-11f00055880f","system_id":"levelo_inurba_marseille","lat":43.27572,"lon":5.38424,"is_reserved":false,"is_disabled":false,"rental_uris":{"android":"levelo://app?vid=17a15864-2b99-4641-9e61-11f00055880f","ios":"levelo://app?vid=17a15864-2b99-4641-9e61-11f00055880f"},"vehicle_type_id":"4","last_reported":1767200979,"current_range_meters":12400,"station_id":"ce4bhh92rcd13ifvqfi0","pricing_plan_id":"cebpf4jnsgd1na2vs0mg"},{"bike_id":"ead1444d-eac1-417f-b268-ce9ed5abb843","system_id":"levelo_inurba_marseille","lat":43.29688,"lon":5.37288,"is_reserved":false,"is_disabled":false,"rental_uris":{"android":"levelo://app?vid=ead1444d-eac1-417f-b268-ce9ed5abb843","ios":"levelo://app?vid=ead1444d-eac1-417f-b268-ce9ed5abb843"},"vehicle_type_id":"4","last_reported":1767200979,"current_range_meters":12400,"station_id":"ce4bgk12rcd13ifvqbj0","pricing_plan_id":"cebpf4jnsgd1na2vs0mg"},{"bike_id":"0d8b64dc-d3a4-4c37-80be-c48d945a81e3","system_id":"levelo_inurba_marseille","lat":43.284656,"lon":5.384263,"is_reserved":false,"is_disabled":true,"rental_uris":{"android":"levelo://app?vid=0d8b64dc-d3a4-4c37-80be-c48d945a81e3","ios":"levelo://app?vid=0d8b64dc-d3a4-4c37-80be-c48d945a81e3"},"vehicle_type_id":"4","last_reported":1767200979,"current_range_meters":12400,"station_id":"ce4bh512rcd13ifvqe3g","pricing_plan_id":"cebpf4jnsgd1na2vs0mg"},{"bike_id":"70a0c2a2-27fb-48b4-812c-e13d5ae4798b","system_id":"levelo_inurba_marseille","lat":43.26216,"lon":5.37433,"is_reserved":false,"is_disabled":false,"rental_uris":{"android":"levelo://app?vid=70a0c2a2-27fb-48b4-812c-e13d5ae4798b","ios":"levelo://app?vid=70a0c2a2-27fb-48b4-812c-e13d5ae4798b"},"vehicle_type_id":"4","last_reported":1767200979,"current_range_meters":12400,"station_id":"ce4bhgp2rcd13ifvqfc0","pricing_plan_id":"cebpf4jnsgd1na2vs0mg"},{"bike_id":"802ef233-5447-440f-abeb-32afadd15714","system_id":"levelo_inurba_marseille","lat":43.27963,"lon":5.38747,"is_reserved":false,"is_disabled":false,"rental_uris":{"android":"levelo://app?vid=802ef233-5447-440f-abeb-32afadd15714","ios":"levelo://app?vid=802ef233-5447-440f-abeb-32afadd15714"},"vehicle_type_id":"4","last_reported":1767200979,"current_range_meters":12400,"station_id":"ce4bhg12rcd13ifvqf80","pricing_plan_id":"cebpf4jnsgd1na2vs0mg"},{"bike_id":"36d67e4b-128f-462b-bf9e-2bbc09bb7b40","system_id":"levelo_inurba_marseille","lat":43.3092,"lon":5.37844,"is_reserved":false,"is_disabled":false,"rental_uris":{"android":"levelo://app?vid=36d67e4b-128f-462b-bf9e-2bbc09bb7b40","ios":"levelo://app?vid=36d67e4b-128f-462b-bf9e-2bbc09bb7b40"},"vehicle_type_id":"4","last_reported":1767200979,"current_range_meters":12400,"station_id":"","pricing_plan_id":"cebpf4jnsgd1na2vs0mg"},{"bike_id":"ee4419cb-a677-47c5-8d45-7163f109fe02","system_id":"levelo_inurba_marseille","lat":43.30779,"lon":5.3765,"is_reserved":false,"is_disabled":false,"rental_uris":{"android":"levelo://app?vid=ee4419cb-a677-47c5-8d45-7163f109fe02","ios":"levelo://app?vid=ee4419cb-a677-47c5-8d45-7163f109fe02"},"vehicle_type_id":"4","last_reported":1767200979,"current_range_meters":12400,"station_id":"ce4bgv92rcd13ifvqcq0","pricing_plan_id":"cebpf4jnsgd1na2vs0mg"},{"bike_id":"7f70ddf3-439c-4840-b7a7-b91a9816a0ac","system_id":"levelo_inurba_marseille","lat":43.24391,"lon":5.37044,"is_reserved":false,"is_disabled":false,"rental_uris":{"android":"levelo://app?vid=7f70ddf3-439c-4840-b7a7-b91a9816a0ac","ios":"levelo://app?vid=7f70ddf3-439c-4840-b7a7-b91a9816a0ac"},"vehicle_type_id":"4","last_reported":1767200979,"current_range_meters":12400,"station_id":"ce4bhhh2rcd13ifvqfk0","pricing_plan_id":"cebpf4jnsgd1na2vs0mg"},{"bike_id":"a6b35a9b-2cf6-4669-b17f-ed9bea8188e1","system_id":"levelo_inurba_marseille","lat":43.29751,"lon":5.42757,"is_reserved":false,"is_disabled":true,"rental_uris":{"android":"levelo://app?vid=a6b35a9b-2cf6-4669-b17f-ed9bea8188e1","ios":"levelo://app?vid=a6b35a9b-2cf6-4669-b17f-ed9bea8188e1"},"vehicle_type_id":"4","last_reported":1767200979,"current_range_meters":12800,"station_id":"st_d3md5207bmas73dh9klg","pricing_plan_id":"cebpf4jnsgd1na2vs0mg"},{"bike_id":"ba4d9c7a-7aca-4b85-9206-966a264e9e7b","system_id":"levelo_inurba_marseille","lat":43.31489,"lon":5.38748,"is_reserved":false,"is_disabled":false,"rental_uris":{"android":"levelo://app?vid=ba4d9c7a-7aca-4b85-9206-966a264e9e7b","ios":"levelo://app?vid=ba4d9c7a-7aca-4b85-9206-966a264e9e7b"},"vehicle_type_id":"4","last_reported":1767200979,"current_range_meters":12800,"station_id":"","pricing_plan_id":"cebpf4jnsgd1na2vs0mg"},{"bike_id":"5d76c1ba-1a84-4b97-813c-5fad3301fab9","system_id":"levelo_inurba_marseille","lat":43.2985,"lon":5.36277,"is_reserved":false,"is_disabled":false,"rental_uris":{"android":"levelo://app?vid=5d76c1ba-1a84-4b97-813c-5fad3301fab9","ios":"levelo://app?vid=5d76c1ba-1a84-4b97-813c-5fad3301fab9"},"vehicle_type_id":"4","last_reported":1767200979,"current_range_meters":12800,"station_id":"ce4bgpp2rcd13ifvqc3g","pricing_plan_id":"cebpf4jnsgd1na2vs0mg"},{"bike_id":"8e533a3d-e630-44fb-bda8-99d9f21479dc","system_id":"levelo_inurba_marseille","lat":43.28487,"lon":5.38423,"is_reserved":false,"is_disabled":false,"rental_uris":{"android":"levelo://app?vid=8e533a3d-e630-44fb-bda8-99d9f21479dc","ios":"levelo://app?vid=8e533a3d-e630-44fb-bda8-99d9f21479dc"},"vehicle_type_id":"4","last_reported":1767200979,"current_range_meters":12800,"station_id":"ce4bh512rcd13ifvqe3g","pricing_plan_id":"cebpf4jnsgd1na2vs0mg"},{"bike_id":"3a5aab6e-cd17-41c2-835e-9aa91ad79f59","system_id":"levelo_inurba_marseille","lat":43.284153,"lon":5.375312,"is_reserved":false,"is_disabled":false,"rental_uris":{"android":"levelo://app?vid=3a5aab6e-cd17-41c2-835e-9aa91ad79f59","ios":"levelo://app?vid=3a5aab6e-cd17-41c2-835e-9aa91ad79f59"},"vehicle_type_id":"4","last_reported":1767200979,"current_range_meters":12800,"station_id":"ce4bh412rcd13ifvqds0","pricing_plan_id":"cebpf4jnsgd1na2vs0mg"},{"bike_id":"71dd81e0-bb6d-4d5b-9bc7-45fc0a4e32b2","system_id":"levelo_inurba_marseille","lat":43.27376,"lon":5.3627,"is_reserved":false,"is_disabled":false,"rental_uris":{"android":"levelo://app?vid=71dd81e0-bb6d-4d5b-9bc7-45fc0a4e32b2","ios":"levelo://app?vid=71dd81e0-bb6d-4d5b-9bc7-45fc0a4e32b2"},"vehicle_type_id":"4","last_reported":1767200979,"current_range_meters":12800,"station_id":"ce4bhbh2rcd13ifvqeo0","pricing_plan_id":"cebpf4jnsgd1na2vs0mg"},{"bike_id":"71feabac-18bb-4c38-9f1c-553d18ed10d6","system_id":"levelo_inurba_marseille","lat":43.29603,"lon":5.37178,"is_reserved":false,"is_disabled":false,"rental_uris":{"android":"levelo://app?vid=71feabac-18bb-4c38-9f1c-553d18ed10d6","ios":"levelo://app?vid=71feabac-18bb-4c38-9f1c-553d18ed10d6"},"vehicle_type_id":"4","last_reported":1767200979,"current_range_meters":12800,"station_id":"ce4bgnh2rcd13ifvqc0g","pricing_plan_id":"cebpf4jnsgd1na2vs0mg"},{"bike_id":"96036110-75bc-4345-a39b-c6eb30cff232","system_id":"levelo_inurba_marseille","lat":43.30795,"lon":5.38155,"is_reserved":false,"is_disabled":false,"rental_uris":{"android":"levelo://app?vid=96036110-75bc-4345-a39b-c6eb30cff232","ios":"levelo://app?vid=96036110-75bc-4345-a39b-c6eb30cff232"},"vehicle_type_id":"4","last_reported":1767200979,"current_range_meters":12800,"station_id":"ce4bgt12rcd13ifvqce0","pricing_plan_id":"cebpf4jnsgd1na2vs0mg"},{"bike_id":"d994d60e-482c-4497-9663-5c2d7617b7f1","system_id":"levelo_inurba_marseille","lat":43.23786,"lon":5.36608,"is_reserved":false,"is_disabled":false,"rental_uris":{"android":"levelo://app?vid=d994d60e-482c-4497-9663-5c2d7617b7f1","ios":"levelo://app?vid=d994d60e-482c-4497-9663-5c2d7617b7f1"},"vehicle_type_id":"4","last_reported":1767200979,"current_range_meters":13600,"station_id":"st_d3nk18o9ro0c73en2l3g","pricing_plan_id":"cebpf4jnsgd1na2vs0mg"},{"bike_id":"e091a64d-3bea-4eb4-be23-0d33eb28eebf","system_id":"levelo_inurba_marseille","lat":43.26959,"lon":5.40309,"is_reserved":false,"is_disabled":false,"rental_uris":{"android":"levelo://app?vid=e091a64d-3bea-4eb4-be23-0d33eb28eebf","ios":"levelo://app?vid=e091a64d-3bea-4eb4-be23-0d33eb28eebf"},"vehicle_type_id":"4","last_reported":1767200979,"current_range_meters":13600,"station_id":"cjm6bp8fraef2m0cb0m0","pricing_plan_id":"cebpf4jnsgd1na2vs0mg"},{"bike_id":"ff8864c8-a009-4638-8215-25cbc945ccbf","system_id":"levelo_inurba_marseille","lat":43.31349,"lon":5.36746,"is_reserved":false,"is_disabled":false,"rental_uris":{"android":"levelo://app?vid=ff8864c8-a009-4638-8215-25cbc945ccbf","ios":"levelo://app?vid=ff8864c8-a009-4638-8215-25cbc945ccbf"},"vehicle_type_id":"4","last_reported":1767200979,"current_range_meters":13600,"station_id":"ce4bgr92rcd13ifvqc6g","pricing_plan_id":"cebpf4jnsgd1na2vs0mg"},{"bike_id":"ddfa40a0-cada-4f50-8b25-d17290013e65","system_id":"levelo_inurba_marseille","lat":43.24165,"lon":5.36401,"is_reserved":false,"is_disabled":false,"rental_uris":{"android":"levelo://app?vid=ddfa40a0-cada-4f50-8b25-d17290013e65","ios":"levelo://app?vid=ddfa40a0-cada-4f50-8b25-d17290013e65"},"vehicle_type_id":"4","last_reported":1767200979,"current_range_meters":13600,"station_id":"cpo36qri1sfpv3e86is0","pricing_plan_id":"cebpf4jnsgd1na2vs0mg"},{"bike_id":"a37546a5-5ed0-437a-8b08-467eedf47722","system_id":"levelo_inurba_marseille","lat":43.24546,"lon":5.39524,"is_reserved":false,"is_disabled":false,"rental_uris":{"android":"levelo://app?vid=a37546a5-5ed0-437a-8b08-467eedf47722","ios":"levelo://app?vid=a37546a5-5ed0-437a-8b08-467eedf47722"},"vehicle_type_id":"4","last_reported":1767200979,"current_range_meters":13600,"station_id":"ce4bhlp2rcd13ifvqgjg","pricing_plan_id":"cebpf4jnsgd1na2vs0mg"},{"bike_id":"0d5b4d19-5ff7-4ab4-b1f1-164a6d5a8877","system_id":"levelo_inurba_marseille","lat":43.28845,"lon":5.35828,"is_reserved":false,"is_disabled":false,"rental_uris":{"android":"levelo://app?vid=0d5b4d19-5ff7-4ab4-b1f1-164a6d5a8877","ios":"levelo://app?vid=0d5b4d19-5ff7-4ab4-b1f1-164a6d5a8877"},"vehicle_type_id":"4","last_reported":1767200979,"current_range_meters":13600,"station_id":"ce4bhb12rcd13ifvqem0","pricing_plan_id":"cebpf4jnsgd1na2vs0mg"},{"bike_id":"d4c6dc95-f402-4619-8161-a90cb01a834e","system_id":"levelo_inurba_marseille","lat":43.28867,"lon":5.42514,"is_reserved":false,"is_disabled":false,"rental_uris":{"android":"levelo://app?vid=d4c6dc95-f402-4619-8161-a90cb01a834e","ios":"levelo://app?vid=d4c6dc95-f402-4619-8161-a90cb01a834e"},"vehicle_type_id":"4","last_reported":1767200979,"current_range_meters":13600,"station_id":"st_d3b462108ojc7389ooeg","pricing_plan_id":"cebpf4jnsgd1na2vs0mg"},{"bike_id":"8ed4747c-ffc4-4952-a58f-ccece03fc778","system_id":"levelo_inurba_marseille","lat":43.27176,"lon":5.41001,"is_reserved":false,"is_disabled":false,"rental_uris":{"android":"levelo://app?vid=8ed4747c-ffc4-4952-a58f-ccece03fc778","ios":"levelo://app?vid=8ed4747c-ffc4-4952-a58f-ccece03fc778"},"vehicle_type_id":"4","last_reported":1767200979,"current_range_meters":13600,"station_id":"ce4bhl12rcd13ifvqgf0","pricing_plan_id":"cebpf4jnsgd1na2vs0mg"},{"bike_id":"c8b91f0f-b86a-4bdb-93d0-7c7a54a1acc4","system_id":"levelo_inurba_marseille","lat":43.29538,"lon":5.37493,"is_reserved":false,"is_disabled":false,"rental_uris":{"android":"levelo://app?vid=c8b91f0f-b86a-4bdb-93d0-7c7a54a1acc4","ios":"levelo://app?vid=c8b91f0f-b86a-4bdb-93d0-7c7a54a1acc4"},"vehicle_type_id":"4","last_reported":1767200979,"current_range_meters":13600,"station_id":"ce4bgkp2rcd13ifvqbmg","pricing_plan_id":"cebpf4jnsgd1na2vs0mg"},{"bike_id":"82d8538f-fccb-4d77-bb7b-1f55e2f347bf","system_id":"levelo_inurba_marseille","lat":43.2119,"lon":5.35072,"is_reserved":false,"is_disabled":false,"rental_uris":{"android":"levelo://app?vid=82d8538f-fccb-4d77-bb7b-1f55e2f347bf","ios":"levelo://app?vid=82d8538f-fccb-4d77-bb7b-1f55e2f347bf"},"vehicle_type_id":"4","last_reported":1767200979,"current_range_meters":13600,"station_id":"st_cvj6sg6p6f1abm77japg","pricing_plan_id":"cebpf4jnsgd1na2vs0mg"},{"bike_id":"cda1f6ab-e0ee-4786-9e08-c7bcb481ee5b","system_id":"levelo_inurba_marseille","lat":43.29592,"lon":5.38084,"is_reserved":false,"is_disabled":false,"rental_uris":{"android":"levelo://app?vid=cda1f6ab-e0ee-4786-9e08-c7bcb481ee5b","ios":"levelo://app?vid=cda1f6ab-e0ee-4786-9e08-c7bcb481ee5b"},"vehicle_type_id":"4","last_reported":1767200979,"current_range_meters":13600,"station_id":"ce4bgl12rcd13ifvqbo0","pricing_plan_id":"cebpf4jnsgd1na2vs0mg"},{"bike_id":"652999ae-9f9a-402a-99d5-f3ed10a5e186","system_id":"levelo_inurba_marseille","lat":43.320996,"lon":5.367653,"is_reserved":false,"is_disabled":false,"rental_uris":{"android":"levelo://app?vid=652999ae-9f9a-402a-99d5-f3ed10a5e186","ios":"levelo://app?vid=652999ae-9f9a-402a-99d5-f3ed10a5e186"},"vehicle_type_id":"4","last_reported":1767200979,"current_range_meters":13600,"station_id":"ce4bhrh2rcd13ifvqhug","pricing_plan_id":"cebpf4jnsgd1na2vs0mg"},{"bike_id":"f1268822-898b-48eb-89a5-01ee8cf7172f","system_id":"levelo_inurba_marseille","lat":43.26948,"lon":5.38645,"is_reserved":false,"is_disabled":false,"rental_uris":{"android":"levelo://app?vid=f1268822-898b-48eb-89a5-01ee8cf7172f","ios":"levelo://app?vid=f1268822-898b-48eb-89a5-01ee8cf7172f"},"vehicle_type_id":"4","last_reported":1767200979,"current_range_meters":13600,"station_id":"ce4bhh92rcd13ifvqfh0","pricing_plan_id":"cebpf4jnsgd1na2vs0mg"},{"bike_id":"2e432000-19e4-474b-acb8-4742408d8ecf","system_id":"levelo_inurba_marseille","lat":43.29646,"lon":5.37955,"is_reserved":false,"is_disabled":false,"rental_uris":{"android":"levelo://app?vid=2e432000-19e4-474b-acb8-4742408d8ecf","ios":"levelo://app?vid=2e432000-19e4-474b-acb8-4742408d8ecf"},"vehicle_type_id":"4","last_reported":1767200979,"current_range_meters":13600,"station_id":"","pricing_plan_id":"cebpf4jnsgd1na2vs0mg"},{"bike_id":"5d5daaa3-a1c9-4e29-8a52-b2c506128a36","system_id":"levelo_inurba_marseille","lat":43.28464,"lon":5.35899,"is_reserved":false,"is_disabled":false,"rental_uris":{"android":"levelo://app?vid=5d5daaa3-a1c9-4e29-8a52-b2c506128a36","ios":"levelo://app?vid=5d5daaa3-a1c9-4e29-8a52-b2c506128a36"},"vehicle_type_id":"4","last_reported":1767200979,"current_range_meters":13600,"station_id":"ce4bhah2rcd13ifvqei0","pricing_plan_id":"cebpf4jnsgd1na2vs0mg"},{"bike_id":"ea5031e4-b749-4d48-ba29-71e8d8d5383b","system_id":"levelo_inurba_marseille","lat":43.26373,"lon":5.37406,"is_reserved":false,"is_disabled":false,"rental_uris":{"android":"levelo://app?vid=ea5031e4-b749-4d48-ba29-71e8d8d5383b","ios":"levelo://app?vid=ea5031e4-b749-4d48-ba29-71e8d8d5383b"},"vehicle_type_id":"4","last_reported":1767200979,"current_range_meters":13600,"station_id":"","pricing_plan_id":"cebpf4jnsgd1na2vs0mg"},{"bike_id":"7aa8deaf-4e60-441f-b4fa-11775b88c73b","system_id":"levelo_inurba_marseille","lat":43.29585,"lon":5.40301,"is_reserved":false,"is_disabled":true,"rental_uris":{"android":"levelo://app?vid=7aa8deaf-4e60-441f-b4fa-11775b88c73b","ios":"levelo://app?vid=7aa8deaf-4e60-441f-b4fa-11775b88c73b"},"vehicle_type_id":"4","last_reported":1767200979,"current_range_meters":13600,"station_id":"","pricing_plan_id":"cebpf4jnsgd1na2vs0mg"},{"bike_id":"d603748d-af3a-4084-8dfc-c057d39839a8","system_id":"levelo_inurba_marseille","lat":43.28073,"lon":5.39659,"is_reserved":false,"is_disabled":false,"rental_uris":{"android":"levelo://app?vid=d603748d-af3a-4084-8dfc-c057d39839a8","ios":"levelo://app?vid=d603748d-af3a-4084-8dfc-c057d39839a8"},"vehicle_type_id":"4","last_reported":1767200979,"current_range_meters":13600,"station_id":"ce4bho12rcd13ifvqh2g","pricing_plan_id":"cebpf4jnsgd1na2vs0mg"},{"bike_id":"211a33bc-2d5c-4be4-8851-c51938f0c6de","system_id":"levelo_inurba_marseille","lat":43.29526,"lon":5.37518,"is_reserved":false,"is_disabled":false,"rental_uris":{"android":"levelo://app?vid=211a33bc-2d5c-4be4-8851-c51938f0c6de","ios":"levelo://app?vid=211a33bc-2d5c-4be4-8851-c51938f0c6de"},"vehicle_type_id":"4","last_reported":1767200979,"current_range_meters":13600,"station_id":"ce4bgkp2rcd13ifvqbmg","pricing_plan_id":"cebpf4jnsgd1na2vs0mg"},{"bike_id":"a866dbd8-f2ef-4b9c-b5be-f436660f6036","system_id":"levelo_inurba_marseille","lat":43.30651,"lon":5.40106,"is_reserved":false,"is_disabled":false,"rental_uris":{"android":"levelo://app?vid=a866dbd8-f2ef-4b9c-b5be-f436660f6036","ios":"levelo://app?vid=a866dbd8-f2ef-4b9c-b5be-f436660f6036"},"vehicle_type_id":"4","last_reported":1767200979,"current_range_meters":13600,"station_id":"ce4bh112rcd13ifvqda0","pricing_plan_id":"cebpf4jnsgd1na2vs0mg"},{"bike_id":"1254ec73-9843-460b-a43b-649eadcccee3","system_id":"levelo_inurba_marseille","lat":43.314917,"lon":5.373041,"is_reserved":false,"is_disabled":false,"rental_uris":{"android":"levelo://app?vid=1254ec73-9843-460b-a43b-649eadcccee3","ios":"levelo://app?vid=1254ec73-9843-460b-a43b-649eadcccee3"},"vehicle_type_id":"4","last_reported":1767200979,"current_range_meters":13600,"station_id":"ce4bgt12rcd13ifvqcd0","pricing_plan_id":"cebpf4jnsgd1na2vs0mg"},{"bike_id":"ace5c246-d67b-410c-a723-b9a8f7910ec6","system_id":"levelo_inurba_marseille","lat":43.295704,"lon":5.399742,"is_reserved":false,"is_disabled":false,"rental_uris":{"android":"levelo://app?vid=ace5c246-d67b-410c-a723-b9a8f7910ec6","ios":"levelo://app?vid=ace5c246-d67b-410c-a723-b9a8f7910ec6"},"vehicle_type_id":"4","last_reported":1767200979,"current_range_meters":13600,"station_id":"ce4bh312rcd13ifvqdj0","pricing_plan_id":"cebpf4jnsgd1na2vs0mg"},{"bike_id":"eb269852-7820-4d94-ad5a-0aad3c945af8","system_id":"levelo_inurba_marseille","lat":43.24678,"lon":5.38131,"is_reserved":false,"is_disabled":false,"rental_uris":{"android":"levelo://app?vid=eb269852-7820-4d94-ad5a-0aad3c945af8","ios":"levelo://app?vid=eb269852-7820-4d94-ad5a-0aad3c945af8"},"vehicle_type_id":"4","last_reported":1767200979,"current_range_meters":14000,"station_id":"ce4bhih2rcd13ifvqfr0","pricing_plan_id":"cebpf4jnsgd1na2vs0mg"},{"bike_id":"c1c1bbd9-7f85-4a35-831d-72795b1b0948","system_id":"levelo_inurba_marseille","lat":43.32382,"lon":5.36654,"is_reserved":false,"is_disabled":false,"rental_uris":{"android":"levelo://app?vid=c1c1bbd9-7f85-4a35-831d-72795b1b0948","ios":"levelo://app?vid=c1c1bbd9-7f85-4a35-831d-72795b1b0948"},"vehicle_type_id":"4","last_reported":1767200979,"current_range_meters":14000,"station_id":"","pricing_plan_id":"cebpf4jnsgd1na2vs0mg"},{"bike_id":"9ffd8e4e-6671-4e68-b198-26c59cc5e3d1","system_id":"levelo_inurba_marseille","lat":43.32613,"lon":5.4201,"is_reserved":false,"is_disabled":false,"rental_uris":{"android":"levelo://app?vid=9ffd8e4e-6671-4e68-b198-26c59cc5e3d1","ios":"levelo://app?vid=9ffd8e4e-6671-4e68-b198-26c59cc5e3d1"},"vehicle_type_id":"4","last_reported":1767200979,"current_range_meters":14000,"station_id":"","pricing_plan_id":"cebpf4jnsgd1na2vs0mg"},{"bike_id":"979d6574-265c-489f-a04e-34127d9787b3","system_id":"levelo_inurba_marseille","lat":43.27917,"lon":5.39576,"is_reserved":false,"is_disabled":false,"rental_uris":{"android":"levelo://app?vid=979d6574-265c-489f-a04e-34127d9787b3","ios":"levelo://app?vid=979d6574-265c-489f-a04e-34127d9787b3"},"vehicle_type_id":"4","last_reported":1767200979,"current_range_meters":14000,"station_id":"ce4bhf92rcd13ifvqf40","pricing_plan_id":"cebpf4jnsgd1na2vs0mg"},{"bike_id":"819953b1-b6e5-4e7b-93ab-771e36ff1d19","system_id":"levelo_inurba_marseille","lat":43.280418,"lon":5.369507,"is_reserved":false,"is_disabled":false,"rental_uris":{"android":"levelo://app?vid=819953b1-b6e5-4e7b-93ab-771e36ff1d19","ios":"levelo://app?vid=819953b1-b6e5-4e7b-93ab-771e36ff1d19"},"vehicle_type_id":"4","last_reported":1767200979,"current_range_meters":14000,"station_id":"ce4bht12rcd13ifvqi60","pricing_plan_id":"cebpf4jnsgd1na2vs0mg"},{"bike_id":"d039ae4f-4624-4e82-8c72-4e393a979dc8","system_id":"levelo_inurba_marseille","lat":43.25114,"lon":5.40329,"is_reserved":false,"is_disabled":false,"rental_uris":{"android":"levelo://app?vid=d039ae4f-4624-4e82-8c72-4e393a979dc8","ios":"levelo://app?vid=d039ae4f-4624-4e82-8c72-4e393a979dc8"},"vehicle_type_id":"4","last_reported":1767200979,"current_range_meters":14000,"station_id":"ce4bhlh2rcd13ifvqgig","pricing_plan_id":"cebpf4jnsgd1na2vs0mg"},{"bike_id":"8f476fba-3aca-4a4f-8d82-9326b600510e","system_id":"levelo_inurba_marseille","lat":43.293424,"lon":5.379181,"is_reserved":false,"is_disabled":false,"rental_uris":{"android":"levelo://app?vid=8f476fba-3aca-4a4f-8d82-9326b600510e","ios":"levelo://app?vid=8f476fba-3aca-4a4f-8d82-9326b600510e"},"vehicle_type_id":"4","last_reported":1767200979,"current_range_meters":14000,"station_id":"ce4bh512rcd13ifvqe2g","pricing_plan_id":"cebpf4jnsgd1na2vs0mg"},{"bike_id":"9e028662-2e4b-4500-8272-70866f652a97","system_id":"levelo_inurba_marseille","lat":43.30641,"lon":5.40102,"is_reserved":false,"is_disabled":false,"rental_uris":{"android":"levelo://app?vid=9e028662-2e4b-4500-8272-70866f652a97","ios":"levelo://app?vid=9e028662-2e4b-4500-8272-70866f652a97"},"vehicle_type_id":"4","last_reported":1767200979,"current_range_meters":14000,"station_id":"ce4bh112rcd13ifvqda0","pricing_plan_id":"cebpf4jnsgd1na2vs0mg"},{"bike_id":"0ba4f163-10f7-45b2-b23e-23862ef0a271","system_id":"levelo_inurba_marseille","lat":43.24077,"lon":5.37747,"is_reserved":false,"is_disabled":false,"rental_uris":{"android":"levelo://app?vid=0ba4f163-10f7-45b2-b23e-23862ef0a271","ios":"levelo://app?vid=0ba4f163-10f7-45b2-b23e-23862ef0a271"},