{"last_updated":1727010795,"ttl":30,"version":"2.2","data":{"bikes":[{"bike_id":"fd84f170-c075-4570-a556-c5e617e29406","system_id":"levelo_inurba_marseille","lat":43.28285,"lon":5.40891,"is_reserved":false,"is_disabled":false,"rental_uris":{"android":"levelo://app?vid=fd84f170-c075-4570-a556-c5e617e29406","ios":"levelo://app?vid=fd84f170-c075-4570-a556-c5e617e29406"},"vehicle_type_id":"4","last_reported":1727010795,"current_range_meters":18800,"station_id":"","pricing_plan_id":"cebpf4jnsgd1na2vs0mg"},{"bike_id":"09ef34b6-482f-4988-9331-10658115e1c1","system_id":"levelo_inurba_marseille","lat":43.31526,"lon":5.38032,"is_reserved":false,"is_disabled":false,"rental_uris":{"android":"levelo://app?vid=09ef34b6-482f-4988-9331-10658115e1c1","ios":"levelo://app?vid=09ef34b6-482f-4988-9331-10658115e1c1"},"vehicle_type_id":"4","last_reported":1727010795,"current_range_meters":18000,"station_id":"ce4bhsp2rcd13ifvqi50","pricing_plan_id":"cebpf4jnsgd1na2vs0mg"},{"bike_id":"afb25509-d948-446a-87c3-a222da0c47e3","system_id":"levelo_inurba_marseille","lat":43.2549,"lon":5.37647,"is_reserved":false,"is_disabled":false,"rental_uris":{"android":"levelo://app?vid=afb25509-d948-446a-87c3-a222da0c47e3","ios":"levelo://app?vid=afb25509-d948-446a-87c3-a222da0c47e3"},"vehicle_type_id":"4","last_reported":1727010795,"current_range_meters":38800,"station_id":"ce4bhh12rcd13ifvqff0","pricing_plan_id":"cebpf4jnsgd1na2vs0mg"},{"bike_id":"d2d06111-a841-484d-bec5-ada42b7fc423","system_id":"levelo_inurba_marseille","lat":43.28418,"lon":5.34986,"is_reserved":false,"is_disabled":false,"rental_uris":{"android":"levelo://app?vid=d2d06111-a841-484d-bec5-ada42b7fc423","ios":"levelo://app?vid=d2d06111-a841-484d-bec5-ada42b7fc423"},"vehicle_type_id":"4","last_reported":1727010795,"current_range_meters":22000,"station_id":"ce4bhbh2rcd13ifvqepg","pricing_plan_id":"cebpf4jnsgd1na2vs0mg"},{"bike_id":"153e00a7-3c27-4fb8-9f75-d10b1fce9e8e","system_id":"levelo_inurba_marseille","lat":43.25091,"lon":5.39515,"is_reserved":false,"is_disabled":false,"rental_uris":{"android":"levelo://app?vid=153e00a7-3c27-4fb8-9f75-d10b1fce9e8e","ios":"levelo://app?vid=153e00a7-3c27-4fb8-9f75-d10b1fce9e8e"},"vehicle_type_id":"4","last_reported":1727010795,"current_range_meters":38400,"station_id":"ce4bhm12rcd13ifvqgkg","pricing_plan_id":"cebpf4jnsgd1na2vs0mg"},{"bike_id":"0f4bd5ad-8a1a-4214-94a9-f7a00a32a067","system_id":"levelo_inurba_marseille","lat":43.32058,"lon":5.41545,"is_reserved":false,"is_disabled":false,"rental_uris":{"android":"levelo://app?vid=0f4bd5ad-8a1a-4214-94a9-f7a00a32a067","ios":"levelo://app?vid=0f4bd5ad-8a1a-4214-94a9-f7a00a32a067"},"vehicle_type_id":"4","last_reported":1727010795,"current_range_meters":27600,"station_id":"ce4bhq92rcd13ifvqhkg","pricing_plan_id":"cebpf4jnsgd1na2vs0mg"},{"bike_id":"f7b88fa4-0828-4ca3-8da7-d1aaebe2db5a","system_id":"levelo_inurba_marseille","lat":43.32487,"lon":5.36562,"is_reserved":false,"is_disabled":false,"rental_uris":{"android":"levelo://app?vid=f7b88fa4-0828-4ca3-8da7-d1aaebe2db5a","ios":"levelo://app?vid=f7b88fa4-0828-4ca3-8da7-d1aaebe2db5a"},"vehicle_type_id":"4","last_reported":1727010795,"current_range_meters":22000,"station_id":"ce4bhs12rcd13ifvqhvg","pricing_plan_id":"cebpf4jnsgd1na2vs0mg"},{"bike_id":"f84f0098-9b9f-4ce7-9b7c-09e959a1be10","system_id":"levelo_inurba_marseille","lat":43.24805,"lon":5.37456,"is_reserved":false,"is_disabled":false,"rental_uris":{"android":"levelo://app?vid=f84f0098-9b9f-4ce7-9b7c-09e959a1be10","ios":"levelo://app?vid=f84f0098-9b9f-4ce7-9b7c-09e959a1be10"},"vehicle_type_id":"4","last_reported":1727010795,"current_range_meters":37600,"station_id":"ce4bhgh2rcd13ifvqfb0","pricing_plan_id":"cebpf4jnsgd1na2vs0mg"},{"bike_id":"b6223f30-7a3a-4a3a-9fe2-6dd2d199da21","system_id":"levelo_inurba_marseille","lat":43.248016,"lon":5.37472,"is_reserved":false,"is_disabled":false,"rental_uris":{"android":"levelo://app?vid=b6223f30-7a3a-4a3a-9fe2-6dd2d199da21","ios":"levelo://app?vid=b6223f30-7a3a-4a3a-9fe2-6dd2d199da21"},"vehicle_type_id":"4","last_reported":1727010795,"current_range_meters":7200,"station_id":"ce4bhgh2rcd13ifvqfb0","pricing_plan_id":"cebpf4jnsgd1na2vs0mg"},{"bike_id":"724bab07-77e8-4acd-9b76-5e61ef7a5908","system_id":"levelo_inurba_marseille","lat":43.31713,"lon":5.43707,"is_reserved":false,"is_disabled":false,"rental_uris":{"android":"levelo://app?vid=724bab07-77e8-4acd-9b76-5e61ef7a5908","ios":"levelo://app?vid=724bab07-77e8-4acd-9b76-5e61ef7a5908"},"vehicle_type_id":"4","last_reported":1727010795,"current_range_meters":20400,"station_id":"ce4bhp92rcd13ifvqhcg","pricing_plan_id":"cebpf4jnsgd1na2vs0mg"},{"bike_id":"f030d97b-c753-472f-b8ee-1c4ecb87f648","system_id":"levelo_inurba_marseille","lat":43.24186,"lon":5.39725,"is_reserved":false,"is_disabled":false,"rental_uris":{"android":"levelo://app?vid=f030d97b-c753-472f-b8ee-1c4ecb87f648","ios":"levelo://app?vid=f030d97b-c753-472f-b8ee-1c4ecb87f648"},"vehicle_type_id":"4","last_reported":1727010795,"current_range_meters":38000,"station_id":"ce4bhn12rcd13ifvqgpg","pricing_plan_id":"cebpf4jnsgd1na2vs0mg"},{"bike_id":"bc6a1d9b-916f-469a-a1d4-2dbe91fab3c5","system_id":"levelo_inurba_marseille","lat":43.33023,"lon":5.39041,"is_reserved":false,"is_disabled":false,"rental_uris":{"android":"levelo://app?vid=bc6a1d9b-916f-469a-a1d4-2dbe91fab3c5","ios":"levelo://app?vid=bc6a1d9b-916f-469a-a1d4-2dbe91fab3c5"},"vehicle_type_id":"4","last_reported":1727010795,"current_range_meters":22800,"station_id":"ce4bhr92rcd13ifvqhrg","pricing_plan_id":"cebpf4jnsgd1na2vs0mg"},{"bike_id":"0be3972a-21fb-465f-8ff7-6cef04c317a3","system_id":"levelo_inurba_marseille","lat":43.23971,"lon":5.36626,"is_reserved":false,"is_disabled":false,"rental_uris":{"android":"levelo://app?vid=0be3972a-21fb-465f-8ff7-6cef04c317a3","ios":"levelo://app?vid=0be3972a-21fb-465f-8ff7-6cef04c317a3"},"vehicle_type_id":"4","last_reported":1727010795,"current_range_meters":15200,"station_id":"ce4bhi12rcd13ifvqfp0","pricing_plan_id":"cebpf4jnsgd1na2vs0mg"},{"bike_id":"138cec94-2afd-49fd-86d1-ea506889b4d6","system_id":"levelo_inurba_marseille","lat":43.29306,"lon":5.371837,"is_reserved":false,"is_disabled":false,"rental_uris":{"android":"levelo://app?vid=138cec94-2afd-49fd-86d1-ea506889b4d6","ios":"levelo://app?vid=138cec94-2afd-49fd-86d1-ea506889b4d6"},"vehicle_type_id":"4","last_reported":1727010795,"current_range_meters":38000,"station_id":"","pricing_plan_id":"cebpf4jnsgd1na2vs0mg"},{"bike_id":"353d3570-b602-43cf-a7cc-db30646fa61b","system_id":"levelo_inurba_marseille","lat":43.282705,"lon":5.350639,"is_reserved":false,"is_disabled":false,"rental_uris":{"android":"levelo://app?vid=353d3570-b602-43cf-a7cc-db30646fa61b","ios":"levelo://app?vid=353d3570-b602-43cf-a7cc-db30646fa61b"},"vehicle_type_id":"4","last_reported":1727010795,"current_range_meters":9600,"station_id":"ce4bhbp2rcd13ifvqerg","pricing_plan_id":"cebpf4jnsgd1na2vs0mg"},{"bike_id":"42d235e8-5a14-4155-9875-45971031c29a","system_id":"levelo_inurba_marseille","lat":43.24814,"lon":5.37461,"is_reserved":false,"is_disabled":false,"rental_uris":{"android":"levelo://app?vid=42d235e8-5a14-4155-9875-45971031c29a","ios":"levelo://app?vid=42d235e8-5a14-4155-9875-45971031c29a"},"vehicle_type_id":"4","last_reported":1727010795,"current_range_meters":6800,"station_id":"ce4bhgh2rcd13ifvqfb0","pricing_plan_id":"cebpf4jnsgd1na2vs0mg"},{"bike_id":"20a042f1-81aa-4cde-8548-4f002e395336","system_id":"levelo_inurba_marseille","lat":43.30181,"lon":5.3985,"is_reserved":false,"is_disabled":false,"rental_uris":{"android":"levelo://app?vid=20a042f1-81aa-4cde-8548-4f002e395336","ios":"levelo://app?vid=20a042f1-81aa-4cde-8548-4f002e395336"},"vehicle_type_id":"4","last_reported":1727010795,"current_range_meters":36800,"station_id":"ce4bgvp2rcd13ifvqct0","pricing_plan_id":"cebpf4jnsgd1na2vs0mg"},{"bike_id":"01a4a8a3-a4b6-4113-b37c-1e047133b6e4","system_id":"levelo_inurba_marseille","lat":43.27183,"lon":5.41001,"is_reserved":false,"is_disabled":false,"rental_uris":{"android":"levelo://app?vid=01a4a8a3-a4b6-4113-b37c-1e047133b6e4","ios":"levelo://app?vid=01a4a8a3-a4b6-4113-b37c-1e047133b6e4"},"vehicle_type_id":"4","last_reported":1727010795,"current_range_meters":20000,"station_id":"ce4bhl12rcd13ifvqgf0","pricing_plan_id":"cebpf4jnsgd1na2vs0mg"},{"bike_id":"a4ae4f79-4648-4b4c-bac6-c78ecf3d57bc","system_id":"levelo_inurba_marseille","lat":43.31083,"lon":5.42429,"is_reserved":false,"is_disabled":false,"rental_uris":{"android":"levelo://app?vid=a4ae4f79-4648-4b4c-bac6-c78ecf3d57bc","ios":"levelo://app?vid=a4ae4f79-4648-4b4c-bac6-c78ecf3d57bc"},"vehicle_type_id":"4","last_reported":1727010795,"current_range_meters":9600,"station_id":"ce4bhp92rcd13ifvqhag","pricing_plan_id":"cebpf4jnsgd1na2vs0mg"},{"bike_id":"10520b63-060a-4354-ad25-e6ad55336d2f","system_id":"levelo_inurba_marseille","lat":43.255,"lon":5.37649,"is_reserved":false,"is_disabled":false,"rental_uris":{"android":"levelo://app?vid=10520b63-060a-4354-ad25-e6ad55336d2f","ios":"levelo://app?vid=10520b63-060a-4354-ad25-e6ad55336d2f"},"vehicle_type_id":"4","last_reported":1727010795,"current_range_meters":33200,"station_id":"ce4bhh12rcd13ifvqff0","pricing_plan_id":"cebpf4jnsgd1na2vs0mg"},{"bike_id":"d80ea284-b7dd-4ebf-9194-a01f1a13ce28","system_id":"levelo_inurba_marseille","lat":43.28409,"lon":5.34987,"is_reserved":false,"is_disabled":false,"rental_uris":{"android":"levelo://app?vid=d80ea284-b7dd-4ebf-9194-a01f1a13ce28","ios":"levelo://app?vid=d80ea284-b7dd-4ebf-9194-a01f1a13ce28"},"vehicle_type_id":"4","last_reported":1727010795,"current_range_meters":37600,"station_id":"ce4bhbh2rcd13ifvqepg","pricing_plan_id":"cebpf4jnsgd1na2vs0mg"},{"bike_id":"c54149b8-639f-4b01-8972-db26a15b27d9","system_id":"levelo_inurba_marseille","lat":43.26201,"lon":5.37933,"is_reserved":false,"is_disabled":false,"rental_uris":{"android":"levelo://app?vid=c54149b8-639f-4b01-8972-db26a15b27d9","ios":"levelo://app?vid=c54149b8-639f-4b01-8972-db26a15b27d9"},"vehicle_type_id":"4","last_reported":1727010795,"current_range_meters":22400,"station_id":"ce4bhjp2rcd13ifvqg90","pricing_plan_id":"cebpf4jnsgd1na2vs0mg"},{"bike_id":"96247566-d518-4409-a232-ee6adf73b250","system_id":"levelo_inurba_marseille","lat":43.28612,"lon":5.35099,"is_reserved":false,"is_disabled":false,"rental_uris":{"android":"levelo://app?vid=96247566-d518-4409-a232-ee6adf73b250","ios":"levelo://app?vid=96247566-d518-4409-a232-ee6adf73b250"},"vehicle_type_id":"4","last_reported":1727010795,"current_range_meters":38400,"station_id":"ce4bhch2rcd13ifvqeug","pricing_plan_id":"cebpf4jnsgd1na2vs0mg"},{"bike_id":"ddef2735-203a-4460-8fe2-32d0d088e5d5","system_id":"levelo_inurba_marseille","lat":43.31232,"lon":5.37998,"is_reserved":false,"is_disabled":false,"rental_uris":{"android":"levelo://app?vid=ddef2735-203a-4460-8fe2-32d0d088e5d5","ios":"levelo://app?vid=ddef2735-203a-4460-8fe2-32d0d088e5d5"},"vehicle_type_id":"4","last_reported":1727010795,"current_range_meters":6000,"station_id":"","pricing_plan_id":"cebpf4jnsgd1na2vs0mg"},{"bike_id":"c2339e5d-da2f-42ac-83ab-8f1aba430929","system_id":"levelo_inurba_marseille","lat":43.29222,"lon":5.36045,"is_reserved":false,"is_disabled":false,"rental_uris":{"android":"levelo://app?vid=c2339e5d-da2f-42ac-83ab-8f1aba430929","ios":"levelo://app?vid=c2339e5d-da2f-42ac-83ab-8f1aba430929"},"vehicle_type_id":"4","last_reported":1727010795,"current_range_meters":38800,"station_id":"ce4bhbh2rcd13ifvqeqg","pricing_plan_id":"cebpf4jnsgd1na2vs0mg"},{"bike_id":"6827b231-1d6c-4880-9e24-d675a65cf584","system_id":"levelo_inurba_marseille","lat":43.3234,"lon":5.40628,"is_reserved":false,"is_disabled":false,"rental_uris":{"android":"levelo://app?vid=6827b231-1d6c-4880-9e24-d675a65cf584","ios":"levelo://app?vid=6827b231-1d6c-4880-9e24-d675a65cf584"},"vehicle_type_id":"4","last_reported":1727010795,"current_range_meters":8000,"station_id":"ce4bhq92rcd13ifvqhjg","pricing_plan_id":"cebpf4jnsgd1na2vs0mg"},{"bike_id":"80ef0bbe-2694-4d57-aa26-0ee82b5cdca4","system_id":"levelo_inurba_marseille","lat":43.32657,"lon":5.40992,"is_reserved":false,"is_disabled":false,"rental_uris":{"android":"levelo://app?vid=80ef0bbe-2694-4d57-aa26-0ee82b5cdca4","ios":"levelo://app?vid=80ef0bbe-2694-4d57-aa26-0ee82b5cdca4"},"vehicle_type_id":"4","last_reported":1727010795,"current_range_meters":39200,"station_id":"ce4bhpp2rcd13ifvqhgg","pricing_plan_id":"cebpf4jnsgd1na2vs0mg"},{"bike_id":"3d5a7d10-6885-4e97-9441-6178460ff2fd","system_id":"levelo_inurba_marseille","lat":43.28609,"lon":5.35103,"is_reserved":false,"is_disabled":false,"rental_uris":{"android":"levelo://app?vid=3d5a7d10-6885-4e97-9441-6178460ff2fd","ios":"levelo://app?vid=3d5a7d10-6885-4e97-9441-6178460ff2fd"},"vehicle_type_id":"4","last_reported":1727010795,"current_range_meters":24800,"station_id":"ce4bhch2rcd13ifvqeug","pricing_plan_id":"cebpf4jnsgd1na2vs0mg"},{"bike_id":"9e1f0187-6215-4047-8750-8c823caecf46","system_id":"levelo_inurba_marseille","lat":43.27991,"lon":5.41658,"is_reserved":false,"is_disabled":false,"rental_uris":{"android":"levelo://app?vid=9e1f0187-6215-4047-8750-8c823caecf46","ios":"levelo://app?vid=9e1f0187-6215-4047-8750-8c823caecf46"},"vehicle_type_id":"4","last_reported":1727010795,"current_range_meters":2000,"station_id":"ce4bho12rcd13ifvqh1g","pricing_plan_id":"cebpf4jnsgd1na2vs0mg"},{"bike_id":"6419325f-76c1-4392-9dbc-8446db0b27c5","system_id":"levelo_inurba_marseille","lat":43.30275,"lon":5.38382,"is_reserved":false,"is_disabled":false,"rental_uris":{"android":"levelo://app?vid=6419325f-76c1-4392-9dbc-8446db0b27c5","ios":"levelo://app?vid=6419325f-76c1-4392-9dbc-8446db0b27c5"},"vehicle_type_id":"4","last_reported":1727010795,"current_range_meters":14800,"station_id":"","pricing_plan_id":"cebpf4jnsgd1na2vs0mg"},{"bike_id":"26094406-db9b-4e8a-aa4c-9995b217cb36","system_id":"levelo_inurba_marseille","lat":43.27606,"lon":5.36115,"is_reserved":false,"is_disabled":false,"rental_uris":{"android":"levelo://app?vid=26094406-db9b-4e8a-aa4c-9995b217cb36","ios":"levelo://app?vid=26094406-db9b-4e8a-aa4c-9995b217cb36"},"vehicle_type_id":"4","last_reported":1727010795,"current_range_meters":38800,"station_id":"ce4bgj92rcd13ifvqbe0","pricing_plan_id":"cebpf4jnsgd1na2vs0mg"},{"bike_id":"2a33a478-d3b2-4782-aa78-29620da9a1a4","system_id":"levelo_inurba_marseille","lat":43.26938,"lon":5.40251,"is_reserved":false,"is_disabled":false,"rental_uris":{"android":"levelo://app?vid=2a33a478-d3b2-4782-aa78-29620da9a1a4","ios":"levelo://app?vid=2a33a478-d3b2-4782-aa78-29620da9a1a4"},"vehicle_type_id":"4","last_reported":1727010795,"current_range_meters":8800,"station_id":"cjm6bp8fraef2m0cb0m0","pricing_plan_id":"cebpf4jnsgd1na2vs0mg"},{"bike_id":"bda83ca7-9798-4a91-9454-79010960b865","system_id":"levelo_inurba_marseille","lat":43.25718,"lon":5.41116,"is_reserved":false,"is_disabled":false,"rental_uris":{"android":"levelo://app?vid=bda83ca7-9798-4a91-9454-79010960b865","ios":"levelo://app?vid=bda83ca7-9798-4a91-9454-79010960b865"},"vehicle_type_id":"4","last_reported":1727010795,"current_range_meters":30400,"station_id":"ce4bhkp2rcd13ifvqgd0","pricing_plan_id":"cebpf4jnsgd1na2vs0mg"},{"bike_id":"edfb1ff5-b81b-4225-8da9-100a9115b1e3","system_id":"levelo_inurba_marseille","lat":43.29735,"lon":5.36561,"is_reserved":false,"is_disabled":false,"rental_uris":{"android":"levelo://app?vid=edfb1ff5-b81b-4225-8da9-100a9115b1e3","ios":"levelo://app?vid=edfb1ff5-b81b-4225-8da9-100a9115b1e3"},"vehicle_type_id":"4","last_reported":1727010795,"current_range_meters":3600,"station_id":"","pricing_plan_id":"cebpf4jnsgd1na2vs0mg"},{"bike_id":"57e2d82a-f557-47d9-b923-e69700e3b6af","system_id":"levelo_inurba_marseille","lat":43.30595,"lon":5.37234,"is_reserved":false,"is_disabled":false,"rental_uris":{"android":"levelo://app?vid=57e2d82a-f557-47d9-b923-e69700e3b6af","ios":"levelo://app?vid=57e2d82a-f557-47d9-b923-e69700e3b6af"},"vehicle_type_id":"4","last_reported":1727010795,"current_range_meters":10000,"station_id":"ce4bgqh2rcd13ifvqc4g","pricing_plan_id":"cebpf4jnsgd1na2vs0mg"},{"bike_id":"ffad191f-99b3-47d9-a749-d894af1c214b","system_id":"levelo_inurba_marseille","lat":43.30798,"lon":5.38166,"is_reserved":false,"is_disabled":false,"rental_uris":{"android":"levelo://app?vid=ffad191f-99b3-47d9-a749-d894af1c214b","ios":"levelo://app?vid=ffad191f-99b3-47d9-a749-d894af1c214b"},"vehicle_type_id":"4","last_reported":1727010795,"current_range_meters":29600,"station_id":"ce4bgt12rcd13ifvqce0","pricing_plan_id":"cebpf4jnsgd1na2vs0mg"},{"bike_id":"659a1cf3-94fe-4b3a-b8ae-406f3f0446d9","system_id":"levelo_inurba_marseille","lat":43.23185,"lon":5.39983,"is_reserved":false,"is_disabled":false,"rental_uris":{"android":"levelo://app?vid=659a1cf3-94fe-4b3a-b8ae-406f3f0446d9","ios":"levelo://app?vid=659a1cf3-94fe-4b3a-b8ae-406f3f0446d9"},"vehicle_type_id":"4","last_reported":1727010795,"current_range_meters":8800,"station_id":"ce4bhn12rcd13ifvqgqg","pricing_plan_id":"cebpf4jnsgd1na2vs0mg"},{"bike_id":"e3e574f8-03c3-454b-85d0-094132ed3477","system_id":"levelo_inurba_marseille","lat":43.22931,"lon":5.35377,"is_reserved":false,"is_disabled":false,"rental_uris":{"android":"levelo://app?vid=e3e574f8-03c3-454b-85d0-094132ed3477","ios":"levelo://app?vid=e3e574f8-03c3-454b-85d0-094132ed3477"},"vehicle_type_id":"4","last_reported":1727010795,"current_range_meters":2000,"station_id":"cpo3532slgdg3j2ikp40","pricing_plan_id":"cebpf4jnsgd1na2vs0mg"},{"bike_id":"59e3381b-216a-46ca-8084-721b434bea95","system_id":"levelo_inurba_marseille","lat":43.2604,"lon":5.37548,"is_reserved":false,"is_disabled":false,"rental_uris":{"android":"levelo://app?vid=59e3381b-216a-46ca-8084-721b434bea95","ios":"levelo://app?vid=59e3381b-216a-46ca-8084-721b434bea95"},"vehicle_type_id":"4","last_reported":1727010795,"current_range_meters":17600,"station_id":"ce4bhgh2rcd13ifvqfa0","pricing_plan_id":"cebpf4jnsgd1na2vs0mg"},{"bike_id":"5bdb79d9-a294-4965-a2e0-db9f6408dec3","system_id":"levelo_inurba_marseille","lat":43.265538,"lon":5.37279,"is_reserved":false,"is_disabled":false,"rental_uris":{"android":"levelo://app?vid=5bdb79d9-a294-4965-a2e0-db9f6408dec3","ios":"levelo://app?vid=5bdb79d9-a294-4965-a2e0-db9f6408dec3"},"vehicle_type_id":"4","last_reported":1727010795,"current_range_meters":4800,"station_id":"ce4bhg12rcd13ifvqf70","pricing_plan_id":"cebpf4jnsgd1na2vs0mg"},{"bike_id":"55bebb5c-52e4-4d89-98be-f6a82338f516","system_id":"levelo_inurba_marseille","lat":43.28149,"lon":5.42639,"is_reserved":false,"is_disabled":false,"rental_uris":{"android":"levelo://app?vid=55bebb5c-52e4-4d89-98be-f6a82338f516","ios":"levelo://app?vid=55bebb5c-52e4-4d89-98be-f6a82338f516"},"vehicle_type_id":"4","last_reported":1727010795,"current_range_meters":11600,"station_id":"ce4bhnh2rcd13ifvqgug","pricing_plan_id":"cebpf4jnsgd1na2vs0mg"},{"bike_id":"1e6bc726-39ad-4f50-aba9-4039cbb2613e","system_id":"levelo_inurba_marseille","lat":43.28615,"lon":5.35104,"is_reserved":false,"is_disabled":false,"rental_uris":{"android":"levelo://app?vid=1e6bc726-39ad-4f50-aba9-4039cbb2613e","ios":"levelo://app?vid=1e6bc726-39ad-4f50-aba9-4039cbb2613e"},"vehicle_type_id":"4","last_reported":1727010795,"current_range_meters":37600,"station_id":"ce4bhch2rcd13ifvqeug","pricing_plan_id":"cebpf4jnsgd1na2vs0mg"},{"bike_id":"f9a95eab-0223-4144-b856-f15596b1d518","system_id":"levelo_inurba_marseille","lat":43.2318,"lon":5.39977,"is_reserved":false,"is_disabled":false,"rental_uris":{"android":"levelo://app?vid=f9a95eab-0223-4144-b856-f15596b1d518","ios":"levelo://app?vid=f9a95eab-0223-4144-b856-f15596b1d518"},"vehicle_type_id":"4","last_reported":1727010795,"current_range_meters":13600,"station_id":"ce4bhn12rcd13ifvqgqg","pricing_plan_id":"cebpf4jnsgd1na2vs0mg"},{"bike_id":"a40b866c-60f5-4712-bded-925409488bd4","system_id":"levelo_inurba_marseille","lat":43.298227,"lon":5.362447,"is_reserved":false,"is_disabled":false,"rental_uris":{"android":"levelo://app?vid=a40b866c-60f5-4712-bded-925409488bd4","ios":"levelo://app?vid=a40b866c-60f5-4712-bded-925409488bd4"},"vehicle_type_id":"4","last_reported":1727010795,"current_range_meters":28000,"station_id":"ce4bgpp2rcd13ifvqc3g","pricing_plan_id":"cebpf4jnsgd1na2vs0mg"},{"bike_id":"5419b1bf-d37c-4076-a34c-52ede101758e","system_id":"levelo_inurba_marseille","lat":43.337444,"lon":5.374475,"is_reserved":false,"is_disabled":false,"rental_uris":{"android":"levelo://app?vid=5419b1bf-d37c-4076-a34c-52ede101758e","ios":"levelo://app?vid=5419b1bf-d37c-4076-a34c-52ede101758e"},"vehicle_type_id":"4","last_reported":1727010795,"current_range_meters":28000,"station_id":"","pricing_plan_id":"cebpf4jnsgd1na2vs0mg"},{"bike_id":"43e67049-781d-4c7e-b6e7-dd14597d7730","system_id":"levelo_inurba_marseille","lat":43.26034,"lon":5.37547,"is_reserved":false,"is_disabled":false,"rental_uris":{"android":"levelo://app?vid=43e67049-781d-4c7e-b6e7-dd14597d7730","ios":"levelo://app?vid=43e67049-781d-4c7e-b6e7-dd14597d7730"},"vehicle_type_id":"4","last_reported":1727010795,"current_range_meters":38800,"station_id":"ce4bhgh2rcd13ifvqfa0","pricing_plan_id":"cebpf4jnsgd1na2vs0mg"},{"bike_id":"aa1af861-5dba-4f40-a1f8-0a76920475ea","system_id":"levelo_inurba_marseille","lat":43.28927,"lon":5.36391,"is_reserved":false,"is_disabled":false,"rental_uris":{"android":"levelo://app?vid=aa1af861-5dba-4f40-a1f8-0a76920475ea","ios":"levelo://app?vid=aa1af861-5dba-4f40-a1f8-0a76920475ea"},"vehicle_type_id":"4","last_reported":1727010795,"current_range_meters":38800,"station_id":"ce4bhc92rcd13ifvqetg","pricing_plan_id":"cebpf4jnsgd1na2vs0mg"},{"bike_id":"870a1f8b-9acd-4417-ad40-456726425e82","system_id":"levelo_inurba_marseille","lat":43.28148,"lon":5.42644,"is_reserved":false,"is_disabled":false,"rental_uris":{"android":"levelo://app?vid=870a1f8b-9acd-4417-ad40-456726425e82","ios":"levelo://app?vid=870a1f8b-9acd-4417-ad40-456726425e82"},"vehicle_type_id":"4","last_reported":1727010795,"current_range_meters":13600,"station_id":"ce4bhnh2rcd13ifvqgug","pricing_plan_id":"cebpf4jnsgd1na2vs0mg"},{"bike_id":"bc08d377-8934-49f9-a16b-d231e67a2261","system_id":"levelo_inurba_marseille","lat":43.2816,"lon":5.42642,"is_reserved":false,"is_disabled":false,"rental_uris":{"android":"levelo://app?vid=bc08d377-8934-49f9-a16b-d231e67a2261","ios":"levelo://app?vid=bc08d377-8934-49f9-a16b-d231e67a2261"},"vehicle_type_id":"4","last_reported":1727010795,"current_range_meters":3200,"station_id":"ce4bhnh2rcd13ifvqgug","pricing_plan_id":"cebpf4jnsgd1na2vs0mg"},{"bike_id":"4f801477-ea18-4ec4-9a8e-7cc278d6526b","system_id":"levelo_inurba_marseille","lat":43.29851,"lon":5.36289,"is_reserved":false,"is_disabled":false,"rental_uris":{"android":"levelo://app?vid=4f801477-ea18-4ec4-9a8e-7cc278d6526b","ios":"levelo://app?vid=4f801477-ea18-4ec4-9a8e-7cc278d6526b"},"vehicle_type_id":"4","last_reported":1727010795,"current_range_meters":8400,"station_id":"ce4bgpp2rcd13ifvqc3g","pricing_plan_id":"cebpf4jnsgd1na2vs0mg"},{"bike_id":"62df0542-c445-4b5e-b006-298ccf191c5a","system_id":"levelo_inurba_marseille","lat":43.26211,"lon":5.37443,"is_reserved":false,"is_disabled":false,"rental_uris":{"android":"levelo://app?vid=62df0542-c445-4b5e-b006-298ccf191c5a","ios":"levelo://app?vid=62df0542-c445-4b5e-b006-298ccf191c5a"},"vehicle_type_id":"4","last_reported":1727010795,"current_range_meters":38800,"station_id":"ce4bhgp2rcd13ifvqfc0","pricing_plan_id":"cebpf4jnsgd1na2vs0mg"},{"bike_id":"1352a40d-466e-4d2c-8cdb-4a76dc219763","system_id":"levelo_inurba_marseille","lat":43.28568,"lon":5.39501,"is_reserved":false,"is_disabled":false,"rental_uris":{"android":"levelo://app?vid=1352a40d-466e-4d2c-8cdb-4a76dc219763","ios":"levelo://app?vid=1352a40d-466e-4d2c-8cdb-4a76dc219763"},"vehicle_type_id":"4","last_reported":1727010795,"current_range_meters":28800,"station_id":"ce4bh292rcd13ifvqdg0","pricing_plan_id":"cebpf4jnsgd1na2vs0mg"},{"bike_id":"711ba74e-2b05-490c-bf5b-88ecd404a46a","system_id":"levelo_inurba_marseille","lat":43.26205,"lon":5.37927,"is_reserved":false,"is_disabled":false,"rental_uris":{"android":"levelo://app?vid=711ba74e-2b05-490c-bf5b-88ecd404a46a","ios":"levelo://app?vid=711ba74e-2b05-490c-bf5b-88ecd404a46a"},"vehicle_type_id":"4","last_reported":1727010795,"current_range_meters":29600,"station_id":"ce4bhjp2rcd13ifvqg90","pricing_plan_id":"cebpf4jnsgd1na2vs0mg"},{"bike_id":"5f970973-f4f4-4937-9fbe-7af0359838f0","system_id":"levelo_inurba_marseille","lat":43.32344,"lon":5.40624,"is_reserved":false,"is_disabled":false,"rental_uris":{"android":"levelo://app?vid=5f970973-f4f4-4937-9fbe-7af0359838f0","ios":"levelo://app?vid=5f970973-f4f4-4937-9fbe-7af0359838f0"},"vehicle_type_id":"4","last_reported":1727010795,"current_range_meters":26000,"station_id":"ce4bhq92rcd13ifvqhjg","pricing_plan_id":"cebpf4jnsgd1na2vs0mg"},{"bike_id":"0a3aeffa-1925-4da0-96f1-7d2f0908f168","system_id":"levelo_inurba_marseille","lat":43.295441,"lon":5.375089,"is_reserved":false,"is_disabled":false,"rental_uris":{"android":"levelo://app?vid=0a3aeffa-1925-4da0-96f1-7d2f0908f168","ios":"levelo://app?vid=0a3aeffa-1925-4da0-96f1-7d2f0908f168"},"vehicle_type_id":"4","last_reported":1727010795,"current_range_meters":8400,"station_id":"ce4bh0h2rcd13ifvqd60","pricing_plan_id":"cebpf4jnsgd1na2vs0mg"},{"bike_id":"763a8251-6798-4ed0-aef6-3ce1f2e4eeac","system_id":"levelo_inurba_marseille","lat":43.28269,"lon":5.35072,"is_reserved":false,"is_disabled":false,"rental_uris":{"android":"levelo://app?vid=763a8251-6798-4ed0-aef6-3ce1f2e4eeac","ios":"levelo://app?vid=763a8251-6798-4ed0-aef6-3ce1f2e4eeac"},"vehicle_type_id":"4","last_reported":1727010795,"current_range_meters":11200,"station_id":"ce4bhbp2rcd13ifvqerg","pricing_plan_id":"cebpf4jnsgd1na2vs0mg"},{"bike_id":"422e3543-f4e4-40ba-bb8a-f4c5a38ac8ef","system_id":"levelo_inurba_marseille","lat":43.29554,"lon":5.42293,"is_reserved":false,"is_disabled":false,"rental_uris":{"android":"levelo://app?vid=422e3543-f4e4-40ba-bb8a-f4c5a38ac8ef","ios":"levelo://app?vid=422e3543-f4e4-40ba-bb8a-f4c5a38ac8ef"},"vehicle_type_id":"4","last_reported":1727010795,"current_range_meters":25200,"station_id":"ce4bhph2rcd13ifvqhdg","pricing_plan_id":"cebpf4jnsgd1na2vs0mg"},{"bike_id":"149779fc-bc45-458a-857f-33707eedaf6a","system_id":"levelo_inurba_marseille","lat":43.23198,"lon":5.35555,"is_reserved":false,"is_disabled":false,"rental_uris":{"android":"levelo://app?vid=149779fc-bc45-458a-857f-33707eedaf6a","ios":"levelo://app?vid=149779fc-bc45-458a-857f-33707eedaf6a"},"vehicle_type_id":"4","last_reported":1727010795,"current_range_meters":15200,"station_id":"ce4bhu92rcd13ifvqi70","pricing_plan_id":"cebpf4jnsgd1na2vs0mg"},{"bike_id":"9347990b-66f8-4274-840c-ec390432edf3","system_id":"levelo_inurba_marseille","lat":43.264923,"lon":5.395412,"is_reserved":false,"is_disabled":false,"rental_uris":{"android":"levelo://app?vid=9347990b-66f8-4274-840c-ec390432edf3","ios":"levelo://app?vid=9347990b-66f8-4274-840c-ec390432edf3"},"vehicle_type_id":"4","last_reported":1727010795,"current_range_meters":14800,"station_id":"ce4bhi12rcd13ifvqfq0","pricing_plan_id":"cebpf4jnsgd1na2vs0mg"},{"bike_id":"96ac29e4-5789-4936-829f-3fc62ccd3f98","system_id":"levelo_inurba_marseille","lat":43.26034,"lon":5.37554,"is_reserved":false,"is_disabled":false,"rental_uris":{"android":"levelo://app?vid=96ac29e4-5789-4936-829f-3fc62ccd3f98","ios":"levelo://app?vid=96ac29e4-5789-4936-829f-3fc62ccd3f98"},"vehicle_type_id":"4","last_reported":1727010795,"current_range_meters":17600,"station_id":"ce4bhgh2rcd13ifvqfa0","pricing_plan_id":"cebpf4jnsgd1na2vs0mg"},{"bike_id":"ef7fee30-a365-442a-93d7-a2f6701189c5","system_id":"levelo_inurba_marseille","lat":43.292825,"lon":5.401132,"is_reserved":false,"is_disabled":false,"rental_uris":{"android":"levelo://app?vid=ef7fee30-a365-442a-93d7-a2f6701189c5","ios":"levelo://app?vid=ef7fee30-a365-442a-93d7-a2f6701189c5"},"vehicle_type_id":"4","last_reported":1727010795,"current_range_meters":26000,"station_id":"ce4bh312rcd13ifvqdk0","pricing_plan_id":"cebpf4jnsgd1na2vs0mg"},{"bike_id":"71f2c47e-1e12-40f1-a7df-cae67ae44794","system_id":"levelo_inurba_marseille","lat":43.31367,"lon":5.38497,"is_reserved":false,"is_disabled":false,"rental_uris":{"android":"levelo://app?vid=71f2c47e-1e12-40f1-a7df-cae67ae44794","ios":"levelo://app?vid=71f2c47e-1e12-40f1-a7df-cae67ae44794"},"vehicle_type_id":"4","last_reported":1727010795,"current_range_meters":38000,"station_id":"ce4bgt92rcd13ifvqcf0","pricing_plan_id":"cebpf4jnsgd1na2vs0mg"},{"bike_id":"7d903340-b844-4bfb-bb1e-f140d594d2c5","system_id":"levelo_inurba_marseille","lat":43.30359,"lon":5.41882,"is_reserved":false,"is_disabled":false,"rental_uris":{"android":"levelo://app?vid=7d903340-b844-4bfb-bb1e-f140d594d2c5","ios":"levelo://app?vid=7d903340-b844-4bfb-bb1e-f140d594d2c5"},"vehicle_type_id":"4","last_reported":1727010795,"current_range_meters":34000,"station_id":"ce4bhop2rcd13ifvqh7g","pricing_plan_id":"cebpf4jnsgd1na2vs0mg"},{"bike_id":"e4901909-9b97-4091-9ac5-1ad48eccd6b4","system_id":"levelo_inurba_marseille","lat":43.27058,"lon":5.4027,"is_reserved":false,"is_disabled":false,"rental_uris":{"android":"levelo://app?vid=e4901909-9b97-4091-9ac5-1ad48eccd6b4","ios":"levelo://app?vid=e4901909-9b97-4091-9ac5-1ad48eccd6b4"},"vehicle_type_id":"4","last_reported":1727010795,"current_range_meters":16400,"station_id":"ce4bhk92rcd13ifvqgc0","pricing_plan_id":"cebpf4jnsgd1na2vs0mg"},{"bike_id":"4573013d-7e28-415d-af57-f5c1176ba6cb","system_id":"levelo_inurba_marseille","lat":43.23965,"lon":5.36629,"is_reserved":false,"is_disabled":false,"rental_uris":{"android":"levelo://app?vid=4573013d-7e28-415d-af57-f5c1176ba6cb","ios":"levelo://app?vid=4573013d-7e28-415d-af57-f5c1176ba6cb"},"vehicle_type_id":"4","last_reported":1727010795,"current_range_meters":34000,"station_id":"ce4bhi12rcd13ifvqfp0","pricing_plan_id":"cebpf4jnsgd1na2vs0mg"},{"bike_id":"a0415180-d419-402f-8af0-8f4a4bcc09c3","system_id":"levelo_inurba_marseille","lat":43.27061,"lon":5.4026,"is_reserved":false,"is_disabled":false,"rental_uris":{"android":"levelo://app?vid=a0415180-d419-402f-8af0-8f4a4bcc09c3","ios":"levelo://app?vid=a0415180-d419-402f-8af0-8f4a4bcc09c3"},"vehicle_type_id":"4","last_reported":1727010795,"current_range_meters":20800,"station_id":"ce4bhk92rcd13ifvqgc0","pricing_plan_id":"cebpf4jnsgd1na2vs0mg"},{"bike_id":"aa2eb0cc-3a23-4a7c-af58-4d36a299df06","system_id":"levelo_inurba_marseille","lat":43.309905,"lon":5.3755,"is_reserved":false,"is_disabled":false,"rental_uris":{"android":"levelo://app?vid=aa2eb0cc-3a23-4a7c-af58-4d36a299df06","ios":"levelo://app?vid=aa2eb0cc-3a23-4a7c-af58-4d36a299df06"},"vehicle_type_id":"4","last_reported":1727010795,"current_range_meters":38800,"station_id":"","pricing_plan_id":"cebpf4jnsgd1na2vs0mg"},{"bike_id":"37b7b2a9-dcf2-4fc6-a477-540fbf633e94","system_id":"levelo_inurba_marseille","lat":43.28704,"lon":5.37954,"is_reserved":false,"is_disabled":false,"rental_uris":{"android":"levelo://app?vid=37b7b2a9-dcf2-4fc6-a477-540fbf633e94","ios":"levelo://app?vid=37b7b2a9-dcf2-4fc6-a477-540fbf633e94"},"vehicle_type_id":"4","last_reported":1727010795,"current_range_meters":26000,"station_id":"ce4bh9p2rcd13ifvqec0","pricing_plan_id":"cebpf4jnsgd1na2vs0mg"},{"bike_id":"e283cc5c-4211-4f27-82bb-730ffb0999b0","system_id":"levelo_inurba_marseille","lat":43.286191,"lon":5.351001,"is_reserved":false,"is_disabled":false,"rental_uris":{"android":"levelo://app?vid=e283cc5c-4211-4f27-82bb-730ffb0999b0","ios":"levelo://app?vid=e283cc5c-4211-4f27-82bb-730ffb0999b0"},"vehicle_type_id":"4","last_reported":1727010795,"current_range_meters":38800,"station_id":"ce4bhch2rcd13ifvqeug","pricing_plan_id":"cebpf4jnsgd1na2vs0mg"},{"bike_id":"303b9d1f-b3a6-452b-aae1-7a302e87a3ad","system_id":"levelo_inurba_marseille","lat":43.27211,"lon":5.39175,"is_reserved":false,"is_disabled":false,"rental_uris":{"android":"levelo://app?vid=303b9d1f-b3a6-452b-aae1-7a302e87a3ad","ios":"levelo://app?vid=303b9d1f-b3a6-452b-aae1-7a302e87a3ad"},"vehicle_type_id":"4","last_reported":1727010795,"current_range_meters":8800,"station_id":"ce4bhhp2rcd13ifvqfm0","pricing_plan_id":"cebpf4jnsgd1na2vs0mg"},{"bike_id":"c750c22f-57e5-44e7-ab11-ab84ef9a0b5e","system_id":"levelo_inurba_marseille","lat":43.23183,"lon":5.39987,"is_reserved":false,"is_disabled":false,"rental_uris":{"android":"levelo://app?vid=c750c22f-57e5-44e7-ab11-ab84ef9a0b5e","ios":"levelo://app?vid=c750c22f-57e5-44e7-ab11-ab84ef9a0b5e"},"vehicle_type_id":"4","last_reported":1727010795,"current_range_meters":12800,"station_id":"ce4bhn12rcd13ifvqgqg","pricing_plan_id":"cebpf4jnsgd1na2vs0mg"},{"bike_id":"d4cd02a2-8196-45a0-ade7-083f2b1cddee","system_id":"levelo_inurba_marseille","lat":43.24182,"lon":5.39711,"is_reserved":false,"is_disabled":false,"rental_uris":{"android":"levelo://app?vid=d4cd02a2-8196-45a0-ade7-083f2b1cddee","ios":"levelo://app?vid=d4cd02a2-8196-45a0-ade7-083f2b1cddee"},"vehicle_type_id":"4","last_reported":1727010795,"current_range_meters":38000,"station_id":"ce4bhn12rcd13ifvqgpg","pricing_plan_id":"cebpf4jnsgd1na2vs0mg"},{"bike_id":"a8d42cf3-65fd-4e73-93d7-47142c435399","system_id":"levelo_inurba_marseille","lat":43.34398,"lon":5.40851,"is_reserved":false,"is_disabled":false,"rental_uris":{"android":"levelo://app?vid=a8d42cf3-65fd-4e73-93d7-47142c435399","ios":"levelo://app?vid=a8d42cf3-65fd-4e73-93d7-47142c435399"},"vehicle_type_id":"4","last_reported":1727010795,"current_range_meters":22000,"station_id":"","pricing_plan_id":"cebpf4jnsgd1na2vs0mg"},{"bike_id":"affeab95-004c-4559-a39d-9d9c7e294ed6","system_id":"levelo_inurba_marseille","lat":43.24179,"lon":5.39735,"is_reserved":false,"is_disabled":false,"rental_uris":{"android":"levelo://app?vid=affeab95-004c-4559-a39d-9d9c7e294ed6","ios":"levelo://app?vid=affeab95-004c-4559-a39d-9d9c7e294ed6"},"vehicle_type_id":"4","last_reported":1727010795,"current_range_meters":39200,"station_id":"ce4bhn12rcd13ifvqgpg","pricing_plan_id":"cebpf4jnsgd1na2vs0mg"},{"bike_id":"d4e4e6be-7965-48e7-b212-ad9dadc37d6c","system_id":"levelo_inurba_marseille","lat":43.30323,"lon":5.40449,"is_reserved":false,"is_disabled":false,"rental_uris":{"android":"levelo://app?vid=d4e4e6be-7965-48e7-b212-ad9dadc37d6c","ios":"levelo://app?vid=d4e4e6be-7965-48e7-b212-ad9dadc37d6c"},"vehicle_type_id":"4","last_reported":1727010795,"current_range_meters":2800,"station_id":"ce4bh012rcd13ifvqd10","pricing_plan_id":"cebpf4jnsgd1na2vs0mg"},{"bike_id":"5fb9931f-4b67-472c-84ca-869c90c9ca71","system_id":"levelo_inurba_marseille","lat":43.28273,"lon":5.35073,"is_reserved":false,"is_disabled":false,"rental_uris":{"android":"levelo://app?vid=5fb9931f-4b67-472c-84ca-869c90c9ca71","ios":"levelo://app?vid=5fb9931f-4b67-472c-84ca-869c90c9ca71"},"vehicle_type_id":"4","last_reported":1727010795,"current_range_meters":24000,"station_id":"ce4bhbp2rcd13ifvqerg","pricing_plan_id":"cebpf4jnsgd1na2vs0mg"},{"bike_id":"488eab58-702a-49ef-b05e-83a9813536ca","system_id":"levelo_inurba_marseille","lat":43.28154,"lon":5.42639,"is_reserved":false,"is_disabled":false,"rental_uris":{"android":"levelo://app?vid=488eab58-702a-49ef-b05e-83a9813536ca","ios":"levelo://app?vid=488eab58-702a-49ef-b05e-83a9813536ca"},"vehicle_type_id":"4","last_reported":1727010795,"current_range_meters":35600,"station_id":"ce4bhnh2rcd13ifvqgug","pricing_plan_id":"cebpf4jnsgd1na2vs0mg"},{"bike_id":"eb0e566e-7d71-4cc0-bc76-de33a9fd73a8","system_id":"levelo_inurba_marseille","lat":43.2319,"lon":5.35546,"is_reserved":false,"is_disabled":false,"rental_uris":{"android":"levelo://app?vid=eb0e566e-7d71-4cc0-bc76-de33a9fd73a8","ios":"levelo://app?vid=eb0e566e-7d71-4cc0-bc76-de33a9fd73a8"},"vehicle_type_id":"4","last_reported":1727010795,"current_range_meters":36800,"station_id":"ce4bhu92rcd13ifvqi70","pricing_plan_id":"cebpf4jnsgd1na2vs0mg"},{"bike_id":"2908de98-fbff-4b2f-9ed7-50b349833b64","system_id":"levelo_inurba_marseille","lat":43.29583,"lon":5.3674,"is_reserved":false,"is_disabled":false,"rental_uris":{"android":"levelo://app?vid=2908de98-fbff-4b2f-9ed7-50b349833b64","ios":"levelo://app?vid=2908de98-fbff-4b2f-9ed7-50b349833b64"},"vehicle_type_id":"4","last_reported":1727010795,"current_range_meters":29600,"station_id":"ce4bgph2rcd13ifvqc2g","pricing_plan_id":"cebpf4jnsgd1na2vs0mg"},{"bike_id":"a54e2ec9-d7bf-48d2-8fbb-5d27d59dae53","system_id":"levelo_inurba_marseille","lat":43.2827,"lon":5.35068,"is_reserved":false,"is_disabled":false,"rental_uris":{"android":"levelo://app?vid=a54e2ec9-d7bf-48d2-8fbb-5d27d59dae53","ios":"levelo://app?vid=a54e2ec9-d7bf-48d2-8fbb-5d27d59dae53"},"vehicle_type_id":"4","last_reported":1727010795,"current_range_meters":38800,"station_id":"ce4bhbp2rcd13ifvqerg","pricing_plan_id":"cebpf4jnsgd1na2vs0mg"},{"bike_id":"2e96cd48-b297-4d5c-a0ee-4b537531d7ef","system_id":"levelo_inurba_marseille","lat":43.31116,"lon":5.37765,"is_reserved":false,"is_disabled":false,"rental_uris":{"android":"levelo://app?vid=2e96cd48-b297-4d5c-a0ee-4b537531d7ef","ios":"levelo://app?vid=2e96cd48-b297-4d5c-a0ee-4b537531d7ef"},"vehicle_type_id":"4","last_reported":1727010795,"current_range_meters":32800,"station_id":"ce4bgt92rcd13ifvqcg0","pricing_plan_id":"cebpf4jnsgd1na2vs0mg"},{"bike_id":"1a13f509-f3d4-4786-86bf-2b917ceaea9f","system_id":"levelo_inurba_marseille","lat":43.24548,"lon":5.39524,"is_reserved":false,"is_disabled":false,"rental_uris":{"android":"levelo://app?vid=1a13f509-f3d4-4786-86bf-2b917ceaea9f","ios":"levelo://app?vid=1a13f509-f3d4-4786-86bf-2b917ceaea9f"},"vehicle_type_id":"4","last_reported":1727010795,"current_range_meters":34000,"station_id":"ce4bhlp2rcd13ifvqgjg","pricing_plan_id":"cebpf4jnsgd1na2vs0mg"},{"bike_id":"a7a2630d-54d4-495a-8506-d0472b9b9a1a","system_id":"levelo_inurba_marseille","lat":43.29557,"lon":5.42288,"is_reserved":false,"is_disabled":false,"rental_uris":{"android":"levelo://app?vid=a7a2630d-54d4-495a-8506-d0472b9b9a1a","ios":"levelo://app?vid=a7a2630d-54d4-495a-8506-d0472b9b9a1a"},"vehicle_type_id":"4","last_reported":1727010795,"current_range_meters":38800,"station_id":"ce4bhph2rcd13ifvqhdg","pricing_plan_id":"cebpf4jnsgd1na2vs0mg"},{"bike_id":"10a45a83-6a02-46f7-9db3-35edfba1d9bf","system_id":"levelo_inurba_marseille","lat":43.24395,"lon":5.37063,"is_reserved":false,"is_disabled":false,"rental_uris":{"android":"levelo://app?vid=10a45a83-6a02-46f7-9db3-35edfba1d9bf","ios":"levelo://app?vid=10a45a83-6a02-46f7-9db3-35edfba1d9bf"},"vehicle_type_id":"4","last_reported":1727010795,"current_range_meters":24000,"station_id":"ce4bhhh2rcd13ifvqfk0","pricing_plan_id":"cebpf4jnsgd1na2vs0mg"},{"bike_id":"390f465c-4582-4385-a89c-ec5fb06c9a8d","system_id":"levelo_inurba_marseille","lat":43.30537,"lon":5.36546,"is_reserved":false,"is_disabled":false,"rental_uris":{"android":"levelo://app?vid=390f465c-4582-4385-a89c-ec5fb06c9a8d","ios":"levelo://app?vid=390f465c-4582-4385-a89c-ec5fb06c9a8d"},"vehicle_type_id":"4","last_reported":1727010795,"current_range_meters":29600,"station_id":"ce4bgs12rcd13ifvqcag","pricing_plan_id":"cebpf4jnsgd1na2vs0mg"},{"bike_id":"7b9dd459-340b-4978-bfb0-6c163a5263e8","system_id":"levelo_inurba_marseille","lat":43.2319,"lon":5.35548,"is_reserved":false,"is_disabled":false,"rental_uris":{"android":"levelo://app?vid=7b9dd459-340b-4978-bfb0-6c163a5263e8","ios":"levelo://app?vid=7b9dd459-340b-4978-bfb0-6c163a5263e8"},"vehicle_type_id":"4","last_reported":1727010795,"current_range_meters":39200,"station_id":"ce4bhu92rcd13ifvqi70","pricing_plan_id":"cebpf4jnsgd1na2vs0mg"},{"bike_id":"e5f294e4-6e62-4060-a77c-c96427efc510","system_id":"levelo_inurba_marseille","lat":43.273642,"lon":5.362501,"is_reserved":false,"is_disabled":false,"rental_uris":{"android":"levelo://app?vid=e5f294e4-6e62-4060-a77c-c96427efc510","ios":"levelo://app?vid=e5f294e4-6e62-4060-a77c-c96427efc510"},"vehicle_type_id":"4","last_reported":1727010795,"current_range_meters":38800,"station_id":"ce4bhbh2rcd13ifvqeo0","pricing_plan_id":"cebpf4jnsgd1na2vs0mg"},{"bike_id":"5c535030-8430-4bf5-ba45-bff433db57e5","system_id":"levelo_inurba_marseille","lat":43.29003,"lon":5.35608,"is_reserved":false,"is_disabled":false,"rental_uris":{"android":"levelo://app?vid=5c535030-8430-4bf5-ba45-bff433db57e5","ios":"levelo://app?vid=5c535030-8430-4bf5-ba45-bff433db57e5"},"vehicle_type_id":"4","last_reported":1727010795,"current_range_meters":1200,"station_id":"ce4bhb12rcd13ifvqel0","pricing_plan_id":"cebpf4jnsgd1na2vs0mg"},{"bike_id":"0e1dc82c-7d5b-407b-b9e7-aefc01444c33","system_id":"levelo_inurba_marseille","lat":43.25002,"lon":5.38915,"is_reserved":false,"is_disabled":false,"rental_uris":{"android":"levelo://app?vid=0e1dc82c-7d5b-407b-b9e7-aefc01444c33","ios":"levelo://app?vid=0e1dc82c-7d5b-407b-b9e7-aefc01444c33"},"vehicle_type_id":"4","last_reported":1727010795,"current_range_meters":17200,"station_id":"ce4bhgp2rcd13ifvqfd0","pricing_plan_id":"cebpf4jnsgd1na2vs0mg"},{"bike_id":"d24a8c2e-8cbc-490f-8952-e43fa0b426ac","system_id":"levelo_inurba_marseille","lat":43.28729,"lon":5.36085,"is_reserved":false,"is_disabled":false,"rental_uris":{"android":"levelo://app?vid=d24a8c2e-8cbc-490f-8952-e43fa0b426ac","ios":"levelo://app?vid=d24a8c2e-8cbc-490f-8952-e43fa0b426ac"},"vehicle_type_id":"4","last_reported":1727010795,"current_range_meters":32000,"station_id":"cki0cbj6b192h4jlfktg","pricing_plan_id":"cebpf4jnsgd1na2vs0mg"},{"bike_id":"71aa8592-ddf7-4343-aed4-c00d3433340f","system_id":"levelo_inurba_marseille","lat":43.337444,"lon":5.374475,"is_reserved":false,"is_disabled":false,"rental_uris":{"android":"levelo://app?vid=71aa8592-ddf7-4343-aed4-c00d3433340f","ios":"levelo://app?vid=71aa8592-ddf7-4343-aed4-c00d3433340f"},"vehicle_type_id":"4","last_reported":1727010795,"current_range_meters":31200,"station_id":"","pricing_plan_id":"cebpf4jnsgd1na2vs0mg"},{"bike_id":"3740c6df-06cd-419b-9ae6-b8d9e5eff548","system_id":"levelo_inurba_marseille","lat":43.2753,"lon":5.40935,"is_reserved":false,"is_disabled":false,"rental_uris":{"android":"levelo://app?vid=3740c6df-06cd-419b-9ae6-b8d9e5eff548","ios":"levelo://app?vid=3740c6df-06cd-419b-9ae6-b8d9e5eff548"},"vehicle_type_id":"4","last_reported":1727010795,"current_range_meters":13600,"station_id":"","pricing_plan_id":"cebpf4jnsgd1na2vs0mg"},{"bike_id":"31658fd6-ebcb-4de6-9105-d4aab3b83871","system_id":"levelo_inurba_marseille","lat":43.29226,"lon":5.36072,"is_reserved":false,"is_disabled":false,"rental_uris":{"android":"levelo://app?vid=31658fd6-ebcb-4de6-9105-d4aab3b83871","ios":"levelo://app?vid=31658fd6-ebcb-4de6-9105-d4aab3b83871"},"vehicle_type_id":"4","last_reported":1727010795,"current_range_meters":35600,"station_id":"ce4bhbh2rcd13ifvqeqg","pricing_plan_id":"cebpf4jnsgd1na2vs0mg"},{"bike_id":"54874dcd-47ff-4f32-930a-b043169b6fab","system_id":"levelo_inurba_marseille","lat":43.33605,"lon":5.41022,"is_reserved":false,"is_disabled":false,"rental_uris":{"android":"levelo://app?vid=54874dcd-47ff-4f32-930a-b043169b6fab","ios":"levelo://app?vid=54874dcd-47ff-4f32-930a-b043169b6fab"},"vehicle_type_id":"4","last_reported":1727010795,"current_range_meters":33600,"station_id":"ce4bhqh2rcd13ifvqhmg","pricing_plan_id":"cebpf4jnsgd1na2vs0mg"},{"bike_id":"e5b44660-296f-45c1-8506-fde6078f41ef","system_id":"levelo_inurba_marseille","lat":43.270355,"lon":5.364158,"is_reserved":false,"is_disabled":false,"rental_uris":{"android":"levelo://app?vid=e5b44660-296f-45c1-8506-fde6078f41ef","ios":"levelo://app?vid=e5b44660-296f-45c1-8506-fde6078f41ef"},"vehicle_type_id":"4","last_reported":1727010795,"current_range_meters":15200,"station_id":"","pricing_plan_id":"cebpf4jnsgd1na2vs0mg"},{"bike_id":"7f0c3fbe-61ea-4ddd-ba03-1a95f1d24780","system_id":"levelo_inurba_marseille","lat":43.273688,"lon":5.362537,"is_reserved":false,"is_disabled":false,"rental_uris":{"android":"levelo://app?vid=7f0c3fbe-61ea-4ddd-ba03-1a95f1d24780","ios":"levelo://app?vid=7f0c3fbe-61ea-4ddd-ba03-1a95f1d24780"},"vehicle_type_id":"4","last_reported":1727010795,"current_range_meters":22400,"station_id":"ce4bhbh2rcd13ifvqeo0","pricing_plan_id":"cebpf4jnsgd1na2vs0mg"},{"bike_id":"eddd7a12-660b-4324-b329-3264fc118628","system_id":"levelo_inurba_marseille","lat":43.29226,"lon":5.36076,"is_reserved":false,"is_disabled":false,"rental_uris":{"android":"levelo://app?vid=eddd7a12-660b-4324-b329-3264fc118628","ios":"levelo://app?vid=eddd7a12-660b-4324-b329-3264fc118628"},"vehicle_type_id":"4","last_reported":1727010795,"current_range_meters":36800,"station_id":"ce4bhbh2rcd13ifvqeqg","pricing_plan_id":"cebpf4jnsgd1na2vs0mg"},{"bike_id":"587b7091-1fcd-4c6f-a820-801ebabc18cc","system_id":"levelo_inurba_marseille","lat":43.29845,"lon":5.3627,"is_reserved":false,"is_disabled":false,"rental_uris":{"android":"levelo://app?vid=587b7091-1fcd-4c6f-a820-801ebabc18cc","ios":"levelo://app?vid=587b7091-1fcd-4c6f-a820-801ebabc18cc"},"vehicle_type_id":"4","last_reported":1727010795,"current_range_meters":30800,"station_id":"ce4bgpp2rcd13ifvqc3g","pricing_plan_id":"cebpf4jnsgd1na2vs0mg"},{"bike_id":"3e7d9d59-3887-45fa-b0f9-325d7b15244d","system_id":"levelo_inurba_marseille","lat":43.2318,"lon":5.39979,"is_reserved":false,"is_disabled":false,"rental_uris":{"android":"levelo://app?vid=3e7d9d59-3887-45fa-b0f9-325d7b15244d","ios":"levelo://app?vid=3e7d9d59-3887-45fa-b0f9-325d7b15244d"},"vehicle_type_id":"4","last_reported":1727010795,"current_range_meters":6400,"station_id":"ce4bhn12rcd13ifvqgqg","pricing_plan_id":"cebpf4jnsgd1na2vs0mg"},{"bike_id":"0a533487-a6ec-4633-9f1c-0ce6ae6783a7","system_id":"levelo_inurba_marseille","lat":43.25008,"lon":5.38917,"is_reserved":false,"is_disabled":false,"rental_uris":{"android":"levelo://app?vid=0a533487-a6ec-4633-9f1c-0ce6ae6783a7","ios":"levelo://app?vid=0a533487-a6ec-4633-9f1c-0ce6ae6783a7"},"vehicle_type_id":"4","last_reported":1727010795,"current_range_meters":38400,"station_id":"ce4bhgp2rcd13ifvqfd0","pricing_plan_id":"cebpf4jnsgd1na2vs0mg"},{"bike_id":"00e33d21-5481-4e03-abfd-ea443517ac83","system_id":"levelo_inurba_marseille","lat":43.28619,"lon":5.35111,"is_reserved":false,"is_disabled":false,"rental_uris":{"android":"levelo://app?vid=00e33d21-5481-4e03-abfd-ea443517ac83","ios":"levelo://app?vid=00e33d21-5481-4e03-abfd-ea443517ac83"},"vehicle_type_id":"4","last_reported":1727010795,"current_range_meters":32000,"station_id":"ce4bhch2rcd13ifvqeug","pricing_plan_id":"cebpf4jnsgd1na2vs0mg"},{"bike_id":"f03bc9d0-69cf-4d10-966c-d86ea4a9639c","system_id":"levelo_inurba_marseille","lat":43.28266,"lon":5.35067,"is_reserved":false,"is_disabled":false,"rental_uris":{"android":"levelo://app?vid=f03bc9d0-69cf-4d10-966c-d86ea4a9639c","ios":"levelo://app?vid=f03bc9d0-69cf-4d10-966c-d86ea4a9639c"},"vehicle_type_id":"4","last_reported":1727010795,"current_range_meters":22800,"station_id":"ce4bhbp2rcd13ifvqerg","pricing_plan_id":"cebpf4jnsgd1na2vs0mg"},{"bike_id":"34bac9de-afcc-485f-a901-124a385dd441","system_id":"levelo_inurba_marseille","lat":43.24541,"lon":5.39527,"is_reserved":false,"is_disabled":false,"rental_uris":{"android":"levelo://app?vid=34bac9de-afcc-485f-a901-124a385dd441","ios":"levelo://app?vid=34bac9de-afcc-485f-a901-124a385dd441"},"vehicle_type_id":"4","last_reported":1727010795,"current_range_meters":38400,"station_id":"ce4bhlp2rcd13ifvqgjg","pricing_plan_id":"cebpf4jnsgd1na2vs0mg"},{"bike_id":"1575e777-51f8-479e-bd95-714cef91a125","system_id":"levelo_inurba_marseille","lat":43.24178,"lon":5.39709,"is_reserved":false,"is_disabled":false,"rental_uris":{"android":"levelo://app?vid=1575e777-51f8-479e-bd95-714cef91a125","ios":"levelo://app?vid=1575e777-51f8-479e-bd95-714cef91a125"},"vehicle_type_id":"4","last_reported":1727010795,"current_range_meters":26800,"station_id":"ce4bhn12rcd13ifvqgpg","pricing_plan_id":"cebpf4jnsgd1na2vs0mg"},{"bike_id":"4693ef29-68a5-4ad0-8d2a-6e064a3affc5","system_id":"levelo_inurba_marseille","lat":43.28269,"lon":5.35075,"is_reserved":false,"is_disabled":false,"rental_uris":{"android":"levelo://app?vid=4693ef29-68a5-4ad0-8d2a-6e064a3affc5","ios":"levelo://app?vid=4693ef29-68a5-4ad0-8d2a-6e064a3affc5"},"vehicle_type_id":"4","last_reported":1727010795,"current_range_meters":38800,"station_id":"ce4bhbp2rcd13ifvqerg","pricing_plan_id":"cebpf4jnsgd1na2vs0mg"},{"bike_id":"9ccabcf0-d8c8-4452-a354-45bd651704ab","system_id":"levelo_inurba_marseille","lat":43.23969,"lon":5.36633,"is_reserved":false,"is_disabled":false,"rental_uris":{"android":"levelo://app?vid=9ccabcf0-d8c8-4452-a354-45bd651704ab","ios":"levelo://app?vid=9ccabcf0-d8c8-4452-a354-45bd651704ab"},"vehicle_type_id":"4","last_reported":1727010795,"current_range_meters":10800,"station_id":"ce4bhi12rcd13ifvqfp0","pricing_plan_id":"cebpf4jnsgd1na2vs0mg"},{"bike_id":"742fe014-1f5e-499c-bbc5-66a0cbb87904","system_id":"levelo_inurba_marseille","lat":43.23195,"lon":5.35551,"is_reserved":false,"is_disabled":false,"rental_uris":{"android":"levelo://app?vid=742fe014-1f5e-499c-bbc5-66a0cbb87904","ios":"levelo://app?vid=742fe014-1f5e-499c-bbc5-66a0cbb87904"},"vehicle_type_id":"4","last_reported":1727010795,"current_range_meters":33600,"station_id":"ce4bhu92rcd13ifvqi70","pricing_plan_id":"cebpf4jnsgd1na2vs0mg"},{"bike_id":"2fc02b85-81fe-454d-9328-676fe85a7d3f","system_id":"levelo_inurba_marseille","lat":43.29219,"lon":5.36049,"is_reserved":false,"is_disabled":false,"rental_uris":{"android":"levelo://app?vid=2fc02b85-81fe-454d-9328-676fe85a7d3f","ios":"levelo://app?vid=2fc02b85-81fe-454d-9328-676fe85a7d3f"},"vehicle_type_id":"4","last_reported":1727010795,"current_range_meters":38000,"station_id":"ce4bhbh2rcd13ifvqeqg","pricing_plan_id":"cebpf4jnsgd1na2vs0mg"},{"bike_id":"885eb9fd-e64e-4dcf-b796-e74b9bc20997","system_id":"levelo_inurba_marseille","lat":43.27922,"lon":5.39571,"is_reserved":false,"is_disabled":false,"rental_uris":{"android":"levelo://app?vid=885eb9fd-e64e-4dcf-b796-e74b9bc20997","ios":"levelo://app?vid=885eb9fd-e64e-4dcf-b796-e74b9bc20997"},"vehicle_type_id":"4","last_reported":1727010795,"current_range_meters":36400,"station_id":"ce4bhf92rcd13ifvqf40","pricing_plan_id":"cebpf4jnsgd1na2vs0mg"},{"bike_id":"b2dca0f7-6f71-440c-aac5-09ec8caaaa1a","system_id":"levelo_inurba_marseille","lat":43.320398,"lon":5.415607,"is_reserved":false,"is_disabled":false,"rental_uris":{"android":"levelo://app?vid=b2dca0f7-6f71-440c-aac5-09ec8caaaa1a","ios":"levelo://app?vid=b2dca0f7-6f71-440c-aac5-09ec8caaaa1a"},"vehicle_type_id":"4","last_reported":1727010795,"current_range_meters":11200,"station_id":"ce4bhq92rcd13ifvqhkg","pricing_plan_id":"cebpf4jnsgd1na2vs0mg"},{"bike_id":"ae9677c9-ff37-4002-8895-b1861fea2a54","system_id":"levelo_inurba_marseille","lat":43.28155,"lon":5.42645,"is_reserved":false,"is_disabled":false,"rental_uris":{"android":"levelo://app?vid=ae9677c9-ff37-4002-8895-b1861fea2a54","ios":"levelo://app?vid=ae9677c9-ff37-4002-8895-b1861fea2a54"},"vehicle_type_id":"4","last_reported":1727010795,"current_range_meters":8000,"station_id":"ce4bhnh2rcd13ifvqgug","pricing_plan_id":"cebpf4jnsgd1na2vs0mg"},{"bike_id":"feb42740-c719-4916-9efa-d99f861e0e6d","system_id":"levelo_inurba_marseille","lat":43.32481,"lon":5.36578,"is_reserved":false,"is_disabled":false,"rental_uris":{"android":"levelo://app?vid=feb42740-c719-4916-9efa-d99f861e0e6d","ios":"levelo://app?vid=feb42740-c719-4916-9efa-d99f861e0e6d"},"vehicle_type_id":"4","last_reported":1727010795,"current_range_meters":36000,"station_id":"ce4bhs12rcd13ifvqhvg","pricing_plan_id":"cebpf4jnsgd1na2vs0mg"},{"bike_id":"11282fbe-dacc-4e48-b70f-bf106b05d87f","system_id":"levelo_inurba_marseille","lat":43.29229,"lon":5.36074,"is_reserved":false,"is_disabled":false,"rental_uris":{"android":"levelo://app?vid=11282fbe-dacc-4e48-b70f-bf106b05d87f","ios":"levelo://app?vid=11282fbe-dacc-4e48-b70f-bf106b05d87f"},"vehicle_type_id":"4","last_reported":1727010795,"current_range_meters":34000,"station_id":"ce4bhbh2rcd13ifvqeqg","pricing_plan_id":"cebpf4jnsgd1na2vs0mg"},{"bike_id":"fceb5afb-6f4c-4308-aac4-3d8de88878ef","system_id":"levelo_inurba_marseille","lat":43.24076,"lon":5.37759,"is_reserved":false,"is_disabled":false,"rental_uris":{"android":"levelo://app?vid=fceb5afb-6f4c-4308-aac4-3d8de88878ef","ios":"levelo://app?vid=fceb5afb-6f4c-4308-aac4-3d8de88878ef"},"vehicle_type_id":"4","last_reported":1727010795,"current_range_meters":29600,"station_id":"ce4bhnp2rcd13ifvqgvg","pricing_plan_id":"cebpf4jnsgd1na2vs0mg"},{"bike_id":"4d3c6dd7-63b1-4ab6-9d0e-095824115dea","system_id":"levelo_inurba_marseille","lat":43.28269,"lon":5.35073,"is_reserved":false,"is_disabled":false,"rental_uris":{"android":"levelo://app?vid=4d3c6dd7-63b1-4ab6-9d0e-095824115dea","ios":"levelo://app?vid=4d3c6dd7-63b1-4ab6-9d0e-095824115dea"},"vehicle_type_id":"4","last_reported":1727010795,"current_range_meters":20400,"station_id":"ce4bhbp2rcd13ifvqerg","pricing_plan_id":"cebpf4jnsgd1na2vs0mg"},{"bike_id":"ce7fee22-4f1e-4037-8c27-e94289213ba7","system_id":"levelo_inurba_marseille","lat":43.24806,"lon":5.3745,"is_reserved":false,"is_disabled":false,"rental_uris":{"android":"levelo://app?vid=ce7fee22-4f1e-4037-8c27-e94289213ba7","ios":"levelo://app?vid=ce7fee22-4f1e-4037-8c27-e94289213ba7"},"vehicle_type_id":"4","last_reported":1727010795,"current_range_meters":26000,"station_id":"ce4bhgh2rcd13ifvqfb0","pricing_plan_id":"cebpf4jnsgd1na2vs0mg"},{"bike_id":"6e793def-70c3-4898-88e9-cb21c07de165","system_id":"levelo_inurba_marseille","lat":43.28269,"lon":5.35078,"is_reserved":false,"is_disabled":false,"rental_uris":{"android":"levelo://app?vid=6e793def-70c3-4898-88e9-cb21c07de165","ios":"levelo://app?vid=6e793def-70c3-4898-88e9-cb21c07de165"},"vehicle_type_id":"4","last_reported":1727010795,"current_range_meters":39200,"station_id":"ce4bhbp2rcd13ifvqerg","pricing_plan_id":"cebpf4jnsgd1na2vs0mg"},{"bike_id":"fce734b4-6c36-4cb6-983c-c95238702258","system_id":"levelo_inurba_marseille","lat":43.31074,"lon":5.38115,"is_reserved":false,"is_disabled":false,"rental_uris":{"android":"levelo://app?vid=fce734b4-6c36-4cb6-983c-c95238702258","ios":"levelo://app?vid=fce734b4-6c36-4cb6-983c-c95238702258"},"vehicle_type_id":"4","last_reported":1727010795,"current_range_meters":12400,"station_id":"","pricing_plan_id":"cebpf4jnsgd1na2vs0mg"},{"bike_id":"ab164393-cd31-4221-b165-f26296d40d00","system_id":"levelo_inurba_marseille","lat":43.31081,"lon":5.42427,"is_reserved":false,"is_disabled":false,"rental_uris":{"android":"levelo://app?vid=ab164393-cd31-4221-b165-f26296d40d00","ios":"levelo://app?vid=ab164393-cd31-4221-b165-f26296d40d00"},"vehicle_type_id":"4","last_reported":1727010795,"current_range_meters":10000,"station_id":"ce4bhp92rcd13ifvqhag","pricing_plan_id":"cebpf4jnsgd1na2vs0mg"},{"bike_id":"edb05c20-08d6-4035-8d7b-74480b01a075","system_id":"levelo_inurba_marseille","lat":43.254956,"lon":5.3765,"is_reserved":false,"is_disabled":false,"rental_uris":{"android":"levelo://app?vid=edb05c20-08d6-4035-8d7b-74480b01a075","ios":"levelo://app?vid=edb05c20-08d6-4035-8d7b-74480b01a075"},"vehicle_type_id":"4","last_reported":1727010795,"current_range_meters":36800,"station_id":"ce4bhh12rcd13ifvqff0","pricing_plan_id":"cebpf4jnsgd1na2vs0mg"},{"bike_id":"28d369e6-c26d-4625-8116-77a70556014c","system_id":"levelo_inurba_marseille","lat":43.290336,"lon":5.386464,"is_reserved":false,"is_disabled":false,"rental_uris":{"android":"levelo://app?vid=28d369e6-c26d-4625-8116-77a70556014c","ios":"levelo://app?vid=28d369e6-c26d-4625-8116-77a70556014c"},"vehicle_type_id":"4","last_reported":1727010795,"current_range_meters":24800,"station_id":"ce4bh4p2rcd13ifvqe0g","pricing_plan_id":"cebpf4jnsgd1na2vs0mg"},{"bike_id":"b7413d86-639c-4d69-b667-3a428978d70e","system_id":"levelo_inurba_marseille","lat":43.31903,"lon":5.40759,"is_reserved":false,"is_disabled":false,"rental_uris":{"android":"levelo://app?vid=b7413d86-639c-4d69-b667-3a428978d70e","ios":"levelo://app?vid=b7413d86-639c-4d69-b667-3a428978d70e"},"vehicle_type_id":"4","last_reported":1727010795,"current_range_meters":38800,"station_id":"ce4bhq12rcd13ifvqhig","pricing_plan_id":"cebpf4jnsgd1na2vs0mg"},{"bike_id":"f74941be-f473-4ce7-9230-0799526567ae","system_id":"levelo_inurba_marseille","lat":43.23196,"lon":5.35549,"is_reserved":false,"is_disabled":false,"rental_uris":{"android":"levelo://app?vid=f74941be-f473-4ce7-9230-0799526567ae","ios":"levelo://app?vid=f74941be-f473-4ce7-9230-0799526567ae"},"vehicle_type_id":"4","last_reported":1727010795,"current_range_meters":38400,"station_id":"ce4bhu92rcd13ifvqi70","pricing_plan_id":"cebpf4jnsgd1na2vs0mg"},{"bike_id":"acca089d-1d6d-4e5c-a2df-ec71be36f336","system_id":"levelo_inurba_marseille","lat":43.29931,"lon":5.36532,"is_reserved":false,"is_disabled":false,"rental_uris":{"android":"levelo://app?vid=acca089d-1d6d-4e5c-a2df-ec71be36f336","ios":"levelo://app?vid=acca089d-1d6d-4e5c-a2df-ec71be36f336"},"vehicle_type_id":"4","last_reported":1727010795,"current_range_meters":31200,"station_id":"ce4bgm92rcd13ifvqbr0","pricing_plan_id":"cebpf4jnsgd1na2vs0mg"},{"bike_id":"20d9c79a-b949-4778-8b2f-2853bda38ba5","system_id":"levelo_inurba_marseille","lat":43.25496,"lon":5.37649,"is_reserved":false,"is_disabled":false,"rental_uris":{"android":"levelo://app?vid=20d9c79a-b949-4778-8b2f-2853bda38ba5","ios":"levelo://app?vid=20d9c79a-b949-4778-8b2f-2853bda38ba5"},"vehicle_type_id":"4","last_reported":1727010795,"current_range_meters":24400,"station_id":"ce4bhh12rcd13ifvqff0","pricing_plan_id":"cebpf4jnsgd1na2vs0mg"},{"bike_id":"c11073aa-42e1-4b12-a364-21c4083dd6e5","system_id":"levelo_inurba_marseille","lat":43.2862,"lon":5.35105,"is_reserved":false,"is_disabled":false,"rental_uris":{"android":"levelo://app?vid=c11073aa-42e1-4b12-a364-21c4083dd6e5","ios":"levelo://app?vid=c11073aa-42e1-4b12-a364-21c4083dd6e5"},"vehicle_type_id":"4","last_reported":1727010795,"current_range_meters":25600,"station_id":"ce4bhch2rcd13ifvqeug","pricing_plan_id":"cebpf4jnsgd1na2vs0mg"},{"bike_id":"729dc18d-4760-4906-bebc-b38174cf9c5e","system_id":"levelo_inurba_marseille","lat":43.28619,"lon":5.35109,"is_reserved":false,"is_disabled":false,"rental_uris":{"android":"levelo://app?vid=729dc18d-4760-4906-bebc-b38174cf9c5e","ios":"levelo://app?vid=729dc18d-4760-4906-bebc-b38174cf9c5e"},"vehicle_type_id":"4","last_reported":1727010795,"current_range_meters":26800,"station_id":"ce4bhch2rcd13ifvqeug","pricing_plan_id":"cebpf4jnsgd1na2vs0mg"},{"bike_id":"0627b34f-602b-4e9f-9173-6a0db2df6742","system_id":"levelo_inurba_marseille","lat":43.316864,"lon":5.404907,"is_reserved":false,"is_disabled":false,"rental_uris":{"android":"levelo://app?vid=0627b34f-602b-4e9f-9173-6a0db2df6742","ios":"levelo://app?vid=0627b34f-602b-4e9f-9173-6a0db2df6742"},"vehicle_type_id":"4","last_reported":1727010795,"current_range_meters":29600,"station_id":"ce4bh012rcd13ifvqd00","pricing_plan_id":"cebpf4jnsgd1na2vs0mg"},{"bike_id":"aaf7f3b8-062d-4e81-b779-72c00ba9a31a","system_id":"levelo_inurba_marseille","lat":43.30537,"lon":5.36532,"is_reserved":false,"is_disabled":false,"rental_uris":{"android":"levelo://app?vid=aaf7f3b8-062d-4e81-b779-72c00ba9a31a","ios":"levelo://app?vid=aaf7f3b8-062d-4e81-b779-72c00ba9a31a"},"vehicle_type_id":"4","last_reported":1727010795,"current_range_meters":38000,"station_id":"ce4bgs12rcd13ifvqcag","pricing_plan_id":"cebpf4jnsgd1na2vs0mg"},{"bike_id":"ce63bca5-bae6-4a79-ad67-ba4dd2939ab0","system_id":"levelo_inurba_marseille","lat":43.292297,"lon":5.360488,"is_reserved":false,"is_disabled":false,"rental_uris":{"android":"levelo://app?vid=ce63bca5-bae6-4a79-ad67-ba4dd2939ab0","ios":"levelo://app?vid=ce63bca5-bae6-4a79-ad67-ba4dd2939ab0"},"vehicle_type_id":"4","last_reported":1727010795,"current_range_meters":38800,"station_id":"ce4bhbh2rcd13ifvqeqg","pricing_plan_id":"cebpf4jnsgd1na2vs0mg"},{"bike_id":"39a67cac-e07a-41b0-bcc1-63b7f553b04c","system_id":"levelo_inurba_marseille","lat":43.28457,"lon":5.35886,"is_reserved":false,"is_disabled":false,"rental_uris":{"android":"levelo://app?vid=39a67cac-e07a-41b0-bcc1-63b7f553b04c","ios":"levelo://app?vid=39a67cac-e07a-41b0-bcc1-63b7f553b04c"},"vehicle_type_id":"4","last_reported":1727010795,"current_range_meters":36800,"station_id":"ce4bhah2rcd13ifvqei0","pricing_plan_id":"cebpf4jnsgd1na2vs0mg"},{"bike_id":"27be6f2f-1bc2-4192-a569-44eba2fb71ae","system_id":"levelo_inurba_marseille","lat":43.25942,"lon":5.409,"is_reserved":false,"is_disabled":false,"rental_uris":{"android":"levelo://app?vid=27be6f2f-1bc2-4192-a569-44eba2fb71ae","ios":"levelo://app?vid=27be6f2f-1bc2-4192-a569-44eba2fb71ae"},"vehicle_type_id":"4","last_reported":1727010795,"current_range_meters":12400,"station_id":"ce4bhm92rcd13ifvqglg","pricing_plan_id":"cebpf4jnsgd1na2vs0mg"},{"bike_id":"a865ebfe-83bc-4c44-bef5-62b9a703b70f","system_id":"levelo_inurba_marseille","lat":43.2748,"lon":5.42459,"is_reserved":false,"is_disabled":false,"rental_uris":{"android":"levelo://app?vid=a865ebfe-83bc-4c44-bef5-62b9a703b70f","ios":"levelo://app?vid=a865ebfe-83bc-4c44-bef5-62b9a703b70f"},"vehicle_type_id":"4","last_reported":1727010795,"current_range_meters":36800,"station_id":"ce4bhn92rcd13ifvqgrg","pricing_plan_id":"cebpf4jnsgd1na2vs0mg"},{"bike_id":"75c0d00a-ef1a-4798-9315-cb4e57bf83d0","system_id":"levelo_inurba_marseille","lat":43.28256,"lon":5.35076,"is_reserved":false,"is_disabled":false,"rental_uris":{"android":"levelo://app?vid=75c0d00a-ef1a-4798-9315-cb4e57bf83d0","ios":"levelo://app?vid=75c0d00a-ef1a-4798-9315-cb4e57bf83d0"},"vehicle_type_id":"4","last_reported":1727010795,"current_range_meters":38800,"station_id":"ce4bhbp2rcd13ifvqerg","pricing_plan_id":"cebpf4jnsgd1na2vs0mg"},{"bike_id":"6e996b5b-d760-4fb7-9356-b7e18ccdbb1c","system_id":"levelo_inurba_marseille","lat":43.29908,"lon":5.37486,"is_reserved":false,"is_disabled":false,"rental_uris":{"android":"levelo://app?vid=6e996b5b-d760-4fb7-9356-b7e18ccdbb1c","ios":"levelo://app?vid=6e996b5b-d760-4fb7-9356-b7e18ccdbb1c"},"vehicle_type_id":"4","last_reported":1727010795,"current_range_meters":2000,"station_id":"ce4bgjh2rcd13ifvqbg0","pricing_plan_id":"cebpf4jnsgd1na2vs0mg"},{"bike_id":"9ea3a6f5-c187-4e57-bdf8-200ba026c2b4","system_id":"levelo_inurba_marseille","lat":43.276063,"lon":5.361062,"is_reserved":false,"is_disabled":false,"rental_uris":{"android":"levelo://app?vid=9ea3a6f5-c187-4e57-bdf8-200ba026c2b4","ios":"levelo://app?vid=9ea3a6f5-c187-4e57-bdf8-200ba026c2b4"},"vehicle_type_id":"4","last_reported":1727010795,"current_range_meters":7200,"station_id":"ce4bgj92rcd13ifvqbe0","pricing_plan_id":"cebpf4jnsgd1na2vs0mg"},{"bike_id":"51b06569-25d5-4bda-8af8-049234fe20f4","system_id":"levelo_inurba_marseille","lat":43.26569,"lon":5.39012,"is_reserved":false,"is_disabled":false,"rental_uris":{"android":"levelo://app?vid=51b06569-25d5-4bda-8af8-049234fe20f4","ios":"levelo://app?vid=51b06569-25d5-4bda-8af8-049234fe20f4"},"vehicle_type_id":"4","last_reported":1727010795,"current_range_meters":36000,"station_id":"ce4bhe12rcd13ifvqf30","pricing_plan_id":"cebpf4jnsgd1na2vs0mg"},{"bike_id":"c2d86e1b-5f0f-4707-9798-04d2cc397d5d","system_id":"levelo_inurba_marseille","lat":43.24185,"lon":5.39726,"is_reserved":false,"is_disabled":false,"rental_uris":{"android":"levelo://app?vid=c2d86e1b-5f0f-4707-9798-04d2cc397d5d","ios":"levelo://app?vid=c2d86e1b-5f0f-4707-9798-04d2cc397d5d"},"vehicle_type_id":"4","last_reported":1727010795,"current_range_meters":21600,"station_id":"ce4bhn12rcd13ifvqgpg","pricing_plan_id":"cebpf4jnsgd1na2vs0mg"},{"bike_id":"6f1c1486-9cf6-4f6f-b313-aedbc8767f7d","system_id":"levelo_inurba_marseille","lat":43.29852,"lon":5.36287,"is_reserved":false,"is_disabled":false,"rental_uris":{"android":"levelo://app?vid=6f1c1486-9cf6-4f6f-b313-aedbc8767f7d","ios":"levelo://app?vid=6f1c1486-9cf6-4f6f-b313-aedbc8767f7d"},"vehicle_type_id":"4","last_reported":1727010795,"current_range_meters":32800,"station_id":"ce4bgpp2rcd13ifvqc3g","pricing_plan_id":"cebpf4jnsgd1na2vs0mg"},{"bike_id":"80247f41-cabe-49b6-98e7-0f4faf0dea90","system_id":"levelo_inurba_marseille","lat":43.269337,"lon":5.36649,"is_reserved":false,"is_disabled":false,"rental_uris":{"android":"levelo://app?vid=80247f41-cabe-49b6-98e7-0f4faf0dea90","ios":"levelo://app?vid=80247f41-cabe-49b6-98e7-0f4faf0dea90"},"vehicle_type_id":"4","last_reported":1727010795,"current_range_meters":35600,"station_id":"","pricing_plan_id":"cebpf4jnsgd1na2vs0mg"},{"bike_id":"5f2e26f5-9bee-4db0-b334-40bfaff5b6d3","system_id":"levelo_inurba_marseille","lat":43.29369,"lon":5.37866,"is_reserved":false,"is_disabled":false,"rental_uris":{"android":"levelo://app?vid=5f2e26f5-9bee-4db0-b334-40bfaff5b6d3","ios":"levelo://app?vid=5f2e26f5-9bee-4db0-b334-40bfaff5b6d3"},"vehicle_type_id":"4","last_reported":1727010795,"current_range_meters":16400,"station_id":"ce4bgjh2rcd13ifvqbf0","pricing_plan_id":"cebpf4jnsgd1na2vs0mg"},{"bike_id":"a8817deb-6bef-4efb-8a7d-832a64fbee82","system_id":"levelo_inurba_marseille","lat":43.315338,"lon":5.380375,"is_reserved":false,"is_disabled":false,"rental_uris":{"android":"levelo://app?vid=a8817deb-6bef-4efb-8a7d-832a64fbee82","ios":"levelo://app?vid=a8817deb-6bef-4efb-8a7d-832a64fbee82"},"vehicle_type_id":"4","last_reported":1727010795,"current_range_meters":8800,"station_id":"ce4bhsp2rcd13ifvqi50","pricing_plan_id":"cebpf4jnsgd1na2vs0mg"},{"bike_id":"9db086ca-e7d0-4cbd-a8a0-00e1ea9007af","system_id":"levelo_inurba_marseille","lat":43.26204,"lon":5.37926,"is_reserved":false,"is_disabled":false,"rental_uris":{"android":"levelo://app?vid=9db086ca-e7d0-4cbd-a8a0-00e1ea9007af","ios":"levelo://app?vid=9db086ca-e7d0-4cbd-a8a0-00e1ea9007af"},"vehicle_type_id":"4","last_reported":1727010795,"current_range_meters":5600,"station_id":"ce4bhjp2rcd13ifvqg90","pricing_plan_id":"cebpf4jnsgd1na2vs0mg"},{"bike_id":"fa690805-233a-4a70-a9f3-33f1b67cdb1f","system_id":"levelo_inurba_marseille","lat":43.32293,"lon":5.38266,"is_reserved":false,"is_disabled":false,"rental_uris":{"android":"levelo://app?vid=fa690805-233a-4a70-a9f3-33f1b67cdb1f","ios":"levelo://app?vid=fa690805-233a-4a70-a9f3-33f1b67cdb1f"},"vehicle_type_id":"4","last_reported":1727010795,"current_range_meters":8000,"station_id":"ce4bhr12rcd13ifvqhqg","pricing_plan_id":"cebpf4jnsgd1na2vs0mg"},{"bike_id":"57b9489f-926f-401e-beb7-ad1ce87e1c2c","system_id":"levelo_inurba_marseille","lat":43.28161,"lon":5.42648,"is_reserved":false,"is_disabled":false,"rental_uris":{"android":"levelo://app?vid=57b9489f-926f-401e-beb7-ad1ce87e1c2c","ios":"levelo://app?vid=57b9489f-926f-401e-beb7-ad1ce87e1c2c"},"vehicle_type_id":"4","last_reported":1727010795,"current_range_meters":20400,"station_id":"ce4bhnh2rcd13ifvqgug","pricing_plan_id":"cebpf4jnsgd1na2vs0mg"},{"bike_id":"ef11fbcf-c9f3-4239-9efa-59ca0395a1ef","system_id":"levelo_inurba_marseille","lat":43.24812,"lon":5.37458,"is_reserved":false,"is_disabled":false,"rental_uris":{"android":"levelo://app?vid=ef11fbcf-c9f3-4239-9efa-59ca0395a1ef","ios":"levelo://app?vid=ef11fbcf-c9f3-4239-9efa-59ca0395a1ef"},"vehicle_type_id":"4","last_reported":1727010795,"current_range_meters":26800,"station_id":"ce4bhgh2rcd13ifvqfb0","pricing_plan_id":"cebpf4jnsgd1na2vs0mg"},{"bike_id":"e8126802-2acb-4ed2-87db-2389929f881f","system_id":"levelo_inurba_marseille","lat":43.28031,"lon":5.36945,"is_reserved":false,"is_disabled":false,"rental_uris":{"android":"levelo://app?vid=e8126802-2acb-4ed2-87db-2389929f881f","ios":"levelo://app?vid=e8126802-2acb-4ed2-87db-2389929f881f"},"vehicle_type_id":"4","last_reported":1727010795,"current_range_meters":3600,"station_id":"ce4bha12rcd13ifvqef0","pricing_plan_id":"cebpf4jnsgd1na2vs0mg"},{"bike_id":"fc7062a5-c7fb-443c-998b-cbaa6ea1f6d3","system_id":"levelo_inurba_marseille","lat":43.28461,"lon":5.35888,"is_reserved":false,"is_disabled":false,"rental_uris":{"android":"levelo://app?vid=fc7062a5-c7fb-443c-998b-cbaa6ea1f6d3","ios":"levelo://app?vid=fc7062a5-c7fb-443c-998b-cbaa6ea1f6d3"},"vehicle_type_id":"4","last_reported":1727010795,"current_range_meters":21600,"station_id":"ce4bhah2rcd13ifvqei0","pricing_plan_id":"cebpf4jnsgd1na2vs0mg"},{"bike_id":"b2763354-ec6c-4733-8de6-6c4493759ae9","system_id":"levelo_inurba_marseille","lat":43.29041,"lon":5.40122,"is_reserved":false,"is_disabled":false,"rental_uris":{"android":"levelo://app?vid=b2763354-ec6c-4733-8de6-6c4493759ae9","ios":"levelo://app?vid=b2763354-ec6c-4733-8de6-6c4493759ae9"},"vehicle_type_id":"4","last_reported":1727010795,"current_range_meters":8400,"station_id":"","pricing_plan_id":"cebpf4jnsgd1na2vs0mg"},{"bike_id":"12fa2c3e-9969-420f-b38a-45357d5aee49","system_id":"levelo_inurba_marseille","lat":43.32044,"lon":5.41554,"is_reserved":false,"is_disabled":false,"rental_uris":{"android":"levelo://app?vid=12fa2c3e-9969-420f-b38a-45357d5aee49","ios":"levelo://app?vid=12fa2c3e-9969-420f-b38a-45357d5aee49"},"vehicle_type_id":"4","last_reported":1727010795,"current_range_meters":17200,"station_id":"ce4bhq92rcd13ifvqhkg","pricing_plan_id":"cebpf4jnsgd1na2vs0mg"},{"bike_id":"6ab113a3-534c-4dc7-9f90-3b6560c4091a","system_id":"levelo_inurba_marseille","lat":43.3031,"lon":5.40359,"is_reserved":false,"is_disabled":false,"rental_uris":{"android":"levelo://app?vid=6ab113a3-534c-4dc7-9f90-3b6560c4091a","ios":"levelo://app?vid=6ab113a3-534c-4dc7-9f90-3b6560c4091a"},"vehicle_type_id":"4","last_reported":1727010795,"current_range_meters":38800,"station_id":"","pricing_plan_id":"cebpf4jnsgd1na2vs0mg"},{"bike_id":"a06de6bd-0b68-4685-b09c-0e19b05de90b","system_id":"levelo_inurba_marseille","lat":43.29579,"lon":5.36748,"is_reserved":false,"is_disabled":false,"rental_uris":{"android":"levelo://app?vid=a06de6bd-0b68-4685-b09c-0e19b05de90b","ios":"levelo://app?vid=a06de6bd-0b68-4685-b09c-0e19b05de90b"},"vehicle_type_id":"4","last_reported":1727010795,"current_range_meters":34000,"station_id":"ce4bgph2rcd13ifvqc2g","pricing_plan_id":"cebpf4jnsgd1na2vs0mg"},{"bike_id":"8d5a7e16-0058-4b86-9936-d10518adbea9","system_id":"levelo_inurba_marseille","lat":43.284104,"lon":5.375055,"is_reserved":false,"is_disabled":false,"rental_uris":{"android":"levelo://app?vid=8d5a7e16-0058-4b86-9936-d10518adbea9","ios":"levelo://app?vid=8d5a7e16-0058-4b86-9936-d10518adbea9"},"vehicle_type_id":"4","last_reported":1727010795,"current_range_meters":38800,"station_id":"ce4bh412rcd13ifvqds0","pricing_plan_id":"cebpf4jnsgd1na2vs0mg"},{"bike_id":"27bfd98a-3548-4c9d-a80d-c9f7f0496016","system_id":"levelo_inurba_marseille","lat":43.23193,"lon":5.35558,"is_reserved":false,"is_disabled":false,"rental_uris":{"android":"levelo://app?vid=27bfd98a-3548-4c9d-a80d-c9f7f0496016","ios":"levelo://app?vid=27bfd98a-3548-4c9d-a80d-c9f7f0496016"},"vehicle_type_id":"4","last_reported":1727010795,"current_range_meters":34800,"station_id":"ce4bhu92rcd13ifvqi70","pricing_plan_id":"cebpf4jnsgd1na2vs0mg"},{"bike_id":"ebd22451-94a9-4d48-be0b-6c2ce4fe7df8","system_id":"levelo_inurba_marseille","lat":43.30893,"lon":5.37189,"is_reserved":false,"is_disabled":false,"rental_uris":{"android":"levelo://app?vid=ebd22451-94a9-4d48-be0b-6c2ce4fe7df8","ios":"levelo://app?vid=ebd22451-94a9-4d48-be0b-6c2ce4fe7df8"},"vehicle_type_id":"4","last_reported":1727010795,"current_range_meters":38000,"station_id":"ce4bguh2rcd13ifvqckg","pricing_plan_id":"cebpf4jnsgd1na2vs0mg"},{"bike_id":"b648f540-4d54-4e02-b2df-7edddd98d000","system_id":"levelo_inurba_marseille","lat":43.25585,"lon":5.38232,"is_reserved":false,"is_disabled":false,"rental_uris":{"android":"levelo://app?vid=b648f540-4d54-4e02-b2df-7edddd98d000","ios":"levelo://app?vid=b648f540-4d54-4e02-b2df-7edddd98d000"},"vehicle_type_id":"4","last_reported":1727010795,"current_range_meters":8000,"station_id":"ce4bhih2rcd13ifvqfs0","pricing_plan_id":"cebpf4jnsgd1na2vs0mg"},{"bike_id":"6e866676-6958-47a0-bba1-aad239c4e52e","system_id":"levelo_inurba_marseille","lat":43.30357,"lon":5.41884,"is_reserved":false,"is_disabled":false,"rental_uris":{"android":"levelo://app?vid=6e866676-6958-47a0-bba1-aad239c4e52e","ios":"levelo://app?vid=6e866676-6958-47a0-bba1-aad239c4e52e"},"vehicle_type_id":"4","last_reported":1727010795,"current_range_meters":20800,"station_id":"ce4bhop2rcd13ifvqh7g","pricing_plan_id":"cebpf4jnsgd1na2vs0mg"},{"bike_id":"d28ffa41-9d7e-41f1-8b70-1aa04f034503","system_id":"levelo_inurba_marseille","lat":43.2956,"lon":5.42291,"is_reserved":false,"is_disabled":false,"rental_uris":{"android":"levelo://app?vid=d28ffa41-9d7e-41f1-8b70-1aa04f034503","ios":"levelo://app?vid=d28ffa41-9d7e-41f1-8b70-1aa04f034503"},"vehicle_type_id":"4","last_reported":1727010795,"current_range_meters":4000,"station_id":"ce4bhph2rcd13ifvqhdg","pricing_plan_id":"cebpf4jnsgd1na2vs0mg"},{"bike_id":"397349b3-2c2d-44e5-a149-6f78c0100682","system_id":"levelo_inurba_marseille","lat":43.23193,"lon":5.35549,"is_reserved":false,"is_disabled":false,"rental_uris":{"android":"levelo://app?vid=397349b3-2c2d-44e5-a149-6f78c0100682","ios":"levelo://app?vid=397349b3-2c2d-44e5-a149-6f78c0100682"},"vehicle_type_id":"4","last_reported":1727010795,"current_range_meters":14400,"station_id":"ce4bhu92rcd13ifvqi70","pricing_plan_id":"cebpf4jnsgd1na2vs0mg"},{"bike_id":"9ef2f7df-e9fb-4da5-aa12-396d9c7c126d","system_id":"levelo_inurba_marseille","lat":43.31084,"lon":5.4243,"is_reserved":false,"is_disabled":false,"rental_uris":{"android":"levelo://app?vid=9ef2f7df-e9fb-4da5-aa12-396d9c7c126d","ios":"levelo://app?vid=9ef2f7df-e9fb-4da5-aa12-396d9c7c126d"},"vehicle_type_id":"4","last_reported":1727010795,"current_range_meters":33200,"station_id":"ce4bhp92rcd13ifvqhag","pricing_plan_id":"cebpf4jnsgd1na2vs0mg"},{"bike_id":"986ce4ea-f193-4433-9f86-d91d3de13c77","system_id":"levelo_inurba_marseille","lat":43.30603,"lon":5.372351,"is_reserved":false,"is_disabled":false,"rental_uris":{"android":"levelo://app?vid=986ce4ea-f193-4433-9f86-d91d3de13c77","ios":"levelo://app?vid=986ce4ea-f193-4433-9f86-d91d3de13c77"},"vehicle_type_id":"4","last_reported":1727010795,"current_range_meters":38800,"station_id":"ce4bgqh2rcd13ifvqc4g","pricing_plan_id":"cebpf4jnsgd1na2vs0mg"},{"bike_id":"b35a148b-0e6b-44a5-8b92-17b031990d0a","system_id":"levelo_inurba_marseille","lat":43.29946,"lon":5.36554,"is_reserved":false,"is_disabled":false,"rental_uris":{"android":"levelo://app?vid=b35a148b-0e6b-44a5-8b92-17b031990d0a","ios":"levelo://app?vid=b35a148b-0e6b-44a5-8b92-17b031990d0a"},"vehicle_type_id":"4","last_reported":1727010795,"current_range_meters":24800,"station_id":"ce4bgm92rcd13ifvqbr0","pricing_plan_id":"cebpf4jnsgd1na2vs0mg"},{"bike_id":"1d0172e7-661d-4f95-b75f-94201d8aaa4c","system_id":"levelo_inurba_marseille","lat":43.24182,"lon":5.3972,"is_reserved":false,"is_disabled":false,"rental_uris":{"android":"levelo://app?vid=1d0172e7-661d-4f95-b75f-94201d8aaa4c","ios":"levelo://app?vid=1d0172e7-661d-4f95-b75f-94201d8aaa4c"},"vehicle_type_id":"4","last_reported":1727010795,"current_range_meters":10800,"station_id":"ce4bhn12rcd13ifvqgpg","pricing_plan_id":"cebpf4jnsgd1na2vs0mg"},{"bike_id":"2fae14d3-26b9-4039-aee8-b8e7acacae81","system_id":"levelo_inurba_marseille","lat":43.30886,"lon":5.37199,"is_reserved":false,"is_disabled":false,"rental_uris":{"android":"levelo://app?vid=2fae14d3-26b9-4039-aee8-b8e7acacae81","ios":"levelo://app?vid=2fae14d3-26b9-4039-aee8-b8e7acacae81"},"vehicle_type_id":"4","last_reported":1727010795,"current_range_meters":36400,"station_id":"ce4bguh2rcd13ifvqckg","pricing_plan_id":"cebpf4jnsgd1na2vs0mg"},{"bike_id":"38393c15-5264-4cb8-8dcf-2e1d10e22d23","system_id":"levelo_inurba_marseille","lat":43.3088,"lon":5.37191,"is_reserved":false,"is_disabled":false,"rental_uris":{"android":"levelo://app?vid=38393c15-5264-4cb8-8dcf-2e1d10e22d23","ios":"levelo://app?vid=38393c15-5264-4cb8-8dcf-2e1d10e22d23"},"vehicle_type_id":"4","last_reported":1727010795,"current_range_meters":18000,"station_id":"ce4bguh2rcd13ifvqckg","pricing_plan_id":"cebpf4jnsgd1na2vs0mg"},{"bike_id":"5feb8f9d-df3e-4036-aaa2-6a9de2f6503a","system_id":"levelo_inurba_marseille","lat":43.29898,"lon":5.43661,"is_reserved":false,"is_disabled":false,"rental_uris":{"android":"levelo://app?vid=5feb8f9d-df3e-4036-aaa2-6a9de2f6503a","ios":"levelo://app?vid=5feb8f9d-df3e-4036-aaa2-6a9de2f6503a"},"vehicle_type_id":"4","last_reported":1727010795,"current_range_meters":37600,"station_id":"ce4bhpp2rcd13ifvqhfg","pricing_plan_id":"cebpf4jnsgd1na2vs0mg"},{"bike_id":"d19b7fb3-0171-4f8d-a3fc-928923f69419","system_id":"levelo_inurba_marseille","lat":43.28272,"lon":5.35078,"is_reserved":false,"is_disabled":false,"rental_uris":{"android":"levelo://app?vid=d19b7fb3-0171-4f8d-a3fc-928923f69419","ios":"levelo://app?vid=d19b7fb3-0171-4f8d-a3fc-928923f69419"},"vehicle_type_id":"4","last_reported":1727010795,"current_range_meters":37600,"station_id":"ce4bhbp2rcd13ifvqerg","pricing_plan_id":"cebpf4jnsgd1na2vs0mg"},{"bike_id":"00b8cb17-44a1-4aee-ae8f-902ce1415657","system_id":"levelo_inurba_marseille","lat":43.292675,"lon":5.384384,"is_reserved":false,"is_disabled":false,"rental_uris":{"android":"levelo://app?vid=00b8cb17-44a1-4aee-ae8f-902ce1415657","ios":"levelo://app?vid=00b8cb17-44a1-4aee-ae8f-902ce1415657"},"vehicle_type_id":"4","last_reported":1727010795,"current_range_meters":24800,"station_id":"ce4bh692rcd13ifvqea0","pricing_plan_id":"cebpf4jnsgd1na2vs0mg"},{"bike_id":"f8621f1b-e82b-45e7-8469-e2fdcfbdcca7","system_id":"levelo_inurba_marseille","lat":43.32063,"lon":5.41561,"is_reserved":false,"is_disabled":false,"rental_uris":{"android":"levelo://app?vid=f8621f1b-e82b-45e7-8469-e2fdcfbdcca7","ios":"levelo://app?vid=f8621f1b-e82b-45e7-8469-e2fdcfbdcca7"},"vehicle_type_id":"4","last_reported":1727010795,"current_range_meters":38400,"station_id":"ce4bhq92rcd13ifvqhkg","pricing_plan_id":"cebpf4jnsgd1na2vs0mg"},{"bike_id":"0824e3b8-d1eb-485f-a9c5-c25951349d6f","system_id":"levelo_inurba_marseille","lat":43.27834,"lon":5.39203,"is_reserved":false,"is_disabled":false,"rental_uris":{"android":"levelo://app?vid=0824e3b8-d1eb-485f-a9c5-c25951349d6f","ios":"levelo://app?vid=0824e3b8-d1eb-485f-a9c5-c25951349d6f"},"vehicle_type_id":"4","last_reported":1727010795,"current_range_meters":25600,"station_id":"ce4bhjp2rcd13ifvqga0","pricing_plan_id":"cebpf4jnsgd1na2vs0mg"},{"bike_id":"2ecc5dfb-09ee-4572-ba01-fbd877291989","system_id":"levelo_inurba_marseille","lat":43.2649,"lon":5.37324,"is_reserved":false,"is_disabled":false,"rental_uris":{"android":"levelo://app?vid=2ecc5dfb-09ee-4572-ba01-fbd877291989","ios":"levelo://app?vid=2ecc5dfb-09ee-4572-ba01-fbd877291989"},"vehicle_type_id":"4","last_reported":1727010795,"current_range_meters":2000,"station_id":"","pricing_plan_id":"cebpf4jnsgd1na2vs0mg"},{"bike_id":"d583ca8b-031a-4171-be0d-68d86d3132a2","system_id":"levelo_inurba_marseille","lat":43.278001,"lon":5.362574,"is_reserved":false,"is_disabled":false,"rental_uris":{"android":"levelo://app?vid=d583ca8b-031a-4171-be0d-68d86d3132a2","ios":"levelo://app?vid=d583ca8b-031a-4171-be0d-68d86d3132a2"},"vehicle_type_id":"4","last_reported":1727010795,"current_range_meters":27600,"station_id":"ce4bgj92rcd13ifvqbe0","pricing_plan_id":"cebpf4jnsgd1na2vs0mg"},{"bike_id":"4a97d3c7-c752-49ab-8f6c-3c4ced16388c","system_id":"levelo_inurba_marseille","lat":43.286896,"lon":5.400034,"is_reserved":false,"is_disabled":false,"rental_uris":{"android":"levelo://app?vid=4a97d3c7-c752-49ab-8f6c-3c4ced16388c","ios":"levelo://app?vid=4a97d3c7-c752-49ab-8f6c-3c4ced16388c"},"vehicle_type_id":"4","last_reported":1727010795,"current_range_meters":15200,"station_id":"ce4bho92rcd13ifvqh3g","pricing_plan_id":"cebpf4jnsgd1na2vs0mg"},{"bike_id":"4dc01cdf-b89f-474f-bc0e-2879bb7804cc","system_id":"levelo_inurba_marseille","lat":43.23968,"lon":5.36631,"is_reserved":false,"is_disabled":false,"rental_uris":{"android":"levelo://app?vid=4dc01cdf-b89f-474f-bc0e-2879bb7804cc","ios":"levelo://app?vid=4dc01cdf-b89f-474f-bc0e-2879bb7804cc"},"vehicle_type_id":"4","last_reported":1727010795,"current_range_meters":35200,"station_id":"ce4bhi12rcd13ifvqfp0","pricing_plan_id":"cebpf4jnsgd1na2vs0mg"},{"bike_id":"a455464a-3544-4ea7-bbfd-a66a123e573c","system_id":"levelo_inurba_marseille","lat":43.279327,"lon":5.410505,"is_reserved":false,"is_disabled":false,"rental_uris":{"android":"levelo://app?vid=a455464a-3544-4ea7-bbfd-a66a123e573c","ios":"levelo://app?vid=a455464a-3544-4ea7-bbfd-a66a123e573c"},"vehicle_type_id":"4","last_reported":1727010795,"current_range_meters":4800,"station_id":"ce4bhnp2rcd13ifvqh0g","pricing_plan_id":"cebpf4jnsgd1na2vs0mg"},{"bike_id":"26eb0791-8aff-4af3-8bf7-41e73b519a6e","system_id":"levelo_inurba_marseille","lat":43.315698,"lon":5.407209,"is_reserved":false,"is_disabled":false,"rental_uris":{"android":"levelo://app?vid=26eb0791-8aff-4af3-8bf7-41e73b519a6e","ios":"levelo://app?vid=26eb0791-8aff-4af3-8bf7-41e73b519a6e"},"vehicle_type_id":"4","last_reported":1727010795,"current_range_meters":38400,"station_id":"ce4bh2h2rcd13ifvqdh0","pricing_plan_id":"cebpf4jnsgd1na2vs0mg"},{"bike_id":"31bbcc21-c89b-4233-8181-6f96cae6b5aa","system_id":"levelo_inurba_marseille","lat":43.28346,"lon":5.38112,"is_reserved":false,"is_disabled":false,"rental_uris":{"android":"levelo://app?vid=31bbcc21-c89b-4233-8181-6f96cae6b5aa","ios":"levelo://app?vid=31bbcc21-c89b-4233-8181-6f96cae6b5aa"},"vehicle_type_id":"4","last_reported":1727010795,"current_range_meters":7200,"station_id":"ce4bh412rcd13ifvqdr0","pricing_plan_id":"cebpf4jnsgd1na2vs0mg"},{"bike_id":"39a33512-1884-431f-97b0-7c60d91d2ea4","system_id":"levelo_inurba_marseille","lat":43.294647,"lon":5.378787,"is_reserved":false,"is_disabled":false,"rental_uris":{"android":"levelo://app?vid=39a33512-1884-431f-97b0-7c60d91d2ea4","ios":"levelo://app?vid=39a33512-1884-431f-97b0-7c60d91d2ea4"},"vehicle_type_id":"4","last_reported":1727010795,"current_range_meters":2800,"station_id":"ce4bgqh2rcd13ifvqc4g","pricing_plan_id":"cebpf4jnsgd1na2vs0mg"},{"bike_id":"1102eb3d-2dc8-4019-9e1d-c4670dad7e11","system_id":"levelo_inurba_marseille","lat":43.24002,"lon":5.366453,"is_reserved":false,"is_disabled":false,"rental_uris":{"android":"levelo://app?vid=1102eb3d-2dc8-4019-9e1d-c4670dad7e11","ios":"levelo://app?vid=1102eb3d-2dc8-4019-9e1d-c4670dad7e11"},"vehicle_type_id":"4","last_reported":1727010795,"current_range_meters":14800,"station_id":"ce4bhi12rcd13ifvqfp0","pricing_plan_id":"cebpf4jnsgd1na2vs0mg"},{"bike_id":"d323bc23-4105-4d98-87ab-fb3899c88f8a","system_id":"levelo_inurba_marseille","lat":43.23191,"lon":5.3555,"is_reserved":false,"is_disabled":false,"rental_uris":{"android":"levelo://app?vid=d323bc23-4105-4d98-87ab-fb3899c88f8a","ios":"levelo://app?vid=d323bc23-4105-4d98-87ab-fb3899c88f8a"},"vehicle_type_id":"4","last_reported":1727010795,"current_range_meters":32000,"station_id":"ce4bhu92rcd13ifvqi70","pricing_plan_id":"cebpf4jnsgd1na2vs0mg"},{"bike_id":"39dab5d1-462e-4174-a1c0-7ffdcf1ffc4d","system_id":"levelo_inurba_marseille","lat":43.29934,"lon":5.36533,"is_reserved":false,"is_disabled":false,"rental_uris":{"android":"levelo://app?vid=39dab5d1-462e-4174-a1c0-7ffdcf1ffc4d","ios":"levelo://app?vid=39dab5d1-462e-4174-a1c0-7ffdcf1ffc4d"},"vehicle_type_id":"4","last_reported":1727010795,"current_range_meters":38800,"station_id":"ce4bgm92rcd13ifvqbr0","pricing_plan_id":"cebpf4jnsgd1na2vs0mg"},{"bike_id":"1196b5a9-bb64-4e05-9afa-1003a4434b2a","system_id":"levelo_inurba_marseille","lat":43.3055,"lon":5.36535,"is_reserved":false,"is_disabled":false,"rental_uris":{"android":"levelo://app?vid=1196b5a9-bb64-4e05-9afa-1003a4434b2a","ios":"levelo://app?vid=1196b5a9-bb64-4e05-9afa-1003a4434b2a"},"vehicle_type_id":"4","last_reported":1727010795,"current_range_meters":17600,"station_id":"ce4bgs12rcd13ifvqcag","pricing_plan_id":"cebpf4jnsgd1na2vs0mg"},{"bike_id":"8c95e4dd-dcfd-43d4-9a20-cea16208859d","system_id":"levelo_inurba_marseille","lat":43.25012,"lon":5.38913,"is_reserved":false,"is_disabled":false,"rental_uris":{"android":"levelo://app?vid=8c95e4dd-dcfd-43d4-9a20-cea16208859d","ios":"levelo://app?vid=8c95e4dd-dcfd-43d4-9a20-cea16208859d"},"vehicle_type_id":"4","last_reported":1727010795,"current_range_meters":26000,"station_id":"ce4bhgp2rcd13ifvqfd0","pricing_plan_id":"cebpf4jnsgd1na2vs0mg"},{"bike_id":"cbdadc17-a335-47b5-9225-a03e5004bd2a","system_id":"levelo_inurba_marseille","lat":43.269451,"lon":5.402481,"is_reserved":false,"is_disabled":false,"rental_uris":{"android":"levelo://app?vid=cbdadc17-a335-47b5-9225-a03e5004bd2a","ios":"levelo://app?vid=cbdadc17-a335-47b5-9225-a03e5004bd2a"},"vehicle_type_id":"4","last_reported":1727010795,"current_range_meters":13600,"station_id":"cjm6bp8fraef2m0cb0m0","pricing_plan_id":"cebpf4jnsgd1na2vs0mg"},{"bike_id":"1be7b04a-e9c9-421f-9fc2-0e2a546f4a94","system_id":"levelo_inurba_marseille","lat":43.31575,"lon":5.40593,"is_reserved":false,"is_disabled":false,"rental_uris":{"android":"levelo://app?vid=1be7b04a-e9c9-421f-9fc2-0e2a546f4a94","ios":"levelo://app?vid=1be7b04a-e9c9-421f-9fc2-0e2a546f4a94"},"vehicle_type_id":"4","last_reported":1727010795,"current_range_meters":21600,"station_id":"","pricing_plan_id":"cebpf4jnsgd1na2vs0mg"},{"bike_id":"f8a9ab8a-38c8-45c2-a5db-33ae95d20e9e","system_id":"levelo_inurba_marseille","lat":43.28617,"lon":5.35106,"is_reserved":false,"is_disabled":false,"rental_uris":{"android":"levelo://app?vid=f8a9ab8a-38c8-45c2-a5db-33ae95d20e9e","ios":"levelo://app?vid=f8a9ab8a-38c8-45c2-a5db-33ae95d20e9e"},"vehicle_type_id":"4","last_reported":1727010795,"current_range_meters":9200,"station_id":"ce4bhch2rcd13ifvqeug","pricing_plan_id":"cebpf4jnsgd1na2vs0mg"},{"bike_id":"34ca874c-a33e-4a87-b458-001601984402","system_id":"levelo_inurba_marseille","lat":43.23194,"lon":5.35558,"is_reserved":false,"is_disabled":false,"rental_uris":{"android":"levelo://app?vid=34ca874c-a33e-4a87-b458-001601984402","ios":"levelo://app?vid=34ca874c-a33e-4a87-b458-001601984402"},"vehicle_type_id":"4","last_reported":1727010795,"current_range_meters":30000,"station_id":"ce4bhu92rcd13ifvqi70","pricing_plan_id":"cebpf4jnsgd1na2vs0mg"},{"bike_id":"36dc71fe-bfc9-4a4d-b2ef-39ebb067c458","system_id":"levelo_inurba_marseille","lat":43.29554,"lon":5.42285,"is_reserved":false,"is_disabled":false,"rental_uris":{"android":"levelo://app?vid=36dc71fe-bfc9-4a4d-b2ef-39ebb067c458","ios":"levelo://app?vid=36dc71fe-bfc9-4a4d-b2ef-39ebb067c458"},"vehicle_type_id":"4","last_reported":1727010795,"current_range_meters":36800,"station_id":"ce4bhph2rcd13ifvqhdg","pricing_plan_id":"cebpf4jnsgd1na2vs0mg"},{"bike_id":"fa9265ec-d514-4b5e-acdb-9a7d12f0ddb2","system_id":"levelo_inurba_marseille","lat":43.28662,"lon":5.3867,"is_reserved":false,"is_disabled":false,"rental_uris":{"android":"levelo://app?vid=fa9265ec-d514-4b5e-acdb-9a7d12f0ddb2","ios":"levelo://app?vid=fa9265ec-d514-4b5e-acdb-9a7d12f0ddb2"},"vehicle_type_id":"4","last_reported":1727010795,"current_range_meters":21600,"station_id":"ce4bh492rcd13ifvqdug","pricing_plan_id":"cebpf4jnsgd1na2vs0mg"},{"bike_id":"baad33e0-e11d-4e13-9910-d7ae58107e3b","system_id":"levelo_inurba_marseille","lat":43.32106,"lon":5.36772,"is_reserved":false,"is_disabled":false,"rental_uris":{"android":"levelo://app?vid=baad33e0-e11d-4e13-9910-d7ae58107e3b","ios":"levelo://app?vid=baad33e0-e11d-4e13-9910-d7ae58107e3b"},"vehicle_type_id":"4","last_reported":1727010795,"current_range_meters":36000,"station_id":"","pricing_plan_id":"cebpf4jnsgd1na2vs0mg"},{"bike_id":"bcbe6095-74c6-4e6a-9235-6041481bec8a","system_id":"levelo_inurba_marseille","lat":43.23177,"lon":5.39991,"is_reserved":false,"is_disabled":false,"rental_uris":{"android":"levelo://app?vid=bcbe6095-74c6-4e6a-9235-6041481bec8a","ios":"levelo://app?vid=bcbe6095-74c6-4e6a-9235-6041481bec8a"},"vehicle_type_id":"4","last_reported":1727010795,"current_range_meters":8000,"station_id":"ce4bhn12rcd13ifvqgqg","pricing_plan_id":"cebpf4jnsgd1na2vs0mg"},{"bike_id":"1437b30c-7d45-456f-be5f-6d19204997b1","system_id":"levelo_inurba_marseille","lat":43.32485,"lon":5.36563,"is_reserved":false,"is_disabled":false,"rental_uris":{"android":"levelo://app?vid=1437b30c-7d45-456f-be5f-6d19204997b1","ios":"levelo://app?vid=1437b30c-7d45-456f-be5f-6d19204997b1"},"vehicle_type_id":"4","last_reported":1727010795,"current_range_meters":27200,"station_id":"ce4bhs12rcd13ifvqhvg","pricing_plan_id":"cebpf4jnsgd1na2vs0mg"},{"bike_id":"da2713a2-6928-4531-bdd8-42c9caac36c9","system_id":"levelo_inurba_marseille","lat":43.31994,"lon":5.3815,"is_reserved":false,"is_disabled":false,"rental_uris":{"android":"levelo://app?vid=da2713a2-6928-4531-bdd8-42c9caac36c9","ios":"levelo://app?vid=da2713a2-6928-4531-bdd8-42c9caac36c9"},"vehicle_type_id":"4","last_reported":1727010795,"current_range_meters":38800,"station_id":"ce4bhr12rcd13ifvqhpg","pricing_plan_id":"cebpf4jnsgd1na2vs0mg"},{"bike_id":"7ae379da-9440-4378-a690-86693789de4b","system_id":"levelo_inurba_marseille","lat":43.29563,"lon":5.4229,"is_reserved":false,"is_disabled":false,"rental_uris":{"android":"levelo://app?vid=7ae379da-9440-4378-a690-86693789de4b","ios":"levelo://app?vid=7ae379da-9440-4378-a690-86693789de4b"},"vehicle_type_id":"4","last_reported":1727010795,"current_range_meters":17600,"station_id":"ce4bhph2rcd13ifvqhdg","pricing_plan_id":"cebpf4jnsgd1na2vs0mg"},{"bike_id":"02552a84-93ac-4f47-9115-b594cbf16674","system_id":"levelo_inurba_marseille","lat":43.29558,"lon":5.42294,"is_reserved":false,"is_disabled":false,"rental_uris":{"android":"levelo://app?vid=02552a84-93ac-4f47-9115-b594cbf16674","ios":"levelo://app?vid=02552a84-93ac-4f47-9115-b594cbf16674"},"vehicle_type_id":"4","last_reported":1727010795,"current_range_meters":32000,"station_id":"ce4bhph2rcd13ifvqhdg","pricing_plan_id":"cebpf4jnsgd1na2vs0mg"},{"bike_id":"f76df8ad-e94b-4735-a9e4-73b0c270df2d","system_id":"levelo_inurba_marseille","lat":43.28271,"lon":5.35065,"is_reserved":false,"is_disabled":false,"rental_uris":{"android":"levelo://app?vid=f76df8ad-e94b-4735-a9e4-73b0c270df2d","ios":"levelo://app?vid=f76df8ad-e94b-4735-a9e4-73b0c270df2d"},"vehicle_type_id":"4","last_reported":1727010795,"current_range_meters":32400,"station_id":"ce4bhbp2rcd13ifvqerg","pricing_plan_id":"cebpf4jnsgd1na2vs0mg"},{"bike_id":"6e6f62bf-d7a1-4114-8267-6c7fb56f9821","system_id":"levelo_inurba_marseille","lat":43.29047,"lon":5.35591,"is_reserved":false,"is_disabled":false,"rental_uris":{"android":"levelo://app?vid=6e6f62bf-d7a1-4114-8267-6c7fb56f9821","ios":"levelo://app?vid=6e6f62bf-d7a1-4114-8267-6c7fb56f9821"},"vehicle_type_id":"4","last_reported":1727010795,"current_range_meters":33600,"station_id":"ce4bhb92rcd13ifvqen0","pricing_plan_id":"cebpf4jnsgd1na2vs0mg"},{"bike_id":"a73686db-afc2-4b6d-aa38-a9f0f517d109","system_id":"levelo_inurba_marseille","lat":43.298495,"lon":5.362898,"is_reserved":false,"is_disabled":false,"rental_uris":{"android":"levelo://app?vid=a73686db-afc2-4b6d-aa38-a9f0f517d109","ios":"levelo://app?vid=a73686db-afc2-4b6d-aa38-a9f0f517d109"},"vehicle_type_id":"4","last_reported":1727010795,"current_range_meters":24400,"station_id":"ce4bgpp2rcd13ifvqc3g","pricing_plan_id":"cebpf4jnsgd1na2vs0mg"},{"bike_id":"b49e8aa4-b4d7-4f9d-a437-8d1bbdfe618a","system_id":"levelo_inurba_marseille","lat":43.29557,"lon":5.42284,"is_reserved":false,"is_disabled":false,"rental_uris":{"android":"levelo://app?vid=b49e8aa4-b4d7-4f9d-a437-8d1bbdfe618a","ios":"levelo://app?vid=b49e8aa4-b4d7-4f9d-a437-8d1bbdfe618a"},"vehicle_type_id":"4","last_reported":1727010795,"current_range_meters":38800,"station_id":"ce4bhph2rcd13ifvqhdg","pricing_plan_id":"cebpf4jnsgd1na2vs0mg"},{"bike_id":"79fb06b0-60c0-475a-84e2-03f817a1f128","system_id":"levelo_inurba_marseille","lat":43.23194,"lon":5.35551,"is_reserved":false,"is_disabled":false,"rental_uris":{"android":"levelo://app?vid=79fb06b0-60c0-475a-84e2-03f817a1f128","ios":"levelo://app?vid=79fb06b0-60c0-475a-84e2-03f817a1f128"},"vehicle_type_id":"4","last_reported":1727010795,"current_range_meters":3600,"station_id":"ce4bhu92rcd13ifvqi70","pricing_plan_id":"cebpf4jnsgd1na2vs0mg"},{"bike_id":"f313098f-e204-4d77-ae1e-6e8134580640","system_id":"levelo_inurba_marseille","lat":43.291901,"lon":5.357996,"is_reserved":false,"is_disabled":false,"rental_uris":{"android":"levelo://app?vid=f313098f-e204-4d77-ae1e-6e8134580640","ios":"levelo://app?vid=f313098f-e204-4d77-ae1e-6e8134580640"},"vehicle_type_id":"4","last_reported":1727010795,"current_range_meters":4800,"station_id":"ce4bhb12rcd13ifvqel0","pricing_plan_id":"cebpf4jnsgd1na2vs0mg"},{"bike_id":"b5dac5e1-0a40-4def-8c62-f68a67a7e0a5","system_id":"levelo_inurba_marseille","lat":43.3265,"lon":5.43821,"is_reserved":false,"is_disabled":false,"rental_uris":{"android":"levelo://app?vid=b5dac5e1-0a40-4def-8c62-f68a67a7e0a5","ios":"levelo://app?vid=b5dac5e1-0a40-4def-8c62-f68a67a7e0a5"},"vehicle_type_id":"4","last_reported":1727010795,"current_range_meters":18800,"station_id":"","pricing_plan_id":"cebpf4jnsgd1na2vs0mg"},{"bike_id":"76027296-bc0c-4b4a-b653-3afa09ab3dd4","system_id":"levelo_inurba_marseille","lat":43.290924,"lon":5.381226,"is_reserved":false,"is_disabled":false,"rental_uris":{"android":"levelo://app?vid=76027296-bc0c-4b4a-b653-3afa09ab3dd4","ios":"levelo://app?vid=76027296-bc0c-4b4a-b653-3afa09ab3dd4"},"vehicle_type_id":"4","last_reported":1727010795,"current_range_meters":38000,"station_id":"ce4bh512rcd13ifvqe2g","pricing_plan_id":"cebpf4jnsgd1na2vs0mg"},{"bike_id":"79725833-569d-4b84-8b31-bcdcbc2f6df7","system_id":"levelo_inurba_marseille","lat":43.28936,"lon":5.36414,"is_reserved":false,"is_disabled":false,"rental_uris":{"android":"levelo://app?vid=79725833-569d-4b84-8b31-bcdcbc2f6df7","ios":"levelo://app?vid=79725833-569d-4b84-8b31-bcdcbc2f6df7"},"vehicle_type_id":"4","last_reported":1727010795,"current_range_meters":22000,"station_id":"ce4bhc92rcd13ifvqetg","pricing_plan_id":"cebpf4jnsgd1na2vs0mg"},{"bike_id":"9d78a35a-8420-4de6-bee3-be38b2ec3b71","system_id":"levelo_inurba_marseille","lat":43.28109,"lon":5.3784,"is_reserved":false,"is_disabled":false,"rental_uris":{"android":"levelo://app?vid=9d78a35a-8420-4de6-bee3-be38b2ec3b71","ios":"levelo://app?vid=9d78a35a-8420-4de6-bee3-be38b2ec3b71"},"vehicle_type_id":"4","last_reported":1727010795,"current_range_meters":28000,"station_id":"ce4bha12rcd13ifvqee0","pricing_plan_id":"cebpf4jnsgd1na2vs0mg"},{"bike_id":"53d4b016-e278-4cc0-8ae2-f07548adb8e7","system_id":"levelo_inurba_marseille","lat":43.29154,"lon":5.37155,"is_reserved":false,"is_disabled":false,"rental_uris":{"android":"levelo://app?vid=53d4b016-e278-4cc0-8ae2-f07548adb8e7","ios":"levelo://app?vid=53d4b016-e278-4cc0-8ae2-f07548adb8e7"},"vehicle_type_id":"4","last_reported":1727010795,"current_range_meters":18000,"station_id":"ce4bha92rcd13ifvqeh0","pricing_plan_id":"cebpf4jnsgd1na2vs0mg"},{"bike_id":"dc1c39cc-53bf-42b2-aa2d-851c019a0de0","system_id":"levelo_inurba_marseille","lat":43.29711,"lon":5.36614,"is_reserved":false,"is_disabled":false,"rental_uris":{"android":"levelo://app?vid=dc1c39cc-53bf-42b2-aa2d-851c019a0de0","ios":"levelo://app?vid=dc1c39cc-53bf-42b2-aa2d-851c019a0de0"},"vehicle_type_id":"4","last_reported":1727010795,"current_range_meters":38800,"station_id":"ce4bgn12rcd13ifvqbt0","pricing_plan_id":"cebpf4jnsgd1na2vs0mg"},{"bike_id":"d6e8afec-673b-404e-8fdc-7e87cb5b85ef","system_id":"levelo_inurba_marseille","lat":43.260376,"lon":5.375465,"is_reserved":false,"is_disabled":false,"rental_uris":{"android":"levelo://app?vid=d6e8afec-673b-404e-8fdc-7e87cb5b85ef","ios":"levelo://app?vid=d6e8afec-673b-404e-8fdc-7e87cb5b85ef"},"vehicle_type_id":"4","last_reported":1727010795,"current_range_meters":36400,"station_id":"ce4bhgh2rcd13ifvqfa0","pricing_plan_id":"cebpf4jnsgd1na2vs0mg"},{"bike_id":"71745df1-8511-42d1-b236-94ecb1109e61","system_id":"levelo_inurba_marseille","lat":43.31679,"lon":5.39619,"is_reserved":false,"is_disabled":false,"rental_uris":{"android":"levelo://app?vid=71745df1-8511-42d1-b236-94ecb1109e61","ios":"levelo://app?vid=71745df1-8511-42d1-b236-94ecb1109e61"},"vehicle_type_id":"4","last_reported":1727010795,"current_range_meters":8800,"station_id":"","pricing_plan_id":"cebpf4jnsgd1na2vs0mg"},{"bike_id":"429a8509-53ef-4f50-8d3e-2590263747f2","system_id":"levelo_inurba_marseille","lat":43.33022,"lon":5.39044,"is_reserved":false,"is_disabled":false,"rental_uris":{"android":"levelo://app?vid=429a8509-53ef-4f50-8d3e-2590263747f2","ios":"levelo://app?vid=429a8509-53ef-4f50-8d3e-2590263747f2"},"vehicle_type_id":"4","last_reported":1727010795,"current_range_meters":6400,"station_id":"ce4bhr92rcd13ifvqhrg","pricing_plan_id":"cebpf4jnsgd1na2vs0mg"},{"bike_id":"14542f03-17db-43d5-b481-65890aecf3c6","system_id":"levelo_inurba_marseille","lat":43.31999,"lon":5.38154,"is_reserved":false,"is_disabled":false,"rental_uris":{"android":"levelo://app?vid=14542f03-17db-43d5-b481-65890aecf3c6","ios":"levelo://app?vid=14542f03-17db-43d5-b481-65890aecf3c6"},"vehicle_type_id":"4","last_reported":1727010795,"current_range_meters":36400,"station_id":"ce4bhr12rcd13ifvqhpg","pricing_plan_id":"cebpf4jnsgd1na2vs0mg"},{"bike_id":"d7dd3809-e348-47ea-a184-c5d299c6f967","system_id":"levelo_inurba_marseille","lat":43.23156,"lon":5.43723,"is_reserved":false,"is_disabled":false,"rental_uris":{"android":"levelo://app?vid=d7dd3809-e348-47ea-a184-c5d299c6f967","ios":"levelo://app?vid=d7dd3809-e348-47ea-a184-c5d299c6f967"},"vehicle_type_id":"4","last_reported":1727010795,"current_range_meters":11200,"station_id":"ce4bhmp2rcd13ifvqgog","pricing_plan_id":"cebpf4jnsgd1na2vs0mg"},{"bike_id":"18959797-8549-4403-845f-2613ef612c1b","system_id":"levelo_inurba_marseille","lat":43.31086,"lon":5.4243,"is_reserved":false,"is_disabled":false,"rental_uris":{"android":"levelo://app?vid=18959797-8549-4403-845f-2613ef612c1b","ios":"levelo://app?vid=18959797-8549-4403-845f-2613ef612c1b"},"vehicle_type_id":"4","last_reported":1727010795,"current_range_meters":26000,"station_id":"ce4bhp92rcd13ifvqhag","pricing_plan_id":"cebpf4jnsgd1na2vs0mg"},{"bike_id":"c40cfb28-7839-4465-8a9f-132a8415306e","system_id":"levelo_inurba_marseille","lat":43.23968,"lon":5.36637,"is_reserved":false,"is_disabled":false,"rental_uris":{"android":"levelo://app?vid=c40cfb28-7839-4465-8a9f-132a8415306e","ios":"levelo://app?vid=c40cfb28-7839-4465-8a9f-132a8415306e"},"vehicle_type_id":"4","last_reported":1727010795,"current_range_meters":20400,"station_id":"ce4bhi12rcd13ifvqfp0","pricing_plan_id":"cebpf4jnsgd1na2vs0mg"},{"bike_id":"d399b5a5-50ac-471e-9ce7-cb1b1b3a1724","system_id":"levelo_inurba_marseille","lat":43.33023,"lon":5.39039,"is_reserved":false,"is_disabled":false,"rental_uris":{"android":"levelo://app?vid=d399b5a5-50ac-471e-9ce7-cb1b1b3a1724","ios":"levelo://app?vid=d399b5a5-50ac-471e-9ce7-cb1b1b3a1724"},"vehicle_type_id":"4","last_reported":1727010795,"current_range_meters":37600,"station_id":"ce4bhr92rcd13ifvqhrg","pricing_plan_id":"cebpf4jnsgd1na2vs0mg"},{"bike_id":"22e4a15e-6041-4c71-b288-1c12c69d262d","system_id":"levelo_inurba_marseille","lat":43.33727,"lon":5.39182,"is_reserved":false,"is_disabled":false,"rental_uris":{"android":"levelo://app?vid=22e4a15e-6041-4c71-b288-1c12c69d262d","ios":"levelo://app?vid=22e4a15e-6041-4c71-b288-1c12c69d262d"},"vehicle_type_id":"4","last_reported":1727010795,"current_range_meters":8400,"station_id":"ce4bhr92rcd13ifvqhsg","pricing_plan_id":"cebpf4jnsgd1na2vs0mg"},{"bike_id":"e2b19855-27e1-4ecb-baad-016998751a64","system_id":"levelo_inurba_marseille","lat":43.25004,"lon":5.3891,"is_reserved":false,"is_disabled":false,"rental_uris":{"android":"levelo://app?vid=e2b19855-27e1-4ecb-baad-016998751a64","ios":"levelo://app?vid=e2b19855-27e1-4ecb-baad-016998751a64"},"vehicle_type_id":"4","last_reported":1727010795,"current_range_meters":25200,"station_id":"ce4bhgp2rcd13ifvqfd0","pricing_plan_id":"cebpf4jnsgd1na2vs0mg"},{"bike_id":"001a32c4-cd2e-4b68-afea-635e89c25fa7","system_id":"levelo_inurba_marseille","lat":43.306,"lon":5.393629,"is_reserved":false,"is_disabled":false,"rental_uris":{"android":"levelo://app?vid=001a32c4-cd2e-4b68-afea-635e89c25fa7","ios":"levelo://app?vid=001a32c4-cd2e-4b68-afea-635e89c25fa7"},"vehicle_type_id":"4","last_reported":1727010795,"current_range_meters":34800,"station_id":"ce4bh0p2rcd13ifvqd80","pricing_plan_id":"cebpf4jnsgd1na2vs0mg"},{"bike_id":"78eec83b-dbeb-4ac3-b2f2-fa85be9c1aa8","system_id":"levelo_inurba_marseille","lat":43.31484,"lon":5.37312,"is_reserved":false,"is_disabled":false,"rental_uris":{"android":"levelo://app?vid=78eec83b-dbeb-4ac3-b2f2-fa85be9c1aa8","ios":"levelo://app?vid=78eec83b-dbeb-4ac3-b2f2-fa85be9c1aa8"},"vehicle_type_id":"4","last_reported":1727010795,"current_range_meters":9600,"station_id":"ce4bgt12rcd13ifvqcd0","pricing_plan_id":"cebpf4jnsgd1na2vs0mg"},