{"last_updated":1747995105,"ttl":60,"version":"2.2","data":{"bikes":[{"bike_id":"c0b9fd4f-e181-46ce-b0bf-f5119973334f","system_id":"levelo_inurba_marseille","lat":43.33771,"lon":5.37424,"is_reserved":false,"is_disabled":true,"rental_uris":{"android":"levelo://app?vid=c0b9fd4f-e181-46ce-b0bf-f5119973334f","ios":"levelo://app?vid=c0b9fd4f-e181-46ce-b0bf-f5119973334f"},"vehicle_type_id":"4","last_reported":1747995105,"current_range_meters":0,"station_id":"","pricing_plan_id":"cebpf4jnsgd1na2vs0mg"},{"bike_id":"67269190-6b09-4655-98fb-2b96adacf705","system_id":"levelo_inurba_marseille","lat":43.30877,"lon":5.37328,"is_reserved":false,"is_disabled":true,"rental_uris":{"android":"levelo://app?vid=67269190-6b09-4655-98fb-2b96adacf705","ios":"levelo://app?vid=67269190-6b09-4655-98fb-2b96adacf705"},"vehicle_type_id":"4","last_reported":1747995105,"current_range_meters":0,"station_id":"","pricing_plan_id":"cebpf4jnsgd1na2vs0mg"},{"bike_id":"d4150556-b601-4cc0-b77e-49c2d38938cf","system_id":"levelo_inurba_marseille","lat":43.28854,"lon":5.45516,"is_reserved":false,"is_disabled":true,"rental_uris":{"android":"levelo://app?vid=d4150556-b601-4cc0-b77e-49c2d38938cf","ios":"levelo://app?vid=d4150556-b601-4cc0-b77e-49c2d38938cf"},"vehicle_type_id":"4","last_reported":1747995105,"current_range_meters":0,"station_id":"","pricing_plan_id":"cebpf4jnsgd1na2vs0mg"},{"bike_id":"e8162579-a5ad-485f-ad83-fec8a2ebe7e1","system_id":"levelo_inurba_marseille","lat":43.268367,"lon":5.391097,"is_reserved":false,"is_disabled":true,"rental_uris":{"android":"levelo://app?vid=e8162579-a5ad-485f-ad83-fec8a2ebe7e1","ios":"levelo://app?vid=e8162579-a5ad-485f-ad83-fec8a2ebe7e1"},"vehicle_type_id":"4","last_reported":1747995105,"current_range_meters":0,"station_id":"","pricing_plan_id":"cebpf4jnsgd1na2vs0mg"},{"bike_id":"70c5c5ad-5e66-4a49-9450-c4d67d96b788","system_id":"levelo_inurba_marseille","lat":43.27101,"lon":5.42727,"is_reserved":false,"is_disabled":true,"rental_uris":{"android":"levelo://app?vid=70c5c5ad-5e66-4a49-9450-c4d67d96b788","ios":"levelo://app?vid=70c5c5ad-5e66-4a49-9450-c4d67d96b788"},"vehicle_type_id":"4","last_reported":1747995105,"current_range_meters":0,"station_id":"","pricing_plan_id":"cebpf4jnsgd1na2vs0mg"},{"bike_id":"a9d86a3e-ff61-4b3c-b1d6-cb137b96f17c","system_id":"levelo_inurba_marseille","lat":43.28885,"lon":5.43055,"is_reserved":false,"is_disabled":true,"rental_uris":{"android":"levelo://app?vid=a9d86a3e-ff61-4b3c-b1d6-cb137b96f17c","ios":"levelo://app?vid=a9d86a3e-ff61-4b3c-b1d6-cb137b96f17c"},"vehicle_type_id":"4","last_reported":1747995105,"current_range_meters":0,"station_id":"","pricing_plan_id":"cebpf4jnsgd1na2vs0mg"},{"bike_id":"15dcdbbd-a41e-43eb-9ed6-26ec15ce7a50","system_id":"levelo_inurba_marseille","lat":43.21414,"lon":5.34119,"is_reserved":false,"is_disabled":true,"rental_uris":{"android":"levelo://app?vid=15dcdbbd-a41e-43eb-9ed6-26ec15ce7a50","ios":"levelo://app?vid=15dcdbbd-a41e-43eb-9ed6-26ec15ce7a50"},"vehicle_type_id":"4","last_reported":1747995105,"current_range_meters":0,"station_id":"","pricing_plan_id":"cebpf4jnsgd1na2vs0mg"},{"bike_id":"e9dd3aa4-b5e7-4480-926d-d7f537719bfa","system_id":"levelo_inurba_marseille","lat":43.230331,"lon":5.401847,"is_reserved":false,"is_disabled":true,"rental_uris":{"android":"levelo://app?vid=e9dd3aa4-b5e7-4480-926d-d7f537719bfa","ios":"levelo://app?vid=e9dd3aa4-b5e7-4480-926d-d7f537719bfa"},"vehicle_type_id":"4","last_reported":1747995105,"current_range_meters":0,"station_id":"","pricing_plan_id":"cebpf4jnsgd1na2vs0mg"},{"bike_id":"14603e41-b2dd-4757-a53c-2e366aa4f983","system_id":"levelo_inurba_marseille","lat":43.26999,"lon":5.42822,"is_reserved":false,"is_disabled":true,"rental_uris":{"android":"levelo://app?vid=14603e41-b2dd-4757-a53c-2e366aa4f983","ios":"levelo://app?vid=14603e41-b2dd-4757-a53c-2e366aa4f983"},"vehicle_type_id":"4","last_reported":1747995105,"current_range_meters":0,"station_id":"","pricing_plan_id":"cebpf4jnsgd1na2vs0mg"},{"bike_id":"10304f99-93f8-4efa-a133-3dc8bac7e22b","system_id":"levelo_inurba_marseille","lat":43.27327,"lon":5.3909,"is_reserved":false,"is_disabled":true,"rental_uris":{"android":"levelo://app?vid=10304f99-93f8-4efa-a133-3dc8bac7e22b","ios":"levelo://app?vid=10304f99-93f8-4efa-a133-3dc8bac7e22b"},"vehicle_type_id":"4","last_reported":1747995105,"current_range_meters":0,"station_id":"ce4bhgp2rcd13ifvqfe0","pricing_plan_id":"cebpf4jnsgd1na2vs0mg"},{"bike_id":"8962fe06-194f-4faf-aabf-b0267872ecce","system_id":"levelo_inurba_marseille","lat":43.272097,"lon":5.391754,"is_reserved":false,"is_disabled":true,"rental_uris":{"android":"levelo://app?vid=8962fe06-194f-4faf-aabf-b0267872ecce","ios":"levelo://app?vid=8962fe06-194f-4faf-aabf-b0267872ecce"},"vehicle_type_id":"4","last_reported":1747995105,"current_range_meters":0,"station_id":"ce4bhhp2rcd13ifvqfm0","pricing_plan_id":"cebpf4jnsgd1na2vs0mg"},{"bike_id":"64f2bfc7-ba7a-409c-95d9-5532f0363fc1","system_id":"levelo_inurba_marseille","lat":43.30924,"lon":5.40144,"is_reserved":false,"is_disabled":true,"rental_uris":{"android":"levelo://app?vid=64f2bfc7-ba7a-409c-95d9-5532f0363fc1","ios":"levelo://app?vid=64f2bfc7-ba7a-409c-95d9-5532f0363fc1"},"vehicle_type_id":"4","last_reported":1747995105,"current_range_meters":400,"station_id":"ce4bgvp2rcd13ifvqct0","pricing_plan_id":"cebpf4jnsgd1na2vs0mg"},{"bike_id":"838db9d6-87ba-4ff3-a713-2b1c7d507615","system_id":"levelo_inurba_marseille","lat":43.28035,"lon":5.3693,"is_reserved":false,"is_disabled":true,"rental_uris":{"android":"levelo://app?vid=838db9d6-87ba-4ff3-a713-2b1c7d507615","ios":"levelo://app?vid=838db9d6-87ba-4ff3-a713-2b1c7d507615"},"vehicle_type_id":"4","last_reported":1747995105,"current_range_meters":1600,"station_id":"ce4bha12rcd13ifvqef0","pricing_plan_id":"cebpf4jnsgd1na2vs0mg"},{"bike_id":"a965f51f-aafb-4afe-bfe3-121b43346203","system_id":"levelo_inurba_marseille","lat":43.27991,"lon":5.40022,"is_reserved":false,"is_disabled":true,"rental_uris":{"android":"levelo://app?vid=a965f51f-aafb-4afe-bfe3-121b43346203","ios":"levelo://app?vid=a965f51f-aafb-4afe-bfe3-121b43346203"},"vehicle_type_id":"4","last_reported":1747995105,"current_range_meters":1600,"station_id":"ce4bho92rcd13ifvqh4g","pricing_plan_id":"cebpf4jnsgd1na2vs0mg"},{"bike_id":"e402169c-c22b-464d-ac99-a5922678dedc","system_id":"levelo_inurba_marseille","lat":43.28977,"lon":5.378377,"is_reserved":false,"is_disabled":true,"rental_uris":{"android":"levelo://app?vid=e402169c-c22b-464d-ac99-a5922678dedc","ios":"levelo://app?vid=e402169c-c22b-464d-ac99-a5922678dedc"},"vehicle_type_id":"4","last_reported":1747995105,"current_range_meters":2000,"station_id":"ce4bh9p2rcd13ifvqed0","pricing_plan_id":"cebpf4jnsgd1na2vs0mg"},{"bike_id":"6327a881-80ee-49c7-ba72-7542452a047e","system_id":"levelo_inurba_marseille","lat":43.27308,"lon":5.3908,"is_reserved":false,"is_disabled":true,"rental_uris":{"android":"levelo://app?vid=6327a881-80ee-49c7-ba72-7542452a047e","ios":"levelo://app?vid=6327a881-80ee-49c7-ba72-7542452a047e"},"vehicle_type_id":"4","last_reported":1747995105,"current_range_meters":2000,"station_id":"ce4bhgp2rcd13ifvqfe0","pricing_plan_id":"cebpf4jnsgd1na2vs0mg"},{"bike_id":"6d4ff948-bb31-4b46-bcb2-68ddb24fbc7e","system_id":"levelo_inurba_marseille","lat":43.26786,"lon":5.39413,"is_reserved":false,"is_disabled":true,"rental_uris":{"android":"levelo://app?vid=6d4ff948-bb31-4b46-bcb2-68ddb24fbc7e","ios":"levelo://app?vid=6d4ff948-bb31-4b46-bcb2-68ddb24fbc7e"},"vehicle_type_id":"4","last_reported":1747995105,"current_range_meters":2000,"station_id":"ce4bhh12rcd13ifvqfg0","pricing_plan_id":"cebpf4jnsgd1na2vs0mg"},{"bike_id":"cf3b21fb-4c05-4ff6-9ce1-3f8196791bd8","system_id":"levelo_inurba_marseille","lat":43.23193,"lon":5.43614,"is_reserved":false,"is_disabled":false,"rental_uris":{"android":"levelo://app?vid=cf3b21fb-4c05-4ff6-9ce1-3f8196791bd8","ios":"levelo://app?vid=cf3b21fb-4c05-4ff6-9ce1-3f8196791bd8"},"vehicle_type_id":"4","last_reported":1747995105,"current_range_meters":2800,"station_id":"","pricing_plan_id":"cebpf4jnsgd1na2vs0mg"},{"bike_id":"b7717bd4-d64d-44a6-9236-5ccc36d1830e","system_id":"levelo_inurba_marseille","lat":43.29905,"lon":5.38152,"is_reserved":false,"is_disabled":false,"rental_uris":{"android":"levelo://app?vid=b7717bd4-d64d-44a6-9236-5ccc36d1830e","ios":"levelo://app?vid=b7717bd4-d64d-44a6-9236-5ccc36d1830e"},"vehicle_type_id":"4","last_reported":1747995105,"current_range_meters":2800,"station_id":"ce4bgj12rcd13ifvqbc0","pricing_plan_id":"cebpf4jnsgd1na2vs0mg"},{"bike_id":"411cfa36-6e4f-455e-800c-ad8a5e5719c7","system_id":"levelo_inurba_marseille","lat":43.29522,"lon":5.37504,"is_reserved":false,"is_disabled":false,"rental_uris":{"android":"levelo://app?vid=411cfa36-6e4f-455e-800c-ad8a5e5719c7","ios":"levelo://app?vid=411cfa36-6e4f-455e-800c-ad8a5e5719c7"},"vehicle_type_id":"4","last_reported":1747995105,"current_range_meters":2800,"station_id":"ce4bgkp2rcd13ifvqbmg","pricing_plan_id":"cebpf4jnsgd1na2vs0mg"},{"bike_id":"b6a4fc1b-285e-4c60-b330-06c64ea85374","system_id":"levelo_inurba_marseille","lat":43.292371,"lon":5.360603,"is_reserved":false,"is_disabled":false,"rental_uris":{"android":"levelo://app?vid=b6a4fc1b-285e-4c60-b330-06c64ea85374","ios":"levelo://app?vid=b6a4fc1b-285e-4c60-b330-06c64ea85374"},"vehicle_type_id":"4","last_reported":1747995105,"current_range_meters":3200,"station_id":"ce4bhbh2rcd13ifvqeqg","pricing_plan_id":"cebpf4jnsgd1na2vs0mg"},{"bike_id":"490cfea9-fbaf-4353-81f0-ee1052d69c71","system_id":"levelo_inurba_marseille","lat":43.254878,"lon":5.37651,"is_reserved":false,"is_disabled":false,"rental_uris":{"android":"levelo://app?vid=490cfea9-fbaf-4353-81f0-ee1052d69c71","ios":"levelo://app?vid=490cfea9-fbaf-4353-81f0-ee1052d69c71"},"vehicle_type_id":"4","last_reported":1747995105,"current_range_meters":4000,"station_id":"ce4bhh12rcd13ifvqff0","pricing_plan_id":"cebpf4jnsgd1na2vs0mg"},{"bike_id":"7f374a0c-9ab4-412c-a8dd-1f59fe7a5317","system_id":"levelo_inurba_marseille","lat":43.25589,"lon":5.38243,"is_reserved":false,"is_disabled":false,"rental_uris":{"android":"levelo://app?vid=7f374a0c-9ab4-412c-a8dd-1f59fe7a5317","ios":"levelo://app?vid=7f374a0c-9ab4-412c-a8dd-1f59fe7a5317"},"vehicle_type_id":"4","last_reported":1747995105,"current_range_meters":4000,"station_id":"ce4bhih2rcd13ifvqfs0","pricing_plan_id":"cebpf4jnsgd1na2vs0mg"},{"bike_id":"538b5bcb-78f1-4045-8835-bbcbb4f3e58f","system_id":"levelo_inurba_marseille","lat":43.22931,"lon":5.35373,"is_reserved":false,"is_disabled":false,"rental_uris":{"android":"levelo://app?vid=538b5bcb-78f1-4045-8835-bbcbb4f3e58f","ios":"levelo://app?vid=538b5bcb-78f1-4045-8835-bbcbb4f3e58f"},"vehicle_type_id":"4","last_reported":1747995105,"current_range_meters":4000,"station_id":"cpo3532slgdg3j2ikp40","pricing_plan_id":"cebpf4jnsgd1na2vs0mg"},{"bike_id":"fb32fffd-63a2-4c1d-8525-9daa9aa3ebff","system_id":"levelo_inurba_marseille","lat":43.2119,"lon":5.35075,"is_reserved":false,"is_disabled":false,"rental_uris":{"android":"levelo://app?vid=fb32fffd-63a2-4c1d-8525-9daa9aa3ebff","ios":"levelo://app?vid=fb32fffd-63a2-4c1d-8525-9daa9aa3ebff"},"vehicle_type_id":"4","last_reported":1747995105,"current_range_meters":4400,"station_id":"st_cvj6sg6p6f1abm77japg","pricing_plan_id":"cebpf4jnsgd1na2vs0mg"},{"bike_id":"c3c7ae58-40dc-49fe-91c8-045c830c98b8","system_id":"levelo_inurba_marseille","lat":43.31781,"lon":5.44945,"is_reserved":false,"is_disabled":false,"rental_uris":{"android":"levelo://app?vid=c3c7ae58-40dc-49fe-91c8-045c830c98b8","ios":"levelo://app?vid=c3c7ae58-40dc-49fe-91c8-045c830c98b8"},"vehicle_type_id":"4","last_reported":1747995105,"current_range_meters":4800,"station_id":"","pricing_plan_id":"cebpf4jnsgd1na2vs0mg"},{"bike_id":"3fe3d6c4-138a-47df-b6b4-e6f19e8f7d46","system_id":"levelo_inurba_marseille","lat":43.21404,"lon":5.34125,"is_reserved":false,"is_disabled":false,"rental_uris":{"android":"levelo://app?vid=3fe3d6c4-138a-47df-b6b4-e6f19e8f7d46","ios":"levelo://app?vid=3fe3d6c4-138a-47df-b6b4-e6f19e8f7d46"},"vehicle_type_id":"4","last_reported":1747995105,"current_range_meters":4800,"station_id":"","pricing_plan_id":"cebpf4jnsgd1na2vs0mg"},{"bike_id":"dc55e630-dbf5-48a0-acbd-8ddd1ea4e3d6","system_id":"levelo_inurba_marseille","lat":43.2706,"lon":5.40261,"is_reserved":false,"is_disabled":false,"rental_uris":{"android":"levelo://app?vid=dc55e630-dbf5-48a0-acbd-8ddd1ea4e3d6","ios":"levelo://app?vid=dc55e630-dbf5-48a0-acbd-8ddd1ea4e3d6"},"vehicle_type_id":"4","last_reported":1747995105,"current_range_meters":4800,"station_id":"ce4bhk92rcd13ifvqgc0","pricing_plan_id":"cebpf4jnsgd1na2vs0mg"},{"bike_id":"d3f9bf3a-e176-4ca2-837e-a36686e05227","system_id":"levelo_inurba_marseille","lat":43.2572,"lon":5.41114,"is_reserved":false,"is_disabled":false,"rental_uris":{"android":"levelo://app?vid=d3f9bf3a-e176-4ca2-837e-a36686e05227","ios":"levelo://app?vid=d3f9bf3a-e176-4ca2-837e-a36686e05227"},"vehicle_type_id":"4","last_reported":1747995105,"current_range_meters":4800,"station_id":"ce4bhkp2rcd13ifvqgd0","pricing_plan_id":"cebpf4jnsgd1na2vs0mg"},{"bike_id":"b41872d9-dd9f-499c-90ef-098bccfc7090","system_id":"levelo_inurba_marseille","lat":43.29005,"lon":5.35614,"is_reserved":false,"is_disabled":false,"rental_uris":{"android":"levelo://app?vid=b41872d9-dd9f-499c-90ef-098bccfc7090","ios":"levelo://app?vid=b41872d9-dd9f-499c-90ef-098bccfc7090"},"vehicle_type_id":"4","last_reported":1747995105,"current_range_meters":5600,"station_id":"ce4bhb92rcd13ifvqen0","pricing_plan_id":"cebpf4jnsgd1na2vs0mg"},{"bike_id":"ad4d8099-03a6-43ca-966f-189fb83ff678","system_id":"levelo_inurba_marseille","lat":43.31286,"lon":5.373827,"is_reserved":false,"is_disabled":false,"rental_uris":{"android":"levelo://app?vid=ad4d8099-03a6-43ca-966f-189fb83ff678","ios":"levelo://app?vid=ad4d8099-03a6-43ca-966f-189fb83ff678"},"vehicle_type_id":"4","last_reported":1747995105,"current_range_meters":6000,"station_id":"","pricing_plan_id":"cebpf4jnsgd1na2vs0mg"},{"bike_id":"f9fb40c0-1fcd-48cb-8e26-3f2dc0fb2451","system_id":"levelo_inurba_marseille","lat":43.33751,"lon":5.37509,"is_reserved":false,"is_disabled":false,"rental_uris":{"android":"levelo://app?vid=f9fb40c0-1fcd-48cb-8e26-3f2dc0fb2451","ios":"levelo://app?vid=f9fb40c0-1fcd-48cb-8e26-3f2dc0fb2451"},"vehicle_type_id":"4","last_reported":1747995105,"current_range_meters":6000,"station_id":"","pricing_plan_id":"cebpf4jnsgd1na2vs0mg"},{"bike_id":"a80ffa9b-1f1c-433a-bccb-ab7d6f67b904","system_id":"levelo_inurba_marseille","lat":43.29806,"lon":5.38104,"is_reserved":false,"is_disabled":false,"rental_uris":{"android":"levelo://app?vid=a80ffa9b-1f1c-433a-bccb-ab7d6f67b904","ios":"levelo://app?vid=a80ffa9b-1f1c-433a-bccb-ab7d6f67b904"},"vehicle_type_id":"4","last_reported":1747995105,"current_range_meters":6000,"station_id":"ce4bgip2rcd13ifvqbb0","pricing_plan_id":"cebpf4jnsgd1na2vs0mg"},{"bike_id":"0b8c5c0c-fdf0-4cbc-b86a-04fc6bba9a2d","system_id":"levelo_inurba_marseille","lat":43.32103,"lon":5.36775,"is_reserved":false,"is_disabled":false,"rental_uris":{"android":"levelo://app?vid=0b8c5c0c-fdf0-4cbc-b86a-04fc6bba9a2d","ios":"levelo://app?vid=0b8c5c0c-fdf0-4cbc-b86a-04fc6bba9a2d"},"vehicle_type_id":"4","last_reported":1747995105,"current_range_meters":6000,"station_id":"ce4bhrh2rcd13ifvqhug","pricing_plan_id":"cebpf4jnsgd1na2vs0mg"},{"bike_id":"9cc3b2c4-aaa5-413e-83b0-9dbc767b9540","system_id":"levelo_inurba_marseille","lat":43.211888,"lon":5.350714,"is_reserved":false,"is_disabled":false,"rental_uris":{"android":"levelo://app?vid=9cc3b2c4-aaa5-413e-83b0-9dbc767b9540","ios":"levelo://app?vid=9cc3b2c4-aaa5-413e-83b0-9dbc767b9540"},"vehicle_type_id":"4","last_reported":1747995105,"current_range_meters":6000,"station_id":"st_cvj6sg6p6f1abm77japg","pricing_plan_id":"cebpf4jnsgd1na2vs0mg"},{"bike_id":"cd2b9d97-3676-4c83-8e3b-aa4857457d9a","system_id":"levelo_inurba_marseille","lat":43.31498,"lon":5.37037,"is_reserved":false,"is_disabled":false,"rental_uris":{"android":"levelo://app?vid=cd2b9d97-3676-4c83-8e3b-aa4857457d9a","ios":"levelo://app?vid=cd2b9d97-3676-4c83-8e3b-aa4857457d9a"},"vehicle_type_id":"4","last_reported":1747995105,"current_range_meters":6400,"station_id":"","pricing_plan_id":"cebpf4jnsgd1na2vs0mg"},{"bike_id":"594c93e7-5fdd-4e9c-8894-4658f41d0a86","system_id":"levelo_inurba_marseille","lat":43.28726,"lon":5.36088,"is_reserved":false,"is_disabled":false,"rental_uris":{"android":"levelo://app?vid=594c93e7-5fdd-4e9c-8894-4658f41d0a86","ios":"levelo://app?vid=594c93e7-5fdd-4e9c-8894-4658f41d0a86"},"vehicle_type_id":"4","last_reported":1747995105,"current_range_meters":6400,"station_id":"cki0cbj6b192h4jlfktg","pricing_plan_id":"cebpf4jnsgd1na2vs0mg"},{"bike_id":"27653dcd-dec9-4f13-b172-8968c20c1725","system_id":"levelo_inurba_marseille","lat":43.2386,"lon":5.43087,"is_reserved":false,"is_disabled":false,"rental_uris":{"android":"levelo://app?vid=27653dcd-dec9-4f13-b172-8968c20c1725","ios":"levelo://app?vid=27653dcd-dec9-4f13-b172-8968c20c1725"},"vehicle_type_id":"4","last_reported":1747995105,"current_range_meters":6800,"station_id":"","pricing_plan_id":"cebpf4jnsgd1na2vs0mg"},{"bike_id":"6a85369f-636f-4448-91f6-e3994a0fb52b","system_id":"levelo_inurba_marseille","lat":43.277551,"lon":5.386974,"is_reserved":false,"is_disabled":false,"rental_uris":{"android":"levelo://app?vid=6a85369f-636f-4448-91f6-e3994a0fb52b","ios":"levelo://app?vid=6a85369f-636f-4448-91f6-e3994a0fb52b"},"vehicle_type_id":"4","last_reported":1747995105,"current_range_meters":7200,"station_id":"","pricing_plan_id":"cebpf4jnsgd1na2vs0mg"},{"bike_id":"9b40caf6-2e32-440b-8645-98bf8c4de126","system_id":"levelo_inurba_marseille","lat":43.337444,"lon":5.374475,"is_reserved":false,"is_disabled":false,"rental_uris":{"android":"levelo://app?vid=9b40caf6-2e32-440b-8645-98bf8c4de126","ios":"levelo://app?vid=9b40caf6-2e32-440b-8645-98bf8c4de126"},"vehicle_type_id":"4","last_reported":1747995105,"current_range_meters":7200,"station_id":"","pricing_plan_id":"cebpf4jnsgd1na2vs0mg"},{"bike_id":"b129cbfe-85c4-43db-b6cf-216c06489afc","system_id":"levelo_inurba_marseille","lat":43.26673,"lon":5.38266,"is_reserved":false,"is_disabled":false,"rental_uris":{"android":"levelo://app?vid=b129cbfe-85c4-43db-b6cf-216c06489afc","ios":"levelo://app?vid=b129cbfe-85c4-43db-b6cf-216c06489afc"},"vehicle_type_id":"4","last_reported":1747995105,"current_range_meters":7200,"station_id":"ce4bhg92rcd13ifvqf90","pricing_plan_id":"cebpf4jnsgd1na2vs0mg"},{"bike_id":"c0a2cbf3-27af-46b5-90d6-86a3b4bf4b68","system_id":"levelo_inurba_marseille","lat":43.27941,"lon":5.41035,"is_reserved":false,"is_disabled":false,"rental_uris":{"android":"levelo://app?vid=c0a2cbf3-27af-46b5-90d6-86a3b4bf4b68","ios":"levelo://app?vid=c0a2cbf3-27af-46b5-90d6-86a3b4bf4b68"},"vehicle_type_id":"4","last_reported":1747995105,"current_range_meters":7200,"station_id":"ce4bhnp2rcd13ifvqh0g","pricing_plan_id":"cebpf4jnsgd1na2vs0mg"},{"bike_id":"957f2a97-f5de-4896-91ff-eb7b5ca339fd","system_id":"levelo_inurba_marseille","lat":43.26793,"lon":5.40239,"is_reserved":false,"is_disabled":false,"rental_uris":{"android":"levelo://app?vid=957f2a97-f5de-4896-91ff-eb7b5ca339fd","ios":"levelo://app?vid=957f2a97-f5de-4896-91ff-eb7b5ca339fd"},"vehicle_type_id":"4","last_reported":1747995105,"current_range_meters":7200,"station_id":"ce501612rcd8frsf0b60","pricing_plan_id":"cebpf4jnsgd1na2vs0mg"},{"bike_id":"ab586946-0d14-4bec-bde4-d3c3cc278cd5","system_id":"levelo_inurba_marseille","lat":43.26934,"lon":5.40254,"is_reserved":false,"is_disabled":false,"rental_uris":{"android":"levelo://app?vid=ab586946-0d14-4bec-bde4-d3c3cc278cd5","ios":"levelo://app?vid=ab586946-0d14-4bec-bde4-d3c3cc278cd5"},"vehicle_type_id":"4","last_reported":1747995105,"current_range_meters":7200,"station_id":"cjm6bp8fraef2m0cb0m0","pricing_plan_id":"cebpf4jnsgd1na2vs0mg"},{"bike_id":"31110881-d64f-45f8-9810-bbf84a002836","system_id":"levelo_inurba_marseille","lat":43.28371,"lon":5.46138,"is_reserved":false,"is_disabled":false,"rental_uris":{"android":"levelo://app?vid=31110881-d64f-45f8-9810-bbf84a002836","ios":"levelo://app?vid=31110881-d64f-45f8-9810-bbf84a002836"},"vehicle_type_id":"4","last_reported":1747995105,"current_range_meters":8000,"station_id":"","pricing_plan_id":"cebpf4jnsgd1na2vs0mg"},{"bike_id":"20d4c44a-7e96-49e4-a342-98942effd3ae","system_id":"levelo_inurba_marseille","lat":43.309588,"lon":5.390414,"is_reserved":false,"is_disabled":false,"rental_uris":{"android":"levelo://app?vid=20d4c44a-7e96-49e4-a342-98942effd3ae","ios":"levelo://app?vid=20d4c44a-7e96-49e4-a342-98942effd3ae"},"vehicle_type_id":"4","last_reported":1747995105,"current_range_meters":8000,"station_id":"ce4bgup2rcd13ifvqco0","pricing_plan_id":"cebpf4jnsgd1na2vs0mg"},{"bike_id":"9f77cae3-9ee4-4f8d-9508-03dd93c77bb6","system_id":"levelo_inurba_marseille","lat":43.259255,"lon":5.409177,"is_reserved":false,"is_disabled":false,"rental_uris":{"android":"levelo://app?vid=9f77cae3-9ee4-4f8d-9508-03dd93c77bb6","ios":"levelo://app?vid=9f77cae3-9ee4-4f8d-9508-03dd93c77bb6"},"vehicle_type_id":"4","last_reported":1747995105,"current_range_meters":8000,"station_id":"ce4bhm92rcd13ifvqglg","pricing_plan_id":"cebpf4jnsgd1na2vs0mg"},{"bike_id":"89d67b15-5ab3-4722-99b3-4e19fe478855","system_id":"levelo_inurba_marseille","lat":43.27816,"lon":5.40717,"is_reserved":false,"is_disabled":false,"rental_uris":{"android":"levelo://app?vid=89d67b15-5ab3-4722-99b3-4e19fe478855","ios":"levelo://app?vid=89d67b15-5ab3-4722-99b3-4e19fe478855"},"vehicle_type_id":"4","last_reported":1747995105,"current_range_meters":8000,"station_id":"ce4bhnh2rcd13ifvqgtg","pricing_plan_id":"cebpf4jnsgd1na2vs0mg"},{"bike_id":"895fec85-4848-4820-b938-243da6ee2367","system_id":"levelo_inurba_marseille","lat":43.304598,"lon":5.379112,"is_reserved":false,"is_disabled":false,"rental_uris":{"android":"levelo://app?vid=895fec85-4848-4820-b938-243da6ee2367","ios":"levelo://app?vid=895fec85-4848-4820-b938-243da6ee2367"},"vehicle_type_id":"4","last_reported":1747995105,"current_range_meters":8000,"station_id":"ce4bhs12rcd13ifvqhvg","pricing_plan_id":"cebpf4jnsgd1na2vs0mg"},{"bike_id":"7dfdfdc8-9c79-46b6-9a4b-924773b53f29","system_id":"levelo_inurba_marseille","lat":43.268706,"lon":5.391646,"is_reserved":false,"is_disabled":false,"rental_uris":{"android":"levelo://app?vid=7dfdfdc8-9c79-46b6-9a4b-924773b53f29","ios":"levelo://app?vid=7dfdfdc8-9c79-46b6-9a4b-924773b53f29"},"vehicle_type_id":"4","last_reported":1747995105,"current_range_meters":8400,"station_id":"","pricing_plan_id":"cebpf4jnsgd1na2vs0mg"},{"bike_id":"950cad50-4e47-43b4-ba8e-d97ac6386634","system_id":"levelo_inurba_marseille","lat":43.25563,"lon":5.38251,"is_reserved":false,"is_disabled":false,"rental_uris":{"android":"levelo://app?vid=950cad50-4e47-43b4-ba8e-d97ac6386634","ios":"levelo://app?vid=950cad50-4e47-43b4-ba8e-d97ac6386634"},"vehicle_type_id":"4","last_reported":1747995105,"current_range_meters":8400,"station_id":"","pricing_plan_id":"cebpf4jnsgd1na2vs0mg"},{"bike_id":"4b043e01-a5de-42bf-a94a-514363515081","system_id":"levelo_inurba_marseille","lat":43.25126,"lon":5.40332,"is_reserved":false,"is_disabled":false,"rental_uris":{"android":"levelo://app?vid=4b043e01-a5de-42bf-a94a-514363515081","ios":"levelo://app?vid=4b043e01-a5de-42bf-a94a-514363515081"},"vehicle_type_id":"4","last_reported":1747995105,"current_range_meters":8400,"station_id":"ce4bhlh2rcd13ifvqgig","pricing_plan_id":"cebpf4jnsgd1na2vs0mg"},{"bike_id":"2d296209-40ef-4272-b88a-10ddaf82f1cb","system_id":"levelo_inurba_marseille","lat":43.28721,"lon":5.36093,"is_reserved":false,"is_disabled":false,"rental_uris":{"android":"levelo://app?vid=2d296209-40ef-4272-b88a-10ddaf82f1cb","ios":"levelo://app?vid=2d296209-40ef-4272-b88a-10ddaf82f1cb"},"vehicle_type_id":"4","last_reported":1747995105,"current_range_meters":8400,"station_id":"cki0cbj6b192h4jlfktg","pricing_plan_id":"cebpf4jnsgd1na2vs0mg"},{"bike_id":"f3bc8e9a-7801-4035-8824-a5894f4cc95f","system_id":"levelo_inurba_marseille","lat":43.30302,"lon":5.39205,"is_reserved":false,"is_disabled":false,"rental_uris":{"android":"levelo://app?vid=f3bc8e9a-7801-4035-8824-a5894f4cc95f","ios":"levelo://app?vid=f3bc8e9a-7801-4035-8824-a5894f4cc95f"},"vehicle_type_id":"4","last_reported":1747995105,"current_range_meters":8800,"station_id":"ce4bgkh2rcd13ifvqbk0","pricing_plan_id":"cebpf4jnsgd1na2vs0mg"},{"bike_id":"55b790a0-213a-4336-bea1-d8f7753bff20","system_id":"levelo_inurba_marseille","lat":43.261916,"lon":5.3745,"is_reserved":false,"is_disabled":false,"rental_uris":{"android":"levelo://app?vid=55b790a0-213a-4336-bea1-d8f7753bff20","ios":"levelo://app?vid=55b790a0-213a-4336-bea1-d8f7753bff20"},"vehicle_type_id":"4","last_reported":1747995105,"current_range_meters":8800,"station_id":"ce4bhgp2rcd13ifvqfc0","pricing_plan_id":"cebpf4jnsgd1na2vs0mg"},{"bike_id":"6e7d28be-60c6-40b4-9d02-3e0983996e00","system_id":"levelo_inurba_marseille","lat":43.25819,"lon":5.39434,"is_reserved":false,"is_disabled":false,"rental_uris":{"android":"levelo://app?vid=6e7d28be-60c6-40b4-9d02-3e0983996e00","ios":"levelo://app?vid=6e7d28be-60c6-40b4-9d02-3e0983996e00"},"vehicle_type_id":"4","last_reported":1747995105,"current_range_meters":8800,"station_id":"ce4bhip2rcd13ifvqft0","pricing_plan_id":"cebpf4jnsgd1na2vs0mg"},{"bike_id":"b5f9e8c1-abe5-4841-898d-cc6d95725c25","system_id":"levelo_inurba_marseille","lat":43.24172,"lon":5.39712,"is_reserved":false,"is_disabled":false,"rental_uris":{"android":"levelo://app?vid=b5f9e8c1-abe5-4841-898d-cc6d95725c25","ios":"levelo://app?vid=b5f9e8c1-abe5-4841-898d-cc6d95725c25"},"vehicle_type_id":"4","last_reported":1747995105,"current_range_meters":8800,"station_id":"ce4bhn12rcd13ifvqgpg","pricing_plan_id":"cebpf4jnsgd1na2vs0mg"},{"bike_id":"c2ea5a9c-8fd7-40ac-8515-427466010d70","system_id":"levelo_inurba_marseille","lat":43.32106,"lon":5.36779,"is_reserved":false,"is_disabled":false,"rental_uris":{"android":"levelo://app?vid=c2ea5a9c-8fd7-40ac-8515-427466010d70","ios":"levelo://app?vid=c2ea5a9c-8fd7-40ac-8515-427466010d70"},"vehicle_type_id":"4","last_reported":1747995105,"current_range_meters":8800,"station_id":"ce4bhrh2rcd13ifvqhug","pricing_plan_id":"cebpf4jnsgd1na2vs0mg"},{"bike_id":"e4562ad1-0a39-4300-91ec-1f0dc2c1ff97","system_id":"levelo_inurba_marseille","lat":43.32485,"lon":5.36573,"is_reserved":false,"is_disabled":false,"rental_uris":{"android":"levelo://app?vid=e4562ad1-0a39-4300-91ec-1f0dc2c1ff97","ios":"levelo://app?vid=e4562ad1-0a39-4300-91ec-1f0dc2c1ff97"},"vehicle_type_id":"4","last_reported":1747995105,"current_range_meters":8800,"station_id":"ce4bhs12rcd13ifvqhvg","pricing_plan_id":"cebpf4jnsgd1na2vs0mg"},{"bike_id":"4e8fa508-b328-4cf6-af3c-1336267fe6b6","system_id":"levelo_inurba_marseille","lat":43.32473,"lon":5.36545,"is_reserved":false,"is_disabled":false,"rental_uris":{"android":"levelo://app?vid=4e8fa508-b328-4cf6-af3c-1336267fe6b6","ios":"levelo://app?vid=4e8fa508-b328-4cf6-af3c-1336267fe6b6"},"vehicle_type_id":"4","last_reported":1747995105,"current_range_meters":8800,"station_id":"ce4bhs12rcd13ifvqhvg","pricing_plan_id":"cebpf4jnsgd1na2vs0mg"},{"bike_id":"a3896e9a-b111-4a5e-9fba-9fce87836ccc","system_id":"levelo_inurba_marseille","lat":43.25586,"lon":5.38229,"is_reserved":false,"is_disabled":false,"rental_uris":{"android":"levelo://app?vid=a3896e9a-b111-4a5e-9fba-9fce87836ccc","ios":"levelo://app?vid=a3896e9a-b111-4a5e-9fba-9fce87836ccc"},"vehicle_type_id":"4","last_reported":1747995105,"current_range_meters":9200,"station_id":"ce4bhih2rcd13ifvqfs0","pricing_plan_id":"cebpf4jnsgd1na2vs0mg"},{"bike_id":"14feda73-7baf-4b64-8ae9-79f4fe7d4a5f","system_id":"levelo_inurba_marseille","lat":43.323724,"lon":5.367613,"is_reserved":false,"is_disabled":false,"rental_uris":{"android":"levelo://app?vid=14feda73-7baf-4b64-8ae9-79f4fe7d4a5f","ios":"levelo://app?vid=14feda73-7baf-4b64-8ae9-79f4fe7d4a5f"},"vehicle_type_id":"4","last_reported":1747995105,"current_range_meters":9200,"station_id":"ce4bhsh2rcd13ifvqi2g","pricing_plan_id":"cebpf4jnsgd1na2vs0mg"},{"bike_id":"d6fcae92-63cc-41c0-a195-4e4cfbd7ec99","system_id":"levelo_inurba_marseille","lat":43.306007,"lon":5.372257,"is_reserved":false,"is_disabled":false,"rental_uris":{"android":"levelo://app?vid=d6fcae92-63cc-41c0-a195-4e4cfbd7ec99","ios":"levelo://app?vid=d6fcae92-63cc-41c0-a195-4e4cfbd7ec99"},"vehicle_type_id":"4","last_reported":1747995105,"current_range_meters":9600,"station_id":"ce4bgqh2rcd13ifvqc4g","pricing_plan_id":"cebpf4jnsgd1na2vs0mg"},{"bike_id":"1ec8b841-2bbe-42f7-b066-35a58ffee6c4","system_id":"levelo_inurba_marseille","lat":43.308907,"lon":5.371863,"is_reserved":false,"is_disabled":false,"rental_uris":{"android":"levelo://app?vid=1ec8b841-2bbe-42f7-b066-35a58ffee6c4","ios":"levelo://app?vid=1ec8b841-2bbe-42f7-b066-35a58ffee6c4"},"vehicle_type_id":"4","last_reported":1747995105,"current_range_meters":9600,"station_id":"ce4bguh2rcd13ifvqckg","pricing_plan_id":"cebpf4jnsgd1na2vs0mg"},{"bike_id":"b05f41dc-a506-4517-b95a-1f901c6068db","system_id":"levelo_inurba_marseille","lat":43.24809,"lon":5.3746,"is_reserved":false,"is_disabled":false,"rental_uris":{"android":"levelo://app?vid=b05f41dc-a506-4517-b95a-1f901c6068db","ios":"levelo://app?vid=b05f41dc-a506-4517-b95a-1f901c6068db"},"vehicle_type_id":"4","last_reported":1747995105,"current_range_meters":9600,"station_id":"ce4bhgh2rcd13ifvqfb0","pricing_plan_id":"cebpf4jnsgd1na2vs0mg"},{"bike_id":"31e4b6ca-1945-4c40-8ae6-fb8fb9154012","system_id":"levelo_inurba_marseille","lat":43.24385,"lon":5.37056,"is_reserved":false,"is_disabled":false,"rental_uris":{"android":"levelo://app?vid=31e4b6ca-1945-4c40-8ae6-fb8fb9154012","ios":"levelo://app?vid=31e4b6ca-1945-4c40-8ae6-fb8fb9154012"},"vehicle_type_id":"4","last_reported":1747995105,"current_range_meters":9600,"station_id":"ce4bhhh2rcd13ifvqfk0","pricing_plan_id":"cebpf4jnsgd1na2vs0mg"},{"bike_id":"682e8c54-3f77-4582-937b-7490f31456f6","system_id":"levelo_inurba_marseille","lat":43.25872,"lon":5.39903,"is_reserved":false,"is_disabled":false,"rental_uris":{"android":"levelo://app?vid=682e8c54-3f77-4582-937b-7490f31456f6","ios":"levelo://app?vid=682e8c54-3f77-4582-937b-7490f31456f6"},"vehicle_type_id":"4","last_reported":1747995105,"current_range_meters":9600,"station_id":"ce4bhl92rcd13ifvqghg","pricing_plan_id":"cebpf4jnsgd1na2vs0mg"},{"bike_id":"2d5f7454-a4a6-4e8b-9495-8d6b94c61ba5","system_id":"levelo_inurba_marseille","lat":43.22928,"lon":5.35373,"is_reserved":false,"is_disabled":false,"rental_uris":{"android":"levelo://app?vid=2d5f7454-a4a6-4e8b-9495-8d6b94c61ba5","ios":"levelo://app?vid=2d5f7454-a4a6-4e8b-9495-8d6b94c61ba5"},"vehicle_type_id":"4","last_reported":1747995105,"current_range_meters":9600,"station_id":"cpo3532slgdg3j2ikp40","pricing_plan_id":"cebpf4jnsgd1na2vs0mg"},{"bike_id":"d05c3f11-2e60-44b7-9c20-d6dc0211eaa3","system_id":"levelo_inurba_marseille","lat":43.27672,"lon":5.3887,"is_reserved":false,"is_disabled":false,"rental_uris":{"android":"levelo://app?vid=d05c3f11-2e60-44b7-9c20-d6dc0211eaa3","ios":"levelo://app?vid=d05c3f11-2e60-44b7-9c20-d6dc0211eaa3"},"vehicle_type_id":"4","last_reported":1747995105,"current_range_meters":10000,"station_id":"ce4bhi12rcd13ifvqfo0","pricing_plan_id":"cebpf4jnsgd1na2vs0mg"},{"bike_id":"18ca849a-bab9-472d-80e2-f3856fcd9684","system_id":"levelo_inurba_marseille","lat":43.2396,"lon":5.36639,"is_reserved":false,"is_disabled":false,"rental_uris":{"android":"levelo://app?vid=18ca849a-bab9-472d-80e2-f3856fcd9684","ios":"levelo://app?vid=18ca849a-bab9-472d-80e2-f3856fcd9684"},"vehicle_type_id":"4","last_reported":1747995105,"current_range_meters":10000,"station_id":"ce4bhi12rcd13ifvqfp0","pricing_plan_id":"cebpf4jnsgd1na2vs0mg"},{"bike_id":"e3e19b90-9823-4b53-b8a7-4c599b3176c2","system_id":"levelo_inurba_marseille","lat":43.25101,"lon":5.40336,"is_reserved":false,"is_disabled":false,"rental_uris":{"android":"levelo://app?vid=e3e19b90-9823-4b53-b8a7-4c599b3176c2","ios":"levelo://app?vid=e3e19b90-9823-4b53-b8a7-4c599b3176c2"},"vehicle_type_id":"4","last_reported":1747995105,"current_range_meters":10000,"station_id":"ce4bhlh2rcd13ifvqgig","pricing_plan_id":"cebpf4jnsgd1na2vs0mg"},{"bike_id":"6e0ef299-0936-4911-b177-862cab14ae70","system_id":"levelo_inurba_marseille","lat":43.23145,"lon":5.4371,"is_reserved":false,"is_disabled":false,"rental_uris":{"android":"levelo://app?vid=6e0ef299-0936-4911-b177-862cab14ae70","ios":"levelo://app?vid=6e0ef299-0936-4911-b177-862cab14ae70"},"vehicle_type_id":"4","last_reported":1747995105,"current_range_meters":10000,"station_id":"ce4bhmp2rcd13ifvqgog","pricing_plan_id":"cebpf4jnsgd1na2vs0mg"},{"bike_id":"20a7fa49-fd7f-4833-9164-1b736a366091","system_id":"levelo_inurba_marseille","lat":43.27949,"lon":5.41056,"is_reserved":false,"is_disabled":false,"rental_uris":{"android":"levelo://app?vid=20a7fa49-fd7f-4833-9164-1b736a366091","ios":"levelo://app?vid=20a7fa49-fd7f-4833-9164-1b736a366091"},"vehicle_type_id":"4","last_reported":1747995105,"current_range_meters":10000,"station_id":"ce4bhnp2rcd13ifvqh0g","pricing_plan_id":"cebpf4jnsgd1na2vs0mg"},{"bike_id":"823489db-94be-42d5-80e9-6488cc04baee","system_id":"levelo_inurba_marseille","lat":43.21746,"lon":5.34618,"is_reserved":false,"is_disabled":false,"rental_uris":{"android":"levelo://app?vid=823489db-94be-42d5-80e9-6488cc04baee","ios":"levelo://app?vid=823489db-94be-42d5-80e9-6488cc04baee"},"vehicle_type_id":"4","last_reported":1747995105,"current_range_meters":10800,"station_id":"","pricing_plan_id":"cebpf4jnsgd1na2vs0mg"},{"bike_id":"2445797d-9a84-49f7-8a01-77637f91854b","system_id":"levelo_inurba_marseille","lat":43.28414,"lon":5.34977,"is_reserved":false,"is_disabled":false,"rental_uris":{"android":"levelo://app?vid=2445797d-9a84-49f7-8a01-77637f91854b","ios":"levelo://app?vid=2445797d-9a84-49f7-8a01-77637f91854b"},"vehicle_type_id":"4","last_reported":1747995105,"current_range_meters":10800,"station_id":"","pricing_plan_id":"cebpf4jnsgd1na2vs0mg"},{"bike_id":"2c87c810-7a38-4e57-b8f4-53b1ff151be1","system_id":"levelo_inurba_marseille","lat":43.28609,"lon":5.35114,"is_reserved":false,"is_disabled":false,"rental_uris":{"android":"levelo://app?vid=2c87c810-7a38-4e57-b8f4-53b1ff151be1","ios":"levelo://app?vid=2c87c810-7a38-4e57-b8f4-53b1ff151be1"},"vehicle_type_id":"4","last_reported":1747995105,"current_range_meters":10800,"station_id":"","pricing_plan_id":"cebpf4jnsgd1na2vs0mg"},{"bike_id":"b5af5f86-f6ab-4a3a-a5fa-efb0141ee615","system_id":"levelo_inurba_marseille","lat":43.29257,"lon":5.37616,"is_reserved":false,"is_disabled":false,"rental_uris":{"android":"levelo://app?vid=b5af5f86-f6ab-4a3a-a5fa-efb0141ee615","ios":"levelo://app?vid=b5af5f86-f6ab-4a3a-a5fa-efb0141ee615"},"vehicle_type_id":"4","last_reported":1747995105,"current_range_meters":10800,"station_id":"ce4bgi12rcd13ifvqb80","pricing_plan_id":"cebpf4jnsgd1na2vs0mg"},{"bike_id":"8ebd207c-6224-4f18-a8e0-4acafb238f5a","system_id":"levelo_inurba_marseille","lat":43.3055,"lon":5.36564,"is_reserved":false,"is_disabled":false,"rental_uris":{"android":"levelo://app?vid=8ebd207c-6224-4f18-a8e0-4acafb238f5a","ios":"levelo://app?vid=8ebd207c-6224-4f18-a8e0-4acafb238f5a"},"vehicle_type_id":"4","last_reported":1747995105,"current_range_meters":10800,"station_id":"ce4bgs12rcd13ifvqcag","pricing_plan_id":"cebpf4jnsgd1na2vs0mg"},{"bike_id":"23d143d1-3ad0-448c-a704-752010e19e0b","system_id":"levelo_inurba_marseille","lat":43.25491,"lon":5.37635,"is_reserved":false,"is_disabled":false,"rental_uris":{"android":"levelo://app?vid=23d143d1-3ad0-448c-a704-752010e19e0b","ios":"levelo://app?vid=23d143d1-3ad0-448c-a704-752010e19e0b"},"vehicle_type_id":"4","last_reported":1747995105,"current_range_meters":10800,"station_id":"ce4bhh12rcd13ifvqff0","pricing_plan_id":"cebpf4jnsgd1na2vs0mg"},{"bike_id":"60e4ed4d-cb67-42d1-aa59-cd42a0868b56","system_id":"levelo_inurba_marseille","lat":43.241864,"lon":5.397382,"is_reserved":false,"is_disabled":false,"rental_uris":{"android":"levelo://app?vid=60e4ed4d-cb67-42d1-aa59-cd42a0868b56","ios":"levelo://app?vid=60e4ed4d-cb67-42d1-aa59-cd42a0868b56"},"vehicle_type_id":"4","last_reported":1747995105,"current_range_meters":10800,"station_id":"ce4bhn12rcd13ifvqgpg","pricing_plan_id":"cebpf4jnsgd1na2vs0mg"},{"bike_id":"a3f746db-4607-4bd5-9102-c1d33a711d01","system_id":"levelo_inurba_marseille","lat":43.25718,"lon":5.41116,"is_reserved":false,"is_disabled":false,"rental_uris":{"android":"levelo://app?vid=a3f746db-4607-4bd5-9102-c1d33a711d01","ios":"levelo://app?vid=a3f746db-4607-4bd5-9102-c1d33a711d01"},"vehicle_type_id":"4","last_reported":1747995105,"current_range_meters":11200,"station_id":"ce4bhkp2rcd13ifvqgd0","pricing_plan_id":"cebpf4jnsgd1na2vs0mg"},{"bike_id":"d1a2317d-fe32-49cc-ad6b-695de6601388","system_id":"levelo_inurba_marseille","lat":43.211913,"lon":5.350757,"is_reserved":false,"is_disabled":false,"rental_uris":{"android":"levelo://app?vid=d1a2317d-fe32-49cc-ad6b-695de6601388","ios":"levelo://app?vid=d1a2317d-fe32-49cc-ad6b-695de6601388"},"vehicle_type_id":"4","last_reported":1747995105,"current_range_meters":11200,"station_id":"st_cvj6sg6p6f1abm77japg","pricing_plan_id":"cebpf4jnsgd1na2vs0mg"},{"bike_id":"1f8f2cf8-e258-4b66-9b66-66da44b9c55c","system_id":"levelo_inurba_marseille","lat":43.30989,"lon":5.40222,"is_reserved":false,"is_disabled":false,"rental_uris":{"android":"levelo://app?vid=1f8f2cf8-e258-4b66-9b66-66da44b9c55c","ios":"levelo://app?vid=1f8f2cf8-e258-4b66-9b66-66da44b9c55c"},"vehicle_type_id":"4","last_reported":1747995105,"current_range_meters":11600,"station_id":"","pricing_plan_id":"cebpf4jnsgd1na2vs0mg"},{"bike_id":"e85710d8-0451-4310-9d43-3629429d8bc9","system_id":"levelo_inurba_marseille","lat":43.309016,"lon":5.368544,"is_reserved":false,"is_disabled":false,"rental_uris":{"android":"levelo://app?vid=e85710d8-0451-4310-9d43-3629429d8bc9","ios":"levelo://app?vid=e85710d8-0451-4310-9d43-3629429d8bc9"},"vehicle_type_id":"4","last_reported":1747995105,"current_range_meters":11600,"station_id":"ce4bgn92rcd13ifvqbvg","pricing_plan_id":"cebpf4jnsgd1na2vs0mg"},{"bike_id":"87703671-a46b-4e6e-8e22-67fcd85d972f","system_id":"levelo_inurba_marseille","lat":43.30254,"lon":5.37719,"is_reserved":false,"is_disabled":false,"rental_uris":{"android":"levelo://app?vid=87703671-a46b-4e6e-8e22-67fcd85d972f","ios":"levelo://app?vid=87703671-a46b-4e6e-8e22-67fcd85d972f"},"vehicle_type_id":"4","last_reported":1747995105,"current_range_meters":11600,"station_id":"ce4bguh2rcd13ifvqcj0","pricing_plan_id":"cebpf4jnsgd1na2vs0mg"},{"bike_id":"e5c6b5d7-fbfb-4255-90f8-02c3536ee2cd","system_id":"levelo_inurba_marseille","lat":43.28039,"lon":5.36954,"is_reserved":false,"is_disabled":false,"rental_uris":{"android":"levelo://app?vid=e5c6b5d7-fbfb-4255-90f8-02c3536ee2cd","ios":"levelo://app?vid=e5c6b5d7-fbfb-4255-90f8-02c3536ee2cd"},"vehicle_type_id":"4","last_reported":1747995105,"current_range_meters":11600,"station_id":"ce4bha12rcd13ifvqef0","pricing_plan_id":"cebpf4jnsgd1na2vs0mg"},{"bike_id":"187ca993-eb78-4566-8bcc-6fc04554b5af","system_id":"levelo_inurba_marseille","lat":43.318388,"lon":5.374574,"is_reserved":false,"is_disabled":false,"rental_uris":{"android":"levelo://app?vid=187ca993-eb78-4566-8bcc-6fc04554b5af","ios":"levelo://app?vid=187ca993-eb78-4566-8bcc-6fc04554b5af"},"vehicle_type_id":"4","last_reported":1747995105,"current_range_meters":12000,"station_id":"","pricing_plan_id":"cebpf4jnsgd1na2vs0mg"},{"bike_id":"51db79a7-7179-406b-b35a-3e5d43f01628","system_id":"levelo_inurba_marseille","lat":43.2971,"lon":5.36604,"is_reserved":false,"is_disabled":false,"rental_uris":{"android":"levelo://app?vid=51db79a7-7179-406b-b35a-3e5d43f01628","ios":"levelo://app?vid=51db79a7-7179-406b-b35a-3e5d43f01628"},"vehicle_type_id":"4","last_reported":1747995105,"current_range_meters":12000,"station_id":"ce4bgn12rcd13ifvqbt0","pricing_plan_id":"cebpf4jnsgd1na2vs0mg"},{"bike_id":"71ea0f0f-2135-4a73-8489-3737f01edf94","system_id":"levelo_inurba_marseille","lat":43.26781,"lon":5.39419,"is_reserved":false,"is_disabled":false,"rental_uris":{"android":"levelo://app?vid=71ea0f0f-2135-4a73-8489-3737f01edf94","ios":"levelo://app?vid=71ea0f0f-2135-4a73-8489-3737f01edf94"},"vehicle_type_id":"4","last_reported":1747995105,"current_range_meters":12000,"station_id":"ce4bhh12rcd13ifvqfg0","pricing_plan_id":"cebpf4jnsgd1na2vs0mg"},{"bike_id":"7a174cf0-49bb-442b-9787-ed977ba34ca4","system_id":"levelo_inurba_marseille","lat":43.241665,"lon":5.397362,"is_reserved":false,"is_disabled":false,"rental_uris":{"android":"levelo://app?vid=7a174cf0-49bb-442b-9787-ed977ba34ca4","ios":"levelo://app?vid=7a174cf0-49bb-442b-9787-ed977ba34ca4"},"vehicle_type_id":"4","last_reported":1747995105,"current_range_meters":12000,"station_id":"ce4bhn12rcd13ifvqgpg","pricing_plan_id":"cebpf4jnsgd1na2vs0mg"},{"bike_id":"d531f528-bbd2-48f6-8940-7849c3891d75","system_id":"levelo_inurba_marseille","lat":43.24162,"lon":5.39711,"is_reserved":false,"is_disabled":false,"rental_uris":{"android":"levelo://app?vid=d531f528-bbd2-48f6-8940-7849c3891d75","ios":"levelo://app?vid=d531f528-bbd2-48f6-8940-7849c3891d75"},"vehicle_type_id":"4","last_reported":1747995105,"current_range_meters":12000,"station_id":"ce4bhn12rcd13ifvqgpg","pricing_plan_id":"cebpf4jnsgd1na2vs0mg"},{"bike_id":"6dde22b3-be2c-4353-838d-05c85608e4d3","system_id":"levelo_inurba_marseille","lat":43.323626,"lon":5.367543,"is_reserved":false,"is_disabled":false,"rental_uris":{"android":"levelo://app?vid=6dde22b3-be2c-4353-838d-05c85608e4d3","ios":"levelo://app?vid=6dde22b3-be2c-4353-838d-05c85608e4d3"},"vehicle_type_id":"4","last_reported":1747995105,"current_range_meters":12000,"station_id":"ce4bhsh2rcd13ifvqi2g","pricing_plan_id":"cebpf4jnsgd1na2vs0mg"},{"bike_id":"ca6e9c93-0d92-4299-a33a-b6224bc297cc","system_id":"levelo_inurba_marseille","lat":43.29551,"lon":5.36527,"is_reserved":false,"is_disabled":false,"rental_uris":{"android":"levelo://app?vid=ca6e9c93-0d92-4299-a33a-b6224bc297cc","ios":"levelo://app?vid=ca6e9c93-0d92-4299-a33a-b6224bc297cc"},"vehicle_type_id":"4","last_reported":1747995105,"current_range_meters":12400,"station_id":"","pricing_plan_id":"cebpf4jnsgd1na2vs0mg"},{"bike_id":"76b0c297-9fee-41ca-95f6-35567cb7f4d9","system_id":"levelo_inurba_marseille","lat":43.292665,"lon":5.37639,"is_reserved":false,"is_disabled":false,"rental_uris":{"android":"levelo://app?vid=76b0c297-9fee-41ca-95f6-35567cb7f4d9","ios":"levelo://app?vid=76b0c297-9fee-41ca-95f6-35567cb7f4d9"},"vehicle_type_id":"4","last_reported":1747995105,"current_range_meters":12400,"station_id":"","pricing_plan_id":"cebpf4jnsgd1na2vs0mg"},{"bike_id":"a4d2b3ba-808d-4328-805a-24d6d045d03c","system_id":"levelo_inurba_marseille","lat":43.29301,"lon":5.37452,"is_reserved":false,"is_disabled":false,"rental_uris":{"android":"levelo://app?vid=a4d2b3ba-808d-4328-805a-24d6d045d03c","ios":"levelo://app?vid=a4d2b3ba-808d-4328-805a-24d6d045d03c"},"vehicle_type_id":"4","last_reported":1747995105,"current_range_meters":12400,"station_id":"ce4bgi12rcd13ifvqb70","pricing_plan_id":"cebpf4jnsgd1na2vs0mg"},{"bike_id":"febd3845-ce06-4fa5-b257-0369c4ccdc89","system_id":"levelo_inurba_marseille","lat":43.25577,"lon":5.38231,"is_reserved":false,"is_disabled":false,"rental_uris":{"android":"levelo://app?vid=febd3845-ce06-4fa5-b257-0369c4ccdc89","ios":"levelo://app?vid=febd3845-ce06-4fa5-b257-0369c4ccdc89"},"vehicle_type_id":"4","last_reported":1747995105,"current_range_meters":12400,"station_id":"ce4bhih2rcd13ifvqfs0","pricing_plan_id":"cebpf4jnsgd1na2vs0mg"},{"bike_id":"1e164eaf-2ffb-4814-9442-b43f6b5c9f80","system_id":"levelo_inurba_marseille","lat":43.24153,"lon":5.36431,"is_reserved":false,"is_disabled":false,"rental_uris":{"android":"levelo://app?vid=1e164eaf-2ffb-4814-9442-b43f6b5c9f80","ios":"levelo://app?vid=1e164eaf-2ffb-4814-9442-b43f6b5c9f80"},"vehicle_type_id":"4","last_reported":1747995105,"current_range_meters":12400,"station_id":"cpo36qri1sfpv3e86is0","pricing_plan_id":"cebpf4jnsgd1na2vs0mg"},{"bike_id":"89778c94-d504-4022-be4c-e2b0377e3b06","system_id":"levelo_inurba_marseille","lat":43.260304,"lon":5.375484,"is_reserved":false,"is_disabled":false,"rental_uris":{"android":"levelo://app?vid=89778c94-d504-4022-be4c-e2b0377e3b06","ios":"levelo://app?vid=89778c94-d504-4022-be4c-e2b0377e3b06"},"vehicle_type_id":"4","last_reported":1747995105,"current_range_meters":12800,"station_id":"ce4bhgh2rcd13ifvqfa0","pricing_plan_id":"cebpf4jnsgd1na2vs0mg"},{"bike_id":"8f5ad702-5ff8-41ee-b034-3d5a2428c0c5","system_id":"levelo_inurba_marseille","lat":43.25111,"lon":5.40326,"is_reserved":false,"is_disabled":false,"rental_uris":{"android":"levelo://app?vid=8f5ad702-5ff8-41ee-b034-3d5a2428c0c5","ios":"levelo://app?vid=8f5ad702-5ff8-41ee-b034-3d5a2428c0c5"},"vehicle_type_id":"4","last_reported":1747995105,"current_range_meters":12800,"station_id":"ce4bhlh2rcd13ifvqgig","pricing_plan_id":"cebpf4jnsgd1na2vs0mg"},{"bike_id":"7efeaff6-1d82-4fca-9052-bf5ac5b2e8b5","system_id":"levelo_inurba_marseille","lat":43.27952,"lon":5.41031,"is_reserved":false,"is_disabled":false,"rental_uris":{"android":"levelo://app?vid=7efeaff6-1d82-4fca-9052-bf5ac5b2e8b5","ios":"levelo://app?vid=7efeaff6-1d82-4fca-9052-bf5ac5b2e8b5"},"vehicle_type_id":"4","last_reported":1747995105,"current_range_meters":12800,"station_id":"ce4bhnp2rcd13ifvqh0g","pricing_plan_id":"cebpf4jnsgd1na2vs0mg"},{"bike_id":"2ea50577-1176-467c-8d1f-ce07d6571fb8","system_id":"levelo_inurba_marseille","lat":43.23187,"lon":5.35557,"is_reserved":false,"is_disabled":false,"rental_uris":{"android":"levelo://app?vid=2ea50577-1176-467c-8d1f-ce07d6571fb8","ios":"levelo://app?vid=2ea50577-1176-467c-8d1f-ce07d6571fb8"},"vehicle_type_id":"4","last_reported":1747995105,"current_range_meters":12800,"station_id":"ce4bhu92rcd13ifvqi70","pricing_plan_id":"cebpf4jnsgd1na2vs0mg"},{"bike_id":"c8d9bc33-a149-462f-b623-e3403de0b5a0","system_id":"levelo_inurba_marseille","lat":43.26651,"lon":5.38244,"is_reserved":false,"is_disabled":false,"rental_uris":{"android":"levelo://app?vid=c8d9bc33-a149-462f-b623-e3403de0b5a0","ios":"levelo://app?vid=c8d9bc33-a149-462f-b623-e3403de0b5a0"},"vehicle_type_id":"4","last_reported":1747995105,"current_range_meters":13600,"station_id":"ce4bhg92rcd13ifvqf90","pricing_plan_id":"cebpf4jnsgd1na2vs0mg"},{"bike_id":"725a6e01-d6bf-4855-8435-d01c02dfca15","system_id":"levelo_inurba_marseille","lat":43.246516,"lon":5.388955,"is_reserved":false,"is_disabled":false,"rental_uris":{"android":"levelo://app?vid=725a6e01-d6bf-4855-8435-d01c02dfca15","ios":"levelo://app?vid=725a6e01-d6bf-4855-8435-d01c02dfca15"},"vehicle_type_id":"4","last_reported":1747995105,"current_range_meters":13600,"station_id":"ce4bhlh2rcd13ifvqgig","pricing_plan_id":"cebpf4jnsgd1na2vs0mg"},{"bike_id":"18fff3da-92d5-49ac-88d8-4876f7d59aa3","system_id":"levelo_inurba_marseille","lat":43.30157,"lon":5.38068,"is_reserved":false,"is_disabled":false,"rental_uris":{"android":"levelo://app?vid=18fff3da-92d5-49ac-88d8-4876f7d59aa3","ios":"levelo://app?vid=18fff3da-92d5-49ac-88d8-4876f7d59aa3"},"vehicle_type_id":"4","last_reported":1747995105,"current_range_meters":14000,"station_id":"ce4bgjp2rcd13ifvqbh0","pricing_plan_id":"cebpf4jnsgd1na2vs0mg"},{"bike_id":"85678667-3553-4b38-a938-1f5a20e4e0d9","system_id":"levelo_inurba_marseille","lat":43.30142,"lon":5.38068,"is_reserved":false,"is_disabled":false,"rental_uris":{"android":"levelo://app?vid=85678667-3553-4b38-a938-1f5a20e4e0d9","ios":"levelo://app?vid=85678667-3553-4b38-a938-1f5a20e4e0d9"},"vehicle_type_id":"4","last_reported":1747995105,"current_range_meters":14000,"station_id":"ce4bgjp2rcd13ifvqbh0","pricing_plan_id":"cebpf4jnsgd1na2vs0mg"},{"bike_id":"9ffce623-64a0-4190-8f01-af8e1cc5846e","system_id":"levelo_inurba_marseille","lat":43.30546,"lon":5.36519,"is_reserved":false,"is_disabled":false,"rental_uris":{"android":"levelo://app?vid=9ffce623-64a0-4190-8f01-af8e1cc5846e","ios":"levelo://app?vid=9ffce623-64a0-4190-8f01-af8e1cc5846e"},"vehicle_type_id":"4","last_reported":1747995105,"current_range_meters":14000,"station_id":"ce4bgs12rcd13ifvqcag","pricing_plan_id":"cebpf4jnsgd1na2vs0mg"},{"bike_id":"a798eef8-c007-4e16-853c-244b6e137a9a","system_id":"levelo_inurba_marseille","lat":43.28848,"lon":5.35846,"is_reserved":false,"is_disabled":false,"rental_uris":{"android":"levelo://app?vid=a798eef8-c007-4e16-853c-244b6e137a9a","ios":"levelo://app?vid=a798eef8-c007-4e16-853c-244b6e137a9a"},"vehicle_type_id":"4","last_reported":1747995105,"current_range_meters":14000,"station_id":"ce4bhb12rcd13ifvqem0","pricing_plan_id":"cebpf4jnsgd1na2vs0mg"},{"bike_id":"ef0913fd-6d6a-40d0-91b0-f4763713408e","system_id":"levelo_inurba_marseille","lat":43.25824,"lon":5.39443,"is_reserved":false,"is_disabled":false,"rental_uris":{"android":"levelo://app?vid=ef0913fd-6d6a-40d0-91b0-f4763713408e","ios":"levelo://app?vid=ef0913fd-6d6a-40d0-91b0-f4763713408e"},"vehicle_type_id":"4","last_reported":1747995105,"current_range_meters":14000,"station_id":"ce4bhip2rcd13ifvqft0","pricing_plan_id":"cebpf4jnsgd1na2vs0mg"},{"bike_id":"51d7e9e2-d9b2-4a0d-9003-5e749118f3bc","system_id":"levelo_inurba_marseille","lat":43.231488,"lon":5.437154,"is_reserved":false,"is_disabled":false,"rental_uris":{"android":"levelo://app?vid=51d7e9e2-d9b2-4a0d-9003-5e749118f3bc","ios":"levelo://app?vid=51d7e9e2-d9b2-4a0d-9003-5e749118f3bc"},"vehicle_type_id":"4","last_reported":1747995105,"current_range_meters":14000,"station_id":"ce4bhmp2rcd13ifvqgog","pricing_plan_id":"cebpf4jnsgd1na2vs0mg"},{"bike_id":"a63517d6-1d09-4803-a217-893c80757b63","system_id":"levelo_inurba_marseille","lat":43.28427,"lon":5.34972,"is_reserved":false,"is_disabled":false,"rental_uris":{"android":"levelo://app?vid=a63517d6-1d09-4803-a217-893c80757b63","ios":"levelo://app?vid=a63517d6-1d09-4803-a217-893c80757b63"},"vehicle_type_id":"4","last_reported":1747995105,"current_range_meters":14400,"station_id":"","pricing_plan_id":"cebpf4jnsgd1na2vs0mg"},{"bike_id":"74a76304-1ebc-4270-938f-6a5511561c46","system_id":"levelo_inurba_marseille","lat":43.27937,"lon":5.41054,"is_reserved":false,"is_disabled":false,"rental_uris":{"android":"levelo://app?vid=74a76304-1ebc-4270-938f-6a5511561c46","ios":"levelo://app?vid=74a76304-1ebc-4270-938f-6a5511561c46"},"vehicle_type_id":"4","last_reported":1747995105,"current_range_meters":14400,"station_id":"ce4bhnp2rcd13ifvqh0g","pricing_plan_id":"cebpf4jnsgd1na2vs0mg"},{"bike_id":"f84e7850-4e38-4a2f-8058-4b5888bcc49b","system_id":"levelo_inurba_marseille","lat":43.3211,"lon":5.36777,"is_reserved":false,"is_disabled":false,"rental_uris":{"android":"levelo://app?vid=f84e7850-4e38-4a2f-8058-4b5888bcc49b","ios":"levelo://app?vid=f84e7850-4e38-4a2f-8058-4b5888bcc49b"},"vehicle_type_id":"4","last_reported":1747995105,"current_range_meters":14400,"station_id":"ce4bhrh2rcd13ifvqhug","pricing_plan_id":"cebpf4jnsgd1na2vs0mg"},{"bike_id":"e0f90481-9d61-4539-b9d1-228fd5cbf3d7","system_id":"levelo_inurba_marseille","lat":43.284169,"lon":5.349722,"is_reserved":false,"is_disabled":false,"rental_uris":{"android":"levelo://app?vid=e0f90481-9d61-4539-b9d1-228fd5cbf3d7","ios":"levelo://app?vid=e0f90481-9d61-4539-b9d1-228fd5cbf3d7"},"vehicle_type_id":"4","last_reported":1747995105,"current_range_meters":14800,"station_id":"","pricing_plan_id":"cebpf4jnsgd1na2vs0mg"},{"bike_id":"9cf1e069-b39a-4361-b521-5cabe80764de","system_id":"levelo_inurba_marseille","lat":43.30937,"lon":5.36846,"is_reserved":false,"is_disabled":false,"rental_uris":{"android":"levelo://app?vid=9cf1e069-b39a-4361-b521-5cabe80764de","ios":"levelo://app?vid=9cf1e069-b39a-4361-b521-5cabe80764de"},"vehicle_type_id":"4","last_reported":1747995105,"current_range_meters":14800,"station_id":"ce4bgn92rcd13ifvqbvg","pricing_plan_id":"cebpf4jnsgd1na2vs0mg"},{"bike_id":"1a7b409e-f787-4792-ae89-7ef41984e471","system_id":"levelo_inurba_marseille","lat":43.25021,"lon":5.38917,"is_reserved":false,"is_disabled":false,"rental_uris":{"android":"levelo://app?vid=1a7b409e-f787-4792-ae89-7ef41984e471","ios":"levelo://app?vid=1a7b409e-f787-4792-ae89-7ef41984e471"},"vehicle_type_id":"4","last_reported":1747995105,"current_range_meters":15200,"station_id":"ce4bhgp2rcd13ifvqfd0","pricing_plan_id":"cebpf4jnsgd1na2vs0mg"},{"bike_id":"d9c824f3-4d34-40d4-915d-cee440cba67e","system_id":"levelo_inurba_marseille","lat":43.27566,"lon":5.38422,"is_reserved":false,"is_disabled":false,"rental_uris":{"android":"levelo://app?vid=d9c824f3-4d34-40d4-915d-cee440cba67e","ios":"levelo://app?vid=d9c824f3-4d34-40d4-915d-cee440cba67e"},"vehicle_type_id":"4","last_reported":1747995105,"current_range_meters":15200,"station_id":"ce4bhh92rcd13ifvqfi0","pricing_plan_id":"cebpf4jnsgd1na2vs0mg"},{"bike_id":"24d9a7d3-ce12-48b2-836c-467cf8c19763","system_id":"levelo_inurba_marseille","lat":43.279434,"lon":5.410446,"is_reserved":false,"is_disabled":false,"rental_uris":{"android":"levelo://app?vid=24d9a7d3-ce12-48b2-836c-467cf8c19763","ios":"levelo://app?vid=24d9a7d3-ce12-48b2-836c-467cf8c19763"},"vehicle_type_id":"4","last_reported":1747995105,"current_range_meters":15200,"station_id":"ce4bhnp2rcd13ifvqh0g","pricing_plan_id":"cebpf4jnsgd1na2vs0mg"},{"bike_id":"03c27706-dafc-4e44-b173-3742dda15e11","system_id":"levelo_inurba_marseille","lat":43.23197,"lon":5.35548,"is_reserved":false,"is_disabled":false,"rental_uris":{"android":"levelo://app?vid=03c27706-dafc-4e44-b173-3742dda15e11","ios":"levelo://app?vid=03c27706-dafc-4e44-b173-3742dda15e11"},"vehicle_type_id":"4","last_reported":1747995105,"current_range_meters":15200,"station_id":"ce4bhu92rcd13ifvqi70","pricing_plan_id":"cebpf4jnsgd1na2vs0mg"},{"bike_id":"61b54502-f12b-4ef5-a817-a747b1059bab","system_id":"levelo_inurba_marseille","lat":43.263146,"lon":5.415826,"is_reserved":false,"is_disabled":false,"rental_uris":{"android":"levelo://app?vid=61b54502-f12b-4ef5-a817-a747b1059bab","ios":"levelo://app?vid=61b54502-f12b-4ef5-a817-a747b1059bab"},"vehicle_type_id":"4","last_reported":1747995105,"current_range_meters":16000,"station_id":"","pricing_plan_id":"cebpf4jnsgd1na2vs0mg"},{"bike_id":"6e5a158f-7f1d-4312-9977-ede4602769a5","system_id":"levelo_inurba_marseille","lat":43.28233,"lon":5.39068,"is_reserved":false,"is_disabled":false,"rental_uris":{"android":"levelo://app?vid=6e5a158f-7f1d-4312-9977-ede4602769a5","ios":"levelo://app?vid=6e5a158f-7f1d-4312-9977-ede4602769a5"},"vehicle_type_id":"4","last_reported":1747995105,"current_range_meters":16000,"station_id":"","pricing_plan_id":"cebpf4jnsgd1na2vs0mg"},{"bike_id":"33fe9c88-d3c8-46d5-9780-4f884749109c","system_id":"levelo_inurba_marseille","lat":43.29253,"lon":5.37631,"is_reserved":false,"is_disabled":false,"rental_uris":{"android":"levelo://app?vid=33fe9c88-d3c8-46d5-9780-4f884749109c","ios":"levelo://app?vid=33fe9c88-d3c8-46d5-9780-4f884749109c"},"vehicle_type_id":"4","last_reported":1747995105,"current_range_meters":16000,"station_id":"ce4bgi12rcd13ifvqb80","pricing_plan_id":"cebpf4jnsgd1na2vs0mg"},{"bike_id":"7deb5b80-e4db-4d24-bb43-548b604322cc","system_id":"levelo_inurba_marseille","lat":43.29576,"lon":5.39984,"is_reserved":false,"is_disabled":false,"rental_uris":{"android":"levelo://app?vid=7deb5b80-e4db-4d24-bb43-548b604322cc","ios":"levelo://app?vid=7deb5b80-e4db-4d24-bb43-548b604322cc"},"vehicle_type_id":"4","last_reported":1747995105,"current_range_meters":16000,"station_id":"ce4bh312rcd13ifvqdj0","pricing_plan_id":"cebpf4jnsgd1na2vs0mg"},{"bike_id":"e05d1e6f-4aac-4cea-aa1d-fac073f3a850","system_id":"levelo_inurba_marseille","lat":43.29228,"lon":5.36046,"is_reserved":false,"is_disabled":false,"rental_uris":{"android":"levelo://app?vid=e05d1e6f-4aac-4cea-aa1d-fac073f3a850","ios":"levelo://app?vid=e05d1e6f-4aac-4cea-aa1d-fac073f3a850"},"vehicle_type_id":"4","last_reported":1747995105,"current_range_meters":16000,"station_id":"ce4bhbh2rcd13ifvqeqg","pricing_plan_id":"cebpf4jnsgd1na2vs0mg"},{"bike_id":"ea31c44b-5c3e-4b66-97c7-5dcdab3c307a","system_id":"levelo_inurba_marseille","lat":43.28259,"lon":5.35085,"is_reserved":false,"is_disabled":false,"rental_uris":{"android":"levelo://app?vid=ea31c44b-5c3e-4b66-97c7-5dcdab3c307a","ios":"levelo://app?vid=ea31c44b-5c3e-4b66-97c7-5dcdab3c307a"},"vehicle_type_id":"4","last_reported":1747995105,"current_range_meters":16000,"station_id":"ce4bhbp2rcd13ifvqerg","pricing_plan_id":"cebpf4jnsgd1na2vs0mg"},{"bike_id":"54635c45-83d3-4db4-bf65-d3c5f6360af8","system_id":"levelo_inurba_marseille","lat":43.23151,"lon":5.43711,"is_reserved":false,"is_disabled":false,"rental_uris":{"android":"levelo://app?vid=54635c45-83d3-4db4-bf65-d3c5f6360af8","ios":"levelo://app?vid=54635c45-83d3-4db4-bf65-d3c5f6360af8"},"vehicle_type_id":"4","last_reported":1747995105,"current_range_meters":16000,"station_id":"ce4bhmp2rcd13ifvqgog","pricing_plan_id":"cebpf4jnsgd1na2vs0mg"},{"bike_id":"8246375d-41dc-417c-a8b1-912390552b3b","system_id":"levelo_inurba_marseille","lat":43.33602,"lon":5.41049,"is_reserved":false,"is_disabled":false,"rental_uris":{"android":"levelo://app?vid=8246375d-41dc-417c-a8b1-912390552b3b","ios":"levelo://app?vid=8246375d-41dc-417c-a8b1-912390552b3b"},"vehicle_type_id":"4","last_reported":1747995105,"current_range_meters":16000,"station_id":"ce4bhqh2rcd13ifvqhmg","pricing_plan_id":"cebpf4jnsgd1na2vs0mg"},{"bike_id":"9c5786ab-f880-4811-a809-ca4758267ae9","system_id":"levelo_inurba_marseille","lat":43.32486,"lon":5.36569,"is_reserved":false,"is_disabled":false,"rental_uris":{"android":"levelo://app?vid=9c5786ab-f880-4811-a809-ca4758267ae9","ios":"levelo://app?vid=9c5786ab-f880-4811-a809-ca4758267ae9"},"vehicle_type_id":"4","last_reported":1747995105,"current_range_meters":16000,"station_id":"ce4bhs12rcd13ifvqhvg","pricing_plan_id":"cebpf4jnsgd1na2vs0mg"},{"bike_id":"fc8c72ad-ca61-42c6-ae90-f61b57e45328","system_id":"levelo_inurba_marseille","lat":43.27901,"lon":5.41858,"is_reserved":false,"is_disabled":false,"rental_uris":{"android":"levelo://app?vid=fc8c72ad-ca61-42c6-ae90-f61b57e45328","ios":"levelo://app?vid=fc8c72ad-ca61-42c6-ae90-f61b57e45328"},"vehicle_type_id":"4","last_reported":1747995105,"current_range_meters":16400,"station_id":"","pricing_plan_id":"cebpf4jnsgd1na2vs0mg"},{"bike_id":"61424eb4-cf5b-459b-b9e8-630d6add21ee","system_id":"levelo_inurba_marseille","lat":43.30543,"lon":5.3843,"is_reserved":false,"is_disabled":false,"rental_uris":{"android":"levelo://app?vid=61424eb4-cf5b-459b-b9e8-630d6add21ee","ios":"levelo://app?vid=61424eb4-cf5b-459b-b9e8-630d6add21ee"},"vehicle_type_id":"4","last_reported":1747995105,"current_range_meters":16400,"station_id":"ce4bgg92rcd13ifvqb30","pricing_plan_id":"cebpf4jnsgd1na2vs0mg"},{"bike_id":"28eeb118-f3db-494d-9039-501f10d6e96f","system_id":"levelo_inurba_marseille","lat":43.30145,"lon":5.38072,"is_reserved":false,"is_disabled":false,"rental_uris":{"android":"levelo://app?vid=28eeb118-f3db-494d-9039-501f10d6e96f","ios":"levelo://app?vid=28eeb118-f3db-494d-9039-501f10d6e96f"},"vehicle_type_id":"4","last_reported":1747995105,"current_range_meters":16400,"station_id":"ce4bgjp2rcd13ifvqbh0","pricing_plan_id":"cebpf4jnsgd1na2vs0mg"},{"bike_id":"dbc8e8b3-c5c8-49fb-8ebe-fa9e55306988","system_id":"levelo_inurba_marseille","lat":43.26786,"lon":5.39417,"is_reserved":false,"is_disabled":false,"rental_uris":{"android":"levelo://app?vid=dbc8e8b3-c5c8-49fb-8ebe-fa9e55306988","ios":"levelo://app?vid=dbc8e8b3-c5c8-49fb-8ebe-fa9e55306988"},"vehicle_type_id":"4","last_reported":1747995105,"current_range_meters":16400,"station_id":"ce4bhh12rcd13ifvqfg0","pricing_plan_id":"cebpf4jnsgd1na2vs0mg"},{"bike_id":"dc0ccc40-a4ff-4be9-ba1f-ee4d6be09ca5","system_id":"levelo_inurba_marseille","lat":43.25719,"lon":5.41109,"is_reserved":false,"is_disabled":false,"rental_uris":{"android":"levelo://app?vid=dc0ccc40-a4ff-4be9-ba1f-ee4d6be09ca5","ios":"levelo://app?vid=dc0ccc40-a4ff-4be9-ba1f-ee4d6be09ca5"},"vehicle_type_id":"4","last_reported":1747995105,"current_range_meters":16400,"station_id":"ce4bhkp2rcd13ifvqgd0","pricing_plan_id":"cebpf4jnsgd1na2vs0mg"},{"bike_id":"01e09790-234a-4c0f-85e6-b033b224dd39","system_id":"levelo_inurba_marseille","lat":43.25861,"lon":5.39897,"is_reserved":false,"is_disabled":false,"rental_uris":{"android":"levelo://app?vid=01e09790-234a-4c0f-85e6-b033b224dd39","ios":"levelo://app?vid=01e09790-234a-4c0f-85e6-b033b224dd39"},"vehicle_type_id":"4","last_reported":1747995105,"current_range_meters":16400,"station_id":"ce4bhl92rcd13ifvqghg","pricing_plan_id":"cebpf4jnsgd1na2vs0mg"},{"bike_id":"8bf531c8-63c9-4599-a836-ffb8cfe6db01","system_id":"levelo_inurba_marseille","lat":43.24162,"lon":5.36431,"is_reserved":false,"is_disabled":false,"rental_uris":{"android":"levelo://app?vid=8bf531c8-63c9-4599-a836-ffb8cfe6db01","ios":"levelo://app?vid=8bf531c8-63c9-4599-a836-ffb8cfe6db01"},"vehicle_type_id":"4","last_reported":1747995105,"current_range_meters":16400,"station_id":"cpo36qri1sfpv3e86is0","pricing_plan_id":"cebpf4jnsgd1na2vs0mg"},{"bike_id":"75e91607-f093-41b1-947a-69b62fe724b6","system_id":"levelo_inurba_marseille","lat":43.34686,"lon":5.34548,"is_reserved":false,"is_disabled":false,"rental_uris":{"android":"levelo://app?vid=75e91607-f093-41b1-947a-69b62fe724b6","ios":"levelo://app?vid=75e91607-f093-41b1-947a-69b62fe724b6"},"vehicle_type_id":"4","last_reported":1747995105,"current_range_meters":16800,"station_id":"","pricing_plan_id":"cebpf4jnsgd1na2vs0mg"},{"bike_id":"4a0aac06-7a27-4b54-a3ba-71b27d9b53e6","system_id":"levelo_inurba_marseille","lat":43.29617,"lon":5.37749,"is_reserved":false,"is_disabled":false,"rental_uris":{"android":"levelo://app?vid=4a0aac06-7a27-4b54-a3ba-71b27d9b53e6","ios":"levelo://app?vid=4a0aac06-7a27-4b54-a3ba-71b27d9b53e6"},"vehicle_type_id":"4","last_reported":1747995105,"current_range_meters":16800,"station_id":"ce4bgi92rcd13ifvqb90","pricing_plan_id":"cebpf4jnsgd1na2vs0mg"},{"bike_id":"e4afbc14-4a07-4bbe-8f38-d32c5e59899e","system_id":"levelo_inurba_marseille","lat":43.31369,"lon":5.36724,"is_reserved":false,"is_disabled":false,"rental_uris":{"android":"levelo://app?vid=e4afbc14-4a07-4bbe-8f38-d32c5e59899e","ios":"levelo://app?vid=e4afbc14-4a07-4bbe-8f38-d32c5e59899e"},"vehicle_type_id":"4","last_reported":1747995105,"current_range_meters":16800,"station_id":"ce4bgr92rcd13ifvqc6g","pricing_plan_id":"cebpf4jnsgd1na2vs0mg"},{"bike_id":"1ca6194f-da2c-4248-9440-400562c7cd4f","system_id":"levelo_inurba_marseille","lat":43.31305,"lon":5.36736,"is_reserved":false,"is_disabled":false,"rental_uris":{"android":"levelo://app?vid=1ca6194f-da2c-4248-9440-400562c7cd4f","ios":"levelo://app?vid=1ca6194f-da2c-4248-9440-400562c7cd4f"},"vehicle_type_id":"4","last_reported":1747995105,"current_range_meters":16800,"station_id":"ce4bgr92rcd13ifvqc6g","pricing_plan_id":"cebpf4jnsgd1na2vs0mg"},{"bike_id":"4360e768-0cc7-48cc-906d-e4a23c068701","system_id":"levelo_inurba_marseille","lat":43.273697,"lon":5.362597,"is_reserved":false,"is_disabled":false,"rental_uris":{"android":"levelo://app?vid=4360e768-0cc7-48cc-906d-e4a23c068701","ios":"levelo://app?vid=4360e768-0cc7-48cc-906d-e4a23c068701"},"vehicle_type_id":"4","last_reported":1747995105,"current_range_meters":16800,"station_id":"ce4bhbh2rcd13ifvqeo0","pricing_plan_id":"cebpf4jnsgd1na2vs0mg"},{"bike_id":"556a803e-2c03-4960-9832-fc0d73f26d16","system_id":"levelo_inurba_marseille","lat":43.26551,"lon":5.37289,"is_reserved":false,"is_disabled":false,"rental_uris":{"android":"levelo://app?vid=556a803e-2c03-4960-9832-fc0d73f26d16","ios":"levelo://app?vid=556a803e-2c03-4960-9832-fc0d73f26d16"},"vehicle_type_id":"4","last_reported":1747995105,"current_range_meters":16800,"station_id":"ce4bhg12rcd13ifvqf70","pricing_plan_id":"cebpf4jnsgd1na2vs0mg"},{"bike_id":"49d992e5-f4fb-48ee-b4e8-ac3730b98c01","system_id":"levelo_inurba_marseille","lat":43.26548,"lon":5.37294,"is_reserved":false,"is_disabled":false,"rental_uris":{"android":"levelo://app?vid=49d992e5-f4fb-48ee-b4e8-ac3730b98c01","ios":"levelo://app?vid=49d992e5-f4fb-48ee-b4e8-ac3730b98c01"},"vehicle_type_id":"4","last_reported":1747995105,"current_range_meters":16800,"station_id":"ce4bhg12rcd13ifvqf70","pricing_plan_id":"cebpf4jnsgd1na2vs0mg"},{"bike_id":"4d8bcea3-5402-40b6-b5d8-2706ca69d34e","system_id":"levelo_inurba_marseille","lat":43.26213,"lon":5.3744,"is_reserved":false,"is_disabled":false,"rental_uris":{"android":"levelo://app?vid=4d8bcea3-5402-40b6-b5d8-2706ca69d34e","ios":"levelo://app?vid=4d8bcea3-5402-40b6-b5d8-2706ca69d34e"},"vehicle_type_id":"4","last_reported":1747995105,"current_range_meters":16800,"station_id":"ce4bhgp2rcd13ifvqfc0","pricing_plan_id":"cebpf4jnsgd1na2vs0mg"},{"bike_id":"abbc9ccb-6e99-4ed5-be82-378a82fda45c","system_id":"levelo_inurba_marseille","lat":43.27212,"lon":5.39185,"is_reserved":false,"is_disabled":false,"rental_uris":{"android":"levelo://app?vid=abbc9ccb-6e99-4ed5-be82-378a82fda45c","ios":"levelo://app?vid=abbc9ccb-6e99-4ed5-be82-378a82fda45c"},"vehicle_type_id":"4","last_reported":1747995105,"current_range_meters":16800,"station_id":"ce4bhhp2rcd13ifvqfm0","pricing_plan_id":"cebpf4jnsgd1na2vs0mg"},{"bike_id":"8fcdf39c-cdc3-4270-8329-72ecd32df0f9","system_id":"levelo_inurba_marseille","lat":43.25933,"lon":5.409053,"is_reserved":false,"is_disabled":false,"rental_uris":{"android":"levelo://app?vid=8fcdf39c-cdc3-4270-8329-72ecd32df0f9","ios":"levelo://app?vid=8fcdf39c-cdc3-4270-8329-72ecd32df0f9"},"vehicle_type_id":"4","last_reported":1747995105,"current_range_meters":16800,"station_id":"ce4bhm92rcd13ifvqglg","pricing_plan_id":"cebpf4jnsgd1na2vs0mg"},{"bike_id":"d09ef814-804c-4f6c-975b-f6b57cc87572","system_id":"levelo_inurba_marseille","lat":43.23144,"lon":5.43713,"is_reserved":false,"is_disabled":false,"rental_uris":{"android":"levelo://app?vid=d09ef814-804c-4f6c-975b-f6b57cc87572","ios":"levelo://app?vid=d09ef814-804c-4f6c-975b-f6b57cc87572"},"vehicle_type_id":"4","last_reported":1747995105,"current_range_meters":16800,"station_id":"ce4bhmp2rcd13ifvqgog","pricing_plan_id":"cebpf4jnsgd1na2vs0mg"},{"bike_id":"06e4f6b3-d0ab-45db-b363-8413f86ed001","system_id":"levelo_inurba_marseille","lat":43.28895,"lon":5.42855,"is_reserved":false,"is_disabled":false,"rental_uris":{"android":"levelo://app?vid=06e4f6b3-d0ab-45db-b363-8413f86ed001","ios":"levelo://app?vid=06e4f6b3-d0ab-45db-b363-8413f86ed001"},"vehicle_type_id":"4","last_reported":1747995105,"current_range_meters":17200,"station_id":"","pricing_plan_id":"cebpf4jnsgd1na2vs0mg"},{"bike_id":"641e3ba4-6c7d-4480-b0e9-c35d43e56319","system_id":"levelo_inurba_marseille","lat":43.29971,"lon":5.37184,"is_reserved":false,"is_disabled":false,"rental_uris":{"android":"levelo://app?vid=641e3ba4-6c7d-4480-b0e9-c35d43e56319","ios":"levelo://app?vid=641e3ba4-6c7d-4480-b0e9-c35d43e56319"},"vehicle_type_id":"4","last_reported":1747995105,"current_range_meters":17200,"station_id":"","pricing_plan_id":"cebpf4jnsgd1na2vs0mg"},{"bike_id":"c82e5a64-6e90-4dd1-94ae-cc790b58f10d","system_id":"levelo_inurba_marseille","lat":43.293049,"lon":5.374849,"is_reserved":false,"is_disabled":false,"rental_uris":{"android":"levelo://app?vid=c82e5a64-6e90-4dd1-94ae-cc790b58f10d","ios":"levelo://app?vid=c82e5a64-6e90-4dd1-94ae-cc790b58f10d"},"vehicle_type_id":"4","last_reported":1747995105,"current_range_meters":17200,"station_id":"ce4bgi12rcd13ifvqb70","pricing_plan_id":"cebpf4jnsgd1na2vs0mg"},{"bike_id":"300b762b-92b1-4eea-bdf0-666287e304c8","system_id":"levelo_inurba_marseille","lat":43.29906,"lon":5.38138,"is_reserved":false,"is_disabled":false,"rental_uris":{"android":"levelo://app?vid=300b762b-92b1-4eea-bdf0-666287e304c8","ios":"levelo://app?vid=300b762b-92b1-4eea-bdf0-666287e304c8"},"vehicle_type_id":"4","last_reported":1747995105,"current_range_meters":17200,"station_id":"ce4bgj12rcd13ifvqbc0","pricing_plan_id":"cebpf4jnsgd1na2vs0mg"},{"bike_id":"cf2a0757-a304-4e45-9878-79d60b35dfbb","system_id":"levelo_inurba_marseille","lat":43.31349,"lon":5.36696,"is_reserved":false,"is_disabled":false,"rental_uris":{"android":"levelo://app?vid=cf2a0757-a304-4e45-9878-79d60b35dfbb","ios":"levelo://app?vid=cf2a0757-a304-4e45-9878-79d60b35dfbb"},"vehicle_type_id":"4","last_reported":1747995105,"current_range_meters":17200,"station_id":"ce4bgr92rcd13ifvqc6g","pricing_plan_id":"cebpf4jnsgd1na2vs0mg"},{"bike_id":"d502a9fb-e8d3-4df5-aeef-a806c8fd7412","system_id":"levelo_inurba_marseille","lat":43.31334,"lon":5.36707,"is_reserved":false,"is_disabled":false,"rental_uris":{"android":"levelo://app?vid=d502a9fb-e8d3-4df5-aeef-a806c8fd7412","ios":"levelo://app?vid=d502a9fb-e8d3-4df5-aeef-a806c8fd7412"},"vehicle_type_id":"4","last_reported":1747995105,"current_range_meters":17200,"station_id":"ce4bgr92rcd13ifvqc6g","pricing_plan_id":"cebpf4jnsgd1na2vs0mg"},{"bike_id":"323209f8-081e-48f0-9ff3-ab93090f3288","system_id":"levelo_inurba_marseille","lat":43.30141,"lon":5.37371,"is_reserved":false,"is_disabled":false,"rental_uris":{"android":"levelo://app?vid=323209f8-081e-48f0-9ff3-ab93090f3288","ios":"levelo://app?vid=323209f8-081e-48f0-9ff3-ab93090f3288"},"vehicle_type_id":"4","last_reported":1747995105,"current_range_meters":17200,"station_id":"ce4bgs92rcd13ifvqcc0","pricing_plan_id":"cebpf4jnsgd1na2vs0mg"},{"bike_id":"42fadd8c-cdef-447e-8120-e13ca882a847","system_id":"levelo_inurba_marseille","lat":43.30471,"lon":5.37899,"is_reserved":false,"is_disabled":false,"rental_uris":{"android":"levelo://app?vid=42fadd8c-cdef-447e-8120-e13ca882a847","ios":"levelo://app?vid=42fadd8c-cdef-447e-8120-e13ca882a847"},"vehicle_type_id":"4","last_reported":1747995105,"current_range_meters":17200,"station_id":"ce4bgup2rcd13ifvqcn0","pricing_plan_id":"cebpf4jnsgd1na2vs0mg"},{"bike_id":"13b8c8ab-b7f3-471d-b27f-0e94df2771c3","system_id":"levelo_inurba_marseille","lat":43.30248,"lon":5.40064,"is_reserved":false,"is_disabled":false,"rental_uris":{"android":"levelo://app?vid=13b8c8ab-b7f3-471d-b27f-0e94df2771c3","ios":"levelo://app?vid=13b8c8ab-b7f3-471d-b27f-0e94df2771c3"},"vehicle_type_id":"4","last_reported":1747995105,"current_range_meters":17200,"station_id":"ce4bgvh2rcd13ifvqcs0","pricing_plan_id":"cebpf4jnsgd1na2vs0mg"},{"bike_id":"51bb9cd7-7d71-4c53-96b9-cf5c436b870f","system_id":"levelo_inurba_marseille","lat":43.26935,"lon":5.40278,"is_reserved":false,"is_disabled":false,"rental_uris":{"android":"levelo://app?vid=51bb9cd7-7d71-4c53-96b9-cf5c436b870f","ios":"levelo://app?vid=51bb9cd7-7d71-4c53-96b9-cf5c436b870f"},"vehicle_type_id":"4","last_reported":1747995105,"current_range_meters":17200,"station_id":"cjm6bp8fraef2m0cb0m0","pricing_plan_id":"cebpf4jnsgd1na2vs0mg"},{"bike_id":"1c960faf-d0f3-4e63-9b21-e35f107e1861","system_id":"levelo_inurba_marseille","lat":43.23962,"lon":5.36631,"is_reserved":false,"is_disabled":false,"rental_uris":{"android":"levelo://app?vid=1c960faf-d0f3-4e63-9b21-e35f107e1861","ios":"levelo://app?vid=1c960faf-d0f3-4e63-9b21-e35f107e1861"},"vehicle_type_id":"4","last_reported":1747995105,"current_range_meters":17600,"station_id":"","pricing_plan_id":"cebpf4jnsgd1na2vs0mg"},{"bike_id":"59c70fd5-3d5f-4203-9297-f2e55d2cd311","system_id":"levelo_inurba_marseille","lat":43.296122,"lon":5.369826,"is_reserved":false,"is_disabled":false,"rental_uris":{"android":"levelo://app?vid=59c70fd5-3d5f-4203-9297-f2e55d2cd311","ios":"levelo://app?vid=59c70fd5-3d5f-4203-9297-f2e55d2cd311"},"vehicle_type_id":"4","last_reported":1747995105,"current_range_meters":17600,"station_id":"ce4bgph2rcd13ifvqc2g","pricing_plan_id":"cebpf4jnsgd1na2vs0mg"},{"bike_id":"31b828bc-c795-41c7-ae49-d7ce7c9da4e8","system_id":"levelo_inurba_marseille","lat":43.30594,"lon":5.37227,"is_reserved":false,"is_disabled":false,"rental_uris":{"android":"levelo://app?vid=31b828bc-c795-41c7-ae49-d7ce7c9da4e8","ios":"levelo://app?vid=31b828bc-c795-41c7-ae49-d7ce7c9da4e8"},"vehicle_type_id":"4","last_reported":1747995105,"current_range_meters":17600,"station_id":"ce4bgqh2rcd13ifvqc4g","pricing_plan_id":"cebpf4jnsgd1na2vs0mg"},{"bike_id":"bdc56947-c95c-4056-bfd4-e1b22ff5b31e","system_id":"levelo_inurba_marseille","lat":43.29007,"lon":5.35614,"is_reserved":false,"is_disabled":false,"rental_uris":{"android":"levelo://app?vid=bdc56947-c95c-4056-bfd4-e1b22ff5b31e","ios":"levelo://app?vid=bdc56947-c95c-4056-bfd4-e1b22ff5b31e"},"vehicle_type_id":"4","last_reported":1747995105,"current_range_meters":17600,"station_id":"ce4bhb92rcd13ifvqen0","pricing_plan_id":"cebpf4jnsgd1na2vs0mg"},{"bike_id":"ec81dc1b-d94a-4d1c-b460-4a686b848ec0","system_id":"levelo_inurba_marseille","lat":43.26679,"lon":5.38265,"is_reserved":false,"is_disabled":false,"rental_uris":{"android":"levelo://app?vid=ec81dc1b-d94a-4d1c-b460-4a686b848ec0","ios":"levelo://app?vid=ec81dc1b-d94a-4d1c-b460-4a686b848ec0"},"vehicle_type_id":"4","last_reported":1747995105,"current_range_meters":17600,"station_id":"ce4bhg92rcd13ifvqf90","pricing_plan_id":"cebpf4jnsgd1na2vs0mg"},{"bike_id":"77dced66-ca01-4732-9810-4f2e5b696148","system_id":"levelo_inurba_marseille","lat":43.27057,"lon":5.40259,"is_reserved":false,"is_disabled":false,"rental_uris":{"android":"levelo://app?vid=77dced66-ca01-4732-9810-4f2e5b696148","ios":"levelo://app?vid=77dced66-ca01-4732-9810-4f2e5b696148"},"vehicle_type_id":"4","last_reported":1747995105,"current_range_meters":17600,"station_id":"ce4bhk92rcd13ifvqgc0","pricing_plan_id":"cebpf4jnsgd1na2vs0mg"},{"bike_id":"ca0f61db-0e18-43f4-b2a5-15c3c748bbb4","system_id":"levelo_inurba_marseille","lat":43.2781,"lon":5.40712,"is_reserved":false,"is_disabled":false,"rental_uris":{"android":"levelo://app?vid=ca0f61db-0e18-43f4-b2a5-15c3c748bbb4","ios":"levelo://app?vid=ca0f61db-0e18-43f4-b2a5-15c3c748bbb4"},"vehicle_type_id":"4","last_reported":1747995105,"current_range_meters":17600,"station_id":"ce4bhnh2rcd13ifvqgtg","pricing_plan_id":"cebpf4jnsgd1na2vs0mg"},{"bike_id":"849453a5-77ae-409e-9caf-83271b3caa8e","system_id":"levelo_inurba_marseille","lat":43.28078,"lon":5.39655,"is_reserved":false,"is_disabled":false,"rental_uris":{"android":"levelo://app?vid=849453a5-77ae-409e-9caf-83271b3caa8e","ios":"levelo://app?vid=849453a5-77ae-409e-9caf-83271b3caa8e"},"vehicle_type_id":"4","last_reported":1747995105,"current_range_meters":17600,"station_id":"ce4bho12rcd13ifvqh2g","pricing_plan_id":"cebpf4jnsgd1na2vs0mg"},{"bike_id":"9ecd4f3b-2d31-4272-89f4-f21a0188cd13","system_id":"levelo_inurba_marseille","lat":43.29906,"lon":5.38147,"is_reserved":false,"is_disabled":false,"rental_uris":{"android":"levelo://app?vid=9ecd4f3b-2d31-4272-89f4-f21a0188cd13","ios":"levelo://app?vid=9ecd4f3b-2d31-4272-89f4-f21a0188cd13"},"vehicle_type_id":"4","last_reported":1747995105,"current_range_meters":18000,"station_id":"ce4bgj12rcd13ifvqbc0","pricing_plan_id":"cebpf4jnsgd1na2vs0mg"},{"bike_id":"319d6256-dd1c-4b86-98e2-3b32cb08f299","system_id":"levelo_inurba_marseille","lat":43.309146,"lon":5.368521,"is_reserved":false,"is_disabled":false,"rental_uris":{"android":"levelo://app?vid=319d6256-dd1c-4b86-98e2-3b32cb08f299","ios":"levelo://app?vid=319d6256-dd1c-4b86-98e2-3b32cb08f299"},"vehicle_type_id":"4","last_reported":1747995105,"current_range_meters":18000,"station_id":"ce4bgn92rcd13ifvqbvg","pricing_plan_id":"cebpf4jnsgd1na2vs0mg"},{"bike_id":"cc30f29d-876c-4ef7-94cb-f0262ca143b6","system_id":"levelo_inurba_marseille","lat":43.26209,"lon":5.37443,"is_reserved":false,"is_disabled":false,"rental_uris":{"android":"levelo://app?vid=cc30f29d-876c-4ef7-94cb-f0262ca143b6","ios":"levelo://app?vid=cc30f29d-876c-4ef7-94cb-f0262ca143b6"},"vehicle_type_id":"4","last_reported":1747995105,"current_range_meters":18000,"station_id":"ce4bhgp2rcd13ifvqfc0","pricing_plan_id":"cebpf4jnsgd1na2vs0mg"},{"bike_id":"6b94a67a-5e89-4e2c-b0c2-4deaaacfc927","system_id":"levelo_inurba_marseille","lat":43.26777,"lon":5.39445,"is_reserved":false,"is_disabled":false,"rental_uris":{"android":"levelo://app?vid=6b94a67a-5e89-4e2c-b0c2-4deaaacfc927","ios":"levelo://app?vid=6b94a67a-5e89-4e2c-b0c2-4deaaacfc927"},"vehicle_type_id":"4","last_reported":1747995105,"current_range_meters":18000,"station_id":"ce4bhh12rcd13ifvqfg0","pricing_plan_id":"cebpf4jnsgd1na2vs0mg"},{"bike_id":"399a42c1-d4ce-45b9-8025-bd8d6add7bd5","system_id":"levelo_inurba_marseille","lat":43.23136,"lon":5.43718,"is_reserved":false,"is_disabled":false,"rental_uris":{"android":"levelo://app?vid=399a42c1-d4ce-45b9-8025-bd8d6add7bd5","ios":"levelo://app?vid=399a42c1-d4ce-45b9-8025-bd8d6add7bd5"},"vehicle_type_id":"4","last_reported":1747995105,"current_range_meters":18000,"station_id":"ce4bhmp2rcd13ifvqgog","pricing_plan_id":"cebpf4jnsgd1na2vs0mg"},{"bike_id":"8928326c-648b-48ca-ac72-50af7132758b","system_id":"levelo_inurba_marseille","lat":43.229294,"lon":5.353832,"is_reserved":false,"is_disabled":false,"rental_uris":{"android":"levelo://app?vid=8928326c-648b-48ca-ac72-50af7132758b","ios":"levelo://app?vid=8928326c-648b-48ca-ac72-50af7132758b"},"vehicle_type_id":"4","last_reported":1747995105,"current_range_meters":18000,"station_id":"cpo3532slgdg3j2ikp40","pricing_plan_id":"cebpf4jnsgd1na2vs0mg"},{"bike_id":"90398f96-fd6c-43e0-a7ee-9b318c7e482f","system_id":"levelo_inurba_marseille","lat":43.24822,"lon":5.40609,"is_reserved":false,"is_disabled":false,"rental_uris":{"android":"levelo://app?vid=90398f96-fd6c-43e0-a7ee-9b318c7e482f","ios":"levelo://app?vid=90398f96-fd6c-43e0-a7ee-9b318c7e482f"},"vehicle_type_id":"4","last_reported":1747995105,"current_range_meters":18800,"station_id":"","pricing_plan_id":"cebpf4jnsgd1na2vs0mg"},{"bike_id":"88ac5a91-56d3-4573-b0f2-5c6bbb7d986b","system_id":"levelo_inurba_marseille","lat":43.26059,"lon":5.39593,"is_reserved":false,"is_disabled":false,"rental_uris":{"android":"levelo://app?vid=88ac5a91-56d3-4573-b0f2-5c6bbb7d986b","ios":"levelo://app?vid=88ac5a91-56d3-4573-b0f2-5c6bbb7d986b"},"vehicle_type_id":"4","last_reported":1747995105,"current_range_meters":18800,"station_id":"","pricing_plan_id":"cebpf4jnsgd1na2vs0mg"},{"bike_id":"009b1f1f-646b-4fea-b6da-273616a3d069","system_id":"levelo_inurba_marseille","lat":43.29168,"lon":5.37809,"is_reserved":false,"is_disabled":false,"rental_uris":{"android":"levelo://app?vid=009b1f1f-646b-4fea-b6da-273616a3d069","ios":"levelo://app?vid=009b1f1f-646b-4fea-b6da-273616a3d069"},"vehicle_type_id":"4","last_reported":1747995105,"current_range_meters":18800,"station_id":"ce4bgi12rcd13ifvqb80","pricing_plan_id":"cebpf4jnsgd1na2vs0mg"},{"bike_id":"f5ad376f-25d9-4411-b9bb-2083a9d08f08","system_id":"levelo_inurba_marseille","lat":43.306,"lon":5.37242,"is_reserved":false,"is_disabled":false,"rental_uris":{"android":"levelo://app?vid=f5ad376f-25d9-4411-b9bb-2083a9d08f08","ios":"levelo://app?vid=f5ad376f-25d9-4411-b9bb-2083a9d08f08"},"vehicle_type_id":"4","last_reported":1747995105,"current_range_meters":18800,"station_id":"ce4bgqh2rcd13ifvqc4g","pricing_plan_id":"cebpf4jnsgd1na2vs0mg"},{"bike_id":"f9bd3725-a52f-4288-9bf9-1c3c7bc36a80","system_id":"levelo_inurba_marseille","lat":43.28418,"lon":5.34976,"is_reserved":false,"is_disabled":false,"rental_uris":{"android":"levelo://app?vid=f9bd3725-a52f-4288-9bf9-1c3c7bc36a80","ios":"levelo://app?vid=f9bd3725-a52f-4288-9bf9-1c3c7bc36a80"},"vehicle_type_id":"4","last_reported":1747995105,"current_range_meters":18800,"station_id":"ce4bhbh2rcd13ifvqepg","pricing_plan_id":"cebpf4jnsgd1na2vs0mg"},{"bike_id":"69633cff-38f6-42f6-931f-6fd5f18ad6ec","system_id":"levelo_inurba_marseille","lat":43.26685,"lon":5.38269,"is_reserved":false,"is_disabled":false,"rental_uris":{"android":"levelo://app?vid=69633cff-38f6-42f6-931f-6fd5f18ad6ec","ios":"levelo://app?vid=69633cff-38f6-42f6-931f-6fd5f18ad6ec"},"vehicle_type_id":"4","last_reported":1747995105,"current_range_meters":18800,"station_id":"ce4bhg92rcd13ifvqf90","pricing_plan_id":"cebpf4jnsgd1na2vs0mg"},{"bike_id":"0fd0dfed-40c8-4469-b796-11b63d6ca63b","system_id":"levelo_inurba_marseille","lat":43.25503,"lon":5.37651,"is_reserved":false,"is_disabled":false,"rental_uris":{"android":"levelo://app?vid=0fd0dfed-40c8-4469-b796-11b63d6ca63b","ios":"levelo://app?vid=0fd0dfed-40c8-4469-b796-11b63d6ca63b"},"vehicle_type_id":"4","last_reported":1747995105,"current_range_meters":18800,"station_id":"ce4bhh12rcd13ifvqff0","pricing_plan_id":"cebpf4jnsgd1na2vs0mg"},{"bike_id":"5a05fa65-c80f-4680-97c7-b677f6b4a0ff","system_id":"levelo_inurba_marseille","lat":43.255798,"lon":5.382396,"is_reserved":false,"is_disabled":false,"rental_uris":{"android":"levelo://app?vid=5a05fa65-c80f-4680-97c7-b677f6b4a0ff","ios":"levelo://app?vid=5a05fa65-c80f-4680-97c7-b677f6b4a0ff"},"vehicle_type_id":"4","last_reported":1747995105,"current_range_meters":18800,"station_id":"ce4bhih2rcd13ifvqfs0","pricing_plan_id":"cebpf4jnsgd1na2vs0mg"},{"bike_id":"4c2a4c58-d2c6-48c4-a352-dd11fb06beb5","system_id":"levelo_inurba_marseille","lat":43.25119,"lon":5.40314,"is_reserved":false,"is_disabled":false,"rental_uris":{"android":"levelo://app?vid=4c2a4c58-d2c6-48c4-a352-dd11fb06beb5","ios":"levelo://app?vid=4c2a4c58-d2c6-48c4-a352-dd11fb06beb5"},"vehicle_type_id":"4","last_reported":1747995105,"current_range_meters":18800,"station_id":"ce4bhlh2rcd13ifvqgig","pricing_plan_id":"cebpf4jnsgd1na2vs0mg"},{"bike_id":"e684dba6-7be3-427e-8bec-e12bcf11dbc5","system_id":"levelo_inurba_marseille","lat":43.23153,"lon":5.43713,"is_reserved":false,"is_disabled":false,"rental_uris":{"android":"levelo://app?vid=e684dba6-7be3-427e-8bec-e12bcf11dbc5","ios":"levelo://app?vid=e684dba6-7be3-427e-8bec-e12bcf11dbc5"},"vehicle_type_id":"4","last_reported":1747995105,"current_range_meters":18800,"station_id":"ce4bhmp2rcd13ifvqgog","pricing_plan_id":"cebpf4jnsgd1na2vs0mg"},{"bike_id":"604aea8b-fcac-4d69-bd89-17b2bc418797","system_id":"levelo_inurba_marseille","lat":43.23151,"lon":5.43726,"is_reserved":false,"is_disabled":false,"rental_uris":{"android":"levelo://app?vid=604aea8b-fcac-4d69-bd89-17b2bc418797","ios":"levelo://app?vid=604aea8b-fcac-4d69-bd89-17b2bc418797"},"vehicle_type_id":"4","last_reported":1747995105,"current_range_meters":18800,"station_id":"ce4bhmp2rcd13ifvqgog","pricing_plan_id":"cebpf4jnsgd1na2vs0mg"},{"bike_id":"fdd6678a-46ba-4191-a6a8-2e5954c7f96b","system_id":"levelo_inurba_marseille","lat":43.307984,"lon":5.435245,"is_reserved":false,"is_disabled":false,"rental_uris":{"android":"levelo://app?vid=fdd6678a-46ba-4191-a6a8-2e5954c7f96b","ios":"levelo://app?vid=fdd6678a-46ba-4191-a6a8-2e5954c7f96b"},"vehicle_type_id":"4","last_reported":1747995105,"current_range_meters":18800,"station_id":"ce4bhph2rcd13ifvqheg","pricing_plan_id":"cebpf4jnsgd1na2vs0mg"},{"bike_id":"b92a3c71-9ad6-4da4-9ce8-d6dfcfeae874","system_id":"levelo_inurba_marseille","lat":43.3248,"lon":5.36571,"is_reserved":false,"is_disabled":false,"rental_uris":{"android":"levelo://app?vid=b92a3c71-9ad6-4da4-9ce8-d6dfcfeae874","ios":"levelo://app?vid=b92a3c71-9ad6-4da4-9ce8-d6dfcfeae874"},"vehicle_type_id":"4","last_reported":1747995105,"current_range_meters":18800,"station_id":"ce4bhs12rcd13ifvqhvg","pricing_plan_id":"cebpf4jnsgd1na2vs0mg"},{"bike_id":"034ce18b-54c7-419d-bc93-0f5693aec2ed","system_id":"levelo_inurba_marseille","lat":43.229332,"lon":5.353758,"is_reserved":false,"is_disabled":false,"rental_uris":{"android":"levelo://app?vid=034ce18b-54c7-419d-bc93-0f5693aec2ed","ios":"levelo://app?vid=034ce18b-54c7-419d-bc93-0f5693aec2ed"},"vehicle_type_id":"4","last_reported":1747995105,"current_range_meters":18800,"station_id":"cpo3532slgdg3j2ikp40","pricing_plan_id":"cebpf4jnsgd1na2vs0mg"},{"bike_id":"da453a88-f81b-4e0f-9781-5a7f6c1d364c","system_id":"levelo_inurba_marseille","lat":43.337499,"lon":5.374469,"is_reserved":false,"is_disabled":false,"rental_uris":{"android":"levelo://app?vid=da453a88-f81b-4e0f-9781-5a7f6c1d364c","ios":"levelo://app?vid=da453a88-f81b-4e0f-9781-5a7f6c1d364c"},"vehicle_type_id":"4","last_reported":1747995105,"current_range_meters":19200,"station_id":"","pricing_plan_id":"cebpf4jnsgd1na2vs0mg"},{"bike_id":"246a303d-65ef-49e6-9e50-2e37cf092749","system_id":"levelo_inurba_marseille","lat":43.25293,"lon":5.39244,"is_reserved":false,"is_disabled":false,"rental_uris":{"android":"levelo://app?vid=246a303d-65ef-49e6-9e50-2e37cf092749","ios":"levelo://app?vid=246a303d-65ef-49e6-9e50-2e37cf092749"},"vehicle_type_id":"4","last_reported":1747995105,"current_range_meters":19200,"station_id":"","pricing_plan_id":"cebpf4jnsgd1na2vs0mg"},{"bike_id":"7b378719-9fe8-4ade-9d70-84fa8493a44f","system_id":"levelo_inurba_marseille","lat":43.29531,"lon":5.37506,"is_reserved":false,"is_disabled":false,"rental_uris":{"android":"levelo://app?vid=7b378719-9fe8-4ade-9d70-84fa8493a44f","ios":"levelo://app?vid=7b378719-9fe8-4ade-9d70-84fa8493a44f"},"vehicle_type_id":"4","last_reported":1747995105,"current_range_meters":19200,"station_id":"ce4bgkp2rcd13ifvqbmg","pricing_plan_id":"cebpf4jnsgd1na2vs0mg"},{"bike_id":"147f8927-4685-42bd-a6c5-e441222c3b69","system_id":"levelo_inurba_marseille","lat":43.266957,"lon":5.382652,"is_reserved":false,"is_disabled":false,"rental_uris":{"android":"levelo://app?vid=147f8927-4685-42bd-a6c5-e441222c3b69","ios":"levelo://app?vid=147f8927-4685-42bd-a6c5-e441222c3b69"},"vehicle_type_id":"4","last_reported":1747995105,"current_range_meters":19200,"station_id":"ce4bhg92rcd13ifvqf90","pricing_plan_id":"cebpf4jnsgd1na2vs0mg"},{"bike_id":"056d1df2-8913-424b-a8c8-cc47c7196962","system_id":"levelo_inurba_marseille","lat":43.27683,"lon":5.38872,"is_reserved":false,"is_disabled":false,"rental_uris":{"android":"levelo://app?vid=056d1df2-8913-424b-a8c8-cc47c7196962","ios":"levelo://app?vid=056d1df2-8913-424b-a8c8-cc47c7196962"},"vehicle_type_id":"4","last_reported":1747995105,"current_range_meters":19200,"station_id":"ce4bhi12rcd13ifvqfo0","pricing_plan_id":"cebpf4jnsgd1na2vs0mg"},{"bike_id":"953612d1-211b-4a14-b6c1-8616515f4508","system_id":"levelo_inurba_marseille","lat":43.25932,"lon":5.40901,"is_reserved":false,"is_disabled":false,"rental_uris":{"android":"levelo://app?vid=953612d1-211b-4a14-b6c1-8616515f4508","ios":"levelo://app?vid=953612d1-211b-4a14-b6c1-8616515f4508"},"vehicle_type_id":"4","last_reported":1747995105,"current_range_meters":19200,"station_id":"ce4bhm92rcd13ifvqglg","pricing_plan_id":"cebpf4jnsgd1na2vs0mg"},{"bike_id":"473a6822-a841-437c-a8d0-11cfaebe1fb8","system_id":"levelo_inurba_marseille","lat":43.23193,"lon":5.35558,"is_reserved":false,"is_disabled":false,"rental_uris":{"android":"levelo://app?vid=473a6822-a841-437c-a8d0-11cfaebe1fb8","ios":"levelo://app?vid=473a6822-a841-437c-a8d0-11cfaebe1fb8"},"vehicle_type_id":"4","last_reported":1747995105,"current_range_meters":19200,"station_id":"ce4bhu92rcd13ifvqi70","pricing_plan_id":"cebpf4jnsgd1na2vs0mg"},{"bike_id":"44ddea2b-2b22-435b-92c2-8c595d90e51a","system_id":"levelo_inurba_marseille","lat":43.22937,"lon":5.35363,"is_reserved":false,"is_disabled":false,"rental_uris":{"android":"levelo://app?vid=44ddea2b-2b22-435b-92c2-8c595d90e51a","ios":"levelo://app?vid=44ddea2b-2b22-435b-92c2-8c595d90e51a"},"vehicle_type_id":"4","last_reported":1747995105,"current_range_meters":19200,"station_id":"cpo3532slgdg3j2ikp40","pricing_plan_id":"cebpf4jnsgd1na2vs0mg"},{"bike_id":"c9d625da-6a59-4310-b500-12ab7608e6e6","system_id":"levelo_inurba_marseille","lat":43.307434,"lon":5.424595,"is_reserved":false,"is_disabled":false,"rental_uris":{"android":"levelo://app?vid=c9d625da-6a59-4310-b500-12ab7608e6e6","ios":"levelo://app?vid=c9d625da-6a59-4310-b500-12ab7608e6e6"},"vehicle_type_id":"4","last_reported":1747995105,"current_range_meters":19200,"station_id":"st_cvj6ca6bvosntc0bfgr0","pricing_plan_id":"cebpf4jnsgd1na2vs0mg"},{"bike_id":"bdf56331-8ce1-4a61-ac70-70520885f137","system_id":"levelo_inurba_marseille","lat":43.29805,"lon":5.38088,"is_reserved":false,"is_disabled":false,"rental_uris":{"android":"levelo://app?vid=bdf56331-8ce1-4a61-ac70-70520885f137","ios":"levelo://app?vid=bdf56331-8ce1-4a61-ac70-70520885f137"},"vehicle_type_id":"4","last_reported":1747995105,"current_range_meters":19600,"station_id":"ce4bgip2rcd13ifvqbb0","pricing_plan_id":"cebpf4jnsgd1na2vs0mg"},{"bike_id":"811d4d6b-1c5c-43db-a0a4-5eaaa7f9f48e","system_id":"levelo_inurba_marseille","lat":43.301453,"lon":5.380935,"is_reserved":false,"is_disabled":false,"rental_uris":{"android":"levelo://app?vid=811d4d6b-1c5c-43db-a0a4-5eaaa7f9f48e","ios":"levelo://app?vid=811d4d6b-1c5c-43db-a0a4-5eaaa7f9f48e"},"vehicle_type_id":"4","last_reported":1747995105,"current_range_meters":19600,"station_id":"ce4bgjp2rcd13ifvqbh0","pricing_plan_id":"cebpf4jnsgd1na2vs0mg"},{"bike_id":"9da1d515-24e5-4c25-9a1b-8da70cbcb73b","system_id":"levelo_inurba_marseille","lat":43.29007,"lon":5.35618,"is_reserved":false,"is_disabled":false,"rental_uris":{"android":"levelo://app?vid=9da1d515-24e5-4c25-9a1b-8da70cbcb73b","ios":"levelo://app?vid=9da1d515-24e5-4c25-9a1b-8da70cbcb73b"},"vehicle_type_id":"4","last_reported":1747995105,"current_range_meters":19600,"station_id":"ce4bhb92rcd13ifvqen0","pricing_plan_id":"cebpf4jnsgd1na2vs0mg"},{"bike_id":"684773ce-deda-43e3-89e5-8909c5db0c23","system_id":"levelo_inurba_marseille","lat":43.24809,"lon":5.37453,"is_reserved":false,"is_disabled":false,"rental_uris":{"android":"levelo://app?vid=684773ce-deda-43e3-89e5-8909c5db0c23","ios":"levelo://app?vid=684773ce-deda-43e3-89e5-8909c5db0c23"},"vehicle_type_id":"4","last_reported":1747995105,"current_range_meters":19600,"station_id":"ce4bhgh2rcd13ifvqfb0","pricing_plan_id":"cebpf4jnsgd1na2vs0mg"},{"bike_id":"cdd0fc7f-9ffc-4402-bec7-c85fdc1dbb55","system_id":"levelo_inurba_marseille","lat":43.262166,"lon":5.37471,"is_reserved":false,"is_disabled":false,"rental_uris":{"android":"levelo://app?vid=cdd0fc7f-9ffc-4402-bec7-c85fdc1dbb55","ios":"levelo://app?vid=cdd0fc7f-9ffc-4402-bec7-c85fdc1dbb55"},"vehicle_type_id":"4","last_reported":1747995105,"current_range_meters":19600,"station_id":"ce4bhgp2rcd13ifvqfc0","pricing_plan_id":"cebpf4jnsgd1na2vs0mg"},{"bike_id":"4616699d-1be3-4636-8ec2-467584db8c41","system_id":"levelo_inurba_marseille","lat":43.27205,"lon":5.3919,"is_reserved":false,"is_disabled":false,"rental_uris":{"android":"levelo://app?vid=4616699d-1be3-4636-8ec2-467584db8c41","ios":"levelo://app?vid=4616699d-1be3-4636-8ec2-467584db8c41"},"vehicle_type_id":"4","last_reported":1747995105,"current_range_meters":19600,"station_id":"ce4bhhp2rcd13ifvqfm0","pricing_plan_id":"cebpf4jnsgd1na2vs0mg"},{"bike_id":"32792117-cb09-490a-99ab-577c6bfbe3bc","system_id":"levelo_inurba_marseille","lat":43.25725,"lon":5.41109,"is_reserved":false,"is_disabled":false,"rental_uris":{"android":"levelo://app?vid=32792117-cb09-490a-99ab-577c6bfbe3bc","ios":"levelo://app?vid=32792117-cb09-490a-99ab-577c6bfbe3bc"},"vehicle_type_id":"4","last_reported":1747995105,"current_range_meters":19600,"station_id":"ce4bhkp2rcd13ifvqgd0","pricing_plan_id":"cebpf4jnsgd1na2vs0mg"},{"bike_id":"1ce08222-793e-4fcf-9dac-79da6bfae777","system_id":"levelo_inurba_marseille","lat":43.24079,"lon":5.37758,"is_reserved":false,"is_disabled":false,"rental_uris":{"android":"levelo://app?vid=1ce08222-793e-4fcf-9dac-79da6bfae777","ios":"levelo://app?vid=1ce08222-793e-4fcf-9dac-79da6bfae777"},"vehicle_type_id":"4","last_reported":1747995105,"current_range_meters":19600,"station_id":"ce4bhnp2rcd13ifvqgvg","pricing_plan_id":"cebpf4jnsgd1na2vs0mg"},{"bike_id":"d6a7f4f8-a1da-4cc1-897a-eb4e704e6584","system_id":"levelo_inurba_marseille","lat":43.25118,"lon":5.40317,"is_reserved":false,"is_disabled":false,"rental_uris":{"android":"levelo://app?vid=d6a7f4f8-a1da-4cc1-897a-eb4e704e6584","ios":"levelo://app?vid=d6a7f4f8-a1da-4cc1-897a-eb4e704e6584"},"vehicle_type_id":"4","last_reported":1747995105,"current_range_meters":20000,"station_id":"","pricing_plan_id":"cebpf4jnsgd1na2vs0mg"},{"bike_id":"42f32a8c-6e34-41ae-87dc-4b723317d078","system_id":"levelo_inurba_marseille","lat":43.29572,"lon":5.39973,"is_reserved":false,"is_disabled":false,"rental_uris":{"android":"levelo://app?vid=42f32a8c-6e34-41ae-87dc-4b723317d078","ios":"levelo://app?vid=42f32a8c-6e34-41ae-87dc-4b723317d078"},"vehicle_type_id":"4","last_reported":1747995105,"current_range_meters":20000,"station_id":"ce4bh312rcd13ifvqdj0","pricing_plan_id":"cebpf4jnsgd1na2vs0mg"},{"bike_id":"6f6d3d21-9ec5-4f1c-8582-26c07a99e4d0","system_id":"levelo_inurba_marseille","lat":43.24801,"lon":5.37454,"is_reserved":false,"is_disabled":false,"rental_uris":{"android":"levelo://app?vid=6f6d3d21-9ec5-4f1c-8582-26c07a99e4d0","ios":"levelo://app?vid=6f6d3d21-9ec5-4f1c-8582-26c07a99e4d0"},"vehicle_type_id":"4","last_reported":1747995105,"current_range_meters":20000,"station_id":"ce4bhgh2rcd13ifvqfb0","pricing_plan_id":"cebpf4jnsgd1na2vs0mg"},{"bike_id":"92892eaf-9998-4e19-b371-9e27d8644f5d","system_id":"levelo_inurba_marseille","lat":43.25114,"lon":5.4032,"is_reserved":false,"is_disabled":false,"rental_uris":{"android":"levelo://app?vid=92892eaf-9998-4e19-b371-9e27d8644f5d","ios":"levelo://app?vid=92892eaf-9998-4e19-b371-9e27d8644f5d"},"vehicle_type_id":"4","last_reported":1747995105,"current_range_meters":20000,"station_id":"ce4bhlh2rcd13ifvqgig","pricing_plan_id":"cebpf4jnsgd1na2vs0mg"},{"bike_id":"d50427d1-7a6a-4964-80d9-4c9f89de0a57","system_id":"levelo_inurba_marseille","lat":43.3248,"lon":5.36503,"is_reserved":false,"is_disabled":false,"rental_uris":{"android":"levelo://app?vid=d50427d1-7a6a-4964-80d9-4c9f89de0a57","ios":"levelo://app?vid=d50427d1-7a6a-4964-80d9-4c9f89de0a57"},"vehicle_type_id":"4","last_reported":1747995105,"current_range_meters":20000,"station_id":"ce4bhs12rcd13ifvqhvg","pricing_plan_id":"cebpf4jnsgd1na2vs0mg"},{"bike_id":"9cd31b4c-2954-4b08-b8aa-11801ab9de0a","system_id":"levelo_inurba_marseille","lat":43.23081,"lon":5.35479,"is_reserved":false,"is_disabled":false,"rental_uris":{"android":"levelo://app?vid=9cd31b4c-2954-4b08-b8aa-11801ab9de0a","ios":"levelo://app?vid=9cd31b4c-2954-4b08-b8aa-11801ab9de0a"},"vehicle_type_id":"4","last_reported":1747995105,"current_range_meters":20000,"station_id":"cpo3342slgdg3j2ifvpg","pricing_plan_id":"cebpf4jnsgd1na2vs0mg"},{"bike_id":"b3355bd5-e652-44fc-b64a-5153a85f1d73","system_id":"levelo_inurba_marseille","lat":43.21194,"lon":5.35073,"is_reserved":false,"is_disabled":false,"rental_uris":{"android":"levelo://app?vid=b3355bd5-e652-44fc-b64a-5153a85f1d73","ios":"levelo://app?vid=b3355bd5-e652-44fc-b64a-5153a85f1d73"},"vehicle_type_id":"4","last_reported":1747995105,"current_range_meters":20000,"station_id":"st_cvj6sg6p6f1abm77japg","pricing_plan_id":"cebpf4jnsgd1na2vs0mg"},{"bike_id":"cbf98d3b-534c-47c6-a688-35348bc66fa2","system_id":"levelo_inurba_marseille","lat":43.24997,"lon":5.38934,"is_reserved":false,"is_disabled":false,"rental_uris":{"android":"levelo://app?vid=cbf98d3b-534c-47c6-a688-35348bc66fa2","ios":"levelo://app?vid=cbf98d3b-534c-47c6-a688-35348bc66fa2"},"vehicle_type_id":"4","last_reported":1747995105,"current_range_meters":20400,"station_id":"ce4bhgp2rcd13ifvqfd0","pricing_plan_id":"cebpf4jnsgd1na2vs0mg"},{"bike_id":"67c29bb2-8ead-498c-bb9f-2d3c22c41ccf","system_id":"levelo_inurba_marseille","lat":43.27679,"lon":5.38877,"is_reserved":false,"is_disabled":false,"rental_uris":{"android":"levelo://app?vid=67c29bb2-8ead-498c-bb9f-2d3c22c41ccf","ios":"levelo://app?vid=67c29bb2-8ead-498c-bb9f-2d3c22c41ccf"},"vehicle_type_id":"4","last_reported":1747995105,"current_range_meters":20400,"station_id":"ce4bhi12rcd13ifvqfo0","pricing_plan_id":"cebpf4jnsgd1na2vs0mg"},{"bike_id":"87f1b889-69d6-466a-b9a6-73912f6059f9","system_id":"levelo_inurba_marseille","lat":43.23966,"lon":5.3663,"is_reserved":false,"is_disabled":false,"rental_uris":{"android":"levelo://app?vid=87f1b889-69d6-466a-b9a6-73912f6059f9","ios":"levelo://app?vid=87f1b889-69d6-466a-b9a6-73912f6059f9"},"vehicle_type_id":"4","last_reported":1747995105,"current_range_meters":20400,"station_id":"ce4bhi12rcd13ifvqfp0","pricing_plan_id":"cebpf4jnsgd1na2vs0mg"},{"bike_id":"2a97ccf5-5e07-47c3-9e0b-32f48fae1924","system_id":"levelo_inurba_marseille","lat":43.24661,"lon":5.38155,"is_reserved":false,"is_disabled":false,"rental_uris":{"android":"levelo://app?vid=2a97ccf5-5e07-47c3-9e0b-32f48fae1924","ios":"levelo://app?vid=2a97ccf5-5e07-47c3-9e0b-32f48fae1924"},"vehicle_type_id":"4","last_reported":1747995105,"current_range_meters":20400,"station_id":"ce4bhih2rcd13ifvqfr0","pricing_plan_id":"cebpf4jnsgd1na2vs0mg"},{"bike_id":"956dca8d-fa4b-486c-a09a-ae6cd2a46df9","system_id":"levelo_inurba_marseille","lat":43.27951,"lon":5.41054,"is_reserved":false,"is_disabled":false,"rental_uris":{"android":"levelo://app?vid=956dca8d-fa4b-486c-a09a-ae6cd2a46df9","ios":"levelo://app?vid=956dca8d-fa4b-486c-a09a-ae6cd2a46df9"},"vehicle_type_id":"4","last_reported":1747995105,"current_range_meters":20400,"station_id":"ce4bhnp2rcd13ifvqh0g","pricing_plan_id":"cebpf4jnsgd1na2vs0mg"},{"bike_id":"a44f2506-8dc2-4f85-9270-adfcca72358c","system_id":"levelo_inurba_marseille","lat":43.23182,"lon":5.35608,"is_reserved":false,"is_disabled":false,"rental_uris":{"android":"levelo://app?vid=a44f2506-8dc2-4f85-9270-adfcca72358c","ios":"levelo://app?vid=a44f2506-8dc2-4f85-9270-adfcca72358c"},"vehicle_type_id":"4","last_reported":1747995105,"current_range_meters":20400,"station_id":"ce4bhu92rcd13ifvqi70","pricing_plan_id":"cebpf4jnsgd1na2vs0mg"},{"bike_id":"ab4e64f4-9c2d-49aa-8c8a-0ac3fd223425","system_id":"levelo_inurba_marseille","lat":43.23057,"lon":5.35498,"is_reserved":false,"is_disabled":false,"rental_uris":{"android":"levelo://app?vid=ab4e64f4-9c2d-49aa-8c8a-0ac3fd223425","ios":"levelo://app?vid=ab4e64f4-9c2d-49aa-8c8a-0ac3fd223425"},"vehicle_type_id":"4","last_reported":1747995105,"current_range_meters":20400,"station_id":"cpo3342slgdg3j2ifvpg","pricing_plan_id":"cebpf4jnsgd1na2vs0mg"},{"bike_id":"42409da1-3507-4507-b8e5-8d7956d07766","system_id":"levelo_inurba_marseille","lat":43.24197,"lon":5.36483,"is_reserved":false,"is_disabled":false,"rental_uris":{"android":"levelo://app?vid=42409da1-3507-4507-b8e5-8d7956d07766","ios":"levelo://app?vid=42409da1-3507-4507-b8e5-8d7956d07766"},"vehicle_type_id":"4","last_reported":1747995105,"current_range_meters":20400,"station_id":"cpo36qri1sfpv3e86is0","pricing_plan_id":"cebpf4jnsgd1na2vs0mg"},{"bike_id":"663fc025-6fc1-4004-895e-f0f1709c8797","system_id":"levelo_inurba_marseille","lat":43.265218,"lon":5.369906,"is_reserved":false,"is_disabled":false,"rental_uris":{"android":"levelo://app?vid=663fc025-6fc1-4004-895e-f0f1709c8797","ios":"levelo://app?vid=663fc025-6fc1-4004-895e-f0f1709c8797"},"vehicle_type_id":"4","last_reported":1747995105,"current_range_meters":20800,"station_id":"","pricing_plan_id":"cebpf4jnsgd1na2vs0mg"},{"bike_id":"1a1d5163-3ad5-444d-9cae-e49afbad8f26","system_id":"levelo_inurba_marseille","lat":43.29712,"lon":5.36608,"is_reserved":false,"is_disabled":false,"rental_uris":{"android":"levelo://app?vid=1a1d5163-3ad5-444d-9cae-e49afbad8f26","ios":"levelo://app?vid=1a1d5163-3ad5-444d-9cae-e49afbad8f26"},"vehicle_type_id":"4","last_reported":1747995105,"current_range_meters":20800,"station_id":"ce4bgn12rcd13ifvqbt0","pricing_plan_id":"cebpf4jnsgd1na2vs0mg"},{"bike_id":"dfc1afdd-34b2-49c6-8f3d-901f209079dd","system_id":"levelo_inurba_marseille","lat":43.28487,"lon":5.38536,"is_reserved":false,"is_disabled":false,"rental_uris":{"android":"levelo://app?vid=dfc1afdd-34b2-49c6-8f3d-901f209079dd","ios":"levelo://app?vid=dfc1afdd-34b2-49c6-8f3d-901f209079dd"},"vehicle_type_id":"4","last_reported":1747995105,"current_range_meters":20800,"station_id":"ce4bh8p2rcd13ifvqeb0","pricing_plan_id":"cebpf4jnsgd1na2vs0mg"},{"bike_id":"8d536c8f-a07b-4053-9513-3aa9ba683e07","system_id":"levelo_inurba_marseille","lat":43.239717,"lon":5.36625,"is_reserved":false,"is_disabled":false,"rental_uris":{"android":"levelo://app?vid=8d536c8f-a07b-4053-9513-3aa9ba683e07","ios":"levelo://app?vid=8d536c8f-a07b-4053-9513-3aa9ba683e07"},"vehicle_type_id":"4","last_reported":1747995105,"current_range_meters":20800,"station_id":"ce4bhi12rcd13ifvqfp0","pricing_plan_id":"cebpf4jnsgd1na2vs0mg"},{"bike_id":"d6d1338a-9746-43a7-b194-bfcfb7377a71","system_id":"levelo_inurba_marseille","lat":43.286157,"lon":5.351053,"is_reserved":false,"is_disabled":false,"rental_uris":{"android":"levelo://app?vid=d6d1338a-9746-43a7-b194-bfcfb7377a71","ios":"levelo://app?vid=d6d1338a-9746-43a7-b194-bfcfb7377a71"},"vehicle_type_id":"4","last_reported":1747995105,"current_range_meters":21600,"station_id":"","pricing_plan_id":"cebpf4jnsgd1na2vs0mg"},{"bike_id":"77ed6ef6-d6ed-4c62-a695-767396be0db2","system_id":"levelo_inurba_marseille","lat":43.298523,"lon":5.437624,"is_reserved":false,"is_disabled":false,"rental_uris":{"android":"levelo://app?vid=77ed6ef6-d6ed-4c62-a695-767396be0db2","ios":"levelo://app?vid=77ed6ef6-d6ed-4c62-a695-767396be0db2"},