{"last_updated":1773443904,"ttl":60,"version":"2.2","data":{"bikes":[{"bike_id":"0ad92778-0405-4162-92fa-faf21d3b3fbb","system_id":"levelo_inurba_marseille","lat":43.3013,"lon":5.38785,"is_reserved":false,"is_disabled":false,"rental_uris":{"android":"levelo://app?vid=0ad92778-0405-4162-92fa-faf21d3b3fbb","ios":"levelo://app?vid=0ad92778-0405-4162-92fa-faf21d3b3fbb"},"vehicle_type_id":"4","last_reported":1773443904,"current_range_meters":39200,"station_id":"ce4bghh2rcd13ifvqb60","pricing_plan_id":"cebpf4jnsgd1na2vs0mg"},{"bike_id":"84258842-b27c-44d2-a3e3-a8ab065af084","system_id":"levelo_inurba_marseille","lat":43.26064,"lon":5.39408,"is_reserved":false,"is_disabled":false,"rental_uris":{"android":"levelo://app?vid=84258842-b27c-44d2-a3e3-a8ab065af084","ios":"levelo://app?vid=84258842-b27c-44d2-a3e3-a8ab065af084"},"vehicle_type_id":"4","last_reported":1773443904,"current_range_meters":36000,"station_id":"ce4bhh92rcd13ifvqfj0","pricing_plan_id":"cebpf4jnsgd1na2vs0mg"},{"bike_id":"4ee1719e-9828-41ad-ab0e-ac501a6f8dcb","system_id":"levelo_inurba_marseille","lat":43.26069,"lon":5.39396,"is_reserved":false,"is_disabled":false,"rental_uris":{"android":"levelo://app?vid=4ee1719e-9828-41ad-ab0e-ac501a6f8dcb","ios":"levelo://app?vid=4ee1719e-9828-41ad-ab0e-ac501a6f8dcb"},"vehicle_type_id":"4","last_reported":1773443904,"current_range_meters":11600,"station_id":"ce4bhh92rcd13ifvqfj0","pricing_plan_id":"cebpf4jnsgd1na2vs0mg"},{"bike_id":"e4c6d513-0f75-4d36-ab87-e09b44465632","system_id":"levelo_inurba_marseille","lat":43.2739,"lon":5.36258,"is_reserved":false,"is_disabled":true,"rental_uris":{"android":"levelo://app?vid=e4c6d513-0f75-4d36-ab87-e09b44465632","ios":"levelo://app?vid=e4c6d513-0f75-4d36-ab87-e09b44465632"},"vehicle_type_id":"4","last_reported":1773443904,"current_range_meters":38400,"station_id":"ce4bhbh2rcd13ifvqeo0","pricing_plan_id":"cebpf4jnsgd1na2vs0mg"},{"bike_id":"7e14bc2e-55c7-4a67-9771-c3ccbb379574","system_id":"levelo_inurba_marseille","lat":43.28466,"lon":5.39219,"is_reserved":false,"is_disabled":false,"rental_uris":{"android":"levelo://app?vid=7e14bc2e-55c7-4a67-9771-c3ccbb379574","ios":"levelo://app?vid=7e14bc2e-55c7-4a67-9771-c3ccbb379574"},"vehicle_type_id":"4","last_reported":1773443904,"current_range_meters":6000,"station_id":"ce4bhoh2rcd13ifvqh5g","pricing_plan_id":"cebpf4jnsgd1na2vs0mg"},{"bike_id":"935a6a25-ba21-4f32-b8bd-f307e991965e","system_id":"levelo_inurba_marseille","lat":43.29515,"lon":5.38526,"is_reserved":false,"is_disabled":false,"rental_uris":{"android":"levelo://app?vid=935a6a25-ba21-4f32-b8bd-f307e991965e","ios":"levelo://app?vid=935a6a25-ba21-4f32-b8bd-f307e991965e"},"vehicle_type_id":"4","last_reported":1773443904,"current_range_meters":10800,"station_id":"ce4bgih2rcd13ifvqba0","pricing_plan_id":"cebpf4jnsgd1na2vs0mg"},{"bike_id":"3ea5179b-699d-45b5-a6d1-f3b54a0b1f97","system_id":"levelo_inurba_marseille","lat":43.29276,"lon":5.40137,"is_reserved":false,"is_disabled":false,"rental_uris":{"android":"levelo://app?vid=3ea5179b-699d-45b5-a6d1-f3b54a0b1f97","ios":"levelo://app?vid=3ea5179b-699d-45b5-a6d1-f3b54a0b1f97"},"vehicle_type_id":"4","last_reported":1773443904,"current_range_meters":23200,"station_id":"ce4bh312rcd13ifvqdk0","pricing_plan_id":"cebpf4jnsgd1na2vs0mg"},{"bike_id":"dfd0a0f6-5285-4bd7-80a4-14fead877d67","system_id":"levelo_inurba_marseille","lat":43.25078,"lon":5.39545,"is_reserved":false,"is_disabled":false,"rental_uris":{"android":"levelo://app?vid=dfd0a0f6-5285-4bd7-80a4-14fead877d67","ios":"levelo://app?vid=dfd0a0f6-5285-4bd7-80a4-14fead877d67"},"vehicle_type_id":"4","last_reported":1773443904,"current_range_meters":36000,"station_id":"ce4bhm12rcd13ifvqgkg","pricing_plan_id":"cebpf4jnsgd1na2vs0mg"},{"bike_id":"18f35d94-7133-4b4b-a629-0bec9d48af36","system_id":"levelo_inurba_marseille","lat":43.28479,"lon":5.48392,"is_reserved":false,"is_disabled":false,"rental_uris":{"android":"levelo://app?vid=18f35d94-7133-4b4b-a629-0bec9d48af36","ios":"levelo://app?vid=18f35d94-7133-4b4b-a629-0bec9d48af36"},"vehicle_type_id":"4","last_reported":1773443904,"current_range_meters":27600,"station_id":"","pricing_plan_id":"cebpf4jnsgd1na2vs0mg"},{"bike_id":"058a40ef-aca0-46a1-b31e-3c5dc3514929","system_id":"levelo_inurba_marseille","lat":43.28412,"lon":5.34976,"is_reserved":false,"is_disabled":false,"rental_uris":{"android":"levelo://app?vid=058a40ef-aca0-46a1-b31e-3c5dc3514929","ios":"levelo://app?vid=058a40ef-aca0-46a1-b31e-3c5dc3514929"},"vehicle_type_id":"4","last_reported":1773443904,"current_range_meters":39200,"station_id":"ce4bhbh2rcd13ifvqepg","pricing_plan_id":"cebpf4jnsgd1na2vs0mg"},{"bike_id":"7db92065-fd6e-4014-982f-daf9b3e1e88d","system_id":"levelo_inurba_marseille","lat":43.2582,"lon":5.3944,"is_reserved":false,"is_disabled":false,"rental_uris":{"android":"levelo://app?vid=7db92065-fd6e-4014-982f-daf9b3e1e88d","ios":"levelo://app?vid=7db92065-fd6e-4014-982f-daf9b3e1e88d"},"vehicle_type_id":"4","last_reported":1773443904,"current_range_meters":17200,"station_id":"ce4bhip2rcd13ifvqft0","pricing_plan_id":"cebpf4jnsgd1na2vs0mg"},{"bike_id":"0a5b7893-4a63-4a1d-aa56-2bd7aa02765a","system_id":"levelo_inurba_marseille","lat":43.29967,"lon":5.3853,"is_reserved":false,"is_disabled":true,"rental_uris":{"android":"levelo://app?vid=0a5b7893-4a63-4a1d-aa56-2bd7aa02765a","ios":"levelo://app?vid=0a5b7893-4a63-4a1d-aa56-2bd7aa02765a"},"vehicle_type_id":"4","last_reported":1773443904,"current_range_meters":39200,"station_id":"ce4bgj92rcd13ifvqbd0","pricing_plan_id":"cebpf4jnsgd1na2vs0mg"},{"bike_id":"2160cf90-c2ed-4bac-8d60-36bbdf94fd16","system_id":"levelo_inurba_marseille","lat":43.31482,"lon":5.37294,"is_reserved":false,"is_disabled":false,"rental_uris":{"android":"levelo://app?vid=2160cf90-c2ed-4bac-8d60-36bbdf94fd16","ios":"levelo://app?vid=2160cf90-c2ed-4bac-8d60-36bbdf94fd16"},"vehicle_type_id":"4","last_reported":1773443904,"current_range_meters":37600,"station_id":"ce4bgt12rcd13ifvqcd0","pricing_plan_id":"cebpf4jnsgd1na2vs0mg"},{"bike_id":"23ec502b-0c7b-403d-91cb-1fdb6af13d42","system_id":"levelo_inurba_marseille","lat":43.29918,"lon":5.37452,"is_reserved":false,"is_disabled":true,"rental_uris":{"android":"levelo://app?vid=23ec502b-0c7b-403d-91cb-1fdb6af13d42","ios":"levelo://app?vid=23ec502b-0c7b-403d-91cb-1fdb6af13d42"},"vehicle_type_id":"4","last_reported":1773443904,"current_range_meters":35200,"station_id":"ce4bgjh2rcd13ifvqbg0","pricing_plan_id":"cebpf4jnsgd1na2vs0mg"},{"bike_id":"d535127d-b482-45bf-972b-548270862af8","system_id":"levelo_inurba_marseille","lat":43.30305,"lon":5.39217,"is_reserved":false,"is_disabled":false,"rental_uris":{"android":"levelo://app?vid=d535127d-b482-45bf-972b-548270862af8","ios":"levelo://app?vid=d535127d-b482-45bf-972b-548270862af8"},"vehicle_type_id":"4","last_reported":1773443904,"current_range_meters":38000,"station_id":"ce4bgkh2rcd13ifvqbk0","pricing_plan_id":"cebpf4jnsgd1na2vs0mg"},{"bike_id":"4a6e962b-de22-4ab6-993c-2385ed69dadf","system_id":"levelo_inurba_marseille","lat":43.26556,"lon":5.37282,"is_reserved":false,"is_disabled":false,"rental_uris":{"android":"levelo://app?vid=4a6e962b-de22-4ab6-993c-2385ed69dadf","ios":"levelo://app?vid=4a6e962b-de22-4ab6-993c-2385ed69dadf"},"vehicle_type_id":"4","last_reported":1773443904,"current_range_meters":8400,"station_id":"ce4bhg12rcd13ifvqf70","pricing_plan_id":"cebpf4jnsgd1na2vs0mg"},{"bike_id":"85cd8cb8-1572-4483-8d2e-ca06fd40ed7c","system_id":"levelo_inurba_marseille","lat":43.32293,"lon":5.38249,"is_reserved":false,"is_disabled":false,"rental_uris":{"android":"levelo://app?vid=85cd8cb8-1572-4483-8d2e-ca06fd40ed7c","ios":"levelo://app?vid=85cd8cb8-1572-4483-8d2e-ca06fd40ed7c"},"vehicle_type_id":"4","last_reported":1773443904,"current_range_meters":39200,"station_id":"ce4bhr12rcd13ifvqhqg","pricing_plan_id":"cebpf4jnsgd1na2vs0mg"},{"bike_id":"ba643f54-b0d8-4216-9217-58bce7a10bec","system_id":"levelo_inurba_marseille","lat":43.283663,"lon":5.38625,"is_reserved":false,"is_disabled":false,"rental_uris":{"android":"levelo://app?vid=ba643f54-b0d8-4216-9217-58bce7a10bec","ios":"levelo://app?vid=ba643f54-b0d8-4216-9217-58bce7a10bec"},"vehicle_type_id":"4","last_reported":1773443904,"current_range_meters":22000,"station_id":"ce4bh492rcd13ifvqdvg","pricing_plan_id":"cebpf4jnsgd1na2vs0mg"},{"bike_id":"8d448db7-b9be-4ec2-a131-603c0bba545a","system_id":"levelo_inurba_marseille","lat":43.26197,"lon":5.37906,"is_reserved":false,"is_disabled":false,"rental_uris":{"android":"levelo://app?vid=8d448db7-b9be-4ec2-a131-603c0bba545a","ios":"levelo://app?vid=8d448db7-b9be-4ec2-a131-603c0bba545a"},"vehicle_type_id":"4","last_reported":1773443904,"current_range_meters":39200,"station_id":"ce4bhjp2rcd13ifvqg90","pricing_plan_id":"cebpf4jnsgd1na2vs0mg"},{"bike_id":"1c63ee0c-ff6f-42e1-a853-8ec9f0d7e6d1","system_id":"levelo_inurba_marseille","lat":43.30426,"lon":5.3889,"is_reserved":false,"is_disabled":false,"rental_uris":{"android":"levelo://app?vid=1c63ee0c-ff6f-42e1-a853-8ec9f0d7e6d1","ios":"levelo://app?vid=1c63ee0c-ff6f-42e1-a853-8ec9f0d7e6d1"},"vehicle_type_id":"4","last_reported":1773443904,"current_range_meters":30800,"station_id":"ce4bgk12rcd13ifvqbi0","pricing_plan_id":"cebpf4jnsgd1na2vs0mg"},{"bike_id":"a922fe28-c7a8-4324-b6b3-a3df84724c67","system_id":"levelo_inurba_marseille","lat":43.30628,"lon":5.37231,"is_reserved":false,"is_disabled":false,"rental_uris":{"android":"levelo://app?vid=a922fe28-c7a8-4324-b6b3-a3df84724c67","ios":"levelo://app?vid=a922fe28-c7a8-4324-b6b3-a3df84724c67"},"vehicle_type_id":"4","last_reported":1773443904,"current_range_meters":26800,"station_id":"ce4bgqh2rcd13ifvqc4g","pricing_plan_id":"cebpf4jnsgd1na2vs0mg"},{"bike_id":"0978fb05-e4c2-4d54-8d7f-1bd60b344ae9","system_id":"levelo_inurba_marseille","lat":43.28273,"lon":5.3507,"is_reserved":false,"is_disabled":true,"rental_uris":{"android":"levelo://app?vid=0978fb05-e4c2-4d54-8d7f-1bd60b344ae9","ios":"levelo://app?vid=0978fb05-e4c2-4d54-8d7f-1bd60b344ae9"},"vehicle_type_id":"4","last_reported":1773443904,"current_range_meters":27600,"station_id":"ce4bhbp2rcd13ifvqerg","pricing_plan_id":"cebpf4jnsgd1na2vs0mg"},{"bike_id":"480a954f-db3c-4cd5-acb5-179ba9006c67","system_id":"levelo_inurba_marseille","lat":43.28542,"lon":5.44109,"is_reserved":false,"is_disabled":false,"rental_uris":{"android":"levelo://app?vid=480a954f-db3c-4cd5-acb5-179ba9006c67","ios":"levelo://app?vid=480a954f-db3c-4cd5-acb5-179ba9006c67"},"vehicle_type_id":"4","last_reported":1773443904,"current_range_meters":30400,"station_id":"st_d3j3df2ikq2c7380ej80","pricing_plan_id":"cebpf4jnsgd1na2vs0mg"},{"bike_id":"719f14e6-0b0b-47de-a198-d0325eeb6b12","system_id":"levelo_inurba_marseille","lat":43.28439,"lon":5.3595,"is_reserved":false,"is_disabled":false,"rental_uris":{"android":"levelo://app?vid=719f14e6-0b0b-47de-a198-d0325eeb6b12","ios":"levelo://app?vid=719f14e6-0b0b-47de-a198-d0325eeb6b12"},"vehicle_type_id":"4","last_reported":1773443904,"current_range_meters":29600,"station_id":"","pricing_plan_id":"cebpf4jnsgd1na2vs0mg"},{"bike_id":"071351a7-eea7-4a49-8d71-a9ecadb9cf45","system_id":"levelo_inurba_marseille","lat":43.29273,"lon":5.40124,"is_reserved":false,"is_disabled":false,"rental_uris":{"android":"levelo://app?vid=071351a7-eea7-4a49-8d71-a9ecadb9cf45","ios":"levelo://app?vid=071351a7-eea7-4a49-8d71-a9ecadb9cf45"},"vehicle_type_id":"4","last_reported":1773443904,"current_range_meters":32000,"station_id":"ce4bh312rcd13ifvqdk0","pricing_plan_id":"cebpf4jnsgd1na2vs0mg"},{"bike_id":"59dd47b0-d48b-4d63-8f7f-71118152f0fa","system_id":"levelo_inurba_marseille","lat":43.29014,"lon":5.38675,"is_reserved":false,"is_disabled":false,"rental_uris":{"android":"levelo://app?vid=59dd47b0-d48b-4d63-8f7f-71118152f0fa","ios":"levelo://app?vid=59dd47b0-d48b-4d63-8f7f-71118152f0fa"},"vehicle_type_id":"4","last_reported":1773443904,"current_range_meters":22400,"station_id":"ce4bh4p2rcd13ifvqe0g","pricing_plan_id":"cebpf4jnsgd1na2vs0mg"},{"bike_id":"04f1721f-1a2a-4a46-bb2d-543bfbf22fd1","system_id":"levelo_inurba_marseille","lat":43.28454,"lon":5.35885,"is_reserved":false,"is_disabled":false,"rental_uris":{"android":"levelo://app?vid=04f1721f-1a2a-4a46-bb2d-543bfbf22fd1","ios":"levelo://app?vid=04f1721f-1a2a-4a46-bb2d-543bfbf22fd1"},"vehicle_type_id":"4","last_reported":1773443904,"current_range_meters":18000,"station_id":"ce4bhah2rcd13ifvqei0","pricing_plan_id":"cebpf4jnsgd1na2vs0mg"},{"bike_id":"1f49797c-2eb0-4b96-9bc7-2370c7c23180","system_id":"levelo_inurba_marseille","lat":43.27373,"lon":5.36262,"is_reserved":false,"is_disabled":false,"rental_uris":{"android":"levelo://app?vid=1f49797c-2eb0-4b96-9bc7-2370c7c23180","ios":"levelo://app?vid=1f49797c-2eb0-4b96-9bc7-2370c7c23180"},"vehicle_type_id":"4","last_reported":1773443904,"current_range_meters":35200,"station_id":"ce4bhbh2rcd13ifvqeo0","pricing_plan_id":"cebpf4jnsgd1na2vs0mg"},{"bike_id":"b308e7af-e586-420b-b9a4-425c9b9ae1c7","system_id":"levelo_inurba_marseille","lat":43.30553,"lon":5.36684,"is_reserved":false,"is_disabled":false,"rental_uris":{"android":"levelo://app?vid=b308e7af-e586-420b-b9a4-425c9b9ae1c7","ios":"levelo://app?vid=b308e7af-e586-420b-b9a4-425c9b9ae1c7"},"vehicle_type_id":"4","last_reported":1773443904,"current_range_meters":36800,"station_id":"ce4bgrp2rcd13ifvqc9g","pricing_plan_id":"cebpf4jnsgd1na2vs0mg"},{"bike_id":"39e5dfee-f031-4742-ad5f-b826fb519621","system_id":"levelo_inurba_marseille","lat":43.29034,"lon":5.39953,"is_reserved":false,"is_disabled":false,"rental_uris":{"android":"levelo://app?vid=39e5dfee-f031-4742-ad5f-b826fb519621","ios":"levelo://app?vid=39e5dfee-f031-4742-ad5f-b826fb519621"},"vehicle_type_id":"4","last_reported":1773443904,"current_range_meters":39200,"station_id":"ce4bh392rcd13ifvqdm0","pricing_plan_id":"cebpf4jnsgd1na2vs0mg"},{"bike_id":"106b5c17-3a4d-41d5-888b-1edf1f351e6e","system_id":"levelo_inurba_marseille","lat":43.25833,"lon":5.39436,"is_reserved":false,"is_disabled":false,"rental_uris":{"android":"levelo://app?vid=106b5c17-3a4d-41d5-888b-1edf1f351e6e","ios":"levelo://app?vid=106b5c17-3a4d-41d5-888b-1edf1f351e6e"},"vehicle_type_id":"4","last_reported":1773443904,"current_range_meters":39200,"station_id":"ce4bhip2rcd13ifvqft0","pricing_plan_id":"cebpf4jnsgd1na2vs0mg"},{"bike_id":"ced05e86-2551-48cf-8692-7f3559e5deac","system_id":"levelo_inurba_marseille","lat":43.29493,"lon":5.43307,"is_reserved":false,"is_disabled":false,"rental_uris":{"android":"levelo://app?vid=ced05e86-2551-48cf-8692-7f3559e5deac","ios":"levelo://app?vid=ced05e86-2551-48cf-8692-7f3559e5deac"},"vehicle_type_id":"4","last_reported":1773443904,"current_range_meters":11200,"station_id":"st_d3j5ugp08ojc73fj9d10","pricing_plan_id":"cebpf4jnsgd1na2vs0mg"},{"bike_id":"430be471-af5f-4ca3-b604-c4bd0be30fbc","system_id":"levelo_inurba_marseille","lat":43.29186,"lon":5.39323,"is_reserved":false,"is_disabled":false,"rental_uris":{"android":"levelo://app?vid=430be471-af5f-4ca3-b604-c4bd0be30fbc","ios":"levelo://app?vid=430be471-af5f-4ca3-b604-c4bd0be30fbc"},"vehicle_type_id":"4","last_reported":1773443904,"current_range_meters":39200,"station_id":"ce4bh192rcd13ifvqdd0","pricing_plan_id":"cebpf4jnsgd1na2vs0mg"},{"bike_id":"fe08e6a2-4e71-4f44-9b62-3d58616ed6db","system_id":"levelo_inurba_marseille","lat":43.30437,"lon":5.38886,"is_reserved":false,"is_disabled":false,"rental_uris":{"android":"levelo://app?vid=fe08e6a2-4e71-4f44-9b62-3d58616ed6db","ios":"levelo://app?vid=fe08e6a2-4e71-4f44-9b62-3d58616ed6db"},"vehicle_type_id":"4","last_reported":1773443904,"current_range_meters":38400,"station_id":"ce4bgk12rcd13ifvqbi0","pricing_plan_id":"cebpf4jnsgd1na2vs0mg"},{"bike_id":"e5725ce8-50a2-40ca-b011-9888ac1cf133","system_id":"levelo_inurba_marseille","lat":43.27374,"lon":5.36261,"is_reserved":false,"is_disabled":false,"rental_uris":{"android":"levelo://app?vid=e5725ce8-50a2-40ca-b011-9888ac1cf133","ios":"levelo://app?vid=e5725ce8-50a2-40ca-b011-9888ac1cf133"},"vehicle_type_id":"4","last_reported":1773443904,"current_range_meters":8000,"station_id":"ce4bhbh2rcd13ifvqeo0","pricing_plan_id":"cebpf4jnsgd1na2vs0mg"},{"bike_id":"41ae287c-9cc1-430a-84ca-70506bc523b6","system_id":"levelo_inurba_marseille","lat":43.2256,"lon":5.4163,"is_reserved":false,"is_disabled":false,"rental_uris":{"android":"levelo://app?vid=41ae287c-9cc1-430a-84ca-70506bc523b6","ios":"levelo://app?vid=41ae287c-9cc1-430a-84ca-70506bc523b6"},"vehicle_type_id":"4","last_reported":1773443904,"current_range_meters":39200,"station_id":"st_d2o4gvlbi1j2169b742g","pricing_plan_id":"cebpf4jnsgd1na2vs0mg"},{"bike_id":"fe8dfa27-62f0-46d6-ba43-c3127399aaa0","system_id":"levelo_inurba_marseille","lat":43.29648,"lon":5.4215,"is_reserved":false,"is_disabled":false,"rental_uris":{"android":"levelo://app?vid=fe8dfa27-62f0-46d6-ba43-c3127399aaa0","ios":"levelo://app?vid=fe8dfa27-62f0-46d6-ba43-c3127399aaa0"},"vehicle_type_id":"4","last_reported":1773443904,"current_range_meters":28000,"station_id":"","pricing_plan_id":"cebpf4jnsgd1na2vs0mg"},{"bike_id":"5c0630ed-bd2b-4642-b36b-ddb6b84186db","system_id":"levelo_inurba_marseille","lat":43.30739,"lon":5.42447,"is_reserved":false,"is_disabled":false,"rental_uris":{"android":"levelo://app?vid=5c0630ed-bd2b-4642-b36b-ddb6b84186db","ios":"levelo://app?vid=5c0630ed-bd2b-4642-b36b-ddb6b84186db"},"vehicle_type_id":"4","last_reported":1773443904,"current_range_meters":27600,"station_id":"st_cvj6ca6bvosntc0bfgr0","pricing_plan_id":"cebpf4jnsgd1na2vs0mg"},{"bike_id":"38e5107a-fdc2-431b-892a-488d0107acb0","system_id":"levelo_inurba_marseille","lat":43.30572,"lon":5.37249,"is_reserved":false,"is_disabled":false,"rental_uris":{"android":"levelo://app?vid=38e5107a-fdc2-431b-892a-488d0107acb0","ios":"levelo://app?vid=38e5107a-fdc2-431b-892a-488d0107acb0"},"vehicle_type_id":"4","last_reported":1773443904,"current_range_meters":35200,"station_id":"ce4bgqh2rcd13ifvqc4g","pricing_plan_id":"cebpf4jnsgd1na2vs0mg"},{"bike_id":"2a9126b9-e7e6-49d8-af60-37f573709d7d","system_id":"levelo_inurba_marseille","lat":43.30532,"lon":5.38434,"is_reserved":false,"is_disabled":false,"rental_uris":{"android":"levelo://app?vid=2a9126b9-e7e6-49d8-af60-37f573709d7d","ios":"levelo://app?vid=2a9126b9-e7e6-49d8-af60-37f573709d7d"},"vehicle_type_id":"4","last_reported":1773443904,"current_range_meters":16000,"station_id":"ce4bgg92rcd13ifvqb30","pricing_plan_id":"cebpf4jnsgd1na2vs0mg"},{"bike_id":"83d031f8-3388-49bd-aecd-aab8aba3dc89","system_id":"levelo_inurba_marseille","lat":43.30605,"lon":5.37218,"is_reserved":false,"is_disabled":false,"rental_uris":{"android":"levelo://app?vid=83d031f8-3388-49bd-aecd-aab8aba3dc89","ios":"levelo://app?vid=83d031f8-3388-49bd-aecd-aab8aba3dc89"},"vehicle_type_id":"4","last_reported":1773443904,"current_range_meters":28000,"station_id":"ce4bgqh2rcd13ifvqc4g","pricing_plan_id":"cebpf4jnsgd1na2vs0mg"},{"bike_id":"bbd01454-2423-4218-8a6f-60bf3a414075","system_id":"levelo_inurba_marseille","lat":43.28696,"lon":5.37388,"is_reserved":false,"is_disabled":false,"rental_uris":{"android":"levelo://app?vid=bbd01454-2423-4218-8a6f-60bf3a414075","ios":"levelo://app?vid=bbd01454-2423-4218-8a6f-60bf3a414075"},"vehicle_type_id":"4","last_reported":1773443904,"current_range_meters":6800,"station_id":"ce4bh3p2rcd13ifvqdq0","pricing_plan_id":"cebpf4jnsgd1na2vs0mg"},{"bike_id":"f008e6e2-cda3-4fa4-921f-614b8795eedf","system_id":"levelo_inurba_marseille","lat":43.29583,"lon":5.38651,"is_reserved":false,"is_disabled":false,"rental_uris":{"android":"levelo://app?vid=f008e6e2-cda3-4fa4-921f-614b8795eedf","ios":"levelo://app?vid=f008e6e2-cda3-4fa4-921f-614b8795eedf"},"vehicle_type_id":"4","last_reported":1773443904,"current_range_meters":22000,"station_id":"","pricing_plan_id":"cebpf4jnsgd1na2vs0mg"},{"bike_id":"1fa66c7c-5bbe-4c72-8397-ac5bb2c15dc7","system_id":"levelo_inurba_marseille","lat":43.32368,"lon":5.3889,"is_reserved":false,"is_disabled":false,"rental_uris":{"android":"levelo://app?vid=1fa66c7c-5bbe-4c72-8397-ac5bb2c15dc7","ios":"levelo://app?vid=1fa66c7c-5bbe-4c72-8397-ac5bb2c15dc7"},"vehicle_type_id":"4","last_reported":1773443904,"current_range_meters":38400,"station_id":"ce4bhqp2rcd13ifvqhog","pricing_plan_id":"cebpf4jnsgd1na2vs0mg"},{"bike_id":"2a20dae4-4942-4cea-8836-7502801572c7","system_id":"levelo_inurba_marseille","lat":43.27915,"lon":5.39578,"is_reserved":false,"is_disabled":true,"rental_uris":{"android":"levelo://app?vid=2a20dae4-4942-4cea-8836-7502801572c7","ios":"levelo://app?vid=2a20dae4-4942-4cea-8836-7502801572c7"},"vehicle_type_id":"4","last_reported":1773443904,"current_range_meters":0,"station_id":"ce4bhf92rcd13ifvqf40","pricing_plan_id":"cebpf4jnsgd1na2vs0mg"},{"bike_id":"210de9b4-3033-4c95-a839-e4b62a601c40","system_id":"levelo_inurba_marseille","lat":43.27789,"lon":5.40796,"is_reserved":false,"is_disabled":false,"rental_uris":{"android":"levelo://app?vid=210de9b4-3033-4c95-a839-e4b62a601c40","ios":"levelo://app?vid=210de9b4-3033-4c95-a839-e4b62a601c40"},"vehicle_type_id":"4","last_reported":1773443904,"current_range_meters":8400,"station_id":"","pricing_plan_id":"cebpf4jnsgd1na2vs0mg"},{"bike_id":"ee97d76b-d430-4b45-b3b0-dd8a973c7e77","system_id":"levelo_inurba_marseille","lat":43.23966,"lon":5.36657,"is_reserved":false,"is_disabled":false,"rental_uris":{"android":"levelo://app?vid=ee97d76b-d430-4b45-b3b0-dd8a973c7e77","ios":"levelo://app?vid=ee97d76b-d430-4b45-b3b0-dd8a973c7e77"},"vehicle_type_id":"4","last_reported":1773443904,"current_range_meters":14800,"station_id":"ce4bhi12rcd13ifvqfp0","pricing_plan_id":"cebpf4jnsgd1na2vs0mg"},{"bike_id":"97ecf467-9bc2-4716-8380-618c7c7ef61e","system_id":"levelo_inurba_marseille","lat":43.31591,"lon":5.37365,"is_reserved":false,"is_disabled":false,"rental_uris":{"android":"levelo://app?vid=97ecf467-9bc2-4716-8380-618c7c7ef61e","ios":"levelo://app?vid=97ecf467-9bc2-4716-8380-618c7c7ef61e"},"vehicle_type_id":"4","last_reported":1773443904,"current_range_meters":3600,"station_id":"","pricing_plan_id":"cebpf4jnsgd1na2vs0mg"},{"bike_id":"804ad6cc-2761-45b5-a24b-0ea5c31db9ca","system_id":"levelo_inurba_marseille","lat":43.28106,"lon":5.37833,"is_reserved":false,"is_disabled":false,"rental_uris":{"android":"levelo://app?vid=804ad6cc-2761-45b5-a24b-0ea5c31db9ca","ios":"levelo://app?vid=804ad6cc-2761-45b5-a24b-0ea5c31db9ca"},"vehicle_type_id":"4","last_reported":1773443904,"current_range_meters":9200,"station_id":"ce4bha12rcd13ifvqee0","pricing_plan_id":"cebpf4jnsgd1na2vs0mg"},{"bike_id":"79483cf5-647d-48ac-aac7-04b4eee60681","system_id":"levelo_inurba_marseille","lat":43.31366,"lon":5.36706,"is_reserved":false,"is_disabled":true,"rental_uris":{"android":"levelo://app?vid=79483cf5-647d-48ac-aac7-04b4eee60681","ios":"levelo://app?vid=79483cf5-647d-48ac-aac7-04b4eee60681"},"vehicle_type_id":"4","last_reported":1773443904,"current_range_meters":38400,"station_id":"","pricing_plan_id":"cebpf4jnsgd1na2vs0mg"},{"bike_id":"a32106be-375b-4a35-92db-7951151fd382","system_id":"levelo_inurba_marseille","lat":43.29638,"lon":5.37148,"is_reserved":false,"is_disabled":true,"rental_uris":{"android":"levelo://app?vid=a32106be-375b-4a35-92db-7951151fd382","ios":"levelo://app?vid=a32106be-375b-4a35-92db-7951151fd382"},"vehicle_type_id":"4","last_reported":1773443904,"current_range_meters":27200,"station_id":"ce4bgnh2rcd13ifvqc0g","pricing_plan_id":"cebpf4jnsgd1na2vs0mg"},{"bike_id":"126c7ab1-7912-46bd-b141-b11d2a327feb","system_id":"levelo_inurba_marseille","lat":43.29025,"lon":5.38635,"is_reserved":false,"is_disabled":false,"rental_uris":{"android":"levelo://app?vid=126c7ab1-7912-46bd-b141-b11d2a327feb","ios":"levelo://app?vid=126c7ab1-7912-46bd-b141-b11d2a327feb"},"vehicle_type_id":"4","last_reported":1773443904,"current_range_meters":8000,"station_id":"ce4bh4p2rcd13ifvqe0g","pricing_plan_id":"cebpf4jnsgd1na2vs0mg"},{"bike_id":"1456d7b8-e2f9-4205-9584-20f6abe58a4d","system_id":"levelo_inurba_marseille","lat":43.30068,"lon":5.43737,"is_reserved":false,"is_disabled":false,"rental_uris":{"android":"levelo://app?vid=1456d7b8-e2f9-4205-9584-20f6abe58a4d","ios":"levelo://app?vid=1456d7b8-e2f9-4205-9584-20f6abe58a4d"},"vehicle_type_id":"4","last_reported":1773443904,"current_range_meters":31200,"station_id":"","pricing_plan_id":"cebpf4jnsgd1na2vs0mg"},{"bike_id":"114e304d-e20d-4f8a-9525-1a164e809dee","system_id":"levelo_inurba_marseille","lat":43.23964,"lon":5.36626,"is_reserved":false,"is_disabled":false,"rental_uris":{"android":"levelo://app?vid=114e304d-e20d-4f8a-9525-1a164e809dee","ios":"levelo://app?vid=114e304d-e20d-4f8a-9525-1a164e809dee"},"vehicle_type_id":"4","last_reported":1773443904,"current_range_meters":28800,"station_id":"ce4bhi12rcd13ifvqfp0","pricing_plan_id":"cebpf4jnsgd1na2vs0mg"},{"bike_id":"ed805e5c-c91a-41a9-a21f-ce0355ac464f","system_id":"levelo_inurba_marseille","lat":43.28471,"lon":5.35893,"is_reserved":false,"is_disabled":true,"rental_uris":{"android":"levelo://app?vid=ed805e5c-c91a-41a9-a21f-ce0355ac464f","ios":"levelo://app?vid=ed805e5c-c91a-41a9-a21f-ce0355ac464f"},"vehicle_type_id":"4","last_reported":1773443904,"current_range_meters":19200,"station_id":"ce4bhah2rcd13ifvqei0","pricing_plan_id":"cebpf4jnsgd1na2vs0mg"},{"bike_id":"a29ef319-c201-4a0d-88b8-75666b991d70","system_id":"levelo_inurba_marseille","lat":43.30207,"lon":5.39438,"is_reserved":false,"is_disabled":false,"rental_uris":{"android":"levelo://app?vid=a29ef319-c201-4a0d-88b8-75666b991d70","ios":"levelo://app?vid=a29ef319-c201-4a0d-88b8-75666b991d70"},"vehicle_type_id":"4","last_reported":1773443904,"current_range_meters":12800,"station_id":"ce4bh0p2rcd13ifvqd70","pricing_plan_id":"cebpf4jnsgd1na2vs0mg"},{"bike_id":"a954461b-2487-41f8-9b27-2c78b4f723ea","system_id":"levelo_inurba_marseille","lat":43.30168,"lon":5.38076,"is_reserved":false,"is_disabled":true,"rental_uris":{"android":"levelo://app?vid=a954461b-2487-41f8-9b27-2c78b4f723ea","ios":"levelo://app?vid=a954461b-2487-41f8-9b27-2c78b4f723ea"},"vehicle_type_id":"4","last_reported":1773443904,"current_range_meters":27200,"station_id":"ce4bgjp2rcd13ifvqbh0","pricing_plan_id":"cebpf4jnsgd1na2vs0mg"},{"bike_id":"dbad0016-bb39-4f7f-bddc-f96ca26bdba9","system_id":"levelo_inurba_marseille","lat":43.29226,"lon":5.36054,"is_reserved":false,"is_disabled":false,"rental_uris":{"android":"levelo://app?vid=dbad0016-bb39-4f7f-bddc-f96ca26bdba9","ios":"levelo://app?vid=dbad0016-bb39-4f7f-bddc-f96ca26bdba9"},"vehicle_type_id":"4","last_reported":1773443904,"current_range_meters":39200,"station_id":"ce4bhbh2rcd13ifvqeqg","pricing_plan_id":"cebpf4jnsgd1na2vs0mg"},{"bike_id":"71c48386-33ee-404d-8473-5643f69a7641","system_id":"levelo_inurba_marseille","lat":43.28944,"lon":5.36397,"is_reserved":false,"is_disabled":false,"rental_uris":{"android":"levelo://app?vid=71c48386-33ee-404d-8473-5643f69a7641","ios":"levelo://app?vid=71c48386-33ee-404d-8473-5643f69a7641"},"vehicle_type_id":"4","last_reported":1773443904,"current_range_meters":25200,"station_id":"ce4bhc92rcd13ifvqetg","pricing_plan_id":"cebpf4jnsgd1na2vs0mg"},{"bike_id":"a64fd749-da53-4223-b873-757b3f4d5f8c","system_id":"levelo_inurba_marseille","lat":43.28442,"lon":5.39197,"is_reserved":false,"is_disabled":false,"rental_uris":{"android":"levelo://app?vid=a64fd749-da53-4223-b873-757b3f4d5f8c","ios":"levelo://app?vid=a64fd749-da53-4223-b873-757b3f4d5f8c"},"vehicle_type_id":"4","last_reported":1773443904,"current_range_meters":24800,"station_id":"ce4bhoh2rcd13ifvqh5g","pricing_plan_id":"cebpf4jnsgd1na2vs0mg"},{"bike_id":"84f4a2bf-2617-4f6d-b5b2-52999d43fb4f","system_id":"levelo_inurba_marseille","lat":43.27375,"lon":5.36263,"is_reserved":false,"is_disabled":false,"rental_uris":{"android":"levelo://app?vid=84f4a2bf-2617-4f6d-b5b2-52999d43fb4f","ios":"levelo://app?vid=84f4a2bf-2617-4f6d-b5b2-52999d43fb4f"},"vehicle_type_id":"4","last_reported":1773443904,"current_range_meters":39200,"station_id":"ce4bhbh2rcd13ifvqeo0","pricing_plan_id":"cebpf4jnsgd1na2vs0mg"},{"bike_id":"5747ffcf-aa70-4b75-b110-285afeb704b8","system_id":"levelo_inurba_marseille","lat":43.31171,"lon":5.38704,"is_reserved":false,"is_disabled":false,"rental_uris":{"android":"levelo://app?vid=5747ffcf-aa70-4b75-b110-285afeb704b8","ios":"levelo://app?vid=5747ffcf-aa70-4b75-b110-285afeb704b8"},"vehicle_type_id":"4","last_reported":1773443904,"current_range_meters":4800,"station_id":"ce4bgv12rcd13ifvqcp0","pricing_plan_id":"cebpf4jnsgd1na2vs0mg"},{"bike_id":"012bb7fa-e4d0-4138-9c92-350c5c6b2640","system_id":"levelo_inurba_marseille","lat":43.28539,"lon":5.44114,"is_reserved":false,"is_disabled":false,"rental_uris":{"android":"levelo://app?vid=012bb7fa-e4d0-4138-9c92-350c5c6b2640","ios":"levelo://app?vid=012bb7fa-e4d0-4138-9c92-350c5c6b2640"},"vehicle_type_id":"4","last_reported":1773443904,"current_range_meters":28400,"station_id":"st_d3j3df2ikq2c7380ej80","pricing_plan_id":"cebpf4jnsgd1na2vs0mg"},{"bike_id":"33248cdb-5a12-47c2-a5a5-eaf5b9099ba0","system_id":"levelo_inurba_marseille","lat":43.29283,"lon":5.40119,"is_reserved":false,"is_disabled":false,"rental_uris":{"android":"levelo://app?vid=33248cdb-5a12-47c2-a5a5-eaf5b9099ba0","ios":"levelo://app?vid=33248cdb-5a12-47c2-a5a5-eaf5b9099ba0"},"vehicle_type_id":"4","last_reported":1773443904,"current_range_meters":35200,"station_id":"ce4bh312rcd13ifvqdk0","pricing_plan_id":"cebpf4jnsgd1na2vs0mg"},{"bike_id":"959cb468-adf5-492c-a8a7-a3170c99be64","system_id":"levelo_inurba_marseille","lat":43.27057,"lon":5.38313,"is_reserved":false,"is_disabled":false,"rental_uris":{"android":"levelo://app?vid=959cb468-adf5-492c-a8a7-a3170c99be64","ios":"levelo://app?vid=959cb468-adf5-492c-a8a7-a3170c99be64"},"vehicle_type_id":"4","last_reported":1773443904,"current_range_meters":12800,"station_id":"st_d3n2fo6cfp8s73cte1j0","pricing_plan_id":"cebpf4jnsgd1na2vs0mg"},{"bike_id":"f32212cf-6d01-43e1-9d28-c332d31396c9","system_id":"levelo_inurba_marseille","lat":43.24684,"lon":5.4337,"is_reserved":false,"is_disabled":false,"rental_uris":{"android":"levelo://app?vid=f32212cf-6d01-43e1-9d28-c332d31396c9","ios":"levelo://app?vid=f32212cf-6d01-43e1-9d28-c332d31396c9"},"vehicle_type_id":"4","last_reported":1773443904,"current_range_meters":20400,"station_id":"","pricing_plan_id":"cebpf4jnsgd1na2vs0mg"},{"bike_id":"6acc6294-778e-4389-ae09-ea37b9c06714","system_id":"levelo_inurba_marseille","lat":43.29727,"lon":5.41059,"is_reserved":false,"is_disabled":false,"rental_uris":{"android":"levelo://app?vid=6acc6294-778e-4389-ae09-ea37b9c06714","ios":"levelo://app?vid=6acc6294-778e-4389-ae09-ea37b9c06714"},"vehicle_type_id":"4","last_reported":1773443904,"current_range_meters":18000,"station_id":"","pricing_plan_id":"cebpf4jnsgd1na2vs0mg"},{"bike_id":"968e0752-94e3-4427-8693-dccfb2dc93c6","system_id":"levelo_inurba_marseille","lat":43.32339,"lon":5.38841,"is_reserved":false,"is_disabled":false,"rental_uris":{"android":"levelo://app?vid=968e0752-94e3-4427-8693-dccfb2dc93c6","ios":"levelo://app?vid=968e0752-94e3-4427-8693-dccfb2dc93c6"},"vehicle_type_id":"4","last_reported":1773443904,"current_range_meters":36800,"station_id":"ce4bhqp2rcd13ifvqhog","pricing_plan_id":"cebpf4jnsgd1na2vs0mg"},{"bike_id":"48752a35-84d5-41f4-a4fc-fe7d40fd9bc9","system_id":"levelo_inurba_marseille","lat":43.30821,"lon":5.38156,"is_reserved":false,"is_disabled":false,"rental_uris":{"android":"levelo://app?vid=48752a35-84d5-41f4-a4fc-fe7d40fd9bc9","ios":"levelo://app?vid=48752a35-84d5-41f4-a4fc-fe7d40fd9bc9"},"vehicle_type_id":"4","last_reported":1773443904,"current_range_meters":2800,"station_id":"ce4bgt12rcd13ifvqce0","pricing_plan_id":"cebpf4jnsgd1na2vs0mg"},{"bike_id":"e3e76d2d-3d94-4e20-902c-c8b694af4dd8","system_id":"levelo_inurba_marseille","lat":43.27951,"lon":5.41042,"is_reserved":false,"is_disabled":false,"rental_uris":{"android":"levelo://app?vid=e3e76d2d-3d94-4e20-902c-c8b694af4dd8","ios":"levelo://app?vid=e3e76d2d-3d94-4e20-902c-c8b694af4dd8"},"vehicle_type_id":"4","last_reported":1773443904,"current_range_meters":27600,"station_id":"ce4bhnp2rcd13ifvqh0g","pricing_plan_id":"cebpf4jnsgd1na2vs0mg"},{"bike_id":"40cdf2e8-76b5-43fa-bd2e-1a8eb6026b51","system_id":"levelo_inurba_marseille","lat":43.28979,"lon":5.42582,"is_reserved":false,"is_disabled":false,"rental_uris":{"android":"levelo://app?vid=40cdf2e8-76b5-43fa-bd2e-1a8eb6026b51","ios":"levelo://app?vid=40cdf2e8-76b5-43fa-bd2e-1a8eb6026b51"},"vehicle_type_id":"4","last_reported":1773443904,"current_range_meters":24400,"station_id":"","pricing_plan_id":"cebpf4jnsgd1na2vs0mg"},{"bike_id":"885c5720-f8e3-4815-a477-98ae4026ad54","system_id":"levelo_inurba_marseille","lat":43.29019,"lon":5.39997,"is_reserved":false,"is_disabled":false,"rental_uris":{"android":"levelo://app?vid=885c5720-f8e3-4815-a477-98ae4026ad54","ios":"levelo://app?vid=885c5720-f8e3-4815-a477-98ae4026ad54"},"vehicle_type_id":"4","last_reported":1773443904,"current_range_meters":38800,"station_id":"ce4bh392rcd13ifvqdm0","pricing_plan_id":"cebpf4jnsgd1na2vs0mg"},{"bike_id":"5dbc8de5-1746-40c6-890f-29dadb98e0ce","system_id":"levelo_inurba_marseille","lat":43.28393,"lon":5.34979,"is_reserved":false,"is_disabled":false,"rental_uris":{"android":"levelo://app?vid=5dbc8de5-1746-40c6-890f-29dadb98e0ce","ios":"levelo://app?vid=5dbc8de5-1746-40c6-890f-29dadb98e0ce"},"vehicle_type_id":"4","last_reported":1773443904,"current_range_meters":36000,"station_id":"ce4bhbh2rcd13ifvqepg","pricing_plan_id":"cebpf4jnsgd1na2vs0mg"},{"bike_id":"71501c24-7c0d-4212-996a-19e1a1605792","system_id":"levelo_inurba_marseille","lat":43.29496,"lon":5.43301,"is_reserved":false,"is_disabled":false,"rental_uris":{"android":"levelo://app?vid=71501c24-7c0d-4212-996a-19e1a1605792","ios":"levelo://app?vid=71501c24-7c0d-4212-996a-19e1a1605792"},"vehicle_type_id":"4","last_reported":1773443904,"current_range_meters":4000,"station_id":"st_d3j5ugp08ojc73fj9d10","pricing_plan_id":"cebpf4jnsgd1na2vs0mg"},{"bike_id":"c5cd6bee-ff6a-4f9b-9fb4-3be2cd8497cf","system_id":"levelo_inurba_marseille","lat":43.24387,"lon":5.37038,"is_reserved":false,"is_disabled":false,"rental_uris":{"android":"levelo://app?vid=c5cd6bee-ff6a-4f9b-9fb4-3be2cd8497cf","ios":"levelo://app?vid=c5cd6bee-ff6a-4f9b-9fb4-3be2cd8497cf"},"vehicle_type_id":"4","last_reported":1773443904,"current_range_meters":7200,"station_id":"ce4bhhh2rcd13ifvqfk0","pricing_plan_id":"cebpf4jnsgd1na2vs0mg"},{"bike_id":"89f5dbe6-6654-4428-9446-8207cfa579c5","system_id":"levelo_inurba_marseille","lat":43.29539,"lon":5.38656,"is_reserved":false,"is_disabled":false,"rental_uris":{"android":"levelo://app?vid=89f5dbe6-6654-4428-9446-8207cfa579c5","ios":"levelo://app?vid=89f5dbe6-6654-4428-9446-8207cfa579c5"},"vehicle_type_id":"4","last_reported":1773443904,"current_range_meters":24400,"station_id":"","pricing_plan_id":"cebpf4jnsgd1na2vs0mg"},{"bike_id":"72e16886-e6be-40d7-9db6-717ac812c857","system_id":"levelo_inurba_marseille","lat":43.3018,"lon":5.4007,"is_reserved":false,"is_disabled":true,"rental_uris":{"android":"levelo://app?vid=72e16886-e6be-40d7-9db6-717ac812c857","ios":"levelo://app?vid=72e16886-e6be-40d7-9db6-717ac812c857"},"vehicle_type_id":"4","last_reported":1773443904,"current_range_meters":16400,"station_id":"","pricing_plan_id":"cebpf4jnsgd1na2vs0mg"},{"bike_id":"4b3e344f-d5f5-47ea-a0e1-c3ff7ab3ba9f","system_id":"levelo_inurba_marseille","lat":43.23373,"lon":5.41221,"is_reserved":false,"is_disabled":false,"rental_uris":{"android":"levelo://app?vid=4b3e344f-d5f5-47ea-a0e1-c3ff7ab3ba9f","ios":"levelo://app?vid=4b3e344f-d5f5-47ea-a0e1-c3ff7ab3ba9f"},"vehicle_type_id":"4","last_reported":1773443904,"current_range_meters":32000,"station_id":"","pricing_plan_id":"cebpf4jnsgd1na2vs0mg"},{"bike_id":"70bdeb1b-ede9-4295-baa5-5d1229a1e750","system_id":"levelo_inurba_marseille","lat":43.29502,"lon":5.38542,"is_reserved":false,"is_disabled":false,"rental_uris":{"android":"levelo://app?vid=70bdeb1b-ede9-4295-baa5-5d1229a1e750","ios":"levelo://app?vid=70bdeb1b-ede9-4295-baa5-5d1229a1e750"},"vehicle_type_id":"4","last_reported":1773443904,"current_range_meters":20000,"station_id":"ce4bgih2rcd13ifvqba0","pricing_plan_id":"cebpf4jnsgd1na2vs0mg"},{"bike_id":"f3427802-5878-400c-8520-966a18283862","system_id":"levelo_inurba_marseille","lat":43.25131,"lon":5.40323,"is_reserved":false,"is_disabled":false,"rental_uris":{"android":"levelo://app?vid=f3427802-5878-400c-8520-966a18283862","ios":"levelo://app?vid=f3427802-5878-400c-8520-966a18283862"},"vehicle_type_id":"4","last_reported":1773443904,"current_range_meters":27600,"station_id":"ce4bhlh2rcd13ifvqgig","pricing_plan_id":"cebpf4jnsgd1na2vs0mg"},{"bike_id":"b4e7db43-0bcb-420a-8a8e-7147b4affb13","system_id":"levelo_inurba_marseille","lat":43.2858,"lon":5.39493,"is_reserved":false,"is_disabled":false,"rental_uris":{"android":"levelo://app?vid=b4e7db43-0bcb-420a-8a8e-7147b4affb13","ios":"levelo://app?vid=b4e7db43-0bcb-420a-8a8e-7147b4affb13"},"vehicle_type_id":"4","last_reported":1773443904,"current_range_meters":32400,"station_id":"ce4bh292rcd13ifvqdg0","pricing_plan_id":"cebpf4jnsgd1na2vs0mg"},{"bike_id":"1b76ca95-f18f-46ad-b5e2-115c03b09dc0","system_id":"levelo_inurba_marseille","lat":43.29756,"lon":5.42786,"is_reserved":false,"is_disabled":false,"rental_uris":{"android":"levelo://app?vid=1b76ca95-f18f-46ad-b5e2-115c03b09dc0","ios":"levelo://app?vid=1b76ca95-f18f-46ad-b5e2-115c03b09dc0"},"vehicle_type_id":"4","last_reported":1773443904,"current_range_meters":24400,"station_id":"st_d3md5207bmas73dh9klg","pricing_plan_id":"cebpf4jnsgd1na2vs0mg"},{"bike_id":"aa1ea814-effc-4a82-a7ce-fc6b0be25510","system_id":"levelo_inurba_marseille","lat":43.31833,"lon":5.36976,"is_reserved":false,"is_disabled":false,"rental_uris":{"android":"levelo://app?vid=aa1ea814-effc-4a82-a7ce-fc6b0be25510","ios":"levelo://app?vid=aa1ea814-effc-4a82-a7ce-fc6b0be25510"},"vehicle_type_id":"4","last_reported":1773443904,"current_range_meters":36400,"station_id":"","pricing_plan_id":"cebpf4jnsgd1na2vs0mg"},{"bike_id":"7704b38f-82bd-49cd-9941-f2baf8ee666d","system_id":"levelo_inurba_marseille","lat":43.27639,"lon":5.36097,"is_reserved":false,"is_disabled":false,"rental_uris":{"android":"levelo://app?vid=7704b38f-82bd-49cd-9941-f2baf8ee666d","ios":"levelo://app?vid=7704b38f-82bd-49cd-9941-f2baf8ee666d"},"vehicle_type_id":"4","last_reported":1773443904,"current_range_meters":28400,"station_id":"ce4bgj92rcd13ifvqbe0","pricing_plan_id":"cebpf4jnsgd1na2vs0mg"},{"bike_id":"93b038d9-2cb8-45d1-acbc-dd4e629d63a0","system_id":"levelo_inurba_marseille","lat":43.25442,"lon":5.37722,"is_reserved":false,"is_disabled":false,"rental_uris":{"android":"levelo://app?vid=93b038d9-2cb8-45d1-acbc-dd4e629d63a0","ios":"levelo://app?vid=93b038d9-2cb8-45d1-acbc-dd4e629d63a0"},"vehicle_type_id":"4","last_reported":1773443904,"current_range_meters":3600,"station_id":"","pricing_plan_id":"cebpf4jnsgd1na2vs0mg"},{"bike_id":"10b5bc78-7677-4fe1-b764-f014c1f25939","system_id":"levelo_inurba_marseille","lat":43.303,"lon":5.36894,"is_reserved":false,"is_disabled":false,"rental_uris":{"android":"levelo://app?vid=10b5bc78-7677-4fe1-b764-f014c1f25939","ios":"levelo://app?vid=10b5bc78-7677-4fe1-b764-f014c1f25939"},"vehicle_type_id":"4","last_reported":1773443904,"current_range_meters":32400,"station_id":"ce4bgqh2rcd13ifvqc5g","pricing_plan_id":"cebpf4jnsgd1na2vs0mg"},{"bike_id":"7a4c48ba-f270-413c-a15b-9a608d497a67","system_id":"levelo_inurba_marseille","lat":43.2782,"lon":5.40721,"is_reserved":false,"is_disabled":false,"rental_uris":{"android":"levelo://app?vid=7a4c48ba-f270-413c-a15b-9a608d497a67","ios":"levelo://app?vid=7a4c48ba-f270-413c-a15b-9a608d497a67"},"vehicle_type_id":"4","last_reported":1773443904,"current_range_meters":39200,"station_id":"ce4bhnh2rcd13ifvqgtg","pricing_plan_id":"cebpf4jnsgd1na2vs0mg"},{"bike_id":"8d1d6e8b-5750-4bc4-847c-d5a2d80e3e6b","system_id":"levelo_inurba_marseille","lat":43.31499,"lon":5.37307,"is_reserved":false,"is_disabled":false,"rental_uris":{"android":"levelo://app?vid=8d1d6e8b-5750-4bc4-847c-d5a2d80e3e6b","ios":"levelo://app?vid=8d1d6e8b-5750-4bc4-847c-d5a2d80e3e6b"},"vehicle_type_id":"4","last_reported":1773443904,"current_range_meters":39200,"station_id":"ce4bgt12rcd13ifvqcd0","pricing_plan_id":"cebpf4jnsgd1na2vs0mg"},{"bike_id":"eb2f308c-8a12-4604-91b5-c6e7beca1962","system_id":"levelo_inurba_marseille","lat":43.2556,"lon":5.38272,"is_reserved":false,"is_disabled":false,"rental_uris":{"android":"levelo://app?vid=eb2f308c-8a12-4604-91b5-c6e7beca1962","ios":"levelo://app?vid=eb2f308c-8a12-4604-91b5-c6e7beca1962"},"vehicle_type_id":"4","last_reported":1773443904,"current_range_meters":27200,"station_id":"ce4bhih2rcd13ifvqfs0","pricing_plan_id":"cebpf4jnsgd1na2vs0mg"},{"bike_id":"9275d7e0-6f92-4728-99cc-26ef8f5159ad","system_id":"levelo_inurba_marseille","lat":43.29116,"lon":5.43276,"is_reserved":false,"is_disabled":false,"rental_uris":{"android":"levelo://app?vid=9275d7e0-6f92-4728-99cc-26ef8f5159ad","ios":"levelo://app?vid=9275d7e0-6f92-4728-99cc-26ef8f5159ad"},"vehicle_type_id":"4","last_reported":1773443904,"current_range_meters":33600,"station_id":"","pricing_plan_id":"cebpf4jnsgd1na2vs0mg"},{"bike_id":"0129e82f-23e7-41dc-b218-2c46214b3ed1","system_id":"levelo_inurba_marseille","lat":43.31277,"lon":5.40178,"is_reserved":false,"is_disabled":false,"rental_uris":{"android":"levelo://app?vid=0129e82f-23e7-41dc-b218-2c46214b3ed1","ios":"levelo://app?vid=0129e82f-23e7-41dc-b218-2c46214b3ed1"},"vehicle_type_id":"4","last_reported":1773443904,"current_range_meters":25200,"station_id":"ce4bh092rcd13ifvqd30","pricing_plan_id":"cebpf4jnsgd1na2vs0mg"},{"bike_id":"95d4f6aa-da6e-48d3-ad60-c8e1890448a4","system_id":"levelo_inurba_marseille","lat":43.28,"lon":5.41667,"is_reserved":false,"is_disabled":false,"rental_uris":{"android":"levelo://app?vid=95d4f6aa-da6e-48d3-ad60-c8e1890448a4","ios":"levelo://app?vid=95d4f6aa-da6e-48d3-ad60-c8e1890448a4"},"vehicle_type_id":"4","last_reported":1773443904,"current_range_meters":12000,"station_id":"ce4bho12rcd13ifvqh1g","pricing_plan_id":"cebpf4jnsgd1na2vs0mg"},{"bike_id":"be4b33f3-f666-4b28-9e53-550c3c6e8b23","system_id":"levelo_inurba_marseille","lat":43.28484,"lon":5.48394,"is_reserved":false,"is_disabled":false,"rental_uris":{"android":"levelo://app?vid=be4b33f3-f666-4b28-9e53-550c3c6e8b23","ios":"levelo://app?vid=be4b33f3-f666-4b28-9e53-550c3c6e8b23"},"vehicle_type_id":"4","last_reported":1773443904,"current_range_meters":20400,"station_id":"","pricing_plan_id":"cebpf4jnsgd1na2vs0mg"},{"bike_id":"8d199b1c-0ac9-464d-a0db-db030357808e","system_id":"levelo_inurba_marseille","lat":43.27905,"lon":5.4103,"is_reserved":false,"is_disabled":false,"rental_uris":{"android":"levelo://app?vid=8d199b1c-0ac9-464d-a0db-db030357808e","ios":"levelo://app?vid=8d199b1c-0ac9-464d-a0db-db030357808e"},"vehicle_type_id":"4","last_reported":1773443904,"current_range_meters":12800,"station_id":"","pricing_plan_id":"cebpf4jnsgd1na2vs0mg"},{"bike_id":"18b94e32-c0fc-4f34-a2a9-cd156ee3282a","system_id":"levelo_inurba_marseille","lat":43.30592,"lon":5.37247,"is_reserved":false,"is_disabled":false,"rental_uris":{"android":"levelo://app?vid=18b94e32-c0fc-4f34-a2a9-cd156ee3282a","ios":"levelo://app?vid=18b94e32-c0fc-4f34-a2a9-cd156ee3282a"},"vehicle_type_id":"4","last_reported":1773443904,"current_range_meters":38000,"station_id":"ce4bgqh2rcd13ifvqc4g","pricing_plan_id":"cebpf4jnsgd1na2vs0mg"},{"bike_id":"45ab8758-cb84-41aa-8059-0012d460eb55","system_id":"levelo_inurba_marseille","lat":43.25109,"lon":5.40325,"is_reserved":false,"is_disabled":false,"rental_uris":{"android":"levelo://app?vid=45ab8758-cb84-41aa-8059-0012d460eb55","ios":"levelo://app?vid=45ab8758-cb84-41aa-8059-0012d460eb55"},"vehicle_type_id":"4","last_reported":1773443904,"current_range_meters":28000,"station_id":"ce4bhlh2rcd13ifvqgig","pricing_plan_id":"cebpf4jnsgd1na2vs0mg"},{"bike_id":"193cbe9d-b7d2-421e-9f76-9c8c86aebb4a","system_id":"levelo_inurba_marseille","lat":43.33537,"lon":5.37471,"is_reserved":false,"is_disabled":false,"rental_uris":{"android":"levelo://app?vid=193cbe9d-b7d2-421e-9f76-9c8c86aebb4a","ios":"levelo://app?vid=193cbe9d-b7d2-421e-9f76-9c8c86aebb4a"},"vehicle_type_id":"4","last_reported":1773443904,"current_range_meters":12800,"station_id":"st_d46tts09ee8s73dlu43g","pricing_plan_id":"cebpf4jnsgd1na2vs0mg"},{"bike_id":"9f555977-ed84-4e25-9c81-1c0c6fccc8b6","system_id":"levelo_inurba_marseille","lat":43.2436,"lon":5.44105,"is_reserved":false,"is_disabled":true,"rental_uris":{"android":"levelo://app?vid=9f555977-ed84-4e25-9c81-1c0c6fccc8b6","ios":"levelo://app?vid=9f555977-ed84-4e25-9c81-1c0c6fccc8b6"},"vehicle_type_id":"4","last_reported":1773443904,"current_range_meters":4400,"station_id":"","pricing_plan_id":"cebpf4jnsgd1na2vs0mg"},{"bike_id":"e486edc7-a4e7-416b-8828-357e3d99472d","system_id":"levelo_inurba_marseille","lat":43.3095,"lon":5.39033,"is_reserved":false,"is_disabled":false,"rental_uris":{"android":"levelo://app?vid=e486edc7-a4e7-416b-8828-357e3d99472d","ios":"levelo://app?vid=e486edc7-a4e7-416b-8828-357e3d99472d"},"vehicle_type_id":"4","last_reported":1773443904,"current_range_meters":7200,"station_id":"ce4bgup2rcd13ifvqco0","pricing_plan_id":"cebpf4jnsgd1na2vs0mg"},{"bike_id":"c5e13268-5478-4dd8-930a-c3cc62e952ac","system_id":"levelo_inurba_marseille","lat":43.29214,"lon":5.36062,"is_reserved":false,"is_disabled":false,"rental_uris":{"android":"levelo://app?vid=c5e13268-5478-4dd8-930a-c3cc62e952ac","ios":"levelo://app?vid=c5e13268-5478-4dd8-930a-c3cc62e952ac"},"vehicle_type_id":"4","last_reported":1773443904,"current_range_meters":39200,"station_id":"ce4bhbh2rcd13ifvqeqg","pricing_plan_id":"cebpf4jnsgd1na2vs0mg"},{"bike_id":"58284b8d-4564-474e-ad19-2f38a205c343","system_id":"levelo_inurba_marseille","lat":43.29347,"lon":5.37872,"is_reserved":false,"is_disabled":false,"rental_uris":{"android":"levelo://app?vid=58284b8d-4564-474e-ad19-2f38a205c343","ios":"levelo://app?vid=58284b8d-4564-474e-ad19-2f38a205c343"},"vehicle_type_id":"4","last_reported":1773443904,"current_range_meters":38800,"station_id":"ce4bgjh2rcd13ifvqbf0","pricing_plan_id":"cebpf4jnsgd1na2vs0mg"},{"bike_id":"641cab82-5627-4c24-a3b6-dfa17af8941b","system_id":"levelo_inurba_marseille","lat":43.24569,"lon":5.39524,"is_reserved":false,"is_disabled":false,"rental_uris":{"android":"levelo://app?vid=641cab82-5627-4c24-a3b6-dfa17af8941b","ios":"levelo://app?vid=641cab82-5627-4c24-a3b6-dfa17af8941b"},"vehicle_type_id":"4","last_reported":1773443904,"current_range_meters":28800,"station_id":"ce4bhlp2rcd13ifvqgjg","pricing_plan_id":"cebpf4jnsgd1na2vs0mg"},{"bike_id":"3115ec2c-0e1c-40e3-beba-8ab26217ce9f","system_id":"levelo_inurba_marseille","lat":43.28212,"lon":5.39055,"is_reserved":false,"is_disabled":true,"rental_uris":{"android":"levelo://app?vid=3115ec2c-0e1c-40e3-beba-8ab26217ce9f","ios":"levelo://app?vid=3115ec2c-0e1c-40e3-beba-8ab26217ce9f"},"vehicle_type_id":"4","last_reported":1773443904,"current_range_meters":34800,"station_id":"ce4bhn92rcd13ifvqgsg","pricing_plan_id":"cebpf4jnsgd1na2vs0mg"},{"bike_id":"d780a75e-8291-47ab-9a5c-78854a6f5a8b","system_id":"levelo_inurba_marseille","lat":43.29265,"lon":5.38445,"is_reserved":false,"is_disabled":false,"rental_uris":{"android":"levelo://app?vid=d780a75e-8291-47ab-9a5c-78854a6f5a8b","ios":"levelo://app?vid=d780a75e-8291-47ab-9a5c-78854a6f5a8b"},"vehicle_type_id":"4","last_reported":1773443904,"current_range_meters":8400,"station_id":"ce4bh692rcd13ifvqea0","pricing_plan_id":"cebpf4jnsgd1na2vs0mg"},{"bike_id":"72025f50-d750-489d-95ad-9aa0f9ecf812","system_id":"levelo_inurba_marseille","lat":43.2827,"lon":5.35073,"is_reserved":false,"is_disabled":false,"rental_uris":{"android":"levelo://app?vid=72025f50-d750-489d-95ad-9aa0f9ecf812","ios":"levelo://app?vid=72025f50-d750-489d-95ad-9aa0f9ecf812"},"vehicle_type_id":"4","last_reported":1773443904,"current_range_meters":37600,"station_id":"ce4bhbp2rcd13ifvqerg","pricing_plan_id":"cebpf4jnsgd1na2vs0mg"},{"bike_id":"8f0fbc0b-755d-41e0-9e5a-7e39a441c1f6","system_id":"levelo_inurba_marseille","lat":43.304597,"lon":5.379033,"is_reserved":false,"is_disabled":false,"rental_uris":{"android":"levelo://app?vid=8f0fbc0b-755d-41e0-9e5a-7e39a441c1f6","ios":"levelo://app?vid=8f0fbc0b-755d-41e0-9e5a-7e39a441c1f6"},"vehicle_type_id":"4","last_reported":1773443904,"current_range_meters":26800,"station_id":"","pricing_plan_id":"cebpf4jnsgd1na2vs0mg"},{"bike_id":"a4788739-d140-4719-bf1d-af345fd215df","system_id":"levelo_inurba_marseille","lat":43.23175,"lon":5.3999,"is_reserved":false,"is_disabled":false,"rental_uris":{"android":"levelo://app?vid=a4788739-d140-4719-bf1d-af345fd215df","ios":"levelo://app?vid=a4788739-d140-4719-bf1d-af345fd215df"},"vehicle_type_id":"4","last_reported":1773443904,"current_range_meters":6800,"station_id":"ce4bhn12rcd13ifvqgqg","pricing_plan_id":"cebpf4jnsgd1na2vs0mg"},{"bike_id":"cec9ed91-d236-4550-8a1b-e4a966f730a4","system_id":"levelo_inurba_marseille","lat":43.30192,"lon":5.36574,"is_reserved":false,"is_disabled":false,"rental_uris":{"android":"levelo://app?vid=cec9ed91-d236-4550-8a1b-e4a966f730a4","ios":"levelo://app?vid=cec9ed91-d236-4550-8a1b-e4a966f730a4"},"vehicle_type_id":"4","last_reported":1773443904,"current_range_meters":22000,"station_id":"ce4bgrh2rcd13ifvqc8g","pricing_plan_id":"cebpf4jnsgd1na2vs0mg"},{"bike_id":"b789e489-5e56-42fd-9217-3556a01cd125","system_id":"levelo_inurba_marseille","lat":43.30598,"lon":5.3723,"is_reserved":false,"is_disabled":false,"rental_uris":{"android":"levelo://app?vid=b789e489-5e56-42fd-9217-3556a01cd125","ios":"levelo://app?vid=b789e489-5e56-42fd-9217-3556a01cd125"},"vehicle_type_id":"4","last_reported":1773443904,"current_range_meters":8000,"station_id":"ce4bgqh2rcd13ifvqc4g","pricing_plan_id":"cebpf4jnsgd1na2vs0mg"},{"bike_id":"cc5b0885-42c5-4a4d-b627-a530813f9138","system_id":"levelo_inurba_marseille","lat":43.3074,"lon":5.42449,"is_reserved":false,"is_disabled":false,"rental_uris":{"android":"levelo://app?vid=cc5b0885-42c5-4a4d-b627-a530813f9138","ios":"levelo://app?vid=cc5b0885-42c5-4a4d-b627-a530813f9138"},"vehicle_type_id":"4","last_reported":1773443904,"current_range_meters":28400,"station_id":"st_cvj6ca6bvosntc0bfgr0","pricing_plan_id":"cebpf4jnsgd1na2vs0mg"},{"bike_id":"545f3a79-87bf-4cad-b7dc-def28c2dec96","system_id":"levelo_inurba_marseille","lat":43.28571,"lon":5.3949,"is_reserved":false,"is_disabled":false,"rental_uris":{"android":"levelo://app?vid=545f3a79-87bf-4cad-b7dc-def28c2dec96","ios":"levelo://app?vid=545f3a79-87bf-4cad-b7dc-def28c2dec96"},"vehicle_type_id":"4","last_reported":1773443904,"current_range_meters":18000,"station_id":"ce4bh292rcd13ifvqdg0","pricing_plan_id":"cebpf4jnsgd1na2vs0mg"},{"bike_id":"64069c02-c977-4af0-a752-efe4502ec874","system_id":"levelo_inurba_marseille","lat":43.28475,"lon":5.48389,"is_reserved":false,"is_disabled":false,"rental_uris":{"android":"levelo://app?vid=64069c02-c977-4af0-a752-efe4502ec874","ios":"levelo://app?vid=64069c02-c977-4af0-a752-efe4502ec874"},"vehicle_type_id":"4","last_reported":1773443904,"current_range_meters":8800,"station_id":"","pricing_plan_id":"cebpf4jnsgd1na2vs0mg"},{"bike_id":"030d87a5-4fd6-406c-97be-8b1d2c082c10","system_id":"levelo_inurba_marseille","lat":43.2455,"lon":5.39535,"is_reserved":false,"is_disabled":false,"rental_uris":{"android":"levelo://app?vid=030d87a5-4fd6-406c-97be-8b1d2c082c10","ios":"levelo://app?vid=030d87a5-4fd6-406c-97be-8b1d2c082c10"},"vehicle_type_id":"4","last_reported":1773443904,"current_range_meters":39200,"station_id":"ce4bhlp2rcd13ifvqgjg","pricing_plan_id":"cebpf4jnsgd1na2vs0mg"},{"bike_id":"aa4f94f3-84b5-4abd-8722-eae906a2acc3","system_id":"levelo_inurba_marseille","lat":43.28997,"lon":5.3864,"is_reserved":false,"is_disabled":false,"rental_uris":{"android":"levelo://app?vid=aa4f94f3-84b5-4abd-8722-eae906a2acc3","ios":"levelo://app?vid=aa4f94f3-84b5-4abd-8722-eae906a2acc3"},"vehicle_type_id":"4","last_reported":1773443904,"current_range_meters":8800,"station_id":"ce4bh4p2rcd13ifvqe0g","pricing_plan_id":"cebpf4jnsgd1na2vs0mg"},{"bike_id":"57b4f028-c223-4c21-8fd1-2092c1d27d12","system_id":"levelo_inurba_marseille","lat":43.30287,"lon":5.41866,"is_reserved":false,"is_disabled":false,"rental_uris":{"android":"levelo://app?vid=57b4f028-c223-4c21-8fd1-2092c1d27d12","ios":"levelo://app?vid=57b4f028-c223-4c21-8fd1-2092c1d27d12"},"vehicle_type_id":"4","last_reported":1773443904,"current_range_meters":27200,"station_id":"","pricing_plan_id":"cebpf4jnsgd1na2vs0mg"},{"bike_id":"22f6199d-c0ec-4cba-8a2c-6a478f161131","system_id":"levelo_inurba_marseille","lat":43.30439,"lon":5.38896,"is_reserved":false,"is_disabled":false,"rental_uris":{"android":"levelo://app?vid=22f6199d-c0ec-4cba-8a2c-6a478f161131","ios":"levelo://app?vid=22f6199d-c0ec-4cba-8a2c-6a478f161131"},"vehicle_type_id":"4","last_reported":1773443904,"current_range_meters":25200,"station_id":"ce4bgk12rcd13ifvqbi0","pricing_plan_id":"cebpf4jnsgd1na2vs0mg"},{"bike_id":"7bf0a830-d498-457c-a030-91c3bd84fed4","system_id":"levelo_inurba_marseille","lat":43.23213,"lon":5.35567,"is_reserved":false,"is_disabled":false,"rental_uris":{"android":"levelo://app?vid=7bf0a830-d498-457c-a030-91c3bd84fed4","ios":"levelo://app?vid=7bf0a830-d498-457c-a030-91c3bd84fed4"},"vehicle_type_id":"4","last_reported":1773443904,"current_range_meters":37600,"station_id":"ce4bhu92rcd13ifvqi70","pricing_plan_id":"cebpf4jnsgd1na2vs0mg"},{"bike_id":"db5fc025-f609-443b-b481-2f6cefb137d4","system_id":"levelo_inurba_marseille","lat":43.28486,"lon":5.48391,"is_reserved":false,"is_disabled":false,"rental_uris":{"android":"levelo://app?vid=db5fc025-f609-443b-b481-2f6cefb137d4","ios":"levelo://app?vid=db5fc025-f609-443b-b481-2f6cefb137d4"},"vehicle_type_id":"4","last_reported":1773443904,"current_range_meters":32400,"station_id":"","pricing_plan_id":"cebpf4jnsgd1na2vs0mg"},{"bike_id":"3b85e9e8-4938-4ae7-a83e-c8e2526a550f","system_id":"levelo_inurba_marseille","lat":43.24166,"lon":5.36418,"is_reserved":false,"is_disabled":false,"rental_uris":{"android":"levelo://app?vid=3b85e9e8-4938-4ae7-a83e-c8e2526a550f","ios":"levelo://app?vid=3b85e9e8-4938-4ae7-a83e-c8e2526a550f"},"vehicle_type_id":"4","last_reported":1773443904,"current_range_meters":27200,"station_id":"cpo36qri1sfpv3e86is0","pricing_plan_id":"cebpf4jnsgd1na2vs0mg"},{"bike_id":"3c1a31b5-1e72-4c95-95c6-affdb8221f31","system_id":"levelo_inurba_marseille","lat":43.29043,"lon":5.39968,"is_reserved":false,"is_disabled":false,"rental_uris":{"android":"levelo://app?vid=3c1a31b5-1e72-4c95-95c6-affdb8221f31","ios":"levelo://app?vid=3c1a31b5-1e72-4c95-95c6-affdb8221f31"},"vehicle_type_id":"4","last_reported":1773443904,"current_range_meters":24400,"station_id":"ce4bh392rcd13ifvqdm0","pricing_plan_id":"cebpf4jnsgd1na2vs0mg"},{"bike_id":"57aa564f-18d7-4da2-b67c-e3aff3bc078f","system_id":"levelo_inurba_marseille","lat":43.30549,"lon":5.36715,"is_reserved":false,"is_disabled":false,"rental_uris":{"android":"levelo://app?vid=57aa564f-18d7-4da2-b67c-e3aff3bc078f","ios":"levelo://app?vid=57aa564f-18d7-4da2-b67c-e3aff3bc078f"},"vehicle_type_id":"4","last_reported":1773443904,"current_range_meters":39200,"station_id":"ce4bgrp2rcd13ifvqc9g","pricing_plan_id":"cebpf4jnsgd1na2vs0mg"},{"bike_id":"d24ddeef-9278-443f-903c-dce36f2aff8f","system_id":"levelo_inurba_marseille","lat":43.28458,"lon":5.35904,"is_reserved":false,"is_disabled":false,"rental_uris":{"android":"levelo://app?vid=d24ddeef-9278-443f-903c-dce36f2aff8f","ios":"levelo://app?vid=d24ddeef-9278-443f-903c-dce36f2aff8f"},"vehicle_type_id":"4","last_reported":1773443904,"current_range_meters":38000,"station_id":"ce4bhah2rcd13ifvqei0","pricing_plan_id":"cebpf4jnsgd1na2vs0mg"},{"bike_id":"77ef838e-27ec-4729-8006-994b47b34b88","system_id":"levelo_inurba_marseille","lat":43.30809,"lon":5.38158,"is_reserved":false,"is_disabled":false,"rental_uris":{"android":"levelo://app?vid=77ef838e-27ec-4729-8006-994b47b34b88","ios":"levelo://app?vid=77ef838e-27ec-4729-8006-994b47b34b88"},"vehicle_type_id":"4","last_reported":1773443904,"current_range_meters":28800,"station_id":"ce4bgt12rcd13ifvqce0","pricing_plan_id":"cebpf4jnsgd1na2vs0mg"},{"bike_id":"ab7d9189-2568-4974-829e-49dee9a447d5","system_id":"levelo_inurba_marseille","lat":43.23202,"lon":5.35547,"is_reserved":false,"is_disabled":false,"rental_uris":{"android":"levelo://app?vid=ab7d9189-2568-4974-829e-49dee9a447d5","ios":"levelo://app?vid=ab7d9189-2568-4974-829e-49dee9a447d5"},"vehicle_type_id":"4","last_reported":1773443904,"current_range_meters":39200,"station_id":"ce4bhu92rcd13ifvqi70","pricing_plan_id":"cebpf4jnsgd1na2vs0mg"},{"bike_id":"734e018e-369b-4e22-8448-013f77c4e902","system_id":"levelo_inurba_marseille","lat":43.28689,"lon":5.36116,"is_reserved":false,"is_disabled":false,"rental_uris":{"android":"levelo://app?vid=734e018e-369b-4e22-8448-013f77c4e902","ios":"levelo://app?vid=734e018e-369b-4e22-8448-013f77c4e902"},"vehicle_type_id":"4","last_reported":1773443904,"current_range_meters":37600,"station_id":"cki0cbj6b192h4jlfktg","pricing_plan_id":"cebpf4jnsgd1na2vs0mg"},{"bike_id":"c0c5d9dc-928d-48b1-bc04-fe5d71707694","system_id":"levelo_inurba_marseille","lat":43.32358,"lon":5.36719,"is_reserved":false,"is_disabled":false,"rental_uris":{"android":"levelo://app?vid=c0c5d9dc-928d-48b1-bc04-fe5d71707694","ios":"levelo://app?vid=c0c5d9dc-928d-48b1-bc04-fe5d71707694"},"vehicle_type_id":"4","last_reported":1773443904,"current_range_meters":38400,"station_id":"ce4bhsh2rcd13ifvqi2g","pricing_plan_id":"cebpf4jnsgd1na2vs0mg"},{"bike_id":"c1477131-caab-43d7-95bb-c758b4857c85","system_id":"levelo_inurba_marseille","lat":43.30805,"lon":5.38147,"is_reserved":false,"is_disabled":false,"rental_uris":{"android":"levelo://app?vid=c1477131-caab-43d7-95bb-c758b4857c85","ios":"levelo://app?vid=c1477131-caab-43d7-95bb-c758b4857c85"},"vehicle_type_id":"4","last_reported":1773443904,"current_range_meters":25600,"station_id":"ce4bgt12rcd13ifvqce0","pricing_plan_id":"cebpf4jnsgd1na2vs0mg"},{"bike_id":"475f6229-3b8f-4eab-b8fd-2fbd86f0fb75","system_id":"levelo_inurba_marseille","lat":43.24163,"lon":5.36413,"is_reserved":false,"is_disabled":false,"rental_uris":{"android":"levelo://app?vid=475f6229-3b8f-4eab-b8fd-2fbd86f0fb75","ios":"levelo://app?vid=475f6229-3b8f-4eab-b8fd-2fbd86f0fb75"},"vehicle_type_id":"4","last_reported":1773443904,"current_range_meters":39200,"station_id":"cpo36qri1sfpv3e86is0","pricing_plan_id":"cebpf4jnsgd1na2vs0mg"},{"bike_id":"aaf56433-ee77-470c-b7b6-221e680ae993","system_id":"levelo_inurba_marseille","lat":43.22562,"lon":5.41628,"is_reserved":false,"is_disabled":false,"rental_uris":{"android":"levelo://app?vid=aaf56433-ee77-470c-b7b6-221e680ae993","ios":"levelo://app?vid=aaf56433-ee77-470c-b7b6-221e680ae993"},"vehicle_type_id":"4","last_reported":1773443904,"current_range_meters":10000,"station_id":"st_d2o4gvlbi1j2169b742g","pricing_plan_id":"cebpf4jnsgd1na2vs0mg"},{"bike_id":"59eb4280-455c-4232-bc75-5aacdbdf8ed9","system_id":"levelo_inurba_marseille","lat":43.29265,"lon":5.38438,"is_reserved":false,"is_disabled":false,"rental_uris":{"android":"levelo://app?vid=59eb4280-455c-4232-bc75-5aacdbdf8ed9","ios":"levelo://app?vid=59eb4280-455c-4232-bc75-5aacdbdf8ed9"},"vehicle_type_id":"4","last_reported":1773443904,"current_range_meters":26000,"station_id":"ce4bh692rcd13ifvqea0","pricing_plan_id":"cebpf4jnsgd1na2vs0mg"},{"bike_id":"3a3e1c85-dbae-420f-b6d9-3a4969e8b66e","system_id":"levelo_inurba_marseille","lat":43.24468,"lon":5.42541,"is_reserved":false,"is_disabled":false,"rental_uris":{"android":"levelo://app?vid=3a3e1c85-dbae-420f-b6d9-3a4969e8b66e","ios":"levelo://app?vid=3a3e1c85-dbae-420f-b6d9-3a4969e8b66e"},"vehicle_type_id":"4","last_reported":1773443904,"current_range_meters":7200,"station_id":"st_d4a3vfp97mjs738cd8kg","pricing_plan_id":"cebpf4jnsgd1na2vs0mg"},{"bike_id":"36be6fdc-a39f-47dc-8cc1-973b53a697ed","system_id":"levelo_inurba_marseille","lat":43.30957,"lon":5.3904,"is_reserved":false,"is_disabled":false,"rental_uris":{"android":"levelo://app?vid=36be6fdc-a39f-47dc-8cc1-973b53a697ed","ios":"levelo://app?vid=36be6fdc-a39f-47dc-8cc1-973b53a697ed"},"vehicle_type_id":"4","last_reported":1773443904,"current_range_meters":14400,"station_id":"ce4bgup2rcd13ifvqco0","pricing_plan_id":"cebpf4jnsgd1na2vs0mg"},{"bike_id":"eb259eb3-17cb-4932-bfd9-164bb2aaf2fe","system_id":"levelo_inurba_marseille","lat":43.232,"lon":5.3554,"is_reserved":false,"is_disabled":false,"rental_uris":{"android":"levelo://app?vid=eb259eb3-17cb-4932-bfd9-164bb2aaf2fe","ios":"levelo://app?vid=eb259eb3-17cb-4932-bfd9-164bb2aaf2fe"},"vehicle_type_id":"4","last_reported":1773443904,"current_range_meters":27600,"station_id":"ce4bhu92rcd13ifvqi70","pricing_plan_id":"cebpf4jnsgd1na2vs0mg"},{"bike_id":"41b16539-d93d-4e64-a8e4-b7d380ab4e3b","system_id":"levelo_inurba_marseille","lat":43.25011,"lon":5.38924,"is_reserved":false,"is_disabled":false,"rental_uris":{"android":"levelo://app?vid=41b16539-d93d-4e64-a8e4-b7d380ab4e3b","ios":"levelo://app?vid=41b16539-d93d-4e64-a8e4-b7d380ab4e3b"},"vehicle_type_id":"4","last_reported":1773443904,"current_range_meters":10000,"station_id":"ce4bhgp2rcd13ifvqfd0","pricing_plan_id":"cebpf4jnsgd1na2vs0mg"},{"bike_id":"7467fdab-ef83-4ed4-8e7e-599f4211a1ef","system_id":"levelo_inurba_marseille","lat":43.29534,"lon":5.39062,"is_reserved":false,"is_disabled":false,"rental_uris":{"android":"levelo://app?vid=7467fdab-ef83-4ed4-8e7e-599f4211a1ef","ios":"levelo://app?vid=7467fdab-ef83-4ed4-8e7e-599f4211a1ef"},"vehicle_type_id":"4","last_reported":1773443904,"current_range_meters":35600,"station_id":"ce4bh3p2rcd13ifvqdp0","pricing_plan_id":"cebpf4jnsgd1na2vs0mg"},{"bike_id":"d84ec552-721d-45c8-9076-2f8acbc3fb37","system_id":"levelo_inurba_marseille","lat":43.24652,"lon":5.38157,"is_reserved":false,"is_disabled":false,"rental_uris":{"android":"levelo://app?vid=d84ec552-721d-45c8-9076-2f8acbc3fb37","ios":"levelo://app?vid=d84ec552-721d-45c8-9076-2f8acbc3fb37"},"vehicle_type_id":"4","last_reported":1773443904,"current_range_meters":37600,"station_id":"ce4bhih2rcd13ifvqfr0","pricing_plan_id":"cebpf4jnsgd1na2vs0mg"},{"bike_id":"ec554ec0-5c21-4dd2-9039-f7bab590bd7b","system_id":"levelo_inurba_marseille","lat":43.269428,"lon":5.402596,"is_reserved":false,"is_disabled":false,"rental_uris":{"android":"levelo://app?vid=ec554ec0-5c21-4dd2-9039-f7bab590bd7b","ios":"levelo://app?vid=ec554ec0-5c21-4dd2-9039-f7bab590bd7b"},"vehicle_type_id":"4","last_reported":1773443904,"current_range_meters":20400,"station_id":"cjm6bp8fraef2m0cb0m0","pricing_plan_id":"cebpf4jnsgd1na2vs0mg"},{"bike_id":"4a7bb406-0a18-4f88-96e2-fd1ed858fe4e","system_id":"levelo_inurba_marseille","lat":43.28231,"lon":5.39065,"is_reserved":false,"is_disabled":false,"rental_uris":{"android":"levelo://app?vid=4a7bb406-0a18-4f88-96e2-fd1ed858fe4e","ios":"levelo://app?vid=4a7bb406-0a18-4f88-96e2-fd1ed858fe4e"},"vehicle_type_id":"4","last_reported":1773443904,"current_range_meters":25600,"station_id":"ce4bhn92rcd13ifvqgsg","pricing_plan_id":"cebpf4jnsgd1na2vs0mg"},{"bike_id":"e305725b-6b92-46c5-a744-6991250b3bf0","system_id":"levelo_inurba_marseille","lat":43.28457,"lon":5.35894,"is_reserved":false,"is_disabled":false,"rental_uris":{"android":"levelo://app?vid=e305725b-6b92-46c5-a744-6991250b3bf0","ios":"levelo://app?vid=e305725b-6b92-46c5-a744-6991250b3bf0"},"vehicle_type_id":"4","last_reported":1773443904,"current_range_meters":12800,"station_id":"ce4bhah2rcd13ifvqei0","pricing_plan_id":"cebpf4jnsgd1na2vs0mg"},{"bike_id":"92f42bc1-a735-43a4-906a-779551f2e4c8","system_id":"levelo_inurba_marseille","lat":43.29766,"lon":5.38127,"is_reserved":false,"is_disabled":true,"rental_uris":{"android":"levelo://app?vid=92f42bc1-a735-43a4-906a-779551f2e4c8","ios":"levelo://app?vid=92f42bc1-a735-43a4-906a-779551f2e4c8"},"vehicle_type_id":"4","last_reported":1773443904,"current_range_meters":24800,"station_id":"ce4bgip2rcd13ifvqbb0","pricing_plan_id":"cebpf4jnsgd1na2vs0mg"},{"bike_id":"88cb8c7f-0ccd-4a01-91f9-3a530d0e94ef","system_id":"levelo_inurba_marseille","lat":43.28649,"lon":5.35119,"is_reserved":false,"is_disabled":false,"rental_uris":{"android":"levelo://app?vid=88cb8c7f-0ccd-4a01-91f9-3a530d0e94ef","ios":"levelo://app?vid=88cb8c7f-0ccd-4a01-91f9-3a530d0e94ef"},"vehicle_type_id":"4","last_reported":1773443904,"current_range_meters":39200,"station_id":"ce4bhch2rcd13ifvqeug","pricing_plan_id":"cebpf4jnsgd1na2vs0mg"},{"bike_id":"ce5ec0f0-327f-48bc-8d88-0277da7389b5","system_id":"levelo_inurba_marseille","lat":43.29244,"lon":5.39771,"is_reserved":false,"is_disabled":false,"rental_uris":{"android":"levelo://app?vid=ce5ec0f0-327f-48bc-8d88-0277da7389b5","ios":"levelo://app?vid=ce5ec0f0-327f-48bc-8d88-0277da7389b5"},"vehicle_type_id":"4","last_reported":1773443904,"current_range_meters":22800,"station_id":"","pricing_plan_id":"cebpf4jnsgd1na2vs0mg"},{"bike_id":"32358ead-44ff-491d-882b-0c4122b7d796","system_id":"levelo_inurba_marseille","lat":43.21192,"lon":5.35076,"is_reserved":false,"is_disabled":false,"rental_uris":{"android":"levelo://app?vid=32358ead-44ff-491d-882b-0c4122b7d796","ios":"levelo://app?vid=32358ead-44ff-491d-882b-0c4122b7d796"},"vehicle_type_id":"4","last_reported":1773443904,"current_range_meters":8000,"station_id":"st_cvj6sg6p6f1abm77japg","pricing_plan_id":"cebpf4jnsgd1na2vs0mg"},{"bike_id":"636186e5-abc2-458f-aa29-139af3b076e0","system_id":"levelo_inurba_marseille","lat":43.27943,"lon":5.41045,"is_reserved":false,"is_disabled":false,"rental_uris":{"android":"levelo://app?vid=636186e5-abc2-458f-aa29-139af3b076e0","ios":"levelo://app?vid=636186e5-abc2-458f-aa29-139af3b076e0"},"vehicle_type_id":"4","last_reported":1773443904,"current_range_meters":23200,"station_id":"ce4bhnp2rcd13ifvqh0g","pricing_plan_id":"cebpf4jnsgd1na2vs0mg"},{"bike_id":"88baf1fe-4b9b-4c52-81f7-dd067c921a9f","system_id":"levelo_inurba_marseille","lat":43.29814,"lon":5.44077,"is_reserved":false,"is_disabled":false,"rental_uris":{"android":"levelo://app?vid=88baf1fe-4b9b-4c52-81f7-dd067c921a9f","ios":"levelo://app?vid=88baf1fe-4b9b-4c52-81f7-dd067c921a9f"},"vehicle_type_id":"4","last_reported":1773443904,"current_range_meters":16000,"station_id":"st_d3jp68qikq2c7381ktn0","pricing_plan_id":"cebpf4jnsgd1na2vs0mg"},{"bike_id":"d3520888-b356-4a76-b6fc-286ed08a3b41","system_id":"levelo_inurba_marseille","lat":43.27358,"lon":5.36249,"is_reserved":false,"is_disabled":false,"rental_uris":{"android":"levelo://app?vid=d3520888-b356-4a76-b6fc-286ed08a3b41","ios":"levelo://app?vid=d3520888-b356-4a76-b6fc-286ed08a3b41"},"vehicle_type_id":"4","last_reported":1773443904,"current_range_meters":39200,"station_id":"ce4bhbh2rcd13ifvqeo0","pricing_plan_id":"cebpf4jnsgd1na2vs0mg"},{"bike_id":"daa99b61-4d2f-4778-923c-e1245242aa17","system_id":"levelo_inurba_marseille","lat":43.29185,"lon":5.39338,"is_reserved":false,"is_disabled":false,"rental_uris":{"android":"levelo://app?vid=daa99b61-4d2f-4778-923c-e1245242aa17","ios":"levelo://app?vid=daa99b61-4d2f-4778-923c-e1245242aa17"},"vehicle_type_id":"4","last_reported":1773443904,"current_range_meters":32800,"station_id":"ce4bh192rcd13ifvqdd0","pricing_plan_id":"cebpf4jnsgd1na2vs0mg"},{"bike_id":"0f0d92f0-3031-4109-9545-b12e61aeb8ea","system_id":"levelo_inurba_marseille","lat":43.25497,"lon":5.37656,"is_reserved":false,"is_disabled":false,"rental_uris":{"android":"levelo://app?vid=0f0d92f0-3031-4109-9545-b12e61aeb8ea","ios":"levelo://app?vid=0f0d92f0-3031-4109-9545-b12e61aeb8ea"},"vehicle_type_id":"4","last_reported":1773443904,"current_range_meters":40000,"station_id":"ce4bhh12rcd13ifvqff0","pricing_plan_id":"cebpf4jnsgd1na2vs0mg"},{"bike_id":"60e5ee64-23dd-4b76-ba43-a71a00813c74","system_id":"levelo_inurba_marseille","lat":43.29769,"lon":5.37636,"is_reserved":false,"is_disabled":true,"rental_uris":{"android":"levelo://app?vid=60e5ee64-23dd-4b76-ba43-a71a00813c74","ios":"levelo://app?vid=60e5ee64-23dd-4b76-ba43-a71a00813c74"},"vehicle_type_id":"4","last_reported":1773443904,"current_range_meters":6400,"station_id":"","pricing_plan_id":"cebpf4jnsgd1na2vs0mg"},{"bike_id":"5ac94716-44b8-4ae4-8f63-01aed3be190f","system_id":"levelo_inurba_marseille","lat":43.2396,"lon":5.36636,"is_reserved":false,"is_disabled":false,"rental_uris":{"android":"levelo://app?vid=5ac94716-44b8-4ae4-8f63-01aed3be190f","ios":"levelo://app?vid=5ac94716-44b8-4ae4-8f63-01aed3be190f"},"vehicle_type_id":"4","last_reported":1773443904,"current_range_meters":11200,"station_id":"ce4bhi12rcd13ifvqfp0","pricing_plan_id":"cebpf4jnsgd1na2vs0mg"},{"bike_id":"b46fd29e-03f5-41fe-a2f0-04b7e9712915","system_id":"levelo_inurba_marseille","lat":43.24807,"lon":5.37461,"is_reserved":false,"is_disabled":false,"rental_uris":{"android":"levelo://app?vid=b46fd29e-03f5-41fe-a2f0-04b7e9712915","ios":"levelo://app?vid=b46fd29e-03f5-41fe-a2f0-04b7e9712915"},"vehicle_type_id":"4","last_reported":1773443904,"current_range_meters":16800,"station_id":"ce4bhgh2rcd13ifvqfb0","pricing_plan_id":"cebpf4jnsgd1na2vs0mg"},{"bike_id":"4b89016e-4162-40fe-a211-e0b3a395484a","system_id":"levelo_inurba_marseille","lat":43.31329,"lon":5.39688,"is_reserved":false,"is_disabled":false,"rental_uris":{"android":"levelo://app?vid=4b89016e-4162-40fe-a211-e0b3a395484a","ios":"levelo://app?vid=4b89016e-4162-40fe-a211-e0b3a395484a"},"vehicle_type_id":"4","last_reported":1773443904,"current_range_meters":8800,"station_id":"ce4bgvp2rcd13ifvqcu0","pricing_plan_id":"cebpf4jnsgd1na2vs0mg"},{"bike_id":"ca0245d3-a425-427e-9bfd-e30aeca7ed58","system_id":"levelo_inurba_marseille","lat":43.26683,"lon":5.38276,"is_reserved":false,"is_disabled":true,"rental_uris":{"android":"levelo://app?vid=ca0245d3-a425-427e-9bfd-e30aeca7ed58","ios":"levelo://app?vid=ca0245d3-a425-427e-9bfd-e30aeca7ed58"},"vehicle_type_id":"4","last_reported":1773443904,"current_range_meters":0,"station_id":"ce4bhg92rcd13ifvqf90","pricing_plan_id":"cebpf4jnsgd1na2vs0mg"},{"bike_id":"d008a3ca-bdab-43f7-957e-465391a2d48d","system_id":"levelo_inurba_marseille","lat":43.31697,"lon":5.42403,"is_reserved":false,"is_disabled":false,"rental_uris":{"android":"levelo://app?vid=d008a3ca-bdab-43f7-957e-465391a2d48d","ios":"levelo://app?vid=d008a3ca-bdab-43f7-957e-465391a2d48d"},"vehicle_type_id":"4","last_reported":1773443904,"current_range_meters":38800,"station_id":"ce4bhp92rcd13ifvqhbg","pricing_plan_id":"cebpf4jnsgd1na2vs0mg"},{"bike_id":"46b2d1e0-300e-4991-91c2-f1a3bf8f746d","system_id":"levelo_inurba_marseille","lat":43.295193,"lon":5.390318,"is_reserved":false,"is_disabled":false,"rental_uris":{"android":"levelo://app?vid=46b2d1e0-300e-4991-91c2-f1a3bf8f746d","ios":"levelo://app?vid=46b2d1e0-300e-4991-91c2-f1a3bf8f746d"},"vehicle_type_id":"4","last_reported":1773443904,"current_range_meters":21600,"station_id":"ce4bh292rcd13ifvqdf0","pricing_plan_id":"cebpf4jnsgd1na2vs0mg"},{"bike_id":"23ce149a-8002-4e5d-bede-062310aaa30b","system_id":"levelo_inurba_marseille","lat":43.2953,"lon":5.38528,"is_reserved":false,"is_disabled":false,"rental_uris":{"android":"levelo://app?vid=23ce149a-8002-4e5d-bede-062310aaa30b","ios":"levelo://app?vid=23ce149a-8002-4e5d-bede-062310aaa30b"},"vehicle_type_id":"4","last_reported":1773443904,"current_range_meters":24800,"station_id":"ce4bgih2rcd13ifvqba0","pricing_plan_id":"cebpf4jnsgd1na2vs0mg"},{"bike_id":"6d245beb-95d8-4d9e-938b-14a601c52230","system_id":"levelo_inurba_marseille","lat":43.29933,"lon":5.3655,"is_reserved":false,"is_disabled":false,"rental_uris":{"android":"levelo://app?vid=6d245beb-95d8-4d9e-938b-14a601c52230","ios":"levelo://app?vid=6d245beb-95d8-4d9e-938b-14a601c52230"},"vehicle_type_id":"4","last_reported":1773443904,"current_range_meters":28000,"station_id":"ce4bgm92rcd13ifvqbr0","pricing_plan_id":"cebpf4jnsgd1na2vs0mg"},{"bike_id":"9596f94a-278a-429c-a324-f3e305c15fe7","system_id":"levelo_inurba_marseille","lat":43.28257,"lon":5.35066,"is_reserved":false,"is_disabled":false,"rental_uris":{"android":"levelo://app?vid=9596f94a-278a-429c-a324-f3e305c15fe7","ios":"levelo://app?vid=9596f94a-278a-429c-a324-f3e305c15fe7"},"vehicle_type_id":"4","last_reported":1773443904,"current_range_meters":26000,"station_id":"ce4bhbp2rcd13ifvqerg","pricing_plan_id":"cebpf4jnsgd1na2vs0mg"},{"bike_id":"ce4c845e-658d-4bf6-b21e-edb1ba851bb3","system_id":"levelo_inurba_marseille","lat":43.291041,"lon":5.381348,"is_reserved":false,"is_disabled":false,"rental_uris":{"android":"levelo://app?vid=ce4c845e-658d-4bf6-b21e-edb1ba851bb3","ios":"levelo://app?vid=ce4c845e-658d-4bf6-b21e-edb1ba851bb3"},"vehicle_type_id":"4","last_reported":1773443904,"current_range_meters":34800,"station_id":"ce4bh512rcd13ifvqe2g","pricing_plan_id":"cebpf4jnsgd1na2vs0mg"},{"bike_id":"40c27b0e-4f22-4745-bcd8-0841599fb5ad","system_id":"levelo_inurba_marseille","lat":43.30326,"lon":5.4043,"is_reserved":false,"is_disabled":false,"rental_uris":{"android":"levelo://app?vid=40c27b0e-4f22-4745-bcd8-0841599fb5ad","ios":"levelo://app?vid=40c27b0e-4f22-4745-bcd8-0841599fb5ad"},"vehicle_type_id":"4","last_reported":1773443904,"current_range_meters":39200,"station_id":"ce4bh012rcd13ifvqd10","pricing_plan_id":"cebpf4jnsgd1na2vs0mg"},{"bike_id":"527d9d50-e7b6-436b-9716-109e1d8131a4","system_id":"levelo_inurba_marseille","lat":43.29926,"lon":5.38135,"is_reserved":false,"is_disabled":false,"rental_uris":{"android":"levelo://app?vid=527d9d50-e7b6-436b-9716-109e1d8131a4","ios":"levelo://app?vid=527d9d50-e7b6-436b-9716-109e1d8131a4"},"vehicle_type_id":"4","last_reported":1773443904,"current_range_meters":39200,"station_id":"ce4bgj12rcd13ifvqbc0","pricing_plan_id":"cebpf4jnsgd1na2vs0mg"},{"bike_id":"9a2fbe44-96fa-42fa-b7e7-679196e3a792","system_id":"levelo_inurba_marseille","lat":43.30935,"lon":5.4014,"is_reserved":false,"is_disabled":false,"rental_uris":{"android":"levelo://app?vid=9a2fbe44-96fa-42fa-b7e7-679196e3a792","ios":"levelo://app?vid=9a2fbe44-96fa-42fa-b7e7-679196e3a792"},"vehicle_type_id":"4","last_reported":1773443904,"current_range_meters":33600,"station_id":"ce4bgvp2rcd13ifvqct0","pricing_plan_id":"cebpf4jnsgd1na2vs0mg"},{"bike_id":"18a0fb9e-e224-426e-8d68-1c285ec71ac8","system_id":"levelo_inurba_marseille","lat":43.29281,"lon":5.38421,"is_reserved":false,"is_disabled":true,"rental_uris":{"android":"levelo://app?vid=18a0fb9e-e224-426e-8d68-1c285ec71ac8","ios":"levelo://app?vid=18a0fb9e-e224-426e-8d68-1c285ec71ac8"},"vehicle_type_id":"4","last_reported":1773443904,"current_range_meters":26000,"station_id":"ce4bh692rcd13ifvqea0","pricing_plan_id":"cebpf4jnsgd1na2vs0mg"},{"bike_id":"9fad7457-7dba-48ad-8c87-721ef15f20b7","system_id":"levelo_inurba_marseille","lat":43.28461,"lon":5.35883,"is_reserved":false,"is_disabled":false,"rental_uris":{"android":"levelo://app?vid=9fad7457-7dba-48ad-8c87-721ef15f20b7","ios":"levelo://app?vid=9fad7457-7dba-48ad-8c87-721ef15f20b7"},"vehicle_type_id":"4","last_reported":1773443904,"current_range_meters":20800,"station_id":"ce4bhah2rcd13ifvqei0","pricing_plan_id":"cebpf4jnsgd1na2vs0mg"},{"bike_id":"ef364c26-b12f-4ac2-8385-acdb623c591d","system_id":"levelo_inurba_marseille","lat":43.22552,"lon":5.41633,"is_reserved":false,"is_disabled":true,"rental_uris":{"android":"levelo://app?vid=ef364c26-b12f-4ac2-8385-acdb623c591d","ios":"levelo://app?vid=ef364c26-b12f-4ac2-8385-acdb623c591d"},"vehicle_type_id":"4","last_reported":1773443904,"current_range_meters":16800,"station_id":"st_d2o4gvlbi1j2169b742g","pricing_plan_id":"cebpf4jnsgd1na2vs0mg"},{"bike_id":"1f6349b5-213e-4c70-8847-e120f033f762","system_id":"levelo_inurba_marseille","lat":43.31843,"lon":5.40755,"is_reserved":false,"is_disabled":false,"rental_uris":{"android":"levelo://app?vid=1f6349b5-213e-4c70-8847-e120f033f762","ios":"levelo://app?vid=1f6349b5-213e-4c70-8847-e120f033f762"},"vehicle_type_id":"4","last_reported":1773443904,"current_range_meters":39200,"station_id":"ce4bhq12rcd13ifvqhig","pricing_plan_id":"cebpf4jnsgd1na2vs0mg"},{"bike_id":"afb97abd-59e7-4d96-8fe0-4b5b2e943acc","system_id":"levelo_inurba_marseille","lat":43.2997,"lon":5.38493,"is_reserved":false,"is_disabled":false,"rental_uris":{"android":"levelo://app?vid=afb97abd-59e7-4d96-8fe0-4b5b2e943acc","ios":"levelo://app?vid=afb97abd-59e7-4d96-8fe0-4b5b2e943acc"},"vehicle_type_id":"4","last_reported":1773443904,"current_range_meters":20800,"station_id":"ce4bgj92rcd13ifvqbd0","pricing_plan_id":"cebpf4jnsgd1na2vs0mg"},{"bike_id":"0caef11f-bbfb-4366-8e8c-be825fa3903a","system_id":"levelo_inurba_marseille","lat":43.31113,"lon":5.37774,"is_reserved":false,"is_disabled":false,"rental_uris":{"android":"levelo://app?vid=0caef11f-bbfb-4366-8e8c-be825fa3903a","ios":"levelo://app?vid=0caef11f-bbfb-4366-8e8c-be825fa3903a"},"vehicle_type_id":"4","last_reported":1773443904,"current_range_meters":31200,"station_id":"ce4bgt92rcd13ifvqcg0","pricing_plan_id":"cebpf4jnsgd1na2vs0mg"},{"bike_id":"8617b24d-bdd2-49e3-beda-5d74fc474252","system_id":"levelo_inurba_marseille","lat":43.28484,"lon":5.48388,"is_reserved":false,"is_disabled":false,"rental_uris":{"android":"levelo://app?vid=8617b24d-bdd2-49e3-beda-5d74fc474252","ios":"levelo://app?vid=8617b24d-bdd2-49e3-beda-5d74fc474252"},"vehicle_type_id":"4","last_reported":1773443904,"current_range_meters":28800,"station_id":"","pricing_plan_id":"cebpf4jnsgd1na2vs0mg"},{"bike_id":"220d894a-f644-4c83-8dff-27c56f0eea16","system_id":"levelo_inurba_marseille","lat":43.24802,"lon":5.3745,"is_reserved":false,"is_disabled":true,"rental_uris":{"android":"levelo://app?vid=220d894a-f644-4c83-8dff-27c56f0eea16","ios":"levelo://app?vid=220d894a-f644-4c83-8dff-27c56f0eea16"},"vehicle_type_id":"4","last_reported":1773443904,"current_range_meters":23200,"station_id":"ce4bhgh2rcd13ifvqfb0","pricing_plan_id":"cebpf4jnsgd1na2vs0mg"},{"bike_id":"e27a78d1-6a7f-42ed-88b3-9fcd67052257","system_id":"levelo_inurba_marseille","lat":43.25859,"lon":5.39938,"is_reserved":false,"is_disabled":false,"rental_uris":{"android":"levelo://app?vid=e27a78d1-6a7f-42ed-88b3-9fcd67052257","ios":"levelo://app?vid=e27a78d1-6a7f-42ed-88b3-9fcd67052257"},"vehicle_type_id":"4","last_reported":1773443904,"current_range_meters":23200,"station_id":"ce4bhl92rcd13ifvqghg","pricing_plan_id":"cebpf4jnsgd1na2vs0mg"},{"bike_id":"8491102b-8a6c-438c-b61c-4a97bc211910","system_id":"levelo_inurba_marseille","lat":43.27945,"lon":5.41042,"is_reserved":false,"is_disabled":false,"rental_uris":{"android":"levelo://app?vid=8491102b-8a6c-438c-b61c-4a97bc211910","ios":"levelo://app?vid=8491102b-8a6c-438c-b61c-4a97bc211910"},"vehicle_type_id":"4","last_reported":1773443904,"current_range_meters":9600,"station_id":"ce4bhnp2rcd13ifvqh0g","pricing_plan_id":"cebpf4jnsgd1na2vs0mg"},{"bike_id":"2c4b9baa-150c-43c0-9983-79477495e674","system_id":"levelo_inurba_marseille","lat":43.31589,"lon":5.38914,"is_reserved":false,"is_disabled":false,"rental_uris":{"android":"levelo://app?vid=2c4b9baa-150c-43c0-9983-79477495e674","ios":"levelo://app?vid=2c4b9baa-150c-43c0-9983-79477495e674"},"vehicle_type_id":"4","last_reported":1773443904,"current_range_meters":5600,"station_id":"","pricing_plan_id":"cebpf4jnsgd1na2vs0mg"},{"bike_id":"4a09330b-b9bf-424e-8693-aafe00acb3cd","system_id":"levelo_inurba_marseille","lat":43.2955,"lon":5.42278,"is_reserved":false,"is_disabled":false,"rental_uris":{"android":"levelo://app?vid=4a09330b-b9bf-424e-8693-aafe00acb3cd","ios":"levelo://app?vid=4a09330b-b9bf-424e-8693-aafe00acb3cd"},"vehicle_type_id":"4","last_reported":1773443904,"current_range_meters":38000,"station_id":"ce4bhph2rcd13ifvqhdg","pricing_plan_id":"cebpf4jnsgd1na2vs0mg"},{"bike_id":"fea054e9-9687-462f-a721-42a34c23bbef","system_id":"levelo_inurba_marseille","lat":43.24672,"lon":5.3818,"is_reserved":false,"is_disabled":false,"rental_uris":{"android":"levelo://app?vid=fea054e9-9687-462f-a721-42a34c23bbef","ios":"levelo://app?vid=fea054e9-9687-462f-a721-42a34c23bbef"},"vehicle_type_id":"4","last_reported":1773443904,"current_range_meters":10800,"station_id":"ce4bhih2rcd13ifvqfr0","pricing_plan_id":"cebpf4jnsgd1na2vs0mg"},{"bike_id":"3d4208c2-815f-40bf-8bb0-f78b87ee07d6","system_id":"levelo_inurba_marseille","lat":43.28401,"lon":5.34986,"is_reserved":false,"is_disabled":false,"rental_uris":{"android":"levelo://app?vid=3d4208c2-815f-40bf-8bb0-f78b87ee07d6","ios":"levelo://app?vid=3d4208c2-815f-40bf-8bb0-f78b87ee07d6"},"vehicle_type_id":"4","last_reported":1773443904,"current_range_meters":39200,"station_id":"ce4bhbh2rcd13ifvqepg","pricing_plan_id":"cebpf4jnsgd1na2vs0mg"},{"bike_id":"a9476746-a5fc-47b3-b041-81daf8b73d87","system_id":"levelo_inurba_marseille","lat":43.295549,"lon":5.422866,"is_reserved":false,"is_disabled":false,"rental_uris":{"android":"levelo://app?vid=a9476746-a5fc-47b3-b041-81daf8b73d87","ios":"levelo://app?vid=a9476746-a5fc-47b3-b041-81daf8b73d87"},"vehicle_type_id":"4","last_reported":1773443904,"current_range_meters":34800,"station_id":"ce4bhph2rcd13ifvqhdg","pricing_plan_id":"cebpf4jnsgd1na2vs0mg"},{"bike_id":"56dee56f-ca32-48a9-9ff7-9d4d9d8d894f","system_id":"levelo_inurba_marseille","lat":43.30086,"lon":5.39113,"is_reserved":false,"is_disabled":false,"rental_uris":{"android":"levelo://app?vid=56dee56f-ca32-48a9-9ff7-9d4d9d8d894f","ios":"levelo://app?vid=56dee56f-ca32-48a9-9ff7-9d4d9d8d894f"},"vehicle_type_id":"4","last_reported":1773443904,"current_range_meters":10000,"station_id":"ce4bh192rcd13ifvqdb0","pricing_plan_id":"cebpf4jnsgd1na2vs0mg"},{"bike_id":"5509d841-64a7-4f72-85b6-772eb98edc46","system_id":"levelo_inurba_marseille","lat":43.29288,"lon":5.38451,"is_reserved":false,"is_disabled":false,"rental_uris":{"android":"levelo://app?vid=5509d841-64a7-4f72-85b6-772eb98edc46","ios":"levelo://app?vid=5509d841-64a7-4f72-85b6-772eb98edc46"},"vehicle_type_id":"4","last_reported":1773443904,"current_range_meters":10000,"station_id":"ce4bh692rcd13ifvqea0","pricing_plan_id":"cebpf4jnsgd1na2vs0mg"},{"bike_id":"56fddcda-c541-44a5-8391-f7fbf087f4ed","system_id":"levelo_inurba_marseille","lat":43.22567,"lon":5.41629,"is_reserved":false,"is_disabled":false,"rental_uris":{"android":"levelo://app?vid=56fddcda-c541-44a5-8391-f7fbf087f4ed","ios":"levelo://app?vid=56fddcda-c541-44a5-8391-f7fbf087f4ed"},"vehicle_type_id":"4","last_reported":1773443904,"current_range_meters":39200,"station_id":"st_d2o4gvlbi1j2169b742g","pricing_plan_id":"cebpf4jnsgd1na2vs0mg"},{"bike_id":"5fe0b310-a018-4fa3-bec0-00459f67e656","system_id":"levelo_inurba_marseille","lat":43.3096,"lon":5.39029,"is_reserved":false,"is_disabled":false,"rental_uris":{"android":"levelo://app?vid=5fe0b310-a018-4fa3-bec0-00459f67e656","ios":"levelo://app?vid=5fe0b310-a018-4fa3-bec0-00459f67e656"},"vehicle_type_id":"4","last_reported":1773443904,"current_range_meters":13600,"station_id":"ce4bgup2rcd13ifvqco0","pricing_plan_id":"cebpf4jnsgd1na2vs0mg"},{"bike_id":"04d16ef4-39d1-4e51-b75d-bfa218adb8ad","system_id":"levelo_inurba_marseille","lat":43.30511,"lon":5.36785,"is_reserved":false,"is_disabled":false,"rental_uris":{"android":"levelo://app?vid=04d16ef4-39d1-4e51-b75d-bfa218adb8ad","ios":"levelo://app?vid=04d16ef4-39d1-4e51-b75d-bfa218adb8ad"},"vehicle_type_id":"4","last_reported":1773443904,"current_range_meters":27600,"station_id":"ce4bgrp2rcd13ifvqc9g","pricing_plan_id":"cebpf4jnsgd1na2vs0mg"},{"bike_id":"7b39c3ab-1ec2-4a85-b74e-65bc5157e762","system_id":"levelo_inurba_marseille","lat":43.24391,"lon":5.37057,"is_reserved":false,"is_disabled":false,"rental_uris":{"android":"levelo://app?vid=7b39c3ab-1ec2-4a85-b74e-65bc5157e762","ios":"levelo://app?vid=7b39c3ab-1ec2-4a85-b74e-65bc5157e762"},"vehicle_type_id":"4","last_reported":1773443904,"current_range_meters":28400,"station_id":"ce4bhhh2rcd13ifvqfk0","pricing_plan_id":"cebpf4jnsgd1na2vs0mg"},{"bike_id":"d9607347-92e1-466e-bdad-c151618ecc8a","system_id":"levelo_inurba_marseille","lat":43.29543,"lon":5.38521,"is_reserved":false,"is_disabled":false,"rental_uris":{"android":"levelo://app?vid=d9607347-92e1-466e-bdad-c151618ecc8a","ios":"levelo://app?vid=d9607347-92e1-466e-bdad-c151618ecc8a"},"vehicle_type_id":"4","last_reported":1773443904,"current_range_meters":39200,"station_id":"ce4bgih2rcd13ifvqba0","pricing_plan_id":"cebpf4jnsgd1na2vs0mg"},{"bike_id":"d9c5ba81-cb17-4f32-9ab0-ef755497685a","system_id":"levelo_inurba_marseille","lat":43.29043,"lon":5.3864,"is_reserved":false,"is_disabled":false,"rental_uris":{"android":"levelo://app?vid=d9c5ba81-cb17-4f32-9ab0-ef755497685a","ios":"levelo://app?vid=d9c5ba81-cb17-4f32-9ab0-ef755497685a"},"vehicle_type_id":"4","last_reported":1773443904,"current_range_meters":17600,"station_id":"ce4bh4p2rcd13ifvqe0g","pricing_plan_id":"cebpf4jnsgd1na2vs0mg"},{"bike_id":"c4f31f61-76ca-4a4f-a5a6-16b26f7866d2","system_id":"levelo_inurba_marseille","lat":43.3097,"lon":5.3906,"is_reserved":false,"is_disabled":false,"rental_uris":{"android":"levelo://app?vid=c4f31f61-76ca-4a4f-a5a6-16b26f7866d2","ios":"levelo://app?vid=c4f31f61-76ca-4a4f-a5a6-16b26f7866d2"},"vehicle_type_id":"4","last_reported":1773443904,"current_range_meters":14400,"station_id":"ce4bgup2rcd13ifvqco0","pricing_plan_id":"cebpf4jnsgd1na2vs0mg"},{"bike_id":"d213d92d-5289-4183-93be-f84e36b07244","system_id":"levelo_inurba_marseille","lat":43.29006,"lon":5.35606,"is_reserved":false,"is_disabled":true,"rental_uris":{"android":"levelo://app?vid=d213d92d-5289-4183-93be-f84e36b07244","ios":"levelo://app?vid=d213d92d-5289-4183-93be-f84e36b07244"},"vehicle_type_id":"4","last_reported":1773443904,"current_range_meters":28400,"station_id":"ce4bhb92rcd13ifvqen0","pricing_plan_id":"cebpf4jnsgd1na2vs0mg"},{"bike_id":"6711865a-6c7d-445f-9231-7e97d4cc8746","system_id":"levelo_inurba_marseille","lat":43.30316,"lon":5.36884,"is_reserved":false,"is_disabled":false,"rental_uris":{"android":"levelo://app?vid=6711865a-6c7d-445f-9231-7e97d4cc8746","ios":"levelo://app?vid=6711865a-6c7d-445f-9231-7e97d4cc8746"},"vehicle_type_id":"4","last_reported":1773443904,"current_range_meters":39200,"station_id":"ce4bgqh2rcd13ifvqc5g","pricing_plan_id":"cebpf4jnsgd1na2vs0mg"},{"bike_id":"cfaa708f-2d69-4ccd-a98a-f85ecad2d6bc","system_id":"levelo_inurba_marseille","lat":43.26505,"lon":5.39573,"is_reserved":false,"is_disabled":true,"rental_uris":{"android":"levelo://app?vid=cfaa708f-2d69-4ccd-a98a-f85ecad2d6bc","ios":"levelo://app?vid=cfaa708f-2d69-4ccd-a98a-f85ecad2d6bc"},"vehicle_type_id":"4","last_reported":1773443904,"current_range_meters":1200,"station_id":"ce4bhi12rcd13ifvqfq0","pricing_plan_id":"cebpf4jnsgd1na2vs0mg"},{"bike_id":"774df966-806c-4b53-b99e-d40c438e797d","system_id":"levelo_inurba_marseille","lat":43.29017,"lon":5.35939,"is_reserved":false,"is_disabled":false,"rental_uris":{"android":"levelo://app?vid=774df966-806c-4b53-b99e-d40c438e797d","ios":"levelo://app?vid=774df966-806c-4b53-b99e-d40c438e797d"},"vehicle_type_id":"4","last_reported":1773443904,"current_range_meters":13600,"station_id":"","pricing_plan_id":"cebpf4jnsgd1na2vs0mg"},{"bike_id":"bdf33280-6ad5-4faa-b9fb-dc3073e6a621","system_id":"levelo_inurba_marseille","lat":43.29538,"lon":5.38537,"is_reserved":false,"is_disabled":false,"rental_uris":{"android":"levelo://app?vid=bdf33280-6ad5-4faa-b9fb-dc3073e6a621","ios":"levelo://app?vid=bdf33280-6ad5-4faa-b9fb-dc3073e6a621"},"vehicle_type_id":"4","last_reported":1773443904,"current_range_meters":7200,"station_id":"ce4bgih2rcd13ifvqba0","pricing_plan_id":"cebpf4jnsgd1na2vs0mg"},{"bike_id":"7ff4a410-e8e0-441c-a47e-4138a9b2afa7","system_id":"levelo_inurba_marseille","lat":43.29509,"lon":5.39013,"is_reserved":false,"is_disabled":true,"rental_uris":{"android":"levelo://app?vid=7ff4a410-e8e0-441c-a47e-4138a9b2afa7","ios":"levelo://app?vid=7ff4a410-e8e0-441c-a47e-4138a9b2afa7"},"vehicle_type_id":"4","last_reported":1773443904,"current_range_meters":0,"station_id":"ce4bh3p2rcd13ifvqdp0","pricing_plan_id":"cebpf4jnsgd1na2vs0mg"},{"bike_id":"aea6c993-6728-44cf-981b-cb3a9bd01459","system_id":"levelo_inurba_marseille","lat":43.29198,"lon":5.39315,"is_reserved":false,"is_disabled":false,"rental_uris":{"android":"levelo://app?vid=aea6c993-6728-44cf-981b-cb3a9bd01459","ios":"levelo://app?vid=aea6c993-6728-44cf-981b-cb3a9bd01459"},"vehicle_type_id":"4","last_reported":1773443904,"current_range_meters":38000,"station_id":"ce4bh192rcd13ifvqdd0","pricing_plan_id":"cebpf4jnsgd1na2vs0mg"},{"bike_id":"21786437-dfaf-4b03-a51e-57cb31d82035","system_id":"levelo_inurba_marseille","lat":43.29689,"lon":5.44373,"is_reserved":false,"is_disabled":true,"rental_uris":{"android":"levelo://app?vid=21786437-dfaf-4b03-a51e-57cb31d82035","ios":"levelo://app?vid=21786437-dfaf-4b03-a51e-57cb31d82035"},"vehicle_type_id":"4","last_reported":1773443904,"current_range_meters":0,"station_id":"","pricing_plan_id":"cebpf4jnsgd1na2vs0mg"},{"bike_id":"1072a2a8-0c4d-4e1d-a618-9cb5fde068bb","system_id":"levelo_inurba_marseille","lat":43.24391,"lon":5.37077,"is_reserved":false,"is_disabled":false,"rental_uris":{"android":"levelo://app?vid=1072a2a8-0c4d-4e1d-a618-9cb5fde068bb","ios":"levelo://app?vid=1072a2a8-0c4d-4e1d-a618-9cb5fde068bb"},"vehicle_type_id":"4","last_reported":1773443904,"current_range_meters":38000,"station_id":"ce4bhhh2rcd13ifvqfk0","pricing_plan_id":"cebpf4jnsgd1na2vs0mg"},{"bike_id":"9a127c17-ae93-453c-9375-8a63f3a2c95d","system_id":"levelo_inurba_marseille","lat":43.295706,"lon":5.399776,"is_reserved":false,"is_disabled":false,"rental_uris":{"android":"levelo://app?vid=9a127c17-ae93-453c-9375-8a63f3a2c95d","ios":"levelo://app?vid=9a127c17-ae93-453c-9375-8a63f3a2c95d"},"vehicle_type_id":"4","last_reported":1773443904,"current_range_meters":12000,"station_id":"ce4bh312rcd13ifvqdj0","pricing_plan_id":"cebpf4jnsgd1na2vs0mg"},{"bike_id":"3503a7ce-be52-4a37-82fa-634165cf7a28","system_id":"levelo_inurba_marseille","lat":43.27375,"lon":5.3626,"is_reserved":false,"is_disabled":false,"rental_uris":{"android":"levelo://app?vid=3503a7ce-be52-4a37-82fa-634165cf7a28","ios":"levelo://app?vid=3503a7ce-be52-4a37-82fa-634165cf7a28"},"vehicle_type_id":"4","last_reported":1773443904,"current_range_meters":39200,"station_id":"ce4bhbh2rcd13ifvqeo0","pricing_plan_id":"cebpf4jnsgd1na2vs0mg"},{"bike_id":"cffdf26c-1919-4029-87b5-8b45a2bc0447","system_id":"levelo_inurba_marseille","lat":43.29572,"lon":5.36773,"is_reserved":false,"is_disabled":true,"rental_uris":{"android":"levelo://app?vid=cffdf26c-1919-4029-87b5-8b45a2bc0447","ios":"levelo://app?vid=cffdf26c-1919-4029-87b5-8b45a2bc0447"},"vehicle_type_id":"4","last_reported":1773443904,"current_range_meters":3200,"station_id":"ce4bgph2rcd13ifvqc2g","pricing_plan_id":"cebpf4jnsgd1na2vs0mg"},{"bike_id":"1026a843-5ad2-4108-8ed8-7e0baa3350eb","system_id":"levelo_inurba_marseille","lat":43.30279,"lon":5.40011,"is_reserved":false,"is_disabled":false,"rental_uris":{"android":"levelo://app?vid=1026a843-5ad2-4108-8ed8-7e0baa3350eb","ios":"levelo://app?vid=1026a843-5ad2-4108-8ed8-7e0baa3350eb"},"vehicle_type_id":"4","last_reported":1773443904,"current_range_meters":10800,"station_id":"","pricing_plan_id":"cebpf4jnsgd1na2vs0mg"},{"bike_id":"803eaa3d-c176-4285-8575-9af6190335e8","system_id":"levelo_inurba_marseille","lat":43.28107,"lon":5.37851,"is_reserved":false,"is_disabled":false,"rental_uris":{"android":"levelo://app?vid=803eaa3d-c176-4285-8575-9af6190335e8","ios":"levelo://app?vid=803eaa3d-c176-4285-8575-9af6190335e8"},"vehicle_type_id":"4","last_reported":1773443904,"current_range_meters":39200,"station_id":"ce4bha12rcd13ifvqee0","pricing_plan_id":"cebpf4jnsgd1na2vs0mg"},{"bike_id":"e2306b47-8ffd-48d9-a26f-f992e2ec9626","system_id":"levelo_inurba_marseille","lat":43.29007,"lon":5.35599,"is_reserved":false,"is_disabled":false,"rental_uris":{"android":"levelo://app?vid=e2306b47-8ffd-48d9-a26f-f992e2ec9626","ios":"levelo://app?vid=e2306b47-8ffd-48d9-a26f-f992e2ec9626"},"vehicle_type_id":"4","last_reported":1773443904,"current_range_meters":9600,"station_id":"ce4bhb92rcd13ifvqen0","pricing_plan_id":"cebpf4jnsgd1na2vs0mg"},{"bike_id":"6840f6df-3461-42c8-98d7-357f6584e26f","system_id":"levelo_inurba_marseille","lat":43.27381,"lon":5.36264,"is_reserved":false,"is_disabled":false,"rental_uris":{"android":"levelo://app?vid=6840f6df-3461-42c8-98d7-357f6584e26f","ios":"levelo://app?vid=6840f6df-3461-42c8-98d7-357f6584e26f"},"vehicle_type_id":"4","last_reported":1773443904,"current_range_meters":37600,"station_id":"ce4bhbh2rcd13ifvqeo0","pricing_plan_id":"cebpf4jnsgd1na2vs0mg"},{"bike_id":"13b759af-9f39-4385-b233-8157f102d0b7","system_id":"levelo_inurba_marseille","lat":43.23971,"lon":5.36659,"is_reserved":false,"is_disabled":false,"rental_uris":{"android":"levelo://app?vid=13b759af-9f39-4385-b233-8157f102d0b7","ios":"levelo://app?vid=13b759af-9f39-4385-b233-8157f102d0b7"},"vehicle_type_id":"4","last_reported":1773443904,"current_range_meters":7200,"station_id":"ce4bhi12rcd13ifvqfp0","pricing_plan_id":"cebpf4jnsgd1na2vs0mg"},{"bike_id":"1a4153a4-6c00-42df-9ed8-cf853dc869fe","system_id":"levelo_inurba_marseille","lat":43.31176,"lon":5.38697,"is_reserved":false,"is_disabled":false,"rental_uris":{"android":"levelo://app?vid=1a4153a4-6c00-42df-9ed8-cf853dc869fe","ios":"levelo://app?vid=1a4153a4-6c00-42df-9ed8-cf853dc869fe"},"vehicle_type_id":"4","last_reported":1773443904,"current_range_meters":25600,"station_id":"ce4bgv12rcd13ifvqcp0","pricing_plan_id":"cebpf4jnsgd1na2vs0mg"},{"bike_id":"cd4de69f-c6b0-49e1-b3f9-cbf8d6758f34","system_id":"levelo_inurba_marseille","lat":43.29532,"lon":5.39039,"is_reserved":false,"is_disabled":false,"rental_uris":{"android":"levelo://app?vid=cd4de69f-c6b0-49e1-b3f9-cbf8d6758f34","ios":"levelo://app?vid=cd4de69f-c6b0-49e1-b3f9-cbf8d6758f34"},"vehicle_type_id":"4","last_reported":1773443904,"current_range_meters":16800,"station_id":"ce4bh3p2rcd13ifvqdp0","pricing_plan_id":"cebpf4jnsgd1na2vs0mg"},{"bike_id":"93c8107a-44d9-4b92-a485-08cbd24bb80c","system_id":"levelo_inurba_marseille","lat":43.28613,"lon":5.35108,"is_reserved":false,"is_disabled":false,"rental_uris":{"android":"levelo://app?vid=93c8107a-44d9-4b92-a485-08cbd24bb80c","ios":"levelo://app?vid=93c8107a-44d9-4b92-a485-08cbd24bb80c"},"vehicle_type_id":"4","last_reported":1773443904,"current_range_meters":17200,"station_id":"ce4bhch2rcd13ifvqeug","pricing_plan_id":"cebpf4jnsgd1na2vs0mg"},{"bike_id":"4605d0eb-aef4-494c-b103-fe3cbd9a939f","system_id":"levelo_inurba_marseille","lat":43.2607,"lon":5.39396,"is_reserved":false,"is_disabled":false,"rental_uris":{"android":"levelo://app?vid=4605d0eb-aef4-494c-b103-fe3cbd9a939f","ios":"levelo://app?vid=4605d0eb-aef4-494c-b103-fe3cbd9a939f"},"vehicle_type_id":"4","last_reported":1773443904,"current_range_meters":22000,"station_id":"ce4bhh92rcd13ifvqfj0","pricing_plan_id":"cebpf4jnsgd1na2vs0mg"},{"bike_id":"daaa49aa-fe84-49ee-893e-5e9d3b6c303c","system_id":"levelo_inurba_marseille","lat":43.29045,"lon":5.38648,"is_reserved":false,"is_disabled":true,"rental_uris":{"android":"levelo://app?vid=daaa49aa-fe84-49ee-893e-5e9d3b6c303c","ios":"levelo://app?vid=daaa49aa-fe84-49ee-893e-5e9d3b6c303c"},"vehicle_type_id":"4","last_reported":1773443904,"current_range_meters":0,"station_id":"ce4bh4p2rcd13ifvqe0g","pricing_plan_id":"cebpf4jnsgd1na2vs0mg"},{"bike_id":"c4bc4c4b-1b65-4f1c-9292-7dbc626f973c","system_id":"levelo_inurba_marseille","lat":43.33779,"lon":5.37461,"is_reserved":false,"is_disabled":false,"rental_uris":{"android":"levelo://app?vid=c4bc4c4b-1b65-4f1c-9292-7dbc626f973c","ios":"levelo://app?vid=c4bc4c4b-1b65-4f1c-9292-7dbc626f973c"},"vehicle_type_id":"4","last_reported":1773443904,"current_range_meters":36400,"station_id":"","pricing_plan_id":"cebpf4jnsgd1na2vs0mg"},{"bike_id":"a4e1eda7-e339-4e89-aeab-5ba3de0c460b","system_id":"levelo_inurba_marseille","lat":43.28354,"lon":5.38123,"is_reserved":false,"is_disabled":true,"rental_uris":{"android":"levelo://app?vid=a4e1eda7-e339-4e89-aeab-5ba3de0c460b","ios":"levelo://app?vid=a4e1eda7-e339-4e89-aeab-5ba3de0c460b"},"vehicle_type_id":"4","last_reported":1773443904,"current_range_meters":37600,"station_id":"ce4bh412rcd13ifvqdr0","pricing_plan_id":"cebpf4jnsgd1na2vs0mg"},{"bike_id":"36d46123-1b41-417b-9791-17a81620f364","system_id":"levelo_inurba_marseille","lat":43.32367,"lon":5.36736,"is_reserved":false,"is_disabled":false,"rental_uris":{"android":"levelo://app?vid=36d46123-1b41-417b-9791-17a81620f364","ios":"levelo://app?vid=36d46123-1b41-417b-9791-17a81620f364"},"vehicle_type_id":"4","last_reported":1773443904,"current_range_meters":38800,"station_id":"ce4bhsh2rcd13ifvqi2g","pricing_plan_id":"cebpf4jnsgd1na2vs0mg"},{"bike_id":"48358f2d-f55c-46c5-9640-4bd45a2b2905","system_id":"levelo_inurba_marseille","lat":43.24445,"lon":5.37056,"is_reserved":false,"is_disabled":true,"rental_uris":{"android":"levelo://app?vid=48358f2d-f55c-46c5-9640-4bd45a2b2905","ios":"levelo://app?vid=48358f2d-f55c-46c5-9640-4bd45a2b2905"},"vehicle_type_id":"4","last_reported":1773443904,"current_range_meters":32800,"station_id":"","pricing_plan_id":"cebpf4jnsgd1na2vs0mg"},{"bike_id":"04c994cf-f457-4693-8133-467151150b6e","system_id":"levelo_inurba_marseille","lat":43.25482,"lon":5.37712,"is_reserved":false,"is_disabled":false,"rental_uris":{"android":"levelo://app?vid=04c994cf-f457-4693-8133-467151150b6e","ios":"levelo://app?vid=04c994cf-f457-4693-8133-467151150b6e"},"vehicle_type_id":"4","last_reported":1773443904,"current_range_meters":17200,"station_id":"ce4bhh12rcd13ifvqff0","pricing_plan_id":"cebpf4jnsgd1na2vs0mg"},{"bike_id":"5b177c02-5a32-46af-a800-72fbe8cae96b","system_id":"levelo_inurba_marseille","lat":43.29197,"lon":5.35824,"is_reserved":false,"is_disabled":false,"rental_uris":{"android":"levelo://app?vid=5b177c02-5a32-46af-a800-72fbe8cae96b","ios":"levelo://app?vid=5b177c02-5a32-46af-a800-72fbe8cae96b"},"vehicle_type_id":"4","last_reported":1773443904,"current_range_meters":39200,"station_id":"ce4bhb12rcd13ifvqel0","pricing_plan_id":"cebpf4jnsgd1na2vs0mg"},{"bike_id":"1c1b42b7-df33-4342-9b46-50a073233807","system_id":"levelo_inurba_marseille","lat":43.24819,"lon":5.37453,"is_reserved":false,"is_disabled":true,"rental_uris":{"android":"levelo://app?vid=1c1b42b7-df33-4342-9b46-50a073233807","ios":"levelo://app?vid=1c1b42b7-df33-4342-9b46-50a073233807"},"vehicle_type_id":"4","last_reported":1773443904,"current_range_meters":32000,"station_id":"ce4bhgh2rcd13ifvqfb0","pricing_plan_id":"cebpf4jnsgd1na2vs0mg"},{"bike_id":"626a35f0-447c-4bce-95ad-77821380f26a","system_id":"levelo_inurba_marseille","lat":43.30928,"lon":5.40145,"is_reserved":false,"is_disabled":true,"rental_uris":{"android":"levelo://app?vid=626a35f0-447c-4bce-95ad-77821380f26a","ios":"levelo://app?vid=626a35f0-447c-4bce-95ad-77821380f26a"},"vehicle_type_id":"4","last_reported":1773443904,"current_range_meters":39200,"station_id":"ce4bgvp2rcd13ifvqct0","pricing_plan_id":"cebpf4jnsgd1na2vs0mg"},{"bike_id":"edf8e9bb-dd65-4f5d-9c37-53194300b8b5","system_id":"levelo_inurba_marseille","lat":43.33745,"lon":5.37445,"is_reserved":false,"is_disabled":false,"rental_uris":{"android":"levelo://app?vid=edf8e9bb-dd65-4f5d-9c37-53194300b8b5","ios":"levelo://app?vid=edf8e9bb-dd65-4f5d-9c37-53194300b8b5"},"vehicle_type_id":"4","last_reported":1773443904,"current_range_meters":34000,"station_id":"","pricing_plan_id":"cebpf4jnsgd1na2vs0mg"},{"bike_id":"bb63d02d-c1ed-4615-82e5-40fd91312844","system_id":"levelo_inurba_marseille","lat":43.29174,"lon":5.35773,"is_reserved":false,"is_disabled":true,"rental_uris":{"android":"levelo://app?vid=bb63d02d-c1ed-4615-82e5-40fd91312844","ios":"levelo://app?vid=bb63d02d-c1ed-4615-82e5-40fd91312844"},"vehicle_type_id":"4","last_reported":1773443904,"current_range_meters":32800,"station_id":"ce4bhb12rcd13ifvqel0","pricing_plan_id":"cebpf4jnsgd1na2vs0mg"},{"bike_id":"cc861bc1-1aca-46be-a176-b5ecc6ef06de","system_id":"levelo_inurba_marseille","lat":43.29277,"lon":5.36847,"is_reserved":false,"is_disabled":false,"rental_uris":{"android":"levelo://app?vid=cc861bc1-1aca-46be-a176-b5ecc6ef06de","ios":"levelo://app?vid=cc861bc1-1aca-46be-a176-b5ecc6ef06de"},"vehicle_type_id":"4","last_reported":1773443904,"current_range_meters":5600,"station_id":"ce4bhbp2rcd13ifvqesg","pricing_plan_id":"cebpf4jnsgd1na2vs0mg"},{"bike_id":"858e7504-d8fc-4828-9501-ec4e74d3079e","system_id":"levelo_inurba_marseille","lat":43.31158,"lon":5.38723,"is_reserved":false,"is_disabled":false,"rental_uris":{"android":"levelo://app?vid=858e7504-d8fc-4828-9501-ec4e74d3079e","ios":"levelo://app?vid=858e7504-d8fc-4828-9501-ec4e74d3079e"},"vehicle_type_id":"4","last_reported":1773443904,"current_range_meters":30400,"station_id":"ce4bgv12rcd13ifvqcp0","pricing_plan_id":"cebpf4jnsgd1na2vs0mg"},