{"last_updated":1742922549,"ttl":60,"version":"2.2","data":{"bikes":[{"bike_id":"43454b60-be4d-4926-a7e7-0ff2fa2f0939","system_id":"levelo_inurba_marseille","lat":43.29515,"lon":5.39399,"is_reserved":false,"is_disabled":false,"rental_uris":{"android":"levelo://app?vid=43454b60-be4d-4926-a7e7-0ff2fa2f0939","ios":"levelo://app?vid=43454b60-be4d-4926-a7e7-0ff2fa2f0939"},"vehicle_type_id":"4","last_reported":1742922550,"current_range_meters":2800,"station_id":"ce4bh292rcd13ifvqdf0","pricing_plan_id":"cebpf4jnsgd1na2vs0mg"},{"bike_id":"fab904d8-e361-496c-9b9a-ecdb19812e6a","system_id":"levelo_inurba_marseille","lat":43.30138,"lon":5.39846,"is_reserved":false,"is_disabled":false,"rental_uris":{"android":"levelo://app?vid=fab904d8-e361-496c-9b9a-ecdb19812e6a","ios":"levelo://app?vid=fab904d8-e361-496c-9b9a-ecdb19812e6a"},"vehicle_type_id":"4","last_reported":1742922550,"current_range_meters":3200,"station_id":"ce4bh0h2rcd13ifvqd40","pricing_plan_id":"cebpf4jnsgd1na2vs0mg"},{"bike_id":"11c1aeb4-d5eb-48e3-93e4-a38ce655abd8","system_id":"levelo_inurba_marseille","lat":43.27376,"lon":5.36256,"is_reserved":false,"is_disabled":false,"rental_uris":{"android":"levelo://app?vid=11c1aeb4-d5eb-48e3-93e4-a38ce655abd8","ios":"levelo://app?vid=11c1aeb4-d5eb-48e3-93e4-a38ce655abd8"},"vehicle_type_id":"4","last_reported":1742922550,"current_range_meters":3200,"station_id":"ce4bhbh2rcd13ifvqeo0","pricing_plan_id":"cebpf4jnsgd1na2vs0mg"},{"bike_id":"bc07032a-fe87-4e76-89ec-9c093cc103a5","system_id":"levelo_inurba_marseille","lat":43.28264,"lon":5.35069,"is_reserved":false,"is_disabled":false,"rental_uris":{"android":"levelo://app?vid=bc07032a-fe87-4e76-89ec-9c093cc103a5","ios":"levelo://app?vid=bc07032a-fe87-4e76-89ec-9c093cc103a5"},"vehicle_type_id":"4","last_reported":1742922550,"current_range_meters":3200,"station_id":"ce4bhbp2rcd13ifvqerg","pricing_plan_id":"cebpf4jnsgd1na2vs0mg"},{"bike_id":"ebf86de8-a3f7-4563-b9cd-62f5316ef4ec","system_id":"levelo_inurba_marseille","lat":43.30927,"lon":5.40153,"is_reserved":false,"is_disabled":true,"rental_uris":{"android":"levelo://app?vid=ebf86de8-a3f7-4563-b9cd-62f5316ef4ec","ios":"levelo://app?vid=ebf86de8-a3f7-4563-b9cd-62f5316ef4ec"},"vehicle_type_id":"4","last_reported":1742922550,"current_range_meters":3200,"station_id":"ce4bgvp2rcd13ifvqct0","pricing_plan_id":"cebpf4jnsgd1na2vs0mg"},{"bike_id":"37817cc9-5292-411c-9dd3-4651d1369afd","system_id":"levelo_inurba_marseille","lat":43.28442,"lon":5.34997,"is_reserved":false,"is_disabled":false,"rental_uris":{"android":"levelo://app?vid=37817cc9-5292-411c-9dd3-4651d1369afd","ios":"levelo://app?vid=37817cc9-5292-411c-9dd3-4651d1369afd"},"vehicle_type_id":"4","last_reported":1742922550,"current_range_meters":3200,"station_id":"ce4bhbh2rcd13ifvqepg","pricing_plan_id":"cebpf4jnsgd1na2vs0mg"},{"bike_id":"e6443b46-58d6-48e0-89ac-f2f2db385bac","system_id":"levelo_inurba_marseille","lat":43.29272,"lon":5.38451,"is_reserved":false,"is_disabled":false,"rental_uris":{"android":"levelo://app?vid=e6443b46-58d6-48e0-89ac-f2f2db385bac","ios":"levelo://app?vid=e6443b46-58d6-48e0-89ac-f2f2db385bac"},"vehicle_type_id":"4","last_reported":1742922550,"current_range_meters":3200,"station_id":"ce4bh692rcd13ifvqea0","pricing_plan_id":"cebpf4jnsgd1na2vs0mg"},{"bike_id":"be295973-b64b-4612-a980-85ed6abce5b1","system_id":"levelo_inurba_marseille","lat":43.30409,"lon":5.39767,"is_reserved":false,"is_disabled":true,"rental_uris":{"android":"levelo://app?vid=be295973-b64b-4612-a980-85ed6abce5b1","ios":"levelo://app?vid=be295973-b64b-4612-a980-85ed6abce5b1"},"vehicle_type_id":"4","last_reported":1742922550,"current_range_meters":3600,"station_id":"ce4bh092rcd13ifvqd20","pricing_plan_id":"cebpf4jnsgd1na2vs0mg"},{"bike_id":"99ae4e5e-8ce3-4996-8a46-5e2a14a6616c","system_id":"levelo_inurba_marseille","lat":43.30537,"lon":5.38413,"is_reserved":false,"is_disabled":false,"rental_uris":{"android":"levelo://app?vid=99ae4e5e-8ce3-4996-8a46-5e2a14a6616c","ios":"levelo://app?vid=99ae4e5e-8ce3-4996-8a46-5e2a14a6616c"},"vehicle_type_id":"4","last_reported":1742922550,"current_range_meters":3600,"station_id":"ce4bgg92rcd13ifvqb30","pricing_plan_id":"cebpf4jnsgd1na2vs0mg"},{"bike_id":"86b08ce4-3514-41e4-81b3-dfd3e1edb6dd","system_id":"levelo_inurba_marseille","lat":43.26566,"lon":5.39005,"is_reserved":false,"is_disabled":false,"rental_uris":{"android":"levelo://app?vid=86b08ce4-3514-41e4-81b3-dfd3e1edb6dd","ios":"levelo://app?vid=86b08ce4-3514-41e4-81b3-dfd3e1edb6dd"},"vehicle_type_id":"4","last_reported":1742922550,"current_range_meters":3600,"station_id":"ce4bhe12rcd13ifvqf30","pricing_plan_id":"cebpf4jnsgd1na2vs0mg"},{"bike_id":"66921bef-fb74-4c7b-a455-dfd53d72d902","system_id":"levelo_inurba_marseille","lat":43.28448,"lon":5.39204,"is_reserved":false,"is_disabled":false,"rental_uris":{"android":"levelo://app?vid=66921bef-fb74-4c7b-a455-dfd53d72d902","ios":"levelo://app?vid=66921bef-fb74-4c7b-a455-dfd53d72d902"},"vehicle_type_id":"4","last_reported":1742922550,"current_range_meters":3600,"station_id":"ce4bhoh2rcd13ifvqh5g","pricing_plan_id":"cebpf4jnsgd1na2vs0mg"},{"bike_id":"1cdadbec-59d3-4626-921c-d13995418347","system_id":"levelo_inurba_marseille","lat":43.27814,"lon":5.40712,"is_reserved":false,"is_disabled":false,"rental_uris":{"android":"levelo://app?vid=1cdadbec-59d3-4626-921c-d13995418347","ios":"levelo://app?vid=1cdadbec-59d3-4626-921c-d13995418347"},"vehicle_type_id":"4","last_reported":1742922550,"current_range_meters":3600,"station_id":"ce4bhnh2rcd13ifvqgtg","pricing_plan_id":"cebpf4jnsgd1na2vs0mg"},{"bike_id":"5ebe5120-74f7-4178-9974-c52090176f15","system_id":"levelo_inurba_marseille","lat":43.28155,"lon":5.42642,"is_reserved":false,"is_disabled":false,"rental_uris":{"android":"levelo://app?vid=5ebe5120-74f7-4178-9974-c52090176f15","ios":"levelo://app?vid=5ebe5120-74f7-4178-9974-c52090176f15"},"vehicle_type_id":"4","last_reported":1742922550,"current_range_meters":3600,"station_id":"ce4bhnh2rcd13ifvqgug","pricing_plan_id":"cebpf4jnsgd1na2vs0mg"},{"bike_id":"121d25c5-741e-4794-b6eb-9b7bb7d6ae5e","system_id":"levelo_inurba_marseille","lat":43.29787,"lon":5.39344,"is_reserved":false,"is_disabled":false,"rental_uris":{"android":"levelo://app?vid=121d25c5-741e-4794-b6eb-9b7bb7d6ae5e","ios":"levelo://app?vid=121d25c5-741e-4794-b6eb-9b7bb7d6ae5e"},"vehicle_type_id":"4","last_reported":1742922550,"current_range_meters":3600,"station_id":"chh1huq6cuj3fo74tm60","pricing_plan_id":"cebpf4jnsgd1na2vs0mg"},{"bike_id":"2b1811c7-7bc5-443c-815e-4ca9cc73495b","system_id":"levelo_inurba_marseille","lat":43.29706,"lon":5.36602,"is_reserved":false,"is_disabled":false,"rental_uris":{"android":"levelo://app?vid=2b1811c7-7bc5-443c-815e-4ca9cc73495b","ios":"levelo://app?vid=2b1811c7-7bc5-443c-815e-4ca9cc73495b"},"vehicle_type_id":"4","last_reported":1742922550,"current_range_meters":3600,"station_id":"ce4bgn12rcd13ifvqbt0","pricing_plan_id":"cebpf4jnsgd1na2vs0mg"},{"bike_id":"c674abf4-d5b2-45b5-99ee-1dd3f5179b2d","system_id":"levelo_inurba_marseille","lat":43.29683,"lon":5.36201,"is_reserved":false,"is_disabled":false,"rental_uris":{"android":"levelo://app?vid=c674abf4-d5b2-45b5-99ee-1dd3f5179b2d","ios":"levelo://app?vid=c674abf4-d5b2-45b5-99ee-1dd3f5179b2d"},"vehicle_type_id":"4","last_reported":1742922550,"current_range_meters":3600,"station_id":"","pricing_plan_id":"cebpf4jnsgd1na2vs0mg"},{"bike_id":"9cb4e541-1473-430f-aca9-b191bbf6107a","system_id":"levelo_inurba_marseille","lat":43.280011,"lon":5.400044,"is_reserved":false,"is_disabled":false,"rental_uris":{"android":"levelo://app?vid=9cb4e541-1473-430f-aca9-b191bbf6107a","ios":"levelo://app?vid=9cb4e541-1473-430f-aca9-b191bbf6107a"},"vehicle_type_id":"4","last_reported":1742922550,"current_range_meters":3600,"station_id":"ce4bho92rcd13ifvqh4g","pricing_plan_id":"cebpf4jnsgd1na2vs0mg"},{"bike_id":"9c03e2c5-dc32-434f-94f4-983ec4ee1985","system_id":"levelo_inurba_marseille","lat":43.2886,"lon":5.35869,"is_reserved":false,"is_disabled":false,"rental_uris":{"android":"levelo://app?vid=9c03e2c5-dc32-434f-94f4-983ec4ee1985","ios":"levelo://app?vid=9c03e2c5-dc32-434f-94f4-983ec4ee1985"},"vehicle_type_id":"4","last_reported":1742922550,"current_range_meters":3600,"station_id":"ce4bhb12rcd13ifvqem0","pricing_plan_id":"cebpf4jnsgd1na2vs0mg"},{"bike_id":"7137d0ae-f124-4bd9-8adb-f286a1d5c7a6","system_id":"levelo_inurba_marseille","lat":43.29978,"lon":5.38492,"is_reserved":false,"is_disabled":false,"rental_uris":{"android":"levelo://app?vid=7137d0ae-f124-4bd9-8adb-f286a1d5c7a6","ios":"levelo://app?vid=7137d0ae-f124-4bd9-8adb-f286a1d5c7a6"},"vehicle_type_id":"4","last_reported":1742922550,"current_range_meters":4000,"station_id":"ce4bgj92rcd13ifvqbd0","pricing_plan_id":"cebpf4jnsgd1na2vs0mg"},{"bike_id":"4b9161d7-43fc-48ef-978d-35d35216b609","system_id":"levelo_inurba_marseille","lat":43.28664,"lon":5.386833,"is_reserved":false,"is_disabled":false,"rental_uris":{"android":"levelo://app?vid=4b9161d7-43fc-48ef-978d-35d35216b609","ios":"levelo://app?vid=4b9161d7-43fc-48ef-978d-35d35216b609"},"vehicle_type_id":"4","last_reported":1742922550,"current_range_meters":3600,"station_id":"ce4bh492rcd13ifvqdug","pricing_plan_id":"cebpf4jnsgd1na2vs0mg"},{"bike_id":"9db7c63f-f4d6-41e8-b053-748543c55a73","system_id":"levelo_inurba_marseille","lat":43.286102,"lon":5.405673,"is_reserved":false,"is_disabled":false,"rental_uris":{"android":"levelo://app?vid=9db7c63f-f4d6-41e8-b053-748543c55a73","ios":"levelo://app?vid=9db7c63f-f4d6-41e8-b053-748543c55a73"},"vehicle_type_id":"4","last_reported":1742922550,"current_range_meters":4000,"station_id":"ce4bh0h2rcd13ifvqd40","pricing_plan_id":"cebpf4jnsgd1na2vs0mg"},{"bike_id":"97856aee-07de-417f-9f75-7bf2111627ee","system_id":"levelo_inurba_marseille","lat":43.28271,"lon":5.3506,"is_reserved":false,"is_disabled":false,"rental_uris":{"android":"levelo://app?vid=97856aee-07de-417f-9f75-7bf2111627ee","ios":"levelo://app?vid=97856aee-07de-417f-9f75-7bf2111627ee"},"vehicle_type_id":"4","last_reported":1742922550,"current_range_meters":4000,"station_id":"ce4bhbp2rcd13ifvqerg","pricing_plan_id":"cebpf4jnsgd1na2vs0mg"},{"bike_id":"5bf1a85e-2d9b-4de2-94b4-4a15544abec8","system_id":"levelo_inurba_marseille","lat":43.25585,"lon":5.38247,"is_reserved":false,"is_disabled":false,"rental_uris":{"android":"levelo://app?vid=5bf1a85e-2d9b-4de2-94b4-4a15544abec8","ios":"levelo://app?vid=5bf1a85e-2d9b-4de2-94b4-4a15544abec8"},"vehicle_type_id":"4","last_reported":1742922550,"current_range_meters":4000,"station_id":"ce4bhih2rcd13ifvqfs0","pricing_plan_id":"cebpf4jnsgd1na2vs0mg"},{"bike_id":"d9320ffd-5b3f-4d22-8bab-f65a13ddf0c4","system_id":"levelo_inurba_marseille","lat":43.27924,"lon":5.39578,"is_reserved":false,"is_disabled":false,"rental_uris":{"android":"levelo://app?vid=d9320ffd-5b3f-4d22-8bab-f65a13ddf0c4","ios":"levelo://app?vid=d9320ffd-5b3f-4d22-8bab-f65a13ddf0c4"},"vehicle_type_id":"4","last_reported":1742922550,"current_range_meters":4400,"station_id":"ce4bhf92rcd13ifvqf40","pricing_plan_id":"cebpf4jnsgd1na2vs0mg"},{"bike_id":"a1c7168a-d3f0-41d2-b751-00c53796175c","system_id":"levelo_inurba_marseille","lat":43.29885,"lon":5.43634,"is_reserved":false,"is_disabled":false,"rental_uris":{"android":"levelo://app?vid=a1c7168a-d3f0-41d2-b751-00c53796175c","ios":"levelo://app?vid=a1c7168a-d3f0-41d2-b751-00c53796175c"},"vehicle_type_id":"4","last_reported":1742922550,"current_range_meters":4400,"station_id":"ce4bhpp2rcd13ifvqhfg","pricing_plan_id":"cebpf4jnsgd1na2vs0mg"},{"bike_id":"94743860-fe94-4804-b811-810f3a8806c7","system_id":"levelo_inurba_marseille","lat":43.2963,"lon":5.40587,"is_reserved":false,"is_disabled":false,"rental_uris":{"android":"levelo://app?vid=94743860-fe94-4804-b811-810f3a8806c7","ios":"levelo://app?vid=94743860-fe94-4804-b811-810f3a8806c7"},"vehicle_type_id":"4","last_reported":1742922550,"current_range_meters":4400,"station_id":"ce4bh0h2rcd13ifvqd60","pricing_plan_id":"cebpf4jnsgd1na2vs0mg"},{"bike_id":"d141fabe-449d-43c4-822f-3443d3de9650","system_id":"levelo_inurba_marseille","lat":43.28422,"lon":5.34978,"is_reserved":false,"is_disabled":false,"rental_uris":{"android":"levelo://app?vid=d141fabe-449d-43c4-822f-3443d3de9650","ios":"levelo://app?vid=d141fabe-449d-43c4-822f-3443d3de9650"},"vehicle_type_id":"4","last_reported":1742922550,"current_range_meters":4400,"station_id":"ce4bhbh2rcd13ifvqepg","pricing_plan_id":"cebpf4jnsgd1na2vs0mg"},{"bike_id":"2f08ba24-c017-4334-8cd8-6cb49eab4771","system_id":"levelo_inurba_marseille","lat":43.31674,"lon":5.37255,"is_reserved":false,"is_disabled":false,"rental_uris":{"android":"levelo://app?vid=2f08ba24-c017-4334-8cd8-6cb49eab4771","ios":"levelo://app?vid=2f08ba24-c017-4334-8cd8-6cb49eab4771"},"vehicle_type_id":"4","last_reported":1742922550,"current_range_meters":4400,"station_id":"","pricing_plan_id":"cebpf4jnsgd1na2vs0mg"},{"bike_id":"40466e09-94c4-4d8f-b5f7-5a0ea9cdfd60","system_id":"levelo_inurba_marseille","lat":43.27613,"lon":5.36111,"is_reserved":false,"is_disabled":false,"rental_uris":{"android":"levelo://app?vid=40466e09-94c4-4d8f-b5f7-5a0ea9cdfd60","ios":"levelo://app?vid=40466e09-94c4-4d8f-b5f7-5a0ea9cdfd60"},"vehicle_type_id":"4","last_reported":1742922550,"current_range_meters":4400,"station_id":"ce4bgj92rcd13ifvqbe0","pricing_plan_id":"cebpf4jnsgd1na2vs0mg"},{"bike_id":"95083de0-58ad-4d57-a334-efb027d287f7","system_id":"levelo_inurba_marseille","lat":43.232,"lon":5.39983,"is_reserved":false,"is_disabled":false,"rental_uris":{"android":"levelo://app?vid=95083de0-58ad-4d57-a334-efb027d287f7","ios":"levelo://app?vid=95083de0-58ad-4d57-a334-efb027d287f7"},"vehicle_type_id":"4","last_reported":1742922550,"current_range_meters":4800,"station_id":"ce4bhn12rcd13ifvqgqg","pricing_plan_id":"cebpf4jnsgd1na2vs0mg"},{"bike_id":"a18bcc34-c41a-4d6a-897b-5b97c82ff532","system_id":"levelo_inurba_marseille","lat":43.25873,"lon":5.39919,"is_reserved":false,"is_disabled":false,"rental_uris":{"android":"levelo://app?vid=a18bcc34-c41a-4d6a-897b-5b97c82ff532","ios":"levelo://app?vid=a18bcc34-c41a-4d6a-897b-5b97c82ff532"},"vehicle_type_id":"4","last_reported":1742922550,"current_range_meters":4800,"station_id":"ce4bhl92rcd13ifvqghg","pricing_plan_id":"cebpf4jnsgd1na2vs0mg"},{"bike_id":"fcef15ab-644c-45f0-b3e2-ebae40a9bba5","system_id":"levelo_inurba_marseille","lat":43.24644,"lon":5.38895,"is_reserved":false,"is_disabled":false,"rental_uris":{"android":"levelo://app?vid=fcef15ab-644c-45f0-b3e2-ebae40a9bba5","ios":"levelo://app?vid=fcef15ab-644c-45f0-b3e2-ebae40a9bba5"},"vehicle_type_id":"4","last_reported":1742922550,"current_range_meters":4800,"station_id":"ce4bhg12rcd13ifvqf60","pricing_plan_id":"cebpf4jnsgd1na2vs0mg"},{"bike_id":"52119c07-2722-46f2-8836-34bb27860f3f","system_id":"levelo_inurba_marseille","lat":43.30142,"lon":5.38793,"is_reserved":false,"is_disabled":false,"rental_uris":{"android":"levelo://app?vid=52119c07-2722-46f2-8836-34bb27860f3f","ios":"levelo://app?vid=52119c07-2722-46f2-8836-34bb27860f3f"},"vehicle_type_id":"4","last_reported":1742922550,"current_range_meters":5600,"station_id":"ce4bghh2rcd13ifvqb60","pricing_plan_id":"cebpf4jnsgd1na2vs0mg"},{"bike_id":"06fda6fb-ea3e-4e19-a422-def11c168946","system_id":"levelo_inurba_marseille","lat":43.27376,"lon":5.36252,"is_reserved":false,"is_disabled":false,"rental_uris":{"android":"levelo://app?vid=06fda6fb-ea3e-4e19-a422-def11c168946","ios":"levelo://app?vid=06fda6fb-ea3e-4e19-a422-def11c168946"},"vehicle_type_id":"4","last_reported":1742922550,"current_range_meters":5600,"station_id":"ce4bhbh2rcd13ifvqeo0","pricing_plan_id":"cebpf4jnsgd1na2vs0mg"},{"bike_id":"9ead2637-8161-41ce-b93a-4935dac628d9","system_id":"levelo_inurba_marseille","lat":43.30884,"lon":5.37195,"is_reserved":false,"is_disabled":false,"rental_uris":{"android":"levelo://app?vid=9ead2637-8161-41ce-b93a-4935dac628d9","ios":"levelo://app?vid=9ead2637-8161-41ce-b93a-4935dac628d9"},"vehicle_type_id":"4","last_reported":1742922550,"current_range_meters":5600,"station_id":"ce4bguh2rcd13ifvqckg","pricing_plan_id":"cebpf4jnsgd1na2vs0mg"},{"bike_id":"6f3a3ecb-8dc9-4ceb-9c21-88f381d21dc9","system_id":"levelo_inurba_marseille","lat":43.31299,"lon":5.37569,"is_reserved":false,"is_disabled":false,"rental_uris":{"android":"levelo://app?vid=6f3a3ecb-8dc9-4ceb-9c21-88f381d21dc9","ios":"levelo://app?vid=6f3a3ecb-8dc9-4ceb-9c21-88f381d21dc9"},"vehicle_type_id":"4","last_reported":1742922550,"current_range_meters":5600,"station_id":"","pricing_plan_id":"cebpf4jnsgd1na2vs0mg"},{"bike_id":"4320c6b6-dcf2-4b6e-9554-e8b3689b08a5","system_id":"levelo_inurba_marseille","lat":43.272949,"lon":5.390552,"is_reserved":false,"is_disabled":false,"rental_uris":{"android":"levelo://app?vid=4320c6b6-dcf2-4b6e-9554-e8b3689b08a5","ios":"levelo://app?vid=4320c6b6-dcf2-4b6e-9554-e8b3689b08a5"},"vehicle_type_id":"4","last_reported":1742922550,"current_range_meters":5600,"station_id":"ce4bhh92rcd13ifvqfj0","pricing_plan_id":"cebpf4jnsgd1na2vs0mg"},{"bike_id":"febc8c64-f65e-4e8b-9be5-38b466215234","system_id":"levelo_inurba_marseille","lat":43.27804,"lon":5.40748,"is_reserved":false,"is_disabled":false,"rental_uris":{"android":"levelo://app?vid=febc8c64-f65e-4e8b-9be5-38b466215234","ios":"levelo://app?vid=febc8c64-f65e-4e8b-9be5-38b466215234"},"vehicle_type_id":"4","last_reported":1742922550,"current_range_meters":5600,"station_id":"ce4bhnh2rcd13ifvqgtg","pricing_plan_id":"cebpf4jnsgd1na2vs0mg"},{"bike_id":"e1ab2e13-94be-44d9-b8c4-86c95feca9a1","system_id":"levelo_inurba_marseille","lat":43.26192,"lon":5.3745,"is_reserved":false,"is_disabled":false,"rental_uris":{"android":"levelo://app?vid=e1ab2e13-94be-44d9-b8c4-86c95feca9a1","ios":"levelo://app?vid=e1ab2e13-94be-44d9-b8c4-86c95feca9a1"},"vehicle_type_id":"4","last_reported":1742922550,"current_range_meters":5600,"station_id":"ce4bhgp2rcd13ifvqfc0","pricing_plan_id":"cebpf4jnsgd1na2vs0mg"},{"bike_id":"a1201847-9f74-4913-aa0f-5bab44fde69c","system_id":"levelo_inurba_marseille","lat":43.2307,"lon":5.35496,"is_reserved":false,"is_disabled":false,"rental_uris":{"android":"levelo://app?vid=a1201847-9f74-4913-aa0f-5bab44fde69c","ios":"levelo://app?vid=a1201847-9f74-4913-aa0f-5bab44fde69c"},"vehicle_type_id":"4","last_reported":1742922550,"current_range_meters":5600,"station_id":"cpo3342slgdg3j2ifvpg","pricing_plan_id":"cebpf4jnsgd1na2vs0mg"},{"bike_id":"9832a934-7996-4e08-99d6-66ae1dc9257c","system_id":"levelo_inurba_marseille","lat":43.24808,"lon":5.37459,"is_reserved":false,"is_disabled":false,"rental_uris":{"android":"levelo://app?vid=9832a934-7996-4e08-99d6-66ae1dc9257c","ios":"levelo://app?vid=9832a934-7996-4e08-99d6-66ae1dc9257c"},"vehicle_type_id":"4","last_reported":1742922550,"current_range_meters":5600,"station_id":"ce4bhgh2rcd13ifvqfb0","pricing_plan_id":"cebpf4jnsgd1na2vs0mg"},{"bike_id":"df632c8e-92f6-4b8a-9524-6d142d68aad1","system_id":"levelo_inurba_marseille","lat":43.25578,"lon":5.3824,"is_reserved":false,"is_disabled":false,"rental_uris":{"android":"levelo://app?vid=df632c8e-92f6-4b8a-9524-6d142d68aad1","ios":"levelo://app?vid=df632c8e-92f6-4b8a-9524-6d142d68aad1"},"vehicle_type_id":"4","last_reported":1742922550,"current_range_meters":5600,"station_id":"ce4bhih2rcd13ifvqfs0","pricing_plan_id":"cebpf4jnsgd1na2vs0mg"},{"bike_id":"6439f6f7-454b-49e7-b15b-04454938fab5","system_id":"levelo_inurba_marseille","lat":43.31073,"lon":5.38345,"is_reserved":false,"is_disabled":false,"rental_uris":{"android":"levelo://app?vid=6439f6f7-454b-49e7-b15b-04454938fab5","ios":"levelo://app?vid=6439f6f7-454b-49e7-b15b-04454938fab5"},"vehicle_type_id":"4","last_reported":1742922550,"current_range_meters":5600,"station_id":"ce4bgv92rcd13ifvqcr0","pricing_plan_id":"cebpf4jnsgd1na2vs0mg"},{"bike_id":"2dcf0bec-46f6-40c5-97f4-916de7d24c44","system_id":"levelo_inurba_marseille","lat":43.31122,"lon":5.37778,"is_reserved":false,"is_disabled":false,"rental_uris":{"android":"levelo://app?vid=2dcf0bec-46f6-40c5-97f4-916de7d24c44","ios":"levelo://app?vid=2dcf0bec-46f6-40c5-97f4-916de7d24c44"},"vehicle_type_id":"4","last_reported":1742922550,"current_range_meters":6000,"station_id":"ce4bgt92rcd13ifvqcg0","pricing_plan_id":"cebpf4jnsgd1na2vs0mg"},{"bike_id":"05a42e18-6cc6-4c6e-92c2-f88189360bf0","system_id":"levelo_inurba_marseille","lat":43.3043,"lon":5.38897,"is_reserved":false,"is_disabled":false,"rental_uris":{"android":"levelo://app?vid=05a42e18-6cc6-4c6e-92c2-f88189360bf0","ios":"levelo://app?vid=05a42e18-6cc6-4c6e-92c2-f88189360bf0"},"vehicle_type_id":"4","last_reported":1742922550,"current_range_meters":6000,"station_id":"ce4bgk12rcd13ifvqbi0","pricing_plan_id":"cebpf4jnsgd1na2vs0mg"},{"bike_id":"fdacff3f-fb87-4705-92d0-d039132bbb3f","system_id":"levelo_inurba_marseille","lat":43.29903,"lon":5.43647,"is_reserved":false,"is_disabled":false,"rental_uris":{"android":"levelo://app?vid=fdacff3f-fb87-4705-92d0-d039132bbb3f","ios":"levelo://app?vid=fdacff3f-fb87-4705-92d0-d039132bbb3f"},"vehicle_type_id":"4","last_reported":1742922550,"current_range_meters":6000,"station_id":"ce4bhpp2rcd13ifvqhfg","pricing_plan_id":"cebpf4jnsgd1na2vs0mg"},{"bike_id":"3f65cf75-6ff1-45a4-9ecc-7856fe8c9370","system_id":"levelo_inurba_marseille","lat":43.28935,"lon":5.36637,"is_reserved":false,"is_disabled":false,"rental_uris":{"android":"levelo://app?vid=3f65cf75-6ff1-45a4-9ecc-7856fe8c9370","ios":"levelo://app?vid=3f65cf75-6ff1-45a4-9ecc-7856fe8c9370"},"vehicle_type_id":"4","last_reported":1742922550,"current_range_meters":6000,"station_id":"ce4bhap2rcd13ifvqek0","pricing_plan_id":"cebpf4jnsgd1na2vs0mg"},{"bike_id":"e19e199b-a583-4b0b-bcfa-7913ce5bfdec","system_id":"levelo_inurba_marseille","lat":43.26939,"lon":5.38922,"is_reserved":false,"is_disabled":false,"rental_uris":{"android":"levelo://app?vid=e19e199b-a583-4b0b-bcfa-7913ce5bfdec","ios":"levelo://app?vid=e19e199b-a583-4b0b-bcfa-7913ce5bfdec"},"vehicle_type_id":"4","last_reported":1742922550,"current_range_meters":6000,"station_id":"ce4bhhh2rcd13ifvqfl0","pricing_plan_id":"cebpf4jnsgd1na2vs0mg"},{"bike_id":"95ebac15-e862-4406-bcb3-153290c8e642","system_id":"levelo_inurba_marseille","lat":43.27563,"lon":5.38417,"is_reserved":false,"is_disabled":false,"rental_uris":{"android":"levelo://app?vid=95ebac15-e862-4406-bcb3-153290c8e642","ios":"levelo://app?vid=95ebac15-e862-4406-bcb3-153290c8e642"},"vehicle_type_id":"4","last_reported":1742922550,"current_range_meters":6000,"station_id":"ce4bhh92rcd13ifvqfi0","pricing_plan_id":"cebpf4jnsgd1na2vs0mg"},{"bike_id":"cf30ba2d-9dd5-4d8d-b3a7-9af496f3ef85","system_id":"levelo_inurba_marseille","lat":43.289226,"lon":5.381897,"is_reserved":false,"is_disabled":false,"rental_uris":{"android":"levelo://app?vid=cf30ba2d-9dd5-4d8d-b3a7-9af496f3ef85","ios":"levelo://app?vid=cf30ba2d-9dd5-4d8d-b3a7-9af496f3ef85"},"vehicle_type_id":"4","last_reported":1742922550,"current_range_meters":6000,"station_id":"ce4bh4p2rcd13ifvqe1g","pricing_plan_id":"cebpf4jnsgd1na2vs0mg"},{"bike_id":"fbfecbb6-5794-4d9a-9176-1810e4b4a7ef","system_id":"levelo_inurba_marseille","lat":43.23077,"lon":5.35528,"is_reserved":false,"is_disabled":false,"rental_uris":{"android":"levelo://app?vid=fbfecbb6-5794-4d9a-9176-1810e4b4a7ef","ios":"levelo://app?vid=fbfecbb6-5794-4d9a-9176-1810e4b4a7ef"},"vehicle_type_id":"4","last_reported":1742922550,"current_range_meters":6000,"station_id":"cpo3342slgdg3j2ifvpg","pricing_plan_id":"cebpf4jnsgd1na2vs0mg"},{"bike_id":"e06fd3a0-02a6-413f-81de-817b7da619bd","system_id":"levelo_inurba_marseille","lat":43.312712,"lon":5.401779,"is_reserved":false,"is_disabled":false,"rental_uris":{"android":"levelo://app?vid=e06fd3a0-02a6-413f-81de-817b7da619bd","ios":"levelo://app?vid=e06fd3a0-02a6-413f-81de-817b7da619bd"},"vehicle_type_id":"4","last_reported":1742922550,"current_range_meters":6000,"station_id":"ce4bh092rcd13ifvqd30","pricing_plan_id":"cebpf4jnsgd1na2vs0mg"},{"bike_id":"2ed6f141-a583-4497-bf73-2fb63e7c194e","system_id":"levelo_inurba_marseille","lat":43.28614,"lon":5.35107,"is_reserved":false,"is_disabled":false,"rental_uris":{"android":"levelo://app?vid=2ed6f141-a583-4497-bf73-2fb63e7c194e","ios":"levelo://app?vid=2ed6f141-a583-4497-bf73-2fb63e7c194e"},"vehicle_type_id":"4","last_reported":1742922550,"current_range_meters":6000,"station_id":"ce4bhch2rcd13ifvqeug","pricing_plan_id":"cebpf4jnsgd1na2vs0mg"},{"bike_id":"95b6e576-04ea-4108-b95d-906b2e4dc022","system_id":"levelo_inurba_marseille","lat":43.30619,"lon":5.37234,"is_reserved":false,"is_disabled":false,"rental_uris":{"android":"levelo://app?vid=95b6e576-04ea-4108-b95d-906b2e4dc022","ios":"levelo://app?vid=95b6e576-04ea-4108-b95d-906b2e4dc022"},"vehicle_type_id":"4","last_reported":1742922550,"current_range_meters":6000,"station_id":"ce4bgqh2rcd13ifvqc4g","pricing_plan_id":"cebpf4jnsgd1na2vs0mg"},{"bike_id":"1b65f3cd-728f-4b90-b6fb-89cc294d02b1","system_id":"levelo_inurba_marseille","lat":43.29937,"lon":5.43659,"is_reserved":false,"is_disabled":false,"rental_uris":{"android":"levelo://app?vid=1b65f3cd-728f-4b90-b6fb-89cc294d02b1","ios":"levelo://app?vid=1b65f3cd-728f-4b90-b6fb-89cc294d02b1"},"vehicle_type_id":"4","last_reported":1742922550,"current_range_meters":6000,"station_id":"","pricing_plan_id":"cebpf4jnsgd1na2vs0mg"},{"bike_id":"31c15a0a-05ce-4a99-bc2b-714be9474bd0","system_id":"levelo_inurba_marseille","lat":43.28568,"lon":5.39494,"is_reserved":false,"is_disabled":false,"rental_uris":{"android":"levelo://app?vid=31c15a0a-05ce-4a99-bc2b-714be9474bd0","ios":"levelo://app?vid=31c15a0a-05ce-4a99-bc2b-714be9474bd0"},"vehicle_type_id":"4","last_reported":1742922550,"current_range_meters":6000,"station_id":"ce4bh292rcd13ifvqdg0","pricing_plan_id":"cebpf4jnsgd1na2vs0mg"},{"bike_id":"2462aff4-312c-46a9-ae18-d864ef42c20c","system_id":"levelo_inurba_marseille","lat":43.24173,"lon":5.36408,"is_reserved":false,"is_disabled":false,"rental_uris":{"android":"levelo://app?vid=2462aff4-312c-46a9-ae18-d864ef42c20c","ios":"levelo://app?vid=2462aff4-312c-46a9-ae18-d864ef42c20c"},"vehicle_type_id":"4","last_reported":1742922550,"current_range_meters":6400,"station_id":"cpo36qri1sfpv3e86is0","pricing_plan_id":"cebpf4jnsgd1na2vs0mg"},{"bike_id":"1b8779ee-15bd-411f-8230-66fb3b9d06b8","system_id":"levelo_inurba_marseille","lat":43.29894,"lon":5.43673,"is_reserved":false,"is_disabled":false,"rental_uris":{"android":"levelo://app?vid=1b8779ee-15bd-411f-8230-66fb3b9d06b8","ios":"levelo://app?vid=1b8779ee-15bd-411f-8230-66fb3b9d06b8"},"vehicle_type_id":"4","last_reported":1742922550,"current_range_meters":6400,"station_id":"ce4bhpp2rcd13ifvqhfg","pricing_plan_id":"cebpf4jnsgd1na2vs0mg"},{"bike_id":"9e1900ad-e046-4f32-a94e-e5e6f986be4d","system_id":"levelo_inurba_marseille","lat":43.24824,"lon":5.37474,"is_reserved":false,"is_disabled":false,"rental_uris":{"android":"levelo://app?vid=9e1900ad-e046-4f32-a94e-e5e6f986be4d","ios":"levelo://app?vid=9e1900ad-e046-4f32-a94e-e5e6f986be4d"},"vehicle_type_id":"4","last_reported":1742922550,"current_range_meters":6400,"station_id":"ce4bhgh2rcd13ifvqfb0","pricing_plan_id":"cebpf4jnsgd1na2vs0mg"},{"bike_id":"1cdb5e5f-6bda-4e07-b645-0554ed59cc39","system_id":"levelo_inurba_marseille","lat":43.25838,"lon":5.39444,"is_reserved":false,"is_disabled":false,"rental_uris":{"android":"levelo://app?vid=1cdb5e5f-6bda-4e07-b645-0554ed59cc39","ios":"levelo://app?vid=1cdb5e5f-6bda-4e07-b645-0554ed59cc39"},"vehicle_type_id":"4","last_reported":1742922550,"current_range_meters":6400,"station_id":"ce4bhip2rcd13ifvqft0","pricing_plan_id":"cebpf4jnsgd1na2vs0mg"},{"bike_id":"11728c86-584a-4aa0-b37b-6856c4a38cbc","system_id":"levelo_inurba_marseille","lat":43.29264,"lon":5.38445,"is_reserved":false,"is_disabled":false,"rental_uris":{"android":"levelo://app?vid=11728c86-584a-4aa0-b37b-6856c4a38cbc","ios":"levelo://app?vid=11728c86-584a-4aa0-b37b-6856c4a38cbc"},"vehicle_type_id":"4","last_reported":1742922550,"current_range_meters":6400,"station_id":"ce4bh692rcd13ifvqea0","pricing_plan_id":"cebpf4jnsgd1na2vs0mg"},{"bike_id":"4b82f9a6-2f12-42e5-86cc-35d0acf12b8e","system_id":"levelo_inurba_marseille","lat":43.25086,"lon":5.39531,"is_reserved":false,"is_disabled":false,"rental_uris":{"android":"levelo://app?vid=4b82f9a6-2f12-42e5-86cc-35d0acf12b8e","ios":"levelo://app?vid=4b82f9a6-2f12-42e5-86cc-35d0acf12b8e"},"vehicle_type_id":"4","last_reported":1742922550,"current_range_meters":6400,"station_id":"ce4bhm12rcd13ifvqgkg","pricing_plan_id":"cebpf4jnsgd1na2vs0mg"},{"bike_id":"bcb3b049-9082-4b15-b33f-bbf0ab846232","system_id":"levelo_inurba_marseille","lat":43.27979,"lon":5.41656,"is_reserved":false,"is_disabled":false,"rental_uris":{"android":"levelo://app?vid=bcb3b049-9082-4b15-b33f-bbf0ab846232","ios":"levelo://app?vid=bcb3b049-9082-4b15-b33f-bbf0ab846232"},"vehicle_type_id":"4","last_reported":1742922550,"current_range_meters":6400,"station_id":"ce4bho12rcd13ifvqh1g","pricing_plan_id":"cebpf4jnsgd1na2vs0mg"},{"bike_id":"bdd98fde-acd9-4a9b-8bfe-62365fe88f24","system_id":"levelo_inurba_marseille","lat":43.28073,"lon":5.39663,"is_reserved":false,"is_disabled":false,"rental_uris":{"android":"levelo://app?vid=bdd98fde-acd9-4a9b-8bfe-62365fe88f24","ios":"levelo://app?vid=bdd98fde-acd9-4a9b-8bfe-62365fe88f24"},"vehicle_type_id":"4","last_reported":1742922550,"current_range_meters":6400,"station_id":"ce4bho12rcd13ifvqh2g","pricing_plan_id":"cebpf4jnsgd1na2vs0mg"},{"bike_id":"506af16b-2830-4073-9c6c-8d7a6537d8cf","system_id":"levelo_inurba_marseille","lat":43.27992,"lon":5.40019,"is_reserved":false,"is_disabled":false,"rental_uris":{"android":"levelo://app?vid=506af16b-2830-4073-9c6c-8d7a6537d8cf","ios":"levelo://app?vid=506af16b-2830-4073-9c6c-8d7a6537d8cf"},"vehicle_type_id":"4","last_reported":1742922550,"current_range_meters":6400,"station_id":"ce4bho92rcd13ifvqh4g","pricing_plan_id":"cebpf4jnsgd1na2vs0mg"},{"bike_id":"6c40bd81-af13-42e4-8827-fa8af6ebc8cc","system_id":"levelo_inurba_marseille","lat":43.24804,"lon":5.37456,"is_reserved":false,"is_disabled":false,"rental_uris":{"android":"levelo://app?vid=6c40bd81-af13-42e4-8827-fa8af6ebc8cc","ios":"levelo://app?vid=6c40bd81-af13-42e4-8827-fa8af6ebc8cc"},"vehicle_type_id":"4","last_reported":1742922550,"current_range_meters":6400,"station_id":"ce4bhgh2rcd13ifvqfb0","pricing_plan_id":"cebpf4jnsgd1na2vs0mg"},{"bike_id":"acea232b-1941-469f-b208-1dd37b17b51f","system_id":"levelo_inurba_marseille","lat":43.30432,"lon":5.38895,"is_reserved":false,"is_disabled":false,"rental_uris":{"android":"levelo://app?vid=acea232b-1941-469f-b208-1dd37b17b51f","ios":"levelo://app?vid=acea232b-1941-469f-b208-1dd37b17b51f"},"vehicle_type_id":"4","last_reported":1742922550,"current_range_meters":6400,"station_id":"ce4bgk12rcd13ifvqbi0","pricing_plan_id":"cebpf4jnsgd1na2vs0mg"},{"bike_id":"6eb634f8-7646-4293-b804-207db324e38d","system_id":"levelo_inurba_marseille","lat":43.29938,"lon":5.36551,"is_reserved":false,"is_disabled":false,"rental_uris":{"android":"levelo://app?vid=6eb634f8-7646-4293-b804-207db324e38d","ios":"levelo://app?vid=6eb634f8-7646-4293-b804-207db324e38d"},"vehicle_type_id":"4","last_reported":1742922550,"current_range_meters":6400,"station_id":"ce4bgm92rcd13ifvqbr0","pricing_plan_id":"cebpf4jnsgd1na2vs0mg"},{"bike_id":"e117a0a5-1095-47c3-90e2-c8d5bf6e72e4","system_id":"levelo_inurba_marseille","lat":43.30627,"lon":5.36723,"is_reserved":false,"is_disabled":false,"rental_uris":{"android":"levelo://app?vid=e117a0a5-1095-47c3-90e2-c8d5bf6e72e4","ios":"levelo://app?vid=e117a0a5-1095-47c3-90e2-c8d5bf6e72e4"},"vehicle_type_id":"4","last_reported":1742922550,"current_range_meters":6400,"station_id":"","pricing_plan_id":"cebpf4jnsgd1na2vs0mg"},{"bike_id":"f7d6ce35-7b31-47d4-8b03-3c1a86237306","system_id":"levelo_inurba_marseille","lat":43.23065,"lon":5.35491,"is_reserved":false,"is_disabled":false,"rental_uris":{"android":"levelo://app?vid=f7d6ce35-7b31-47d4-8b03-3c1a86237306","ios":"levelo://app?vid=f7d6ce35-7b31-47d4-8b03-3c1a86237306"},"vehicle_type_id":"4","last_reported":1742922550,"current_range_meters":6800,"station_id":"cpo3342slgdg3j2ifvpg","pricing_plan_id":"cebpf4jnsgd1na2vs0mg"},{"bike_id":"e666fbbf-3c29-4445-8f89-cc500d427333","system_id":"levelo_inurba_marseille","lat":43.29072,"lon":5.37173,"is_reserved":false,"is_disabled":false,"rental_uris":{"android":"levelo://app?vid=e666fbbf-3c29-4445-8f89-cc500d427333","ios":"levelo://app?vid=e666fbbf-3c29-4445-8f89-cc500d427333"},"vehicle_type_id":"4","last_reported":1742922550,"current_range_meters":6800,"station_id":"ce4bh5p2rcd13ifvqe4g","pricing_plan_id":"cebpf4jnsgd1na2vs0mg"},{"bike_id":"a5516228-2c65-4ab1-8174-cbfa24336356","system_id":"levelo_inurba_marseille","lat":43.28131,"lon":5.42661,"is_reserved":false,"is_disabled":false,"rental_uris":{"android":"levelo://app?vid=a5516228-2c65-4ab1-8174-cbfa24336356","ios":"levelo://app?vid=a5516228-2c65-4ab1-8174-cbfa24336356"},"vehicle_type_id":"4","last_reported":1742922550,"current_range_meters":6800,"station_id":"ce4bhnh2rcd13ifvqgug","pricing_plan_id":"cebpf4jnsgd1na2vs0mg"},{"bike_id":"29e132f5-f35e-4980-8e38-84c762e3bef3","system_id":"levelo_inurba_marseille","lat":43.28097,"lon":5.37834,"is_reserved":false,"is_disabled":false,"rental_uris":{"android":"levelo://app?vid=29e132f5-f35e-4980-8e38-84c762e3bef3","ios":"levelo://app?vid=29e132f5-f35e-4980-8e38-84c762e3bef3"},"vehicle_type_id":"4","last_reported":1742922550,"current_range_meters":6800,"station_id":"ce4bha12rcd13ifvqee0","pricing_plan_id":"cebpf4jnsgd1na2vs0mg"},{"bike_id":"fbe542aa-7172-421e-99fe-8b8c9d511e8f","system_id":"levelo_inurba_marseille","lat":43.31363,"lon":5.38487,"is_reserved":false,"is_disabled":false,"rental_uris":{"android":"levelo://app?vid=fbe542aa-7172-421e-99fe-8b8c9d511e8f","ios":"levelo://app?vid=fbe542aa-7172-421e-99fe-8b8c9d511e8f"},"vehicle_type_id":"4","last_reported":1742922550,"current_range_meters":6800,"station_id":"ce4bgt92rcd13ifvqcf0","pricing_plan_id":"cebpf4jnsgd1na2vs0mg"},{"bike_id":"5eb00e60-b5d9-4a65-9bba-344db36c1e04","system_id":"levelo_inurba_marseille","lat":43.25826,"lon":5.39424,"is_reserved":false,"is_disabled":false,"rental_uris":{"android":"levelo://app?vid=5eb00e60-b5d9-4a65-9bba-344db36c1e04","ios":"levelo://app?vid=5eb00e60-b5d9-4a65-9bba-344db36c1e04"},"vehicle_type_id":"4","last_reported":1742922550,"current_range_meters":6800,"station_id":"ce4bhip2rcd13ifvqft0","pricing_plan_id":"cebpf4jnsgd1na2vs0mg"},{"bike_id":"93bfcee2-9e09-4cb0-95e9-c8013d09e1bb","system_id":"levelo_inurba_marseille","lat":43.29539,"lon":5.37494,"is_reserved":false,"is_disabled":false,"rental_uris":{"android":"levelo://app?vid=93bfcee2-9e09-4cb0-95e9-c8013d09e1bb","ios":"levelo://app?vid=93bfcee2-9e09-4cb0-95e9-c8013d09e1bb"},"vehicle_type_id":"4","last_reported":1742922550,"current_range_meters":6800,"station_id":"ce4bgkp2rcd13ifvqbmg","pricing_plan_id":"cebpf4jnsgd1na2vs0mg"},{"bike_id":"60a4bfdd-976f-4f2f-a21a-68c4e333ecd6","system_id":"levelo_inurba_marseille","lat":43.23061,"lon":5.35508,"is_reserved":false,"is_disabled":false,"rental_uris":{"android":"levelo://app?vid=60a4bfdd-976f-4f2f-a21a-68c4e333ecd6","ios":"levelo://app?vid=60a4bfdd-976f-4f2f-a21a-68c4e333ecd6"},"vehicle_type_id":"4","last_reported":1742922550,"current_range_meters":6800,"station_id":"cpo3342slgdg3j2ifvpg","pricing_plan_id":"cebpf4jnsgd1na2vs0mg"},{"bike_id":"cc2bb70c-9dcf-473d-8ae7-26da9a6fe043","system_id":"levelo_inurba_marseille","lat":43.292939,"lon":5.379732,"is_reserved":false,"is_disabled":false,"rental_uris":{"android":"levelo://app?vid=cc2bb70c-9dcf-473d-8ae7-26da9a6fe043","ios":"levelo://app?vid=cc2bb70c-9dcf-473d-8ae7-26da9a6fe043"},"vehicle_type_id":"4","last_reported":1742922550,"current_range_meters":6800,"station_id":"ce4bgl12rcd13ifvqbo0","pricing_plan_id":"cebpf4jnsgd1na2vs0mg"},{"bike_id":"54b2eb2e-f099-4f46-9067-448b807e02c4","system_id":"levelo_inurba_marseille","lat":43.29042,"lon":5.356,"is_reserved":false,"is_disabled":false,"rental_uris":{"android":"levelo://app?vid=54b2eb2e-f099-4f46-9067-448b807e02c4","ios":"levelo://app?vid=54b2eb2e-f099-4f46-9067-448b807e02c4"},"vehicle_type_id":"4","last_reported":1742922550,"current_range_meters":6800,"station_id":"","pricing_plan_id":"cebpf4jnsgd1na2vs0mg"},{"bike_id":"e645481a-e627-49e5-af4c-5eb024ef5975","system_id":"levelo_inurba_marseille","lat":43.30431,"lon":5.38882,"is_reserved":false,"is_disabled":false,"rental_uris":{"android":"levelo://app?vid=e645481a-e627-49e5-af4c-5eb024ef5975","ios":"levelo://app?vid=e645481a-e627-49e5-af4c-5eb024ef5975"},"vehicle_type_id":"4","last_reported":1742922550,"current_range_meters":6800,"station_id":"ce4bgk12rcd13ifvqbi0","pricing_plan_id":"cebpf4jnsgd1na2vs0mg"},{"bike_id":"63e8dafc-3749-4a42-ab44-2e79325ba0f1","system_id":"levelo_inurba_marseille","lat":43.250892,"lon":5.395241,"is_reserved":false,"is_disabled":false,"rental_uris":{"android":"levelo://app?vid=63e8dafc-3749-4a42-ab44-2e79325ba0f1","ios":"levelo://app?vid=63e8dafc-3749-4a42-ab44-2e79325ba0f1"},"vehicle_type_id":"4","last_reported":1742922550,"current_range_meters":6800,"station_id":"ce4bhlh2rcd13ifvqgig","pricing_plan_id":"cebpf4jnsgd1na2vs0mg"},{"bike_id":"fbbc48ba-ebc9-4cc8-ae4e-60bbb24ddc56","system_id":"levelo_inurba_marseille","lat":43.30156,"lon":5.39921,"is_reserved":false,"is_disabled":false,"rental_uris":{"android":"levelo://app?vid=fbbc48ba-ebc9-4cc8-ae4e-60bbb24ddc56","ios":"levelo://app?vid=fbbc48ba-ebc9-4cc8-ae4e-60bbb24ddc56"},"vehicle_type_id":"4","last_reported":1742922550,"current_range_meters":7200,"station_id":"ce4bh0h2rcd13ifvqd40","pricing_plan_id":"cebpf4jnsgd1na2vs0mg"},{"bike_id":"d4b93de0-15be-488c-acf3-8dc613e5b87c","system_id":"levelo_inurba_marseille","lat":43.29535,"lon":5.39035,"is_reserved":false,"is_disabled":false,"rental_uris":{"android":"levelo://app?vid=d4b93de0-15be-488c-acf3-8dc613e5b87c","ios":"levelo://app?vid=d4b93de0-15be-488c-acf3-8dc613e5b87c"},"vehicle_type_id":"4","last_reported":1742922550,"current_range_meters":7200,"station_id":"ce4bh3p2rcd13ifvqdp0","pricing_plan_id":"cebpf4jnsgd1na2vs0mg"},{"bike_id":"8bf0c751-f60f-4191-b0a7-c7493fca0991","system_id":"levelo_inurba_marseille","lat":43.304137,"lon":5.379395,"is_reserved":false,"is_disabled":false,"rental_uris":{"android":"levelo://app?vid=8bf0c751-f60f-4191-b0a7-c7493fca0991","ios":"levelo://app?vid=8bf0c751-f60f-4191-b0a7-c7493fca0991"},"vehicle_type_id":"4","last_reported":1742922550,"current_range_meters":7200,"station_id":"ce4bgl92rcd13ifvqbq0","pricing_plan_id":"cebpf4jnsgd1na2vs0mg"},{"bike_id":"20eae09a-04ab-4f67-b938-c4ecbf731ee3","system_id":"levelo_inurba_marseille","lat":43.26562,"lon":5.39045,"is_reserved":false,"is_disabled":false,"rental_uris":{"android":"levelo://app?vid=20eae09a-04ab-4f67-b938-c4ecbf731ee3","ios":"levelo://app?vid=20eae09a-04ab-4f67-b938-c4ecbf731ee3"},"vehicle_type_id":"4","last_reported":1742922550,"current_range_meters":8000,"station_id":"ce4bhe12rcd13ifvqf30","pricing_plan_id":"cebpf4jnsgd1na2vs0mg"},{"bike_id":"896d5863-1ac5-46eb-b4be-2c9a5b236c8f","system_id":"levelo_inurba_marseille","lat":43.28439,"lon":5.39179,"is_reserved":false,"is_disabled":false,"rental_uris":{"android":"levelo://app?vid=896d5863-1ac5-46eb-b4be-2c9a5b236c8f","ios":"levelo://app?vid=896d5863-1ac5-46eb-b4be-2c9a5b236c8f"},"vehicle_type_id":"4","last_reported":1742922550,"current_range_meters":8000,"station_id":"ce4bhoh2rcd13ifvqh5g","pricing_plan_id":"cebpf4jnsgd1na2vs0mg"},{"bike_id":"a2893cda-ace4-4a15-9546-6d13e4407aca","system_id":"levelo_inurba_marseille","lat":43.31989,"lon":5.38139,"is_reserved":false,"is_disabled":false,"rental_uris":{"android":"levelo://app?vid=a2893cda-ace4-4a15-9546-6d13e4407aca","ios":"levelo://app?vid=a2893cda-ace4-4a15-9546-6d13e4407aca"},"vehicle_type_id":"4","last_reported":1742922550,"current_range_meters":8000,"station_id":"ce4bhr12rcd13ifvqhpg","pricing_plan_id":"cebpf4jnsgd1na2vs0mg"},{"bike_id":"1f85ca68-8162-4922-aa2c-48a827e6ea70","system_id":"levelo_inurba_marseille","lat":43.23185,"lon":5.39993,"is_reserved":false,"is_disabled":false,"rental_uris":{"android":"levelo://app?vid=1f85ca68-8162-4922-aa2c-48a827e6ea70","ios":"levelo://app?vid=1f85ca68-8162-4922-aa2c-48a827e6ea70"},"vehicle_type_id":"4","last_reported":1742922550,"current_range_meters":8000,"station_id":"ce4bhn12rcd13ifvqgqg","pricing_plan_id":"cebpf4jnsgd1na2vs0mg"},{"bike_id":"6ce11000-d5af-4e17-8f6c-d4a09d0d55d3","system_id":"levelo_inurba_marseille","lat":43.28399,"lon":5.37501,"is_reserved":false,"is_disabled":false,"rental_uris":{"android":"levelo://app?vid=6ce11000-d5af-4e17-8f6c-d4a09d0d55d3","ios":"levelo://app?vid=6ce11000-d5af-4e17-8f6c-d4a09d0d55d3"},"vehicle_type_id":"4","last_reported":1742922550,"current_range_meters":7200,"station_id":"ce4bh412rcd13ifvqds0","pricing_plan_id":"cebpf4jnsgd1na2vs0mg"},{"bike_id":"5eea6061-a404-4e79-a58e-f5548b1860c0","system_id":"levelo_inurba_marseille","lat":43.29419,"lon":5.38633,"is_reserved":false,"is_disabled":false,"rental_uris":{"android":"levelo://app?vid=5eea6061-a404-4e79-a58e-f5548b1860c0","ios":"levelo://app?vid=5eea6061-a404-4e79-a58e-f5548b1860c0"},"vehicle_type_id":"4","last_reported":1742922550,"current_range_meters":8000,"station_id":"ce4bh2h2rcd13ifvqdh0","pricing_plan_id":"cebpf4jnsgd1na2vs0mg"},{"bike_id":"f0291514-5516-456b-a339-a76bdb75757b","system_id":"levelo_inurba_marseille","lat":43.29313,"lon":5.37179,"is_reserved":false,"is_disabled":false,"rental_uris":{"android":"levelo://app?vid=f0291514-5516-456b-a339-a76bdb75757b","ios":"levelo://app?vid=f0291514-5516-456b-a339-a76bdb75757b"},"vehicle_type_id":"4","last_reported":1742922550,"current_range_meters":8000,"station_id":"ce4bgh92rcd13ifvqb40","pricing_plan_id":"cebpf4jnsgd1na2vs0mg"},{"bike_id":"3bfd382b-cfe0-46c5-b397-0dea6f0aa790","system_id":"levelo_inurba_marseille","lat":43.23205,"lon":5.35542,"is_reserved":false,"is_disabled":false,"rental_uris":{"android":"levelo://app?vid=3bfd382b-cfe0-46c5-b397-0dea6f0aa790","ios":"levelo://app?vid=3bfd382b-cfe0-46c5-b397-0dea6f0aa790"},"vehicle_type_id":"4","last_reported":1742922550,"current_range_meters":8000,"station_id":"ce4bhu92rcd13ifvqi70","pricing_plan_id":"cebpf4jnsgd1na2vs0mg"},{"bike_id":"c0802077-7a16-4727-a8dd-d6fc82bd7f7d","system_id":"levelo_inurba_marseille","lat":43.26686,"lon":5.38276,"is_reserved":false,"is_disabled":false,"rental_uris":{"android":"levelo://app?vid=c0802077-7a16-4727-a8dd-d6fc82bd7f7d","ios":"levelo://app?vid=c0802077-7a16-4727-a8dd-d6fc82bd7f7d"},"vehicle_type_id":"4","last_reported":1742922550,"current_range_meters":8000,"station_id":"ce4bhg92rcd13ifvqf90","pricing_plan_id":"cebpf4jnsgd1na2vs0mg"},{"bike_id":"2a00e69f-e8f0-4293-a71f-9f6c011d4f23","system_id":"levelo_inurba_marseille","lat":43.25017,"lon":5.38924,"is_reserved":false,"is_disabled":false,"rental_uris":{"android":"levelo://app?vid=2a00e69f-e8f0-4293-a71f-9f6c011d4f23","ios":"levelo://app?vid=2a00e69f-e8f0-4293-a71f-9f6c011d4f23"},"vehicle_type_id":"4","last_reported":1742922550,"current_range_meters":8400,"station_id":"ce4bhgp2rcd13ifvqfd0","pricing_plan_id":"cebpf4jnsgd1na2vs0mg"},{"bike_id":"36caee0a-d40e-41ec-a7df-7bc42b02c35f","system_id":"levelo_inurba_marseille","lat":43.24543,"lon":5.39523,"is_reserved":false,"is_disabled":false,"rental_uris":{"android":"levelo://app?vid=36caee0a-d40e-41ec-a7df-7bc42b02c35f","ios":"levelo://app?vid=36caee0a-d40e-41ec-a7df-7bc42b02c35f"},"vehicle_type_id":"4","last_reported":1742922550,"current_range_meters":8400,"station_id":"ce4bhlp2rcd13ifvqgjg","pricing_plan_id":"cebpf4jnsgd1na2vs0mg"},{"bike_id":"9142e96a-3ae8-47c2-ab50-6c25fac04705","system_id":"levelo_inurba_marseille","lat":43.29207,"lon":5.39328,"is_reserved":false,"is_disabled":false,"rental_uris":{"android":"levelo://app?vid=9142e96a-3ae8-47c2-ab50-6c25fac04705","ios":"levelo://app?vid=9142e96a-3ae8-47c2-ab50-6c25fac04705"},"vehicle_type_id":"4","last_reported":1742922550,"current_range_meters":8400,"station_id":"ce4bh192rcd13ifvqdd0","pricing_plan_id":"cebpf4jnsgd1na2vs0mg"},{"bike_id":"a0d4632a-7a87-4031-aeeb-061ca0feaca6","system_id":"levelo_inurba_marseille","lat":43.23961,"lon":5.36636,"is_reserved":false,"is_disabled":false,"rental_uris":{"android":"levelo://app?vid=a0d4632a-7a87-4031-aeeb-061ca0feaca6","ios":"levelo://app?vid=a0d4632a-7a87-4031-aeeb-061ca0feaca6"},"vehicle_type_id":"4","last_reported":1742922550,"current_range_meters":8400,"station_id":"ce4bhi12rcd13ifvqfp0","pricing_plan_id":"cebpf4jnsgd1na2vs0mg"},{"bike_id":"15e3e5eb-d835-4728-a546-750b58ac5259","system_id":"levelo_inurba_marseille","lat":43.31762,"lon":5.38989,"is_reserved":false,"is_disabled":false,"rental_uris":{"android":"levelo://app?vid=15e3e5eb-d835-4728-a546-750b58ac5259","ios":"levelo://app?vid=15e3e5eb-d835-4728-a546-750b58ac5259"},"vehicle_type_id":"4","last_reported":1742922550,"current_range_meters":8400,"station_id":"ce4bhqp2rcd13ifvqhng","pricing_plan_id":"cebpf4jnsgd1na2vs0mg"},{"bike_id":"8863ea21-846f-4583-9230-75e6392ab351","system_id":"levelo_inurba_marseille","lat":43.31752,"lon":5.39018,"is_reserved":false,"is_disabled":false,"rental_uris":{"android":"levelo://app?vid=8863ea21-846f-4583-9230-75e6392ab351","ios":"levelo://app?vid=8863ea21-846f-4583-9230-75e6392ab351"},"vehicle_type_id":"4","last_reported":1742922550,"current_range_meters":8400,"station_id":"ce4bhqp2rcd13ifvqhng","pricing_plan_id":"cebpf4jnsgd1na2vs0mg"},{"bike_id":"36be7c6f-2bc6-4fb1-803e-edd67bc95d18","system_id":"levelo_inurba_marseille","lat":43.29535,"lon":5.39406,"is_reserved":false,"is_disabled":false,"rental_uris":{"android":"levelo://app?vid=36be7c6f-2bc6-4fb1-803e-edd67bc95d18","ios":"levelo://app?vid=36be7c6f-2bc6-4fb1-803e-edd67bc95d18"},"vehicle_type_id":"4","last_reported":1742922550,"current_range_meters":8400,"station_id":"ce4bh292rcd13ifvqdf0","pricing_plan_id":"cebpf4jnsgd1na2vs0mg"},{"bike_id":"146d575a-a7ff-4993-be46-8aaf53aa0088","system_id":"levelo_inurba_marseille","lat":43.308858,"lon":5.37196,"is_reserved":false,"is_disabled":false,"rental_uris":{"android":"levelo://app?vid=146d575a-a7ff-4993-be46-8aaf53aa0088","ios":"levelo://app?vid=146d575a-a7ff-4993-be46-8aaf53aa0088"},"vehicle_type_id":"4","last_reported":1742922550,"current_range_meters":8400,"station_id":"ce4bguh2rcd13ifvqckg","pricing_plan_id":"cebpf4jnsgd1na2vs0mg"},{"bike_id":"463a4df3-df32-4854-9380-c2e9927dee65","system_id":"levelo_inurba_marseille","lat":43.32373,"lon":5.38879,"is_reserved":false,"is_disabled":false,"rental_uris":{"android":"levelo://app?vid=463a4df3-df32-4854-9380-c2e9927dee65","ios":"levelo://app?vid=463a4df3-df32-4854-9380-c2e9927dee65"},"vehicle_type_id":"4","last_reported":1742922550,"current_range_meters":8400,"station_id":"ce4bhqp2rcd13ifvqhog","pricing_plan_id":"cebpf4jnsgd1na2vs0mg"},{"bike_id":"a4332d16-d31d-4d34-96f0-83fc96c3e545","system_id":"levelo_inurba_marseille","lat":43.26553,"lon":5.37287,"is_reserved":false,"is_disabled":false,"rental_uris":{"android":"levelo://app?vid=a4332d16-d31d-4d34-96f0-83fc96c3e545","ios":"levelo://app?vid=a4332d16-d31d-4d34-96f0-83fc96c3e545"},"vehicle_type_id":"4","last_reported":1742922550,"current_range_meters":8400,"station_id":"ce4bhg12rcd13ifvqf70","pricing_plan_id":"cebpf4jnsgd1na2vs0mg"},{"bike_id":"ef43d9bd-e531-4a59-b8a9-fdc80b41fa34","system_id":"levelo_inurba_marseille","lat":43.312753,"lon":5.40169,"is_reserved":false,"is_disabled":true,"rental_uris":{"android":"levelo://app?vid=ef43d9bd-e531-4a59-b8a9-fdc80b41fa34","ios":"levelo://app?vid=ef43d9bd-e531-4a59-b8a9-fdc80b41fa34"},"vehicle_type_id":"4","last_reported":1742922550,"current_range_meters":8400,"station_id":"ce4bh092rcd13ifvqd30","pricing_plan_id":"cebpf4jnsgd1na2vs0mg"},{"bike_id":"b7d700cc-e80e-461a-a5b3-d22a71e707a9","system_id":"levelo_inurba_marseille","lat":43.29418,"lon":5.38628,"is_reserved":false,"is_disabled":false,"rental_uris":{"android":"levelo://app?vid=b7d700cc-e80e-461a-a5b3-d22a71e707a9","ios":"levelo://app?vid=b7d700cc-e80e-461a-a5b3-d22a71e707a9"},"vehicle_type_id":"4","last_reported":1742922550,"current_range_meters":8400,"station_id":"ce4bh2h2rcd13ifvqdh0","pricing_plan_id":"cebpf4jnsgd1na2vs0mg"},{"bike_id":"9d99f44d-d25f-4e0d-9548-6ffbcd4d9fb4","system_id":"levelo_inurba_marseille","lat":43.297011,"lon":5.365981,"is_reserved":false,"is_disabled":false,"rental_uris":{"android":"levelo://app?vid=9d99f44d-d25f-4e0d-9548-6ffbcd4d9fb4","ios":"levelo://app?vid=9d99f44d-d25f-4e0d-9548-6ffbcd4d9fb4"},"vehicle_type_id":"4","last_reported":1742922550,"current_range_meters":8400,"station_id":"ce4bgn12rcd13ifvqbt0","pricing_plan_id":"cebpf4jnsgd1na2vs0mg"},{"bike_id":"db7147a3-3d9b-4cbd-b018-1fca29f63d2a","system_id":"levelo_inurba_marseille","lat":43.30537,"lon":5.36549,"is_reserved":false,"is_disabled":false,"rental_uris":{"android":"levelo://app?vid=db7147a3-3d9b-4cbd-b018-1fca29f63d2a","ios":"levelo://app?vid=db7147a3-3d9b-4cbd-b018-1fca29f63d2a"},"vehicle_type_id":"4","last_reported":1742922550,"current_range_meters":8400,"station_id":"ce4bgqh2rcd13ifvqc4g","pricing_plan_id":"cebpf4jnsgd1na2vs0mg"},{"bike_id":"bea7b3e6-b0f6-428b-98d3-61630b930d30","system_id":"levelo_inurba_marseille","lat":43.26035,"lon":5.37557,"is_reserved":false,"is_disabled":false,"rental_uris":{"android":"levelo://app?vid=bea7b3e6-b0f6-428b-98d3-61630b930d30","ios":"levelo://app?vid=bea7b3e6-b0f6-428b-98d3-61630b930d30"},"vehicle_type_id":"4","last_reported":1742922550,"current_range_meters":8400,"station_id":"ce4bhgh2rcd13ifvqfa0","pricing_plan_id":"cebpf4jnsgd1na2vs0mg"},{"bike_id":"d0f430c1-c243-44ce-9e51-9385ae4a9dea","system_id":"levelo_inurba_marseille","lat":43.30103,"lon":5.3911,"is_reserved":false,"is_disabled":false,"rental_uris":{"android":"levelo://app?vid=d0f430c1-c243-44ce-9e51-9385ae4a9dea","ios":"levelo://app?vid=d0f430c1-c243-44ce-9e51-9385ae4a9dea"},"vehicle_type_id":"4","last_reported":1742922550,"current_range_meters":8400,"station_id":"ce4bh192rcd13ifvqdb0","pricing_plan_id":"cebpf4jnsgd1na2vs0mg"},{"bike_id":"c353c957-fbb8-408a-9097-46c8d6b68074","system_id":"levelo_inurba_marseille","lat":43.2418,"lon":5.39723,"is_reserved":false,"is_disabled":false,"rental_uris":{"android":"levelo://app?vid=c353c957-fbb8-408a-9097-46c8d6b68074","ios":"levelo://app?vid=c353c957-fbb8-408a-9097-46c8d6b68074"},"vehicle_type_id":"4","last_reported":1742922550,"current_range_meters":8400,"station_id":"ce4bhn12rcd13ifvqgpg","pricing_plan_id":"cebpf4jnsgd1na2vs0mg"},{"bike_id":"5653488a-e008-42f3-8972-82c6f9548cee","system_id":"levelo_inurba_marseille","lat":43.31081,"lon":5.42432,"is_reserved":false,"is_disabled":false,"rental_uris":{"android":"levelo://app?vid=5653488a-e008-42f3-8972-82c6f9548cee","ios":"levelo://app?vid=5653488a-e008-42f3-8972-82c6f9548cee"},"vehicle_type_id":"4","last_reported":1742922550,"current_range_meters":8400,"station_id":"ce4bhp92rcd13ifvqhag","pricing_plan_id":"cebpf4jnsgd1na2vs0mg"},{"bike_id":"1b82c3d6-d9d0-4133-9dc2-554517d2cce2","system_id":"levelo_inurba_marseille","lat":43.31692,"lon":5.40478,"is_reserved":false,"is_disabled":false,"rental_uris":{"android":"levelo://app?vid=1b82c3d6-d9d0-4133-9dc2-554517d2cce2","ios":"levelo://app?vid=1b82c3d6-d9d0-4133-9dc2-554517d2cce2"},"vehicle_type_id":"4","last_reported":1742922550,"current_range_meters":8400,"station_id":"ce4bh012rcd13ifvqd00","pricing_plan_id":"cebpf4jnsgd1na2vs0mg"},{"bike_id":"81ed917f-3bed-40e3-9fd1-84107856668a","system_id":"levelo_inurba_marseille","lat":43.29792,"lon":5.39364,"is_reserved":false,"is_disabled":false,"rental_uris":{"android":"levelo://app?vid=81ed917f-3bed-40e3-9fd1-84107856668a","ios":"levelo://app?vid=81ed917f-3bed-40e3-9fd1-84107856668a"},"vehicle_type_id":"4","last_reported":1742922550,"current_range_meters":8800,"station_id":"chh1huq6cuj3fo74tm60","pricing_plan_id":"cebpf4jnsgd1na2vs0mg"},{"bike_id":"5eb7d112-401e-421c-a5de-31d925e5ca95","system_id":"levelo_inurba_marseille","lat":43.27813,"lon":5.40714,"is_reserved":false,"is_disabled":false,"rental_uris":{"android":"levelo://app?vid=5eb7d112-401e-421c-a5de-31d925e5ca95","ios":"levelo://app?vid=5eb7d112-401e-421c-a5de-31d925e5ca95"},"vehicle_type_id":"4","last_reported":1742922550,"current_range_meters":8800,"station_id":"ce4bhnh2rcd13ifvqgtg","pricing_plan_id":"cebpf4jnsgd1na2vs0mg"},{"bike_id":"1a3c5e1e-498d-4bf5-b5bd-2116c210ebf5","system_id":"levelo_inurba_marseille","lat":43.24398,"lon":5.37068,"is_reserved":false,"is_disabled":false,"rental_uris":{"android":"levelo://app?vid=1a3c5e1e-498d-4bf5-b5bd-2116c210ebf5","ios":"levelo://app?vid=1a3c5e1e-498d-4bf5-b5bd-2116c210ebf5"},"vehicle_type_id":"4","last_reported":1742922550,"current_range_meters":8800,"station_id":"ce4bhhh2rcd13ifvqfk0","pricing_plan_id":"cebpf4jnsgd1na2vs0mg"},{"bike_id":"d0ce6a4c-8c1a-4117-b620-bb8816808dbc","system_id":"levelo_inurba_marseille","lat":43.23961,"lon":5.36626,"is_reserved":false,"is_disabled":false,"rental_uris":{"android":"levelo://app?vid=d0ce6a4c-8c1a-4117-b620-bb8816808dbc","ios":"levelo://app?vid=d0ce6a4c-8c1a-4117-b620-bb8816808dbc"},"vehicle_type_id":"4","last_reported":1742922550,"current_range_meters":8800,"station_id":"ce4bhi12rcd13ifvqfp0","pricing_plan_id":"cebpf4jnsgd1na2vs0mg"},{"bike_id":"31e7e901-3091-4585-8e6b-17217ed8b88b","system_id":"levelo_inurba_marseille","lat":43.28608,"lon":5.37064,"is_reserved":false,"is_disabled":false,"rental_uris":{"android":"levelo://app?vid=31e7e901-3091-4585-8e6b-17217ed8b88b","ios":"levelo://app?vid=31e7e901-3091-4585-8e6b-17217ed8b88b"},"vehicle_type_id":"4","last_reported":1742922550,"current_range_meters":8800,"station_id":"ce4bht12rcd13ifvqi60","pricing_plan_id":"cebpf4jnsgd1na2vs0mg"},{"bike_id":"15a9bcd2-bcc4-48f2-bd68-c537be57d046","system_id":"levelo_inurba_marseille","lat":43.29261,"lon":5.38434,"is_reserved":false,"is_disabled":false,"rental_uris":{"android":"levelo://app?vid=15a9bcd2-bcc4-48f2-bd68-c537be57d046","ios":"levelo://app?vid=15a9bcd2-bcc4-48f2-bd68-c537be57d046"},"vehicle_type_id":"4","last_reported":1742922550,"current_range_meters":8800,"station_id":"ce4bh692rcd13ifvqea0","pricing_plan_id":"cebpf4jnsgd1na2vs0mg"},{"bike_id":"e1751ecb-daa6-4c9f-9954-51af3642580b","system_id":"levelo_inurba_marseille","lat":43.26818,"lon":5.4026,"is_reserved":false,"is_disabled":false,"rental_uris":{"android":"levelo://app?vid=e1751ecb-daa6-4c9f-9954-51af3642580b","ios":"levelo://app?vid=e1751ecb-daa6-4c9f-9954-51af3642580b"},"vehicle_type_id":"4","last_reported":1742922550,"current_range_meters":8800,"station_id":"ce501612rcd8frsf0b60","pricing_plan_id":"cebpf4jnsgd1na2vs0mg"},{"bike_id":"8871fee1-c30f-4721-bb9f-022f22051a94","system_id":"levelo_inurba_marseille","lat":43.241755,"lon":5.397359,"is_reserved":false,"is_disabled":false,"rental_uris":{"android":"levelo://app?vid=8871fee1-c30f-4721-bb9f-022f22051a94","ios":"levelo://app?vid=8871fee1-c30f-4721-bb9f-022f22051a94"},"vehicle_type_id":"4","last_reported":1742922550,"current_range_meters":9200,"station_id":"ce4bhn12rcd13ifvqgpg","pricing_plan_id":"cebpf4jnsgd1na2vs0mg"},{"bike_id":"2a99ecb7-4bf0-4c00-89bb-11ff019b8a6d","system_id":"levelo_inurba_marseille","lat":43.22943,"lon":5.35451,"is_reserved":false,"is_disabled":false,"rental_uris":{"android":"levelo://app?vid=2a99ecb7-4bf0-4c00-89bb-11ff019b8a6d","ios":"levelo://app?vid=2a99ecb7-4bf0-4c00-89bb-11ff019b8a6d"},"vehicle_type_id":"4","last_reported":1742922550,"current_range_meters":9200,"station_id":"","pricing_plan_id":"cebpf4jnsgd1na2vs0mg"},{"bike_id":"e3f76d45-4904-44a7-aac2-e04832e991bb","system_id":"levelo_inurba_marseille","lat":43.29924,"lon":5.4136,"is_reserved":false,"is_disabled":true,"rental_uris":{"android":"levelo://app?vid=e3f76d45-4904-44a7-aac2-e04832e991bb","ios":"levelo://app?vid=e3f76d45-4904-44a7-aac2-e04832e991bb"},"vehicle_type_id":"4","last_reported":1742922550,"current_range_meters":9200,"station_id":"ce4bhp12rcd13ifvqh9g","pricing_plan_id":"cebpf4jnsgd1na2vs0mg"},{"bike_id":"ada4ba7b-2dc8-47ef-a5a8-9dc4e4bd1916","system_id":"levelo_inurba_marseille","lat":43.29724,"lon":5.37861,"is_reserved":false,"is_disabled":false,"rental_uris":{"android":"levelo://app?vid=ada4ba7b-2dc8-47ef-a5a8-9dc4e4bd1916","ios":"levelo://app?vid=ada4ba7b-2dc8-47ef-a5a8-9dc4e4bd1916"},"vehicle_type_id":"4","last_reported":1742922550,"current_range_meters":9200,"station_id":"","pricing_plan_id":"cebpf4jnsgd1na2vs0mg"},{"bike_id":"1848cf99-7a86-429c-a1af-abe291b1144c","system_id":"levelo_inurba_marseille","lat":43.32513,"lon":5.36551,"is_reserved":false,"is_disabled":false,"rental_uris":{"android":"levelo://app?vid=1848cf99-7a86-429c-a1af-abe291b1144c","ios":"levelo://app?vid=1848cf99-7a86-429c-a1af-abe291b1144c"},"vehicle_type_id":"4","last_reported":1742922550,"current_range_meters":9200,"station_id":"ce4bhs12rcd13ifvqhvg","pricing_plan_id":"cebpf4jnsgd1na2vs0mg"},{"bike_id":"a936d131-7d58-4a0c-ad45-0e4ae07b3e4b","system_id":"levelo_inurba_marseille","lat":43.29202,"lon":5.39321,"is_reserved":false,"is_disabled":false,"rental_uris":{"android":"levelo://app?vid=a936d131-7d58-4a0c-ad45-0e4ae07b3e4b","ios":"levelo://app?vid=a936d131-7d58-4a0c-ad45-0e4ae07b3e4b"},"vehicle_type_id":"4","last_reported":1742922550,"current_range_meters":9200,"station_id":"ce4bh192rcd13ifvqdd0","pricing_plan_id":"cebpf4jnsgd1na2vs0mg"},{"bike_id":"b6fd1ec3-47b2-486f-8b84-f71e2b87ecef","system_id":"levelo_inurba_marseille","lat":43.31075,"lon":5.42427,"is_reserved":false,"is_disabled":true,"rental_uris":{"android":"levelo://app?vid=b6fd1ec3-47b2-486f-8b84-f71e2b87ecef","ios":"levelo://app?vid=b6fd1ec3-47b2-486f-8b84-f71e2b87ecef"},"vehicle_type_id":"4","last_reported":1742922550,"current_range_meters":9200,"station_id":"ce4bhp92rcd13ifvqhag","pricing_plan_id":"cebpf4jnsgd1na2vs0mg"},{"bike_id":"8f208df7-81e0-45c5-bd98-a49c85a38fa2","system_id":"levelo_inurba_marseille","lat":43.30316,"lon":5.36918,"is_reserved":false,"is_disabled":false,"rental_uris":{"android":"levelo://app?vid=8f208df7-81e0-45c5-bd98-a49c85a38fa2","ios":"levelo://app?vid=8f208df7-81e0-45c5-bd98-a49c85a38fa2"},"vehicle_type_id":"4","last_reported":1742922550,"current_range_meters":9200,"station_id":"ce4bgqh2rcd13ifvqc5g","pricing_plan_id":"cebpf4jnsgd1na2vs0mg"},{"bike_id":"4941eea8-a781-468b-b83e-defe6faab05f","system_id":"levelo_inurba_marseille","lat":43.32289,"lon":5.38244,"is_reserved":false,"is_disabled":false,"rental_uris":{"android":"levelo://app?vid=4941eea8-a781-468b-b83e-defe6faab05f","ios":"levelo://app?vid=4941eea8-a781-468b-b83e-defe6faab05f"},"vehicle_type_id":"4","last_reported":1742922550,"current_range_meters":9200,"station_id":"ce4bhr12rcd13ifvqhqg","pricing_plan_id":"cebpf4jnsgd1na2vs0mg"},{"bike_id":"38d754a0-504d-4057-8b1c-69b9f3c59f09","system_id":"levelo_inurba_marseille","lat":43.29939,"lon":5.36547,"is_reserved":false,"is_disabled":false,"rental_uris":{"android":"levelo://app?vid=38d754a0-504d-4057-8b1c-69b9f3c59f09","ios":"levelo://app?vid=38d754a0-504d-4057-8b1c-69b9f3c59f09"},"vehicle_type_id":"4","last_reported":1742922550,"current_range_meters":9200,"station_id":"ce4bgm92rcd13ifvqbr0","pricing_plan_id":"cebpf4jnsgd1na2vs0mg"},{"bike_id":"4c8c6174-794c-4225-aa51-8a7a304903b9","system_id":"levelo_inurba_marseille","lat":43.31782,"lon":5.39022,"is_reserved":false,"is_disabled":false,"rental_uris":{"android":"levelo://app?vid=4c8c6174-794c-4225-aa51-8a7a304903b9","ios":"levelo://app?vid=4c8c6174-794c-4225-aa51-8a7a304903b9"},"vehicle_type_id":"4","last_reported":1742922550,"current_range_meters":9600,"station_id":"ce4bhqp2rcd13ifvqhng","pricing_plan_id":"cebpf4jnsgd1na2vs0mg"},{"bike_id":"6120dca0-3e53-4b41-9f54-f2493ef65e0a","system_id":"levelo_inurba_marseille","lat":43.2762,"lon":5.36107,"is_reserved":false,"is_disabled":false,"rental_uris":{"android":"levelo://app?vid=6120dca0-3e53-4b41-9f54-f2493ef65e0a","ios":"levelo://app?vid=6120dca0-3e53-4b41-9f54-f2493ef65e0a"},"vehicle_type_id":"4","last_reported":1742922550,"current_range_meters":9600,"station_id":"ce4bgj92rcd13ifvqbe0","pricing_plan_id":"cebpf4jnsgd1na2vs0mg"},{"bike_id":"f294d69a-8637-46e9-95b8-3d82151d6376","system_id":"levelo_inurba_marseille","lat":43.27984,"lon":5.41685,"is_reserved":false,"is_disabled":true,"rental_uris":{"android":"levelo://app?vid=f294d69a-8637-46e9-95b8-3d82151d6376","ios":"levelo://app?vid=f294d69a-8637-46e9-95b8-3d82151d6376"},"vehicle_type_id":"4","last_reported":1742922550,"current_range_meters":9600,"station_id":"ce4bho12rcd13ifvqh1g","pricing_plan_id":"cebpf4jnsgd1na2vs0mg"},{"bike_id":"96c65f92-abce-457e-ad4d-9ebf101845e0","system_id":"levelo_inurba_marseille","lat":43.304594,"lon":5.379076,"is_reserved":false,"is_disabled":false,"rental_uris":{"android":"levelo://app?vid=96c65f92-abce-457e-ad4d-9ebf101845e0","ios":"levelo://app?vid=96c65f92-abce-457e-ad4d-9ebf101845e0"},"vehicle_type_id":"4","last_reported":1742922550,"current_range_meters":9600,"station_id":"ce4bgl12rcd13ifvqbo0","pricing_plan_id":"cebpf4jnsgd1na2vs0mg"},{"bike_id":"f5f4e51b-dfe9-4880-93b8-d8ae3d87c58c","system_id":"levelo_inurba_marseille","lat":43.23194,"lon":5.35554,"is_reserved":false,"is_disabled":false,"rental_uris":{"android":"levelo://app?vid=f5f4e51b-dfe9-4880-93b8-d8ae3d87c58c","ios":"levelo://app?vid=f5f4e51b-dfe9-4880-93b8-d8ae3d87c58c"},"vehicle_type_id":"4","last_reported":1742922550,"current_range_meters":9600,"station_id":"ce4bhu92rcd13ifvqi70","pricing_plan_id":"cebpf4jnsgd1na2vs0mg"},{"bike_id":"1677a9bf-6131-4454-b4cd-2021a37803bc","system_id":"levelo_inurba_marseille","lat":43.28355,"lon":5.38622,"is_reserved":false,"is_disabled":false,"rental_uris":{"android":"levelo://app?vid=1677a9bf-6131-4454-b4cd-2021a37803bc","ios":"levelo://app?vid=1677a9bf-6131-4454-b4cd-2021a37803bc"},"vehicle_type_id":"4","last_reported":1742922550,"current_range_meters":9600,"station_id":"ce4bh492rcd13ifvqdvg","pricing_plan_id":"cebpf4jnsgd1na2vs0mg"},{"bike_id":"2f3e2a92-1301-4a27-8eaa-7b0ea525530e","system_id":"levelo_inurba_marseille","lat":43.317021,"lon":5.437021,"is_reserved":false,"is_disabled":false,"rental_uris":{"android":"levelo://app?vid=2f3e2a92-1301-4a27-8eaa-7b0ea525530e","ios":"levelo://app?vid=2f3e2a92-1301-4a27-8eaa-7b0ea525530e"},"vehicle_type_id":"4","last_reported":1742922550,"current_range_meters":9600,"station_id":"ce4bhp92rcd13ifvqhcg","pricing_plan_id":"cebpf4jnsgd1na2vs0mg"},{"bike_id":"210bc988-92a3-402a-a9e9-bc4243b03eb7","system_id":"levelo_inurba_marseille","lat":43.31333,"lon":5.39692,"is_reserved":false,"is_disabled":false,"rental_uris":{"android":"levelo://app?vid=210bc988-92a3-402a-a9e9-bc4243b03eb7","ios":"levelo://app?vid=210bc988-92a3-402a-a9e9-bc4243b03eb7"},"vehicle_type_id":"4","last_reported":1742922550,"current_range_meters":9600,"station_id":"ce4bgvp2rcd13ifvqcu0","pricing_plan_id":"cebpf4jnsgd1na2vs0mg"},{"bike_id":"89e75ed9-7f20-48f7-ad37-e0033e47c633","system_id":"levelo_inurba_marseille","lat":43.2466,"lon":5.38883,"is_reserved":false,"is_disabled":false,"rental_uris":{"android":"levelo://app?vid=89e75ed9-7f20-48f7-ad37-e0033e47c633","ios":"levelo://app?vid=89e75ed9-7f20-48f7-ad37-e0033e47c633"},"vehicle_type_id":"4","last_reported":1742922550,"current_range_meters":9600,"station_id":"ce4bhg12rcd13ifvqf60","pricing_plan_id":"cebpf4jnsgd1na2vs0mg"},{"bike_id":"0050f6ce-e5dd-4c28-ba86-75e754686ee8","system_id":"levelo_inurba_marseille","lat":43.266801,"lon":5.382788,"is_reserved":false,"is_disabled":false,"rental_uris":{"android":"levelo://app?vid=0050f6ce-e5dd-4c28-ba86-75e754686ee8","ios":"levelo://app?vid=0050f6ce-e5dd-4c28-ba86-75e754686ee8"},"vehicle_type_id":"4","last_reported":1742922550,"current_range_meters":9600,"station_id":"ce4bhip2rcd13ifvqft0","pricing_plan_id":"cebpf4jnsgd1na2vs0mg"},{"bike_id":"d1f557f5-4ae6-4d1e-a0e5-bfb3f11e5af4","system_id":"levelo_inurba_marseille","lat":43.27382,"lon":5.362573,"is_reserved":false,"is_disabled":false,"rental_uris":{"android":"levelo://app?vid=d1f557f5-4ae6-4d1e-a0e5-bfb3f11e5af4","ios":"levelo://app?vid=d1f557f5-4ae6-4d1e-a0e5-bfb3f11e5af4"},"vehicle_type_id":"4","last_reported":1742922550,"current_range_meters":10000,"station_id":"ce4bhbh2rcd13ifvqeo0","pricing_plan_id":"cebpf4jnsgd1na2vs0mg"},{"bike_id":"0b4937e0-ff8b-4954-a8d2-ddc9b42c458c","system_id":"levelo_inurba_marseille","lat":43.30318,"lon":5.40439,"is_reserved":false,"is_disabled":false,"rental_uris":{"android":"levelo://app?vid=0b4937e0-ff8b-4954-a8d2-ddc9b42c458c","ios":"levelo://app?vid=0b4937e0-ff8b-4954-a8d2-ddc9b42c458c"},"vehicle_type_id":"4","last_reported":1742922550,"current_range_meters":10000,"station_id":"ce4bh012rcd13ifvqd10","pricing_plan_id":"cebpf4jnsgd1na2vs0mg"},{"bike_id":"bf21a13a-c973-4543-a138-e4a8f4458c26","system_id":"levelo_inurba_marseille","lat":43.24391,"lon":5.37051,"is_reserved":false,"is_disabled":false,"rental_uris":{"android":"levelo://app?vid=bf21a13a-c973-4543-a138-e4a8f4458c26","ios":"levelo://app?vid=bf21a13a-c973-4543-a138-e4a8f4458c26"},"vehicle_type_id":"4","last_reported":1742922550,"current_range_meters":10000,"station_id":"ce4bhhh2rcd13ifvqfk0","pricing_plan_id":"cebpf4jnsgd1na2vs0mg"},{"bike_id":"cf4ce45e-8192-4e2b-95a7-b8265b8cb49b","system_id":"levelo_inurba_marseille","lat":43.27174,"lon":5.40995,"is_reserved":false,"is_disabled":false,"rental_uris":{"android":"levelo://app?vid=cf4ce45e-8192-4e2b-95a7-b8265b8cb49b","ios":"levelo://app?vid=cf4ce45e-8192-4e2b-95a7-b8265b8cb49b"},"vehicle_type_id":"4","last_reported":1742922550,"current_range_meters":10000,"station_id":"ce4bhl12rcd13ifvqgf0","pricing_plan_id":"cebpf4jnsgd1na2vs0mg"},{"bike_id":"225cbe9d-4f8e-432e-b5e7-cd7e14da2d62","system_id":"levelo_inurba_marseille","lat":43.28164,"lon":5.42656,"is_reserved":false,"is_disabled":false,"rental_uris":{"android":"levelo://app?vid=225cbe9d-4f8e-432e-b5e7-cd7e14da2d62","ios":"levelo://app?vid=225cbe9d-4f8e-432e-b5e7-cd7e14da2d62"},"vehicle_type_id":"4","last_reported":1742922550,"current_range_meters":10000,"station_id":"ce4bhnh2rcd13ifvqgug","pricing_plan_id":"cebpf4jnsgd1na2vs0mg"},{"bike_id":"075b37b1-c4d6-41a4-8501-d20cb3974d38","system_id":"levelo_inurba_marseille","lat":43.27373,"lon":5.36241,"is_reserved":false,"is_disabled":false,"rental_uris":{"android":"levelo://app?vid=075b37b1-c4d6-41a4-8501-d20cb3974d38","ios":"levelo://app?vid=075b37b1-c4d6-41a4-8501-d20cb3974d38"},"vehicle_type_id":"4","last_reported":1742922550,"current_range_meters":10000,"station_id":"ce4bhbh2rcd13ifvqeo0","pricing_plan_id":"cebpf4jnsgd1na2vs0mg"},{"bike_id":"b4a61177-4b17-486e-bd7a-4a4337f5b721","system_id":"levelo_inurba_marseille","lat":43.28093,"lon":5.39736,"is_reserved":false,"is_disabled":false,"rental_uris":{"android":"levelo://app?vid=b4a61177-4b17-486e-bd7a-4a4337f5b721","ios":"levelo://app?vid=b4a61177-4b17-486e-bd7a-4a4337f5b721"},"vehicle_type_id":"4","last_reported":1742922550,"current_range_meters":10000,"station_id":"","pricing_plan_id":"cebpf4jnsgd1na2vs0mg"},{"bike_id":"5b263dcf-9764-4be3-8c35-e5afcb181e06","system_id":"levelo_inurba_marseille","lat":43.2927,"lon":5.38461,"is_reserved":false,"is_disabled":false,"rental_uris":{"android":"levelo://app?vid=5b263dcf-9764-4be3-8c35-e5afcb181e06","ios":"levelo://app?vid=5b263dcf-9764-4be3-8c35-e5afcb181e06"},"vehicle_type_id":"4","last_reported":1742922550,"current_range_meters":10000,"station_id":"ce4bh692rcd13ifvqea0","pricing_plan_id":"cebpf4jnsgd1na2vs0mg"},{"bike_id":"deef98e7-c523-495d-9119-b20f5aa70f51","system_id":"levelo_inurba_marseille","lat":43.298645,"lon":5.39734,"is_reserved":false,"is_disabled":false,"rental_uris":{"android":"levelo://app?vid=deef98e7-c523-495d-9119-b20f5aa70f51","ios":"levelo://app?vid=deef98e7-c523-495d-9119-b20f5aa70f51"},"vehicle_type_id":"4","last_reported":1742922550,"current_range_meters":10000,"station_id":"ce4bgjp2rcd13ifvqbh0","pricing_plan_id":"cebpf4jnsgd1na2vs0mg"},{"bike_id":"74406c35-ee35-437d-be26-2d7711378046","system_id":"levelo_inurba_marseille","lat":43.32354,"lon":5.36768,"is_reserved":false,"is_disabled":false,"rental_uris":{"android":"levelo://app?vid=74406c35-ee35-437d-be26-2d7711378046","ios":"levelo://app?vid=74406c35-ee35-437d-be26-2d7711378046"},"vehicle_type_id":"4","last_reported":1742922550,"current_range_meters":10000,"station_id":"ce4bhsh2rcd13ifvqi2g","pricing_plan_id":"cebpf4jnsgd1na2vs0mg"},{"bike_id":"20ecf6a4-e802-416e-9e5a-d064577691a7","system_id":"levelo_inurba_marseille","lat":43.30142,"lon":5.39869,"is_reserved":false,"is_disabled":false,"rental_uris":{"android":"levelo://app?vid=20ecf6a4-e802-416e-9e5a-d064577691a7","ios":"levelo://app?vid=20ecf6a4-e802-416e-9e5a-d064577691a7"},"vehicle_type_id":"4","last_reported":1742922550,"current_range_meters":10800,"station_id":"ce4bh0h2rcd13ifvqd40","pricing_plan_id":"cebpf4jnsgd1na2vs0mg"},{"bike_id":"c4539e63-f2ed-41c2-9228-af59e81577b2","system_id":"levelo_inurba_marseille","lat":43.305939,"lon":5.393677,"is_reserved":false,"is_disabled":false,"rental_uris":{"android":"levelo://app?vid=c4539e63-f2ed-41c2-9228-af59e81577b2","ios":"levelo://app?vid=c4539e63-f2ed-41c2-9228-af59e81577b2"},"vehicle_type_id":"4","last_reported":1742922550,"current_range_meters":10800,"station_id":"ce4bhap2rcd13ifvqek0","pricing_plan_id":"cebpf4jnsgd1na2vs0mg"},{"bike_id":"5aeb641c-8c67-430e-bd09-77076d22412d","system_id":"levelo_inurba_marseille","lat":43.31064,"lon":5.37498,"is_reserved":false,"is_disabled":false,"rental_uris":{"android":"levelo://app?vid=5aeb641c-8c67-430e-bd09-77076d22412d","ios":"levelo://app?vid=5aeb641c-8c67-430e-bd09-77076d22412d"},"vehicle_type_id":"4","last_reported":1742922550,"current_range_meters":10800,"station_id":"","pricing_plan_id":"cebpf4jnsgd1na2vs0mg"},{"bike_id":"6633349b-54ae-41b8-88d5-61ec5d012302","system_id":"levelo_inurba_marseille","lat":43.32107,"lon":5.3675,"is_reserved":false,"is_disabled":false,"rental_uris":{"android":"levelo://app?vid=6633349b-54ae-41b8-88d5-61ec5d012302","ios":"levelo://app?vid=6633349b-54ae-41b8-88d5-61ec5d012302"},"vehicle_type_id":"4","last_reported":1742922550,"current_range_meters":10800,"station_id":"ce4bhrh2rcd13ifvqhug","pricing_plan_id":"cebpf4jnsgd1na2vs0mg"},{"bike_id":"32587236-5e22-47d2-9fe2-6ecdcf34d69f","system_id":"levelo_inurba_marseille","lat":43.307069,"lon":5.405338,"is_reserved":false,"is_disabled":false,"rental_uris":{"android":"levelo://app?vid=32587236-5e22-47d2-9fe2-6ecdcf34d69f","ios":"levelo://app?vid=32587236-5e22-47d2-9fe2-6ecdcf34d69f"},"vehicle_type_id":"4","last_reported":1742922550,"current_range_meters":10800,"station_id":"ce4bhp92rcd13ifvqhcg","pricing_plan_id":"cebpf4jnsgd1na2vs0mg"},{"bike_id":"5afadd01-05af-47f2-b106-8c57133c5065","system_id":"levelo_inurba_marseille","lat":43.29968,"lon":5.38501,"is_reserved":false,"is_disabled":true,"rental_uris":{"android":"levelo://app?vid=5afadd01-05af-47f2-b106-8c57133c5065","ios":"levelo://app?vid=5afadd01-05af-47f2-b106-8c57133c5065"},"vehicle_type_id":"4","last_reported":1742922550,"current_range_meters":10800,"station_id":"ce4bgj92rcd13ifvqbd0","pricing_plan_id":"cebpf4jnsgd1na2vs0mg"},{"bike_id":"8583bcae-e817-4db7-ab92-448c595780ea","system_id":"levelo_inurba_marseille","lat":43.33009,"lon":5.39024,"is_reserved":false,"is_disabled":false,"rental_uris":{"android":"levelo://app?vid=8583bcae-e817-4db7-ab92-448c595780ea","ios":"levelo://app?vid=8583bcae-e817-4db7-ab92-448c595780ea"},"vehicle_type_id":"4","last_reported":1742922550,"current_range_meters":10800,"station_id":"ce4bhr92rcd13ifvqhrg","pricing_plan_id":"cebpf4jnsgd1na2vs0mg"},{"bike_id":"2d4e687a-9c18-4086-9d00-f57175bd6e2a","system_id":"levelo_inurba_marseille","lat":43.323679,"lon":5.388813,"is_reserved":false,"is_disabled":false,"rental_uris":{"android":"levelo://app?vid=2d4e687a-9c18-4086-9d00-f57175bd6e2a","ios":"levelo://app?vid=2d4e687a-9c18-4086-9d00-f57175bd6e2a"},"vehicle_type_id":"4","last_reported":1742922550,"current_range_meters":10800,"station_id":"ce4bhqp2rcd13ifvqhog","pricing_plan_id":"cebpf4jnsgd1na2vs0mg"},{"bike_id":"9be06423-81c8-4ddd-b088-f41d2ec17cfa","system_id":"levelo_inurba_marseille","lat":43.30125,"lon":5.39856,"is_reserved":false,"is_disabled":false,"rental_uris":{"android":"levelo://app?vid=9be06423-81c8-4ddd-b088-f41d2ec17cfa","ios":"levelo://app?vid=9be06423-81c8-4ddd-b088-f41d2ec17cfa"},"vehicle_type_id":"4","last_reported":1742922550,"current_range_meters":11200,"station_id":"ce4bh0h2rcd13ifvqd40","pricing_plan_id":"cebpf4jnsgd1na2vs0mg"},{"bike_id":"bfe19d09-2b15-4f69-833c-dd6acae1bc13","system_id":"levelo_inurba_marseille","lat":43.28269,"lon":5.35057,"is_reserved":false,"is_disabled":false,"rental_uris":{"android":"levelo://app?vid=bfe19d09-2b15-4f69-833c-dd6acae1bc13","ios":"levelo://app?vid=bfe19d09-2b15-4f69-833c-dd6acae1bc13"},"vehicle_type_id":"4","last_reported":1742922550,"current_range_meters":11200,"station_id":"ce4bhbp2rcd13ifvqerg","pricing_plan_id":"cebpf4jnsgd1na2vs0mg"},{"bike_id":"38351309-2dec-417c-a558-74c8bc991036","system_id":"levelo_inurba_marseille","lat":43.30823,"lon":5.40624,"is_reserved":false,"is_disabled":true,"rental_uris":{"android":"levelo://app?vid=38351309-2dec-417c-a558-74c8bc991036","ios":"levelo://app?vid=38351309-2dec-417c-a558-74c8bc991036"},"vehicle_type_id":"4","last_reported":1742922550,"current_range_meters":11200,"station_id":"","pricing_plan_id":"cebpf4jnsgd1na2vs0mg"},{"bike_id":"eb53d7d9-ef8e-412d-8f1c-0b566552dafb","system_id":"levelo_inurba_marseille","lat":43.25009,"lon":5.3893,"is_reserved":false,"is_disabled":false,"rental_uris":{"android":"levelo://app?vid=eb53d7d9-ef8e-412d-8f1c-0b566552dafb","ios":"levelo://app?vid=eb53d7d9-ef8e-412d-8f1c-0b566552dafb"},"vehicle_type_id":"4","last_reported":1742922550,"current_range_meters":11200,"station_id":"ce4bhgp2rcd13ifvqfd0","pricing_plan_id":"cebpf4jnsgd1na2vs0mg"},{"bike_id":"927a8a09-0c10-4a58-ba57-e161b38838e8","system_id":"levelo_inurba_marseille","lat":43.291915,"lon":5.358055,"is_reserved":false,"is_disabled":false,"rental_uris":{"android":"levelo://app?vid=927a8a09-0c10-4a58-ba57-e161b38838e8","ios":"levelo://app?vid=927a8a09-0c10-4a58-ba57-e161b38838e8"},"vehicle_type_id":"4","last_reported":1742922550,"current_range_meters":11200,"station_id":"ce4bgk12rcd13ifvqbi0","pricing_plan_id":"cebpf4jnsgd1na2vs0mg"},{"bike_id":"831348ed-89df-4568-bc5b-439f88ca451c","system_id":"levelo_inurba_marseille","lat":43.2558,"lon":5.38244,"is_reserved":false,"is_disabled":false,"rental_uris":{"android":"levelo://app?vid=831348ed-89df-4568-bc5b-439f88ca451c","ios":"levelo://app?vid=831348ed-89df-4568-bc5b-439f88ca451c"},"vehicle_type_id":"4","last_reported":1742922550,"current_range_meters":11600,"station_id":"ce4bhih2rcd13ifvqfs0","pricing_plan_id":"cebpf4jnsgd1na2vs0mg"},{"bike_id":"fa0bd830-b5e1-4d00-82d7-ed272fa92124","system_id":"levelo_inurba_marseille","lat":43.27365,"lon":5.36261,"is_reserved":false,"is_disabled":false,"rental_uris":{"android":"levelo://app?vid=fa0bd830-b5e1-4d00-82d7-ed272fa92124","ios":"levelo://app?vid=fa0bd830-b5e1-4d00-82d7-ed272fa92124"},"vehicle_type_id":"4","last_reported":1742922550,"current_range_meters":11600,"station_id":"ce4bhbh2rcd13ifvqeo0","pricing_plan_id":"cebpf4jnsgd1na2vs0mg"},{"bike_id":"21653d8a-5469-4704-b03f-1e1c8a6b5883","system_id":"levelo_inurba_marseille","lat":43.27815,"lon":5.4071,"is_reserved":false,"is_disabled":false,"rental_uris":{"android":"levelo://app?vid=21653d8a-5469-4704-b03f-1e1c8a6b5883","ios":"levelo://app?vid=21653d8a-5469-4704-b03f-1e1c8a6b5883"},"vehicle_type_id":"4","last_reported":1742922550,"current_range_meters":11600,"station_id":"ce4bhnh2rcd13ifvqgtg","pricing_plan_id":"cebpf4jnsgd1na2vs0mg"},{"bike_id":"3282b02b-0f41-475f-b4e9-fc9457b9d73d","system_id":"levelo_inurba_marseille","lat":43.2582,"lon":5.39431,"is_reserved":false,"is_disabled":false,"rental_uris":{"android":"levelo://app?vid=3282b02b-0f41-475f-b4e9-fc9457b9d73d","ios":"levelo://app?vid=3282b02b-0f41-475f-b4e9-fc9457b9d73d"},"vehicle_type_id":"4","last_reported":1742922550,"current_range_meters":11600,"station_id":"ce4bhip2rcd13ifvqft0","pricing_plan_id":"cebpf4jnsgd1na2vs0mg"},{"bike_id":"b6ee5c96-0cbb-4708-9c07-b6971332b092","system_id":"levelo_inurba_marseille","lat":43.29256,"lon":5.38439,"is_reserved":false,"is_disabled":false,"rental_uris":{"android":"levelo://app?vid=b6ee5c96-0cbb-4708-9c07-b6971332b092","ios":"levelo://app?vid=b6ee5c96-0cbb-4708-9c07-b6971332b092"},"vehicle_type_id":"4","last_reported":1742922550,"current_range_meters":11600,"station_id":"ce4bh692rcd13ifvqea0","pricing_plan_id":"cebpf4jnsgd1na2vs0mg"},{"bike_id":"605c60fb-51a1-46ee-9798-e2e3724c0d91","system_id":"levelo_inurba_marseille","lat":43.29901,"lon":5.43692,"is_reserved":false,"is_disabled":false,"rental_uris":{"android":"levelo://app?vid=605c60fb-51a1-46ee-9798-e2e3724c0d91","ios":"levelo://app?vid=605c60fb-51a1-46ee-9798-e2e3724c0d91"},"vehicle_type_id":"4","last_reported":1742922550,"current_range_meters":12000,"station_id":"ce4bhpp2rcd13ifvqhfg","pricing_plan_id":"cebpf4jnsgd1na2vs0mg"},{"bike_id":"a86f77b5-4f60-4373-9e14-1c36c13ffed9","system_id":"levelo_inurba_marseille","lat":43.25865,"lon":5.39919,"is_reserved":false,"is_disabled":false,"rental_uris":{"android":"levelo://app?vid=a86f77b5-4f60-4373-9e14-1c36c13ffed9","ios":"levelo://app?vid=a86f77b5-4f60-4373-9e14-1c36c13ffed9"},"vehicle_type_id":"4","last_reported":1742922550,"current_range_meters":12000,"station_id":"ce4bhl92rcd13ifvqghg","pricing_plan_id":"cebpf4jnsgd1na2vs0mg"},{"bike_id":"da986717-505b-4190-83e3-e61635337374","system_id":"levelo_inurba_marseille","lat":43.2919,"lon":5.39317,"is_reserved":false,"is_disabled":false,"rental_uris":{"android":"levelo://app?vid=da986717-505b-4190-83e3-e61635337374","ios":"levelo://app?vid=da986717-505b-4190-83e3-e61635337374"},"vehicle_type_id":"4","last_reported":1742922550,"current_range_meters":12000,"station_id":"ce4bh192rcd13ifvqdd0","pricing_plan_id":"cebpf4jnsgd1na2vs0mg"},{"bike_id":"c2e160bb-382f-4a86-a04a-0134c369e2f1","system_id":"levelo_inurba_marseille","lat":43.2439,"lon":5.3706,"is_reserved":false,"is_disabled":false,"rental_uris":{"android":"levelo://app?vid=c2e160bb-382f-4a86-a04a-0134c369e2f1","ios":"levelo://app?vid=c2e160bb-382f-4a86-a04a-0134c369e2f1"},"vehicle_type_id":"4","last_reported":1742922550,"current_range_meters":12000,"station_id":"ce4bhhh2rcd13ifvqfk0","pricing_plan_id":"cebpf4jnsgd1na2vs0mg"},{"bike_id":"b3534dde-8553-4de0-81d8-fe6069a79ace","system_id":"levelo_inurba_marseille","lat":43.28672,"lon":5.36354,"is_reserved":false,"is_disabled":false,"rental_uris":{"android":"levelo://app?vid=b3534dde-8553-4de0-81d8-fe6069a79ace","ios":"levelo://app?vid=b3534dde-8553-4de0-81d8-fe6069a79ace"},"vehicle_type_id":"4","last_reported":1742922550,"current_range_meters":12000,"station_id":"ce4bhah2rcd13ifvqej0","pricing_plan_id":"cebpf4jnsgd1na2vs0mg"},{"bike_id":"cf7d9e28-b440-4317-8961-f3aeddb77a46","system_id":"levelo_inurba_marseille","lat":43.261902,"lon":5.395321,"is_reserved":false,"is_disabled":false,"rental_uris":{"android":"levelo://app?vid=cf7d9e28-b440-4317-8961-f3aeddb77a46","ios":"levelo://app?vid=cf7d9e28-b440-4317-8961-f3aeddb77a46"},"vehicle_type_id":"4","last_reported":1742922550,"current_range_meters":12000,"station_id":"ce4bhi12rcd13ifvqfq0","pricing_plan_id":"cebpf4jnsgd1na2vs0mg"},{"bike_id":"b6b2292d-4fe0-46bd-b5e3-5d09e961fb66","system_id":"levelo_inurba_marseille","lat":43.29433,"lon":5.38638,"is_reserved":false,"is_disabled":false,"rental_uris":{"android":"levelo://app?vid=b6b2292d-4fe0-46bd-b5e3-5d09e961fb66","ios":"levelo://app?vid=b6b2292d-4fe0-46bd-b5e3-5d09e961fb66"},"vehicle_type_id":"4","last_reported":1742922550,"current_range_meters":12400,"station_id":"ce4bh2h2rcd13ifvqdh0","pricing_plan_id":"cebpf4jnsgd1na2vs0mg"},{"bike_id":"f08cafa8-0c6d-4297-8f8e-11cd211f2611","system_id":"levelo_inurba_marseille","lat":43.275663,"lon":5.3841,"is_reserved":false,"is_disabled":false,"rental_uris":{"android":"levelo://app?vid=f08cafa8-0c6d-4297-8f8e-11cd211f2611","ios":"levelo://app?vid=f08cafa8-0c6d-4297-8f8e-11cd211f2611"},"vehicle_type_id":"4","last_reported":1742922550,"current_range_meters":12400,"station_id":"ce4bhh92rcd13ifvqfi0","pricing_plan_id":"cebpf4jnsgd1na2vs0mg"},{"bike_id":"225b768b-ad48-4c44-9333-5e71c5f254c4","system_id":"levelo_inurba_marseille","lat":43.295064,"lon":5.375119,"is_reserved":false,"is_disabled":false,"rental_uris":{"android":"levelo://app?vid=225b768b-ad48-4c44-9333-5e71c5f254c4","ios":"levelo://app?vid=225b768b-ad48-4c44-9333-5e71c5f254c4"},"vehicle_type_id":"4","last_reported":1742922550,"current_range_meters":12400,"station_id":"ce4bgkp2rcd13ifvqbmg","pricing_plan_id":"cebpf4jnsgd1na2vs0mg"},{"bike_id":"8ec1c1a9-d9fd-44bb-a588-0115e8e80c3d","system_id":"levelo_inurba_marseille","lat":43.297105,"lon":5.37694,"is_reserved":false,"is_disabled":false,"rental_uris":{"android":"levelo://app?vid=8ec1c1a9-d9fd-44bb-a588-0115e8e80c3d","ios":"levelo://app?vid=8ec1c1a9-d9fd-44bb-a588-0115e8e80c3d"},"vehicle_type_id":"4","last_reported":1742922550,"current_range_meters":12400,"station_id":"ce4bgkp2rcd13ifvqbmg","pricing_plan_id":"cebpf4jnsgd1na2vs0mg"},{"bike_id":"2fac814a-43e0-4717-b417-c7b3d6c39782","system_id":"levelo_inurba_marseille","lat":43.31216,"lon":5.386486,"is_reserved":false,"is_disabled":false,"rental_uris":{"android":"levelo://app?vid=2fac814a-43e0-4717-b417-c7b3d6c39782","ios":"levelo://app?vid=2fac814a-43e0-4717-b417-c7b3d6c39782"},"vehicle_type_id":"4","last_reported":1742922550,"current_range_meters":12400,"station_id":"ce4bhr12rcd13ifvqhqg","pricing_plan_id":"cebpf4jnsgd1na2vs0mg"},{"bike_id":"87807891-619d-45ef-9bc3-f89425f9a8a8","system_id":"levelo_inurba_marseille","lat":43.27992,"lon":5.41663,"is_reserved":false,"is_disabled":true,"rental_uris":{"android":"levelo://app?vid=87807891-619d-45ef-9bc3-f89425f9a8a8","ios":"levelo://app?vid=87807891-619d-45ef-9bc3-f89425f9a8a8"},"vehicle_type_id":"4","last_reported":1742922550,"current_range_meters":12800,"station_id":"ce4bho12rcd13ifvqh1g","pricing_plan_id":"cebpf4jnsgd1na2vs0mg"},{"bike_id":"840dfebe-b8df-4274-a403-177511a4881b","system_id":"levelo_inurba_marseille","lat":43.27622,"lon":5.36109,"is_reserved":false,"is_disabled":false,"rental_uris":{"android":"levelo://app?vid=840dfebe-b8df-4274-a403-177511a4881b","ios":"levelo://app?vid=840dfebe-b8df-4274-a403-177511a4881b"},"vehicle_type_id":"4","last_reported":1742922550,"current_range_meters":12800,"station_id":"ce4bgj92rcd13ifvqbe0","pricing_plan_id":"cebpf4jnsgd1na2vs0mg"},{"bike_id":"4e4cc6ff-cdf8-40de-b0b0-bee695a687e0","system_id":"levelo_inurba_marseille","lat":43.26196,"lon":5.37457,"is_reserved":false,"is_disabled":false,"rental_uris":{"android":"levelo://app?vid=4e4cc6ff-cdf8-40de-b0b0-bee695a687e0","ios":"levelo://app?vid=4e4cc6ff-cdf8-40de-b0b0-bee695a687e0"},"vehicle_type_id":"4","last_reported":1742922550,"current_range_meters":12800,"station_id":"ce4bhgp2rcd13ifvqfc0","pricing_plan_id":"cebpf4jnsgd1na2vs0mg"},{"bike_id":"1d8a3249-9200-4972-bc96-75314e87b237","system_id":"levelo_inurba_marseille","lat":43.30612,"lon":5.36703,"is_reserved":false,"is_disabled":false,"rental_uris":{"android":"levelo://app?vid=1d8a3249-9200-4972-bc96-75314e87b237","ios":"levelo://app?vid=1d8a3249-9200-4972-bc96-75314e87b237"},"vehicle_type_id":"4","last_reported":1742922550,"current_range_meters":12800,"station_id":"","pricing_plan_id":"cebpf4jnsgd1na2vs0mg"},{"bike_id":"c4b88c2e-98e3-4499-8e1f-4f4d33a56e5a","system_id":"levelo_inurba_marseille","lat":43.28403,"lon":5.34979,"is_reserved":false,"is_disabled":true,"rental_uris":{"android":"levelo://app?vid=c4b88c2e-98e3-4499-8e1f-4f4d33a56e5a","ios":"levelo://app?vid=c4b88c2e-98e3-4499-8e1f-4f4d33a56e5a"},"vehicle_type_id":"4","last_reported":1742922550,"current_range_meters":12800,"station_id":"ce4bhbh2rcd13ifvqepg","pricing_plan_id":"cebpf4jnsgd1na2vs0mg"},{"bike_id":"a131070a-e779-4800-86bd-eec8ea7cf525","system_id":"levelo_inurba_marseille","lat":43.28104,"lon":5.37835,"is_reserved":false,"is_disabled":false,"rental_uris":{"android":"levelo://app?vid=a131070a-e779-4800-86bd-eec8ea7cf525","ios":"levelo://app?vid=a131070a-e779-4800-86bd-eec8ea7cf525"},"vehicle_type_id":"4","last_reported":1742922550,"current_range_meters":13600,"station_id":"ce4bha12rcd13ifvqee0","pricing_plan_id":"cebpf4jnsgd1na2vs0mg"},{"bike_id":"0c9cada4-2764-4013-a528-15089818cb84","system_id":"levelo_inurba_marseille","lat":43.27749,"lon":5.41162,"is_reserved":false,"is_disabled":false,"rental_uris":{"android":"levelo://app?vid=0c9cada4-2764-4013-a528-15089818cb84","ios":"levelo://app?vid=0c9cada4-2764-4013-a528-15089818cb84"},"vehicle_type_id":"4","last_reported":1742922550,"current_range_meters":13600,"station_id":"","pricing_plan_id":"cebpf4jnsgd1na2vs0mg"},{"bike_id":"da43d894-069e-486e-a738-14255c3635ad","system_id":"levelo_inurba_marseille","lat":43.26069,"lon":5.39418,"is_reserved":false,"is_disabled":false,"rental_uris":{"android":"levelo://app?vid=da43d894-069e-486e-a738-14255c3635ad","ios":"levelo://app?vid=da43d894-069e-486e-a738-14255c3635ad"},"vehicle_type_id":"4","last_reported":1742922550,"current_range_meters":13600,"station_id":"ce4bhh92rcd13ifvqfj0","pricing_plan_id":"cebpf4jnsgd1na2vs0mg"},{"bike_id":"50faca42-3d7d-4467-9d1b-7c54a605ddfd","system_id":"levelo_inurba_marseille","lat":43.28845,"lon":5.39315,"is_reserved":false,"is_disabled":false,"rental_uris":{"android":"levelo://app?vid=50faca42-3d7d-4467-9d1b-7c54a605ddfd","ios":"levelo://app?vid=50faca42-3d7d-4467-9d1b-7c54a605ddfd"},"vehicle_type_id":"4","last_reported":1742922550,"current_range_meters":13600,"station_id":"ce4bh2p2rcd13ifvqdi0","pricing_plan_id":"cebpf4jnsgd1na2vs0mg"},{"bike_id":"21fc8098-ffc3-4326-8792-b38d14029b6d","system_id":"levelo_inurba_marseille","lat":43.304217,"lon":5.388967,"is_reserved":false,"is_disabled":false,"rental_uris":{"android":"levelo://app?vid=21fc8098-ffc3-4326-8792-b38d14029b6d","ios":"levelo://app?vid=21fc8098-ffc3-4326-8792-b38d14029b6d"},"vehicle_type_id":"4","last_reported":1742922550,"current_range_meters":13600,"station_id":"ce4bh3h2rcd13ifvqdo0","pricing_plan_id":"cebpf4jnsgd1na2vs0mg"},{"bike_id":"dbc796dd-5684-4871-ab10-e1bc72c9c718","system_id":"levelo_inurba_marseille","lat":43.295264,"lon":5.387677,"is_reserved":false,"is_disabled":false,"rental_uris":{"android":"levelo://app?vid=dbc796dd-5684-4871-ab10-e1bc72c9c718","ios":"levelo://app?vid=dbc796dd-5684-4871-ab10-e1bc72c9c718"},"vehicle_type_id":"4","last_reported":1742922550,"current_range_meters":13600,"station_id":"ce4bh2h2rcd13ifvqdh0","pricing_plan_id":"cebpf4jnsgd1na2vs0mg"},{"bike_id":"6b71971b-a4c4-49f2-b74b-9db2ee9fc312","system_id":"levelo_inurba_marseille","lat":43.31718,"lon":5.4371,"is_reserved":false,"is_disabled":false,"rental_uris":{"android":"levelo://app?vid=6b71971b-a4c4-49f2-b74b-9db2ee9fc312","ios":"levelo://app?vid=6b71971b-a4c4-49f2-b74b-9db2ee9fc312"},"vehicle_type_id":"4","last_reported":1742922550,"current_range_meters":14000,"station_id":"ce4bhp92rcd13ifvqhcg","pricing_plan_id":"cebpf4jnsgd1na2vs0mg"},{"bike_id":"84a7a785-5392-42bc-8088-fb903bcc7f5c","system_id":"levelo_inurba_marseille","lat":43.230731,"lon":5.354894,"is_reserved":false,"is_disabled":false,"rental_uris":{"android":"levelo://app?vid=84a7a785-5392-42bc-8088-fb903bcc7f5c","ios":"levelo://app?vid=84a7a785-5392-42bc-8088-fb903bcc7f5c"},"vehicle_type_id":"4","last_reported":1742922550,"current_range_meters":14000,"station_id":"cpo3342slgdg3j2ifvpg","pricing_plan_id":"cebpf4jnsgd1na2vs0mg"},{"bike_id":"38c04f9f-94e9-4f7c-a4b9-edca2d0f1163","system_id":"levelo_inurba_marseille","lat":43.27376,"lon":5.36258,"is_reserved":false,"is_disabled":false,"rental_uris":{"android":"levelo://app?vid=38c04f9f-94e9-4f7c-a4b9-edca2d0f1163","ios":"levelo://app?vid=38c04f9f-94e9-4f7c-a4b9-edca2d0f1163"},"vehicle_type_id":"4","last_reported":1742922550,"current_range_meters":14000,"station_id":"ce4bhbh2rcd13ifvqeo0","pricing_plan_id":"cebpf4jnsgd1na2vs0mg"},{"bike_id":"7fdecdeb-36cb-4cf4-9c98-d803f5809435","system_id":"levelo_inurba_marseille","lat":43.2615,"lon":5.39855,"is_reserved":false,"is_disabled":false,"rental_uris":{"android":"levelo://app?vid=7fdecdeb-36cb-4cf4-9c98-d803f5809435","ios":"levelo://app?vid=7fdecdeb-36cb-4cf4-9c98-d803f5809435"},"vehicle_type_id":"4","last_reported":1742922550,"current_range_meters":14000,"station_id":"","pricing_plan_id":"cebpf4jnsgd1na2vs0mg"},{"bike_id":"974f5876-effd-44d0-911c-76ea7a107a8c","system_id":"levelo_inurba_marseille","lat":43.33312,"lon":5.35864,"is_reserved":false,"is_disabled":false,"rental_uris":{"android":"levelo://app?vid=974f5876-effd-44d0-911c-76ea7a107a8c","ios":"levelo://app?vid=974f5876-effd-44d0-911c-76ea7a107a8c"},"vehicle_type_id":"4","last_reported":1742922550,"current_range_meters":14000,"station_id":"","pricing_plan_id":"cebpf4jnsgd1na2vs0mg"},{"bike_id":"e43a2d0c-c744-4743-a6e3-2ffd99145e61","system_id":"levelo_inurba_marseille","lat":43.28724,"lon":5.36095,"is_reserved":false,"is_disabled":false,"rental_uris":{"android":"levelo://app?vid=e43a2d0c-c744-4743-a6e3-2ffd99145e61","ios":"levelo://app?vid=e43a2d0c-c744-4743-a6e3-2ffd99145e61"},"vehicle_type_id":"4","last_reported":1742922550,"current_range_meters":14000,"station_id":"cki0cbj6b192h4jlfktg","pricing_plan_id":"cebpf4jnsgd1na2vs0mg"},{"bike_id":"fa14eb3a-1fdb-4bc8-8092-af468e8ded60","system_id":"levelo_inurba_marseille","lat":43.27993,"lon":5.40029,"is_reserved":false,"is_disabled":false,"rental_uris":{"android":"levelo://app?vid=fa14eb3a-1fdb-4bc8-8092-af468e8ded60","ios":"levelo://app?vid=fa14eb3a-1fdb-4bc8-8092-af468e8ded60"},"vehicle_type_id":"4","last_reported":1742922550,"current_range_meters":14000,"station_id":"ce4bho92rcd13ifvqh4g","pricing_plan_id":"cebpf4jnsgd1na2vs0mg"},{"bike_id":"71c73a8f-de6c-436e-b362-234f36502086","system_id":"levelo_inurba_marseille","lat":43.286427,"lon":5.363344,"is_reserved":false,"is_disabled":false,"rental_uris":{"android":"levelo://app?vid=71c73a8f-de6c-436e-b362-234f36502086","ios":"levelo://app?vid=71c73a8f-de6c-436e-b362-234f36502086"},"vehicle_type_id":"4","last_reported":1742922550,"current_range_meters":14000,"station_id":"ce4bgop2rcd13ifvqc1g","pricing_plan_id":"cebpf4jnsgd1na2vs0mg"},{"bike_id":"8ba11d0e-dc45-4bc3-a15d-ccf081ccb3e7","system_id":"levelo_inurba_marseille","lat":43.23063,"lon":5.35489,"is_reserved":false,"is_disabled":false,"rental_uris":{"android":"levelo://app?vid=8ba11d0e-dc45-4bc3-a15d-ccf081ccb3e7","ios":"levelo://app?vid=8ba11d0e-dc45-4bc3-a15d-ccf081ccb3e7"},"vehicle_type_id":"4","last_reported":1742922550,"current_range_meters":14400,"station_id":"cpo3342slgdg3j2ifvpg","pricing_plan_id":"cebpf4jnsgd1na2vs0mg"},{"bike_id":"4f34b68c-b74e-4991-8fc4-1186ea6435c6","system_id":"levelo_inurba_marseille","lat":43.29575,"lon":5.39971,"is_reserved":false,"is_disabled":false,"rental_uris":{"android":"levelo://app?vid=4f34b68c-b74e-4991-8fc4-1186ea6435c6","ios":"levelo://app?vid=4f34b68c-b74e-4991-8fc4-1186ea6435c6"},"vehicle_type_id":"4","last_reported":1742922550,"current_range_meters":14400,"station_id":"ce4bh312rcd13ifvqdj0","pricing_plan_id":"cebpf4jnsgd1na2vs0mg"},{"bike_id":"c181de2a-fe8c-49c2-ad84-7354df51d723","system_id":"levelo_inurba_marseille","lat":43.29789,"lon":5.39354,"is_reserved":false,"is_disabled":false,"rental_uris":{"android":"levelo://app?vid=c181de2a-fe8c-49c2-ad84-7354df51d723","ios":"levelo://app?vid=c181de2a-fe8c-49c2-ad84-7354df51d723"},"vehicle_type_id":"4","last_reported":1742922550,"current_range_meters":14400,"station_id":"chh1huq6cuj3fo74tm60","pricing_plan_id":"cebpf4jnsgd1na2vs0mg"},{"bike_id":"bf8f55a7-4069-4432-907f-31ace42d512b","system_id":"levelo_inurba_marseille","lat":43.3014,"lon":5.39867,"is_reserved":false,"is_disabled":false,"rental_uris":{"android":"levelo://app?vid=bf8f55a7-4069-4432-907f-31ace42d512b","ios":"levelo://app?vid=bf8f55a7-4069-4432-907f-31ace42d512b"},"vehicle_type_id":"4","last_reported":1742922550,"current_range_meters":14400,"station_id":"ce4bh0h2rcd13ifvqd40","pricing_plan_id":"cebpf4jnsgd1na2vs0mg"},{"bike_id":"a818961d-5f1c-4a77-8216-5fd27d2d139f","system_id":"levelo_inurba_marseille","lat":43.313385,"lon":5.367128,"is_reserved":false,"is_disabled":false,"rental_uris":{"android":"levelo://app?vid=a818961d-5f1c-4a77-8216-5fd27d2d139f","ios":"levelo://app?vid=a818961d-5f1c-4a77-8216-5fd27d2d139f"},"vehicle_type_id":"4","last_reported":1742922550,"current_range_meters":14400,"station_id":"","pricing_plan_id":"cebpf4jnsgd1na2vs0mg"},{"bike_id":"efa89092-781f-497a-81d0-b7cb57bfcb23","system_id":"levelo_inurba_marseille","lat":43.27178,"lon":5.40994,"is_reserved":false,"is_disabled":false,"rental_uris":{"android":"levelo://app?vid=efa89092-781f-497a-81d0-b7cb57bfcb23","ios":"levelo://app?vid=efa89092-781f-497a-81d0-b7cb57bfcb23"},"vehicle_type_id":"4","last_reported":1742922550,"current_range_meters":14800,"station_id":"ce4bhl12rcd13ifvqgf0","pricing_plan_id":"cebpf4jnsgd1na2vs0mg"},{"bike_id":"8e1b69fe-38a9-404e-9145-427fd10d244c","system_id":"levelo_inurba_marseille","lat":43.28446,"lon":5.34984,"is_reserved":false,"is_disabled":true,"rental_uris":{"android":"levelo://app?vid=8e1b69fe-38a9-404e-9145-427fd10d244c","ios":"levelo://app?vid=8e1b69fe-38a9-404e-9145-427fd10d244c"},"vehicle_type_id":"4","last_reported":1742922550,"current_range_meters":14800,"station_id":"ce4bhbh2rcd13ifvqepg","pricing_plan_id":"cebpf4jnsgd1na2vs0mg"},{"bike_id":"2b3f0385-7bef-41e6-b807-cebd049fb58d","system_id":"levelo_inurba_marseille","lat":43.24181,"lon":5.39733,"is_reserved":false,"is_disabled":false,"rental_uris":{"android":"levelo://app?vid=2b3f0385-7bef-41e6-b807-cebd049fb58d","ios":"levelo://app?vid=2b3f0385-7bef-41e6-b807-cebd049fb58d"},"vehicle_type_id":"4","last_reported":1742922550,"current_range_meters":14800,"station_id":"ce4bhn12rcd13ifvqgpg","pricing_plan_id":"cebpf4jnsgd1na2vs0mg"},{"bike_id":"82219511-549c-4b63-baf5-ff8405cca9d7","system_id":"levelo_inurba_marseille","lat":43.317,"lon":5.43717,"is_reserved":false,"is_disabled":false,"rental_uris":{"android":"levelo://app?vid=82219511-549c-4b63-baf5-ff8405cca9d7","ios":"levelo://app?vid=82219511-549c-4b63-baf5-ff8405cca9d7"},"vehicle_type_id":"4","last_reported":1742922550,"current_range_meters":14800,"station_id":"ce4bhp92rcd13ifvqhcg","pricing_plan_id":"cebpf4jnsgd1na2vs0mg"},{"bike_id":"f763deef-c0a0-440b-ae5d-eb5da4ca0e1e","system_id":"levelo_inurba_marseille","lat":43.24167,"lon":5.36396,"is_reserved":false,"is_disabled":false,"rental_uris":{"android":"levelo://app?vid=f763deef-c0a0-440b-ae5d-eb5da4ca0e1e","ios":"levelo://app?vid=f763deef-c0a0-440b-ae5d-eb5da4ca0e1e"},"vehicle_type_id":"4","last_reported":1742922550,"current_range_meters":14800,"station_id":"cpo36qri1sfpv3e86is0","pricing_plan_id":"cebpf4jnsgd1na2vs0mg"},{"bike_id":"553164b3-168b-4299-844d-7c974961fc08","system_id":"levelo_inurba_marseille","lat":43.28429,"lon":5.35002,"is_reserved":false,"is_disabled":false,"rental_uris":{"android":"levelo://app?vid=553164b3-168b-4299-844d-7c974961fc08","ios":"levelo://app?vid=553164b3-168b-4299-844d-7c974961fc08"},"vehicle_type_id":"4","last_reported":1742922550,"current_range_meters":14800,"station_id":"ce4bhbh2rcd13ifvqepg","pricing_plan_id":"cebpf4jnsgd1na2vs0mg"},{"bike_id":"21c933a2-382d-4bdb-9440-8cd516eba49c","system_id":"levelo_inurba_marseille","lat":43.29527,"lon":5.39037,"is_reserved":false,"is_disabled":false,"rental_uris":{"android":"levelo://app?vid=21c933a2-382d-4bdb-9440-8cd516eba49c","ios":"levelo://app?vid=21c933a2-382d-4bdb-9440-8cd516eba49c"},"vehicle_type_id":"4","last_reported":1742922550,"current_range_meters":14800,"station_id":"ce4bh3p2rcd13ifvqdp0","pricing_plan_id":"cebpf4jnsgd1na2vs0mg"},{"bike_id":"ca82de34-7849-442c-aac3-b1fa6b7dcc15","system_id":"levelo_inurba_marseille","lat":43.30426,"lon":5.38888,"is_reserved":false,"is_disabled":false,"rental_uris":{"android":"levelo://app?vid=ca82de34-7849-442c-aac3-b1fa6b7dcc15","ios":"levelo://app?vid=ca82de34-7849-442c-aac3-b1fa6b7dcc15"},"vehicle_type_id":"4","last_reported":1742922550,"current_range_meters":14800,"station_id":"ce4bgk12rcd13ifvqbi0","pricing_plan_id":"cebpf4jnsgd1na2vs0mg"},{"bike_id":"afd4b0d5-d577-4eba-b53a-f8d07b5bba2a","system_id":"levelo_inurba_marseille","lat":43.29439,"lon":5.39757,"is_reserved":false,"is_disabled":false,"rental_uris":{"android":"levelo://app?vid=afd4b0d5-d577-4eba-b53a-f8d07b5bba2a","ios":"levelo://app?vid=afd4b0d5-d577-4eba-b53a-f8d07b5bba2a"},"vehicle_type_id":"4","last_reported":1742922550,"current_range_meters":15200,"station_id":"ce4bh3h2rcd13ifvqdo0","pricing_plan_id":"cebpf4jnsgd1na2vs0mg"},{"bike_id":"cee71b47-e88d-4d1c-9468-993342e12684","system_id":"levelo_inurba_marseille","lat":43.29028,"lon":5.38647,"is_reserved":false,"is_disabled":false,"rental_uris":{"android":"levelo://app?vid=cee71b47-e88d-4d1c-9468-993342e12684","ios":"levelo://app?vid=cee71b47-e88d-4d1c-9468-993342e12684"},"vehicle_type_id":"4","last_reported":1742922550,"current_range_meters":15200,"station_id":"ce4bh4p2rcd13ifvqe0g","pricing_plan_id":"cebpf4jnsgd1na2vs0mg"},{"bike_id":"31c7cf9e-8b1d-45a7-a1b8-254c902bbbb5","system_id":"levelo_inurba_marseille","lat":43.23958,"lon":5.36648,"is_reserved":false,"is_disabled":false,"rental_uris":{"android":"levelo://app?vid=31c7cf9e-8b1d-45a7-a1b8-254c902bbbb5","ios":"levelo://app?vid=31c7cf9e-8b1d-45a7-a1b8-254c902bbbb5"},"vehicle_type_id":"4","last_reported":1742922550,"current_range_meters":15200,"station_id":"ce4bhi12rcd13ifvqfp0","pricing_plan_id":"cebpf4jnsgd1na2vs0mg"},{"bike_id":"28ac224e-123e-4987-bccf-ab1d8db88390","system_id":"levelo_inurba_marseille","lat":43.27072,"lon":5.42279,"is_reserved":false,"is_disabled":false,"rental_uris":{"android":"levelo://app?vid=28ac224e-123e-4987-bccf-ab1d8db88390","ios":"levelo://app?vid=28ac224e-123e-4987-bccf-ab1d8db88390"},"vehicle_type_id":"4","last_reported":1742922550,"current_range_meters":15200,"station_id":"ce4bhk92rcd13ifvqgb0","pricing_plan_id":"cebpf4jnsgd1na2vs0mg"},{"bike_id":"565a3919-9392-4936-a307-13e27251613e","system_id":"levelo_inurba_marseille","lat":43.26059,"lon":5.39397,"is_reserved":false,"is_disabled":false,"rental_uris":{"android":"levelo://app?vid=565a3919-9392-4936-a307-13e27251613e","ios":"levelo://app?vid=565a3919-9392-4936-a307-13e27251613e"},"vehicle_type_id":"4","last_reported":1742922550,"current_range_meters":15200,"station_id":"ce4bhh92rcd13ifvqfj0","pricing_plan_id":"cebpf4jnsgd1na2vs0mg"},{"bike_id":"336604d6-ec91-482b-ad5a-cb8c01e81c5d","system_id":"levelo_inurba_marseille","lat":43.2319,"lon":5.35556,"is_reserved":false,"is_disabled":false,"rental_uris":{"android":"levelo://app?vid=336604d6-ec91-482b-ad5a-cb8c01e81c5d","ios":"levelo://app?vid=336604d6-ec91-482b-ad5a-cb8c01e81c5d"},"vehicle_type_id":"4","last_reported":1742922550,"current_range_meters":15200,"station_id":"ce4bhu92rcd13ifvqi70","pricing_plan_id":"cebpf4jnsgd1na2vs0mg"},{"bike_id":"52793577-8d59-4388-bc9a-d81f8bc1b0fa","system_id":"levelo_inurba_marseille","lat":43.32483,"lon":5.36589,"is_reserved":false,"is_disabled":true,"rental_uris":{"android":"levelo://app?vid=52793577-8d59-4388-bc9a-d81f8bc1b0fa","ios":"levelo://app?vid=52793577-8d59-4388-bc9a-d81f8bc1b0fa"},"vehicle_type_id":"4","last_reported":1742922550,"current_range_meters":15200,"station_id":"ce4bhs12rcd13ifvqhvg","pricing_plan_id":"cebpf4jnsgd1na2vs0mg"},{"bike_id":"d1f0bfd4-c951-4e4e-b8ea-91fef0511b94","system_id":"levelo_inurba_marseille","lat":43.32348,"lon":5.36755,"is_reserved":false,"is_disabled":false,"rental_uris":{"android":"levelo://app?vid=d1f0bfd4-c951-4e4e-b8ea-91fef0511b94","ios":"levelo://app?vid=d1f0bfd4-c951-4e4e-b8ea-91fef0511b94"},"vehicle_type_id":"4","last_reported":1742922550,"current_range_meters":16000,"station_id":"ce4bhsh2rcd13ifvqi2g","pricing_plan_id":"cebpf4jnsgd1na2vs0mg"},{"bike_id":"a5233111-0e19-432d-a2d8-601355e45349","system_id":"levelo_inurba_marseille","lat":43.28423,"lon":5.3498,"is_reserved":false,"is_disabled":false,"rental_uris":{"android":"levelo://app?vid=a5233111-0e19-432d-a2d8-601355e45349","ios":"levelo://app?vid=a5233111-0e19-432d-a2d8-601355e45349"},"vehicle_type_id":"4","last_reported":1742922550,"current_range_meters":16000,"station_id":"ce4bhbh2rcd13ifvqepg","pricing_plan_id":"cebpf4jnsgd1na2vs0mg"},