{"last_updated":1737983763,"ttl":60,"version":"2.2","data":{"bikes":[{"bike_id":"f0c9807d-2dd7-4276-94c3-507365f414a0","system_id":"levelo_inurba_marseille","lat":43.29602,"lon":5.37724,"is_reserved":false,"is_disabled":true,"rental_uris":{"android":"levelo://app?vid=f0c9807d-2dd7-4276-94c3-507365f414a0","ios":"levelo://app?vid=f0c9807d-2dd7-4276-94c3-507365f414a0"},"vehicle_type_id":"4","last_reported":1737983763,"current_range_meters":36800,"station_id":"ce4bgi92rcd13ifvqb90","pricing_plan_id":"cebpf4jnsgd1na2vs0mg"},{"bike_id":"cb675d55-e5c8-4982-aca6-2a4540f10435","system_id":"levelo_inurba_marseille","lat":43.29848,"lon":5.36264,"is_reserved":false,"is_disabled":false,"rental_uris":{"android":"levelo://app?vid=cb675d55-e5c8-4982-aca6-2a4540f10435","ios":"levelo://app?vid=cb675d55-e5c8-4982-aca6-2a4540f10435"},"vehicle_type_id":"4","last_reported":1737983763,"current_range_meters":12800,"station_id":"ce4bgpp2rcd13ifvqc3g","pricing_plan_id":"cebpf4jnsgd1na2vs0mg"},{"bike_id":"d04636c5-0ea2-4c95-a7e1-8fca9023ee75","system_id":"levelo_inurba_marseille","lat":43.32276,"lon":5.38272,"is_reserved":false,"is_disabled":false,"rental_uris":{"android":"levelo://app?vid=d04636c5-0ea2-4c95-a7e1-8fca9023ee75","ios":"levelo://app?vid=d04636c5-0ea2-4c95-a7e1-8fca9023ee75"},"vehicle_type_id":"4","last_reported":1737983763,"current_range_meters":24800,"station_id":"ce4bhr12rcd13ifvqhqg","pricing_plan_id":"cebpf4jnsgd1na2vs0mg"},{"bike_id":"1b566214-4d36-4645-9d7d-28bb6feccfe1","system_id":"levelo_inurba_marseille","lat":43.29107,"lon":5.38137,"is_reserved":false,"is_disabled":false,"rental_uris":{"android":"levelo://app?vid=1b566214-4d36-4645-9d7d-28bb6feccfe1","ios":"levelo://app?vid=1b566214-4d36-4645-9d7d-28bb6feccfe1"},"vehicle_type_id":"4","last_reported":1737983763,"current_range_meters":36400,"station_id":"ce4bh512rcd13ifvqe2g","pricing_plan_id":"cebpf4jnsgd1na2vs0mg"},{"bike_id":"22fdda07-29f7-4097-aa7c-457566d3caba","system_id":"levelo_inurba_marseille","lat":43.25078,"lon":5.39551,"is_reserved":false,"is_disabled":false,"rental_uris":{"android":"levelo://app?vid=22fdda07-29f7-4097-aa7c-457566d3caba","ios":"levelo://app?vid=22fdda07-29f7-4097-aa7c-457566d3caba"},"vehicle_type_id":"4","last_reported":1737983763,"current_range_meters":22400,"station_id":"ce4bhm12rcd13ifvqgkg","pricing_plan_id":"cebpf4jnsgd1na2vs0mg"},{"bike_id":"f9ea3b7d-3e08-41ce-9f28-17237eb201ee","system_id":"levelo_inurba_marseille","lat":43.27505,"lon":5.42464,"is_reserved":false,"is_disabled":true,"rental_uris":{"android":"levelo://app?vid=f9ea3b7d-3e08-41ce-9f28-17237eb201ee","ios":"levelo://app?vid=f9ea3b7d-3e08-41ce-9f28-17237eb201ee"},"vehicle_type_id":"4","last_reported":1737983763,"current_range_meters":0,"station_id":"ce4bhn92rcd13ifvqgrg","pricing_plan_id":"cebpf4jnsgd1na2vs0mg"},{"bike_id":"d999704f-e81a-492f-bc4f-4f7e2ff7e922","system_id":"levelo_inurba_marseille","lat":43.25738,"lon":5.41105,"is_reserved":false,"is_disabled":false,"rental_uris":{"android":"levelo://app?vid=d999704f-e81a-492f-bc4f-4f7e2ff7e922","ios":"levelo://app?vid=d999704f-e81a-492f-bc4f-4f7e2ff7e922"},"vehicle_type_id":"4","last_reported":1737983763,"current_range_meters":38800,"station_id":"ce4bhkp2rcd13ifvqgd0","pricing_plan_id":"cebpf4jnsgd1na2vs0mg"},{"bike_id":"58d9e3df-28a3-4560-b2cd-4d33fefbd544","system_id":"levelo_inurba_marseille","lat":43.28338,"lon":5.38111,"is_reserved":false,"is_disabled":false,"rental_uris":{"android":"levelo://app?vid=58d9e3df-28a3-4560-b2cd-4d33fefbd544","ios":"levelo://app?vid=58d9e3df-28a3-4560-b2cd-4d33fefbd544"},"vehicle_type_id":"4","last_reported":1737983763,"current_range_meters":11600,"station_id":"ce4bh412rcd13ifvqdr0","pricing_plan_id":"cebpf4jnsgd1na2vs0mg"},{"bike_id":"de0a0bda-e2f1-46ed-a902-ec0962b2f08e","system_id":"levelo_inurba_marseille","lat":43.30543,"lon":5.36527,"is_reserved":false,"is_disabled":false,"rental_uris":{"android":"levelo://app?vid=de0a0bda-e2f1-46ed-a902-ec0962b2f08e","ios":"levelo://app?vid=de0a0bda-e2f1-46ed-a902-ec0962b2f08e"},"vehicle_type_id":"4","last_reported":1737983763,"current_range_meters":27200,"station_id":"ce4bgs12rcd13ifvqcag","pricing_plan_id":"cebpf4jnsgd1na2vs0mg"},{"bike_id":"4bd5de1a-99c3-4b8a-ac3d-e4e0c9fc1d4a","system_id":"levelo_inurba_marseille","lat":43.32106,"lon":5.36779,"is_reserved":false,"is_disabled":false,"rental_uris":{"android":"levelo://app?vid=4bd5de1a-99c3-4b8a-ac3d-e4e0c9fc1d4a","ios":"levelo://app?vid=4bd5de1a-99c3-4b8a-ac3d-e4e0c9fc1d4a"},"vehicle_type_id":"4","last_reported":1737983763,"current_range_meters":8400,"station_id":"ce4bhrh2rcd13ifvqhug","pricing_plan_id":"cebpf4jnsgd1na2vs0mg"},{"bike_id":"a609f696-5b48-45d4-be19-7269597c7b4f","system_id":"levelo_inurba_marseille","lat":43.26948,"lon":5.38642,"is_reserved":false,"is_disabled":false,"rental_uris":{"android":"levelo://app?vid=a609f696-5b48-45d4-be19-7269597c7b4f","ios":"levelo://app?vid=a609f696-5b48-45d4-be19-7269597c7b4f"},"vehicle_type_id":"4","last_reported":1737983763,"current_range_meters":38400,"station_id":"ce4bhh92rcd13ifvqfh0","pricing_plan_id":"cebpf4jnsgd1na2vs0mg"},{"bike_id":"e15a9c54-1119-4626-8beb-0f6abafef573","system_id":"levelo_inurba_marseille","lat":43.27961,"lon":5.41055,"is_reserved":false,"is_disabled":false,"rental_uris":{"android":"levelo://app?vid=e15a9c54-1119-4626-8beb-0f6abafef573","ios":"levelo://app?vid=e15a9c54-1119-4626-8beb-0f6abafef573"},"vehicle_type_id":"4","last_reported":1737983763,"current_range_meters":25200,"station_id":"ce4bhnp2rcd13ifvqh0g","pricing_plan_id":"cebpf4jnsgd1na2vs0mg"},{"bike_id":"30e19aed-21c0-4e2e-b5de-2be87060f860","system_id":"levelo_inurba_marseille","lat":43.28155,"lon":5.42642,"is_reserved":false,"is_disabled":false,"rental_uris":{"android":"levelo://app?vid=30e19aed-21c0-4e2e-b5de-2be87060f860","ios":"levelo://app?vid=30e19aed-21c0-4e2e-b5de-2be87060f860"},"vehicle_type_id":"4","last_reported":1737983763,"current_range_meters":34000,"station_id":"ce4bhnh2rcd13ifvqgug","pricing_plan_id":"cebpf4jnsgd1na2vs0mg"},{"bike_id":"d6755dc8-d9a9-49dc-8a8f-22ec6b86e111","system_id":"levelo_inurba_marseille","lat":43.28159,"lon":5.42641,"is_reserved":false,"is_disabled":false,"rental_uris":{"android":"levelo://app?vid=d6755dc8-d9a9-49dc-8a8f-22ec6b86e111","ios":"levelo://app?vid=d6755dc8-d9a9-49dc-8a8f-22ec6b86e111"},"vehicle_type_id":"4","last_reported":1737983763,"current_range_meters":29600,"station_id":"ce4bhnh2rcd13ifvqgug","pricing_plan_id":"cebpf4jnsgd1na2vs0mg"},{"bike_id":"22fe6381-bfa8-481c-9415-4e6666169356","system_id":"levelo_inurba_marseille","lat":43.26579,"lon":5.39011,"is_reserved":false,"is_disabled":false,"rental_uris":{"android":"levelo://app?vid=22fe6381-bfa8-481c-9415-4e6666169356","ios":"levelo://app?vid=22fe6381-bfa8-481c-9415-4e6666169356"},"vehicle_type_id":"4","last_reported":1737983763,"current_range_meters":26000,"station_id":"ce4bhe12rcd13ifvqf30","pricing_plan_id":"cebpf4jnsgd1na2vs0mg"},{"bike_id":"49d50fa0-b9aa-4b12-95f6-4c1fb41bda80","system_id":"levelo_inurba_marseille","lat":43.26948,"lon":5.38623,"is_reserved":false,"is_disabled":false,"rental_uris":{"android":"levelo://app?vid=49d50fa0-b9aa-4b12-95f6-4c1fb41bda80","ios":"levelo://app?vid=49d50fa0-b9aa-4b12-95f6-4c1fb41bda80"},"vehicle_type_id":"4","last_reported":1737983763,"current_range_meters":38800,"station_id":"ce4bhh92rcd13ifvqfh0","pricing_plan_id":"cebpf4jnsgd1na2vs0mg"},{"bike_id":"90cc3ddf-83e9-4f36-b3ac-3eaa190119e5","system_id":"levelo_inurba_marseille","lat":43.28467,"lon":5.38544,"is_reserved":false,"is_disabled":false,"rental_uris":{"android":"levelo://app?vid=90cc3ddf-83e9-4f36-b3ac-3eaa190119e5","ios":"levelo://app?vid=90cc3ddf-83e9-4f36-b3ac-3eaa190119e5"},"vehicle_type_id":"4","last_reported":1737983763,"current_range_meters":38000,"station_id":"ce4bh8p2rcd13ifvqeb0","pricing_plan_id":"cebpf4jnsgd1na2vs0mg"},{"bike_id":"c96545e6-b3fa-4a6b-836e-d89ea478e5d1","system_id":"levelo_inurba_marseille","lat":43.24997,"lon":5.38926,"is_reserved":false,"is_disabled":false,"rental_uris":{"android":"levelo://app?vid=c96545e6-b3fa-4a6b-836e-d89ea478e5d1","ios":"levelo://app?vid=c96545e6-b3fa-4a6b-836e-d89ea478e5d1"},"vehicle_type_id":"4","last_reported":1737983763,"current_range_meters":38800,"station_id":"ce4bhgp2rcd13ifvqfd0","pricing_plan_id":"cebpf4jnsgd1na2vs0mg"},{"bike_id":"cfff1edf-189f-4cb0-80dd-22014a7dc63a","system_id":"levelo_inurba_marseille","lat":43.2482,"lon":5.37452,"is_reserved":false,"is_disabled":false,"rental_uris":{"android":"levelo://app?vid=cfff1edf-189f-4cb0-80dd-22014a7dc63a","ios":"levelo://app?vid=cfff1edf-189f-4cb0-80dd-22014a7dc63a"},"vehicle_type_id":"4","last_reported":1737983763,"current_range_meters":26000,"station_id":"ce4bhgh2rcd13ifvqfb0","pricing_plan_id":"cebpf4jnsgd1na2vs0mg"},{"bike_id":"234d8b67-2684-4782-94a0-5114e75a4c6a","system_id":"levelo_inurba_marseille","lat":43.30466,"lon":5.37901,"is_reserved":false,"is_disabled":false,"rental_uris":{"android":"levelo://app?vid=234d8b67-2684-4782-94a0-5114e75a4c6a","ios":"levelo://app?vid=234d8b67-2684-4782-94a0-5114e75a4c6a"},"vehicle_type_id":"4","last_reported":1737983763,"current_range_meters":39200,"station_id":"ce4bgup2rcd13ifvqcn0","pricing_plan_id":"cebpf4jnsgd1na2vs0mg"},{"bike_id":"5a6503ca-c2c6-4dbe-a6f7-68e5f1916ac2","system_id":"levelo_inurba_marseille","lat":43.29894,"lon":5.43671,"is_reserved":false,"is_disabled":false,"rental_uris":{"android":"levelo://app?vid=5a6503ca-c2c6-4dbe-a6f7-68e5f1916ac2","ios":"levelo://app?vid=5a6503ca-c2c6-4dbe-a6f7-68e5f1916ac2"},"vehicle_type_id":"4","last_reported":1737983763,"current_range_meters":10000,"station_id":"ce4bhpp2rcd13ifvqhfg","pricing_plan_id":"cebpf4jnsgd1na2vs0mg"},{"bike_id":"f2626d0d-d82b-4269-9773-18799421f4d8","system_id":"levelo_inurba_marseille","lat":43.29871,"lon":5.39734,"is_reserved":false,"is_disabled":false,"rental_uris":{"android":"levelo://app?vid=f2626d0d-d82b-4269-9773-18799421f4d8","ios":"levelo://app?vid=f2626d0d-d82b-4269-9773-18799421f4d8"},"vehicle_type_id":"4","last_reported":1737983763,"current_range_meters":38800,"station_id":"ce4bh0h2rcd13ifvqd50","pricing_plan_id":"cebpf4jnsgd1na2vs0mg"},{"bike_id":"3322cb85-d66e-4511-97d4-a98f3fae1b0c","system_id":"levelo_inurba_marseille","lat":43.29895,"lon":5.39762,"is_reserved":false,"is_disabled":false,"rental_uris":{"android":"levelo://app?vid=3322cb85-d66e-4511-97d4-a98f3fae1b0c","ios":"levelo://app?vid=3322cb85-d66e-4511-97d4-a98f3fae1b0c"},"vehicle_type_id":"4","last_reported":1737983763,"current_range_meters":33600,"station_id":"ce4bh0h2rcd13ifvqd50","pricing_plan_id":"cebpf4jnsgd1na2vs0mg"},{"bike_id":"a7a5ddd0-ac3d-43b3-be69-3c406b94b4f5","system_id":"levelo_inurba_marseille","lat":43.337444,"lon":5.374475,"is_reserved":false,"is_disabled":false,"rental_uris":{"android":"levelo://app?vid=a7a5ddd0-ac3d-43b3-be69-3c406b94b4f5","ios":"levelo://app?vid=a7a5ddd0-ac3d-43b3-be69-3c406b94b4f5"},"vehicle_type_id":"4","last_reported":1737983763,"current_range_meters":36000,"station_id":"","pricing_plan_id":"cebpf4jnsgd1na2vs0mg"},{"bike_id":"5a90f267-8aaf-4da0-b53f-aa8e2b8e2fd5","system_id":"levelo_inurba_marseille","lat":43.29535,"lon":5.3942,"is_reserved":false,"is_disabled":false,"rental_uris":{"android":"levelo://app?vid=5a90f267-8aaf-4da0-b53f-aa8e2b8e2fd5","ios":"levelo://app?vid=5a90f267-8aaf-4da0-b53f-aa8e2b8e2fd5"},"vehicle_type_id":"4","last_reported":1737983763,"current_range_meters":35200,"station_id":"ce4bh292rcd13ifvqdf0","pricing_plan_id":"cebpf4jnsgd1na2vs0mg"},{"bike_id":"a1a2450d-e8db-4c04-9d40-a4709700435c","system_id":"levelo_inurba_marseille","lat":43.31113,"lon":5.377623,"is_reserved":false,"is_disabled":false,"rental_uris":{"android":"levelo://app?vid=a1a2450d-e8db-4c04-9d40-a4709700435c","ios":"levelo://app?vid=a1a2450d-e8db-4c04-9d40-a4709700435c"},"vehicle_type_id":"4","last_reported":1737983763,"current_range_meters":34800,"station_id":"ce4bgt92rcd13ifvqcg0","pricing_plan_id":"cebpf4jnsgd1na2vs0mg"},{"bike_id":"86205309-d3b2-4a63-9380-524c5a6d3507","system_id":"levelo_inurba_marseille","lat":43.29256,"lon":5.38449,"is_reserved":false,"is_disabled":false,"rental_uris":{"android":"levelo://app?vid=86205309-d3b2-4a63-9380-524c5a6d3507","ios":"levelo://app?vid=86205309-d3b2-4a63-9380-524c5a6d3507"},"vehicle_type_id":"4","last_reported":1737983763,"current_range_meters":19200,"station_id":"ce4bh692rcd13ifvqea0","pricing_plan_id":"cebpf4jnsgd1na2vs0mg"},{"bike_id":"7683b4dd-23ec-47af-918b-5633085e4e5c","system_id":"levelo_inurba_marseille","lat":43.30144,"lon":5.37424,"is_reserved":false,"is_disabled":false,"rental_uris":{"android":"levelo://app?vid=7683b4dd-23ec-47af-918b-5633085e4e5c","ios":"levelo://app?vid=7683b4dd-23ec-47af-918b-5633085e4e5c"},"vehicle_type_id":"4","last_reported":1737983763,"current_range_meters":35600,"station_id":"ce4bgs92rcd13ifvqcc0","pricing_plan_id":"cebpf4jnsgd1na2vs0mg"},{"bike_id":"68ae826c-5afb-4b41-a987-ed79564b6fad","system_id":"levelo_inurba_marseille","lat":43.27305,"lon":5.3908,"is_reserved":false,"is_disabled":false,"rental_uris":{"android":"levelo://app?vid=68ae826c-5afb-4b41-a987-ed79564b6fad","ios":"levelo://app?vid=68ae826c-5afb-4b41-a987-ed79564b6fad"},"vehicle_type_id":"4","last_reported":1737983763,"current_range_meters":3200,"station_id":"ce4bhgp2rcd13ifvqfe0","pricing_plan_id":"cebpf4jnsgd1na2vs0mg"},{"bike_id":"1d77d048-ce0a-4186-b9ae-e7e345be0222","system_id":"levelo_inurba_marseille","lat":43.30962,"lon":5.39055,"is_reserved":false,"is_disabled":false,"rental_uris":{"android":"levelo://app?vid=1d77d048-ce0a-4186-b9ae-e7e345be0222","ios":"levelo://app?vid=1d77d048-ce0a-4186-b9ae-e7e345be0222"},"vehicle_type_id":"4","last_reported":1737983763,"current_range_meters":39200,"station_id":"ce4bgup2rcd13ifvqco0","pricing_plan_id":"cebpf4jnsgd1na2vs0mg"},{"bike_id":"653d8d6e-7fce-4665-8f1b-562f4e723745","system_id":"levelo_inurba_marseille","lat":43.2903,"lon":5.38659,"is_reserved":false,"is_disabled":false,"rental_uris":{"android":"levelo://app?vid=653d8d6e-7fce-4665-8f1b-562f4e723745","ios":"levelo://app?vid=653d8d6e-7fce-4665-8f1b-562f4e723745"},"vehicle_type_id":"4","last_reported":1737983763,"current_range_meters":36400,"station_id":"ce4bh4p2rcd13ifvqe0g","pricing_plan_id":"cebpf4jnsgd1na2vs0mg"},{"bike_id":"b2a77bcb-8636-4783-bb85-a20e6eec5fb2","system_id":"levelo_inurba_marseille","lat":43.27624,"lon":5.3901,"is_reserved":false,"is_disabled":false,"rental_uris":{"android":"levelo://app?vid=b2a77bcb-8636-4783-bb85-a20e6eec5fb2","ios":"levelo://app?vid=b2a77bcb-8636-4783-bb85-a20e6eec5fb2"},"vehicle_type_id":"4","last_reported":1737983763,"current_range_meters":30400,"station_id":"ce4bhi12rcd13ifvqfo0","pricing_plan_id":"cebpf4jnsgd1na2vs0mg"},{"bike_id":"1387f3a8-728e-4bdc-977f-c1b044bf7c2a","system_id":"levelo_inurba_marseille","lat":43.30656,"lon":5.36523,"is_reserved":false,"is_disabled":false,"rental_uris":{"android":"levelo://app?vid=1387f3a8-728e-4bdc-977f-c1b044bf7c2a","ios":"levelo://app?vid=1387f3a8-728e-4bdc-977f-c1b044bf7c2a"},"vehicle_type_id":"4","last_reported":1737983763,"current_range_meters":38800,"station_id":"ce4bgs12rcd13ifvqcag","pricing_plan_id":"cebpf4jnsgd1na2vs0mg"},{"bike_id":"31c4cac0-445d-4c34-8316-d7f8b26bd10a","system_id":"levelo_inurba_marseille","lat":43.30804,"lon":5.38152,"is_reserved":false,"is_disabled":false,"rental_uris":{"android":"levelo://app?vid=31c4cac0-445d-4c34-8316-d7f8b26bd10a","ios":"levelo://app?vid=31c4cac0-445d-4c34-8316-d7f8b26bd10a"},"vehicle_type_id":"4","last_reported":1737983763,"current_range_meters":27200,"station_id":"ce4bgt12rcd13ifvqce0","pricing_plan_id":"cebpf4jnsgd1na2vs0mg"},{"bike_id":"df509a87-84a2-4043-ac68-302a62bf353d","system_id":"levelo_inurba_marseille","lat":43.31999,"lon":5.38144,"is_reserved":false,"is_disabled":false,"rental_uris":{"android":"levelo://app?vid=df509a87-84a2-4043-ac68-302a62bf353d","ios":"levelo://app?vid=df509a87-84a2-4043-ac68-302a62bf353d"},"vehicle_type_id":"4","last_reported":1737983763,"current_range_meters":35600,"station_id":"ce4bhr12rcd13ifvqhpg","pricing_plan_id":"cebpf4jnsgd1na2vs0mg"},{"bike_id":"6adc5ca7-0c2c-4563-b34e-99dac6c709d8","system_id":"levelo_inurba_marseille","lat":43.29969,"lon":5.37843,"is_reserved":false,"is_disabled":true,"rental_uris":{"android":"levelo://app?vid=6adc5ca7-0c2c-4563-b34e-99dac6c709d8","ios":"levelo://app?vid=6adc5ca7-0c2c-4563-b34e-99dac6c709d8"},"vehicle_type_id":"4","last_reported":1737983763,"current_range_meters":0,"station_id":"","pricing_plan_id":"cebpf4jnsgd1na2vs0mg"},{"bike_id":"35253051-607a-4f9b-b4b9-a430eb6c0e8c","system_id":"levelo_inurba_marseille","lat":43.28979,"lon":5.37829,"is_reserved":false,"is_disabled":false,"rental_uris":{"android":"levelo://app?vid=35253051-607a-4f9b-b4b9-a430eb6c0e8c","ios":"levelo://app?vid=35253051-607a-4f9b-b4b9-a430eb6c0e8c"},"vehicle_type_id":"4","last_reported":1737983763,"current_range_meters":34800,"station_id":"ce4bh9p2rcd13ifvqed0","pricing_plan_id":"cebpf4jnsgd1na2vs0mg"},{"bike_id":"6160634f-0378-409c-8e4f-bdc4e23b68ed","system_id":"levelo_inurba_marseille","lat":43.28092,"lon":5.3786,"is_reserved":false,"is_disabled":false,"rental_uris":{"android":"levelo://app?vid=6160634f-0378-409c-8e4f-bdc4e23b68ed","ios":"levelo://app?vid=6160634f-0378-409c-8e4f-bdc4e23b68ed"},"vehicle_type_id":"4","last_reported":1737983763,"current_range_meters":38800,"station_id":"ce4bha12rcd13ifvqee0","pricing_plan_id":"cebpf4jnsgd1na2vs0mg"},{"bike_id":"aa84763a-1cc7-4c1c-a4e5-928c84ccff9e","system_id":"levelo_inurba_marseille","lat":43.26945,"lon":5.38643,"is_reserved":false,"is_disabled":false,"rental_uris":{"android":"levelo://app?vid=aa84763a-1cc7-4c1c-a4e5-928c84ccff9e","ios":"levelo://app?vid=aa84763a-1cc7-4c1c-a4e5-928c84ccff9e"},"vehicle_type_id":"4","last_reported":1737983763,"current_range_meters":21600,"station_id":"ce4bhh92rcd13ifvqfh0","pricing_plan_id":"cebpf4jnsgd1na2vs0mg"},{"bike_id":"d1c9e299-976b-4067-95ba-dab8fc38751c","system_id":"levelo_inurba_marseille","lat":43.25719,"lon":5.41114,"is_reserved":false,"is_disabled":false,"rental_uris":{"android":"levelo://app?vid=d1c9e299-976b-4067-95ba-dab8fc38751c","ios":"levelo://app?vid=d1c9e299-976b-4067-95ba-dab8fc38751c"},"vehicle_type_id":"4","last_reported":1737983763,"current_range_meters":38800,"station_id":"ce4bhkp2rcd13ifvqgd0","pricing_plan_id":"cebpf4jnsgd1na2vs0mg"},{"bike_id":"c7830262-ea23-45f4-9a23-990ed17ebf09","system_id":"levelo_inurba_marseille","lat":43.29804,"lon":5.39757,"is_reserved":false,"is_disabled":true,"rental_uris":{"android":"levelo://app?vid=c7830262-ea23-45f4-9a23-990ed17ebf09","ios":"levelo://app?vid=c7830262-ea23-45f4-9a23-990ed17ebf09"},"vehicle_type_id":"4","last_reported":1737983763,"current_range_meters":0,"station_id":"","pricing_plan_id":"cebpf4jnsgd1na2vs0mg"},{"bike_id":"51de9ade-9a9d-45ce-bae8-dc5330cfcf50","system_id":"levelo_inurba_marseille","lat":43.30469,"lon":5.37907,"is_reserved":false,"is_disabled":false,"rental_uris":{"android":"levelo://app?vid=51de9ade-9a9d-45ce-bae8-dc5330cfcf50","ios":"levelo://app?vid=51de9ade-9a9d-45ce-bae8-dc5330cfcf50"},"vehicle_type_id":"4","last_reported":1737983763,"current_range_meters":11200,"station_id":"ce4bgup2rcd13ifvqcn0","pricing_plan_id":"cebpf4jnsgd1na2vs0mg"},{"bike_id":"35edcdb1-e569-4062-9399-d13bca3c6537","system_id":"levelo_inurba_marseille","lat":43.295078,"lon":5.400976,"is_reserved":false,"is_disabled":false,"rental_uris":{"android":"levelo://app?vid=35edcdb1-e569-4062-9399-d13bca3c6537","ios":"levelo://app?vid=35edcdb1-e569-4062-9399-d13bca3c6537"},"vehicle_type_id":"4","last_reported":1737983763,"current_range_meters":24000,"station_id":"ce4bh312rcd13ifvqdj0","pricing_plan_id":"cebpf4jnsgd1na2vs0mg"},{"bike_id":"91248acd-5261-453c-b5c9-6960b0e9de7b","system_id":"levelo_inurba_marseille","lat":43.292795,"lon":5.374575,"is_reserved":false,"is_disabled":true,"rental_uris":{"android":"levelo://app?vid=91248acd-5261-453c-b5c9-6960b0e9de7b","ios":"levelo://app?vid=91248acd-5261-453c-b5c9-6960b0e9de7b"},"vehicle_type_id":"4","last_reported":1737983763,"current_range_meters":9600,"station_id":"ce4bgi12rcd13ifvqb70","pricing_plan_id":"cebpf4jnsgd1na2vs0mg"},{"bike_id":"90602957-4c91-4e57-b63f-015fd55e350f","system_id":"levelo_inurba_marseille","lat":43.29084,"lon":5.38128,"is_reserved":false,"is_disabled":false,"rental_uris":{"android":"levelo://app?vid=90602957-4c91-4e57-b63f-015fd55e350f","ios":"levelo://app?vid=90602957-4c91-4e57-b63f-015fd55e350f"},"vehicle_type_id":"4","last_reported":1737983763,"current_range_meters":38800,"station_id":"ce4bh512rcd13ifvqe2g","pricing_plan_id":"cebpf4jnsgd1na2vs0mg"},{"bike_id":"1ead176a-959e-46aa-9c8d-c09424171fb2","system_id":"levelo_inurba_marseille","lat":43.29616,"lon":5.37723,"is_reserved":false,"is_disabled":false,"rental_uris":{"android":"levelo://app?vid=1ead176a-959e-46aa-9c8d-c09424171fb2","ios":"levelo://app?vid=1ead176a-959e-46aa-9c8d-c09424171fb2"},"vehicle_type_id":"4","last_reported":1737983763,"current_range_meters":33200,"station_id":"ce4bgi92rcd13ifvqb90","pricing_plan_id":"cebpf4jnsgd1na2vs0mg"},{"bike_id":"83ab2271-68aa-4e51-92e2-d89b2328d98b","system_id":"levelo_inurba_marseille","lat":43.30534,"lon":5.36724,"is_reserved":false,"is_disabled":false,"rental_uris":{"android":"levelo://app?vid=83ab2271-68aa-4e51-92e2-d89b2328d98b","ios":"levelo://app?vid=83ab2271-68aa-4e51-92e2-d89b2328d98b"},"vehicle_type_id":"4","last_reported":1737983763,"current_range_meters":36000,"station_id":"ce4bgrp2rcd13ifvqc9g","pricing_plan_id":"cebpf4jnsgd1na2vs0mg"},{"bike_id":"5a504fe4-0ab6-4eed-b9ef-e27131441d67","system_id":"levelo_inurba_marseille","lat":43.30329,"lon":5.37888,"is_reserved":false,"is_disabled":false,"rental_uris":{"android":"levelo://app?vid=5a504fe4-0ab6-4eed-b9ef-e27131441d67","ios":"levelo://app?vid=5a504fe4-0ab6-4eed-b9ef-e27131441d67"},"vehicle_type_id":"4","last_reported":1737983763,"current_range_meters":25200,"station_id":"","pricing_plan_id":"cebpf4jnsgd1na2vs0mg"},{"bike_id":"11ba3b1e-84b5-4609-901b-fe845e306d2e","system_id":"levelo_inurba_marseille","lat":43.32457,"lon":5.36572,"is_reserved":false,"is_disabled":false,"rental_uris":{"android":"levelo://app?vid=11ba3b1e-84b5-4609-901b-fe845e306d2e","ios":"levelo://app?vid=11ba3b1e-84b5-4609-901b-fe845e306d2e"},"vehicle_type_id":"4","last_reported":1737983763,"current_range_meters":33600,"station_id":"ce4bhs12rcd13ifvqhvg","pricing_plan_id":"cebpf4jnsgd1na2vs0mg"},{"bike_id":"d0be3c72-cd55-4797-8b93-dc5d51fe94d7","system_id":"levelo_inurba_marseille","lat":43.30579,"lon":5.36509,"is_reserved":false,"is_disabled":false,"rental_uris":{"android":"levelo://app?vid=d0be3c72-cd55-4797-8b93-dc5d51fe94d7","ios":"levelo://app?vid=d0be3c72-cd55-4797-8b93-dc5d51fe94d7"},"vehicle_type_id":"4","last_reported":1737983763,"current_range_meters":38800,"station_id":"ce4bgs12rcd13ifvqcag","pricing_plan_id":"cebpf4jnsgd1na2vs0mg"},{"bike_id":"a96a9c3f-8052-41b8-ab4f-9251ab3e7399","system_id":"levelo_inurba_marseille","lat":43.28349,"lon":5.38101,"is_reserved":false,"is_disabled":false,"rental_uris":{"android":"levelo://app?vid=a96a9c3f-8052-41b8-ab4f-9251ab3e7399","ios":"levelo://app?vid=a96a9c3f-8052-41b8-ab4f-9251ab3e7399"},"vehicle_type_id":"4","last_reported":1737983763,"current_range_meters":27600,"station_id":"ce4bh412rcd13ifvqdr0","pricing_plan_id":"cebpf4jnsgd1na2vs0mg"},{"bike_id":"9a152210-3a10-4dcc-8f20-e2f1097a7ae0","system_id":"levelo_inurba_marseille","lat":43.25687,"lon":5.41141,"is_reserved":false,"is_disabled":false,"rental_uris":{"android":"levelo://app?vid=9a152210-3a10-4dcc-8f20-e2f1097a7ae0","ios":"levelo://app?vid=9a152210-3a10-4dcc-8f20-e2f1097a7ae0"},"vehicle_type_id":"4","last_reported":1737983763,"current_range_meters":17600,"station_id":"ce4bhkp2rcd13ifvqgd0","pricing_plan_id":"cebpf4jnsgd1na2vs0mg"},{"bike_id":"5f49eeeb-aca1-492c-8977-6205ce75fb07","system_id":"levelo_inurba_marseille","lat":43.306049,"lon":5.372343,"is_reserved":false,"is_disabled":false,"rental_uris":{"android":"levelo://app?vid=5f49eeeb-aca1-492c-8977-6205ce75fb07","ios":"levelo://app?vid=5f49eeeb-aca1-492c-8977-6205ce75fb07"},"vehicle_type_id":"4","last_reported":1737983763,"current_range_meters":10800,"station_id":"ce4bgqh2rcd13ifvqc4g","pricing_plan_id":"cebpf4jnsgd1na2vs0mg"},{"bike_id":"c9782c3d-3762-45ca-afe5-56710c6ca513","system_id":"levelo_inurba_marseille","lat":43.26494,"lon":5.39558,"is_reserved":false,"is_disabled":false,"rental_uris":{"android":"levelo://app?vid=c9782c3d-3762-45ca-afe5-56710c6ca513","ios":"levelo://app?vid=c9782c3d-3762-45ca-afe5-56710c6ca513"},"vehicle_type_id":"4","last_reported":1737983763,"current_range_meters":30000,"station_id":"ce4bhi12rcd13ifvqfq0","pricing_plan_id":"cebpf4jnsgd1na2vs0mg"},{"bike_id":"6d2d0e89-f189-419a-941c-8a902d353f70","system_id":"levelo_inurba_marseille","lat":43.28354,"lon":5.38102,"is_reserved":false,"is_disabled":false,"rental_uris":{"android":"levelo://app?vid=6d2d0e89-f189-419a-941c-8a902d353f70","ios":"levelo://app?vid=6d2d0e89-f189-419a-941c-8a902d353f70"},"vehicle_type_id":"4","last_reported":1737983763,"current_range_meters":16000,"station_id":"ce4bh412rcd13ifvqdr0","pricing_plan_id":"cebpf4jnsgd1na2vs0mg"},{"bike_id":"9838cc78-2b53-49d3-ae13-82df62c4fd64","system_id":"levelo_inurba_marseille","lat":43.28431,"lon":5.40907,"is_reserved":false,"is_disabled":true,"rental_uris":{"android":"levelo://app?vid=9838cc78-2b53-49d3-ae13-82df62c4fd64","ios":"levelo://app?vid=9838cc78-2b53-49d3-ae13-82df62c4fd64"},"vehicle_type_id":"4","last_reported":1737983763,"current_range_meters":0,"station_id":"","pricing_plan_id":"cebpf4jnsgd1na2vs0mg"},{"bike_id":"59d0b63c-50d2-4904-a1b0-ec2cb68670de","system_id":"levelo_inurba_marseille","lat":43.27838,"lon":5.39216,"is_reserved":false,"is_disabled":false,"rental_uris":{"android":"levelo://app?vid=59d0b63c-50d2-4904-a1b0-ec2cb68670de","ios":"levelo://app?vid=59d0b63c-50d2-4904-a1b0-ec2cb68670de"},"vehicle_type_id":"4","last_reported":1737983763,"current_range_meters":14000,"station_id":"ce4bhjp2rcd13ifvqga0","pricing_plan_id":"cebpf4jnsgd1na2vs0mg"},{"bike_id":"f3a886a3-500d-4d32-a120-4a7101c0f911","system_id":"levelo_inurba_marseille","lat":43.26928,"lon":5.40257,"is_reserved":false,"is_disabled":false,"rental_uris":{"android":"levelo://app?vid=f3a886a3-500d-4d32-a120-4a7101c0f911","ios":"levelo://app?vid=f3a886a3-500d-4d32-a120-4a7101c0f911"},"vehicle_type_id":"4","last_reported":1737983763,"current_range_meters":38800,"station_id":"cjm6bp8fraef2m0cb0m0","pricing_plan_id":"cebpf4jnsgd1na2vs0mg"},{"bike_id":"9c95b30c-5a10-410a-a5d1-7fca7d8a7b6b","system_id":"levelo_inurba_marseille","lat":43.29929,"lon":5.3655,"is_reserved":false,"is_disabled":true,"rental_uris":{"android":"levelo://app?vid=9c95b30c-5a10-410a-a5d1-7fca7d8a7b6b","ios":"levelo://app?vid=9c95b30c-5a10-410a-a5d1-7fca7d8a7b6b"},"vehicle_type_id":"4","last_reported":1737983763,"current_range_meters":0,"station_id":"ce4bgm92rcd13ifvqbr0","pricing_plan_id":"cebpf4jnsgd1na2vs0mg"},{"bike_id":"47b53f95-7148-4bf9-b03d-3086c46d52e2","system_id":"levelo_inurba_marseille","lat":43.32349,"lon":5.40622,"is_reserved":false,"is_disabled":false,"rental_uris":{"android":"levelo://app?vid=47b53f95-7148-4bf9-b03d-3086c46d52e2","ios":"levelo://app?vid=47b53f95-7148-4bf9-b03d-3086c46d52e2"},"vehicle_type_id":"4","last_reported":1737983763,"current_range_meters":33600,"station_id":"ce4bhq92rcd13ifvqhjg","pricing_plan_id":"cebpf4jnsgd1na2vs0mg"},{"bike_id":"a0ef96ba-f2ef-4284-81ef-433bcc02ec7c","system_id":"levelo_inurba_marseille","lat":43.24651,"lon":5.38891,"is_reserved":false,"is_disabled":false,"rental_uris":{"android":"levelo://app?vid=a0ef96ba-f2ef-4284-81ef-433bcc02ec7c","ios":"levelo://app?vid=a0ef96ba-f2ef-4284-81ef-433bcc02ec7c"},"vehicle_type_id":"4","last_reported":1737983763,"current_range_meters":36400,"station_id":"ce4bhg12rcd13ifvqf60","pricing_plan_id":"cebpf4jnsgd1na2vs0mg"},{"bike_id":"df05eb4a-164c-45fe-8261-1308961a41f3","system_id":"levelo_inurba_marseille","lat":43.28114,"lon":5.37856,"is_reserved":false,"is_disabled":false,"rental_uris":{"android":"levelo://app?vid=df05eb4a-164c-45fe-8261-1308961a41f3","ios":"levelo://app?vid=df05eb4a-164c-45fe-8261-1308961a41f3"},"vehicle_type_id":"4","last_reported":1737983763,"current_range_meters":35600,"station_id":"ce4bha12rcd13ifvqee0","pricing_plan_id":"cebpf4jnsgd1na2vs0mg"},{"bike_id":"ea298fcc-00cd-4087-9e16-060021653e4f","system_id":"levelo_inurba_marseille","lat":43.2999,"lon":5.37164,"is_reserved":false,"is_disabled":false,"rental_uris":{"android":"levelo://app?vid=ea298fcc-00cd-4087-9e16-060021653e4f","ios":"levelo://app?vid=ea298fcc-00cd-4087-9e16-060021653e4f"},"vehicle_type_id":"4","last_reported":1737983763,"current_range_meters":24400,"station_id":"ce4bgr92rcd13ifvqc7g","pricing_plan_id":"cebpf4jnsgd1na2vs0mg"},{"bike_id":"a2341aed-04a7-42de-ab34-af6692410eb3","system_id":"levelo_inurba_marseille","lat":43.27057,"lon":5.40265,"is_reserved":false,"is_disabled":false,"rental_uris":{"android":"levelo://app?vid=a2341aed-04a7-42de-ab34-af6692410eb3","ios":"levelo://app?vid=a2341aed-04a7-42de-ab34-af6692410eb3"},"vehicle_type_id":"4","last_reported":1737983763,"current_range_meters":13600,"station_id":"ce4bhk92rcd13ifvqgc0","pricing_plan_id":"cebpf4jnsgd1na2vs0mg"},{"bike_id":"eb8e2715-50e8-4f9c-aaa7-763acdecaa89","system_id":"levelo_inurba_marseille","lat":43.2975,"lon":5.36865,"is_reserved":false,"is_disabled":true,"rental_uris":{"android":"levelo://app?vid=eb8e2715-50e8-4f9c-aaa7-763acdecaa89","ios":"levelo://app?vid=eb8e2715-50e8-4f9c-aaa7-763acdecaa89"},"vehicle_type_id":"4","last_reported":1737983763,"current_range_meters":400,"station_id":"","pricing_plan_id":"cebpf4jnsgd1na2vs0mg"},{"bike_id":"c62c9f82-44c9-479e-a555-394e24f57aa4","system_id":"levelo_inurba_marseille","lat":43.29038,"lon":5.39953,"is_reserved":false,"is_disabled":false,"rental_uris":{"android":"levelo://app?vid=c62c9f82-44c9-479e-a555-394e24f57aa4","ios":"levelo://app?vid=c62c9f82-44c9-479e-a555-394e24f57aa4"},"vehicle_type_id":"4","last_reported":1737983763,"current_range_meters":20800,"station_id":"ce4bh392rcd13ifvqdm0","pricing_plan_id":"cebpf4jnsgd1na2vs0mg"},{"bike_id":"2e0a8b86-b457-48a0-8577-213b01080398","system_id":"levelo_inurba_marseille","lat":43.23197,"lon":5.3555,"is_reserved":false,"is_disabled":false,"rental_uris":{"android":"levelo://app?vid=2e0a8b86-b457-48a0-8577-213b01080398","ios":"levelo://app?vid=2e0a8b86-b457-48a0-8577-213b01080398"},"vehicle_type_id":"4","last_reported":1737983763,"current_range_meters":38800,"station_id":"ce4bhu92rcd13ifvqi70","pricing_plan_id":"cebpf4jnsgd1na2vs0mg"},{"bike_id":"d2e14334-91cf-4683-8086-fad56bb3beac","system_id":"levelo_inurba_marseille","lat":43.30551,"lon":5.36528,"is_reserved":false,"is_disabled":false,"rental_uris":{"android":"levelo://app?vid=d2e14334-91cf-4683-8086-fad56bb3beac","ios":"levelo://app?vid=d2e14334-91cf-4683-8086-fad56bb3beac"},"vehicle_type_id":"4","last_reported":1737983763,"current_range_meters":25200,"station_id":"ce4bgs12rcd13ifvqcag","pricing_plan_id":"cebpf4jnsgd1na2vs0mg"},{"bike_id":"3866b16d-07b5-4bd1-9720-1871bfb35893","system_id":"levelo_inurba_marseille","lat":43.29529,"lon":5.38549,"is_reserved":false,"is_disabled":false,"rental_uris":{"android":"levelo://app?vid=3866b16d-07b5-4bd1-9720-1871bfb35893","ios":"levelo://app?vid=3866b16d-07b5-4bd1-9720-1871bfb35893"},"vehicle_type_id":"4","last_reported":1737983763,"current_range_meters":12000,"station_id":"ce4bgih2rcd13ifvqba0","pricing_plan_id":"cebpf4jnsgd1na2vs0mg"},{"bike_id":"d979d8d2-ec65-47af-9229-e4270aab279a","system_id":"levelo_inurba_marseille","lat":43.23054,"lon":5.35497,"is_reserved":false,"is_disabled":false,"rental_uris":{"android":"levelo://app?vid=d979d8d2-ec65-47af-9229-e4270aab279a","ios":"levelo://app?vid=d979d8d2-ec65-47af-9229-e4270aab279a"},"vehicle_type_id":"4","last_reported":1737983763,"current_range_meters":28000,"station_id":"cpo3342slgdg3j2ifvpg","pricing_plan_id":"cebpf4jnsgd1na2vs0mg"},{"bike_id":"689861d0-6f71-4ea0-a024-f23cf4b0663e","system_id":"levelo_inurba_marseille","lat":43.30564,"lon":5.36521,"is_reserved":false,"is_disabled":false,"rental_uris":{"android":"levelo://app?vid=689861d0-6f71-4ea0-a024-f23cf4b0663e","ios":"levelo://app?vid=689861d0-6f71-4ea0-a024-f23cf4b0663e"},"vehicle_type_id":"4","last_reported":1737983763,"current_range_meters":30000,"station_id":"ce4bgs12rcd13ifvqcag","pricing_plan_id":"cebpf4jnsgd1na2vs0mg"},{"bike_id":"2b98495a-891d-4aca-9713-4c133c7457b1","system_id":"levelo_inurba_marseille","lat":43.28711,"lon":5.37938,"is_reserved":false,"is_disabled":false,"rental_uris":{"android":"levelo://app?vid=2b98495a-891d-4aca-9713-4c133c7457b1","ios":"levelo://app?vid=2b98495a-891d-4aca-9713-4c133c7457b1"},"vehicle_type_id":"4","last_reported":1737983763,"current_range_meters":36800,"station_id":"ce4bh9p2rcd13ifvqec0","pricing_plan_id":"cebpf4jnsgd1na2vs0mg"},{"bike_id":"208b9aff-e4aa-4202-9cfa-c801b23f279c","system_id":"levelo_inurba_marseille","lat":43.2835,"lon":5.381,"is_reserved":false,"is_disabled":false,"rental_uris":{"android":"levelo://app?vid=208b9aff-e4aa-4202-9cfa-c801b23f279c","ios":"levelo://app?vid=208b9aff-e4aa-4202-9cfa-c801b23f279c"},"vehicle_type_id":"4","last_reported":1737983763,"current_range_meters":4000,"station_id":"ce4bh412rcd13ifvqdr0","pricing_plan_id":"cebpf4jnsgd1na2vs0mg"},{"bike_id":"23292733-0ba7-42d8-8b2b-d7050d95e7cb","system_id":"levelo_inurba_marseille","lat":43.28944,"lon":5.36632,"is_reserved":false,"is_disabled":true,"rental_uris":{"android":"levelo://app?vid=23292733-0ba7-42d8-8b2b-d7050d95e7cb","ios":"levelo://app?vid=23292733-0ba7-42d8-8b2b-d7050d95e7cb"},"vehicle_type_id":"4","last_reported":1737983763,"current_range_meters":35200,"station_id":"ce4bhap2rcd13ifvqek0","pricing_plan_id":"cebpf4jnsgd1na2vs0mg"},{"bike_id":"ae00de2f-f31f-40c5-afd5-77a43823ef3d","system_id":"levelo_inurba_marseille","lat":43.33023,"lon":5.39046,"is_reserved":false,"is_disabled":false,"rental_uris":{"android":"levelo://app?vid=ae00de2f-f31f-40c5-afd5-77a43823ef3d","ios":"levelo://app?vid=ae00de2f-f31f-40c5-afd5-77a43823ef3d"},"vehicle_type_id":"4","last_reported":1737983763,"current_range_meters":36400,"station_id":"ce4bhr92rcd13ifvqhrg","pricing_plan_id":"cebpf4jnsgd1na2vs0mg"},{"bike_id":"c75ee025-407d-4559-b6dc-6fbf47f31966","system_id":"levelo_inurba_marseille","lat":43.32291,"lon":5.38266,"is_reserved":false,"is_disabled":false,"rental_uris":{"android":"levelo://app?vid=c75ee025-407d-4559-b6dc-6fbf47f31966","ios":"levelo://app?vid=c75ee025-407d-4559-b6dc-6fbf47f31966"},"vehicle_type_id":"4","last_reported":1737983763,"current_range_meters":22000,"station_id":"ce4bhr12rcd13ifvqhqg","pricing_plan_id":"cebpf4jnsgd1na2vs0mg"},{"bike_id":"df956b3f-ac7e-478a-8d37-98929b9766da","system_id":"levelo_inurba_marseille","lat":43.28361,"lon":5.38111,"is_reserved":false,"is_disabled":false,"rental_uris":{"android":"levelo://app?vid=df956b3f-ac7e-478a-8d37-98929b9766da","ios":"levelo://app?vid=df956b3f-ac7e-478a-8d37-98929b9766da"},"vehicle_type_id":"4","last_reported":1737983763,"current_range_meters":9200,"station_id":"ce4bh412rcd13ifvqdr0","pricing_plan_id":"cebpf4jnsgd1na2vs0mg"},{"bike_id":"fb708c3b-66e2-401e-839e-8d1bb25b5e2b","system_id":"levelo_inurba_marseille","lat":43.30461,"lon":5.3791,"is_reserved":false,"is_disabled":false,"rental_uris":{"android":"levelo://app?vid=fb708c3b-66e2-401e-839e-8d1bb25b5e2b","ios":"levelo://app?vid=fb708c3b-66e2-401e-839e-8d1bb25b5e2b"},"vehicle_type_id":"4","last_reported":1737983763,"current_range_meters":37600,"station_id":"ce4bgup2rcd13ifvqcn0","pricing_plan_id":"cebpf4jnsgd1na2vs0mg"},{"bike_id":"d6a801c4-a651-4f81-a19a-d70f1c451d0f","system_id":"levelo_inurba_marseille","lat":43.30553,"lon":5.36538,"is_reserved":false,"is_disabled":false,"rental_uris":{"android":"levelo://app?vid=d6a801c4-a651-4f81-a19a-d70f1c451d0f","ios":"levelo://app?vid=d6a801c4-a651-4f81-a19a-d70f1c451d0f"},"vehicle_type_id":"4","last_reported":1737983763,"current_range_meters":18000,"station_id":"ce4bgs12rcd13ifvqcag","pricing_plan_id":"cebpf4jnsgd1na2vs0mg"},{"bike_id":"1afff85d-c688-45bb-a78d-5e1a58f030cc","system_id":"levelo_inurba_marseille","lat":43.299,"lon":5.43656,"is_reserved":false,"is_disabled":true,"rental_uris":{"android":"levelo://app?vid=1afff85d-c688-45bb-a78d-5e1a58f030cc","ios":"levelo://app?vid=1afff85d-c688-45bb-a78d-5e1a58f030cc"},"vehicle_type_id":"4","last_reported":1737983763,"current_range_meters":800,"station_id":"ce4bhpp2rcd13ifvqhfg","pricing_plan_id":"cebpf4jnsgd1na2vs0mg"},{"bike_id":"30bbb00e-1612-4a25-b2e9-c8ad656fb58a","system_id":"levelo_inurba_marseille","lat":43.33707,"lon":5.39213,"is_reserved":false,"is_disabled":false,"rental_uris":{"android":"levelo://app?vid=30bbb00e-1612-4a25-b2e9-c8ad656fb58a","ios":"levelo://app?vid=30bbb00e-1612-4a25-b2e9-c8ad656fb58a"},"vehicle_type_id":"4","last_reported":1737983763,"current_range_meters":38800,"station_id":"ce4bhr92rcd13ifvqhsg","pricing_plan_id":"cebpf4jnsgd1na2vs0mg"},{"bike_id":"005330c6-9ea4-44b1-af35-6b68ca394cb6","system_id":"levelo_inurba_marseille","lat":43.30953,"lon":5.39054,"is_reserved":false,"is_disabled":false,"rental_uris":{"android":"levelo://app?vid=005330c6-9ea4-44b1-af35-6b68ca394cb6","ios":"levelo://app?vid=005330c6-9ea4-44b1-af35-6b68ca394cb6"},"vehicle_type_id":"4","last_reported":1737983763,"current_range_meters":38800,"station_id":"ce4bgup2rcd13ifvqco0","pricing_plan_id":"cebpf4jnsgd1na2vs0mg"},{"bike_id":"887816bd-51b2-4867-b788-cf8bf7d80444","system_id":"levelo_inurba_marseille","lat":43.33746,"lon":5.39188,"is_reserved":false,"is_disabled":false,"rental_uris":{"android":"levelo://app?vid=887816bd-51b2-4867-b788-cf8bf7d80444","ios":"levelo://app?vid=887816bd-51b2-4867-b788-cf8bf7d80444"},"vehicle_type_id":"4","last_reported":1737983763,"current_range_meters":30000,"station_id":"ce4bhr92rcd13ifvqhsg","pricing_plan_id":"cebpf4jnsgd1na2vs0mg"},{"bike_id":"4cb596df-44fd-4741-9495-cfdb53019931","system_id":"levelo_inurba_marseille","lat":43.23124,"lon":5.43717,"is_reserved":false,"is_disabled":false,"rental_uris":{"android":"levelo://app?vid=4cb596df-44fd-4741-9495-cfdb53019931","ios":"levelo://app?vid=4cb596df-44fd-4741-9495-cfdb53019931"},"vehicle_type_id":"4","last_reported":1737983763,"current_range_meters":26800,"station_id":"ce4bhmp2rcd13ifvqgog","pricing_plan_id":"cebpf4jnsgd1na2vs0mg"},{"bike_id":"bcc149d8-6418-4b80-b7f4-9e41a4dc2c09","system_id":"levelo_inurba_marseille","lat":43.30554,"lon":5.36517,"is_reserved":false,"is_disabled":false,"rental_uris":{"android":"levelo://app?vid=bcc149d8-6418-4b80-b7f4-9e41a4dc2c09","ios":"levelo://app?vid=bcc149d8-6418-4b80-b7f4-9e41a4dc2c09"},"vehicle_type_id":"4","last_reported":1737983763,"current_range_meters":35600,"station_id":"ce4bgs12rcd13ifvqcag","pricing_plan_id":"cebpf4jnsgd1na2vs0mg"},{"bike_id":"7e75ec61-2677-4a6a-80b3-987eab312c3e","system_id":"levelo_inurba_marseille","lat":43.29584,"lon":5.38107,"is_reserved":false,"is_disabled":false,"rental_uris":{"android":"levelo://app?vid=7e75ec61-2677-4a6a-80b3-987eab312c3e","ios":"levelo://app?vid=7e75ec61-2677-4a6a-80b3-987eab312c3e"},"vehicle_type_id":"4","last_reported":1737983763,"current_range_meters":36800,"station_id":"ce4bgl12rcd13ifvqbo0","pricing_plan_id":"cebpf4jnsgd1na2vs0mg"},{"bike_id":"acf4cec9-04b2-432c-83ba-19cc7ebac443","system_id":"levelo_inurba_marseille","lat":43.29038,"lon":5.38129,"is_reserved":false,"is_disabled":true,"rental_uris":{"android":"levelo://app?vid=acf4cec9-04b2-432c-83ba-19cc7ebac443","ios":"levelo://app?vid=acf4cec9-04b2-432c-83ba-19cc7ebac443"},"vehicle_type_id":"4","last_reported":1737983763,"current_range_meters":23200,"station_id":"ce4bh4p2rcd13ifvqe1g","pricing_plan_id":"cebpf4jnsgd1na2vs0mg"},{"bike_id":"3c9c9088-9c27-4609-bc62-8218c0dc2be8","system_id":"levelo_inurba_marseille","lat":43.23194,"lon":5.35564,"is_reserved":false,"is_disabled":false,"rental_uris":{"android":"levelo://app?vid=3c9c9088-9c27-4609-bc62-8218c0dc2be8","ios":"levelo://app?vid=3c9c9088-9c27-4609-bc62-8218c0dc2be8"},"vehicle_type_id":"4","last_reported":1737983763,"current_range_meters":37600,"station_id":"ce4bhu92rcd13ifvqi70","pricing_plan_id":"cebpf4jnsgd1na2vs0mg"},{"bike_id":"8a4fd9c1-126f-44bd-8919-7cf37f162b5e","system_id":"levelo_inurba_marseille","lat":43.28154,"lon":5.42639,"is_reserved":false,"is_disabled":false,"rental_uris":{"android":"levelo://app?vid=8a4fd9c1-126f-44bd-8919-7cf37f162b5e","ios":"levelo://app?vid=8a4fd9c1-126f-44bd-8919-7cf37f162b5e"},"vehicle_type_id":"4","last_reported":1737983763,"current_range_meters":30800,"station_id":"ce4bhnh2rcd13ifvqgug","pricing_plan_id":"cebpf4jnsgd1na2vs0mg"},{"bike_id":"908611cd-358e-457c-a364-8caf0fc92ab1","system_id":"levelo_inurba_marseille","lat":43.33611,"lon":5.41028,"is_reserved":false,"is_disabled":false,"rental_uris":{"android":"levelo://app?vid=908611cd-358e-457c-a364-8caf0fc92ab1","ios":"levelo://app?vid=908611cd-358e-457c-a364-8caf0fc92ab1"},"vehicle_type_id":"4","last_reported":1737983763,"current_range_meters":36400,"station_id":"ce4bhqh2rcd13ifvqhmg","pricing_plan_id":"cebpf4jnsgd1na2vs0mg"},{"bike_id":"02a65308-936d-4187-b4db-c0afc2d3e10c","system_id":"levelo_inurba_marseille","lat":43.25898,"lon":5.40927,"is_reserved":false,"is_disabled":false,"rental_uris":{"android":"levelo://app?vid=02a65308-936d-4187-b4db-c0afc2d3e10c","ios":"levelo://app?vid=02a65308-936d-4187-b4db-c0afc2d3e10c"},"vehicle_type_id":"4","last_reported":1737983763,"current_range_meters":38000,"station_id":"ce4bhm92rcd13ifvqglg","pricing_plan_id":"cebpf4jnsgd1na2vs0mg"},{"bike_id":"5ef42bac-1a09-4f8c-9fe8-ab058034fe56","system_id":"levelo_inurba_marseille","lat":43.29911,"lon":5.43644,"is_reserved":false,"is_disabled":false,"rental_uris":{"android":"levelo://app?vid=5ef42bac-1a09-4f8c-9fe8-ab058034fe56","ios":"levelo://app?vid=5ef42bac-1a09-4f8c-9fe8-ab058034fe56"},"vehicle_type_id":"4","last_reported":1737983763,"current_range_meters":16400,"station_id":"ce4bhpp2rcd13ifvqhfg","pricing_plan_id":"cebpf4jnsgd1na2vs0mg"},{"bike_id":"753c3ea2-d8b6-423c-b75c-0eb720ec3bbf","system_id":"levelo_inurba_marseille","lat":43.2756,"lon":5.38428,"is_reserved":false,"is_disabled":false,"rental_uris":{"android":"levelo://app?vid=753c3ea2-d8b6-423c-b75c-0eb720ec3bbf","ios":"levelo://app?vid=753c3ea2-d8b6-423c-b75c-0eb720ec3bbf"},"vehicle_type_id":"4","last_reported":1737983763,"current_range_meters":35600,"station_id":"ce4bhh92rcd13ifvqfi0","pricing_plan_id":"cebpf4jnsgd1na2vs0mg"},{"bike_id":"84c145c3-c63a-4d22-b8d5-94f667a178c4","system_id":"levelo_inurba_marseille","lat":43.28107,"lon":5.37838,"is_reserved":false,"is_disabled":false,"rental_uris":{"android":"levelo://app?vid=84c145c3-c63a-4d22-b8d5-94f667a178c4","ios":"levelo://app?vid=84c145c3-c63a-4d22-b8d5-94f667a178c4"},"vehicle_type_id":"4","last_reported":1737983763,"current_range_meters":11200,"station_id":"ce4bha12rcd13ifvqee0","pricing_plan_id":"cebpf4jnsgd1na2vs0mg"},{"bike_id":"0e15d77d-1543-419f-bfee-5bc37433fa77","system_id":"levelo_inurba_marseille","lat":43.30302,"lon":5.37704,"is_reserved":false,"is_disabled":false,"rental_uris":{"android":"levelo://app?vid=0e15d77d-1543-419f-bfee-5bc37433fa77","ios":"levelo://app?vid=0e15d77d-1543-419f-bfee-5bc37433fa77"},"vehicle_type_id":"4","last_reported":1737983763,"current_range_meters":37600,"station_id":"ce4bguh2rcd13ifvqcj0","pricing_plan_id":"cebpf4jnsgd1na2vs0mg"},{"bike_id":"d29433a3-e75f-45c4-b35e-23017dccdb61","system_id":"levelo_inurba_marseille","lat":43.25077,"lon":5.39525,"is_reserved":false,"is_disabled":false,"rental_uris":{"android":"levelo://app?vid=d29433a3-e75f-45c4-b35e-23017dccdb61","ios":"levelo://app?vid=d29433a3-e75f-45c4-b35e-23017dccdb61"},"vehicle_type_id":"4","last_reported":1737983763,"current_range_meters":25600,"station_id":"ce4bhm12rcd13ifvqgkg","pricing_plan_id":"cebpf4jnsgd1na2vs0mg"},{"bike_id":"6eb40d81-3050-4440-a70d-29414a2767b7","system_id":"levelo_inurba_marseille","lat":43.29223,"lon":5.36062,"is_reserved":false,"is_disabled":false,"rental_uris":{"android":"levelo://app?vid=6eb40d81-3050-4440-a70d-29414a2767b7","ios":"levelo://app?vid=6eb40d81-3050-4440-a70d-29414a2767b7"},"vehicle_type_id":"4","last_reported":1737983763,"current_range_meters":24000,"station_id":"ce4bhbh2rcd13ifvqeqg","pricing_plan_id":"cebpf4jnsgd1na2vs0mg"},{"bike_id":"6e1c3305-b8f3-4afe-9140-dba154ba208f","system_id":"levelo_inurba_marseille","lat":43.30468,"lon":5.37908,"is_reserved":false,"is_disabled":false,"rental_uris":{"android":"levelo://app?vid=6e1c3305-b8f3-4afe-9140-dba154ba208f","ios":"levelo://app?vid=6e1c3305-b8f3-4afe-9140-dba154ba208f"},"vehicle_type_id":"4","last_reported":1737983763,"current_range_meters":34000,"station_id":"ce4bgup2rcd13ifvqcn0","pricing_plan_id":"cebpf4jnsgd1na2vs0mg"},{"bike_id":"8707dca8-5fb6-4e35-a1ec-1f30a01fea05","system_id":"levelo_inurba_marseille","lat":43.29554,"lon":5.42274,"is_reserved":false,"is_disabled":false,"rental_uris":{"android":"levelo://app?vid=8707dca8-5fb6-4e35-a1ec-1f30a01fea05","ios":"levelo://app?vid=8707dca8-5fb6-4e35-a1ec-1f30a01fea05"},"vehicle_type_id":"4","last_reported":1737983763,"current_range_meters":9200,"station_id":"ce4bhph2rcd13ifvqhdg","pricing_plan_id":"cebpf4jnsgd1na2vs0mg"},{"bike_id":"b5f9da4a-0440-436b-86f5-ecc367051a64","system_id":"levelo_inurba_marseille","lat":43.29847,"lon":5.36272,"is_reserved":false,"is_disabled":false,"rental_uris":{"android":"levelo://app?vid=b5f9da4a-0440-436b-86f5-ecc367051a64","ios":"levelo://app?vid=b5f9da4a-0440-436b-86f5-ecc367051a64"},"vehicle_type_id":"4","last_reported":1737983763,"current_range_meters":30800,"station_id":"ce4bgpp2rcd13ifvqc3g","pricing_plan_id":"cebpf4jnsgd1na2vs0mg"},{"bike_id":"7c2d4905-732e-4666-bb46-11a3d9d858ce","system_id":"levelo_inurba_marseille","lat":43.26567,"lon":5.39015,"is_reserved":false,"is_disabled":false,"rental_uris":{"android":"levelo://app?vid=7c2d4905-732e-4666-bb46-11a3d9d858ce","ios":"levelo://app?vid=7c2d4905-732e-4666-bb46-11a3d9d858ce"},"vehicle_type_id":"4","last_reported":1737983763,"current_range_meters":32000,"station_id":"ce4bhe12rcd13ifvqf30","pricing_plan_id":"cebpf4jnsgd1na2vs0mg"},{"bike_id":"091ec011-b792-4fc7-8fe9-55cd6cf698d6","system_id":"levelo_inurba_marseille","lat":43.28558,"lon":5.39507,"is_reserved":false,"is_disabled":false,"rental_uris":{"android":"levelo://app?vid=091ec011-b792-4fc7-8fe9-55cd6cf698d6","ios":"levelo://app?vid=091ec011-b792-4fc7-8fe9-55cd6cf698d6"},"vehicle_type_id":"4","last_reported":1737983763,"current_range_meters":38400,"station_id":"ce4bh292rcd13ifvqdg0","pricing_plan_id":"cebpf4jnsgd1na2vs0mg"},{"bike_id":"ec50d851-d167-489c-aa47-6a993f35251b","system_id":"levelo_inurba_marseille","lat":43.29815,"lon":5.3809,"is_reserved":false,"is_disabled":false,"rental_uris":{"android":"levelo://app?vid=ec50d851-d167-489c-aa47-6a993f35251b","ios":"levelo://app?vid=ec50d851-d167-489c-aa47-6a993f35251b"},"vehicle_type_id":"4","last_reported":1737983763,"current_range_meters":38400,"station_id":"ce4bgip2rcd13ifvqbb0","pricing_plan_id":"cebpf4jnsgd1na2vs0mg"},{"bike_id":"a3ba0954-4a8b-45d3-8220-10e37cbea867","system_id":"levelo_inurba_marseille","lat":43.292,"lon":5.39312,"is_reserved":false,"is_disabled":false,"rental_uris":{"android":"levelo://app?vid=a3ba0954-4a8b-45d3-8220-10e37cbea867","ios":"levelo://app?vid=a3ba0954-4a8b-45d3-8220-10e37cbea867"},"vehicle_type_id":"4","last_reported":1737983763,"current_range_meters":32400,"station_id":"ce4bh192rcd13ifvqdd0","pricing_plan_id":"cebpf4jnsgd1na2vs0mg"},{"bike_id":"2256710f-428a-4b6c-afaf-f485da875c48","system_id":"levelo_inurba_marseille","lat":43.28599,"lon":5.35105,"is_reserved":false,"is_disabled":false,"rental_uris":{"android":"levelo://app?vid=2256710f-428a-4b6c-afaf-f485da875c48","ios":"levelo://app?vid=2256710f-428a-4b6c-afaf-f485da875c48"},"vehicle_type_id":"4","last_reported":1737983763,"current_range_meters":19200,"station_id":"ce4bhch2rcd13ifvqeug","pricing_plan_id":"cebpf4jnsgd1na2vs0mg"},{"bike_id":"9d01ac1d-f000-4abb-9a72-7b68ff9d60b7","system_id":"levelo_inurba_marseille","lat":43.30952,"lon":5.39031,"is_reserved":false,"is_disabled":false,"rental_uris":{"android":"levelo://app?vid=9d01ac1d-f000-4abb-9a72-7b68ff9d60b7","ios":"levelo://app?vid=9d01ac1d-f000-4abb-9a72-7b68ff9d60b7"},"vehicle_type_id":"4","last_reported":1737983763,"current_range_meters":38800,"station_id":"ce4bgup2rcd13ifvqco0","pricing_plan_id":"cebpf4jnsgd1na2vs0mg"},{"bike_id":"e2a8d0be-1945-4d70-8515-7cde3a6cda5c","system_id":"levelo_inurba_marseille","lat":43.28462,"lon":5.38545,"is_reserved":false,"is_disabled":false,"rental_uris":{"android":"levelo://app?vid=e2a8d0be-1945-4d70-8515-7cde3a6cda5c","ios":"levelo://app?vid=e2a8d0be-1945-4d70-8515-7cde3a6cda5c"},"vehicle_type_id":"4","last_reported":1737983763,"current_range_meters":38800,"station_id":"ce4bh8p2rcd13ifvqeb0","pricing_plan_id":"cebpf4jnsgd1na2vs0mg"},{"bike_id":"5fecc68f-993f-403a-b01f-310bc7fe5b45","system_id":"levelo_inurba_marseille","lat":43.29871,"lon":5.39726,"is_reserved":false,"is_disabled":false,"rental_uris":{"android":"levelo://app?vid=5fecc68f-993f-403a-b01f-310bc7fe5b45","ios":"levelo://app?vid=5fecc68f-993f-403a-b01f-310bc7fe5b45"},"vehicle_type_id":"4","last_reported":1737983763,"current_range_meters":39200,"station_id":"ce4bh0h2rcd13ifvqd50","pricing_plan_id":"cebpf4jnsgd1na2vs0mg"},{"bike_id":"b32b4546-2a7d-49df-b9e5-6aaf622b2aef","system_id":"levelo_inurba_marseille","lat":43.30669,"lon":5.4009,"is_reserved":false,"is_disabled":false,"rental_uris":{"android":"levelo://app?vid=b32b4546-2a7d-49df-b9e5-6aaf622b2aef","ios":"levelo://app?vid=b32b4546-2a7d-49df-b9e5-6aaf622b2aef"},"vehicle_type_id":"4","last_reported":1737983763,"current_range_meters":28800,"station_id":"ce4bh112rcd13ifvqda0","pricing_plan_id":"cebpf4jnsgd1na2vs0mg"},{"bike_id":"c90db321-e238-422e-8319-f1e49fb32fd6","system_id":"levelo_inurba_marseille","lat":43.28976,"lon":5.37834,"is_reserved":false,"is_disabled":false,"rental_uris":{"android":"levelo://app?vid=c90db321-e238-422e-8319-f1e49fb32fd6","ios":"levelo://app?vid=c90db321-e238-422e-8319-f1e49fb32fd6"},"vehicle_type_id":"4","last_reported":1737983763,"current_range_meters":20800,"station_id":"ce4bh9p2rcd13ifvqed0","pricing_plan_id":"cebpf4jnsgd1na2vs0mg"},{"bike_id":"0399208a-0ae4-4114-a545-81dadc8a561b","system_id":"levelo_inurba_marseille","lat":43.28712,"lon":5.36085,"is_reserved":false,"is_disabled":false,"rental_uris":{"android":"levelo://app?vid=0399208a-0ae4-4114-a545-81dadc8a561b","ios":"levelo://app?vid=0399208a-0ae4-4114-a545-81dadc8a561b"},"vehicle_type_id":"4","last_reported":1737983763,"current_range_meters":38800,"station_id":"cki0cbj6b192h4jlfktg","pricing_plan_id":"cebpf4jnsgd1na2vs0mg"},{"bike_id":"1c10e06c-5656-40fb-b44d-69bd09fef240","system_id":"levelo_inurba_marseille","lat":43.24999,"lon":5.38935,"is_reserved":false,"is_disabled":false,"rental_uris":{"android":"levelo://app?vid=1c10e06c-5656-40fb-b44d-69bd09fef240","ios":"levelo://app?vid=1c10e06c-5656-40fb-b44d-69bd09fef240"},"vehicle_type_id":"4","last_reported":1737983763,"current_range_meters":20800,"station_id":"ce4bhgp2rcd13ifvqfd0","pricing_plan_id":"cebpf4jnsgd1na2vs0mg"},{"bike_id":"d3037a9c-7620-4ea7-bfcc-6c2832f0c4e3","system_id":"levelo_inurba_marseille","lat":43.27492,"lon":5.42454,"is_reserved":false,"is_disabled":false,"rental_uris":{"android":"levelo://app?vid=d3037a9c-7620-4ea7-bfcc-6c2832f0c4e3","ios":"levelo://app?vid=d3037a9c-7620-4ea7-bfcc-6c2832f0c4e3"},"vehicle_type_id":"4","last_reported":1737983763,"current_range_meters":20000,"station_id":"ce4bhn92rcd13ifvqgrg","pricing_plan_id":"cebpf4jnsgd1na2vs0mg"},{"bike_id":"1c35c755-8b1c-439e-8798-f1a001a3969d","system_id":"levelo_inurba_marseille","lat":43.28102,"lon":5.378485,"is_reserved":false,"is_disabled":false,"rental_uris":{"android":"levelo://app?vid=1c35c755-8b1c-439e-8798-f1a001a3969d","ios":"levelo://app?vid=1c35c755-8b1c-439e-8798-f1a001a3969d"},"vehicle_type_id":"4","last_reported":1737983763,"current_range_meters":38800,"station_id":"ce4bha12rcd13ifvqee0","pricing_plan_id":"cebpf4jnsgd1na2vs0mg"},{"bike_id":"84c29870-d5ee-4bb1-bb91-42582a1a5dcb","system_id":"levelo_inurba_marseille","lat":43.30934,"lon":5.40147,"is_reserved":false,"is_disabled":false,"rental_uris":{"android":"levelo://app?vid=84c29870-d5ee-4bb1-bb91-42582a1a5dcb","ios":"levelo://app?vid=84c29870-d5ee-4bb1-bb91-42582a1a5dcb"},"vehicle_type_id":"4","last_reported":1737983763,"current_range_meters":39200,"station_id":"ce4bgvp2rcd13ifvqct0","pricing_plan_id":"cebpf4jnsgd1na2vs0mg"},{"bike_id":"b2e84613-bf95-4e96-b877-710acf15a4b0","system_id":"levelo_inurba_marseille","lat":43.29599,"lon":5.37739,"is_reserved":false,"is_disabled":false,"rental_uris":{"android":"levelo://app?vid=b2e84613-bf95-4e96-b877-710acf15a4b0","ios":"levelo://app?vid=b2e84613-bf95-4e96-b877-710acf15a4b0"},"vehicle_type_id":"4","last_reported":1737983763,"current_range_meters":19600,"station_id":"ce4bgi92rcd13ifvqb90","pricing_plan_id":"cebpf4jnsgd1na2vs0mg"},{"bike_id":"1215536e-8e5b-4442-b4f3-50d477e17382","system_id":"levelo_inurba_marseille","lat":43.29789,"lon":5.38105,"is_reserved":false,"is_disabled":false,"rental_uris":{"android":"levelo://app?vid=1215536e-8e5b-4442-b4f3-50d477e17382","ios":"levelo://app?vid=1215536e-8e5b-4442-b4f3-50d477e17382"},"vehicle_type_id":"4","last_reported":1737983763,"current_range_meters":25200,"station_id":"ce4bgip2rcd13ifvqbb0","pricing_plan_id":"cebpf4jnsgd1na2vs0mg"},{"bike_id":"5cc646ee-b5ea-467b-83d9-a65e94ecfe8a","system_id":"levelo_inurba_marseille","lat":43.26948,"lon":5.38647,"is_reserved":false,"is_disabled":false,"rental_uris":{"android":"levelo://app?vid=5cc646ee-b5ea-467b-83d9-a65e94ecfe8a","ios":"levelo://app?vid=5cc646ee-b5ea-467b-83d9-a65e94ecfe8a"},"vehicle_type_id":"4","last_reported":1737983763,"current_range_meters":30400,"station_id":"ce4bhh92rcd13ifvqfh0","pricing_plan_id":"cebpf4jnsgd1na2vs0mg"},{"bike_id":"4df2a845-0c01-44df-9066-683f72b76f35","system_id":"levelo_inurba_marseille","lat":43.30978,"lon":5.3905,"is_reserved":false,"is_disabled":false,"rental_uris":{"android":"levelo://app?vid=4df2a845-0c01-44df-9066-683f72b76f35","ios":"levelo://app?vid=4df2a845-0c01-44df-9066-683f72b76f35"},"vehicle_type_id":"4","last_reported":1737983763,"current_range_meters":39200,"station_id":"ce4bgup2rcd13ifvqco0","pricing_plan_id":"cebpf4jnsgd1na2vs0mg"},{"bike_id":"63a1793c-5887-4852-b350-894ff980cb3f","system_id":"levelo_inurba_marseille","lat":43.26788,"lon":5.39412,"is_reserved":false,"is_disabled":false,"rental_uris":{"android":"levelo://app?vid=63a1793c-5887-4852-b350-894ff980cb3f","ios":"levelo://app?vid=63a1793c-5887-4852-b350-894ff980cb3f"},"vehicle_type_id":"4","last_reported":1737983763,"current_range_meters":30400,"station_id":"ce4bhh12rcd13ifvqfg0","pricing_plan_id":"cebpf4jnsgd1na2vs0mg"},{"bike_id":"b96c22ba-a4c6-4ca8-b881-a2a2972e9bc2","system_id":"levelo_inurba_marseille","lat":43.26029,"lon":5.37556,"is_reserved":false,"is_disabled":false,"rental_uris":{"android":"levelo://app?vid=b96c22ba-a4c6-4ca8-b881-a2a2972e9bc2","ios":"levelo://app?vid=b96c22ba-a4c6-4ca8-b881-a2a2972e9bc2"},"vehicle_type_id":"4","last_reported":1737983763,"current_range_meters":38800,"station_id":"ce4bhgh2rcd13ifvqfa0","pricing_plan_id":"cebpf4jnsgd1na2vs0mg"},{"bike_id":"dcb50635-0e5e-4da9-b4df-329e73a63f8f","system_id":"levelo_inurba_marseille","lat":43.2417,"lon":5.39738,"is_reserved":false,"is_disabled":false,"rental_uris":{"android":"levelo://app?vid=dcb50635-0e5e-4da9-b4df-329e73a63f8f","ios":"levelo://app?vid=dcb50635-0e5e-4da9-b4df-329e73a63f8f"},"vehicle_type_id":"4","last_reported":1737983763,"current_range_meters":24000,"station_id":"ce4bhn12rcd13ifvqgpg","pricing_plan_id":"cebpf4jnsgd1na2vs0mg"},{"bike_id":"65544741-ccad-4fec-b358-0a12628434d5","system_id":"levelo_inurba_marseille","lat":43.23983,"lon":5.36609,"is_reserved":false,"is_disabled":false,"rental_uris":{"android":"levelo://app?vid=65544741-ccad-4fec-b358-0a12628434d5","ios":"levelo://app?vid=65544741-ccad-4fec-b358-0a12628434d5"},"vehicle_type_id":"4","last_reported":1737983763,"current_range_meters":10000,"station_id":"ce4bhi12rcd13ifvqfp0","pricing_plan_id":"cebpf4jnsgd1na2vs0mg"},{"bike_id":"1346ff93-9ddb-4093-aa5d-b6cb09dfef3c","system_id":"levelo_inurba_marseille","lat":43.28593,"lon":5.3512,"is_reserved":false,"is_disabled":false,"rental_uris":{"android":"levelo://app?vid=1346ff93-9ddb-4093-aa5d-b6cb09dfef3c","ios":"levelo://app?vid=1346ff93-9ddb-4093-aa5d-b6cb09dfef3c"},"vehicle_type_id":"4","last_reported":1737983763,"current_range_meters":38000,"station_id":"ce4bhch2rcd13ifvqeug","pricing_plan_id":"cebpf4jnsgd1na2vs0mg"},{"bike_id":"3ae9f9a6-f47d-4658-9c8b-5b2511eac482","system_id":"levelo_inurba_marseille","lat":43.33618,"lon":5.41044,"is_reserved":false,"is_disabled":false,"rental_uris":{"android":"levelo://app?vid=3ae9f9a6-f47d-4658-9c8b-5b2511eac482","ios":"levelo://app?vid=3ae9f9a6-f47d-4658-9c8b-5b2511eac482"},"vehicle_type_id":"4","last_reported":1737983763,"current_range_meters":38800,"station_id":"ce4bhqh2rcd13ifvqhmg","pricing_plan_id":"cebpf4jnsgd1na2vs0mg"},{"bike_id":"1d29e75c-7e1e-408c-8ece-b7be92eb3fbf","system_id":"levelo_inurba_marseille","lat":43.32543,"lon":5.41444,"is_reserved":false,"is_disabled":false,"rental_uris":{"android":"levelo://app?vid=1d29e75c-7e1e-408c-8ece-b7be92eb3fbf","ios":"levelo://app?vid=1d29e75c-7e1e-408c-8ece-b7be92eb3fbf"},"vehicle_type_id":"4","last_reported":1737983763,"current_range_meters":39200,"station_id":"ce4bhq12rcd13ifvqhhg","pricing_plan_id":"cebpf4jnsgd1na2vs0mg"},{"bike_id":"47638f28-2493-446b-80e2-b41924a67fd4","system_id":"levelo_inurba_marseille","lat":43.2835,"lon":5.38095,"is_reserved":false,"is_disabled":false,"rental_uris":{"android":"levelo://app?vid=47638f28-2493-446b-80e2-b41924a67fd4","ios":"levelo://app?vid=47638f28-2493-446b-80e2-b41924a67fd4"},"vehicle_type_id":"4","last_reported":1737983763,"current_range_meters":27600,"station_id":"ce4bh412rcd13ifvqdr0","pricing_plan_id":"cebpf4jnsgd1na2vs0mg"},{"bike_id":"62c1cc34-9dc4-4d8b-8527-96825b372e5a","system_id":"levelo_inurba_marseille","lat":43.26215,"lon":5.374528,"is_reserved":false,"is_disabled":false,"rental_uris":{"android":"levelo://app?vid=62c1cc34-9dc4-4d8b-8527-96825b372e5a","ios":"levelo://app?vid=62c1cc34-9dc4-4d8b-8527-96825b372e5a"},"vehicle_type_id":"4","last_reported":1737983763,"current_range_meters":18000,"station_id":"ce4bhgp2rcd13ifvqfc0","pricing_plan_id":"cebpf4jnsgd1na2vs0mg"},{"bike_id":"76a03fe2-6853-42db-8972-77b89a64555b","system_id":"levelo_inurba_marseille","lat":43.3211,"lon":5.36768,"is_reserved":false,"is_disabled":true,"rental_uris":{"android":"levelo://app?vid=76a03fe2-6853-42db-8972-77b89a64555b","ios":"levelo://app?vid=76a03fe2-6853-42db-8972-77b89a64555b"},"vehicle_type_id":"4","last_reported":1737983763,"current_range_meters":25600,"station_id":"ce4bhrh2rcd13ifvqhug","pricing_plan_id":"cebpf4jnsgd1na2vs0mg"},{"bike_id":"f07253c8-6648-4865-8bec-733f295fbeac","system_id":"levelo_inurba_marseille","lat":43.284747,"lon":5.385567,"is_reserved":false,"is_disabled":false,"rental_uris":{"android":"levelo://app?vid=f07253c8-6648-4865-8bec-733f295fbeac","ios":"levelo://app?vid=f07253c8-6648-4865-8bec-733f295fbeac"},"vehicle_type_id":"4","last_reported":1737983763,"current_range_meters":35200,"station_id":"ce4bh8p2rcd13ifvqeb0","pricing_plan_id":"cebpf4jnsgd1na2vs0mg"},{"bike_id":"b01b0706-3a3a-4ff1-ac0d-6b17e48eff7a","system_id":"levelo_inurba_marseille","lat":43.23194,"lon":5.35558,"is_reserved":false,"is_disabled":false,"rental_uris":{"android":"levelo://app?vid=b01b0706-3a3a-4ff1-ac0d-6b17e48eff7a","ios":"levelo://app?vid=b01b0706-3a3a-4ff1-ac0d-6b17e48eff7a"},"vehicle_type_id":"4","last_reported":1737983763,"current_range_meters":36800,"station_id":"ce4bhu92rcd13ifvqi70","pricing_plan_id":"cebpf4jnsgd1na2vs0mg"},{"bike_id":"f8a4fb33-f310-4437-9b02-d0b64fe40860","system_id":"levelo_inurba_marseille","lat":43.30288,"lon":5.37697,"is_reserved":false,"is_disabled":false,"rental_uris":{"android":"levelo://app?vid=f8a4fb33-f310-4437-9b02-d0b64fe40860","ios":"levelo://app?vid=f8a4fb33-f310-4437-9b02-d0b64fe40860"},"vehicle_type_id":"4","last_reported":1737983763,"current_range_meters":30800,"station_id":"ce4bguh2rcd13ifvqcj0","pricing_plan_id":"cebpf4jnsgd1na2vs0mg"},{"bike_id":"8ec8b6fa-9e93-4b54-9125-9cb4dc49a696","system_id":"levelo_inurba_marseille","lat":43.24656,"lon":5.389,"is_reserved":false,"is_disabled":false,"rental_uris":{"android":"levelo://app?vid=8ec8b6fa-9e93-4b54-9125-9cb4dc49a696","ios":"levelo://app?vid=8ec8b6fa-9e93-4b54-9125-9cb4dc49a696"},"vehicle_type_id":"4","last_reported":1737983763,"current_range_meters":5600,"station_id":"ce4bhg12rcd13ifvqf60","pricing_plan_id":"cebpf4jnsgd1na2vs0mg"},{"bike_id":"f1ea2730-3ce5-40a5-af45-df91059c878b","system_id":"levelo_inurba_marseille","lat":43.30459,"lon":5.37916,"is_reserved":false,"is_disabled":false,"rental_uris":{"android":"levelo://app?vid=f1ea2730-3ce5-40a5-af45-df91059c878b","ios":"levelo://app?vid=f1ea2730-3ce5-40a5-af45-df91059c878b"},"vehicle_type_id":"4","last_reported":1737983763,"current_range_meters":3600,"station_id":"ce4bgup2rcd13ifvqcn0","pricing_plan_id":"cebpf4jnsgd1na2vs0mg"},{"bike_id":"82268c69-bcd8-49fb-91ea-6277b4711aa7","system_id":"levelo_inurba_marseille","lat":43.25528,"lon":5.39792,"is_reserved":false,"is_disabled":false,"rental_uris":{"android":"levelo://app?vid=82268c69-bcd8-49fb-91ea-6277b4711aa7","ios":"levelo://app?vid=82268c69-bcd8-49fb-91ea-6277b4711aa7"},"vehicle_type_id":"4","last_reported":1737983763,"current_range_meters":26000,"station_id":"","pricing_plan_id":"cebpf4jnsgd1na2vs0mg"},{"bike_id":"4f36bb3d-3d4d-4f60-913b-e55e33455695","system_id":"levelo_inurba_marseille","lat":43.30558,"lon":5.36545,"is_reserved":false,"is_disabled":false,"rental_uris":{"android":"levelo://app?vid=4f36bb3d-3d4d-4f60-913b-e55e33455695","ios":"levelo://app?vid=4f36bb3d-3d4d-4f60-913b-e55e33455695"},"vehicle_type_id":"4","last_reported":1737983763,"current_range_meters":37600,"station_id":"ce4bgs12rcd13ifvqcag","pricing_plan_id":"cebpf4jnsgd1na2vs0mg"},{"bike_id":"358ea70b-11d9-47fa-b75c-b7801a957d01","system_id":"levelo_inurba_marseille","lat":43.24011,"lon":5.37773,"is_reserved":false,"is_disabled":false,"rental_uris":{"android":"levelo://app?vid=358ea70b-11d9-47fa-b75c-b7801a957d01","ios":"levelo://app?vid=358ea70b-11d9-47fa-b75c-b7801a957d01"},"vehicle_type_id":"4","last_reported":1737983763,"current_range_meters":3600,"station_id":"","pricing_plan_id":"cebpf4jnsgd1na2vs0mg"},{"bike_id":"24cfb25a-4e6b-44c9-aa4f-740815d4798b","system_id":"levelo_inurba_marseille","lat":43.30295,"lon":5.36904,"is_reserved":false,"is_disabled":false,"rental_uris":{"android":"levelo://app?vid=24cfb25a-4e6b-44c9-aa4f-740815d4798b","ios":"levelo://app?vid=24cfb25a-4e6b-44c9-aa4f-740815d4798b"},"vehicle_type_id":"4","last_reported":1737983763,"current_range_meters":33200,"station_id":"ce4bgqh2rcd13ifvqc5g","pricing_plan_id":"cebpf4jnsgd1na2vs0mg"},{"bike_id":"26e37699-eff4-43e7-811f-f2f24182e176","system_id":"levelo_inurba_marseille","lat":43.2978,"lon":5.37125,"is_reserved":false,"is_disabled":false,"rental_uris":{"android":"levelo://app?vid=26e37699-eff4-43e7-811f-f2f24182e176","ios":"levelo://app?vid=26e37699-eff4-43e7-811f-f2f24182e176"},"vehicle_type_id":"4","last_reported":1737983763,"current_range_meters":24400,"station_id":"ce4bgop2rcd13ifvqc1g","pricing_plan_id":"cebpf4jnsgd1na2vs0mg"},{"bike_id":"01e1773c-3be5-489f-b890-a0907a952fb7","system_id":"levelo_inurba_marseille","lat":43.30466,"lon":5.37904,"is_reserved":false,"is_disabled":false,"rental_uris":{"android":"levelo://app?vid=01e1773c-3be5-489f-b890-a0907a952fb7","ios":"levelo://app?vid=01e1773c-3be5-489f-b890-a0907a952fb7"},"vehicle_type_id":"4","last_reported":1737983763,"current_range_meters":38800,"station_id":"ce4bgup2rcd13ifvqcn0","pricing_plan_id":"cebpf4jnsgd1na2vs0mg"},{"bike_id":"ede001c8-def5-4312-868c-82ddf54900d4","system_id":"levelo_inurba_marseille","lat":43.28474,"lon":5.38546,"is_reserved":false,"is_disabled":false,"rental_uris":{"android":"levelo://app?vid=ede001c8-def5-4312-868c-82ddf54900d4","ios":"levelo://app?vid=ede001c8-def5-4312-868c-82ddf54900d4"},"vehicle_type_id":"4","last_reported":1737983763,"current_range_meters":29600,"station_id":"ce4bh8p2rcd13ifvqeb0","pricing_plan_id":"cebpf4jnsgd1na2vs0mg"},{"bike_id":"48eaf086-a58e-442a-ac63-1b1e74c4ac84","system_id":"levelo_inurba_marseille","lat":43.31712,"lon":5.43707,"is_reserved":false,"is_disabled":false,"rental_uris":{"android":"levelo://app?vid=48eaf086-a58e-442a-ac63-1b1e74c4ac84","ios":"levelo://app?vid=48eaf086-a58e-442a-ac63-1b1e74c4ac84"},"vehicle_type_id":"4","last_reported":1737983763,"current_range_meters":39200,"station_id":"ce4bhp92rcd13ifvqhcg","pricing_plan_id":"cebpf4jnsgd1na2vs0mg"},{"bike_id":"7fd84b68-8795-4b64-88b1-cc544e1d0969","system_id":"levelo_inurba_marseille","lat":43.28293,"lon":5.35074,"is_reserved":false,"is_disabled":false,"rental_uris":{"android":"levelo://app?vid=7fd84b68-8795-4b64-88b1-cc544e1d0969","ios":"levelo://app?vid=7fd84b68-8795-4b64-88b1-cc544e1d0969"},"vehicle_type_id":"4","last_reported":1737983763,"current_range_meters":38800,"station_id":"ce4bhbp2rcd13ifvqerg","pricing_plan_id":"cebpf4jnsgd1na2vs0mg"},{"bike_id":"c0fa03c0-61d9-4ebe-94ca-0c4f7021aa52","system_id":"levelo_inurba_marseille","lat":43.30471,"lon":5.37907,"is_reserved":false,"is_disabled":false,"rental_uris":{"android":"levelo://app?vid=c0fa03c0-61d9-4ebe-94ca-0c4f7021aa52","ios":"levelo://app?vid=c0fa03c0-61d9-4ebe-94ca-0c4f7021aa52"},"vehicle_type_id":"4","last_reported":1737983763,"current_range_meters":37600,"station_id":"ce4bgup2rcd13ifvqcn0","pricing_plan_id":"cebpf4jnsgd1na2vs0mg"},{"bike_id":"73b16524-5bad-446d-b480-50c2aae535df","system_id":"levelo_inurba_marseille","lat":43.337444,"lon":5.374475,"is_reserved":false,"is_disabled":false,"rental_uris":{"android":"levelo://app?vid=73b16524-5bad-446d-b480-50c2aae535df","ios":"levelo://app?vid=73b16524-5bad-446d-b480-50c2aae535df"},"vehicle_type_id":"4","last_reported":1737983763,"current_range_meters":34800,"station_id":"ce4bh0h2rcd13ifvqd50","pricing_plan_id":"cebpf4jnsgd1na2vs0mg"},{"bike_id":"ff68af14-5554-4f8d-a3de-4549d987f602","system_id":"levelo_inurba_marseille","lat":43.29915,"lon":5.43622,"is_reserved":false,"is_disabled":false,"rental_uris":{"android":"levelo://app?vid=ff68af14-5554-4f8d-a3de-4549d987f602","ios":"levelo://app?vid=ff68af14-5554-4f8d-a3de-4549d987f602"},"vehicle_type_id":"4","last_reported":1737983763,"current_range_meters":38800,"station_id":"ce4bhpp2rcd13ifvqhfg","pricing_plan_id":"cebpf4jnsgd1na2vs0mg"},{"bike_id":"75c7a652-25ad-4961-99e9-d34790c80f49","system_id":"levelo_inurba_marseille","lat":43.24986,"lon":5.38933,"is_reserved":false,"is_disabled":false,"rental_uris":{"android":"levelo://app?vid=75c7a652-25ad-4961-99e9-d34790c80f49","ios":"levelo://app?vid=75c7a652-25ad-4961-99e9-d34790c80f49"},"vehicle_type_id":"4","last_reported":1737983763,"current_range_meters":11200,"station_id":"ce4bhgp2rcd13ifvqfd0","pricing_plan_id":"cebpf4jnsgd1na2vs0mg"},{"bike_id":"16540711-d9a5-4408-9fdf-9a9921305896","system_id":"levelo_inurba_marseille","lat":43.30556,"lon":5.36516,"is_reserved":false,"is_disabled":true,"rental_uris":{"android":"levelo://app?vid=16540711-d9a5-4408-9fdf-9a9921305896","ios":"levelo://app?vid=16540711-d9a5-4408-9fdf-9a9921305896"},"vehicle_type_id":"4","last_reported":1737983763,"current_range_meters":11200,"station_id":"ce4bgs12rcd13ifvqcag","pricing_plan_id":"cebpf4jnsgd1na2vs0mg"},{"bike_id":"d2c40c3f-6384-4e2d-85f6-b3bc648b180f","system_id":"levelo_inurba_marseille","lat":43.29582,"lon":5.37511,"is_reserved":false,"is_disabled":false,"rental_uris":{"android":"levelo://app?vid=d2c40c3f-6384-4e2d-85f6-b3bc648b180f","ios":"levelo://app?vid=d2c40c3f-6384-4e2d-85f6-b3bc648b180f"},"vehicle_type_id":"4","last_reported":1737983763,"current_range_meters":38800,"station_id":"ce4bgh92rcd13ifvqb50","pricing_plan_id":"cebpf4jnsgd1na2vs0mg"},{"bike_id":"e02cc181-fae8-4627-9070-19cdd3303066","system_id":"levelo_inurba_marseille","lat":43.29798,"lon":5.40421,"is_reserved":false,"is_disabled":false,"rental_uris":{"android":"levelo://app?vid=e02cc181-fae8-4627-9070-19cdd3303066","ios":"levelo://app?vid=e02cc181-fae8-4627-9070-19cdd3303066"},"vehicle_type_id":"4","last_reported":1737983763,"current_range_meters":38000,"station_id":"ce4bh112rcd13ifvqd90","pricing_plan_id":"cebpf4jnsgd1na2vs0mg"},{"bike_id":"d3819e08-6202-484f-8693-2f025bec4323","system_id":"levelo_inurba_marseille","lat":43.29254,"lon":5.40904,"is_reserved":false,"is_disabled":false,"rental_uris":{"android":"levelo://app?vid=d3819e08-6202-484f-8693-2f025bec4323","ios":"levelo://app?vid=d3819e08-6202-484f-8693-2f025bec4323"},"vehicle_type_id":"4","last_reported":1737983763,"current_range_meters":3600,"station_id":"ce4bh192rcd13ifvqdc0","pricing_plan_id":"cebpf4jnsgd1na2vs0mg"},{"bike_id":"86b498e3-784c-4315-9910-77930c320efa","system_id":"levelo_inurba_marseille","lat":43.28598,"lon":5.3707,"is_reserved":false,"is_disabled":false,"rental_uris":{"android":"levelo://app?vid=86b498e3-784c-4315-9910-77930c320efa","ios":"levelo://app?vid=86b498e3-784c-4315-9910-77930c320efa"},"vehicle_type_id":"4","last_reported":1737983763,"current_range_meters":37600,"station_id":"ce4bht12rcd13ifvqi60","pricing_plan_id":"cebpf4jnsgd1na2vs0mg"},{"bike_id":"d4b96a79-6fba-47bf-8cf9-899b5e9182b4","system_id":"levelo_inurba_marseille","lat":43.26206,"lon":5.37917,"is_reserved":false,"is_disabled":false,"rental_uris":{"android":"levelo://app?vid=d4b96a79-6fba-47bf-8cf9-899b5e9182b4","ios":"levelo://app?vid=d4b96a79-6fba-47bf-8cf9-899b5e9182b4"},"vehicle_type_id":"4","last_reported":1737983763,"current_range_meters":13600,"station_id":"ce4bhjp2rcd13ifvqg90","pricing_plan_id":"cebpf4jnsgd1na2vs0mg"},{"bike_id":"c66103dd-88bc-40d3-a264-9ac423781b84","system_id":"levelo_inurba_marseille","lat":43.3054,"lon":5.36557,"is_reserved":false,"is_disabled":false,"rental_uris":{"android":"levelo://app?vid=c66103dd-88bc-40d3-a264-9ac423781b84","ios":"levelo://app?vid=c66103dd-88bc-40d3-a264-9ac423781b84"},"vehicle_type_id":"4","last_reported":1737983763,"current_range_meters":8000,"station_id":"ce4bgs12rcd13ifvqcag","pricing_plan_id":"cebpf4jnsgd1na2vs0mg"},{"bike_id":"8c772f1a-bac2-41fc-878f-d0d152dc8c92","system_id":"levelo_inurba_marseille","lat":43.29185,"lon":5.38225,"is_reserved":false,"is_disabled":false,"rental_uris":{"android":"levelo://app?vid=8c772f1a-bac2-41fc-878f-d0d152dc8c92","ios":"levelo://app?vid=8c772f1a-bac2-41fc-878f-d0d152dc8c92"},"vehicle_type_id":"4","last_reported":1737983763,"current_range_meters":5600,"station_id":"","pricing_plan_id":"cebpf4jnsgd1na2vs0mg"},{"bike_id":"346f2c97-32bd-4f3b-9938-e782ff87ad82","system_id":"levelo_inurba_marseille","lat":43.30578,"lon":5.3651,"is_reserved":false,"is_disabled":false,"rental_uris":{"android":"levelo://app?vid=346f2c97-32bd-4f3b-9938-e782ff87ad82","ios":"levelo://app?vid=346f2c97-32bd-4f3b-9938-e782ff87ad82"},"vehicle_type_id":"4","last_reported":1737983763,"current_range_meters":38800,"station_id":"ce4bgs12rcd13ifvqcag","pricing_plan_id":"cebpf4jnsgd1na2vs0mg"},{"bike_id":"6d301d54-3fe2-456f-9752-1a1a8fa0c2b5","system_id":"levelo_inurba_marseille","lat":43.313785,"lon":5.367458,"is_reserved":false,"is_disabled":false,"rental_uris":{"android":"levelo://app?vid=6d301d54-3fe2-456f-9752-1a1a8fa0c2b5","ios":"levelo://app?vid=6d301d54-3fe2-456f-9752-1a1a8fa0c2b5"},"vehicle_type_id":"4","last_reported":1737983763,"current_range_meters":38800,"station_id":"ce4bgr92rcd13ifvqc6g","pricing_plan_id":"cebpf4jnsgd1na2vs0mg"},{"bike_id":"5c99bd0c-c4d6-4fc0-9d3f-c7b324c14588","system_id":"levelo_inurba_marseille","lat":43.28995,"lon":5.37831,"is_reserved":false,"is_disabled":false,"rental_uris":{"android":"levelo://app?vid=5c99bd0c-c4d6-4fc0-9d3f-c7b324c14588","ios":"levelo://app?vid=5c99bd0c-c4d6-4fc0-9d3f-c7b324c14588"},"vehicle_type_id":"4","last_reported":1737983763,"current_range_meters":30800,"station_id":"ce4bh9p2rcd13ifvqed0","pricing_plan_id":"cebpf4jnsgd1na2vs0mg"},{"bike_id":"08e815ee-5033-4939-a2c6-8f3793c0e812","system_id":"levelo_inurba_marseille","lat":43.28075,"lon":5.39664,"is_reserved":false,"is_disabled":false,"rental_uris":{"android":"levelo://app?vid=08e815ee-5033-4939-a2c6-8f3793c0e812","ios":"levelo://app?vid=08e815ee-5033-4939-a2c6-8f3793c0e812"},"vehicle_type_id":"4","last_reported":1737983763,"current_range_meters":25200,"station_id":"ce4bho12rcd13ifvqh2g","pricing_plan_id":"cebpf4jnsgd1na2vs0mg"},{"bike_id":"289203b5-6c4b-4b48-9f7b-d2b2ee4e2d11","system_id":"levelo_inurba_marseille","lat":43.27212,"lon":5.39184,"is_reserved":false,"is_disabled":false,"rental_uris":{"android":"levelo://app?vid=289203b5-6c4b-4b48-9f7b-d2b2ee4e2d11","ios":"levelo://app?vid=289203b5-6c4b-4b48-9f7b-d2b2ee4e2d11"},"vehicle_type_id":"4","last_reported":1737983763,"current_range_meters":25600,"station_id":"ce4bhhp2rcd13ifvqfm0","pricing_plan_id":"cebpf4jnsgd1na2vs0mg"},{"bike_id":"beab6ee7-670c-44df-8ce2-8c7aefff9d72","system_id":"levelo_inurba_marseille","lat":43.29966,"lon":5.38502,"is_reserved":false,"is_disabled":false,"rental_uris":{"android":"levelo://app?vid=beab6ee7-670c-44df-8ce2-8c7aefff9d72","ios":"levelo://app?vid=beab6ee7-670c-44df-8ce2-8c7aefff9d72"},"vehicle_type_id":"4","last_reported":1737983763,"current_range_meters":27200,"station_id":"ce4bgj92rcd13ifvqbd0","pricing_plan_id":"cebpf4jnsgd1na2vs0mg"},{"bike_id":"60c1776e-2b3e-4e37-aa79-eab693ee2ee4","system_id":"levelo_inurba_marseille","lat":43.29932,"lon":5.36537,"is_reserved":false,"is_disabled":false,"rental_uris":{"android":"levelo://app?vid=60c1776e-2b3e-4e37-aa79-eab693ee2ee4","ios":"levelo://app?vid=60c1776e-2b3e-4e37-aa79-eab693ee2ee4"},"vehicle_type_id":"4","last_reported":1737983763,"current_range_meters":17600,"station_id":"ce4bgm92rcd13ifvqbr0","pricing_plan_id":"cebpf4jnsgd1na2vs0mg"},{"bike_id":"f9173de2-2fa5-436f-a76b-3c96bd571284","system_id":"levelo_inurba_marseille","lat":43.29804,"lon":5.40419,"is_reserved":false,"is_disabled":false,"rental_uris":{"android":"levelo://app?vid=f9173de2-2fa5-436f-a76b-3c96bd571284","ios":"levelo://app?vid=f9173de2-2fa5-436f-a76b-3c96bd571284"},"vehicle_type_id":"4","last_reported":1737983763,"current_range_meters":38800,"station_id":"ce4bh112rcd13ifvqd90","pricing_plan_id":"cebpf4jnsgd1na2vs0mg"},{"bike_id":"c9bab0ad-8a1a-49b4-ace1-a3def6f513e0","system_id":"levelo_inurba_marseille","lat":43.30936,"lon":5.40166,"is_reserved":false,"is_disabled":false,"rental_uris":{"android":"levelo://app?vid=c9bab0ad-8a1a-49b4-ace1-a3def6f513e0","ios":"levelo://app?vid=c9bab0ad-8a1a-49b4-ace1-a3def6f513e0"},"vehicle_type_id":"4","last_reported":1737983763,"current_range_meters":37600,"station_id":"ce4bgvp2rcd13ifvqct0","pricing_plan_id":"cebpf4jnsgd1na2vs0mg"},{"bike_id":"ce7496b9-3a07-4d4e-974e-09d44b1427a4","system_id":"levelo_inurba_marseille","lat":43.28469,"lon":5.38431,"is_reserved":false,"is_disabled":false,"rental_uris":{"android":"levelo://app?vid=ce7496b9-3a07-4d4e-974e-09d44b1427a4","ios":"levelo://app?vid=ce7496b9-3a07-4d4e-974e-09d44b1427a4"},"vehicle_type_id":"4","last_reported":1737983763,"current_range_meters":10800,"station_id":"ce4bh512rcd13ifvqe3g","pricing_plan_id":"cebpf4jnsgd1na2vs0mg"},{"bike_id":"e46feb46-693a-4d46-b1a3-d003514c7c53","system_id":"levelo_inurba_marseille","lat":43.2905,"lon":5.3996,"is_reserved":false,"is_disabled":false,"rental_uris":{"android":"levelo://app?vid=e46feb46-693a-4d46-b1a3-d003514c7c53","ios":"levelo://app?vid=e46feb46-693a-4d46-b1a3-d003514c7c53"},"vehicle_type_id":"4","last_reported":1737983763,"current_range_meters":30000,"station_id":"ce4bh392rcd13ifvqdm0","pricing_plan_id":"cebpf4jnsgd1na2vs0mg"},{"bike_id":"26c5f55d-b689-44ba-bcbe-576c29c6025c","system_id":"levelo_inurba_marseille","lat":43.33753,"lon":5.39188,"is_reserved":false,"is_disabled":false,"rental_uris":{"android":"levelo://app?vid=26c5f55d-b689-44ba-bcbe-576c29c6025c","ios":"levelo://app?vid=26c5f55d-b689-44ba-bcbe-576c29c6025c"},"vehicle_type_id":"4","last_reported":1737983763,"current_range_meters":24800,"station_id":"ce4bhr92rcd13ifvqhsg","pricing_plan_id":"cebpf4jnsgd1na2vs0mg"},{"bike_id":"0b6f18d5-146b-44c4-a3ea-4029df8b8e75","system_id":"levelo_inurba_marseille","lat":43.27825,"lon":5.40712,"is_reserved":false,"is_disabled":false,"rental_uris":{"android":"levelo://app?vid=0b6f18d5-146b-44c4-a3ea-4029df8b8e75","ios":"levelo://app?vid=0b6f18d5-146b-44c4-a3ea-4029df8b8e75"},"vehicle_type_id":"4","last_reported":1737983763,"current_range_meters":38800,"station_id":"ce4bhnh2rcd13ifvqgtg","pricing_plan_id":"cebpf4jnsgd1na2vs0mg"},{"bike_id":"c0dd3d95-a1a5-47d9-87ac-0943eac618cc","system_id":"levelo_inurba_marseille","lat":43.30954,"lon":5.39043,"is_reserved":false,"is_disabled":false,"rental_uris":{"android":"levelo://app?vid=c0dd3d95-a1a5-47d9-87ac-0943eac618cc","ios":"levelo://app?vid=c0dd3d95-a1a5-47d9-87ac-0943eac618cc"},"vehicle_type_id":"4","last_reported":1737983763,"current_range_meters":38800,"station_id":"ce4bgup2rcd13ifvqco0","pricing_plan_id":"cebpf4jnsgd1na2vs0mg"},{"bike_id":"e79eee5f-0544-4b2c-98fd-4bd39814a0ce","system_id":"levelo_inurba_marseille","lat":43.26949,"lon":5.38636,"is_reserved":false,"is_disabled":false,"rental_uris":{"android":"levelo://app?vid=e79eee5f-0544-4b2c-98fd-4bd39814a0ce","ios":"levelo://app?vid=e79eee5f-0544-4b2c-98fd-4bd39814a0ce"},"vehicle_type_id":"4","last_reported":1737983763,"current_range_meters":20800,"station_id":"ce4bhh92rcd13ifvqfh0","pricing_plan_id":"cebpf4jnsgd1na2vs0mg"},{"bike_id":"bbc29a64-5b04-45e7-a25a-b329b015caac","system_id":"levelo_inurba_marseille","lat":43.29344,"lon":5.37865,"is_reserved":false,"is_disabled":false,"rental_uris":{"android":"levelo://app?vid=bbc29a64-5b04-45e7-a25a-b329b015caac","ios":"levelo://app?vid=bbc29a64-5b04-45e7-a25a-b329b015caac"},"vehicle_type_id":"4","last_reported":1737983763,"current_range_meters":12000,"station_id":"ce4bgjh2rcd13ifvqbf0","pricing_plan_id":"cebpf4jnsgd1na2vs0mg"},{"bike_id":"4ee7a4b2-dea3-4f4a-a76b-2d1e4fcbcafe","system_id":"levelo_inurba_marseille","lat":43.28477,"lon":5.38533,"is_reserved":false,"is_disabled":true,"rental_uris":{"android":"levelo://app?vid=4ee7a4b2-dea3-4f4a-a76b-2d1e4fcbcafe","ios":"levelo://app?vid=4ee7a4b2-dea3-4f4a-a76b-2d1e4fcbcafe"},"vehicle_type_id":"4","last_reported":1737983763,"current_range_meters":2000,"station_id":"ce4bh8p2rcd13ifvqeb0","pricing_plan_id":"cebpf4jnsgd1na2vs0mg"},{"bike_id":"c772779b-3b78-4143-a73c-c60232eed73c","system_id":"levelo_inurba_marseille","lat":43.325347,"lon":5.414549,"is_reserved":false,"is_disabled":false,"rental_uris":{"android":"levelo://app?vid=c772779b-3b78-4143-a73c-c60232eed73c","ios":"levelo://app?vid=c772779b-3b78-4143-a73c-c60232eed73c"},"vehicle_type_id":"4","last_reported":1737983763,"current_range_meters":36000,"station_id":"ce4bhq12rcd13ifvqhhg","pricing_plan_id":"cebpf4jnsgd1na2vs0mg"},{"bike_id":"78f8a76b-5269-4460-a81a-cc068532193c","system_id":"levelo_inurba_marseille","lat":43.30451,"lon":5.37914,"is_reserved":false,"is_disabled":false,"rental_uris":{"android":"levelo://app?vid=78f8a76b-5269-4460-a81a-cc068532193c","ios":"levelo://app?vid=78f8a76b-5269-4460-a81a-cc068532193c"},"vehicle_type_id":"4","last_reported":1737983763,"current_range_meters":26800,"station_id":"ce4bgup2rcd13ifvqcn0","pricing_plan_id":"cebpf4jnsgd1na2vs0mg"},{"bike_id":"01f5cfe7-92a2-479c-9790-08beb4add5f5","system_id":"levelo_inurba_marseille","lat":43.29805,"lon":5.38086,"is_reserved":false,"is_disabled":false,"rental_uris":{"android":"levelo://app?vid=01f5cfe7-92a2-479c-9790-08beb4add5f5","ios":"levelo://app?vid=01f5cfe7-92a2-479c-9790-08beb4add5f5"},"vehicle_type_id":"4","last_reported":1737983763,"current_range_meters":30400,"station_id":"ce4bgip2rcd13ifvqbb0","pricing_plan_id":"cebpf4jnsgd1na2vs0mg"},{"bike_id":"e3e26aee-15e1-425c-a48f-db58aa520742","system_id":"levelo_inurba_marseille","lat":43.23073,"lon":5.35497,"is_reserved":false,"is_disabled":false,"rental_uris":{"android":"levelo://app?vid=e3e26aee-15e1-425c-a48f-db58aa520742","ios":"levelo://app?vid=e3e26aee-15e1-425c-a48f-db58aa520742"},"vehicle_type_id":"4","last_reported":1737983763,"current_range_meters":38800,"station_id":"cpo3342slgdg3j2ifvpg","pricing_plan_id":"cebpf4jnsgd1na2vs0mg"},{"bike_id":"414e9e87-13c8-4dd8-9df6-7723400a2d87","system_id":"levelo_inurba_marseille","lat":43.25934,"lon":5.40907,"is_reserved":false,"is_disabled":false,"rental_uris":{"android":"levelo://app?vid=414e9e87-13c8-4dd8-9df6-7723400a2d87","ios":"levelo://app?vid=414e9e87-13c8-4dd8-9df6-7723400a2d87"},"vehicle_type_id":"4","last_reported":1737983763,"current_range_meters":38800,"station_id":"ce4bhm92rcd13ifvqglg","pricing_plan_id":"cebpf4jnsgd1na2vs0mg"},{"bike_id":"4f0d564d-d2c5-4d63-8272-ec4ed8b18df2","system_id":"levelo_inurba_marseille","lat":43.25981,"lon":5.40906,"is_reserved":false,"is_disabled":false,"rental_uris":{"android":"levelo://app?vid=4f0d564d-d2c5-4d63-8272-ec4ed8b18df2","ios":"levelo://app?vid=4f0d564d-d2c5-4d63-8272-ec4ed8b18df2"},"vehicle_type_id":"4","last_reported":1737983763,"current_range_meters":31200,"station_id":"","pricing_plan_id":"cebpf4jnsgd1na2vs0mg"},{"bike_id":"7c78a755-c7f5-4f07-a96b-621451d47948","system_id":"levelo_inurba_marseille","lat":43.29909,"lon":5.4366,"is_reserved":false,"is_disabled":false,"rental_uris":{"android":"levelo://app?vid=7c78a755-c7f5-4f07-a96b-621451d47948","ios":"levelo://app?vid=7c78a755-c7f5-4f07-a96b-621451d47948"},"vehicle_type_id":"4","last_reported":1737983763,"current_range_meters":27600,"station_id":"ce4bhpp2rcd13ifvqhfg","pricing_plan_id":"cebpf4jnsgd1na2vs0mg"},{"bike_id":"8bc17420-8e8f-4e23-949f-644ecfc72724","system_id":"levelo_inurba_marseille","lat":43.27369,"lon":5.36244,"is_reserved":false,"is_disabled":false,"rental_uris":{"android":"levelo://app?vid=8bc17420-8e8f-4e23-949f-644ecfc72724","ios":"levelo://app?vid=8bc17420-8e8f-4e23-949f-644ecfc72724"},"vehicle_type_id":"4","last_reported":1737983763,"current_range_meters":38800,"station_id":"ce4bhbh2rcd13ifvqeo0","pricing_plan_id":"cebpf4jnsgd1na2vs0mg"},{"bike_id":"e1d2b012-55a7-44cf-ae4a-384d38b76e20","system_id":"levelo_inurba_marseille","lat":43.26204,"lon":5.37445,"is_reserved":false,"is_disabled":false,"rental_uris":{"android":"levelo://app?vid=e1d2b012-55a7-44cf-ae4a-384d38b76e20","ios":"levelo://app?vid=e1d2b012-55a7-44cf-ae4a-384d38b76e20"},"vehicle_type_id":"4","last_reported":1737983763,"current_range_meters":36000,"station_id":"ce4bhgp2rcd13ifvqfc0","pricing_plan_id":"cebpf4jnsgd1na2vs0mg"},{"bike_id":"900407a7-75f0-4cd6-8c5d-8390a10e969b","system_id":"levelo_inurba_marseille","lat":43.293748,"lon":5.378491,"is_reserved":false,"is_disabled":false,"rental_uris":{"android":"levelo://app?vid=900407a7-75f0-4cd6-8c5d-8390a10e969b","ios":"levelo://app?vid=900407a7-75f0-4cd6-8c5d-8390a10e969b"},"vehicle_type_id":"4","last_reported":1737983763,"current_range_meters":38800,"station_id":"ce4bgjh2rcd13ifvqbf0","pricing_plan_id":"cebpf4jnsgd1na2vs0mg"},{"bike_id":"74760170-6b49-496b-8088-5b1a48629d0e","system_id":"levelo_inurba_marseille","lat":43.24182,"lon":5.39733,"is_reserved":false,"is_disabled":false,"rental_uris":{"android":"levelo://app?vid=74760170-6b49-496b-8088-5b1a48629d0e","ios":"levelo://app?vid=74760170-6b49-496b-8088-5b1a48629d0e"},"vehicle_type_id":"4","last_reported":1737983763,"current_range_meters":28000,"station_id":"ce4bhn12rcd13ifvqgpg","pricing_plan_id":"cebpf4jnsgd1na2vs0mg"},{"bike_id":"a48a4fa8-387b-4ecc-bc7a-c3f07822bf47","system_id":"levelo_inurba_marseille","lat":43.27066,"lon":5.39236,"is_reserved":false,"is_disabled":true,"rental_uris":{"android":"levelo://app?vid=a48a4fa8-387b-4ecc-bc7a-c3f07822bf47","ios":"levelo://app?vid=a48a4fa8-387b-4ecc-bc7a-c3f07822bf47"},"vehicle_type_id":"4","last_reported":1737983763,"current_range_meters":0,"station_id":"","pricing_plan_id":"cebpf4jnsgd1na2vs0mg"},{"bike_id":"a8d0380b-0a88-41c3-845f-e00ffb2cbc88","system_id":"levelo_inurba_marseille","lat":43.27988,"lon":5.4,"is_reserved":false,"is_disabled":true,"rental_uris":{"android":"levelo://app?vid=a8d0380b-0a88-41c3-845f-e00ffb2cbc88","ios":"levelo://app?vid=a8d0380b-0a88-41c3-845f-e00ffb2cbc88"},"vehicle_type_id":"4","last_reported":1737983763,"current_range_meters":30400,"station_id":"ce4bho92rcd13ifvqh4g","pricing_plan_id":"cebpf4jnsgd1na2vs0mg"},{"bike_id":"ab4b2f25-068f-4c1f-b709-3c0cbf337322","system_id":"levelo_inurba_marseille","lat":43.23139,"lon":5.43721,"is_reserved":false,"is_disabled":false,"rental_uris":{"android":"levelo://app?vid=ab4b2f25-068f-4c1f-b709-3c0cbf337322","ios":"levelo://app?vid=ab4b2f25-068f-4c1f-b709-3c0cbf337322"},"vehicle_type_id":"4","last_reported":1737983763,"current_range_meters":38800,"station_id":"ce4bhmp2rcd13ifvqgog","pricing_plan_id":"cebpf4jnsgd1na2vs0mg"},{"bike_id":"94229cda-4639-49c7-9106-bc4cbf3a3095","system_id":"levelo_inurba_marseille","lat":43.26226,"lon":5.40422,"is_reserved":false,"is_disabled":false,"rental_uris":{"android":"levelo://app?vid=94229cda-4639-49c7-9106-bc4cbf3a3095","ios":"levelo://app?vid=94229cda-4639-49c7-9106-bc4cbf3a3095"},"vehicle_type_id":"4","last_reported":1737983763,"current_range_meters":6000,"station_id":"","pricing_plan_id":"cebpf4jnsgd1na2vs0mg"},{"bike_id":"685ab577-56e3-49ab-b976-ddc8d8200d8a","system_id":"levelo_inurba_marseille","lat":43.2408,"lon":5.3775,"is_reserved":false,"is_disabled":false,"rental_uris":{"android":"levelo://app?vid=685ab577-56e3-49ab-b976-ddc8d8200d8a","ios":"levelo://app?vid=685ab577-56e3-49ab-b976-ddc8d8200d8a"},"vehicle_type_id":"4","last_reported":1737983763,"current_range_meters":38800,"station_id":"ce4bhnp2rcd13ifvqgvg","pricing_plan_id":"cebpf4jnsgd1na2vs0mg"},{"bike_id":"9c09af66-30f1-488d-910d-a8a905d02871","system_id":"levelo_inurba_marseille","lat":43.293719,"lon":5.379313,"is_reserved":false,"is_disabled":true,"rental_uris":{"android":"levelo://app?vid=9c09af66-30f1-488d-910d-a8a905d02871","ios":"levelo://app?vid=9c09af66-30f1-488d-910d-a8a905d02871"},"vehicle_type_id":"4","last_reported":1737983763,"current_range_meters":0,"station_id":"","pricing_plan_id":"cebpf4jnsgd1na2vs0mg"},{"bike_id":"93505527-caa4-4911-a7e6-dc466329edd8","system_id":"levelo_inurba_marseille","lat":43.30535,"lon":5.36699,"is_reserved":false,"is_disabled":false,"rental_uris":{"android":"levelo://app?vid=93505527-caa4-4911-a7e6-dc466329edd8","ios":"levelo://app?vid=93505527-caa4-4911-a7e6-dc466329edd8"},"vehicle_type_id":"4","last_reported":1737983763,"current_range_meters":35600,"station_id":"ce4bgrp2rcd13ifvqc9g","pricing_plan_id":"cebpf4jnsgd1na2vs0mg"},{"bike_id":"ddb2ad1b-9159-41b7-be58-24e3be73c177","system_id":"levelo_inurba_marseille","lat":43.30138,"lon":5.38774,"is_reserved":false,"is_disabled":false,"rental_uris":{"android":"levelo://app?vid=ddb2ad1b-9159-41b7-be58-24e3be73c177","ios":"levelo://app?vid=ddb2ad1b-9159-41b7-be58-24e3be73c177"},"vehicle_type_id":"4","last_reported":1737983763,"current_range_meters":28400,"station_id":"ce4bghh2rcd13ifvqb60","pricing_plan_id":"cebpf4jnsgd1na2vs0mg"},{"bike_id":"6f26def9-94c7-4e34-95e8-bd6370b2c041","system_id":"levelo_inurba_marseille","lat":43.28449,"lon":5.35885,"is_reserved":false,"is_disabled":false,"rental_uris":{"android":"levelo://app?vid=6f26def9-94c7-4e34-95e8-bd6370b2c041","ios":"levelo://app?vid=6f26def9-94c7-4e34-95e8-bd6370b2c041"},"vehicle_type_id":"4","last_reported":1737983763,"current_range_meters":24400,"station_id":"ce4bhah2rcd13ifvqei0","pricing_plan_id":"cebpf4jnsgd1na2vs0mg"},{"bike_id":"22e948b1-900e-4a5c-9a5a-b682c4d5119c","system_id":"levelo_inurba_marseille","lat":43.23145,"lon":5.4372,"is_reserved":false,"is_disabled":false,"rental_uris":{"android":"levelo://app?vid=22e948b1-900e-4a5c-9a5a-b682c4d5119c","ios":"levelo://app?vid=22e948b1-900e-4a5c-9a5a-b682c4d5119c"},"vehicle_type_id":"4","last_reported":1737983763,"current_range_meters":24800,"station_id":"ce4bhmp2rcd13ifvqgog","pricing_plan_id":"cebpf4jnsgd1na2vs0mg"},{"bike_id":"af11d72a-309f-4d86-93b0-f50e6ca780fd","system_id":"levelo_inurba_marseille","lat":43.29804,"lon":5.38103,"is_reserved":false,"is_disabled":false,"rental_uris":{"android":"levelo://app?vid=af11d72a-309f-4d86-93b0-f50e6ca780fd","ios":"levelo://app?vid=af11d72a-309f-4d86-93b0-f50e6ca780fd"},"vehicle_type_id":"4","last_reported":1737983763,"current_range_meters":18000,"station_id":"ce4bgip2rcd13ifvqbb0","pricing_plan_id":"cebpf4jnsgd1na2vs0mg"},{"bike_id":"c438c788-2c8f-4eda-8233-a8485c23c4af","system_id":"levelo_inurba_marseille","lat":43.30413,"lon":5.41299,"is_reserved":false,"is_disabled":true,"rental_uris":{"android":"levelo://app?vid=c438c788-2c8f-4eda-8233-a8485c23c4af","ios":"levelo://app?vid=c438c788-2c8f-4eda-8233-a8485c23c4af"},"vehicle_type_id":"4","last_reported":1737983763,"current_range_meters":0,"station_id":"ce4bhop2rcd13ifvqh8g","pricing_plan_id":"cebpf4jnsgd1na2vs0mg"},{"bike_id":"c2be73b7-5288-4722-9067-c8e77bf6e2a3","system_id":"levelo_inurba_marseille","lat":43.29007,"lon":5.38132,"is_reserved":false,"is_disabled":false,"rental_uris":{"android":"levelo://app?vid=c2be73b7-5288-4722-9067-c8e77bf6e2a3","ios":"levelo://app?vid=c2be73b7-5288-4722-9067-c8e77bf6e2a3"},"vehicle_type_id":"4","last_reported":1737983763,"current_range_meters":36400,"station_id":"ce4bh4p2rcd13ifvqe1g","pricing_plan_id":"cebpf4jnsgd1na2vs0mg"},{"bike_id":"8ce91b79-eec2-4449-82de-a212beac1c70","system_id":"levelo_inurba_marseille","lat":43.30901,"lon":5.36855,"is_reserved":false,"is_disabled":true,"rental_uris":{"android":"levelo://app?vid=8ce91b79-eec2-4449-82de-a212beac1c70","ios":"levelo://app?vid=8ce91b79-eec2-4449-82de-a212beac1c70"},"vehicle_type_id":"4","last_reported":1737983763,"current_range_meters":36400,"station_id":"ce4bgn92rcd13ifvqbvg","pricing_plan_id":"cebpf4jnsgd1na2vs0mg"},{"bike_id":"2e1f41c8-ee04-4d5e-b989-f8d2ceb8944f","system_id":"levelo_inurba_marseille","lat":43.25013,"lon":5.38951,"is_reserved":false,"is_disabled":false,"rental_uris":{"android":"levelo://app?vid=2e1f41c8-ee04-4d5e-b989-f8d2ceb8944f","ios":"levelo://app?vid=2e1f41c8-ee04-4d5e-b989-f8d2ceb8944f"},"vehicle_type_id":"4","last_reported":1737983763,"current_range_meters":26800,"station_id":"ce4bhgp2rcd13ifvqfd0","pricing_plan_id":"cebpf4jnsgd1na2vs0mg"},{"bike_id":"714bad54-c98e-48d1-9514-98a6d8144d82","system_id":"levelo_inurba_marseille","lat":43.30947,"lon":5.39043,"is_reserved":false,"is_disabled":false,"rental_uris":{"android":"levelo://app?vid=714bad54-c98e-48d1-9514-98a6d8144d82","ios":"levelo://app?vid=714bad54-c98e-48d1-9514-98a6d8144d82"},"vehicle_type_id":"4","last_reported":1737983763,"current_range_meters":25200,"station_id":"ce4bgup2rcd13ifvqco0","pricing_plan_id":"cebpf4jnsgd1na2vs0mg"},{"bike_id":"af0583e1-3288-49f9-8737-68ddb855024a","system_id":"levelo_inurba_marseille","lat":43.29961,"lon":5.38499,"is_reserved":false,"is_disabled":false,"rental_uris":{"android":"levelo://app?vid=af0583e1-3288-49f9-8737-68ddb855024a","ios":"levelo://app?vid=af0583e1-3288-49f9-8737-68ddb855024a"},"vehicle_type_id":"4","last_reported":1737983763,"current_range_meters":35600,"station_id":"ce4bgj92rcd13ifvqbd0","pricing_plan_id":"cebpf4jnsgd1na2vs0mg"},{"bike_id":"c0e9afac-3027-4e6b-b5e9-3196c155323d","system_id":"levelo_inurba_marseille","lat":43.32496,"lon":5.36562,"is_reserved":false,"is_disabled":false,"rental_uris":{"android":"levelo://app?vid=c0e9afac-3027-4e6b-b5e9-3196c155323d","ios":"levelo://app?vid=c0e9afac-3027-4e6b-b5e9-3196c155323d"},"vehicle_type_id":"4","last_reported":1737983763,"current_range_meters":18000,"station_id":"ce4bhs12rcd13ifvqhvg","pricing_plan_id":"cebpf4jnsgd1na2vs0mg"},{"bike_id":"1a8846b4-de58-401a-91e1-0dd464e262c9","system_id":"levelo_inurba_marseille","lat":43.29059,"lon":5.38159,"is_reserved":false,"is_disabled":false,"rental_uris":{"android":"levelo://app?vid=1a8846b4-de58-401a-91e1-0dd464e262c9","ios":"levelo://app?vid=1a8846b4-de58-401a-91e1-0dd464e262c9"},"vehicle_type_id":"4","last_reported":1737983763,"current_range_meters":36800,"station_id":"ce4bh512rcd13ifvqe2g","pricing_plan_id":"cebpf4jnsgd1na2vs0mg"},{"bike_id":"5c77f4d0-4bb3-4a26-bc92-b4bb99af68bf","system_id":"levelo_inurba_marseille","lat":43.29788,"lon":5.38089,"is_reserved":false,"is_disabled":false,"rental_uris":{"android":"levelo://app?vid=5c77f4d0-4bb3-4a26-bc92-b4bb99af68bf","ios":"levelo://app?vid=5c77f4d0-4bb3-4a26-bc92-b4bb99af68bf"},"vehicle_type_id":"4","last_reported":1737983763,"current_range_meters":19600,"station_id":"ce4bgip2rcd13ifvqbb0","pricing_plan_id":"cebpf4jnsgd1na2vs0mg"},{"bike_id":"ee0b4cd5-99fe-4d06-bec7-ab86f35f9695","system_id":"levelo_inurba_marseille","lat":43.2908,"lon":5.38143,"is_reserved":false,"is_disabled":false,"rental_uris":{"android":"levelo://app?vid=ee0b4cd5-99fe-4d06-bec7-ab86f35f9695","ios":"levelo://app?vid=ee0b4cd5-99fe-4d06-bec7-ab86f35f9695"},"vehicle_type_id":"4","last_reported":1737983763,"current_range_meters":28000,"station_id":"ce4bh512rcd13ifvqe2g","pricing_plan_id":"cebpf4jnsgd1na2vs0mg"},{"bike_id":"3d98c6ce-e80d-46e8-b577-648cd8c28632","system_id":"levelo_inurba_marseille","lat":43.34699,"lon":5.34741,"is_reserved":false,"is_disabled":true,"rental_uris":{"android":"levelo://app?vid=3d98c6ce-e80d-46e8-b577-648cd8c28632","ios":"levelo://app?vid=3d98c6ce-e80d-46e8-b577-648cd8c28632"},"vehicle_type_id":"4","last_reported":1737983763,"current_range_meters":0,"station_id":"","pricing_plan_id":"cebpf4jnsgd1na2vs0mg"},{"bike_id":"a47bb96c-8b72-4f0c-b810-e2652abe0975","system_id":"levelo_inurba_marseille","lat":43.31444,"lon":5.37379,"is_reserved":false,"is_disabled":false,"rental_uris":{"android":"levelo://app?vid=a47bb96c-8b72-4f0c-b810-e2652abe0975","ios":"levelo://app?vid=a47bb96c-8b72-4f0c-b810-e2652abe0975"},"vehicle_type_id":"4","last_reported":1737983763,"current_range_meters":14800,"station_id":"","pricing_plan_id":"cebpf4jnsgd1na2vs0mg"},{"bike_id":"f9f4e139-b8cc-4af5-b2ce-3619ce77e872","system_id":"levelo_inurba_marseille","lat":43.30551,"lon":5.36718,"is_reserved":false,"is_disabled":false,"rental_uris":{"android":"levelo://app?vid=f9f4e139-b8cc-4af5-b2ce-3619ce77e872","ios":"levelo://app?vid=f9f4e139-b8cc-4af5-b2ce-3619ce77e872"},"vehicle_type_id":"4","last_reported":1737983763,"current_range_meters":28800,"station_id":"ce4bgrp2rcd13ifvqc9g","pricing_plan_id":"cebpf4jnsgd1na2vs0mg"},{"bike_id":"16cba4e1-cb10-44ef-b1a1-eca95385335f","system_id":"levelo_inurba_marseille","lat":43.28434,"lon":5.34979,"is_reserved":false,"is_disabled":true,"rental_uris":{"android":"levelo://app?vid=16cba4e1-cb10-44ef-b1a1-eca95385335f","ios":"levelo://app?vid=16cba4e1-cb10-44ef-b1a1-eca95385335f"},"vehicle_type_id":"4","last_reported":1737983763,"current_range_meters":36000,"station_id":"ce4bhbh2rcd13ifvqepg","pricing_plan_id":"cebpf4jnsgd1na2vs0mg"},{"bike_id":"9c6c808c-2344-4484-b654-8a68fb115aa6","system_id":"levelo_inurba_marseille","lat":43.31123,"lon":5.36965,"is_reserved":false,"is_disabled":false,"rental_uris":{"android":"levelo://app?vid=9c6c808c-2344-4484-b654-8a68fb115aa6","ios":"levelo://app?vid=9c6c808c-2344-4484-b654-8a68fb115aa6"},"vehicle_type_id":"4","last_reported":1737983763,"current_range_meters":34000,"station_id":"","pricing_plan_id":"cebpf4jnsgd1na2vs0mg"},{"bike_id":"113c17b0-d505-4210-9a61-061acdf4489f","system_id":"levelo_inurba_marseille","lat":43.30449,"lon":5.37921,"is_reserved":false,"is_disabled":false,"rental_uris":{"android":"levelo://app?vid=113c17b0-d505-4210-9a61-061acdf4489f","ios":"levelo://app?vid=113c17b0-d505-4210-9a61-061acdf4489f"},"vehicle_type_id":"4","last_reported":1737983763,"current_range_meters":9600,"station_id":"ce4bgup2rcd13ifvqcn0","pricing_plan_id":"cebpf4jnsgd1na2vs0mg"},{"bike_id":"9307df25-cc6d-45fb-af52-7a3bcf343e82","system_id":"levelo_inurba_marseille","lat":43.26564,"lon":5.37281,"is_reserved":false,"is_disabled":false,"rental_uris":{"android":"levelo://app?vid=9307df25-cc6d-45fb-af52-7a3bcf343e82","ios":"levelo://app?vid=9307df25-cc6d-45fb-af52-7a3bcf343e82"},"vehicle_type_id":"4","last_reported":1737983763,"current_range_meters":19200,"station_id":"ce4bhg12rcd13ifvqf70","pricing_plan_id":"cebpf4jnsgd1na2vs0mg"},{"bike_id":"a2f8f354-6f12-4c41-8aed-55dc9e9fd82d","system_id":"levelo_inurba_marseille","lat":43.23174,"lon":5.3999,"is_reserved":false,"is_disabled":false,"rental_uris":{"android":"levelo://app?vid=a2f8f354-6f12-4c41-8aed-55dc9e9fd82d","ios":"levelo://app?vid=a2f8f354-6f12-4c41-8aed-55dc9e9fd82d"},"vehicle_type_id":"4","last_reported":1737983763,"current_range_meters":12800,"station_id":"ce4bhn12rcd13ifvqgqg","pricing_plan_id":"cebpf4jnsgd1na2vs0mg"},{"bike_id":"8fc5f132-29ed-47c1-bff0-bf17728d82ae","system_id":"levelo_inurba_marseille","lat":43.29368,"lon":5.3786,"is_reserved":false,"is_disabled":true,"rental_uris":{"android":"levelo://app?vid=8fc5f132-29ed-47c1-bff0-bf17728d82ae","ios":"levelo://app?vid=8fc5f132-29ed-47c1-bff0-bf17728d82ae"},"vehicle_type_id":"4","last_reported":1737983763,"current_range_meters":29600,"station_id":"ce4bgjh2rcd13ifvqbf0","pricing_plan_id":"cebpf4jnsgd1na2vs0mg"},{"bike_id":"6a19a6ad-734f-4532-8ad6-46b0065425bf","system_id":"levelo_inurba_marseille","lat":43.32078,"lon":5.4154,"is_reserved":false,"is_disabled":false,"rental_uris":{"android":"levelo://app?vid=6a19a6ad-734f-4532-8ad6-46b0065425bf","ios":"levelo://app?vid=6a19a6ad-734f-4532-8ad6-46b0065425bf"},"vehicle_type_id":"4","last_reported":1737983763,"current_range_meters":36800,"station_id":"ce4bhq92rcd13ifvqhkg","pricing_plan_id":"cebpf4jnsgd1na2vs0mg"},{"bike_id":"3c270993-1bed-439f-9f22-8871b74379ef","system_id":"levelo_inurba_marseille","lat":43.28003,"lon":5.40022,"is_reserved":false,"is_disabled":false,"rental_uris":{"android":"levelo://app?vid=3c270993-1bed-439f-9f22-8871b74379ef","ios":"levelo://app?vid=3c270993-1bed-439f-9f22-8871b74379ef"},"vehicle_type_id":"4","last_reported":1737983763,"current_range_meters":14800,"station_id":"ce4bho92rcd13ifvqh4g","pricing_plan_id":"cebpf4jnsgd1na2vs0mg"},{"bike_id":"91d66d54-aabf-44b7-ac3a-355a4b9e5628","system_id":"levelo_inurba_marseille","lat":43.23993,"lon":5.37786,"is_reserved":false,"is_disabled":true,"rental_uris":{"android":"levelo://app?vid=91d66d54-aabf-44b7-ac3a-355a4b9e5628","ios":"levelo://app?vid=91d66d54-aabf-44b7-ac3a-355a4b9e5628"},"vehicle_type_id":"4","last_reported":1737983763,"current_range_meters":36400,"station_id":"","pricing_plan_id":"cebpf4jnsgd1na2vs0mg"},{"bike_id":"79cfbf55-97ec-4a5b-af3a-38bd70f71f3a","system_id":"levelo_inurba_marseille","lat":43.231931,"lon":5.355517,"is_reserved":false,"is_disabled":false,"rental_uris":{"android":"levelo://app?vid=79cfbf55-97ec-4a5b-af3a-38bd70f71f3a","ios":"levelo://app?vid=79cfbf55-97ec-4a5b-af3a-38bd70f71f3a"},"vehicle_type_id":"4","last_reported":1737983763,"current_range_meters":11200,"station_id":"ce4bhu92rcd13ifvqi70","pricing_plan_id":"cebpf4jnsgd1na2vs0mg"},{"bike_id":"b0f92b7d-88dc-46e6-9760-47b7a8a305ea","system_id":"levelo_inurba_marseille","lat":43.30303,"lon":5.36904,"is_reserved":false,"is_disabled":false,"rental_uris":{"android":"levelo://app?vid=b0f92b7d-88dc-46e6-9760-47b7a8a305ea","ios":"levelo://app?vid=b0f92b7d-88dc-46e6-9760-47b7a8a305ea"},"vehicle_type_id":"4","last_reported":1737983763,"current_range_meters":35200,"station_id":"ce4bgqh2rcd13ifvqc5g","pricing_plan_id":"cebpf4jnsgd1na2vs0mg"},{"bike_id":"7b3cbe79-55eb-4655-a151-dfe222604e2f","system_id":"levelo_inurba_marseille","lat":43.30947,"lon":5.39043,"is_reserved":false,"is_disabled":false,"rental_uris":{"android":"levelo://app?vid=7b3cbe79-55eb-4655-a151-dfe222604e2f","ios":"levelo://app?vid=7b3cbe79-55eb-4655-a151-dfe222604e2f"},"vehicle_type_id":"4","last_reported":1737983763,"current_range_meters":38400,"station_id":"ce4bgup2rcd13ifvqco0","pricing_plan_id":"cebpf4jnsgd1na2vs0mg"},