{"last_updated":1700852699,"ttl":30,"version":"2.2","data":{"bikes":[{"bike_id":"373a0046-98e1-49ec-883e-0aded0a6c670","system_id":"levelo_inurba_marseille","lat":43.312239,"lon":5.368562,"is_reserved":false,"is_disabled":false,"rental_uris":{"android":"levelo://app?vid=373a0046-98e1-49ec-883e-0aded0a6c670","ios":"levelo://app?vid=373a0046-98e1-49ec-883e-0aded0a6c670"},"vehicle_type_id":"4","last_reported":1700852699,"current_range_meters":6400,"station_id":"ce4bgl92rcd13ifvqbq0","pricing_plan_id":"free"},{"bike_id":"9b1961c3-6457-4a46-ad1c-8e7c369e165a","system_id":"levelo_inurba_marseille","lat":43.312239,"lon":5.368562,"is_reserved":false,"is_disabled":false,"rental_uris":{"android":"levelo://app?vid=9b1961c3-6457-4a46-ad1c-8e7c369e165a","ios":"levelo://app?vid=9b1961c3-6457-4a46-ad1c-8e7c369e165a"},"vehicle_type_id":"4","last_reported":1700852699,"current_range_meters":26800,"station_id":"ce4bgl92rcd13ifvqbq0","pricing_plan_id":"free"},{"bike_id":"38fdedb4-1d70-4b0a-9fe1-33e7485ffaf7","system_id":"levelo_inurba_marseille","lat":43.314811,"lon":5.373103,"is_reserved":false,"is_disabled":false,"rental_uris":{"android":"levelo://app?vid=38fdedb4-1d70-4b0a-9fe1-33e7485ffaf7","ios":"levelo://app?vid=38fdedb4-1d70-4b0a-9fe1-33e7485ffaf7"},"vehicle_type_id":"4","last_reported":1700852699,"current_range_meters":24400,"station_id":"ce4bgt12rcd13ifvqcd0","pricing_plan_id":"free"},{"bike_id":"a1edf451-bb73-47a6-b221-e1b62ab83001","system_id":"levelo_inurba_marseille","lat":43.314811,"lon":5.373104,"is_reserved":false,"is_disabled":false,"rental_uris":{"android":"levelo://app?vid=a1edf451-bb73-47a6-b221-e1b62ab83001","ios":"levelo://app?vid=a1edf451-bb73-47a6-b221-e1b62ab83001"},"vehicle_type_id":"4","last_reported":1700852699,"current_range_meters":15600,"station_id":"ce4bgt12rcd13ifvqcd0","pricing_plan_id":"free"},{"bike_id":"0e3a20c0-fbe4-4be1-8a70-167c2d1fc9f6","system_id":"levelo_inurba_marseille","lat":43.305245,"lon":5.365433,"is_reserved":false,"is_disabled":false,"rental_uris":{"android":"levelo://app?vid=0e3a20c0-fbe4-4be1-8a70-167c2d1fc9f6","ios":"levelo://app?vid=0e3a20c0-fbe4-4be1-8a70-167c2d1fc9f6"},"vehicle_type_id":"4","last_reported":1700852699,"current_range_meters":2400,"station_id":"ce4bgs12rcd13ifvqcag","pricing_plan_id":"free"},{"bike_id":"79e82f01-0282-423e-9239-331ae9f36fa8","system_id":"levelo_inurba_marseille","lat":43.30612,"lon":5.37219,"is_reserved":false,"is_disabled":false,"rental_uris":{"android":"levelo://app?vid=79e82f01-0282-423e-9239-331ae9f36fa8","ios":"levelo://app?vid=79e82f01-0282-423e-9239-331ae9f36fa8"},"vehicle_type_id":"4","last_reported":1700852699,"current_range_meters":400,"station_id":"ce4bgqh2rcd13ifvqc4g","pricing_plan_id":"free"},{"bike_id":"6ea7d031-e357-4619-b4d6-e2969c8a0652","system_id":"levelo_inurba_marseille","lat":43.311131,"lon":5.377651,"is_reserved":false,"is_disabled":false,"rental_uris":{"android":"levelo://app?vid=6ea7d031-e357-4619-b4d6-e2969c8a0652","ios":"levelo://app?vid=6ea7d031-e357-4619-b4d6-e2969c8a0652"},"vehicle_type_id":"4","last_reported":1700852699,"current_range_meters":31200,"station_id":"ce4bgt92rcd13ifvqcg0","pricing_plan_id":"free"},{"bike_id":"573a870a-b6c4-429d-8587-8103772b84bc","system_id":"levelo_inurba_marseille","lat":43.30823,"lon":5.37673,"is_reserved":false,"is_disabled":false,"rental_uris":{"android":"levelo://app?vid=573a870a-b6c4-429d-8587-8103772b84bc","ios":"levelo://app?vid=573a870a-b6c4-429d-8587-8103772b84bc"},"vehicle_type_id":"4","last_reported":1700852699,"current_range_meters":7600,"station_id":"ce4bgv92rcd13ifvqcq0","pricing_plan_id":"free"},{"bike_id":"f427a2c3-6e4a-446b-ae2f-9be8aa7f4122","system_id":"levelo_inurba_marseille","lat":43.31719,"lon":5.376813,"is_reserved":false,"is_disabled":false,"rental_uris":{"android":"levelo://app?vid=f427a2c3-6e4a-446b-ae2f-9be8aa7f4122","ios":"levelo://app?vid=f427a2c3-6e4a-446b-ae2f-9be8aa7f4122"},"vehicle_type_id":"4","last_reported":1700852699,"current_range_meters":27600,"station_id":"ce4bgth2rcd13ifvqch0","pricing_plan_id":"free"},{"bike_id":"b898b018-f57d-4901-bab2-fdd15d391de9","system_id":"levelo_inurba_marseille","lat":43.317168,"lon":5.376883,"is_reserved":false,"is_disabled":false,"rental_uris":{"android":"levelo://app?vid=b898b018-f57d-4901-bab2-fdd15d391de9","ios":"levelo://app?vid=b898b018-f57d-4901-bab2-fdd15d391de9"},"vehicle_type_id":"4","last_reported":1700852699,"current_range_meters":30000,"station_id":"ce4bgth2rcd13ifvqch0","pricing_plan_id":"free"},{"bike_id":"0bd41690-b1f4-4a93-bfbe-939468f06dd8","system_id":"levelo_inurba_marseille","lat":43.317075,"lon":5.377367,"is_reserved":false,"is_disabled":false,"rental_uris":{"android":"levelo://app?vid=0bd41690-b1f4-4a93-bfbe-939468f06dd8","ios":"levelo://app?vid=0bd41690-b1f4-4a93-bfbe-939468f06dd8"},"vehicle_type_id":"4","last_reported":1700852699,"current_range_meters":26000,"station_id":"ce4bgth2rcd13ifvqch0","pricing_plan_id":"free"},{"bike_id":"801a5cab-6c4a-4660-a14c-64dca1bef785","system_id":"levelo_inurba_marseille","lat":43.317075,"lon":5.377367,"is_reserved":false,"is_disabled":false,"rental_uris":{"android":"levelo://app?vid=801a5cab-6c4a-4660-a14c-64dca1bef785","ios":"levelo://app?vid=801a5cab-6c4a-4660-a14c-64dca1bef785"},"vehicle_type_id":"4","last_reported":1700852699,"current_range_meters":23200,"station_id":"ce4bgth2rcd13ifvqch0","pricing_plan_id":"free"},{"bike_id":"540f9631-f99b-44d5-a55d-678034440575","system_id":"levelo_inurba_marseille","lat":43.303046,"lon":5.368981,"is_reserved":false,"is_disabled":false,"rental_uris":{"android":"levelo://app?vid=540f9631-f99b-44d5-a55d-678034440575","ios":"levelo://app?vid=540f9631-f99b-44d5-a55d-678034440575"},"vehicle_type_id":"4","last_reported":1700852699,"current_range_meters":18000,"station_id":"ce4bgqh2rcd13ifvqc5g","pricing_plan_id":"free"},{"bike_id":"c9da66ac-73d6-4f13-9406-582d7039748a","system_id":"levelo_inurba_marseille","lat":43.30272,"lon":5.36906,"is_reserved":false,"is_disabled":false,"rental_uris":{"android":"levelo://app?vid=c9da66ac-73d6-4f13-9406-582d7039748a","ios":"levelo://app?vid=c9da66ac-73d6-4f13-9406-582d7039748a"},"vehicle_type_id":"4","last_reported":1700852699,"current_range_meters":20000,"station_id":"","pricing_plan_id":"free"},{"bike_id":"40651570-2caa-481e-83f2-ed9b577fc84a","system_id":"levelo_inurba_marseille","lat":43.323141,"lon":5.374599,"is_reserved":false,"is_disabled":false,"rental_uris":{"android":"levelo://app?vid=40651570-2caa-481e-83f2-ed9b577fc84a","ios":"levelo://app?vid=40651570-2caa-481e-83f2-ed9b577fc84a"},"vehicle_type_id":"4","last_reported":1700852699,"current_range_meters":12800,"station_id":"","pricing_plan_id":"free"},{"bike_id":"bcf0a0a6-2ce9-4867-9f17-bfb7b870b05c","system_id":"levelo_inurba_marseille","lat":43.31361,"lon":5.38496,"is_reserved":false,"is_disabled":false,"rental_uris":{"android":"levelo://app?vid=bcf0a0a6-2ce9-4867-9f17-bfb7b870b05c","ios":"levelo://app?vid=bcf0a0a6-2ce9-4867-9f17-bfb7b870b05c"},"vehicle_type_id":"4","last_reported":1700852699,"current_range_meters":23600,"station_id":"ce4bgt92rcd13ifvqcf0","pricing_plan_id":"free"},{"bike_id":"8bcd62e6-b175-4664-93b6-37ff1d289c97","system_id":"levelo_inurba_marseille","lat":43.299724,"lon":5.371829,"is_reserved":false,"is_disabled":false,"rental_uris":{"android":"levelo://app?vid=8bcd62e6-b175-4664-93b6-37ff1d289c97","ios":"levelo://app?vid=8bcd62e6-b175-4664-93b6-37ff1d289c97"},"vehicle_type_id":"4","last_reported":1700852699,"current_range_meters":8000,"station_id":"ce4bgr92rcd13ifvqc7g","pricing_plan_id":"free"},{"bike_id":"3cf7df4e-117c-401f-a50b-b48096222f3f","system_id":"levelo_inurba_marseille","lat":43.299222,"lon":5.365554,"is_reserved":false,"is_disabled":false,"rental_uris":{"android":"levelo://app?vid=3cf7df4e-117c-401f-a50b-b48096222f3f","ios":"levelo://app?vid=3cf7df4e-117c-401f-a50b-b48096222f3f"},"vehicle_type_id":"4","last_reported":1700852699,"current_range_meters":0,"station_id":"ce4bgm92rcd13ifvqbr0","pricing_plan_id":"free"},{"bike_id":"4a434ae3-4bbd-44b3-94e8-cae2c8b0ba17","system_id":"levelo_inurba_marseille","lat":43.31047,"lon":5.3862,"is_reserved":false,"is_disabled":false,"rental_uris":{"android":"levelo://app?vid=4a434ae3-4bbd-44b3-94e8-cae2c8b0ba17","ios":"levelo://app?vid=4a434ae3-4bbd-44b3-94e8-cae2c8b0ba17"},"vehicle_type_id":"4","last_reported":1700852699,"current_range_meters":16400,"station_id":"ce4bgv12rcd13ifvqcp0","pricing_plan_id":"free"},{"bike_id":"8eccf735-9f13-4d66-89ee-04a7bf59eec2","system_id":"levelo_inurba_marseille","lat":43.320771,"lon":5.383047,"is_reserved":false,"is_disabled":false,"rental_uris":{"android":"levelo://app?vid=8eccf735-9f13-4d66-89ee-04a7bf59eec2","ios":"levelo://app?vid=8eccf735-9f13-4d66-89ee-04a7bf59eec2"},"vehicle_type_id":"4","last_reported":1700852699,"current_range_meters":30800,"station_id":"","pricing_plan_id":"free"},{"bike_id":"1b84e8ff-913a-4f01-882a-e15275b2dc70","system_id":"levelo_inurba_marseille","lat":43.299243,"lon":5.374807,"is_reserved":false,"is_disabled":false,"rental_uris":{"android":"levelo://app?vid=1b84e8ff-913a-4f01-882a-e15275b2dc70","ios":"levelo://app?vid=1b84e8ff-913a-4f01-882a-e15275b2dc70"},"vehicle_type_id":"4","last_reported":1700852699,"current_range_meters":0,"station_id":"ce4bgjh2rcd13ifvqbg0","pricing_plan_id":"free"},{"bike_id":"1a40b385-68ba-48d5-a1cb-20965b2f9dc5","system_id":"levelo_inurba_marseille","lat":43.32038,"lon":5.38417,"is_reserved":false,"is_disabled":false,"rental_uris":{"android":"levelo://app?vid=1a40b385-68ba-48d5-a1cb-20965b2f9dc5","ios":"levelo://app?vid=1a40b385-68ba-48d5-a1cb-20965b2f9dc5"},"vehicle_type_id":"4","last_reported":1700852699,"current_range_meters":1200,"station_id":"","pricing_plan_id":"free"},{"bike_id":"41e56400-b0ea-4cf2-b214-129c1faacb1a","system_id":"levelo_inurba_marseille","lat":43.311722,"lon":5.387247,"is_reserved":false,"is_disabled":false,"rental_uris":{"android":"levelo://app?vid=41e56400-b0ea-4cf2-b214-129c1faacb1a","ios":"levelo://app?vid=41e56400-b0ea-4cf2-b214-129c1faacb1a"},"vehicle_type_id":"4","last_reported":1700852699,"current_range_meters":5200,"station_id":"ce4bgv12rcd13ifvqcp0","pricing_plan_id":"free"},{"bike_id":"57f07daa-f979-41b2-bf81-49ff7a829b2a","system_id":"levelo_inurba_marseille","lat":43.322856,"lon":5.382629,"is_reserved":false,"is_disabled":false,"rental_uris":{"android":"levelo://app?vid=57f07daa-f979-41b2-bf81-49ff7a829b2a","ios":"levelo://app?vid=57f07daa-f979-41b2-bf81-49ff7a829b2a"},"vehicle_type_id":"4","last_reported":1700852699,"current_range_meters":31200,"station_id":"ce4bhr12rcd13ifvqhqg","pricing_plan_id":"free"},{"bike_id":"7c93eefc-07fe-4a09-b42f-ee22a5cbe113","system_id":"levelo_inurba_marseille","lat":43.322872,"lon":5.382756,"is_reserved":false,"is_disabled":false,"rental_uris":{"android":"levelo://app?vid=7c93eefc-07fe-4a09-b42f-ee22a5cbe113","ios":"levelo://app?vid=7c93eefc-07fe-4a09-b42f-ee22a5cbe113"},"vehicle_type_id":"4","last_reported":1700852699,"current_range_meters":17600,"station_id":"ce4bhr12rcd13ifvqhqg","pricing_plan_id":"free"},{"bike_id":"f8736720-e966-45a6-a671-1e9c1c844291","system_id":"levelo_inurba_marseille","lat":43.322872,"lon":5.382756,"is_reserved":false,"is_disabled":false,"rental_uris":{"android":"levelo://app?vid=f8736720-e966-45a6-a671-1e9c1c844291","ios":"levelo://app?vid=f8736720-e966-45a6-a671-1e9c1c844291"},"vehicle_type_id":"4","last_reported":1700852699,"current_range_meters":22800,"station_id":"ce4bhr12rcd13ifvqhqg","pricing_plan_id":"free"},{"bike_id":"d83d543d-0180-4356-afad-c3a47cd2dec5","system_id":"levelo_inurba_marseille","lat":43.322872,"lon":5.382756,"is_reserved":false,"is_disabled":false,"rental_uris":{"android":"levelo://app?vid=d83d543d-0180-4356-afad-c3a47cd2dec5","ios":"levelo://app?vid=d83d543d-0180-4356-afad-c3a47cd2dec5"},"vehicle_type_id":"4","last_reported":1700852699,"current_range_meters":800,"station_id":"ce4bhr12rcd13ifvqhqg","pricing_plan_id":"free"},{"bike_id":"1a43851e-90fe-4bd3-bf83-8e67c213fe9f","system_id":"levelo_inurba_marseille","lat":43.322872,"lon":5.382756,"is_reserved":false,"is_disabled":false,"rental_uris":{"android":"levelo://app?vid=1a43851e-90fe-4bd3-bf83-8e67c213fe9f","ios":"levelo://app?vid=1a43851e-90fe-4bd3-bf83-8e67c213fe9f"},"vehicle_type_id":"4","last_reported":1700852699,"current_range_meters":18800,"station_id":"ce4bhr12rcd13ifvqhqg","pricing_plan_id":"free"},{"bike_id":"f9ce9c3f-5ce0-442f-986c-f1a94ddddd6a","system_id":"levelo_inurba_marseille","lat":43.322872,"lon":5.382756,"is_reserved":false,"is_disabled":false,"rental_uris":{"android":"levelo://app?vid=f9ce9c3f-5ce0-442f-986c-f1a94ddddd6a","ios":"levelo://app?vid=f9ce9c3f-5ce0-442f-986c-f1a94ddddd6a"},"vehicle_type_id":"4","last_reported":1700852699,"current_range_meters":31200,"station_id":"ce4bhr12rcd13ifvqhqg","pricing_plan_id":"free"},{"bike_id":"4625bec6-4af3-44cb-8699-3acd72afd201","system_id":"levelo_inurba_marseille","lat":43.322872,"lon":5.382756,"is_reserved":false,"is_disabled":false,"rental_uris":{"android":"levelo://app?vid=4625bec6-4af3-44cb-8699-3acd72afd201","ios":"levelo://app?vid=4625bec6-4af3-44cb-8699-3acd72afd201"},"vehicle_type_id":"4","last_reported":1700852699,"current_range_meters":20800,"station_id":"ce4bhr12rcd13ifvqhqg","pricing_plan_id":"free"},{"bike_id":"22dcc355-c6c3-4950-90c4-bd4abfc9165f","system_id":"levelo_inurba_marseille","lat":43.328371,"lon":5.366909,"is_reserved":false,"is_disabled":false,"rental_uris":{"android":"levelo://app?vid=22dcc355-c6c3-4950-90c4-bd4abfc9165f","ios":"levelo://app?vid=22dcc355-c6c3-4950-90c4-bd4abfc9165f"},"vehicle_type_id":"4","last_reported":1700852699,"current_range_meters":31200,"station_id":"ce4bhs92rcd13ifvqi0g","pricing_plan_id":"free"},{"bike_id":"7757d32c-b876-4185-bc74-b8cd8a08ee41","system_id":"levelo_inurba_marseille","lat":43.328371,"lon":5.366909,"is_reserved":false,"is_disabled":false,"rental_uris":{"android":"levelo://app?vid=7757d32c-b876-4185-bc74-b8cd8a08ee41","ios":"levelo://app?vid=7757d32c-b876-4185-bc74-b8cd8a08ee41"},"vehicle_type_id":"4","last_reported":1700852699,"current_range_meters":17600,"station_id":"ce4bhs92rcd13ifvqi0g","pricing_plan_id":"free"},{"bike_id":"b147cbd5-923e-4414-9ef6-8423cf2e903b","system_id":"levelo_inurba_marseille","lat":43.297163,"lon":5.365866,"is_reserved":false,"is_disabled":false,"rental_uris":{"android":"levelo://app?vid=b147cbd5-923e-4414-9ef6-8423cf2e903b","ios":"levelo://app?vid=b147cbd5-923e-4414-9ef6-8423cf2e903b"},"vehicle_type_id":"4","last_reported":1700852699,"current_range_meters":10800,"station_id":"ce4bgn12rcd13ifvqbt0","pricing_plan_id":"free"},{"bike_id":"4d7509f5-9559-42ca-a60d-bef9e80f0981","system_id":"levelo_inurba_marseille","lat":43.2996,"lon":5.37923,"is_reserved":false,"is_disabled":false,"rental_uris":{"android":"levelo://app?vid=4d7509f5-9559-42ca-a60d-bef9e80f0981","ios":"levelo://app?vid=4d7509f5-9559-42ca-a60d-bef9e80f0981"},"vehicle_type_id":"4","last_reported":1700852699,"current_range_meters":0,"station_id":"","pricing_plan_id":"free"},{"bike_id":"d3044786-2431-4822-96f8-37c5954b4b4c","system_id":"levelo_inurba_marseille","lat":43.32342,"lon":5.383284,"is_reserved":false,"is_disabled":false,"rental_uris":{"android":"levelo://app?vid=d3044786-2431-4822-96f8-37c5954b4b4c","ios":"levelo://app?vid=d3044786-2431-4822-96f8-37c5954b4b4c"},"vehicle_type_id":"4","last_reported":1700852699,"current_range_meters":29600,"station_id":"","pricing_plan_id":"free"},{"bike_id":"0c0a1bff-050b-4958-9a30-e16f291f9436","system_id":"levelo_inurba_marseille","lat":43.2968,"lon":5.37291,"is_reserved":false,"is_disabled":false,"rental_uris":{"android":"levelo://app?vid=0c0a1bff-050b-4958-9a30-e16f291f9436","ios":"levelo://app?vid=0c0a1bff-050b-4958-9a30-e16f291f9436"},"vehicle_type_id":"4","last_reported":1700852699,"current_range_meters":8000,"station_id":"ce4bgk12rcd13ifvqbj0","pricing_plan_id":"free"},{"bike_id":"a4603200-a956-4b27-bc52-8f22fc00857f","system_id":"levelo_inurba_marseille","lat":43.29602,"lon":5.36826,"is_reserved":false,"is_disabled":false,"rental_uris":{"android":"levelo://app?vid=a4603200-a956-4b27-bc52-8f22fc00857f","ios":"levelo://app?vid=a4603200-a956-4b27-bc52-8f22fc00857f"},"vehicle_type_id":"4","last_reported":1700852699,"current_range_meters":12800,"station_id":"","pricing_plan_id":"free"},{"bike_id":"b9613191-1946-4bfa-ab6e-e81430b20743","system_id":"levelo_inurba_marseille","lat":43.29573,"lon":5.367355,"is_reserved":false,"is_disabled":false,"rental_uris":{"android":"levelo://app?vid=b9613191-1946-4bfa-ab6e-e81430b20743","ios":"levelo://app?vid=b9613191-1946-4bfa-ab6e-e81430b20743"},"vehicle_type_id":"4","last_reported":1700852699,"current_range_meters":17200,"station_id":"ce4bgph2rcd13ifvqc2g","pricing_plan_id":"free"},{"bike_id":"b71b8ab7-fef9-4696-a04c-201a58bc4ea3","system_id":"levelo_inurba_marseille","lat":43.299028,"lon":5.381509,"is_reserved":false,"is_disabled":false,"rental_uris":{"android":"levelo://app?vid=b71b8ab7-fef9-4696-a04c-201a58bc4ea3","ios":"levelo://app?vid=b71b8ab7-fef9-4696-a04c-201a58bc4ea3"},"vehicle_type_id":"4","last_reported":1700852699,"current_range_meters":10400,"station_id":"ce4bgj12rcd13ifvqbc0","pricing_plan_id":"free"},{"bike_id":"656459cf-498f-49a1-bb2c-2df4545f7de5","system_id":"levelo_inurba_marseille","lat":43.317579,"lon":5.390223,"is_reserved":false,"is_disabled":false,"rental_uris":{"android":"levelo://app?vid=656459cf-498f-49a1-bb2c-2df4545f7de5","ios":"levelo://app?vid=656459cf-498f-49a1-bb2c-2df4545f7de5"},"vehicle_type_id":"4","last_reported":1700852699,"current_range_meters":30000,"station_id":"ce4bhqp2rcd13ifvqhng","pricing_plan_id":"free"},{"bike_id":"a954e17a-b71b-40e9-9872-d04f3e20a364","system_id":"levelo_inurba_marseille","lat":43.304274,"lon":5.388873,"is_reserved":false,"is_disabled":false,"rental_uris":{"android":"levelo://app?vid=a954e17a-b71b-40e9-9872-d04f3e20a364","ios":"levelo://app?vid=a954e17a-b71b-40e9-9872-d04f3e20a364"},"vehicle_type_id":"4","last_reported":1700852699,"current_range_meters":3600,"station_id":"ce4bgk12rcd13ifvqbi0","pricing_plan_id":"free"},{"bike_id":"1318def1-0f32-4d7e-84ed-ff425bfc374c","system_id":"levelo_inurba_marseille","lat":43.296263,"lon":5.377094,"is_reserved":false,"is_disabled":false,"rental_uris":{"android":"levelo://app?vid=1318def1-0f32-4d7e-84ed-ff425bfc374c","ios":"levelo://app?vid=1318def1-0f32-4d7e-84ed-ff425bfc374c"},"vehicle_type_id":"4","last_reported":1700852699,"current_range_meters":15200,"station_id":"ce4bgi92rcd13ifvqb90","pricing_plan_id":"free"},{"bike_id":"799f10c9-81c3-4d79-a9aa-505ce434ae93","system_id":"levelo_inurba_marseille","lat":43.298433,"lon":5.362774,"is_reserved":false,"is_disabled":false,"rental_uris":{"android":"levelo://app?vid=799f10c9-81c3-4d79-a9aa-505ce434ae93","ios":"levelo://app?vid=799f10c9-81c3-4d79-a9aa-505ce434ae93"},"vehicle_type_id":"4","last_reported":1700852699,"current_range_meters":9600,"station_id":"ce4bgpp2rcd13ifvqc3g","pricing_plan_id":"free"},{"bike_id":"ff822368-00cb-4dfa-8697-959628b6f270","system_id":"levelo_inurba_marseille","lat":43.330084,"lon":5.359206,"is_reserved":false,"is_disabled":false,"rental_uris":{"android":"levelo://app?vid=ff822368-00cb-4dfa-8697-959628b6f270","ios":"levelo://app?vid=ff822368-00cb-4dfa-8697-959628b6f270"},"vehicle_type_id":"4","last_reported":1700852699,"current_range_meters":20400,"station_id":"","pricing_plan_id":"free"},{"bike_id":"2f095ffc-8ba7-4454-b805-86590369adf8","system_id":"levelo_inurba_marseille","lat":43.29538,"lon":5.37502,"is_reserved":false,"is_disabled":false,"rental_uris":{"android":"levelo://app?vid=2f095ffc-8ba7-4454-b805-86590369adf8","ios":"levelo://app?vid=2f095ffc-8ba7-4454-b805-86590369adf8"},"vehicle_type_id":"4","last_reported":1700852699,"current_range_meters":4000,"station_id":"ce4bgkp2rcd13ifvqbmg","pricing_plan_id":"free"},{"bike_id":"c5e072ff-e76c-4f63-8676-0632cc6835c1","system_id":"levelo_inurba_marseille","lat":43.29598,"lon":5.37723,"is_reserved":false,"is_disabled":false,"rental_uris":{"android":"levelo://app?vid=c5e072ff-e76c-4f63-8676-0632cc6835c1","ios":"levelo://app?vid=c5e072ff-e76c-4f63-8676-0632cc6835c1"},"vehicle_type_id":"4","last_reported":1700852699,"current_range_meters":6400,"station_id":"ce4bgi92rcd13ifvqb90","pricing_plan_id":"free"},{"bike_id":"ab7d0bb8-9ca5-4313-b396-cae7a83c0449","system_id":"levelo_inurba_marseille","lat":43.299707,"lon":5.384859,"is_reserved":false,"is_disabled":false,"rental_uris":{"android":"levelo://app?vid=ab7d0bb8-9ca5-4313-b396-cae7a83c0449","ios":"levelo://app?vid=ab7d0bb8-9ca5-4313-b396-cae7a83c0449"},"vehicle_type_id":"4","last_reported":1700852699,"current_range_meters":0,"station_id":"ce4bgj92rcd13ifvqbd0","pricing_plan_id":"free"},{"bike_id":"f78bd89e-f4d6-4b92-9912-d4d3aff8b58c","system_id":"levelo_inurba_marseille","lat":43.295279,"lon":5.375048,"is_reserved":false,"is_disabled":false,"rental_uris":{"android":"levelo://app?vid=f78bd89e-f4d6-4b92-9912-d4d3aff8b58c","ios":"levelo://app?vid=f78bd89e-f4d6-4b92-9912-d4d3aff8b58c"},"vehicle_type_id":"4","last_reported":1700852699,"current_range_meters":2800,"station_id":"ce4bgkp2rcd13ifvqbmg","pricing_plan_id":"free"},{"bike_id":"1bbd74cf-d33d-4f97-b438-9050d8c97229","system_id":"levelo_inurba_marseille","lat":43.299707,"lon":5.384859,"is_reserved":false,"is_disabled":false,"rental_uris":{"android":"levelo://app?vid=1bbd74cf-d33d-4f97-b438-9050d8c97229","ios":"levelo://app?vid=1bbd74cf-d33d-4f97-b438-9050d8c97229"},"vehicle_type_id":"4","last_reported":1700852699,"current_range_meters":0,"station_id":"ce4bgj92rcd13ifvqbd0","pricing_plan_id":"free"},{"bike_id":"e469b37b-7a4d-4809-8a38-e047eb056b5a","system_id":"levelo_inurba_marseille","lat":43.299717,"lon":5.384845,"is_reserved":false,"is_disabled":false,"rental_uris":{"android":"levelo://app?vid=e469b37b-7a4d-4809-8a38-e047eb056b5a","ios":"levelo://app?vid=e469b37b-7a4d-4809-8a38-e047eb056b5a"},"vehicle_type_id":"4","last_reported":1700852699,"current_range_meters":7600,"station_id":"ce4bgj92rcd13ifvqbd0","pricing_plan_id":"free"},{"bike_id":"69f4d7ab-e982-40f6-ac13-2695b4d250a3","system_id":"levelo_inurba_marseille","lat":43.299717,"lon":5.384845,"is_reserved":false,"is_disabled":false,"rental_uris":{"android":"levelo://app?vid=69f4d7ab-e982-40f6-ac13-2695b4d250a3","ios":"levelo://app?vid=69f4d7ab-e982-40f6-ac13-2695b4d250a3"},"vehicle_type_id":"4","last_reported":1700852699,"current_range_meters":29600,"station_id":"ce4bgj92rcd13ifvqbd0","pricing_plan_id":"free"},{"bike_id":"56dc1fcb-c5eb-47c0-8555-dce6d2fca695","system_id":"levelo_inurba_marseille","lat":43.29972,"lon":5.38492,"is_reserved":false,"is_disabled":false,"rental_uris":{"android":"levelo://app?vid=56dc1fcb-c5eb-47c0-8555-dce6d2fca695","ios":"levelo://app?vid=56dc1fcb-c5eb-47c0-8555-dce6d2fca695"},"vehicle_type_id":"4","last_reported":1700852699,"current_range_meters":0,"station_id":"ce4bgj92rcd13ifvqbd0","pricing_plan_id":"free"},{"bike_id":"ce427267-80a6-4092-99c2-fd5d376a53cc","system_id":"levelo_inurba_marseille","lat":43.29964,"lon":5.38485,"is_reserved":false,"is_disabled":false,"rental_uris":{"android":"levelo://app?vid=ce427267-80a6-4092-99c2-fd5d376a53cc","ios":"levelo://app?vid=ce427267-80a6-4092-99c2-fd5d376a53cc"},"vehicle_type_id":"4","last_reported":1700852699,"current_range_meters":21200,"station_id":"ce4bgj92rcd13ifvqbd0","pricing_plan_id":"free"},{"bike_id":"6b621983-5e9e-42f7-990d-ad5a093820d2","system_id":"levelo_inurba_marseille","lat":43.293801,"lon":5.363066,"is_reserved":false,"is_disabled":false,"rental_uris":{"android":"levelo://app?vid=6b621983-5e9e-42f7-990d-ad5a093820d2","ios":"levelo://app?vid=6b621983-5e9e-42f7-990d-ad5a093820d2"},"vehicle_type_id":"4","last_reported":1700852699,"current_range_meters":3600,"station_id":"","pricing_plan_id":"free"},{"bike_id":"fb016264-dd26-45be-9484-6f79a8dd3cdb","system_id":"levelo_inurba_marseille","lat":43.29602,"lon":5.381084,"is_reserved":false,"is_disabled":false,"rental_uris":{"android":"levelo://app?vid=fb016264-dd26-45be-9484-6f79a8dd3cdb","ios":"levelo://app?vid=fb016264-dd26-45be-9484-6f79a8dd3cdb"},"vehicle_type_id":"4","last_reported":1700852699,"current_range_meters":24800,"station_id":"ce4bgl12rcd13ifvqbo0","pricing_plan_id":"free"},{"bike_id":"a0188fd3-7244-446c-88ab-7a8891b3f940","system_id":"levelo_inurba_marseille","lat":43.293259,"lon":5.371586,"is_reserved":false,"is_disabled":false,"rental_uris":{"android":"levelo://app?vid=a0188fd3-7244-446c-88ab-7a8891b3f940","ios":"levelo://app?vid=a0188fd3-7244-446c-88ab-7a8891b3f940"},"vehicle_type_id":"4","last_reported":1700852699,"current_range_meters":14800,"station_id":"ce4bgh92rcd13ifvqb40","pricing_plan_id":"free"},{"bike_id":"1c39841c-f8c1-4b4d-9c77-48d48b7e9a95","system_id":"levelo_inurba_marseille","lat":43.292749,"lon":5.368402,"is_reserved":false,"is_disabled":false,"rental_uris":{"android":"levelo://app?vid=1c39841c-f8c1-4b4d-9c77-48d48b7e9a95","ios":"levelo://app?vid=1c39841c-f8c1-4b4d-9c77-48d48b7e9a95"},"vehicle_type_id":"4","last_reported":1700852699,"current_range_meters":25600,"station_id":"ce4bhbp2rcd13ifvqesg","pricing_plan_id":"free"},{"bike_id":"0a7262d1-5243-42b2-ac68-79213e90c85b","system_id":"levelo_inurba_marseille","lat":43.29278,"lon":5.36846,"is_reserved":false,"is_disabled":false,"rental_uris":{"android":"levelo://app?vid=0a7262d1-5243-42b2-ac68-79213e90c85b","ios":"levelo://app?vid=0a7262d1-5243-42b2-ac68-79213e90c85b"},"vehicle_type_id":"4","last_reported":1700852699,"current_range_meters":20400,"station_id":"ce4bhbp2rcd13ifvqesg","pricing_plan_id":"free"},{"bike_id":"a5cc69b5-82fb-4e19-902b-0dd82189a678","system_id":"levelo_inurba_marseille","lat":43.292749,"lon":5.368402,"is_reserved":false,"is_disabled":false,"rental_uris":{"android":"levelo://app?vid=a5cc69b5-82fb-4e19-902b-0dd82189a678","ios":"levelo://app?vid=a5cc69b5-82fb-4e19-902b-0dd82189a678"},"vehicle_type_id":"4","last_reported":1700852699,"current_range_meters":11600,"station_id":"ce4bhbp2rcd13ifvqesg","pricing_plan_id":"free"},{"bike_id":"a1da9d28-33e5-4e7e-97f3-38244fbea239","system_id":"levelo_inurba_marseille","lat":43.292749,"lon":5.368402,"is_reserved":false,"is_disabled":false,"rental_uris":{"android":"levelo://app?vid=a1da9d28-33e5-4e7e-97f3-38244fbea239","ios":"levelo://app?vid=a1da9d28-33e5-4e7e-97f3-38244fbea239"},"vehicle_type_id":"4","last_reported":1700852699,"current_range_meters":0,"station_id":"ce4bhbp2rcd13ifvqesg","pricing_plan_id":"free"},{"bike_id":"bf7fc916-768e-4411-8bd8-8658bf697d96","system_id":"levelo_inurba_marseille","lat":43.293259,"lon":5.371586,"is_reserved":false,"is_disabled":false,"rental_uris":{"android":"levelo://app?vid=bf7fc916-768e-4411-8bd8-8658bf697d96","ios":"levelo://app?vid=bf7fc916-768e-4411-8bd8-8658bf697d96"},"vehicle_type_id":"4","last_reported":1700852699,"current_range_meters":16000,"station_id":"ce4bgh92rcd13ifvqb40","pricing_plan_id":"free"},{"bike_id":"99d43fa9-63d6-41c4-be06-df6bbef5761e","system_id":"levelo_inurba_marseille","lat":43.293009,"lon":5.374584,"is_reserved":false,"is_disabled":false,"rental_uris":{"android":"levelo://app?vid=99d43fa9-63d6-41c4-be06-df6bbef5761e","ios":"levelo://app?vid=99d43fa9-63d6-41c4-be06-df6bbef5761e"},"vehicle_type_id":"4","last_reported":1700852699,"current_range_meters":6000,"station_id":"ce4bgi12rcd13ifvqb70","pricing_plan_id":"free"},{"bike_id":"9e923d56-4474-44f3-8a07-c296792f9972","system_id":"levelo_inurba_marseille","lat":43.29292,"lon":5.374523,"is_reserved":false,"is_disabled":false,"rental_uris":{"android":"levelo://app?vid=9e923d56-4474-44f3-8a07-c296792f9972","ios":"levelo://app?vid=9e923d56-4474-44f3-8a07-c296792f9972"},"vehicle_type_id":"4","last_reported":1700852699,"current_range_meters":13600,"station_id":"ce4bgi12rcd13ifvqb70","pricing_plan_id":"free"},{"bike_id":"8ab8ab76-47ed-4bca-b051-152ab333fce0","system_id":"levelo_inurba_marseille","lat":43.2936,"lon":5.37835,"is_reserved":false,"is_disabled":false,"rental_uris":{"android":"levelo://app?vid=8ab8ab76-47ed-4bca-b051-152ab333fce0","ios":"levelo://app?vid=8ab8ab76-47ed-4bca-b051-152ab333fce0"},"vehicle_type_id":"4","last_reported":1700852699,"current_range_meters":19200,"station_id":"ce4bgjh2rcd13ifvqbf0","pricing_plan_id":"free"},{"bike_id":"14e8b352-b658-4268-bf6c-656033d2c5c8","system_id":"levelo_inurba_marseille","lat":43.2936,"lon":5.37835,"is_reserved":false,"is_disabled":false,"rental_uris":{"android":"levelo://app?vid=14e8b352-b658-4268-bf6c-656033d2c5c8","ios":"levelo://app?vid=14e8b352-b658-4268-bf6c-656033d2c5c8"},"vehicle_type_id":"4","last_reported":1700852699,"current_range_meters":24800,"station_id":"ce4bgjh2rcd13ifvqbf0","pricing_plan_id":"free"},{"bike_id":"4354db1a-6a9b-477f-9c22-f40cc7f68376","system_id":"levelo_inurba_marseille","lat":43.292311,"lon":5.360731,"is_reserved":false,"is_disabled":false,"rental_uris":{"android":"levelo://app?vid=4354db1a-6a9b-477f-9c22-f40cc7f68376","ios":"levelo://app?vid=4354db1a-6a9b-477f-9c22-f40cc7f68376"},"vehicle_type_id":"4","last_reported":1700852699,"current_range_meters":12800,"station_id":"ce4bhbh2rcd13ifvqeqg","pricing_plan_id":"free"},{"bike_id":"c1739e6d-1020-41d7-a6dc-1d894d2b7952","system_id":"levelo_inurba_marseille","lat":43.300852,"lon":5.390859,"is_reserved":false,"is_disabled":false,"rental_uris":{"android":"levelo://app?vid=c1739e6d-1020-41d7-a6dc-1d894d2b7952","ios":"levelo://app?vid=c1739e6d-1020-41d7-a6dc-1d894d2b7952"},"vehicle_type_id":"4","last_reported":1700852699,"current_range_meters":29200,"station_id":"ce4bh192rcd13ifvqdb0","pricing_plan_id":"free"},{"bike_id":"f3de5be3-4fd0-4728-a6f4-d6d2794cffc2","system_id":"levelo_inurba_marseille","lat":43.291671,"lon":5.371575,"is_reserved":false,"is_disabled":false,"rental_uris":{"android":"levelo://app?vid=f3de5be3-4fd0-4728-a6f4-d6d2794cffc2","ios":"levelo://app?vid=f3de5be3-4fd0-4728-a6f4-d6d2794cffc2"},"vehicle_type_id":"4","last_reported":1700852699,"current_range_meters":12000,"station_id":"ce4bha92rcd13ifvqeh0","pricing_plan_id":"free"},{"bike_id":"178eb7c0-6a62-4bf1-a56f-a82d0e477eba","system_id":"levelo_inurba_marseille","lat":43.333625,"lon":5.360167,"is_reserved":false,"is_disabled":false,"rental_uris":{"android":"levelo://app?vid=178eb7c0-6a62-4bf1-a56f-a82d0e477eba","ios":"levelo://app?vid=178eb7c0-6a62-4bf1-a56f-a82d0e477eba"},"vehicle_type_id":"4","last_reported":1700852699,"current_range_meters":4000,"station_id":"","pricing_plan_id":"free"},{"bike_id":"90b893e1-e31b-413a-b9e2-a784096776b7","system_id":"levelo_inurba_marseille","lat":43.313291,"lon":5.396838,"is_reserved":false,"is_disabled":false,"rental_uris":{"android":"levelo://app?vid=90b893e1-e31b-413a-b9e2-a784096776b7","ios":"levelo://app?vid=90b893e1-e31b-413a-b9e2-a784096776b7"},"vehicle_type_id":"4","last_reported":1700852699,"current_range_meters":18000,"station_id":"ce4bgvp2rcd13ifvqcu0","pricing_plan_id":"free"},{"bike_id":"ffde5b7b-10d0-4e1c-aa78-6f31b7935b61","system_id":"levelo_inurba_marseille","lat":43.309038,"lon":5.396546,"is_reserved":false,"is_disabled":false,"rental_uris":{"android":"levelo://app?vid=ffde5b7b-10d0-4e1c-aa78-6f31b7935b61","ios":"levelo://app?vid=ffde5b7b-10d0-4e1c-aa78-6f31b7935b61"},"vehicle_type_id":"4","last_reported":1700852699,"current_range_meters":4000,"station_id":"ce4bh012rcd13ifvqcv0","pricing_plan_id":"free"},{"bike_id":"187ee882-ab18-47a3-84ad-447a905d2b50","system_id":"levelo_inurba_marseille","lat":43.291976,"lon":5.376584,"is_reserved":false,"is_disabled":false,"rental_uris":{"android":"levelo://app?vid=187ee882-ab18-47a3-84ad-447a905d2b50","ios":"levelo://app?vid=187ee882-ab18-47a3-84ad-447a905d2b50"},"vehicle_type_id":"4","last_reported":1700852699,"current_range_meters":10800,"station_id":"","pricing_plan_id":"free"},{"bike_id":"46ce55e7-69c1-4328-87ba-597da6065827","system_id":"levelo_inurba_marseille","lat":43.29529,"lon":5.385581,"is_reserved":false,"is_disabled":false,"rental_uris":{"android":"levelo://app?vid=46ce55e7-69c1-4328-87ba-597da6065827","ios":"levelo://app?vid=46ce55e7-69c1-4328-87ba-597da6065827"},"vehicle_type_id":"4","last_reported":1700852699,"current_range_meters":20400,"station_id":"ce4bgih2rcd13ifvqba0","pricing_plan_id":"free"},{"bike_id":"1d10a1b1-d55f-4279-928a-9c6858f32ca9","system_id":"levelo_inurba_marseille","lat":43.33211,"lon":5.38112,"is_reserved":false,"is_disabled":false,"rental_uris":{"android":"levelo://app?vid=1d10a1b1-d55f-4279-928a-9c6858f32ca9","ios":"levelo://app?vid=1d10a1b1-d55f-4279-928a-9c6858f32ca9"},"vehicle_type_id":"4","last_reported":1700852699,"current_range_meters":0,"station_id":"","pricing_plan_id":"free"},{"bike_id":"1c43c0b9-db4b-49ef-8e5c-b3accbca24cb","system_id":"levelo_inurba_marseille","lat":43.302008,"lon":5.394694,"is_reserved":false,"is_disabled":false,"rental_uris":{"android":"levelo://app?vid=1c43c0b9-db4b-49ef-8e5c-b3accbca24cb","ios":"levelo://app?vid=1c43c0b9-db4b-49ef-8e5c-b3accbca24cb"},"vehicle_type_id":"4","last_reported":1700852699,"current_range_meters":4000,"station_id":"ce4bh0p2rcd13ifvqd70","pricing_plan_id":"free"},{"bike_id":"dfe665f8-d284-4fcc-aab4-9b03c9d9c3c1","system_id":"levelo_inurba_marseille","lat":43.302008,"lon":5.394694,"is_reserved":false,"is_disabled":false,"rental_uris":{"android":"levelo://app?vid=dfe665f8-d284-4fcc-aab4-9b03c9d9c3c1","ios":"levelo://app?vid=dfe665f8-d284-4fcc-aab4-9b03c9d9c3c1"},"vehicle_type_id":"4","last_reported":1700852699,"current_range_meters":0,"station_id":"ce4bh0p2rcd13ifvqd70","pricing_plan_id":"free"},{"bike_id":"d6d49f28-c67e-46a5-a72a-0f9bd81fe5fe","system_id":"levelo_inurba_marseille","lat":43.294153,"lon":5.386305,"is_reserved":false,"is_disabled":false,"rental_uris":{"android":"levelo://app?vid=d6d49f28-c67e-46a5-a72a-0f9bd81fe5fe","ios":"levelo://app?vid=d6d49f28-c67e-46a5-a72a-0f9bd81fe5fe"},"vehicle_type_id":"4","last_reported":1700852699,"current_range_meters":0,"station_id":"ce4bh2h2rcd13ifvqdh0","pricing_plan_id":"free"},{"bike_id":"e972ec25-da6d-4d25-98d3-97a4d7adab11","system_id":"levelo_inurba_marseille","lat":43.294162,"lon":5.386292,"is_reserved":false,"is_disabled":false,"rental_uris":{"android":"levelo://app?vid=e972ec25-da6d-4d25-98d3-97a4d7adab11","ios":"levelo://app?vid=e972ec25-da6d-4d25-98d3-97a4d7adab11"},"vehicle_type_id":"4","last_reported":1700852699,"current_range_meters":27200,"station_id":"ce4bh2h2rcd13ifvqdh0","pricing_plan_id":"free"},{"bike_id":"a358f34d-b65a-458b-acde-c3f3b33c56ea","system_id":"levelo_inurba_marseille","lat":43.294153,"lon":5.386305,"is_reserved":false,"is_disabled":false,"rental_uris":{"android":"levelo://app?vid=a358f34d-b65a-458b-acde-c3f3b33c56ea","ios":"levelo://app?vid=a358f34d-b65a-458b-acde-c3f3b33c56ea"},"vehicle_type_id":"4","last_reported":1700852699,"current_range_meters":0,"station_id":"ce4bh2h2rcd13ifvqdh0","pricing_plan_id":"free"},{"bike_id":"4b769371-e9b7-4eff-8d89-8f1832304dc7","system_id":"levelo_inurba_marseille","lat":43.294162,"lon":5.386292,"is_reserved":false,"is_disabled":false,"rental_uris":{"android":"levelo://app?vid=4b769371-e9b7-4eff-8d89-8f1832304dc7","ios":"levelo://app?vid=4b769371-e9b7-4eff-8d89-8f1832304dc7"},"vehicle_type_id":"4","last_reported":1700852699,"current_range_meters":25600,"station_id":"ce4bh2h2rcd13ifvqdh0","pricing_plan_id":"free"},{"bike_id":"d9926e7d-870a-4a7b-ad20-e5e2ad2f0dc0","system_id":"levelo_inurba_marseille","lat":43.303802,"lon":5.397126,"is_reserved":false,"is_disabled":false,"rental_uris":{"android":"levelo://app?vid=d9926e7d-870a-4a7b-ad20-e5e2ad2f0dc0","ios":"levelo://app?vid=d9926e7d-870a-4a7b-ad20-e5e2ad2f0dc0"},"vehicle_type_id":"4","last_reported":1700852699,"current_range_meters":23200,"station_id":"","pricing_plan_id":"free"},{"bike_id":"a6d8bb05-9335-4eda-8d8e-20eb034cbda8","system_id":"levelo_inurba_marseille","lat":43.292644,"lon":5.384257,"is_reserved":false,"is_disabled":false,"rental_uris":{"android":"levelo://app?vid=a6d8bb05-9335-4eda-8d8e-20eb034cbda8","ios":"levelo://app?vid=a6d8bb05-9335-4eda-8d8e-20eb034cbda8"},"vehicle_type_id":"4","last_reported":1700852699,"current_range_meters":27600,"station_id":"ce4bh692rcd13ifvqea0","pricing_plan_id":"free"},{"bike_id":"dcfa5beb-5254-4131-bcb8-f980b1a0bd68","system_id":"levelo_inurba_marseille","lat":43.33043,"lon":5.38915,"is_reserved":false,"is_disabled":false,"rental_uris":{"android":"levelo://app?vid=dcfa5beb-5254-4131-bcb8-f980b1a0bd68","ios":"levelo://app?vid=dcfa5beb-5254-4131-bcb8-f980b1a0bd68"},"vehicle_type_id":"4","last_reported":1700852699,"current_range_meters":28400,"station_id":"ce4bhr92rcd13ifvqhrg","pricing_plan_id":"free"},{"bike_id":"4f080e12-3419-4997-bd7e-b716121d92a2","system_id":"levelo_inurba_marseille","lat":43.330397,"lon":5.3892,"is_reserved":false,"is_disabled":false,"rental_uris":{"android":"levelo://app?vid=4f080e12-3419-4997-bd7e-b716121d92a2","ios":"levelo://app?vid=4f080e12-3419-4997-bd7e-b716121d92a2"},"vehicle_type_id":"4","last_reported":1700852699,"current_range_meters":0,"station_id":"ce4bhr92rcd13ifvqhrg","pricing_plan_id":"free"},{"bike_id":"061c32d7-835f-43bb-8ad8-c3bb6a8151c2","system_id":"levelo_inurba_marseille","lat":43.33045,"lon":5.38921,"is_reserved":false,"is_disabled":false,"rental_uris":{"android":"levelo://app?vid=061c32d7-835f-43bb-8ad8-c3bb6a8151c2","ios":"levelo://app?vid=061c32d7-835f-43bb-8ad8-c3bb6a8151c2"},"vehicle_type_id":"4","last_reported":1700852699,"current_range_meters":30400,"station_id":"ce4bhr92rcd13ifvqhrg","pricing_plan_id":"free"},{"bike_id":"1965ecc6-f8c9-4d6e-ba0e-eaf657173e38","system_id":"levelo_inurba_marseille","lat":43.290995,"lon":5.381361,"is_reserved":false,"is_disabled":false,"rental_uris":{"android":"levelo://app?vid=1965ecc6-f8c9-4d6e-ba0e-eaf657173e38","ios":"levelo://app?vid=1965ecc6-f8c9-4d6e-ba0e-eaf657173e38"},"vehicle_type_id":"4","last_reported":1700852699,"current_range_meters":0,"station_id":"ce4bh512rcd13ifvqe2g","pricing_plan_id":"free"},{"bike_id":"ba5606c8-5630-47a2-b728-0b1b9a730e2a","system_id":"levelo_inurba_marseille","lat":43.29791,"lon":5.39338,"is_reserved":false,"is_disabled":false,"rental_uris":{"android":"levelo://app?vid=ba5606c8-5630-47a2-b728-0b1b9a730e2a","ios":"levelo://app?vid=ba5606c8-5630-47a2-b728-0b1b9a730e2a"},"vehicle_type_id":"4","last_reported":1700852699,"current_range_meters":18800,"station_id":"chh1huq6cuj3fo74tm60","pricing_plan_id":"free"},{"bike_id":"aed8b884-1900-4594-b121-51ad3498bcc0","system_id":"levelo_inurba_marseille","lat":43.289743,"lon":5.378304,"is_reserved":false,"is_disabled":false,"rental_uris":{"android":"levelo://app?vid=aed8b884-1900-4594-b121-51ad3498bcc0","ios":"levelo://app?vid=aed8b884-1900-4594-b121-51ad3498bcc0"},"vehicle_type_id":"4","last_reported":1700852699,"current_range_meters":25600,"station_id":"ce4bh9p2rcd13ifvqed0","pricing_plan_id":"free"},{"bike_id":"9f3ea0ae-761e-43b1-ad64-979f3efc0236","system_id":"levelo_inurba_marseille","lat":43.334017,"lon":5.383433,"is_reserved":false,"is_disabled":false,"rental_uris":{"android":"levelo://app?vid=9f3ea0ae-761e-43b1-ad64-979f3efc0236","ios":"levelo://app?vid=9f3ea0ae-761e-43b1-ad64-979f3efc0236"},"vehicle_type_id":"4","last_reported":1700852699,"current_range_meters":25200,"station_id":"","pricing_plan_id":"free"},{"bike_id":"3c8c2606-2d88-4df2-96c2-36a3f529b2e3","system_id":"levelo_inurba_marseille","lat":43.295169,"lon":5.390426,"is_reserved":false,"is_disabled":false,"rental_uris":{"android":"levelo://app?vid=3c8c2606-2d88-4df2-96c2-36a3f529b2e3","ios":"levelo://app?vid=3c8c2606-2d88-4df2-96c2-36a3f529b2e3"},"vehicle_type_id":"4","last_reported":1700852699,"current_range_meters":1200,"station_id":"ce4bh3p2rcd13ifvqdp0","pricing_plan_id":"free"},{"bike_id":"0c9e3cac-f9ca-48b0-8058-828f3d6a7130","system_id":"levelo_inurba_marseille","lat":43.295169,"lon":5.390426,"is_reserved":false,"is_disabled":false,"rental_uris":{"android":"levelo://app?vid=0c9e3cac-f9ca-48b0-8058-828f3d6a7130","ios":"levelo://app?vid=0c9e3cac-f9ca-48b0-8058-828f3d6a7130"},"vehicle_type_id":"4","last_reported":1700852699,"current_range_meters":6400,"station_id":"ce4bh3p2rcd13ifvqdp0","pricing_plan_id":"free"},{"bike_id":"86240a02-8f13-4e1f-96f2-00cad4f3f7ad","system_id":"levelo_inurba_marseille","lat":43.290094,"lon":5.381264,"is_reserved":false,"is_disabled":false,"rental_uris":{"android":"levelo://app?vid=86240a02-8f13-4e1f-96f2-00cad4f3f7ad","ios":"levelo://app?vid=86240a02-8f13-4e1f-96f2-00cad4f3f7ad"},"vehicle_type_id":"4","last_reported":1700852699,"current_range_meters":7600,"station_id":"ce4bh4p2rcd13ifvqe1g","pricing_plan_id":"free"},{"bike_id":"cedb40ec-9e11-4ad5-a160-ec1a0c90a709","system_id":"levelo_inurba_marseille","lat":43.33748,"lon":5.37452,"is_reserved":false,"is_disabled":false,"rental_uris":{"android":"levelo://app?vid=cedb40ec-9e11-4ad5-a160-ec1a0c90a709","ios":"levelo://app?vid=cedb40ec-9e11-4ad5-a160-ec1a0c90a709"},"vehicle_type_id":"4","last_reported":1700852699,"current_range_meters":31200,"station_id":"","pricing_plan_id":"free"},{"bike_id":"3f91acc6-ba51-406b-83d0-9f146c9c396b","system_id":"levelo_inurba_marseille","lat":43.309371,"lon":5.401449,"is_reserved":false,"is_disabled":false,"rental_uris":{"android":"levelo://app?vid=3f91acc6-ba51-406b-83d0-9f146c9c396b","ios":"levelo://app?vid=3f91acc6-ba51-406b-83d0-9f146c9c396b"},"vehicle_type_id":"4","last_reported":1700852699,"current_range_meters":14400,"station_id":"ce4bgvp2rcd13ifvqct0","pricing_plan_id":"free"},{"bike_id":"d79dd123-bc5e-4d40-92f7-32781d5646a5","system_id":"levelo_inurba_marseille","lat":43.306412,"lon":5.401035,"is_reserved":false,"is_disabled":false,"rental_uris":{"android":"levelo://app?vid=d79dd123-bc5e-4d40-92f7-32781d5646a5","ios":"levelo://app?vid=d79dd123-bc5e-4d40-92f7-32781d5646a5"},"vehicle_type_id":"4","last_reported":1700852699,"current_range_meters":13600,"station_id":"ce4bh112rcd13ifvqda0","pricing_plan_id":"free"},{"bike_id":"181b35ff-6b5d-4d1e-aed4-41a167652b42","system_id":"levelo_inurba_marseille","lat":43.301117,"lon":5.398795,"is_reserved":false,"is_disabled":false,"rental_uris":{"android":"levelo://app?vid=181b35ff-6b5d-4d1e-aed4-41a167652b42","ios":"levelo://app?vid=181b35ff-6b5d-4d1e-aed4-41a167652b42"},"vehicle_type_id":"4","last_reported":1700852699,"current_range_meters":2800,"station_id":"ce4bh0h2rcd13ifvqd40","pricing_plan_id":"free"},{"bike_id":"2236b2ba-3efd-4e66-be8b-bf71ca0e49c4","system_id":"levelo_inurba_marseille","lat":43.295511,"lon":5.422926,"is_reserved":false,"is_disabled":false,"rental_uris":{"android":"levelo://app?vid=2236b2ba-3efd-4e66-be8b-bf71ca0e49c4","ios":"levelo://app?vid=2236b2ba-3efd-4e66-be8b-bf71ca0e49c4"},"vehicle_type_id":"4","last_reported":1700852699,"current_range_meters":23200,"station_id":"ce4bhph2rcd13ifvqhdg","pricing_plan_id":"free"},{"bike_id":"c9d7a681-e7e2-4dbc-91b4-7858ec965bfa","system_id":"levelo_inurba_marseille","lat":43.295196,"lon":5.39397,"is_reserved":false,"is_disabled":false,"rental_uris":{"android":"levelo://app?vid=c9d7a681-e7e2-4dbc-91b4-7858ec965bfa","ios":"levelo://app?vid=c9d7a681-e7e2-4dbc-91b4-7858ec965bfa"},"vehicle_type_id":"4","last_reported":1700852699,"current_range_meters":2400,"station_id":"ce4bh292rcd13ifvqdf0","pricing_plan_id":"free"},{"bike_id":"2d1c4025-ebbe-461c-9c12-49f26ca3b811","system_id":"levelo_inurba_marseille","lat":43.29197,"lon":5.39303,"is_reserved":false,"is_disabled":false,"rental_uris":{"android":"levelo://app?vid=2d1c4025-ebbe-461c-9c12-49f26ca3b811","ios":"levelo://app?vid=2d1c4025-ebbe-461c-9c12-49f26ca3b811"},"vehicle_type_id":"4","last_reported":1700852699,"current_range_meters":4000,"station_id":"ce4bh192rcd13ifvqdd0","pricing_plan_id":"free"},{"bike_id":"69d2bb56-797e-487d-9045-f0ef9c2ac6c1","system_id":"levelo_inurba_marseille","lat":43.284538,"lon":5.358657,"is_reserved":false,"is_disabled":false,"rental_uris":{"android":"levelo://app?vid=69d2bb56-797e-487d-9045-f0ef9c2ac6c1","ios":"levelo://app?vid=69d2bb56-797e-487d-9045-f0ef9c2ac6c1"},"vehicle_type_id":"4","last_reported":1700852699,"current_range_meters":10400,"station_id":"ce4bhah2rcd13ifvqei0","pricing_plan_id":"free"},{"bike_id":"37ff114d-e4f2-4925-9a7a-3f82acf8890f","system_id":"levelo_inurba_marseille","lat":43.28619,"lon":5.35099,"is_reserved":false,"is_disabled":false,"rental_uris":{"android":"levelo://app?vid=37ff114d-e4f2-4925-9a7a-3f82acf8890f","ios":"levelo://app?vid=37ff114d-e4f2-4925-9a7a-3f82acf8890f"},"vehicle_type_id":"4","last_reported":1700852699,"current_range_meters":20000,"station_id":"ce4bhch2rcd13ifvqeug","pricing_plan_id":"free"},{"bike_id":"da1cfd50-26a5-40a8-b83a-eb36b86a433b","system_id":"levelo_inurba_marseille","lat":43.28614,"lon":5.35105,"is_reserved":false,"is_disabled":false,"rental_uris":{"android":"levelo://app?vid=da1cfd50-26a5-40a8-b83a-eb36b86a433b","ios":"levelo://app?vid=da1cfd50-26a5-40a8-b83a-eb36b86a433b"},"vehicle_type_id":"4","last_reported":1700852699,"current_range_meters":25600,"station_id":"ce4bhch2rcd13ifvqeug","pricing_plan_id":"free"},{"bike_id":"e8caa0bb-8176-445f-9f23-b711c843ed20","system_id":"levelo_inurba_marseille","lat":43.28615,"lon":5.35099,"is_reserved":false,"is_disabled":false,"rental_uris":{"android":"levelo://app?vid=e8caa0bb-8176-445f-9f23-b711c843ed20","ios":"levelo://app?vid=e8caa0bb-8176-445f-9f23-b711c843ed20"},"vehicle_type_id":"4","last_reported":1700852699,"current_range_meters":20400,"station_id":"ce4bhch2rcd13ifvqeug","pricing_plan_id":"free"},{"bike_id":"195e2510-b297-49ed-9582-f284f0847796","system_id":"levelo_inurba_marseille","lat":43.286595,"lon":5.386795,"is_reserved":false,"is_disabled":false,"rental_uris":{"android":"levelo://app?vid=195e2510-b297-49ed-9582-f284f0847796","ios":"levelo://app?vid=195e2510-b297-49ed-9582-f284f0847796"},"vehicle_type_id":"4","last_reported":1700852699,"current_range_meters":12800,"station_id":"ce4bh492rcd13ifvqdug","pricing_plan_id":"free"},{"bike_id":"d607922b-1e32-4ae0-9b78-d9de0eebcc90","system_id":"levelo_inurba_marseille","lat":43.286595,"lon":5.386795,"is_reserved":false,"is_disabled":false,"rental_uris":{"android":"levelo://app?vid=d607922b-1e32-4ae0-9b78-d9de0eebcc90","ios":"levelo://app?vid=d607922b-1e32-4ae0-9b78-d9de0eebcc90"},"vehicle_type_id":"4","last_reported":1700852699,"current_range_meters":24400,"station_id":"ce4bh492rcd13ifvqdug","pricing_plan_id":"free"},{"bike_id":"142e96e6-a82b-4d09-8358-94e26d393744","system_id":"levelo_inurba_marseille","lat":43.3229,"lon":5.40626,"is_reserved":false,"is_disabled":false,"rental_uris":{"android":"levelo://app?vid=142e96e6-a82b-4d09-8358-94e26d393744","ios":"levelo://app?vid=142e96e6-a82b-4d09-8358-94e26d393744"},"vehicle_type_id":"4","last_reported":1700852699,"current_range_meters":15600,"station_id":"","pricing_plan_id":"free"},{"bike_id":"fbed67cb-7d52-4e0c-8488-1d40e28e0960","system_id":"levelo_inurba_marseille","lat":43.32339,"lon":5.40616,"is_reserved":false,"is_disabled":false,"rental_uris":{"android":"levelo://app?vid=fbed67cb-7d52-4e0c-8488-1d40e28e0960","ios":"levelo://app?vid=fbed67cb-7d52-4e0c-8488-1d40e28e0960"},"vehicle_type_id":"4","last_reported":1700852699,"current_range_meters":800,"station_id":"ce4bhq92rcd13ifvqhjg","pricing_plan_id":"free"},{"bike_id":"b6b2bf70-9354-4abf-857e-57b6333e8aa5","system_id":"levelo_inurba_marseille","lat":43.323464,"lon":5.406297,"is_reserved":false,"is_disabled":false,"rental_uris":{"android":"levelo://app?vid=b6b2bf70-9354-4abf-857e-57b6333e8aa5","ios":"levelo://app?vid=b6b2bf70-9354-4abf-857e-57b6333e8aa5"},"vehicle_type_id":"4","last_reported":1700852699,"current_range_meters":14000,"station_id":"ce4bhq92rcd13ifvqhjg","pricing_plan_id":"free"},{"bike_id":"60fb846c-95d4-493d-8ff0-fc77dde513c4","system_id":"levelo_inurba_marseille","lat":43.337353,"lon":5.391743,"is_reserved":false,"is_disabled":false,"rental_uris":{"android":"levelo://app?vid=60fb846c-95d4-493d-8ff0-fc77dde513c4","ios":"levelo://app?vid=60fb846c-95d4-493d-8ff0-fc77dde513c4"},"vehicle_type_id":"4","last_reported":1700852699,"current_range_meters":10400,"station_id":"ce4bhr92rcd13ifvqhsg","pricing_plan_id":"free"},{"bike_id":"e2592330-d042-4e00-a883-780fa36b8a32","system_id":"levelo_inurba_marseille","lat":43.28467,"lon":5.38409,"is_reserved":false,"is_disabled":false,"rental_uris":{"android":"levelo://app?vid=e2592330-d042-4e00-a883-780fa36b8a32","ios":"levelo://app?vid=e2592330-d042-4e00-a883-780fa36b8a32"},"vehicle_type_id":"4","last_reported":1700852699,"current_range_meters":0,"station_id":"ce4bh512rcd13ifvqe3g","pricing_plan_id":"free"},{"bike_id":"131884d1-3181-47a1-9298-e34d35ba0298","system_id":"levelo_inurba_marseille","lat":43.284219,"lon":5.3497,"is_reserved":false,"is_disabled":false,"rental_uris":{"android":"levelo://app?vid=131884d1-3181-47a1-9298-e34d35ba0298","ios":"levelo://app?vid=131884d1-3181-47a1-9298-e34d35ba0298"},"vehicle_type_id":"4","last_reported":1700852699,"current_range_meters":23600,"station_id":"ce4bhbh2rcd13ifvqepg","pricing_plan_id":"free"},{"bike_id":"13b5b379-e7de-4215-b8c4-bd10897b039b","system_id":"levelo_inurba_marseille","lat":43.284217,"lon":5.349697,"is_reserved":false,"is_disabled":false,"rental_uris":{"android":"levelo://app?vid=13b5b379-e7de-4215-b8c4-bd10897b039b","ios":"levelo://app?vid=13b5b379-e7de-4215-b8c4-bd10897b039b"},"vehicle_type_id":"4","last_reported":1700852699,"current_range_meters":14800,"station_id":"ce4bhbh2rcd13ifvqepg","pricing_plan_id":"free"},{"bike_id":"4f11b5cb-1b49-4b07-8fa8-a47d7bef8d8c","system_id":"levelo_inurba_marseille","lat":43.284217,"lon":5.349697,"is_reserved":false,"is_disabled":false,"rental_uris":{"android":"levelo://app?vid=4f11b5cb-1b49-4b07-8fa8-a47d7bef8d8c","ios":"levelo://app?vid=4f11b5cb-1b49-4b07-8fa8-a47d7bef8d8c"},"vehicle_type_id":"4","last_reported":1700852699,"current_range_meters":0,"station_id":"ce4bhbh2rcd13ifvqepg","pricing_plan_id":"free"},{"bike_id":"e2284003-4e46-4e0a-93e7-73d05c3666d9","system_id":"levelo_inurba_marseille","lat":43.33508,"lon":5.397755,"is_reserved":false,"is_disabled":false,"rental_uris":{"android":"levelo://app?vid=e2284003-4e46-4e0a-93e7-73d05c3666d9","ios":"levelo://app?vid=e2284003-4e46-4e0a-93e7-73d05c3666d9"},"vehicle_type_id":"4","last_reported":1700852699,"current_range_meters":25600,"station_id":"","pricing_plan_id":"free"},{"bike_id":"b4bc6c19-20e6-4b1e-b989-40d4ba171e93","system_id":"levelo_inurba_marseille","lat":43.335244,"lon":5.397573,"is_reserved":false,"is_disabled":false,"rental_uris":{"android":"levelo://app?vid=b4bc6c19-20e6-4b1e-b989-40d4ba171e93","ios":"levelo://app?vid=b4bc6c19-20e6-4b1e-b989-40d4ba171e93"},"vehicle_type_id":"4","last_reported":1700852699,"current_range_meters":7200,"station_id":"","pricing_plan_id":"free"},{"bike_id":"87402d34-12ed-4a57-bf6b-550b3f6356c5","system_id":"levelo_inurba_marseille","lat":43.282744,"lon":5.350533,"is_reserved":false,"is_disabled":false,"rental_uris":{"android":"levelo://app?vid=87402d34-12ed-4a57-bf6b-550b3f6356c5","ios":"levelo://app?vid=87402d34-12ed-4a57-bf6b-550b3f6356c5"},"vehicle_type_id":"4","last_reported":1700852699,"current_range_meters":13200,"station_id":"ce4bhbp2rcd13ifvqerg","pricing_plan_id":"free"},{"bike_id":"3a0235db-328d-4f7d-ab3e-cb03e4ea5b2a","system_id":"levelo_inurba_marseille","lat":43.282744,"lon":5.350533,"is_reserved":false,"is_disabled":false,"rental_uris":{"android":"levelo://app?vid=3a0235db-328d-4f7d-ab3e-cb03e4ea5b2a","ios":"levelo://app?vid=3a0235db-328d-4f7d-ab3e-cb03e4ea5b2a"},"vehicle_type_id":"4","last_reported":1700852699,"current_range_meters":14000,"station_id":"ce4bhbp2rcd13ifvqerg","pricing_plan_id":"free"},{"bike_id":"83682c74-365e-4498-9f22-246f10277f8d","system_id":"levelo_inurba_marseille","lat":43.29043,"lon":5.39958,"is_reserved":false,"is_disabled":false,"rental_uris":{"android":"levelo://app?vid=83682c74-365e-4498-9f22-246f10277f8d","ios":"levelo://app?vid=83682c74-365e-4498-9f22-246f10277f8d"},"vehicle_type_id":"4","last_reported":1700852699,"current_range_meters":0,"station_id":"ce4bh392rcd13ifvqdm0","pricing_plan_id":"free"},{"bike_id":"4f7b7da5-44dc-42f4-8aa1-1c81a21ee416","system_id":"levelo_inurba_marseille","lat":43.296263,"lon":5.40601,"is_reserved":false,"is_disabled":false,"rental_uris":{"android":"levelo://app?vid=4f7b7da5-44dc-42f4-8aa1-1c81a21ee416","ios":"levelo://app?vid=4f7b7da5-44dc-42f4-8aa1-1c81a21ee416"},"vehicle_type_id":"4","last_reported":1700852699,"current_range_meters":5600,"station_id":"ce4bh0h2rcd13ifvqd60","pricing_plan_id":"free"},{"bike_id":"dfb04f6c-5792-4ec6-b542-6d471aad0409","system_id":"levelo_inurba_marseille","lat":43.28434,"lon":5.39174,"is_reserved":false,"is_disabled":false,"rental_uris":{"android":"levelo://app?vid=dfb04f6c-5792-4ec6-b542-6d471aad0409","ios":"levelo://app?vid=dfb04f6c-5792-4ec6-b542-6d471aad0409"},"vehicle_type_id":"4","last_reported":1700852699,"current_range_meters":8000,"station_id":"ce4bhoh2rcd13ifvqh5g","pricing_plan_id":"free"},{"bike_id":"8ca767f9-a7c1-4e27-baa3-ee8fc2aa4958","system_id":"levelo_inurba_marseille","lat":43.28573,"lon":5.394992,"is_reserved":false,"is_disabled":false,"rental_uris":{"android":"levelo://app?vid=8ca767f9-a7c1-4e27-baa3-ee8fc2aa4958","ios":"levelo://app?vid=8ca767f9-a7c1-4e27-baa3-ee8fc2aa4958"},"vehicle_type_id":"4","last_reported":1700852699,"current_range_meters":7200,"station_id":"ce4bh292rcd13ifvqdg0","pricing_plan_id":"free"},{"bike_id":"a61f331c-3443-4c6d-bc7d-4f25774ce038","system_id":"levelo_inurba_marseille","lat":43.285742,"lon":5.395004,"is_reserved":false,"is_disabled":false,"rental_uris":{"android":"levelo://app?vid=a61f331c-3443-4c6d-bc7d-4f25774ce038","ios":"levelo://app?vid=a61f331c-3443-4c6d-bc7d-4f25774ce038"},"vehicle_type_id":"4","last_reported":1700852699,"current_range_meters":24400,"station_id":"ce4bh292rcd13ifvqdg0","pricing_plan_id":"free"},{"bike_id":"e8997d84-e9e0-4aaa-a76a-c6d2af7271c7","system_id":"levelo_inurba_marseille","lat":43.298831,"lon":5.410184,"is_reserved":false,"is_disabled":false,"rental_uris":{"android":"levelo://app?vid=e8997d84-e9e0-4aaa-a76a-c6d2af7271c7","ios":"levelo://app?vid=e8997d84-e9e0-4aaa-a76a-c6d2af7271c7"},"vehicle_type_id":"4","last_reported":1700852699,"current_range_meters":0,"station_id":"","pricing_plan_id":"free"},{"bike_id":"4944c6c2-8c60-4ea8-977f-a6abc25808d2","system_id":"levelo_inurba_marseille","lat":43.304188,"lon":5.412904,"is_reserved":false,"is_disabled":false,"rental_uris":{"android":"levelo://app?vid=4944c6c2-8c60-4ea8-977f-a6abc25808d2","ios":"levelo://app?vid=4944c6c2-8c60-4ea8-977f-a6abc25808d2"},"vehicle_type_id":"4","last_reported":1700852699,"current_range_meters":21600,"station_id":"ce4bhop2rcd13ifvqh8g","pricing_plan_id":"free"},{"bike_id":"926465e2-01c5-4483-a2ca-bd4b4a73a9fb","system_id":"levelo_inurba_marseille","lat":43.304188,"lon":5.412904,"is_reserved":false,"is_disabled":false,"rental_uris":{"android":"levelo://app?vid=926465e2-01c5-4483-a2ca-bd4b4a73a9fb","ios":"levelo://app?vid=926465e2-01c5-4483-a2ca-bd4b4a73a9fb"},"vehicle_type_id":"4","last_reported":1700852699,"current_range_meters":13600,"station_id":"ce4bhop2rcd13ifvqh8g","pricing_plan_id":"free"},{"bike_id":"80ad672d-7cda-49f4-843e-7a8540e0770d","system_id":"levelo_inurba_marseille","lat":43.280784,"lon":5.396622,"is_reserved":false,"is_disabled":false,"rental_uris":{"android":"levelo://app?vid=80ad672d-7cda-49f4-843e-7a8540e0770d","ios":"levelo://app?vid=80ad672d-7cda-49f4-843e-7a8540e0770d"},"vehicle_type_id":"4","last_reported":1700852699,"current_range_meters":21600,"station_id":"ce4bho12rcd13ifvqh2g","pricing_plan_id":"free"},{"bike_id":"505bc0ec-0c48-4841-90f3-ca45b286b8db","system_id":"levelo_inurba_marseille","lat":43.280784,"lon":5.396622,"is_reserved":false,"is_disabled":false,"rental_uris":{"android":"levelo://app?vid=505bc0ec-0c48-4841-90f3-ca45b286b8db","ios":"levelo://app?vid=505bc0ec-0c48-4841-90f3-ca45b286b8db"},"vehicle_type_id":"4","last_reported":1700852699,"current_range_meters":30800,"station_id":"ce4bho12rcd13ifvqh2g","pricing_plan_id":"free"},{"bike_id":"d7e96dab-8a31-411e-9eb2-a0c89e002e0c","system_id":"levelo_inurba_marseille","lat":43.303837,"lon":5.418724,"is_reserved":false,"is_disabled":false,"rental_uris":{"android":"levelo://app?vid=d7e96dab-8a31-411e-9eb2-a0c89e002e0c","ios":"levelo://app?vid=d7e96dab-8a31-411e-9eb2-a0c89e002e0c"},"vehicle_type_id":"4","last_reported":1700852699,"current_range_meters":19200,"station_id":"ce4bhop2rcd13ifvqh7g","pricing_plan_id":"free"},{"bike_id":"7311761d-0058-48ac-86e1-48a518af315f","system_id":"levelo_inurba_marseille","lat":43.275625,"lon":5.384392,"is_reserved":false,"is_disabled":false,"rental_uris":{"android":"levelo://app?vid=7311761d-0058-48ac-86e1-48a518af315f","ios":"levelo://app?vid=7311761d-0058-48ac-86e1-48a518af315f"},"vehicle_type_id":"4","last_reported":1700852699,"current_range_meters":15200,"station_id":"ce4bhh92rcd13ifvqfi0","pricing_plan_id":"free"},{"bike_id":"daacfa41-3006-4667-91d7-c4ced861e8cc","system_id":"levelo_inurba_marseille","lat":43.275625,"lon":5.384392,"is_reserved":false,"is_disabled":false,"rental_uris":{"android":"levelo://app?vid=daacfa41-3006-4667-91d7-c4ced861e8cc","ios":"levelo://app?vid=daacfa41-3006-4667-91d7-c4ced861e8cc"},"vehicle_type_id":"4","last_reported":1700852699,"current_range_meters":17600,"station_id":"ce4bhh92rcd13ifvqfi0","pricing_plan_id":"free"},{"bike_id":"5d90b0db-5e26-43e0-9045-db99308975c5","system_id":"levelo_inurba_marseille","lat":43.28002,"lon":5.4001,"is_reserved":false,"is_disabled":false,"rental_uris":{"android":"levelo://app?vid=5d90b0db-5e26-43e0-9045-db99308975c5","ios":"levelo://app?vid=5d90b0db-5e26-43e0-9045-db99308975c5"},"vehicle_type_id":"4","last_reported":1700852699,"current_range_meters":0,"station_id":"ce4bho92rcd13ifvqh4g","pricing_plan_id":"free"},{"bike_id":"561d56c0-616a-4955-bd15-b0e0ddd3d6ba","system_id":"levelo_inurba_marseille","lat":43.279952,"lon":5.400085,"is_reserved":false,"is_disabled":false,"rental_uris":{"android":"levelo://app?vid=561d56c0-616a-4955-bd15-b0e0ddd3d6ba","ios":"levelo://app?vid=561d56c0-616a-4955-bd15-b0e0ddd3d6ba"},"vehicle_type_id":"4","last_reported":1700852699,"current_range_meters":3600,"station_id":"ce4bho92rcd13ifvqh4g","pricing_plan_id":"free"},{"bike_id":"fc8a50fc-7fb9-4b58-ae5e-3658ebaf4b71","system_id":"levelo_inurba_marseille","lat":43.34181,"lon":5.40612,"is_reserved":false,"is_disabled":false,"rental_uris":{"android":"levelo://app?vid=fc8a50fc-7fb9-4b58-ae5e-3658ebaf4b71","ios":"levelo://app?vid=fc8a50fc-7fb9-4b58-ae5e-3658ebaf4b71"},"vehicle_type_id":"4","last_reported":1700852699,"current_range_meters":400,"station_id":"","pricing_plan_id":"free"},{"bike_id":"4fcce5d9-071c-4eeb-873d-e2b8131ef5b1","system_id":"levelo_inurba_marseille","lat":43.317121,"lon":5.423936,"is_reserved":false,"is_disabled":false,"rental_uris":{"android":"levelo://app?vid=4fcce5d9-071c-4eeb-873d-e2b8131ef5b1","ios":"levelo://app?vid=4fcce5d9-071c-4eeb-873d-e2b8131ef5b1"},"vehicle_type_id":"4","last_reported":1700852699,"current_range_meters":13200,"station_id":"ce4bhp92rcd13ifvqhbg","pricing_plan_id":"free"},{"bike_id":"8a3e7cef-7be0-4427-a6aa-fd9079fb3b6e","system_id":"levelo_inurba_marseille","lat":43.255756,"lon":5.382303,"is_reserved":false,"is_disabled":false,"rental_uris":{"android":"levelo://app?vid=8a3e7cef-7be0-4427-a6aa-fd9079fb3b6e","ios":"levelo://app?vid=8a3e7cef-7be0-4427-a6aa-fd9079fb3b6e"},"vehicle_type_id":"4","last_reported":1700852699,"current_range_meters":7200,"station_id":"ce4bhih2rcd13ifvqfs0","pricing_plan_id":"free"},{"bike_id":"f566f230-9a04-452e-be74-97dcc134388a","system_id":"levelo_inurba_marseille","lat":43.304096,"lon":5.425385,"is_reserved":false,"is_disabled":false,"rental_uris":{"android":"levelo://app?vid=f566f230-9a04-452e-be74-97dcc134388a","ios":"levelo://app?vid=f566f230-9a04-452e-be74-97dcc134388a"},"vehicle_type_id":"4","last_reported":1700852699,"current_range_meters":0,"station_id":"ce4bhoh2rcd13ifvqh6g","pricing_plan_id":"free"},{"bike_id":"ec3d03da-78c9-4642-80f1-267154a38bb0","system_id":"levelo_inurba_marseille","lat":43.295511,"lon":5.422926,"is_reserved":false,"is_disabled":false,"rental_uris":{"android":"levelo://app?vid=ec3d03da-78c9-4642-80f1-267154a38bb0","ios":"levelo://app?vid=ec3d03da-78c9-4642-80f1-267154a38bb0"},"vehicle_type_id":"4","last_reported":1700852699,"current_range_meters":31600,"station_id":"ce4bhph2rcd13ifvqhdg","pricing_plan_id":"free"},{"bike_id":"c0e7c921-2f34-4325-9644-1440c95e11ac","system_id":"levelo_inurba_marseille","lat":43.295523,"lon":5.422926,"is_reserved":false,"is_disabled":false,"rental_uris":{"android":"levelo://app?vid=c0e7c921-2f34-4325-9644-1440c95e11ac","ios":"levelo://app?vid=c0e7c921-2f34-4325-9644-1440c95e11ac"},"vehicle_type_id":"4","last_reported":1700852699,"current_range_meters":14800,"station_id":"ce4bhph2rcd13ifvqhdg","pricing_plan_id":"free"},{"bike_id":"118822d8-6e1e-4e74-a488-66c0b9bac4ea","system_id":"levelo_inurba_marseille","lat":43.295511,"lon":5.422926,"is_reserved":false,"is_disabled":false,"rental_uris":{"android":"levelo://app?vid=118822d8-6e1e-4e74-a488-66c0b9bac4ea","ios":"levelo://app?vid=118822d8-6e1e-4e74-a488-66c0b9bac4ea"},"vehicle_type_id":"4","last_reported":1700852699,"current_range_meters":22800,"station_id":"ce4bhph2rcd13ifvqhdg","pricing_plan_id":"free"},{"bike_id":"886b94e7-3f0f-4f28-ab90-06e9345b689d","system_id":"levelo_inurba_marseille","lat":43.295523,"lon":5.422926,"is_reserved":false,"is_disabled":false,"rental_uris":{"android":"levelo://app?vid=886b94e7-3f0f-4f28-ab90-06e9345b689d","ios":"levelo://app?vid=886b94e7-3f0f-4f28-ab90-06e9345b689d"},"vehicle_type_id":"4","last_reported":1700852699,"current_range_meters":3200,"station_id":"ce4bhph2rcd13ifvqhdg","pricing_plan_id":"free"},{"bike_id":"6d892d9f-8bb7-466b-91e4-6b4cd5e06b20","system_id":"levelo_inurba_marseille","lat":43.295511,"lon":5.422926,"is_reserved":false,"is_disabled":false,"rental_uris":{"android":"levelo://app?vid=6d892d9f-8bb7-466b-91e4-6b4cd5e06b20","ios":"levelo://app?vid=6d892d9f-8bb7-466b-91e4-6b4cd5e06b20"},"vehicle_type_id":"4","last_reported":1700852699,"current_range_meters":27600,"station_id":"ce4bhph2rcd13ifvqhdg","pricing_plan_id":"free"},{"bike_id":"9830637b-caf5-476f-85b7-c02033487ff2","system_id":"levelo_inurba_marseille","lat":43.295511,"lon":5.422926,"is_reserved":false,"is_disabled":false,"rental_uris":{"android":"levelo://app?vid=9830637b-caf5-476f-85b7-c02033487ff2","ios":"levelo://app?vid=9830637b-caf5-476f-85b7-c02033487ff2"},"vehicle_type_id":"4","last_reported":1700852699,"current_range_meters":30400,"station_id":"ce4bhph2rcd13ifvqhdg","pricing_plan_id":"free"},{"bike_id":"c99c6bb4-ba40-4aa1-8adb-e4f264770cd6","system_id":"levelo_inurba_marseille","lat":43.27813,"lon":5.407229,"is_reserved":false,"is_disabled":false,"rental_uris":{"android":"levelo://app?vid=c99c6bb4-ba40-4aa1-8adb-e4f264770cd6","ios":"levelo://app?vid=c99c6bb4-ba40-4aa1-8adb-e4f264770cd6"},"vehicle_type_id":"4","last_reported":1700852699,"current_range_meters":0,"station_id":"ce4bhnh2rcd13ifvqgtg","pricing_plan_id":"free"},{"bike_id":"fc3c3486-b5e3-401b-9cc4-f32844ec20e0","system_id":"levelo_inurba_marseille","lat":43.27957,"lon":5.41048,"is_reserved":false,"is_disabled":false,"rental_uris":{"android":"levelo://app?vid=fc3c3486-b5e3-401b-9cc4-f32844ec20e0","ios":"levelo://app?vid=fc3c3486-b5e3-401b-9cc4-f32844ec20e0"},"vehicle_type_id":"4","last_reported":1700852699,"current_range_meters":0,"station_id":"ce4bhnp2rcd13ifvqh0g","pricing_plan_id":"free"},{"bike_id":"dcf5c21e-abc7-4cc5-85e5-461cc6b9b1d7","system_id":"levelo_inurba_marseille","lat":43.26557,"lon":5.37285,"is_reserved":false,"is_disabled":false,"rental_uris":{"android":"levelo://app?vid=dcf5c21e-abc7-4cc5-85e5-461cc6b9b1d7","ios":"levelo://app?vid=dcf5c21e-abc7-4cc5-85e5-461cc6b9b1d7"},"vehicle_type_id":"4","last_reported":1700852699,"current_range_meters":3600,"station_id":"ce4bhg12rcd13ifvqf70","pricing_plan_id":"free"},{"bike_id":"f23d8119-b478-4639-98c5-6883279f9f84","system_id":"levelo_inurba_marseille","lat":43.32592,"lon":5.43067,"is_reserved":false,"is_disabled":false,"rental_uris":{"android":"levelo://app?vid=f23d8119-b478-4639-98c5-6883279f9f84","ios":"levelo://app?vid=f23d8119-b478-4639-98c5-6883279f9f84"},"vehicle_type_id":"4","last_reported":1700852699,"current_range_meters":29600,"station_id":"","pricing_plan_id":"free"},{"bike_id":"28e8ce00-6b21-4e06-9930-c7c4408cc650","system_id":"levelo_inurba_marseille","lat":43.326174,"lon":5.430584,"is_reserved":false,"is_disabled":false,"rental_uris":{"android":"levelo://app?vid=28e8ce00-6b21-4e06-9930-c7c4408cc650","ios":"levelo://app?vid=28e8ce00-6b21-4e06-9930-c7c4408cc650"},"vehicle_type_id":"4","last_reported":1700852699,"current_range_meters":0,"station_id":"","pricing_plan_id":"free"},{"bike_id":"e7b368e8-9edf-4ac8-acef-7e9558d427aa","system_id":"levelo_inurba_marseille","lat":43.32591,"lon":5.430713,"is_reserved":false,"is_disabled":false,"rental_uris":{"android":"levelo://app?vid=e7b368e8-9edf-4ac8-acef-7e9558d427aa","ios":"levelo://app?vid=e7b368e8-9edf-4ac8-acef-7e9558d427aa"},"vehicle_type_id":"4","last_reported":1700852699,"current_range_meters":0,"station_id":"","pricing_plan_id":"free"},{"bike_id":"ed30d6a1-b23a-49e5-9c83-5546be72a734","system_id":"levelo_inurba_marseille","lat":43.3259,"lon":5.43075,"is_reserved":false,"is_disabled":false,"rental_uris":{"android":"levelo://app?vid=ed30d6a1-b23a-49e5-9c83-5546be72a734","ios":"levelo://app?vid=ed30d6a1-b23a-49e5-9c83-5546be72a734"},"vehicle_type_id":"4","last_reported":1700852699,"current_range_meters":24400,"station_id":"","pricing_plan_id":"free"},{"bike_id":"d67469ee-5362-4610-a163-fe05ae3cf4f7","system_id":"levelo_inurba_marseille","lat":43.32604,"lon":5.430817,"is_reserved":false,"is_disabled":false,"rental_uris":{"android":"levelo://app?vid=d67469ee-5362-4610-a163-fe05ae3cf4f7","ios":"levelo://app?vid=d67469ee-5362-4610-a163-fe05ae3cf4f7"},"vehicle_type_id":"4","last_reported":1700852699,"current_range_meters":12800,"station_id":"","pricing_plan_id":"free"},{"bike_id":"c85f7616-3a9e-47a4-ae16-28a03e51ab4f","system_id":"levelo_inurba_marseille","lat":43.29355,"lon":5.42809,"is_reserved":false,"is_disabled":false,"rental_uris":{"android":"levelo://app?vid=c85f7616-3a9e-47a4-ae16-28a03e51ab4f","ios":"levelo://app?vid=c85f7616-3a9e-47a4-ae16-28a03e51ab4f"},"vehicle_type_id":"4","last_reported":1700852699,"current_range_meters":6000,"station_id":"","pricing_plan_id":"free"},{"bike_id":"2b5f0b27-ae58-4e9e-bd76-c585f78e8a73","system_id":"levelo_inurba_marseille","lat":43.26386,"lon":5.37454,"is_reserved":false,"is_disabled":false,"rental_uris":{"android":"levelo://app?vid=2b5f0b27-ae58-4e9e-bd76-c585f78e8a73","ios":"levelo://app?vid=2b5f0b27-ae58-4e9e-bd76-c585f78e8a73"},"vehicle_type_id":"4","last_reported":1700852699,"current_range_meters":13600,"station_id":"","pricing_plan_id":"free"},{"bike_id":"8bb5fb4c-f033-472d-9384-8c187d29c15f","system_id":"levelo_inurba_marseille","lat":43.308051,"lon":5.43527,"is_reserved":false,"is_disabled":false,"rental_uris":{"android":"levelo://app?vid=8bb5fb4c-f033-472d-9384-8c187d29c15f","ios":"levelo://app?vid=8bb5fb4c-f033-472d-9384-8c187d29c15f"},"vehicle_type_id":"4","last_reported":1700852699,"current_range_meters":31200,"station_id":"ce4bhph2rcd13ifvqheg","pricing_plan_id":"free"},{"bike_id":"70463576-b446-411d-b3ef-9f48f4cf5a5e","system_id":"levelo_inurba_marseille","lat":43.26557,"lon":5.390013,"is_reserved":false,"is_disabled":false,"rental_uris":{"android":"levelo://app?vid=70463576-b446-411d-b3ef-9f48f4cf5a5e","ios":"levelo://app?vid=70463576-b446-411d-b3ef-9f48f4cf5a5e"},"vehicle_type_id":"4","last_reported":1700852699,"current_range_meters":5200,"station_id":"ce4bhe12rcd13ifvqf30","pricing_plan_id":"free"},{"bike_id":"5137aad6-9aa6-45b8-b011-6bb9bc3ba129","system_id":"levelo_inurba_marseille","lat":43.26555,"lon":5.390065,"is_reserved":false,"is_disabled":false,"rental_uris":{"android":"levelo://app?vid=5137aad6-9aa6-45b8-b011-6bb9bc3ba129","ios":"levelo://app?vid=5137aad6-9aa6-45b8-b011-6bb9bc3ba129"},"vehicle_type_id":"4","last_reported":1700852699,"current_range_meters":6800,"station_id":"ce4bhe12rcd13ifvqf30","pricing_plan_id":"free"},{"bike_id":"a6cf9b04-855d-4dc5-9c72-ce4a8e5bbb9c","system_id":"levelo_inurba_marseille","lat":43.31724,"lon":5.43696,"is_reserved":false,"is_disabled":false,"rental_uris":{"android":"levelo://app?vid=a6cf9b04-855d-4dc5-9c72-ce4a8e5bbb9c","ios":"levelo://app?vid=a6cf9b04-855d-4dc5-9c72-ce4a8e5bbb9c"},"vehicle_type_id":"4","last_reported":1700852699,"current_range_meters":1600,"station_id":"ce4bhp92rcd13ifvqhcg","pricing_plan_id":"free"},{"bike_id":"58f06a5a-fab0-4e47-86ce-26fb451193b2","system_id":"levelo_inurba_marseille","lat":43.317104,"lon":5.436818,"is_reserved":false,"is_disabled":false,"rental_uris":{"android":"levelo://app?vid=58f06a5a-fab0-4e47-86ce-26fb451193b2","ios":"levelo://app?vid=58f06a5a-fab0-4e47-86ce-26fb451193b2"},"vehicle_type_id":"4","last_reported":1700852699,"current_range_meters":7600,"station_id":"ce4bhp92rcd13ifvqhcg","pricing_plan_id":"free"},{"bike_id":"2f057b81-6fc8-4570-8186-e577abd426a5","system_id":"levelo_inurba_marseille","lat":43.262012,"lon":5.379307,"is_reserved":false,"is_disabled":false,"rental_uris":{"android":"levelo://app?vid=2f057b81-6fc8-4570-8186-e577abd426a5","ios":"levelo://app?vid=2f057b81-6fc8-4570-8186-e577abd426a5"},"vehicle_type_id":"4","last_reported":1700852699,"current_range_meters":6400,"station_id":"ce4bhjp2rcd13ifvqg90","pricing_plan_id":"free"},{"bike_id":"d0bb53f7-f1b8-4609-a668-27efdac67f66","system_id":"levelo_inurba_marseille","lat":43.26301,"lon":5.38842,"is_reserved":false,"is_disabled":false,"rental_uris":{"android":"levelo://app?vid=d0bb53f7-f1b8-4609-a668-27efdac67f66","ios":"levelo://app?vid=d0bb53f7-f1b8-4609-a668-27efdac67f66"},"vehicle_type_id":"4","last_reported":1700852699,"current_range_meters":0,"station_id":"","pricing_plan_id":"free"},{"bike_id":"1e272c67-0721-4a45-a082-8c54474509d1","system_id":"levelo_inurba_marseille","lat":43.29901,"lon":5.436851,"is_reserved":false,"is_disabled":false,"rental_uris":{"android":"levelo://app?vid=1e272c67-0721-4a45-a082-8c54474509d1","ios":"levelo://app?vid=1e272c67-0721-4a45-a082-8c54474509d1"},"vehicle_type_id":"4","last_reported":1700852699,"current_range_meters":0,"station_id":"ce4bhpp2rcd13ifvqhfg","pricing_plan_id":"free"},{"bike_id":"5cc76595-4035-4213-b74e-41dabe622aaf","system_id":"levelo_inurba_marseille","lat":43.281651,"lon":5.426395,"is_reserved":false,"is_disabled":false,"rental_uris":{"android":"levelo://app?vid=5cc76595-4035-4213-b74e-41dabe622aaf","ios":"levelo://app?vid=5cc76595-4035-4213-b74e-41dabe622aaf"},"vehicle_type_id":"4","last_reported":1700852699,"current_range_meters":5200,"station_id":"ce4bhnh2rcd13ifvqgug","pricing_plan_id":"free"},{"bike_id":"57e79899-8ad3-45b7-9635-8cfec915ab09","system_id":"levelo_inurba_marseille","lat":43.281548,"lon":5.42643,"is_reserved":false,"is_disabled":false,"rental_uris":{"android":"levelo://app?vid=57e79899-8ad3-45b7-9635-8cfec915ab09","ios":"levelo://app?vid=57e79899-8ad3-45b7-9635-8cfec915ab09"},"vehicle_type_id":"4","last_reported":1700852699,"current_range_meters":27200,"station_id":"ce4bhnh2rcd13ifvqgug","pricing_plan_id":"free"},{"bike_id":"2496f70c-ec07-44fb-9b04-b20b54c5e53f","system_id":"levelo_inurba_marseille","lat":43.281548,"lon":5.42643,"is_reserved":false,"is_disabled":false,"rental_uris":{"android":"levelo://app?vid=2496f70c-ec07-44fb-9b04-b20b54c5e53f","ios":"levelo://app?vid=2496f70c-ec07-44fb-9b04-b20b54c5e53f"},"vehicle_type_id":"4","last_reported":1700852699,"current_range_meters":25200,"station_id":"ce4bhnh2rcd13ifvqgug","pricing_plan_id":"free"},{"bike_id":"5b695211-cee6-414c-8d21-2a49f6b61949","system_id":"levelo_inurba_marseille","lat":43.281548,"lon":5.42643,"is_reserved":false,"is_disabled":false,"rental_uris":{"android":"levelo://app?vid=5b695211-cee6-414c-8d21-2a49f6b61949","ios":"levelo://app?vid=5b695211-cee6-414c-8d21-2a49f6b61949"},"vehicle_type_id":"4","last_reported":1700852699,"current_range_meters":18400,"station_id":"ce4bhnh2rcd13ifvqgug","pricing_plan_id":"free"},{"bike_id":"5ac38179-4d98-4b89-80f2-dc6cd474e479","system_id":"levelo_inurba_marseille","lat":43.28155,"lon":5.42647,"is_reserved":false,"is_disabled":false,"rental_uris":{"android":"levelo://app?vid=5ac38179-4d98-4b89-80f2-dc6cd474e479","ios":"levelo://app?vid=5ac38179-4d98-4b89-80f2-dc6cd474e479"},"vehicle_type_id":"4","last_reported":1700852699,"current_range_meters":20800,"station_id":"ce4bhnh2rcd13ifvqgug","pricing_plan_id":"free"},{"bike_id":"7b3a93ae-ea0c-4816-9348-8bedf5ebb05b","system_id":"levelo_inurba_marseille","lat":43.2815,"lon":5.42644,"is_reserved":false,"is_disabled":false,"rental_uris":{"android":"levelo://app?vid=7b3a93ae-ea0c-4816-9348-8bedf5ebb05b","ios":"levelo://app?vid=7b3a93ae-ea0c-4816-9348-8bedf5ebb05b"},"vehicle_type_id":"4","last_reported":1700852699,"current_range_meters":3200,"station_id":"ce4bhnh2rcd13ifvqgug","pricing_plan_id":"free"},{"bike_id":"6181795c-d57f-4dce-a524-f46690bf06cb","system_id":"levelo_inurba_marseille","lat":43.281548,"lon":5.42643,"is_reserved":false,"is_disabled":false,"rental_uris":{"android":"levelo://app?vid=6181795c-d57f-4dce-a524-f46690bf06cb","ios":"levelo://app?vid=6181795c-d57f-4dce-a524-f46690bf06cb"},"vehicle_type_id":"4","last_reported":1700852699,"current_range_meters":28000,"station_id":"ce4bhnh2rcd13ifvqgug","pricing_plan_id":"free"},{"bike_id":"a397e803-15ed-4f7f-93b9-1d8a8de9f50a","system_id":"levelo_inurba_marseille","lat":43.29946,"lon":5.43992,"is_reserved":false,"is_disabled":false,"rental_uris":{"android":"levelo://app?vid=a397e803-15ed-4f7f-93b9-1d8a8de9f50a","ios":"levelo://app?vid=a397e803-15ed-4f7f-93b9-1d8a8de9f50a"},"vehicle_type_id":"4","last_reported":1700852699,"current_range_meters":22000,"station_id":"","pricing_plan_id":"free"},{"bike_id":"6ecbd9ac-1a09-4411-9a40-c61266e7ad2d","system_id":"levelo_inurba_marseille","lat":43.2607,"lon":5.393983,"is_reserved":false,"is_disabled":false,"rental_uris":{"android":"levelo://app?vid=6ecbd9ac-1a09-4411-9a40-c61266e7ad2d","ios":"levelo://app?vid=6ecbd9ac-1a09-4411-9a40-c61266e7ad2d"},"vehicle_type_id":"4","last_reported":1700852699,"current_range_meters":27600,"station_id":"ce4bhh92rcd13ifvqfj0","pricing_plan_id":"free"},{"bike_id":"2f08033a-dd91-43f2-b6d1-e66a392434a9","system_id":"levelo_inurba_marseille","lat":43.275028,"lon":5.424534,"is_reserved":false,"is_disabled":false,"rental_uris":{"android":"levelo://app?vid=2f08033a-dd91-43f2-b6d1-e66a392434a9","ios":"levelo://app?vid=2f08033a-dd91-43f2-b6d1-e66a392434a9"},"vehicle_type_id":"4","last_reported":1700852699,"current_range_meters":17600,"station_id":"ce4bhn92rcd13ifvqgrg","pricing_plan_id":"free"},{"bike_id":"fe2f7a19-56f2-409c-8e0c-3a94f26fe2ff","system_id":"levelo_inurba_marseille","lat":43.275028,"lon":5.424534,"is_reserved":false,"is_disabled":false,"rental_uris":{"android":"levelo://app?vid=fe2f7a19-56f2-409c-8e0c-3a94f26fe2ff","ios":"levelo://app?vid=fe2f7a19-56f2-409c-8e0c-3a94f26fe2ff"},"vehicle_type_id":"4","last_reported":1700852699,"current_range_meters":20400,"station_id":"ce4bhn92rcd13ifvqgrg","pricing_plan_id":"free"},{"bike_id":"d17c369d-52ad-4a88-a869-88a8b1196620","system_id":"levelo_inurba_marseille","lat":43.260909,"lon":5.397591,"is_reserved":false,"is_disabled":false,"rental_uris":{"android":"levelo://app?vid=d17c369d-52ad-4a88-a869-88a8b1196620","ios":"levelo://app?vid=d17c369d-52ad-4a88-a869-88a8b1196620"},"vehicle_type_id":"4","last_reported":1700852699,"current_range_meters":15600,"station_id":"ce4bhi12rcd13ifvqfq0","pricing_plan_id":"free"},{"bike_id":"ffde74f0-4d88-472d-8f4c-459bd9a997c6","system_id":"levelo_inurba_marseille","lat":43.255756,"lon":5.382303,"is_reserved":false,"is_disabled":false,"rental_uris":{"android":"levelo://app?vid=ffde74f0-4d88-472d-8f4c-459bd9a997c6","ios":"levelo://app?vid=ffde74f0-4d88-472d-8f4c-459bd9a997c6"},"vehicle_type_id":"4","last_reported":1700852699,"current_range_meters":16000,"station_id":"ce4bhih2rcd13ifvqfs0","pricing_plan_id":"free"},{"bike_id":"fc2ddff9-0694-4655-b9ff-b79c8125f7fd","system_id":"levelo_inurba_marseille","lat":43.258224,"lon":5.394369,"is_reserved":false,"is_disabled":false,"rental_uris":{"android":"levelo://app?vid=fc2ddff9-0694-4655-b9ff-b79c8125f7fd","ios":"levelo://app?vid=fc2ddff9-0694-4655-b9ff-b79c8125f7fd"},"vehicle_type_id":"4","last_reported":1700852699,"current_range_meters":5200,"station_id":"ce4bhip2rcd13ifvqft0","pricing_plan_id":"free"},{"bike_id":"49cf8f67-d996-4067-9019-a07117a861eb","system_id":"levelo_inurba_marseille","lat":43.254947,"lon":5.376454,"is_reserved":false,"is_disabled":false,"rental_uris":{"android":"levelo://app?vid=49cf8f67-d996-4067-9019-a07117a861eb","ios":"levelo://app?vid=49cf8f67-d996-4067-9019-a07117a861eb"},"vehicle_type_id":"4","last_reported":1700852699,"current_range_meters":31200,"station_id":"ce4bhh12rcd13ifvqff0","pricing_plan_id":"free"},{"bike_id":"2d65c7e7-8aaf-4ae4-92d0-613f5dce94da","system_id":"levelo_inurba_marseille","lat":43.254947,"lon":5.376454,"is_reserved":false,"is_disabled":false,"rental_uris":{"android":"levelo://app?vid=2d65c7e7-8aaf-4ae4-92d0-613f5dce94da","ios":"levelo://app?vid=2d65c7e7-8aaf-4ae4-92d0-613f5dce94da"},"vehicle_type_id":"4","last_reported":1700852699,"current_range_meters":29200,"station_id":"ce4bhh12rcd13ifvqff0","pricing_plan_id":"free"},{"bike_id":"f77c5a20-ba8a-4a60-9519-3569eebb96e4","system_id":"levelo_inurba_marseille","lat":43.254947,"lon":5.376454,"is_reserved":false,"is_disabled":false,"rental_uris":{"android":"levelo://app?vid=f77c5a20-ba8a-4a60-9519-3569eebb96e4","ios":"levelo://app?vid=f77c5a20-ba8a-4a60-9519-3569eebb96e4"},"vehicle_type_id":"4","last_reported":1700852699,"current_range_meters":31200,"station_id":"ce4bhh12rcd13ifvqff0","pricing_plan_id":"free"},{"bike_id":"ad657e31-d5a7-459b-a7ef-89532e280c6c","system_id":"levelo_inurba_marseille","lat":43.270721,"lon":5.422764,"is_reserved":false,"is_disabled":false,"rental_uris":{"android":"levelo://app?vid=ad657e31-d5a7-459b-a7ef-89532e280c6c","ios":"levelo://app?vid=ad657e31-d5a7-459b-a7ef-89532e280c6c"},"vehicle_type_id":"4","last_reported":1700852699,"current_range_meters":9200,"station_id":"ce4bhk92rcd13ifvqgb0","pricing_plan_id":"free"},{"bike_id":"06bdcf0e-5a9a-4369-8e9b-bf176d97953b","system_id":"levelo_inurba_marseille","lat":43.25405,"lon":5.39731,"is_reserved":false,"is_disabled":false,"rental_uris":{"android":"levelo://app?vid=06bdcf0e-5a9a-4369-8e9b-bf176d97953b","ios":"levelo://app?vid=06bdcf0e-5a9a-4369-8e9b-bf176d97953b"},"vehicle_type_id":"4","last_reported":1700852699,"current_range_meters":9200,"station_id":"","pricing_plan_id":"free"},{"bike_id":"f7c2bce8-46d2-4b4a-9fff-a08d9cdc1643","system_id":"levelo_inurba_marseille","lat":43.250009,"lon":5.389195,"is_reserved":false,"is_disabled":false,"rental_uris":{"android":"levelo://app?vid=f7c2bce8-46d2-4b4a-9fff-a08d9cdc1643","ios":"levelo://app?vid=f7c2bce8-46d2-4b4a-9fff-a08d9cdc1643"},"vehicle_type_id":"4","last_reported":1700852699,"current_range_meters":25600,"station_id":"ce4bhgp2rcd13ifvqfd0","pricing_plan_id":"free"},{"bike_id":"932b3241-dcb8-48b5-a0c3-1202f478e4ac","system_id":"levelo_inurba_marseille","lat":43.24999,"lon":5.38924,"is_reserved":false,"is_disabled":false,"rental_uris":{"android":"levelo://app?vid=932b3241-dcb8-48b5-a0c3-1202f478e4ac","ios":"levelo://app?vid=932b3241-dcb8-48b5-a0c3-1202f478e4ac"},"vehicle_type_id":"4","last_reported":1700852699,"current_range_meters":27200,"station_id":"ce4bhgp2rcd13ifvqfd0","pricing_plan_id":"free"},{"bike_id":"88519be8-7050-4d98-8f39-11b31a4d68cd","system_id":"levelo_inurba_marseille","lat":43.2479,"lon":5.374457,"is_reserved":false,"is_disabled":false,"rental_uris":{"android":"levelo://app?vid=88519be8-7050-4d98-8f39-11b31a4d68cd","ios":"levelo://app?vid=88519be8-7050-4d98-8f39-11b31a4d68cd"},"vehicle_type_id":"4","last_reported":1700852699,"current_range_meters":0,"station_id":"ce4bhgh2rcd13ifvqfb0","pricing_plan_id":"free"},{"bike_id":"7cc5c991-5865-4d9b-b1db-3548f54cfc5d","system_id":"levelo_inurba_marseille","lat":43.2479,"lon":5.374457,"is_reserved":false,"is_disabled":false,"rental_uris":{"android":"levelo://app?vid=7cc5c991-5865-4d9b-b1db-3548f54cfc5d","ios":"levelo://app?vid=7cc5c991-5865-4d9b-b1db-3548f54cfc5d"},"vehicle_type_id":"4","last_reported":1700852699,"current_range_meters":17600,"station_id":"ce4bhgh2rcd13ifvqfb0","pricing_plan_id":"free"},{"bike_id":"467ad821-f4eb-4635-b3c8-d92c8baf5eac","system_id":"levelo_inurba_marseille","lat":43.250966,"lon":5.395186,"is_reserved":false,"is_disabled":false,"rental_uris":{"android":"levelo://app?vid=467ad821-f4eb-4635-b3c8-d92c8baf5eac","ios":"levelo://app?vid=467ad821-f4eb-4635-b3c8-d92c8baf5eac"},"vehicle_type_id":"4","last_reported":1700852699,"current_range_meters":24400,"station_id":"ce4bhm12rcd13ifvqgkg","pricing_plan_id":"free"},{"bike_id":"4ef0619b-5e9b-4bba-b8d3-4779dab6deef","system_id":"levelo_inurba_marseille","lat":43.250877,"lon":5.395193,"is_reserved":false,"is_disabled":false,"rental_uris":{"android":"levelo://app?vid=4ef0619b-5e9b-4bba-b8d3-4779dab6deef","ios":"levelo://app?vid=4ef0619b-5e9b-4bba-b8d3-4779dab6deef"},"vehicle_type_id":"4","last_reported":1700852699,"current_range_meters":10800,"station_id":"ce4bhm12rcd13ifvqgkg","pricing_plan_id":"free"},{"bike_id":"d0a4f35f-2897-4674-8a69-c0c6eeee0156","system_id":"levelo_inurba_marseille","lat":43.250966,"lon":5.395186,"is_reserved":false,"is_disabled":false,"rental_uris":{"android":"levelo://app?vid=d0a4f35f-2897-4674-8a69-c0c6eeee0156","ios":"levelo://app?vid=d0a4f35f-2897-4674-8a69-c0c6eeee0156"},"vehicle_type_id":"4","last_reported":1700852699,"current_range_meters":23200,"station_id":"ce4bhm12rcd13ifvqgkg","pricing_plan_id":"free"},{"bike_id":"42f49140-9965-47cd-8af7-3e161c2f7b46","system_id":"levelo_inurba_marseille","lat":43.250966,"lon":5.395186,"is_reserved":false,"is_disabled":false,"rental_uris":{"android":"levelo://app?vid=42f49140-9965-47cd-8af7-3e161c2f7b46","ios":"levelo://app?vid=42f49140-9965-47cd-8af7-3e161c2f7b46"},"vehicle_type_id":"4","last_reported":1700852699,"current_range_meters":27600,"station_id":"ce4bhm12rcd13ifvqgkg","pricing_plan_id":"free"},{"bike_id":"957b7262-74a7-4086-b66e-ee2415a42a5a","system_id":"levelo_inurba_marseille","lat":43.250966,"lon":5.395186,"is_reserved":false,"is_disabled":false,"rental_uris":{"android":"levelo://app?vid=957b7262-74a7-4086-b66e-ee2415a42a5a","ios":"levelo://app?vid=957b7262-74a7-4086-b66e-ee2415a42a5a"},"vehicle_type_id":"4","last_reported":1700852699,"current_range_meters":30800,"station_id":"ce4bhm12rcd13ifvqgkg","pricing_plan_id":"free"},{"bike_id":"eae92935-d2e4-436e-884b-389e9d56d41a","system_id":"levelo_inurba_marseille","lat":43.250966,"lon":5.395186,"is_reserved":false,"is_disabled":false,"rental_uris":{"android":"levelo://app?vid=eae92935-d2e4-436e-884b-389e9d56d41a","ios":"levelo://app?vid=eae92935-d2e4-436e-884b-389e9d56d41a"},"vehicle_type_id":"4","last_reported":1700852699,"current_range_meters":31200,"station_id":"ce4bhm12rcd13ifvqgkg","pricing_plan_id":"free"},{"bike_id":"09605ba3-855a-4465-b841-783240b5ab0c","system_id":"levelo_inurba_marseille","lat":43.24704,"lon":5.37688,"is_reserved":false,"is_disabled":false,"rental_uris":{"android":"levelo://app?vid=09605ba3-855a-4465-b841-783240b5ab0c","ios":"levelo://app?vid=09605ba3-855a-4465-b841-783240b5ab0c"},"vehicle_type_id":"4","last_reported":1700852699,"current_range_meters":15200,"station_id":"ce4bhih2rcd13ifvqfr0","pricing_plan_id":"free"},{"bike_id":"6c271cd0-75e1-4e8a-9d2e-1f7de10ab6a5","system_id":"levelo_inurba_marseille","lat":43.24667,"lon":5.38152,"is_reserved":false,"is_disabled":false,"rental_uris":{"android":"levelo://app?vid=6c271cd0-75e1-4e8a-9d2e-1f7de10ab6a5","ios":"levelo://app?vid=6c271cd0-75e1-4e8a-9d2e-1f7de10ab6a5"},"vehicle_type_id":"4","last_reported":1700852699,"current_range_meters":12800,"station_id":"ce4bhih2rcd13ifvqfr0","pricing_plan_id":"free"},{"bike_id":"bf0d24a5-c468-4bdf-bd5d-e6edd0b33f5b","system_id":"levelo_inurba_marseille","lat":43.24666,"lon":5.38167,"is_reserved":false,"is_disabled":false,"rental_uris":{"android":"levelo://app?vid=bf0d24a5-c468-4bdf-bd5d-e6edd0b33f5b","ios":"levelo://app?vid=bf0d24a5-c468-4bdf-bd5d-e6edd0b33f5b"},"vehicle_type_id":"4","last_reported":1700852699,"current_range_meters":12800,"station_id":"ce4bhih2rcd13ifvqfr0","pricing_plan_id":"free"},{"bike_id":"6938b06d-41a4-4063-a043-1b2565c1fa8a","system_id":"levelo_inurba_marseille","lat":43.25102,"lon":5.403214,"is_reserved":false,"is_disabled":false,"rental_uris":{"android":"levelo://app?vid=6938b06d-41a4-4063-a043-1b2565c1fa8a","ios":"levelo://app?vid=6938b06d-41a4-4063-a043-1b2565c1fa8a"},"vehicle_type_id":"4","last_reported":1700852699,"current_range_meters":4000,"station_id":"ce4bhlh2rcd13ifvqgig","pricing_plan_id":"free"},{"bike_id":"ca04600f-137e-44a2-8296-e203c271cd53","system_id":"levelo_inurba_marseille","lat":43.25102,"lon":5.403214,"is_reserved":false,"is_disabled":false,"rental_uris":{"android":"levelo://app?vid=ca04600f-137e-44a2-8296-e203c271cd53","ios":"levelo://app?vid=ca04600f-137e-44a2-8296-e203c271cd53"},"vehicle_type_id":"4","last_reported":1700852699,"current_range_meters":21600,"station_id":"ce4bhlh2rcd13ifvqgig","pricing_plan_id":"free"},{"bike_id":"f96fdfee-81b6-4faf-922d-6836d74fcd18","system_id":"levelo_inurba_marseille","lat":43.251068,"lon":5.403236,"is_reserved":false,"is_disabled":false,"rental_uris":{"android":"levelo://app?vid=f96fdfee-81b6-4faf-922d-6836d74fcd18","ios":"levelo://app?vid=f96fdfee-81b6-4faf-922d-6836d74fcd18"},"vehicle_type_id":"4","last_reported":1700852699,"current_range_meters":0,"station_id":"ce4bhlh2rcd13ifvqgig","pricing_plan_id":"free"},{"bike_id":"f701d975-8718-4aef-8565-cdc46e0b7582","system_id":"levelo_inurba_marseille","lat":43.25102,"lon":5.403214,"is_reserved":false,"is_disabled":false,"rental_uris":{"android":"levelo://app?vid=f701d975-8718-4aef-8565-cdc46e0b7582","ios":"levelo://app?vid=f701d975-8718-4aef-8565-cdc46e0b7582"},"vehicle_type_id":"4","last_reported":1700852699,"current_range_meters":21600,"station_id":"ce4bhlh2rcd13ifvqgig","pricing_plan_id":"free"},{"bike_id":"e08dc0c1-f0c8-4f2e-8de4-3478db56ea24","system_id":"levelo_inurba_marseille","lat":43.246467,"lon":5.388984,"is_reserved":false,"is_disabled":false,"rental_uris":{"android":"levelo://app?vid=e08dc0c1-f0c8-4f2e-8de4-3478db56ea24","ios":"levelo://app?vid=e08dc0c1-f0c8-4f2e-8de4-3478db56ea24"},"vehicle_type_id":"4","last_reported":1700852699,"current_range_meters":4800,"station_id":"ce4bhg12rcd13ifvqf60","pricing_plan_id":"free"},{"bike_id":"7408029d-6f8b-4653-87aa-5c8f90a3f2d0","system_id":"levelo_inurba_marseille","lat":43.245581,"lon":5.395069,"is_reserved":false,"is_disabled":false,"rental_uris":{"android":"levelo://app?vid=7408029d-6f8b-4653-87aa-5c8f90a3f2d0","ios":"levelo://app?vid=7408029d-6f8b-4653-87aa-5c8f90a3f2d0"},"vehicle_type_id":"4","last_reported":1700852699,"current_range_meters":0,"station_id":"ce4bhlp2rcd13ifvqgjg","pricing_plan_id":"free"},{"bike_id":"90f96868-d559-4020-b7d3-ede1a8597b3a","system_id":"levelo_inurba_marseille","lat":43.245581,"lon":5.395069,"is_reserved":false,"is_disabled":false,"rental_uris":{"android":"levelo://app?vid=90f96868-d559-4020-b7d3-ede1a8597b3a","ios":"levelo://app?vid=90f96868-d559-4020-b7d3-ede1a8597b3a"},"vehicle_type_id":"4","last_reported":1700852699,"current_range_meters":24000,"station_id":"ce4bhlp2rcd13ifvqgjg","pricing_plan_id":"free"},{"bike_id":"34574766-f245-4abe-882b-72aeb977c20b","system_id":"levelo_inurba_marseille","lat":43.245581,"lon":5.395069,"is_reserved":false,"is_disabled":false,"rental_uris":{"android":"levelo://app?vid=34574766-f245-4abe-882b-72aeb977c20b","ios":"levelo://app?vid=34574766-f245-4abe-882b-72aeb977c20b"},"vehicle_type_id":"4","last_reported":1700852699,"current_range_meters":0,"station_id":"ce4bhlp2rcd13ifvqgjg","pricing_plan_id":"free"},{"bike_id":"c990d767-72c8-4b1e-ae83-794a0c5b0cf9","system_id":"levelo_inurba_marseille","lat":43.240623,"lon":5.377642,"is_reserved":false,"is_disabled":false,"rental_uris":{"android":"levelo://app?vid=c990d767-72c8-4b1e-ae83-794a0c5b0cf9","ios":"levelo://app?vid=c990d767-72c8-4b1e-ae83-794a0c5b0cf9"},"vehicle_type_id":"4","last_reported":1700852699,"current_range_meters":14400,"station_id":"ce4bhnp2rcd13ifvqgvg","pricing_plan_id":"free"},{"bike_id":"3c7fa71f-eea3-4dca-beba-593f51f59c9c","system_id":"levelo_inurba_marseille","lat":43.239685,"lon":5.36628,"is_reserved":false,"is_disabled":false,"rental_uris":{"android":"levelo://app?vid=3c7fa71f-eea3-4dca-beba-593f51f59c9c","ios":"levelo://app?vid=3c7fa71f-eea3-4dca-beba-593f51f59c9c"},"vehicle_type_id":"4","last_reported":1700852699,"current_range_meters":15200,"station_id":"ce4bhi12rcd13ifvqfp0","pricing_plan_id":"free"},{"bike_id":"15742252-95da-4bdb-8112-ce95178755dc","system_id":"levelo_inurba_marseille","lat":43.239668,"lon":5.366306,"is_reserved":false,"is_disabled":false,"rental_uris":{"android":"levelo://app?vid=15742252-95da-4bdb-8112-ce95178755dc","ios":"levelo://app?vid=15742252-95da-4bdb-8112-ce95178755dc"},"vehicle_type_id":"4","last_reported":1700852699,"current_range_meters":8400,"station_id":"ce4bhi12rcd13ifvqfp0","pricing_plan_id":"free"},{"bike_id":"3230c7d1-644f-45ad-b14a-e355b2b6b66e","system_id":"levelo_inurba_marseille","lat":43.23966,"lon":5.36635,"is_reserved":false,"is_disabled":false,"rental_uris":{"android":"levelo://app?vid=3230c7d1-644f-45ad-b14a-e355b2b6b66e","ios":"levelo://app?vid=3230c7d1-644f-45ad-b14a-e355b2b6b66e"},"vehicle_type_id":"4","last_reported":1700852699,"current_range_meters":20800,"station_id":"ce4bhi12rcd13ifvqfp0","pricing_plan_id":"free"},{"bike_id":"56b0f98d-ecc1-47fa-bd3e-9dc560c42354","system_id":"levelo_inurba_marseille","lat":43.23966,"lon":5.3663,"is_reserved":false,"is_disabled":false,"rental_uris":{"android":"levelo://app?vid=56b0f98d-ecc1-47fa-bd3e-9dc560c42354","ios":"levelo://app?vid=56b0f98d-ecc1-47fa-bd3e-9dc560c42354"},"vehicle_type_id":"4","last_reported":1700852699,"current_range_meters":20400,"station_id":"ce4bhi12rcd13ifvqfp0","pricing_plan_id":"free"},{"bike_id":"1c07a5ad-1fa3-4b2f-ad72-6a07be76875e","system_id":"levelo_inurba_marseille","lat":43.239649,"lon":5.366317,"is_reserved":false,"is_disabled":false,"rental_uris":{"android":"levelo://app?vid=1c07a5ad-1fa3-4b2f-ad72-6a07be76875e","ios":"levelo://app?vid=1c07a5ad-1fa3-4b2f-ad72-6a07be76875e"},"vehicle_type_id":"4","last_reported":1700852699,"current_range_meters":17600,"station_id":"ce4bhi12rcd13ifvqfp0","pricing_plan_id":"free"},{"bike_id":"3ef70aed-f117-47c7-8cf5-f087e626237b","system_id":"levelo_inurba_marseille","lat":43.23963,"lon":5.36644,"is_reserved":false,"is_disabled":false,"rental_uris":{"android":"levelo://app?vid=3ef70aed-f117-47c7-8cf5-f087e626237b","ios":"levelo://app?vid=3ef70aed-f117-47c7-8cf5-f087e626237b"},"vehicle_type_id":"4","last_reported":1700852699,"current_range_meters":11200,"station_id":"ce4bhi12rcd13ifvqfp0","pricing_plan_id":"free"},{"bike_id":"124f1bf7-9af9-4782-a052-dd6aa38caf9d","system_id":"levelo_inurba_marseille","lat":43.239625,"lon":5.366445,"is_reserved":false,"is_disabled":false,"rental_uris":{"android":"levelo://app?vid=124f1bf7-9af9-4782-a052-dd6aa38caf9d","ios":"levelo://app?vid=124f1bf7-9af9-4782-a052-dd6aa38caf9d"},"vehicle_type_id":"4","last_reported":1700852699,"current_range_meters":29200,"station_id":"ce4bhi12rcd13ifvqfp0","pricing_plan_id":"free"},{"bike_id":"8ce3aabf-1913-43c2-9ac8-a071171e85a8","system_id":"levelo_inurba_marseille","lat":43.239614,"lon":5.366293,"is_reserved":false,"is_disabled":false,"rental_uris":{"android":"levelo://app?vid=8ce3aabf-1913-43c2-9ac8-a071171e85a8","ios":"levelo://app?vid=8ce3aabf-1913-43c2-9ac8-a071171e85a8"},"vehicle_type_id":"4","last_reported":1700852699,"current_range_meters":28800,"station_id":"ce4bhi12rcd13ifvqfp0","pricing_plan_id":"free"},{"bike_id":"884cad8c-9715-4994-b1f8-a21278fa1a1d","system_id":"levelo_inurba_marseille","lat":43.23961,"lon":5.36637,"is_reserved":false,"is_disabled":false,"rental_uris":{"android":"levelo://app?vid=884cad8c-9715-4994-b1f8-a21278fa1a1d","ios":"levelo://app?vid=884cad8c-9715-4994-b1f8-a21278fa1a1d"},"vehicle_type_id":"4","last_reported":1700852699,"current_range_meters":27600,"station_id":"ce4bhi12rcd13ifvqfp0","pricing_plan_id":"free"},{"bike_id":"8904bfdf-f635-49c0-b8a9-6f183c7a093b","system_id":"levelo_inurba_marseille","lat":43.23961,"lon":5.366299,"is_reserved":false,"is_disabled":false,"rental_uris":{"android":"levelo://app?vid=8904bfdf-f635-49c0-b8a9-6f183c7a093b","ios":"levelo://app?vid=8904bfdf-f635-49c0-b8a9-6f183c7a093b"},"vehicle_type_id":"4","last_reported":1700852699,"current_range_meters":28800,"station_id":"ce4bhi12rcd13ifvqfp0","pricing_plan_id":"free"},{"bike_id":"1a7a1613-1624-4afd-bf68-9497936761e0","system_id":"levelo_inurba_marseille","lat":43.23959,"lon":5.36635,"is_reserved":false,"is_disabled":false,"rental_uris":{"android":"levelo://app?vid=1a7a1613-1624-4afd-bf68-9497936761e0","ios":"levelo://app?vid=1a7a1613-1624-4afd-bf68-9497936761e0"},"vehicle_type_id":"4","last_reported":1700852699,"current_range_meters":15200,"station_id":"ce4bhi12rcd13ifvqfp0","pricing_plan_id":"free"},{"bike_id":"4a869bbe-62ba-42c3-bd34-c3712786719a","system_id":"levelo_inurba_marseille","lat":43.241783,"lon":5.39735,"is_reserved":false,"is_disabled":false,"rental_uris":{"android":"levelo://app?vid=4a869bbe-62ba-42c3-bd34-c3712786719a","ios":"levelo://app?vid=4a869bbe-62ba-42c3-bd34-c3712786719a"},"vehicle_type_id":"4","last_reported":1700852699,"current_range_meters":400,"station_id":"ce4bhn12rcd13ifvqgpg","pricing_plan_id":"free"},{"bike_id":"0a349838-8936-442e-8a55-c173dbb54834","system_id":"levelo_inurba_marseille","lat":43.231919,"lon":5.355532,"is_reserved":false,"is_disabled":false,"rental_uris":{"android":"levelo://app?vid=0a349838-8936-442e-8a55-c173dbb54834","ios":"levelo://app?vid=0a349838-8936-442e-8a55-c173dbb54834"},"vehicle_type_id":"4","last_reported":1700852699,"current_range_meters":29600,"station_id":"ce4bhu92rcd13ifvqi70","pricing_plan_id":"free"},{"bike_id":"dcc8f0d2-659c-44cb-9a1d-9d57ae623781","system_id":"levelo_inurba_marseille","lat":43.23201,"lon":5.35556,"is_reserved":false,"is_disabled":false,"rental_uris":{"android":"levelo://app?vid=dcc8f0d2-659c-44cb-9a1d-9d57ae623781","ios":"levelo://app?vid=dcc8f0d2-659c-44cb-9a1d-9d57ae623781"},"vehicle_type_id":"4","last_reported":1700852699,"current_range_meters":23200,"station_id":"ce4bhu92rcd13ifvqi70","pricing_plan_id":"free"},{"bike_id":"e5e514e7-58d5-4766-902e-a692950e8b38","system_id":"levelo_inurba_marseille","lat":43.231998,"lon":5.355432,"is_reserved":false,"is_disabled":false,"rental_uris":{"android":"levelo://app?vid=e5e514e7-58d5-4766-902e-a692950e8b38","ios":"levelo://app?vid=e5e514e7-58d5-4766-902e-a692950e8b38"},"vehicle_type_id":"4","last_reported":1700852699,"current_range_meters":28400,"station_id":"ce4bhu92rcd13ifvqi70","pricing_plan_id":"free"},{"bike_id":"43681cb1-80b5-4457-bc0d-4145b1f41dfc","system_id":"levelo_inurba_marseille","lat":43.231923,"lon":5.355545,"is_reserved":false,"is_disabled":false,"rental_uris":{"android":"levelo://app?vid=43681cb1-80b5-4457-bc0d-4145b1f41dfc","ios":"levelo://app?vid=43681cb1-80b5-4457-bc0d-4145b1f41dfc"},"vehicle_type_id":"4","last_reported":1700852699,"current_range_meters":9600,"station_id":"ce4bhu92rcd13ifvqi70","pricing_plan_id":"free"},{"bike_id":"b6ad3896-d180-4d39-a4d6-8a7be3e8c6bd","system_id":"levelo_inurba_marseille","lat":43.231923,"lon":5.355545,"is_reserved":false,"is_disabled":false,"rental_uris":{"android":"levelo://app?vid=b6ad3896-d180-4d39-a4d6-8a7be3e8c6bd","ios":"levelo://app?vid=b6ad3896-d180-4d39-a4d6-8a7be3e8c6bd"},"vehicle_type_id":"4","last_reported":1700852699,"current_range_meters":26400,"station_id":"ce4bhu92rcd13ifvqi70","pricing_plan_id":"free"},{"bike_id":"032441f0-e0c8-4260-9bd9-e57c93d62884","system_id":"levelo_inurba_marseille","lat":43.231919,"lon":5.355532,"is_reserved":false,"is_disabled":false,"rental_uris":{"android":"levelo://app?vid=032441f0-e0c8-4260-9bd9-e57c93d62884","ios":"levelo://app?vid=032441f0-e0c8-4260-9bd9-e57c93d62884"},"vehicle_type_id":"4","last_reported":1700852699,"current_range_meters":14400,"station_id":"ce4bhu92rcd13ifvqi70","pricing_plan_id":"free"},{"bike_id":"aeb874ed-5a67-45f7-94cd-1c1e110219bc","system_id":"levelo_inurba_marseille","lat":43.231919,"lon":5.355532,"is_reserved":false,"is_disabled":false,"rental_uris":{"android":"levelo://app?vid=aeb874ed-5a67-45f7-94cd-1c1e110219bc","ios":"levelo://app?vid=aeb874ed-5a67-45f7-94cd-1c1e110219bc"},"vehicle_type_id":"4","last_reported":1700852699,"current_range_meters":32000,"station_id":"ce4bhu92rcd13ifvqi70","pricing_plan_id":"free"},{"bike_id":"48217564-eee6-47a9-ae01-f8f1659e40db","system_id":"levelo_inurba_marseille","lat":43.231923,"lon":5.355545,"is_reserved":false,"is_disabled":false,"rental_uris":{"android":"levelo://app?vid=48217564-eee6-47a9-ae01-f8f1659e40db","ios":"levelo://app?vid=48217564-eee6-47a9-ae01-f8f1659e40db"},"vehicle_type_id":"4","last_reported":1700852699,"current_range_meters":31200,"station_id":"ce4bhu92rcd13ifvqi70","pricing_plan_id":"free"},{"bike_id":"edd2b3c8-67fd-4064-8af7-f698e6d9963c","system_id":"levelo_inurba_marseille","lat":43.231919,"lon":5.355532,"is_reserved":false,"is_disabled":false,"rental_uris":{"android":"levelo://app?vid=edd2b3c8-67fd-4064-8af7-f698e6d9963c","ios":"levelo://app?vid=edd2b3c8-67fd-4064-8af7-f698e6d9963c"},"vehicle_type_id":"4","last_reported":1700852699,"current_range_meters":25200,"station_id":"ce4bhu92rcd13ifvqi70","pricing_plan_id":"free"},{"bike_id":"76da77ba-a8a2-45d9-bea0-75d9631bba15","system_id":"levelo_inurba_marseille","lat":43.231923,"lon":5.355545,"is_reserved":false,"is_disabled":false,"rental_uris":{"android":"levelo://app?vid=76da77ba-a8a2-45d9-bea0-75d9631bba15","ios":"levelo://app?vid=76da77ba-a8a2-45d9-bea0-75d9631bba15"},"vehicle_type_id":"4","last_reported":1700852699,"current_range_meters":22400,"station_id":"ce4bhu92rcd13ifvqi70","pricing_plan_id":"free"},{"bike_id":"0c6b2677-ce68-4f02-9a73-e017061e320e","system_id":"levelo_inurba_marseille","lat":43.231793,"lon":5.400044,"is_reserved":false,"is_disabled":false,"rental_uris":{"android":"levelo://app?vid=0c6b2677-ce68-4f02-9a73-e017061e320e","ios":"levelo://app?vid=0c6b2677-ce68-4f02-9a73-e017061e320e"},"vehicle_type_id":"4","last_reported":1700852699,"current_range_meters":31200,"station_id":"ce4bhn12rcd13ifvqgqg","pricing_plan_id":"free"},{"bike_id":"9780e49b-8eb6-4c96-95ee-9b6d1e553d68","system_id":"levelo_inurba_marseille","lat":43.231794,"lon":5.400052,"is_reserved":false,"is_disabled":false,"rental_uris":{"android":"levelo://app?vid=9780e49b-8eb6-4c96-95ee-9b6d1e553d68","ios":"levelo://app?vid=9780e49b-8eb6-4c96-95ee-9b6d1e553d68"},"vehicle_type_id":"4","last_reported":1700852699,"current_range_meters":26400,"station_id":"ce4bhn12rcd13ifvqgqg","pricing_plan_id":"free"},{"bike_id":"216d01e0-0894-4b88-9379-35377c1f196b","system_id":"levelo_inurba_marseille","lat":43.231794,"lon":5.400052,"is_reserved":false,"is_disabled":false,"rental_uris":{"android":"levelo://app?vid=216d01e0-0894-4b88-9379-35377c1f196b","ios":"levelo://app?vid=216d01e0-0894-4b88-9379-35377c1f196b"},"vehicle_type_id":"4","last_reported":1700852699,"current_range_meters":31200,"station_id":"ce4bhn12rcd13ifvqgqg","pricing_plan_id":"free"},{"bike_id":"0945036d-9858-4086-b41b-ec6e60edb8ad","system_id":"levelo_inurba_marseille","lat":43.231794,"lon":5.400052,"is_reserved":false,"is_disabled":false,"rental_uris":{"android":"levelo://app?vid=0945036d-9858-4086-b41b-ec6e60edb8ad","ios":"levelo://app?vid=0945036d-9858-4086-b41b-ec6e60edb8ad"},"vehicle_type_id":"4","last_reported":1700852699,"current_range_meters":29600,"station_id":"ce4bhn12rcd13ifvqgqg","pricing_plan_id":"free"},