{"last_updated":1739916538,"ttl":60,"version":"2.2","data":{"bikes":[{"bike_id":"5c0ab466-3e63-4b3b-afb6-75035fa61dc7","system_id":"levelo_inurba_marseille","lat":43.30918,"lon":5.40137,"is_reserved":false,"is_disabled":false,"rental_uris":{"android":"levelo://app?vid=5c0ab466-3e63-4b3b-afb6-75035fa61dc7","ios":"levelo://app?vid=5c0ab466-3e63-4b3b-afb6-75035fa61dc7"},"vehicle_type_id":"4","last_reported":1739916539,"current_range_meters":2800,"station_id":"ce4bgvp2rcd13ifvqct0","pricing_plan_id":"cebpf4jnsgd1na2vs0mg"},{"bike_id":"503dbd77-ee5a-4889-8376-18c0c05ef566","system_id":"levelo_inurba_marseille","lat":43.32487,"lon":5.36577,"is_reserved":false,"is_disabled":false,"rental_uris":{"android":"levelo://app?vid=503dbd77-ee5a-4889-8376-18c0c05ef566","ios":"levelo://app?vid=503dbd77-ee5a-4889-8376-18c0c05ef566"},"vehicle_type_id":"4","last_reported":1739916539,"current_range_meters":2800,"station_id":"ce4bhs12rcd13ifvqhvg","pricing_plan_id":"cebpf4jnsgd1na2vs0mg"},{"bike_id":"8fa19606-daab-42be-b328-c2b9d9177eae","system_id":"levelo_inurba_marseille","lat":43.30313,"lon":5.36899,"is_reserved":false,"is_disabled":false,"rental_uris":{"android":"levelo://app?vid=8fa19606-daab-42be-b328-c2b9d9177eae","ios":"levelo://app?vid=8fa19606-daab-42be-b328-c2b9d9177eae"},"vehicle_type_id":"4","last_reported":1739916539,"current_range_meters":3600,"station_id":"ce4bgqh2rcd13ifvqc5g","pricing_plan_id":"cebpf4jnsgd1na2vs0mg"},{"bike_id":"98dafedc-f25b-409d-b3e2-803b47ffb900","system_id":"levelo_inurba_marseille","lat":43.33762,"lon":5.37492,"is_reserved":false,"is_disabled":false,"rental_uris":{"android":"levelo://app?vid=98dafedc-f25b-409d-b3e2-803b47ffb900","ios":"levelo://app?vid=98dafedc-f25b-409d-b3e2-803b47ffb900"},"vehicle_type_id":"4","last_reported":1739916539,"current_range_meters":4000,"station_id":"","pricing_plan_id":"cebpf4jnsgd1na2vs0mg"},{"bike_id":"635050f9-a2c9-4910-8267-ff5a32e2982d","system_id":"levelo_inurba_marseille","lat":43.24823,"lon":5.37465,"is_reserved":false,"is_disabled":false,"rental_uris":{"android":"levelo://app?vid=635050f9-a2c9-4910-8267-ff5a32e2982d","ios":"levelo://app?vid=635050f9-a2c9-4910-8267-ff5a32e2982d"},"vehicle_type_id":"4","last_reported":1739916539,"current_range_meters":4000,"station_id":"","pricing_plan_id":"cebpf4jnsgd1na2vs0mg"},{"bike_id":"ae45d7de-7a0f-4cb8-b732-27ad599273da","system_id":"levelo_inurba_marseille","lat":43.28847,"lon":5.39308,"is_reserved":false,"is_disabled":false,"rental_uris":{"android":"levelo://app?vid=ae45d7de-7a0f-4cb8-b732-27ad599273da","ios":"levelo://app?vid=ae45d7de-7a0f-4cb8-b732-27ad599273da"},"vehicle_type_id":"4","last_reported":1739916539,"current_range_meters":4400,"station_id":"ce4bh2p2rcd13ifvqdi0","pricing_plan_id":"cebpf4jnsgd1na2vs0mg"},{"bike_id":"828f024f-3fa3-492e-b4f4-7bfb9d5e214d","system_id":"levelo_inurba_marseille","lat":43.27079,"lon":5.42297,"is_reserved":false,"is_disabled":true,"rental_uris":{"android":"levelo://app?vid=828f024f-3fa3-492e-b4f4-7bfb9d5e214d","ios":"levelo://app?vid=828f024f-3fa3-492e-b4f4-7bfb9d5e214d"},"vehicle_type_id":"4","last_reported":1739916539,"current_range_meters":4400,"station_id":"ce4bhk92rcd13ifvqgb0","pricing_plan_id":"cebpf4jnsgd1na2vs0mg"},{"bike_id":"540fb7ef-3979-49db-abf0-55bfe972345c","system_id":"levelo_inurba_marseille","lat":43.28983,"lon":5.3784,"is_reserved":false,"is_disabled":false,"rental_uris":{"android":"levelo://app?vid=540fb7ef-3979-49db-abf0-55bfe972345c","ios":"levelo://app?vid=540fb7ef-3979-49db-abf0-55bfe972345c"},"vehicle_type_id":"4","last_reported":1739916539,"current_range_meters":2000,"station_id":"ce4bh9p2rcd13ifvqed0","pricing_plan_id":"cebpf4jnsgd1na2vs0mg"},{"bike_id":"7b85ab77-b4da-49c0-828e-288db2e9b9ca","system_id":"levelo_inurba_marseille","lat":43.27832,"lon":5.39205,"is_reserved":false,"is_disabled":false,"rental_uris":{"android":"levelo://app?vid=7b85ab77-b4da-49c0-828e-288db2e9b9ca","ios":"levelo://app?vid=7b85ab77-b4da-49c0-828e-288db2e9b9ca"},"vehicle_type_id":"4","last_reported":1739916539,"current_range_meters":5600,"station_id":"ce4bhjp2rcd13ifvqga0","pricing_plan_id":"cebpf4jnsgd1na2vs0mg"},{"bike_id":"f01003c3-ccaf-4174-9e78-e2a89367cac1","system_id":"levelo_inurba_marseille","lat":43.23198,"lon":5.40027,"is_reserved":false,"is_disabled":false,"rental_uris":{"android":"levelo://app?vid=f01003c3-ccaf-4174-9e78-e2a89367cac1","ios":"levelo://app?vid=f01003c3-ccaf-4174-9e78-e2a89367cac1"},"vehicle_type_id":"4","last_reported":1739916539,"current_range_meters":5600,"station_id":"ce4bhn12rcd13ifvqgqg","pricing_plan_id":"cebpf4jnsgd1na2vs0mg"},{"bike_id":"2fc51c18-93da-4c7a-ae54-30bc1bf5f64d","system_id":"levelo_inurba_marseille","lat":43.2951,"lon":5.38198,"is_reserved":false,"is_disabled":true,"rental_uris":{"android":"levelo://app?vid=2fc51c18-93da-4c7a-ae54-30bc1bf5f64d","ios":"levelo://app?vid=2fc51c18-93da-4c7a-ae54-30bc1bf5f64d"},"vehicle_type_id":"4","last_reported":1739916539,"current_range_meters":5600,"station_id":"","pricing_plan_id":"cebpf4jnsgd1na2vs0mg"},{"bike_id":"25dcf690-db42-4694-9c97-37e209bee538","system_id":"levelo_inurba_marseille","lat":43.24649,"lon":5.38908,"is_reserved":false,"is_disabled":false,"rental_uris":{"android":"levelo://app?vid=25dcf690-db42-4694-9c97-37e209bee538","ios":"levelo://app?vid=25dcf690-db42-4694-9c97-37e209bee538"},"vehicle_type_id":"4","last_reported":1739916539,"current_range_meters":6000,"station_id":"ce4bhg12rcd13ifvqf60","pricing_plan_id":"cebpf4jnsgd1na2vs0mg"},{"bike_id":"811901b7-6a39-4b98-9209-f363e05c2482","system_id":"levelo_inurba_marseille","lat":43.2815,"lon":5.42638,"is_reserved":false,"is_disabled":false,"rental_uris":{"android":"levelo://app?vid=811901b7-6a39-4b98-9209-f363e05c2482","ios":"levelo://app?vid=811901b7-6a39-4b98-9209-f363e05c2482"},"vehicle_type_id":"4","last_reported":1739916539,"current_range_meters":6000,"station_id":"ce4bhnh2rcd13ifvqgug","pricing_plan_id":"cebpf4jnsgd1na2vs0mg"},{"bike_id":"77c2b6b3-312f-4bec-8531-f4f1c6a2caa7","system_id":"levelo_inurba_marseille","lat":43.292494,"lon":5.400972,"is_reserved":false,"is_disabled":false,"rental_uris":{"android":"levelo://app?vid=77c2b6b3-312f-4bec-8531-f4f1c6a2caa7","ios":"levelo://app?vid=77c2b6b3-312f-4bec-8531-f4f1c6a2caa7"},"vehicle_type_id":"4","last_reported":1739916539,"current_range_meters":6000,"station_id":"ce4bhgp2rcd13ifvqfe0","pricing_plan_id":"cebpf4jnsgd1na2vs0mg"},{"bike_id":"d26850d0-243b-45ca-ad06-7a292cc6551f","system_id":"levelo_inurba_marseille","lat":43.23958,"lon":5.36641,"is_reserved":false,"is_disabled":false,"rental_uris":{"android":"levelo://app?vid=d26850d0-243b-45ca-ad06-7a292cc6551f","ios":"levelo://app?vid=d26850d0-243b-45ca-ad06-7a292cc6551f"},"vehicle_type_id":"4","last_reported":1739916539,"current_range_meters":6400,"station_id":"ce4bhi12rcd13ifvqfp0","pricing_plan_id":"cebpf4jnsgd1na2vs0mg"},{"bike_id":"f301f0ca-9a74-4b1b-95f5-7641143983d6","system_id":"levelo_inurba_marseille","lat":43.25083,"lon":5.39517,"is_reserved":false,"is_disabled":false,"rental_uris":{"android":"levelo://app?vid=f301f0ca-9a74-4b1b-95f5-7641143983d6","ios":"levelo://app?vid=f301f0ca-9a74-4b1b-95f5-7641143983d6"},"vehicle_type_id":"4","last_reported":1739916539,"current_range_meters":6400,"station_id":"ce4bhm12rcd13ifvqgkg","pricing_plan_id":"cebpf4jnsgd1na2vs0mg"},{"bike_id":"020f9db3-6048-4a83-8c59-4acc533112c8","system_id":"levelo_inurba_marseille","lat":43.28183,"lon":5.42694,"is_reserved":false,"is_disabled":false,"rental_uris":{"android":"levelo://app?vid=020f9db3-6048-4a83-8c59-4acc533112c8","ios":"levelo://app?vid=020f9db3-6048-4a83-8c59-4acc533112c8"},"vehicle_type_id":"4","last_reported":1739916539,"current_range_meters":6800,"station_id":"ce4bhnh2rcd13ifvqgug","pricing_plan_id":"cebpf4jnsgd1na2vs0mg"},{"bike_id":"6619481b-c4dc-4a32-9900-753ecba9765b","system_id":"levelo_inurba_marseille","lat":43.29479,"lon":5.43835,"is_reserved":false,"is_disabled":false,"rental_uris":{"android":"levelo://app?vid=6619481b-c4dc-4a32-9900-753ecba9765b","ios":"levelo://app?vid=6619481b-c4dc-4a32-9900-753ecba9765b"},"vehicle_type_id":"4","last_reported":1739916539,"current_range_meters":6800,"station_id":"","pricing_plan_id":"cebpf4jnsgd1na2vs0mg"},{"bike_id":"6528e792-6c2b-41ab-b102-37d30001a0e7","system_id":"levelo_inurba_marseille","lat":43.2726,"lon":5.40107,"is_reserved":false,"is_disabled":false,"rental_uris":{"android":"levelo://app?vid=6528e792-6c2b-41ab-b102-37d30001a0e7","ios":"levelo://app?vid=6528e792-6c2b-41ab-b102-37d30001a0e7"},"vehicle_type_id":"4","last_reported":1739916539,"current_range_meters":7200,"station_id":"","pricing_plan_id":"cebpf4jnsgd1na2vs0mg"},{"bike_id":"79fca65f-7726-4d8c-b178-da207c385007","system_id":"levelo_inurba_marseille","lat":43.27926,"lon":5.39599,"is_reserved":false,"is_disabled":false,"rental_uris":{"android":"levelo://app?vid=79fca65f-7726-4d8c-b178-da207c385007","ios":"levelo://app?vid=79fca65f-7726-4d8c-b178-da207c385007"},"vehicle_type_id":"4","last_reported":1739916539,"current_range_meters":7200,"station_id":"ce4bhf92rcd13ifvqf40","pricing_plan_id":"cebpf4jnsgd1na2vs0mg"},{"bike_id":"4b2cf509-6732-4c40-b6b7-1727a938fd1a","system_id":"levelo_inurba_marseille","lat":43.2841,"lon":5.37503,"is_reserved":false,"is_disabled":false,"rental_uris":{"android":"levelo://app?vid=4b2cf509-6732-4c40-b6b7-1727a938fd1a","ios":"levelo://app?vid=4b2cf509-6732-4c40-b6b7-1727a938fd1a"},"vehicle_type_id":"4","last_reported":1739916539,"current_range_meters":8000,"station_id":"","pricing_plan_id":"cebpf4jnsgd1na2vs0mg"},{"bike_id":"dc2583c0-b500-4494-85fd-da6fc368e56b","system_id":"levelo_inurba_marseille","lat":43.27841,"lon":5.39209,"is_reserved":false,"is_disabled":false,"rental_uris":{"android":"levelo://app?vid=dc2583c0-b500-4494-85fd-da6fc368e56b","ios":"levelo://app?vid=dc2583c0-b500-4494-85fd-da6fc368e56b"},"vehicle_type_id":"4","last_reported":1739916539,"current_range_meters":8000,"station_id":"ce4bhjp2rcd13ifvqga0","pricing_plan_id":"cebpf4jnsgd1na2vs0mg"},{"bike_id":"ad8bae08-a5cc-4bc6-a143-39f28604f9d5","system_id":"levelo_inurba_marseille","lat":43.26226,"lon":5.40462,"is_reserved":false,"is_disabled":false,"rental_uris":{"android":"levelo://app?vid=ad8bae08-a5cc-4bc6-a143-39f28604f9d5","ios":"levelo://app?vid=ad8bae08-a5cc-4bc6-a143-39f28604f9d5"},"vehicle_type_id":"4","last_reported":1739916539,"current_range_meters":8400,"station_id":"ce4bhmh2rcd13ifvqgmg","pricing_plan_id":"cebpf4jnsgd1na2vs0mg"},{"bike_id":"6ff414da-5d5e-4b76-82eb-59e133f84778","system_id":"levelo_inurba_marseille","lat":43.27814,"lon":5.40715,"is_reserved":false,"is_disabled":false,"rental_uris":{"android":"levelo://app?vid=6ff414da-5d5e-4b76-82eb-59e133f84778","ios":"levelo://app?vid=6ff414da-5d5e-4b76-82eb-59e133f84778"},"vehicle_type_id":"4","last_reported":1739916539,"current_range_meters":8000,"station_id":"ce4bhnh2rcd13ifvqgtg","pricing_plan_id":"cebpf4jnsgd1na2vs0mg"},{"bike_id":"0e9ae8c5-7a7e-467d-afe2-bb8df6bfeefc","system_id":"levelo_inurba_marseille","lat":43.2334,"lon":5.40308,"is_reserved":false,"is_disabled":false,"rental_uris":{"android":"levelo://app?vid=0e9ae8c5-7a7e-467d-afe2-bb8df6bfeefc","ios":"levelo://app?vid=0e9ae8c5-7a7e-467d-afe2-bb8df6bfeefc"},"vehicle_type_id":"4","last_reported":1739916539,"current_range_meters":8000,"station_id":"","pricing_plan_id":"cebpf4jnsgd1na2vs0mg"},{"bike_id":"7d309820-d1db-4b08-8937-4adba6adeb8f","system_id":"levelo_inurba_marseille","lat":43.28109,"lon":5.3785,"is_reserved":false,"is_disabled":false,"rental_uris":{"android":"levelo://app?vid=7d309820-d1db-4b08-8937-4adba6adeb8f","ios":"levelo://app?vid=7d309820-d1db-4b08-8937-4adba6adeb8f"},"vehicle_type_id":"4","last_reported":1739916539,"current_range_meters":8000,"station_id":"ce4bha12rcd13ifvqee0","pricing_plan_id":"cebpf4jnsgd1na2vs0mg"},{"bike_id":"a573452d-7d92-454e-9154-9c995ba585ef","system_id":"levelo_inurba_marseille","lat":43.29772,"lon":5.3768,"is_reserved":false,"is_disabled":true,"rental_uris":{"android":"levelo://app?vid=a573452d-7d92-454e-9154-9c995ba585ef","ios":"levelo://app?vid=a573452d-7d92-454e-9154-9c995ba585ef"},"vehicle_type_id":"4","last_reported":1739916539,"current_range_meters":8000,"station_id":"","pricing_plan_id":"cebpf4jnsgd1na2vs0mg"},{"bike_id":"d0aadd08-afc9-4836-bf5e-4d6e490ef4db","system_id":"levelo_inurba_marseille","lat":43.32359,"lon":5.36756,"is_reserved":false,"is_disabled":false,"rental_uris":{"android":"levelo://app?vid=d0aadd08-afc9-4836-bf5e-4d6e490ef4db","ios":"levelo://app?vid=d0aadd08-afc9-4836-bf5e-4d6e490ef4db"},"vehicle_type_id":"4","last_reported":1739916539,"current_range_meters":8000,"station_id":"ce4bhsh2rcd13ifvqi2g","pricing_plan_id":"cebpf4jnsgd1na2vs0mg"},{"bike_id":"66bdaba1-8ea6-4d2c-ad9c-6d213bc14ad8","system_id":"levelo_inurba_marseille","lat":43.26214,"lon":5.37942,"is_reserved":false,"is_disabled":false,"rental_uris":{"android":"levelo://app?vid=66bdaba1-8ea6-4d2c-ad9c-6d213bc14ad8","ios":"levelo://app?vid=66bdaba1-8ea6-4d2c-ad9c-6d213bc14ad8"},"vehicle_type_id":"4","last_reported":1739916539,"current_range_meters":8000,"station_id":"ce4bhjp2rcd13ifvqg90","pricing_plan_id":"cebpf4jnsgd1na2vs0mg"},{"bike_id":"e34dc701-144c-4e9a-8f13-ba13983b3a86","system_id":"levelo_inurba_marseille","lat":43.28735,"lon":5.3611,"is_reserved":false,"is_disabled":false,"rental_uris":{"android":"levelo://app?vid=e34dc701-144c-4e9a-8f13-ba13983b3a86","ios":"levelo://app?vid=e34dc701-144c-4e9a-8f13-ba13983b3a86"},"vehicle_type_id":"4","last_reported":1739916539,"current_range_meters":8000,"station_id":"cki0cbj6b192h4jlfktg","pricing_plan_id":"cebpf4jnsgd1na2vs0mg"},{"bike_id":"03746526-254a-4087-980a-633e87b0db20","system_id":"levelo_inurba_marseille","lat":43.31711,"lon":5.37798,"is_reserved":false,"is_disabled":false,"rental_uris":{"android":"levelo://app?vid=03746526-254a-4087-980a-633e87b0db20","ios":"levelo://app?vid=03746526-254a-4087-980a-633e87b0db20"},"vehicle_type_id":"4","last_reported":1739916539,"current_range_meters":8400,"station_id":"ce4bgth2rcd13ifvqch0","pricing_plan_id":"cebpf4jnsgd1na2vs0mg"},{"bike_id":"989a1c05-c74a-4632-af21-81b3f55f7909","system_id":"levelo_inurba_marseille","lat":43.29207,"lon":5.36069,"is_reserved":false,"is_disabled":true,"rental_uris":{"android":"levelo://app?vid=989a1c05-c74a-4632-af21-81b3f55f7909","ios":"levelo://app?vid=989a1c05-c74a-4632-af21-81b3f55f7909"},"vehicle_type_id":"4","last_reported":1739916539,"current_range_meters":8400,"station_id":"","pricing_plan_id":"cebpf4jnsgd1na2vs0mg"},{"bike_id":"6436a366-7865-49ec-a9a2-d4b8e372d7c3","system_id":"levelo_inurba_marseille","lat":43.276245,"lon":5.361111,"is_reserved":false,"is_disabled":false,"rental_uris":{"android":"levelo://app?vid=6436a366-7865-49ec-a9a2-d4b8e372d7c3","ios":"levelo://app?vid=6436a366-7865-49ec-a9a2-d4b8e372d7c3"},"vehicle_type_id":"4","last_reported":1739916539,"current_range_meters":8800,"station_id":"ce4bha12rcd13ifvqef0","pricing_plan_id":"cebpf4jnsgd1na2vs0mg"},{"bike_id":"12b33330-5dcb-4644-8a5c-3a95dc32ce98","system_id":"levelo_inurba_marseille","lat":43.28213,"lon":5.42687,"is_reserved":false,"is_disabled":false,"rental_uris":{"android":"levelo://app?vid=12b33330-5dcb-4644-8a5c-3a95dc32ce98","ios":"levelo://app?vid=12b33330-5dcb-4644-8a5c-3a95dc32ce98"},"vehicle_type_id":"4","last_reported":1739916539,"current_range_meters":8800,"station_id":"ce4bhnh2rcd13ifvqgug","pricing_plan_id":"cebpf4jnsgd1na2vs0mg"},{"bike_id":"cd189a51-ee99-4048-9ef7-2fc5d8a8f9b2","system_id":"levelo_inurba_marseille","lat":43.32103,"lon":5.36776,"is_reserved":false,"is_disabled":false,"rental_uris":{"android":"levelo://app?vid=cd189a51-ee99-4048-9ef7-2fc5d8a8f9b2","ios":"levelo://app?vid=cd189a51-ee99-4048-9ef7-2fc5d8a8f9b2"},"vehicle_type_id":"4","last_reported":1739916539,"current_range_meters":8800,"station_id":"ce4bhrh2rcd13ifvqhug","pricing_plan_id":"cebpf4jnsgd1na2vs0mg"},{"bike_id":"fa6d9dca-d4a9-45ea-a6ad-1f6c75d10deb","system_id":"levelo_inurba_marseille","lat":43.30657,"lon":5.40071,"is_reserved":false,"is_disabled":false,"rental_uris":{"android":"levelo://app?vid=fa6d9dca-d4a9-45ea-a6ad-1f6c75d10deb","ios":"levelo://app?vid=fa6d9dca-d4a9-45ea-a6ad-1f6c75d10deb"},"vehicle_type_id":"4","last_reported":1739916539,"current_range_meters":8800,"station_id":"ce4bh112rcd13ifvqda0","pricing_plan_id":"cebpf4jnsgd1na2vs0mg"},{"bike_id":"85609954-3544-4e67-b4ab-f540dcb150e2","system_id":"levelo_inurba_marseille","lat":43.27915,"lon":5.3802,"is_reserved":false,"is_disabled":false,"rental_uris":{"android":"levelo://app?vid=85609954-3544-4e67-b4ab-f540dcb150e2","ios":"levelo://app?vid=85609954-3544-4e67-b4ab-f540dcb150e2"},"vehicle_type_id":"4","last_reported":1739916539,"current_range_meters":8800,"station_id":"ce4bhf92rcd13ifvqf50","pricing_plan_id":"cebpf4jnsgd1na2vs0mg"},{"bike_id":"8072f034-69d4-48c5-b234-451357393f04","system_id":"levelo_inurba_marseille","lat":43.23963,"lon":5.36648,"is_reserved":false,"is_disabled":false,"rental_uris":{"android":"levelo://app?vid=8072f034-69d4-48c5-b234-451357393f04","ios":"levelo://app?vid=8072f034-69d4-48c5-b234-451357393f04"},"vehicle_type_id":"4","last_reported":1739916539,"current_range_meters":9200,"station_id":"ce4bhi12rcd13ifvqfp0","pricing_plan_id":"cebpf4jnsgd1na2vs0mg"},{"bike_id":"f5a7abcc-f6fb-4888-9484-dd0e57f220b4","system_id":"levelo_inurba_marseille","lat":43.29531,"lon":5.39392,"is_reserved":false,"is_disabled":false,"rental_uris":{"android":"levelo://app?vid=f5a7abcc-f6fb-4888-9484-dd0e57f220b4","ios":"levelo://app?vid=f5a7abcc-f6fb-4888-9484-dd0e57f220b4"},"vehicle_type_id":"4","last_reported":1739916539,"current_range_meters":9200,"station_id":"","pricing_plan_id":"cebpf4jnsgd1na2vs0mg"},{"bike_id":"c9071df5-5664-4a5e-b1b2-1df958a7db03","system_id":"levelo_inurba_marseille","lat":43.23963,"lon":5.36649,"is_reserved":false,"is_disabled":false,"rental_uris":{"android":"levelo://app?vid=c9071df5-5664-4a5e-b1b2-1df958a7db03","ios":"levelo://app?vid=c9071df5-5664-4a5e-b1b2-1df958a7db03"},"vehicle_type_id":"4","last_reported":1739916539,"current_range_meters":9200,"station_id":"ce4bhi12rcd13ifvqfp0","pricing_plan_id":"cebpf4jnsgd1na2vs0mg"},{"bike_id":"4549780a-bd41-4776-b580-439be41aac05","system_id":"levelo_inurba_marseille","lat":43.29281,"lon":5.38444,"is_reserved":false,"is_disabled":false,"rental_uris":{"android":"levelo://app?vid=4549780a-bd41-4776-b580-439be41aac05","ios":"levelo://app?vid=4549780a-bd41-4776-b580-439be41aac05"},"vehicle_type_id":"4","last_reported":1739916539,"current_range_meters":9200,"station_id":"","pricing_plan_id":"cebpf4jnsgd1na2vs0mg"},{"bike_id":"603829f6-1bd6-420a-b866-4544fcbffbce","system_id":"levelo_inurba_marseille","lat":43.24807,"lon":5.37457,"is_reserved":false,"is_disabled":false,"rental_uris":{"android":"levelo://app?vid=603829f6-1bd6-420a-b866-4544fcbffbce","ios":"levelo://app?vid=603829f6-1bd6-420a-b866-4544fcbffbce"},"vehicle_type_id":"4","last_reported":1739916539,"current_range_meters":9200,"station_id":"ce4bhgh2rcd13ifvqfb0","pricing_plan_id":"cebpf4jnsgd1na2vs0mg"},{"bike_id":"0bf08895-f405-4540-9472-d7fcaf7111e1","system_id":"levelo_inurba_marseille","lat":43.30925,"lon":5.40143,"is_reserved":false,"is_disabled":false,"rental_uris":{"android":"levelo://app?vid=0bf08895-f405-4540-9472-d7fcaf7111e1","ios":"levelo://app?vid=0bf08895-f405-4540-9472-d7fcaf7111e1"},"vehicle_type_id":"4","last_reported":1739916539,"current_range_meters":9200,"station_id":"ce4bgvp2rcd13ifvqct0","pricing_plan_id":"cebpf4jnsgd1na2vs0mg"},{"bike_id":"5e717aac-58b6-44b6-a302-9fe17a89f32b","system_id":"levelo_inurba_marseille","lat":43.31883,"lon":5.4074,"is_reserved":false,"is_disabled":false,"rental_uris":{"android":"levelo://app?vid=5e717aac-58b6-44b6-a302-9fe17a89f32b","ios":"levelo://app?vid=5e717aac-58b6-44b6-a302-9fe17a89f32b"},"vehicle_type_id":"4","last_reported":1739916539,"current_range_meters":9200,"station_id":"ce4bhq12rcd13ifvqhig","pricing_plan_id":"cebpf4jnsgd1na2vs0mg"},{"bike_id":"fc9896ce-1f52-403c-86a7-1678079c9523","system_id":"levelo_inurba_marseille","lat":43.28363,"lon":5.44275,"is_reserved":false,"is_disabled":false,"rental_uris":{"android":"levelo://app?vid=fc9896ce-1f52-403c-86a7-1678079c9523","ios":"levelo://app?vid=fc9896ce-1f52-403c-86a7-1678079c9523"},"vehicle_type_id":"4","last_reported":1739916539,"current_range_meters":9200,"station_id":"","pricing_plan_id":"cebpf4jnsgd1na2vs0mg"},{"bike_id":"d71ecf17-2bec-4c37-8d09-9bbbcc8493f1","system_id":"levelo_inurba_marseille","lat":43.29306,"lon":5.38473,"is_reserved":false,"is_disabled":false,"rental_uris":{"android":"levelo://app?vid=d71ecf17-2bec-4c37-8d09-9bbbcc8493f1","ios":"levelo://app?vid=d71ecf17-2bec-4c37-8d09-9bbbcc8493f1"},"vehicle_type_id":"4","last_reported":1739916539,"current_range_meters":9200,"station_id":"","pricing_plan_id":"cebpf4jnsgd1na2vs0mg"},{"bike_id":"0ddd8de4-1fa2-44a4-910e-01dbc6c0ee46","system_id":"levelo_inurba_marseille","lat":43.29618,"lon":5.37733,"is_reserved":false,"is_disabled":true,"rental_uris":{"android":"levelo://app?vid=0ddd8de4-1fa2-44a4-910e-01dbc6c0ee46","ios":"levelo://app?vid=0ddd8de4-1fa2-44a4-910e-01dbc6c0ee46"},"vehicle_type_id":"4","last_reported":1739916539,"current_range_meters":9600,"station_id":"","pricing_plan_id":"cebpf4jnsgd1na2vs0mg"},{"bike_id":"e605dea0-84a5-4395-b86a-134e39164b56","system_id":"levelo_inurba_marseille","lat":43.28623,"lon":5.35089,"is_reserved":false,"is_disabled":false,"rental_uris":{"android":"levelo://app?vid=e605dea0-84a5-4395-b86a-134e39164b56","ios":"levelo://app?vid=e605dea0-84a5-4395-b86a-134e39164b56"},"vehicle_type_id":"4","last_reported":1739916539,"current_range_meters":9600,"station_id":"ce4bhch2rcd13ifvqeug","pricing_plan_id":"cebpf4jnsgd1na2vs0mg"},{"bike_id":"cb8372d6-bad2-4555-89ad-5b495afb0b59","system_id":"levelo_inurba_marseille","lat":43.24822,"lon":5.37459,"is_reserved":false,"is_disabled":false,"rental_uris":{"android":"levelo://app?vid=cb8372d6-bad2-4555-89ad-5b495afb0b59","ios":"levelo://app?vid=cb8372d6-bad2-4555-89ad-5b495afb0b59"},"vehicle_type_id":"4","last_reported":1739916539,"current_range_meters":9600,"station_id":"ce4bhgh2rcd13ifvqfb0","pricing_plan_id":"cebpf4jnsgd1na2vs0mg"},{"bike_id":"70dee217-670e-40d7-b959-7dcdfca9f445","system_id":"levelo_inurba_marseille","lat":43.24818,"lon":5.37459,"is_reserved":false,"is_disabled":false,"rental_uris":{"android":"levelo://app?vid=70dee217-670e-40d7-b959-7dcdfca9f445","ios":"levelo://app?vid=70dee217-670e-40d7-b959-7dcdfca9f445"},"vehicle_type_id":"4","last_reported":1739916539,"current_range_meters":9600,"station_id":"ce4bhgh2rcd13ifvqfb0","pricing_plan_id":"cebpf4jnsgd1na2vs0mg"},{"bike_id":"5ae0012d-6179-440f-a02a-a607c9208eb9","system_id":"levelo_inurba_marseille","lat":43.24672,"lon":5.38138,"is_reserved":false,"is_disabled":false,"rental_uris":{"android":"levelo://app?vid=5ae0012d-6179-440f-a02a-a607c9208eb9","ios":"levelo://app?vid=5ae0012d-6179-440f-a02a-a607c9208eb9"},"vehicle_type_id":"4","last_reported":1739916539,"current_range_meters":9600,"station_id":"ce4bhih2rcd13ifvqfr0","pricing_plan_id":"cebpf4jnsgd1na2vs0mg"},{"bike_id":"c21214b8-4e24-4e4f-a69f-672307e7c6ff","system_id":"levelo_inurba_marseille","lat":43.28148,"lon":5.42635,"is_reserved":false,"is_disabled":false,"rental_uris":{"android":"levelo://app?vid=c21214b8-4e24-4e4f-a69f-672307e7c6ff","ios":"levelo://app?vid=c21214b8-4e24-4e4f-a69f-672307e7c6ff"},"vehicle_type_id":"4","last_reported":1739916539,"current_range_meters":9600,"station_id":"","pricing_plan_id":"cebpf4jnsgd1na2vs0mg"},{"bike_id":"9fa5df0a-f830-43da-9451-c0d91bf9686b","system_id":"levelo_inurba_marseille","lat":43.28159,"lon":5.42647,"is_reserved":false,"is_disabled":false,"rental_uris":{"android":"levelo://app?vid=9fa5df0a-f830-43da-9451-c0d91bf9686b","ios":"levelo://app?vid=9fa5df0a-f830-43da-9451-c0d91bf9686b"},"vehicle_type_id":"4","last_reported":1739916539,"current_range_meters":9600,"station_id":"","pricing_plan_id":"cebpf4jnsgd1na2vs0mg"},{"bike_id":"150d470b-8649-4d00-b7ab-12e70df09d60","system_id":"levelo_inurba_marseille","lat":43.2794,"lon":5.41062,"is_reserved":false,"is_disabled":false,"rental_uris":{"android":"levelo://app?vid=150d470b-8649-4d00-b7ab-12e70df09d60","ios":"levelo://app?vid=150d470b-8649-4d00-b7ab-12e70df09d60"},"vehicle_type_id":"4","last_reported":1739916539,"current_range_meters":9600,"station_id":"ce4bhnp2rcd13ifvqh0g","pricing_plan_id":"cebpf4jnsgd1na2vs0mg"},{"bike_id":"ec4721f0-4b3b-4dda-9c1c-294a4af452cd","system_id":"levelo_inurba_marseille","lat":43.25124,"lon":5.40328,"is_reserved":false,"is_disabled":false,"rental_uris":{"android":"levelo://app?vid=ec4721f0-4b3b-4dda-9c1c-294a4af452cd","ios":"levelo://app?vid=ec4721f0-4b3b-4dda-9c1c-294a4af452cd"},"vehicle_type_id":"4","last_reported":1739916539,"current_range_meters":9600,"station_id":"ce4bhlh2rcd13ifvqgig","pricing_plan_id":"cebpf4jnsgd1na2vs0mg"},{"bike_id":"3c1a62ce-1ffc-4ed0-b0ea-52738f4d98e3","system_id":"levelo_inurba_marseille","lat":43.29257,"lon":5.38447,"is_reserved":false,"is_disabled":false,"rental_uris":{"android":"levelo://app?vid=3c1a62ce-1ffc-4ed0-b0ea-52738f4d98e3","ios":"levelo://app?vid=3c1a62ce-1ffc-4ed0-b0ea-52738f4d98e3"},"vehicle_type_id":"4","last_reported":1739916539,"current_range_meters":9600,"station_id":"","pricing_plan_id":"cebpf4jnsgd1na2vs0mg"},{"bike_id":"5bb1c5c1-c192-4e5a-8c9a-471a65614682","system_id":"levelo_inurba_marseille","lat":43.29369,"lon":5.37849,"is_reserved":false,"is_disabled":false,"rental_uris":{"android":"levelo://app?vid=5bb1c5c1-c192-4e5a-8c9a-471a65614682","ios":"levelo://app?vid=5bb1c5c1-c192-4e5a-8c9a-471a65614682"},"vehicle_type_id":"4","last_reported":1739916539,"current_range_meters":9200,"station_id":"ce4bgjh2rcd13ifvqbf0","pricing_plan_id":"cebpf4jnsgd1na2vs0mg"},{"bike_id":"74c9f186-0537-4b2e-9127-6b2327ce6718","system_id":"levelo_inurba_marseille","lat":43.287,"lon":5.38694,"is_reserved":false,"is_disabled":false,"rental_uris":{"android":"levelo://app?vid=74c9f186-0537-4b2e-9127-6b2327ce6718","ios":"levelo://app?vid=74c9f186-0537-4b2e-9127-6b2327ce6718"},"vehicle_type_id":"4","last_reported":1739916539,"current_range_meters":9600,"station_id":"ce4bh492rcd13ifvqdug","pricing_plan_id":"cebpf4jnsgd1na2vs0mg"},{"bike_id":"8820331a-ca9f-4cd4-8d8c-b4c7da8425ef","system_id":"levelo_inurba_marseille","lat":43.28033,"lon":5.3695,"is_reserved":false,"is_disabled":false,"rental_uris":{"android":"levelo://app?vid=8820331a-ca9f-4cd4-8d8c-b4c7da8425ef","ios":"levelo://app?vid=8820331a-ca9f-4cd4-8d8c-b4c7da8425ef"},"vehicle_type_id":"4","last_reported":1739916539,"current_range_meters":10000,"station_id":"ce4bha12rcd13ifvqef0","pricing_plan_id":"cebpf4jnsgd1na2vs0mg"},{"bike_id":"3f5c0cbe-76cb-46f9-8009-cb568b808f59","system_id":"levelo_inurba_marseille","lat":43.29163,"lon":5.4081,"is_reserved":false,"is_disabled":false,"rental_uris":{"android":"levelo://app?vid=3f5c0cbe-76cb-46f9-8009-cb568b808f59","ios":"levelo://app?vid=3f5c0cbe-76cb-46f9-8009-cb568b808f59"},"vehicle_type_id":"4","last_reported":1739916539,"current_range_meters":10000,"station_id":"","pricing_plan_id":"cebpf4jnsgd1na2vs0mg"},{"bike_id":"07460ddc-72b2-47b9-ae7a-e7f9041dd312","system_id":"levelo_inurba_marseille","lat":43.23959,"lon":5.36636,"is_reserved":false,"is_disabled":false,"rental_uris":{"android":"levelo://app?vid=07460ddc-72b2-47b9-ae7a-e7f9041dd312","ios":"levelo://app?vid=07460ddc-72b2-47b9-ae7a-e7f9041dd312"},"vehicle_type_id":"4","last_reported":1739916539,"current_range_meters":10000,"station_id":"","pricing_plan_id":"cebpf4jnsgd1na2vs0mg"},{"bike_id":"a85165fb-7fdb-4cc1-ae98-ce974cfd16ca","system_id":"levelo_inurba_marseille","lat":43.23189,"lon":5.39986,"is_reserved":false,"is_disabled":false,"rental_uris":{"android":"levelo://app?vid=a85165fb-7fdb-4cc1-ae98-ce974cfd16ca","ios":"levelo://app?vid=a85165fb-7fdb-4cc1-ae98-ce974cfd16ca"},"vehicle_type_id":"4","last_reported":1739916539,"current_range_meters":10000,"station_id":"ce4bhn12rcd13ifvqgqg","pricing_plan_id":"cebpf4jnsgd1na2vs0mg"},{"bike_id":"ef296548-6234-4d2a-a4ab-67c6b078c084","system_id":"levelo_inurba_marseille","lat":43.28436,"lon":5.37545,"is_reserved":false,"is_disabled":false,"rental_uris":{"android":"levelo://app?vid=ef296548-6234-4d2a-a4ab-67c6b078c084","ios":"levelo://app?vid=ef296548-6234-4d2a-a4ab-67c6b078c084"},"vehicle_type_id":"4","last_reported":1739916539,"current_range_meters":10000,"station_id":"ce4bh412rcd13ifvqds0","pricing_plan_id":"cebpf4jnsgd1na2vs0mg"},{"bike_id":"10f8da56-b982-4af7-a78a-0fa9c8b1a438","system_id":"levelo_inurba_marseille","lat":43.31893,"lon":5.40739,"is_reserved":false,"is_disabled":false,"rental_uris":{"android":"levelo://app?vid=10f8da56-b982-4af7-a78a-0fa9c8b1a438","ios":"levelo://app?vid=10f8da56-b982-4af7-a78a-0fa9c8b1a438"},"vehicle_type_id":"4","last_reported":1739916539,"current_range_meters":10000,"station_id":"ce4bhq12rcd13ifvqhig","pricing_plan_id":"cebpf4jnsgd1na2vs0mg"},{"bike_id":"0563389e-d2fb-4cf7-b867-f187226876ea","system_id":"levelo_inurba_marseille","lat":43.29029,"lon":5.38083,"is_reserved":false,"is_disabled":true,"rental_uris":{"android":"levelo://app?vid=0563389e-d2fb-4cf7-b867-f187226876ea","ios":"levelo://app?vid=0563389e-d2fb-4cf7-b867-f187226876ea"},"vehicle_type_id":"4","last_reported":1739916539,"current_range_meters":10000,"station_id":"ce4bh4p2rcd13ifvqe1g","pricing_plan_id":"cebpf4jnsgd1na2vs0mg"},{"bike_id":"f734e773-17df-48e9-9fba-b65495e7d8cf","system_id":"levelo_inurba_marseille","lat":43.28419,"lon":5.34985,"is_reserved":false,"is_disabled":true,"rental_uris":{"android":"levelo://app?vid=f734e773-17df-48e9-9fba-b65495e7d8cf","ios":"levelo://app?vid=f734e773-17df-48e9-9fba-b65495e7d8cf"},"vehicle_type_id":"4","last_reported":1739916539,"current_range_meters":10000,"station_id":"","pricing_plan_id":"cebpf4jnsgd1na2vs0mg"},{"bike_id":"7342bfbd-9082-4169-8159-57866036272e","system_id":"levelo_inurba_marseille","lat":43.28486,"lon":5.35918,"is_reserved":false,"is_disabled":false,"rental_uris":{"android":"levelo://app?vid=7342bfbd-9082-4169-8159-57866036272e","ios":"levelo://app?vid=7342bfbd-9082-4169-8159-57866036272e"},"vehicle_type_id":"4","last_reported":1739916539,"current_range_meters":10000,"station_id":"ce4bhah2rcd13ifvqei0","pricing_plan_id":"cebpf4jnsgd1na2vs0mg"},{"bike_id":"6c96a73f-ff01-463f-bd8c-14885ee904b6","system_id":"levelo_inurba_marseille","lat":43.29082,"lon":5.35748,"is_reserved":false,"is_disabled":false,"rental_uris":{"android":"levelo://app?vid=6c96a73f-ff01-463f-bd8c-14885ee904b6","ios":"levelo://app?vid=6c96a73f-ff01-463f-bd8c-14885ee904b6"},"vehicle_type_id":"4","last_reported":1739916539,"current_range_meters":10000,"station_id":"ce4bhb92rcd13ifvqen0","pricing_plan_id":"cebpf4jnsgd1na2vs0mg"},{"bike_id":"a6e47676-9a97-4574-b4ab-46943fcdbbe0","system_id":"levelo_inurba_marseille","lat":43.27182,"lon":5.41003,"is_reserved":false,"is_disabled":false,"rental_uris":{"android":"levelo://app?vid=a6e47676-9a97-4574-b4ab-46943fcdbbe0","ios":"levelo://app?vid=a6e47676-9a97-4574-b4ab-46943fcdbbe0"},"vehicle_type_id":"4","last_reported":1739916539,"current_range_meters":10000,"station_id":"ce4bhl12rcd13ifvqgf0","pricing_plan_id":"cebpf4jnsgd1na2vs0mg"},{"bike_id":"7e676248-facc-4c24-84d3-894a14296153","system_id":"levelo_inurba_marseille","lat":43.30098,"lon":5.39075,"is_reserved":false,"is_disabled":false,"rental_uris":{"android":"levelo://app?vid=7e676248-facc-4c24-84d3-894a14296153","ios":"levelo://app?vid=7e676248-facc-4c24-84d3-894a14296153"},"vehicle_type_id":"4","last_reported":1739916539,"current_range_meters":10800,"station_id":"ce4bh192rcd13ifvqdb0","pricing_plan_id":"cebpf4jnsgd1na2vs0mg"},{"bike_id":"91bf3218-0a05-4226-acc9-b3131b7d5a8d","system_id":"levelo_inurba_marseille","lat":43.23967,"lon":5.3664,"is_reserved":false,"is_disabled":false,"rental_uris":{"android":"levelo://app?vid=91bf3218-0a05-4226-acc9-b3131b7d5a8d","ios":"levelo://app?vid=91bf3218-0a05-4226-acc9-b3131b7d5a8d"},"vehicle_type_id":"4","last_reported":1739916539,"current_range_meters":10800,"station_id":"ce4bhi12rcd13ifvqfp0","pricing_plan_id":"cebpf4jnsgd1na2vs0mg"},{"bike_id":"f6ba40c5-f255-4f0d-8f57-d368a3f1328d","system_id":"levelo_inurba_marseille","lat":43.28105,"lon":5.37847,"is_reserved":false,"is_disabled":false,"rental_uris":{"android":"levelo://app?vid=f6ba40c5-f255-4f0d-8f57-d368a3f1328d","ios":"levelo://app?vid=f6ba40c5-f255-4f0d-8f57-d368a3f1328d"},"vehicle_type_id":"4","last_reported":1739916539,"current_range_meters":12000,"station_id":"","pricing_plan_id":"cebpf4jnsgd1na2vs0mg"},{"bike_id":"6d0ed146-7f65-4315-a2dd-72ce5b3441f4","system_id":"levelo_inurba_marseille","lat":43.28632,"lon":5.35118,"is_reserved":false,"is_disabled":false,"rental_uris":{"android":"levelo://app?vid=6d0ed146-7f65-4315-a2dd-72ce5b3441f4","ios":"levelo://app?vid=6d0ed146-7f65-4315-a2dd-72ce5b3441f4"},"vehicle_type_id":"4","last_reported":1739916539,"current_range_meters":10800,"station_id":"","pricing_plan_id":"cebpf4jnsgd1na2vs0mg"},{"bike_id":"60374178-f118-4837-8b8d-369a4f7e98f3","system_id":"levelo_inurba_marseille","lat":43.2928,"lon":5.3847,"is_reserved":false,"is_disabled":false,"rental_uris":{"android":"levelo://app?vid=60374178-f118-4837-8b8d-369a4f7e98f3","ios":"levelo://app?vid=60374178-f118-4837-8b8d-369a4f7e98f3"},"vehicle_type_id":"4","last_reported":1739916539,"current_range_meters":10800,"station_id":"ce4bh692rcd13ifvqea0","pricing_plan_id":"cebpf4jnsgd1na2vs0mg"},{"bike_id":"18368891-0c3a-4202-aa26-0c46fc585663","system_id":"levelo_inurba_marseille","lat":43.23979,"lon":5.36621,"is_reserved":false,"is_disabled":false,"rental_uris":{"android":"levelo://app?vid=18368891-0c3a-4202-aa26-0c46fc585663","ios":"levelo://app?vid=18368891-0c3a-4202-aa26-0c46fc585663"},"vehicle_type_id":"4","last_reported":1739916539,"current_range_meters":10800,"station_id":"ce4bhi12rcd13ifvqfp0","pricing_plan_id":"cebpf4jnsgd1na2vs0mg"},{"bike_id":"60d314df-a667-495a-a59f-db49b86bae5a","system_id":"levelo_inurba_marseille","lat":43.30098,"lon":5.39075,"is_reserved":false,"is_disabled":false,"rental_uris":{"android":"levelo://app?vid=60d314df-a667-495a-a59f-db49b86bae5a","ios":"levelo://app?vid=60d314df-a667-495a-a59f-db49b86bae5a"},"vehicle_type_id":"4","last_reported":1739916539,"current_range_meters":10800,"station_id":"ce4bh192rcd13ifvqdb0","pricing_plan_id":"cebpf4jnsgd1na2vs0mg"},{"bike_id":"3d90a6dd-831c-4060-97f3-ac281934c099","system_id":"levelo_inurba_marseille","lat":43.29098,"lon":5.38166,"is_reserved":false,"is_disabled":false,"rental_uris":{"android":"levelo://app?vid=3d90a6dd-831c-4060-97f3-ac281934c099","ios":"levelo://app?vid=3d90a6dd-831c-4060-97f3-ac281934c099"},"vehicle_type_id":"4","last_reported":1739916539,"current_range_meters":10000,"station_id":"ce4bh512rcd13ifvqe2g","pricing_plan_id":"cebpf4jnsgd1na2vs0mg"},{"bike_id":"27d281e4-ae2c-4d0a-b5af-b1a6c9a261f7","system_id":"levelo_inurba_marseille","lat":43.31733,"lon":5.37751,"is_reserved":false,"is_disabled":true,"rental_uris":{"android":"levelo://app?vid=27d281e4-ae2c-4d0a-b5af-b1a6c9a261f7","ios":"levelo://app?vid=27d281e4-ae2c-4d0a-b5af-b1a6c9a261f7"},"vehicle_type_id":"4","last_reported":1739916539,"current_range_meters":10800,"station_id":"ce4bgth2rcd13ifvqch0","pricing_plan_id":"cebpf4jnsgd1na2vs0mg"},{"bike_id":"9582ddc0-b6af-49e9-b173-94c0a9b6801a","system_id":"levelo_inurba_marseille","lat":43.28356,"lon":5.38111,"is_reserved":false,"is_disabled":false,"rental_uris":{"android":"levelo://app?vid=9582ddc0-b6af-49e9-b173-94c0a9b6801a","ios":"levelo://app?vid=9582ddc0-b6af-49e9-b173-94c0a9b6801a"},"vehicle_type_id":"4","last_reported":1739916539,"current_range_meters":10800,"station_id":"","pricing_plan_id":"cebpf4jnsgd1na2vs0mg"},{"bike_id":"74325161-a559-4cd1-a6b3-dda514af1b79","system_id":"levelo_inurba_marseille","lat":43.29424,"lon":5.38595,"is_reserved":false,"is_disabled":false,"rental_uris":{"android":"levelo://app?vid=74325161-a559-4cd1-a6b3-dda514af1b79","ios":"levelo://app?vid=74325161-a559-4cd1-a6b3-dda514af1b79"},"vehicle_type_id":"4","last_reported":1739916539,"current_range_meters":10800,"station_id":"ce4bh2h2rcd13ifvqdh0","pricing_plan_id":"cebpf4jnsgd1na2vs0mg"},{"bike_id":"10c134e7-7862-45ed-8103-0b6221fb4b66","system_id":"levelo_inurba_marseille","lat":43.25025,"lon":5.38914,"is_reserved":false,"is_disabled":false,"rental_uris":{"android":"levelo://app?vid=10c134e7-7862-45ed-8103-0b6221fb4b66","ios":"levelo://app?vid=10c134e7-7862-45ed-8103-0b6221fb4b66"},"vehicle_type_id":"4","last_reported":1739916539,"current_range_meters":11200,"station_id":"ce4bhgp2rcd13ifvqfd0","pricing_plan_id":"cebpf4jnsgd1na2vs0mg"},{"bike_id":"9b03b96d-2041-4d92-a949-290d7b50f943","system_id":"levelo_inurba_marseille","lat":43.27196,"lon":5.40988,"is_reserved":false,"is_disabled":false,"rental_uris":{"android":"levelo://app?vid=9b03b96d-2041-4d92-a949-290d7b50f943","ios":"levelo://app?vid=9b03b96d-2041-4d92-a949-290d7b50f943"},"vehicle_type_id":"4","last_reported":1739916539,"current_range_meters":11200,"station_id":"","pricing_plan_id":"cebpf4jnsgd1na2vs0mg"},{"bike_id":"e8d65198-d3e4-4db9-afef-e4dc032740fd","system_id":"levelo_inurba_marseille","lat":43.28847,"lon":5.35866,"is_reserved":false,"is_disabled":false,"rental_uris":{"android":"levelo://app?vid=e8d65198-d3e4-4db9-afef-e4dc032740fd","ios":"levelo://app?vid=e8d65198-d3e4-4db9-afef-e4dc032740fd"},"vehicle_type_id":"4","last_reported":1739916539,"current_range_meters":10800,"station_id":"ce4bhb12rcd13ifvqem0","pricing_plan_id":"cebpf4jnsgd1na2vs0mg"},{"bike_id":"7e7154a5-6554-48b2-adcf-1f574cb03a4b","system_id":"levelo_inurba_marseille","lat":43.30804,"lon":5.38164,"is_reserved":false,"is_disabled":false,"rental_uris":{"android":"levelo://app?vid=7e7154a5-6554-48b2-adcf-1f574cb03a4b","ios":"levelo://app?vid=7e7154a5-6554-48b2-adcf-1f574cb03a4b"},"vehicle_type_id":"4","last_reported":1739916539,"current_range_meters":11200,"station_id":"ce4bgt12rcd13ifvqce0","pricing_plan_id":"cebpf4jnsgd1na2vs0mg"},{"bike_id":"d16042a7-01ab-4931-9a9b-36cbd47b3392","system_id":"levelo_inurba_marseille","lat":43.31204,"lon":5.3688,"is_reserved":false,"is_disabled":false,"rental_uris":{"android":"levelo://app?vid=d16042a7-01ab-4931-9a9b-36cbd47b3392","ios":"levelo://app?vid=d16042a7-01ab-4931-9a9b-36cbd47b3392"},"vehicle_type_id":"4","last_reported":1739916539,"current_range_meters":10800,"station_id":"ce4bgl92rcd13ifvqbq0","pricing_plan_id":"cebpf4jnsgd1na2vs0mg"},{"bike_id":"24ee2f85-f37f-4f25-9759-d7b74f75920a","system_id":"levelo_inurba_marseille","lat":43.2997,"lon":5.38491,"is_reserved":false,"is_disabled":false,"rental_uris":{"android":"levelo://app?vid=24ee2f85-f37f-4f25-9759-d7b74f75920a","ios":"levelo://app?vid=24ee2f85-f37f-4f25-9759-d7b74f75920a"},"vehicle_type_id":"4","last_reported":1739916539,"current_range_meters":11200,"station_id":"ce4bgj92rcd13ifvqbd0","pricing_plan_id":"cebpf4jnsgd1na2vs0mg"},{"bike_id":"07996083-2bb1-4f25-82e7-e63d97f95135","system_id":"levelo_inurba_marseille","lat":43.24806,"lon":5.37452,"is_reserved":false,"is_disabled":false,"rental_uris":{"android":"levelo://app?vid=07996083-2bb1-4f25-82e7-e63d97f95135","ios":"levelo://app?vid=07996083-2bb1-4f25-82e7-e63d97f95135"},"vehicle_type_id":"4","last_reported":1739916539,"current_range_meters":11200,"station_id":"ce4bhgh2rcd13ifvqfb0","pricing_plan_id":"cebpf4jnsgd1na2vs0mg"},{"bike_id":"d52987ea-c9d3-4085-a222-c7ab18f613e4","system_id":"levelo_inurba_marseille","lat":43.30151,"lon":5.38785,"is_reserved":false,"is_disabled":false,"rental_uris":{"android":"levelo://app?vid=d52987ea-c9d3-4085-a222-c7ab18f613e4","ios":"levelo://app?vid=d52987ea-c9d3-4085-a222-c7ab18f613e4"},"vehicle_type_id":"4","last_reported":1739916539,"current_range_meters":11200,"station_id":"ce4bhoh2rcd13ifvqh6g","pricing_plan_id":"cebpf4jnsgd1na2vs0mg"},{"bike_id":"bee8531d-dbf3-40bb-bdf0-22891d4459f9","system_id":"levelo_inurba_marseille","lat":43.309372,"lon":5.401375,"is_reserved":false,"is_disabled":false,"rental_uris":{"android":"levelo://app?vid=bee8531d-dbf3-40bb-bdf0-22891d4459f9","ios":"levelo://app?vid=bee8531d-dbf3-40bb-bdf0-22891d4459f9"},"vehicle_type_id":"4","last_reported":1739916539,"current_range_meters":11600,"station_id":"ce4bgvp2rcd13ifvqct0","pricing_plan_id":"cebpf4jnsgd1na2vs0mg"},{"bike_id":"8fd5fd08-3015-46c6-9402-b1d2e8097eff","system_id":"levelo_inurba_marseille","lat":43.30126,"lon":5.39884,"is_reserved":false,"is_disabled":false,"rental_uris":{"android":"levelo://app?vid=8fd5fd08-3015-46c6-9402-b1d2e8097eff","ios":"levelo://app?vid=8fd5fd08-3015-46c6-9402-b1d2e8097eff"},"vehicle_type_id":"4","last_reported":1739916539,"current_range_meters":11600,"station_id":"ce4bh0h2rcd13ifvqd40","pricing_plan_id":"cebpf4jnsgd1na2vs0mg"},{"bike_id":"4bf40669-9c35-43f4-8817-8a07f6463fda","system_id":"levelo_inurba_marseille","lat":43.308857,"lon":5.371928,"is_reserved":false,"is_disabled":false,"rental_uris":{"android":"levelo://app?vid=4bf40669-9c35-43f4-8817-8a07f6463fda","ios":"levelo://app?vid=4bf40669-9c35-43f4-8817-8a07f6463fda"},"vehicle_type_id":"4","last_reported":1739916539,"current_range_meters":11600,"station_id":"","pricing_plan_id":"cebpf4jnsgd1na2vs0mg"},{"bike_id":"e461d57a-97a5-4bd4-9daf-ca6f32b20d07","system_id":"levelo_inurba_marseille","lat":43.30098,"lon":5.39066,"is_reserved":false,"is_disabled":false,"rental_uris":{"android":"levelo://app?vid=e461d57a-97a5-4bd4-9daf-ca6f32b20d07","ios":"levelo://app?vid=e461d57a-97a5-4bd4-9daf-ca6f32b20d07"},"vehicle_type_id":"4","last_reported":1739916539,"current_range_meters":11600,"station_id":"ce4bh192rcd13ifvqdb0","pricing_plan_id":"cebpf4jnsgd1na2vs0mg"},{"bike_id":"ee24b87f-297d-417d-998d-e914f6e68dfc","system_id":"levelo_inurba_marseille","lat":43.29199,"lon":5.39332,"is_reserved":false,"is_disabled":false,"rental_uris":{"android":"levelo://app?vid=ee24b87f-297d-417d-998d-e914f6e68dfc","ios":"levelo://app?vid=ee24b87f-297d-417d-998d-e914f6e68dfc"},"vehicle_type_id":"4","last_reported":1739916539,"current_range_meters":11600,"station_id":"ce4bh192rcd13ifvqdd0","pricing_plan_id":"cebpf4jnsgd1na2vs0mg"},{"bike_id":"442eb9a9-6af9-47d6-ba34-e89e9722b0f2","system_id":"levelo_inurba_marseille","lat":43.27495,"lon":5.42488,"is_reserved":false,"is_disabled":false,"rental_uris":{"android":"levelo://app?vid=442eb9a9-6af9-47d6-ba34-e89e9722b0f2","ios":"levelo://app?vid=442eb9a9-6af9-47d6-ba34-e89e9722b0f2"},"vehicle_type_id":"4","last_reported":1739916539,"current_range_meters":12000,"station_id":"ce4bhmh2rcd13ifvqgmg","pricing_plan_id":"cebpf4jnsgd1na2vs0mg"},{"bike_id":"7beb0637-fdc1-4315-9de7-143b2e5fe258","system_id":"levelo_inurba_marseille","lat":43.284618,"lon":5.358881,"is_reserved":false,"is_disabled":false,"rental_uris":{"android":"levelo://app?vid=7beb0637-fdc1-4315-9de7-143b2e5fe258","ios":"levelo://app?vid=7beb0637-fdc1-4315-9de7-143b2e5fe258"},"vehicle_type_id":"4","last_reported":1739916539,"current_range_meters":12000,"station_id":"ce4bhah2rcd13ifvqei0","pricing_plan_id":"cebpf4jnsgd1na2vs0mg"},{"bike_id":"ee5ed675-bb03-4728-ab31-548b0122803c","system_id":"levelo_inurba_marseille","lat":43.28711,"lon":5.37403,"is_reserved":false,"is_disabled":false,"rental_uris":{"android":"levelo://app?vid=ee5ed675-bb03-4728-ab31-548b0122803c","ios":"levelo://app?vid=ee5ed675-bb03-4728-ab31-548b0122803c"},"vehicle_type_id":"4","last_reported":1739916539,"current_range_meters":12400,"station_id":"ce4bh3p2rcd13ifvqdq0","pricing_plan_id":"cebpf4jnsgd1na2vs0mg"},{"bike_id":"85e87220-f6a3-46be-8172-f6efecf3643e","system_id":"levelo_inurba_marseille","lat":43.2816,"lon":5.42648,"is_reserved":false,"is_disabled":false,"rental_uris":{"android":"levelo://app?vid=85e87220-f6a3-46be-8172-f6efecf3643e","ios":"levelo://app?vid=85e87220-f6a3-46be-8172-f6efecf3643e"},"vehicle_type_id":"4","last_reported":1739916539,"current_range_meters":12000,"station_id":"","pricing_plan_id":"cebpf4jnsgd1na2vs0mg"},{"bike_id":"0e43aaf2-5553-4ce4-8a5f-0e2f15c2357c","system_id":"levelo_inurba_marseille","lat":43.25024,"lon":5.38929,"is_reserved":false,"is_disabled":false,"rental_uris":{"android":"levelo://app?vid=0e43aaf2-5553-4ce4-8a5f-0e2f15c2357c","ios":"levelo://app?vid=0e43aaf2-5553-4ce4-8a5f-0e2f15c2357c"},"vehicle_type_id":"4","last_reported":1739916539,"current_range_meters":12000,"station_id":"ce4bhgp2rcd13ifvqfd0","pricing_plan_id":"cebpf4jnsgd1na2vs0mg"},{"bike_id":"f0a24ad5-c6ab-4d0b-9efb-c6b3490c58e4","system_id":"levelo_inurba_marseille","lat":43.28672,"lon":5.38679,"is_reserved":false,"is_disabled":false,"rental_uris":{"android":"levelo://app?vid=f0a24ad5-c6ab-4d0b-9efb-c6b3490c58e4","ios":"levelo://app?vid=f0a24ad5-c6ab-4d0b-9efb-c6b3490c58e4"},"vehicle_type_id":"4","last_reported":1739916539,"current_range_meters":12000,"station_id":"ce4bh492rcd13ifvqdug","pricing_plan_id":"cebpf4jnsgd1na2vs0mg"},{"bike_id":"4aafbb8b-68ec-4703-af07-4a7deefd238a","system_id":"levelo_inurba_marseille","lat":43.29931,"lon":5.36555,"is_reserved":false,"is_disabled":false,"rental_uris":{"android":"levelo://app?vid=4aafbb8b-68ec-4703-af07-4a7deefd238a","ios":"levelo://app?vid=4aafbb8b-68ec-4703-af07-4a7deefd238a"},"vehicle_type_id":"4","last_reported":1739916539,"current_range_meters":12000,"station_id":"ce4bgm92rcd13ifvqbr0","pricing_plan_id":"cebpf4jnsgd1na2vs0mg"},{"bike_id":"66130ab3-09ba-4efc-991d-6fb29a7363a9","system_id":"levelo_inurba_marseille","lat":43.26563,"lon":5.39023,"is_reserved":false,"is_disabled":false,"rental_uris":{"android":"levelo://app?vid=66130ab3-09ba-4efc-991d-6fb29a7363a9","ios":"levelo://app?vid=66130ab3-09ba-4efc-991d-6fb29a7363a9"},"vehicle_type_id":"4","last_reported":1739916539,"current_range_meters":12400,"station_id":"ce4bhe12rcd13ifvqf30","pricing_plan_id":"cebpf4jnsgd1na2vs0mg"},{"bike_id":"1f355d12-62da-473a-91e2-b973c2d83c0a","system_id":"levelo_inurba_marseille","lat":43.30436,"lon":5.38911,"is_reserved":false,"is_disabled":false,"rental_uris":{"android":"levelo://app?vid=1f355d12-62da-473a-91e2-b973c2d83c0a","ios":"levelo://app?vid=1f355d12-62da-473a-91e2-b973c2d83c0a"},"vehicle_type_id":"4","last_reported":1739916539,"current_range_meters":12400,"station_id":"ce4bgk12rcd13ifvqbi0","pricing_plan_id":"cebpf4jnsgd1na2vs0mg"},{"bike_id":"6b61a15f-d255-41a0-8166-7f2b93e7d846","system_id":"levelo_inurba_marseille","lat":43.23982,"lon":5.36626,"is_reserved":false,"is_disabled":false,"rental_uris":{"android":"levelo://app?vid=6b61a15f-d255-41a0-8166-7f2b93e7d846","ios":"levelo://app?vid=6b61a15f-d255-41a0-8166-7f2b93e7d846"},"vehicle_type_id":"4","last_reported":1739916539,"current_range_meters":12400,"station_id":"ce4bhi12rcd13ifvqfp0","pricing_plan_id":"cebpf4jnsgd1na2vs0mg"},{"bike_id":"1a0d5cf6-ba9a-43c8-b317-0f0ded27ec7c","system_id":"levelo_inurba_marseille","lat":43.29551,"lon":5.38544,"is_reserved":false,"is_disabled":false,"rental_uris":{"android":"levelo://app?vid=1a0d5cf6-ba9a-43c8-b317-0f0ded27ec7c","ios":"levelo://app?vid=1a0d5cf6-ba9a-43c8-b317-0f0ded27ec7c"},"vehicle_type_id":"4","last_reported":1739916539,"current_range_meters":12800,"station_id":"","pricing_plan_id":"cebpf4jnsgd1na2vs0mg"},{"bike_id":"1c7cc57d-72b8-4e06-99e1-774b2b47b295","system_id":"levelo_inurba_marseille","lat":43.2872,"lon":5.36078,"is_reserved":false,"is_disabled":false,"rental_uris":{"android":"levelo://app?vid=1c7cc57d-72b8-4e06-99e1-774b2b47b295","ios":"levelo://app?vid=1c7cc57d-72b8-4e06-99e1-774b2b47b295"},"vehicle_type_id":"4","last_reported":1739916539,"current_range_meters":12800,"station_id":"cki0cbj6b192h4jlfktg","pricing_plan_id":"cebpf4jnsgd1na2vs0mg"},{"bike_id":"5ac779f2-1fb7-4568-b0fe-31c31466d82e","system_id":"levelo_inurba_marseille","lat":43.26556,"lon":5.38999,"is_reserved":false,"is_disabled":false,"rental_uris":{"android":"levelo://app?vid=5ac779f2-1fb7-4568-b0fe-31c31466d82e","ios":"levelo://app?vid=5ac779f2-1fb7-4568-b0fe-31c31466d82e"},"vehicle_type_id":"4","last_reported":1739916539,"current_range_meters":12800,"station_id":"ce4bhe12rcd13ifvqf30","pricing_plan_id":"cebpf4jnsgd1na2vs0mg"},{"bike_id":"f0f61fdf-e262-479f-a259-1997ef9b3f40","system_id":"levelo_inurba_marseille","lat":43.28162,"lon":5.42664,"is_reserved":false,"is_disabled":false,"rental_uris":{"android":"levelo://app?vid=f0f61fdf-e262-479f-a259-1997ef9b3f40","ios":"levelo://app?vid=f0f61fdf-e262-479f-a259-1997ef9b3f40"},"vehicle_type_id":"4","last_reported":1739916539,"current_range_meters":12800,"station_id":"","pricing_plan_id":"cebpf4jnsgd1na2vs0mg"},{"bike_id":"6df56f7b-7be2-4bbf-8b5b-b03a29e72455","system_id":"levelo_inurba_marseille","lat":43.29532,"lon":5.3855,"is_reserved":false,"is_disabled":false,"rental_uris":{"android":"levelo://app?vid=6df56f7b-7be2-4bbf-8b5b-b03a29e72455","ios":"levelo://app?vid=6df56f7b-7be2-4bbf-8b5b-b03a29e72455"},"vehicle_type_id":"4","last_reported":1739916539,"current_range_meters":13600,"station_id":"","pricing_plan_id":"cebpf4jnsgd1na2vs0mg"},{"bike_id":"f027fe38-3f5d-42fa-b16a-68ca60104c09","system_id":"levelo_inurba_marseille","lat":43.24159,"lon":5.36405,"is_reserved":false,"is_disabled":false,"rental_uris":{"android":"levelo://app?vid=f027fe38-3f5d-42fa-b16a-68ca60104c09","ios":"levelo://app?vid=f027fe38-3f5d-42fa-b16a-68ca60104c09"},"vehicle_type_id":"4","last_reported":1739916539,"current_range_meters":13600,"station_id":"","pricing_plan_id":"cebpf4jnsgd1na2vs0mg"},{"bike_id":"e9edabe5-af2e-406f-9b35-676fe8554592","system_id":"levelo_inurba_marseille","lat":43.30532,"lon":5.3672,"is_reserved":false,"is_disabled":false,"rental_uris":{"android":"levelo://app?vid=e9edabe5-af2e-406f-9b35-676fe8554592","ios":"levelo://app?vid=e9edabe5-af2e-406f-9b35-676fe8554592"},"vehicle_type_id":"4","last_reported":1739916539,"current_range_meters":13600,"station_id":"ce4bgrp2rcd13ifvqc9g","pricing_plan_id":"cebpf4jnsgd1na2vs0mg"},{"bike_id":"2dd047c3-b127-473c-9df4-461ec9e68000","system_id":"levelo_inurba_marseille","lat":43.31888,"lon":5.4073,"is_reserved":false,"is_disabled":false,"rental_uris":{"android":"levelo://app?vid=2dd047c3-b127-473c-9df4-461ec9e68000","ios":"levelo://app?vid=2dd047c3-b127-473c-9df4-461ec9e68000"},"vehicle_type_id":"4","last_reported":1739916539,"current_range_meters":13600,"station_id":"ce4bhq12rcd13ifvqhig","pricing_plan_id":"cebpf4jnsgd1na2vs0mg"},{"bike_id":"ff35d651-9af0-487c-894e-65d0e7833694","system_id":"levelo_inurba_marseille","lat":43.25506,"lon":5.37641,"is_reserved":false,"is_disabled":false,"rental_uris":{"android":"levelo://app?vid=ff35d651-9af0-487c-894e-65d0e7833694","ios":"levelo://app?vid=ff35d651-9af0-487c-894e-65d0e7833694"},"vehicle_type_id":"4","last_reported":1739916539,"current_range_meters":14000,"station_id":"","pricing_plan_id":"cebpf4jnsgd1na2vs0mg"},{"bike_id":"e9a6e83a-7baf-44a2-a878-dbb681add74e","system_id":"levelo_inurba_marseille","lat":43.28683,"lon":5.38662,"is_reserved":false,"is_disabled":false,"rental_uris":{"android":"levelo://app?vid=e9a6e83a-7baf-44a2-a878-dbb681add74e","ios":"levelo://app?vid=e9a6e83a-7baf-44a2-a878-dbb681add74e"},"vehicle_type_id":"4","last_reported":1739916539,"current_range_meters":14400,"station_id":"ce4bh492rcd13ifvqdug","pricing_plan_id":"cebpf4jnsgd1na2vs0mg"},{"bike_id":"93259f11-cd2a-43ea-a42f-06334e0eee79","system_id":"levelo_inurba_marseille","lat":43.25831,"lon":5.39435,"is_reserved":false,"is_disabled":false,"rental_uris":{"android":"levelo://app?vid=93259f11-cd2a-43ea-a42f-06334e0eee79","ios":"levelo://app?vid=93259f11-cd2a-43ea-a42f-06334e0eee79"},"vehicle_type_id":"4","last_reported":1739916539,"current_range_meters":14000,"station_id":"ce4bhip2rcd13ifvqft0","pricing_plan_id":"cebpf4jnsgd1na2vs0mg"},{"bike_id":"c6b4c1d4-7170-42e8-a495-57f7e8da8511","system_id":"levelo_inurba_marseille","lat":43.24647,"lon":5.38895,"is_reserved":false,"is_disabled":false,"rental_uris":{"android":"levelo://app?vid=c6b4c1d4-7170-42e8-a495-57f7e8da8511","ios":"levelo://app?vid=c6b4c1d4-7170-42e8-a495-57f7e8da8511"},"vehicle_type_id":"4","last_reported":1739916539,"current_range_meters":14000,"station_id":"ce4bhg12rcd13ifvqf60","pricing_plan_id":"cebpf4jnsgd1na2vs0mg"},{"bike_id":"d1dec037-ee4c-4db9-a655-1087d8ee1f4f","system_id":"levelo_inurba_marseille","lat":43.28444,"lon":5.39175,"is_reserved":false,"is_disabled":true,"rental_uris":{"android":"levelo://app?vid=d1dec037-ee4c-4db9-a655-1087d8ee1f4f","ios":"levelo://app?vid=d1dec037-ee4c-4db9-a655-1087d8ee1f4f"},"vehicle_type_id":"4","last_reported":1739916539,"current_range_meters":14400,"station_id":"","pricing_plan_id":"cebpf4jnsgd1na2vs0mg"},{"bike_id":"98b1401a-7342-47bc-852f-3b0a705035c6","system_id":"levelo_inurba_marseille","lat":43.23953,"lon":5.3665,"is_reserved":false,"is_disabled":false,"rental_uris":{"android":"levelo://app?vid=98b1401a-7342-47bc-852f-3b0a705035c6","ios":"levelo://app?vid=98b1401a-7342-47bc-852f-3b0a705035c6"},"vehicle_type_id":"4","last_reported":1739916539,"current_range_meters":14400,"station_id":"ce4bhi12rcd13ifvqfp0","pricing_plan_id":"cebpf4jnsgd1na2vs0mg"},{"bike_id":"397b80cf-cbf3-4f7e-9d00-ad56509053a2","system_id":"levelo_inurba_marseille","lat":43.2919,"lon":5.39765,"is_reserved":false,"is_disabled":false,"rental_uris":{"android":"levelo://app?vid=397b80cf-cbf3-4f7e-9d00-ad56509053a2","ios":"levelo://app?vid=397b80cf-cbf3-4f7e-9d00-ad56509053a2"},"vehicle_type_id":"4","last_reported":1739916539,"current_range_meters":14400,"station_id":"","pricing_plan_id":"cebpf4jnsgd1na2vs0mg"},{"bike_id":"3ba3aae7-8792-4d54-bd64-a0ea827a6cb8","system_id":"levelo_inurba_marseille","lat":43.29032,"lon":5.38627,"is_reserved":false,"is_disabled":false,"rental_uris":{"android":"levelo://app?vid=3ba3aae7-8792-4d54-bd64-a0ea827a6cb8","ios":"levelo://app?vid=3ba3aae7-8792-4d54-bd64-a0ea827a6cb8"},"vehicle_type_id":"4","last_reported":1739916539,"current_range_meters":14400,"station_id":"ce4bh4p2rcd13ifvqe0g","pricing_plan_id":"cebpf4jnsgd1na2vs0mg"},{"bike_id":"29a80104-7c84-4882-96c6-67eb68777f92","system_id":"levelo_inurba_marseille","lat":43.248116,"lon":5.374582,"is_reserved":false,"is_disabled":false,"rental_uris":{"android":"levelo://app?vid=29a80104-7c84-4882-96c6-67eb68777f92","ios":"levelo://app?vid=29a80104-7c84-4882-96c6-67eb68777f92"},"vehicle_type_id":"4","last_reported":1739916539,"current_range_meters":14400,"station_id":"","pricing_plan_id":"cebpf4jnsgd1na2vs0mg"},{"bike_id":"89b7354b-223a-4feb-969d-8fbb5a2161f1","system_id":"levelo_inurba_marseille","lat":43.28107,"lon":5.37831,"is_reserved":false,"is_disabled":false,"rental_uris":{"android":"levelo://app?vid=89b7354b-223a-4feb-969d-8fbb5a2161f1","ios":"levelo://app?vid=89b7354b-223a-4feb-969d-8fbb5a2161f1"},"vehicle_type_id":"4","last_reported":1739916539,"current_range_meters":14400,"station_id":"","pricing_plan_id":"cebpf4jnsgd1na2vs0mg"},{"bike_id":"3757f5e5-8587-4bf0-b37b-79afcfb75099","system_id":"levelo_inurba_marseille","lat":43.29259,"lon":5.38443,"is_reserved":false,"is_disabled":false,"rental_uris":{"android":"levelo://app?vid=3757f5e5-8587-4bf0-b37b-79afcfb75099","ios":"levelo://app?vid=3757f5e5-8587-4bf0-b37b-79afcfb75099"},"vehicle_type_id":"4","last_reported":1739916539,"current_range_meters":14800,"station_id":"","pricing_plan_id":"cebpf4jnsgd1na2vs0mg"},{"bike_id":"63c4cf47-dbff-4d5e-a88a-080b99df99de","system_id":"levelo_inurba_marseille","lat":43.2954,"lon":5.38902,"is_reserved":false,"is_disabled":true,"rental_uris":{"android":"levelo://app?vid=63c4cf47-dbff-4d5e-a88a-080b99df99de","ios":"levelo://app?vid=63c4cf47-dbff-4d5e-a88a-080b99df99de"},"vehicle_type_id":"4","last_reported":1739916539,"current_range_meters":14800,"station_id":"","pricing_plan_id":"cebpf4jnsgd1na2vs0mg"},{"bike_id":"1d63a175-89ef-49ff-9ead-dfe9ed6c22cf","system_id":"levelo_inurba_marseille","lat":43.24692,"lon":5.39435,"is_reserved":false,"is_disabled":false,"rental_uris":{"android":"levelo://app?vid=1d63a175-89ef-49ff-9ead-dfe9ed6c22cf","ios":"levelo://app?vid=1d63a175-89ef-49ff-9ead-dfe9ed6c22cf"},"vehicle_type_id":"4","last_reported":1739916539,"current_range_meters":14800,"station_id":"","pricing_plan_id":"cebpf4jnsgd1na2vs0mg"},{"bike_id":"0bd739e5-7607-4447-8b6d-dd71907e2096","system_id":"levelo_inurba_marseille","lat":43.28458,"lon":5.35896,"is_reserved":false,"is_disabled":false,"rental_uris":{"android":"levelo://app?vid=0bd739e5-7607-4447-8b6d-dd71907e2096","ios":"levelo://app?vid=0bd739e5-7607-4447-8b6d-dd71907e2096"},"vehicle_type_id":"4","last_reported":1739916539,"current_range_meters":14800,"station_id":"","pricing_plan_id":"cebpf4jnsgd1na2vs0mg"},{"bike_id":"c9e76473-9005-44c4-8436-f04e84d6b23c","system_id":"levelo_inurba_marseille","lat":43.30423,"lon":5.388872,"is_reserved":false,"is_disabled":false,"rental_uris":{"android":"levelo://app?vid=c9e76473-9005-44c4-8436-f04e84d6b23c","ios":"levelo://app?vid=c9e76473-9005-44c4-8436-f04e84d6b23c"},"vehicle_type_id":"4","last_reported":1739916539,"current_range_meters":15200,"station_id":"ce4bgk12rcd13ifvqbi0","pricing_plan_id":"cebpf4jnsgd1na2vs0mg"},{"bike_id":"6c335b3b-f93c-450a-8403-36cd529bb099","system_id":"levelo_inurba_marseille","lat":43.29605,"lon":5.38099,"is_reserved":false,"is_disabled":false,"rental_uris":{"android":"levelo://app?vid=6c335b3b-f93c-450a-8403-36cd529bb099","ios":"levelo://app?vid=6c335b3b-f93c-450a-8403-36cd529bb099"},"vehicle_type_id":"4","last_reported":1739916539,"current_range_meters":15200,"station_id":"","pricing_plan_id":"cebpf4jnsgd1na2vs0mg"},{"bike_id":"3b206c53-d161-476c-ada8-c634428579ca","system_id":"levelo_inurba_marseille","lat":43.27494,"lon":5.4245,"is_reserved":false,"is_disabled":false,"rental_uris":{"android":"levelo://app?vid=3b206c53-d161-476c-ada8-c634428579ca","ios":"levelo://app?vid=3b206c53-d161-476c-ada8-c634428579ca"},"vehicle_type_id":"4","last_reported":1739916539,"current_range_meters":15200,"station_id":"ce4bhn92rcd13ifvqgrg","pricing_plan_id":"cebpf4jnsgd1na2vs0mg"},{"bike_id":"150693b5-e9e5-40db-94aa-ad3bd62b6aa6","system_id":"levelo_inurba_marseille","lat":43.28707,"lon":5.37399,"is_reserved":false,"is_disabled":false,"rental_uris":{"android":"levelo://app?vid=150693b5-e9e5-40db-94aa-ad3bd62b6aa6","ios":"levelo://app?vid=150693b5-e9e5-40db-94aa-ad3bd62b6aa6"},"vehicle_type_id":"4","last_reported":1739916539,"current_range_meters":15200,"station_id":"ce4bh3p2rcd13ifvqdq0","pricing_plan_id":"cebpf4jnsgd1na2vs0mg"},{"bike_id":"f5889295-bc07-486e-adcd-bc9d6734a4d9","system_id":"levelo_inurba_marseille","lat":43.30943,"lon":5.40141,"is_reserved":false,"is_disabled":false,"rental_uris":{"android":"levelo://app?vid=f5889295-bc07-486e-adcd-bc9d6734a4d9","ios":"levelo://app?vid=f5889295-bc07-486e-adcd-bc9d6734a4d9"},"vehicle_type_id":"4","last_reported":1739916539,"current_range_meters":15200,"station_id":"","pricing_plan_id":"cebpf4jnsgd1na2vs0mg"},{"bike_id":"d2bbc16b-17e1-4745-a415-b4cd89817190","system_id":"levelo_inurba_marseille","lat":43.24627,"lon":5.38897,"is_reserved":false,"is_disabled":false,"rental_uris":{"android":"levelo://app?vid=d2bbc16b-17e1-4745-a415-b4cd89817190","ios":"levelo://app?vid=d2bbc16b-17e1-4745-a415-b4cd89817190"},"vehicle_type_id":"4","last_reported":1739916539,"current_range_meters":16000,"station_id":"ce4bhg12rcd13ifvqf60","pricing_plan_id":"cebpf4jnsgd1na2vs0mg"},{"bike_id":"c3a50302-35be-4085-9dae-1b4ddb75bfa8","system_id":"levelo_inurba_marseille","lat":43.29534,"lon":5.39411,"is_reserved":false,"is_disabled":false,"rental_uris":{"android":"levelo://app?vid=c3a50302-35be-4085-9dae-1b4ddb75bfa8","ios":"levelo://app?vid=c3a50302-35be-4085-9dae-1b4ddb75bfa8"},"vehicle_type_id":"4","last_reported":1739916539,"current_range_meters":16400,"station_id":"ce4bh292rcd13ifvqdf0","pricing_plan_id":"cebpf4jnsgd1na2vs0mg"},{"bike_id":"af106718-5533-468b-b311-34ef2267eaa9","system_id":"levelo_inurba_marseille","lat":43.295244,"lon":5.38534,"is_reserved":false,"is_disabled":false,"rental_uris":{"android":"levelo://app?vid=af106718-5533-468b-b311-34ef2267eaa9","ios":"levelo://app?vid=af106718-5533-468b-b311-34ef2267eaa9"},"vehicle_type_id":"4","last_reported":1739916539,"current_range_meters":16000,"station_id":"ce4bhm12rcd13ifvqgkg","pricing_plan_id":"cebpf4jnsgd1na2vs0mg"},{"bike_id":"80aa6cd4-0dd3-4884-b834-c43edd1568c3","system_id":"levelo_inurba_marseille","lat":43.28617,"lon":5.37077,"is_reserved":false,"is_disabled":false,"rental_uris":{"android":"levelo://app?vid=80aa6cd4-0dd3-4884-b834-c43edd1568c3","ios":"levelo://app?vid=80aa6cd4-0dd3-4884-b834-c43edd1568c3"},"vehicle_type_id":"4","last_reported":1739916539,"current_range_meters":16000,"station_id":"ce4bht12rcd13ifvqi60","pricing_plan_id":"cebpf4jnsgd1na2vs0mg"},{"bike_id":"a00fb5cd-e0d2-4f96-befb-5275c0df0c87","system_id":"levelo_inurba_marseille","lat":43.27987,"lon":5.41659,"is_reserved":false,"is_disabled":false,"rental_uris":{"android":"levelo://app?vid=a00fb5cd-e0d2-4f96-befb-5275c0df0c87","ios":"levelo://app?vid=a00fb5cd-e0d2-4f96-befb-5275c0df0c87"},"vehicle_type_id":"4","last_reported":1739916539,"current_range_meters":16000,"station_id":"ce4bho12rcd13ifvqh1g","pricing_plan_id":"cebpf4jnsgd1na2vs0mg"},{"bike_id":"2496f28f-529d-4b86-a9ef-00d9565268b8","system_id":"levelo_inurba_marseille","lat":43.29544,"lon":5.38568,"is_reserved":false,"is_disabled":false,"rental_uris":{"android":"levelo://app?vid=2496f28f-529d-4b86-a9ef-00d9565268b8","ios":"levelo://app?vid=2496f28f-529d-4b86-a9ef-00d9565268b8"},"vehicle_type_id":"4","last_reported":1739916539,"current_range_meters":16000,"station_id":"","pricing_plan_id":"cebpf4jnsgd1na2vs0mg"},{"bike_id":"8649791e-2902-4391-9163-244df2caea41","system_id":"levelo_inurba_marseille","lat":43.31074,"lon":5.38355,"is_reserved":false,"is_disabled":false,"rental_uris":{"android":"levelo://app?vid=8649791e-2902-4391-9163-244df2caea41","ios":"levelo://app?vid=8649791e-2902-4391-9163-244df2caea41"},"vehicle_type_id":"4","last_reported":1739916539,"current_range_meters":16000,"station_id":"","pricing_plan_id":"cebpf4jnsgd1na2vs0mg"},{"bike_id":"b8eb223f-7cac-4151-870f-5a7bedfc9bcf","system_id":"levelo_inurba_marseille","lat":43.28423,"lon":5.39194,"is_reserved":false,"is_disabled":false,"rental_uris":{"android":"levelo://app?vid=b8eb223f-7cac-4151-870f-5a7bedfc9bcf","ios":"levelo://app?vid=b8eb223f-7cac-4151-870f-5a7bedfc9bcf"},"vehicle_type_id":"4","last_reported":1739916539,"current_range_meters":16000,"station_id":"ce4bhoh2rcd13ifvqh5g","pricing_plan_id":"cebpf4jnsgd1na2vs0mg"},{"bike_id":"6a29d64c-59b3-4670-ab67-0513acac8ceb","system_id":"levelo_inurba_marseille","lat":43.2942,"lon":5.38631,"is_reserved":false,"is_disabled":false,"rental_uris":{"android":"levelo://app?vid=6a29d64c-59b3-4670-ab67-0513acac8ceb","ios":"levelo://app?vid=6a29d64c-59b3-4670-ab67-0513acac8ceb"},"vehicle_type_id":"4","last_reported":1739916539,"current_range_meters":16000,"station_id":"ce4bh2h2rcd13ifvqdh0","pricing_plan_id":"cebpf4jnsgd1na2vs0mg"},{"bike_id":"b25ee09c-17b4-4199-91ef-d04a8527f3dc","system_id":"levelo_inurba_marseille","lat":43.27814,"lon":5.40719,"is_reserved":false,"is_disabled":false,"rental_uris":{"android":"levelo://app?vid=b25ee09c-17b4-4199-91ef-d04a8527f3dc","ios":"levelo://app?vid=b25ee09c-17b4-4199-91ef-d04a8527f3dc"},"vehicle_type_id":"4","last_reported":1739916539,"current_range_meters":16000,"station_id":"ce4bhnh2rcd13ifvqgtg","pricing_plan_id":"cebpf4jnsgd1na2vs0mg"},{"bike_id":"c67fb496-8441-458a-af2d-8f07c087bdd0","system_id":"levelo_inurba_marseille","lat":43.24172,"lon":5.36426,"is_reserved":false,"is_disabled":true,"rental_uris":{"android":"levelo://app?vid=c67fb496-8441-458a-af2d-8f07c087bdd0","ios":"levelo://app?vid=c67fb496-8441-458a-af2d-8f07c087bdd0"},"vehicle_type_id":"4","last_reported":1739916539,"current_range_meters":16400,"station_id":"","pricing_plan_id":"cebpf4jnsgd1na2vs0mg"},{"bike_id":"db7f2d58-492d-4297-aa78-ce0ad99a0a74","system_id":"levelo_inurba_marseille","lat":43.27463,"lon":5.41054,"is_reserved":false,"is_disabled":false,"rental_uris":{"android":"levelo://app?vid=db7f2d58-492d-4297-aa78-ce0ad99a0a74","ios":"levelo://app?vid=db7f2d58-492d-4297-aa78-ce0ad99a0a74"},"vehicle_type_id":"4","last_reported":1739916539,"current_range_meters":16400,"station_id":"ce4bhb92rcd13ifvqen0","pricing_plan_id":"cebpf4jnsgd1na2vs0mg"},{"bike_id":"bcf6b806-d1f2-4c88-a526-2840365cb31d","system_id":"levelo_inurba_marseille","lat":43.31481,"lon":5.37304,"is_reserved":false,"is_disabled":false,"rental_uris":{"android":"levelo://app?vid=bcf6b806-d1f2-4c88-a526-2840365cb31d","ios":"levelo://app?vid=bcf6b806-d1f2-4c88-a526-2840365cb31d"},"vehicle_type_id":"4","last_reported":1739916539,"current_range_meters":12800,"station_id":"ce4bgt12rcd13ifvqcd0","pricing_plan_id":"cebpf4jnsgd1na2vs0mg"},{"bike_id":"59c06e16-2c1f-4444-a3f6-6a7b6c9c893e","system_id":"levelo_inurba_marseille","lat":43.30303,"lon":5.39199,"is_reserved":false,"is_disabled":true,"rental_uris":{"android":"levelo://app?vid=59c06e16-2c1f-4444-a3f6-6a7b6c9c893e","ios":"levelo://app?vid=59c06e16-2c1f-4444-a3f6-6a7b6c9c893e"},"vehicle_type_id":"4","last_reported":1739916539,"current_range_meters":16400,"station_id":"ce4bgkh2rcd13ifvqbk0","pricing_plan_id":"cebpf4jnsgd1na2vs0mg"},{"bike_id":"24dd12c1-4d8a-40c0-b521-a98d2d462c41","system_id":"levelo_inurba_marseille","lat":43.24173,"lon":5.36401,"is_reserved":false,"is_disabled":false,"rental_uris":{"android":"levelo://app?vid=24dd12c1-4d8a-40c0-b521-a98d2d462c41","ios":"levelo://app?vid=24dd12c1-4d8a-40c0-b521-a98d2d462c41"},"vehicle_type_id":"4","last_reported":1739916539,"current_range_meters":16400,"station_id":"","pricing_plan_id":"cebpf4jnsgd1na2vs0mg"},{"bike_id":"baf6d894-ad10-49a9-b91a-24f60ad956f7","system_id":"levelo_inurba_marseille","lat":43.28976,"lon":5.4268,"is_reserved":false,"is_disabled":false,"rental_uris":{"android":"levelo://app?vid=baf6d894-ad10-49a9-b91a-24f60ad956f7","ios":"levelo://app?vid=baf6d894-ad10-49a9-b91a-24f60ad956f7"},"vehicle_type_id":"4","last_reported":1739916539,"current_range_meters":16400,"station_id":"","pricing_plan_id":"cebpf4jnsgd1na2vs0mg"},{"bike_id":"5a53eb6b-200f-4ac0-8efb-be28f6b20f01","system_id":"levelo_inurba_marseille","lat":43.23964,"lon":5.36642,"is_reserved":false,"is_disabled":false,"rental_uris":{"android":"levelo://app?vid=5a53eb6b-200f-4ac0-8efb-be28f6b20f01","ios":"levelo://app?vid=5a53eb6b-200f-4ac0-8efb-be28f6b20f01"},"vehicle_type_id":"4","last_reported":1739916539,"current_range_meters":16400,"station_id":"","pricing_plan_id":"cebpf4jnsgd1na2vs0mg"},{"bike_id":"fc971b16-bef3-4b6d-813c-ffc8ffa48842","system_id":"levelo_inurba_marseille","lat":43.2841,"lon":5.34986,"is_reserved":false,"is_disabled":true,"rental_uris":{"android":"levelo://app?vid=fc971b16-bef3-4b6d-813c-ffc8ffa48842","ios":"levelo://app?vid=fc971b16-bef3-4b6d-813c-ffc8ffa48842"},"vehicle_type_id":"4","last_reported":1739916539,"current_range_meters":16400,"station_id":"","pricing_plan_id":"cebpf4jnsgd1na2vs0mg"},{"bike_id":"5c9b4c63-2dff-439c-b69e-adc67ce8ed5d","system_id":"levelo_inurba_marseille","lat":43.25099,"lon":5.40327,"is_reserved":false,"is_disabled":false,"rental_uris":{"android":"levelo://app?vid=5c9b4c63-2dff-439c-b69e-adc67ce8ed5d","ios":"levelo://app?vid=5c9b4c63-2dff-439c-b69e-adc67ce8ed5d"},"vehicle_type_id":"4","last_reported":1739916539,"current_range_meters":16400,"station_id":"ce4bhlh2rcd13ifvqgig","pricing_plan_id":"cebpf4jnsgd1na2vs0mg"},{"bike_id":"47f0921d-aa1d-4b4b-a868-e9e97a59a34c","system_id":"levelo_inurba_marseille","lat":43.29617,"lon":5.38129,"is_reserved":false,"is_disabled":true,"rental_uris":{"android":"levelo://app?vid=47f0921d-aa1d-4b4b-a868-e9e97a59a34c","ios":"levelo://app?vid=47f0921d-aa1d-4b4b-a868-e9e97a59a34c"},"vehicle_type_id":"4","last_reported":1739916539,"current_range_meters":16400,"station_id":"ce4bgl12rcd13ifvqbo0","pricing_plan_id":"cebpf4jnsgd1na2vs0mg"},{"bike_id":"a8c89a23-99a6-4794-9ee3-4e5c07f642a3","system_id":"levelo_inurba_marseille","lat":43.30201,"lon":5.39453,"is_reserved":false,"is_disabled":false,"rental_uris":{"android":"levelo://app?vid=a8c89a23-99a6-4794-9ee3-4e5c07f642a3","ios":"levelo://app?vid=a8c89a23-99a6-4794-9ee3-4e5c07f642a3"},"vehicle_type_id":"4","last_reported":1739916539,"current_range_meters":16400,"station_id":"","pricing_plan_id":"cebpf4jnsgd1na2vs0mg"},{"bike_id":"cd5efaf8-208d-4fcc-b822-6578198a6b6a","system_id":"levelo_inurba_marseille","lat":43.25006,"lon":5.38918,"is_reserved":false,"is_disabled":false,"rental_uris":{"android":"levelo://app?vid=cd5efaf8-208d-4fcc-b822-6578198a6b6a","ios":"levelo://app?vid=cd5efaf8-208d-4fcc-b822-6578198a6b6a"},"vehicle_type_id":"4","last_reported":1739916539,"current_range_meters":16400,"station_id":"ce4bhgp2rcd13ifvqfd0","pricing_plan_id":"cebpf4jnsgd1na2vs0mg"},{"bike_id":"b64778c2-2434-4409-b125-e965a1fd469a","system_id":"levelo_inurba_marseille","lat":43.30301,"lon":5.367,"is_reserved":false,"is_disabled":false,"rental_uris":{"android":"levelo://app?vid=b64778c2-2434-4409-b125-e965a1fd469a","ios":"levelo://app?vid=b64778c2-2434-4409-b125-e965a1fd469a"},"vehicle_type_id":"4","last_reported":1739916539,"current_range_meters":16400,"station_id":"ce4bgs12rcd13ifvqcag","pricing_plan_id":"cebpf4jnsgd1na2vs0mg"},{"bike_id":"1c43eb49-ea1b-41ce-946d-e5fe349433b9","system_id":"levelo_inurba_marseille","lat":43.27942,"lon":5.41039,"is_reserved":false,"is_disabled":false,"rental_uris":{"android":"levelo://app?vid=1c43eb49-ea1b-41ce-946d-e5fe349433b9","ios":"levelo://app?vid=1c43eb49-ea1b-41ce-946d-e5fe349433b9"},"vehicle_type_id":"4","last_reported":1739916539,"current_range_meters":16800,"station_id":"ce4bhnp2rcd13ifvqh0g","pricing_plan_id":"cebpf4jnsgd1na2vs0mg"},{"bike_id":"090d254b-7e06-4322-b664-ffb12aca0039","system_id":"levelo_inurba_marseille","lat":43.28437,"lon":5.35002,"is_reserved":false,"is_disabled":false,"rental_uris":{"android":"levelo://app?vid=090d254b-7e06-4322-b664-ffb12aca0039","ios":"levelo://app?vid=090d254b-7e06-4322-b664-ffb12aca0039"},"vehicle_type_id":"4","last_reported":1739916539,"current_range_meters":16800,"station_id":"ce4bhbh2rcd13ifvqepg","pricing_plan_id":"cebpf4jnsgd1na2vs0mg"},{"bike_id":"5bf48597-a71c-452b-987b-7a4d53313741","system_id":"levelo_inurba_marseille","lat":43.28708,"lon":5.39964,"is_reserved":false,"is_disabled":false,"rental_uris":{"android":"levelo://app?vid=5bf48597-a71c-452b-987b-7a4d53313741","ios":"levelo://app?vid=5bf48597-a71c-452b-987b-7a4d53313741"},"vehicle_type_id":"4","last_reported":1739916539,"current_range_meters":16800,"station_id":"ce4bho92rcd13ifvqh3g","pricing_plan_id":"cebpf4jnsgd1na2vs0mg"},{"bike_id":"9a20bf4a-2838-4260-9d28-debd745460c0","system_id":"levelo_inurba_marseille","lat":43.30871,"lon":5.37805,"is_reserved":false,"is_disabled":false,"rental_uris":{"android":"levelo://app?vid=9a20bf4a-2838-4260-9d28-debd745460c0","ios":"levelo://app?vid=9a20bf4a-2838-4260-9d28-debd745460c0"},"vehicle_type_id":"4","last_reported":1739916539,"current_range_meters":16800,"station_id":"ce4bgv92rcd13ifvqcq0","pricing_plan_id":"cebpf4jnsgd1na2vs0mg"},{"bike_id":"93682908-43c6-4032-8e45-6984dd069700","system_id":"levelo_inurba_marseille","lat":43.246508,"lon":5.388908,"is_reserved":false,"is_disabled":false,"rental_uris":{"android":"levelo://app?vid=93682908-43c6-4032-8e45-6984dd069700","ios":"levelo://app?vid=93682908-43c6-4032-8e45-6984dd069700"},"vehicle_type_id":"4","last_reported":1739916539,"current_range_meters":16800,"station_id":"ce4bhg12rcd13ifvqf60","pricing_plan_id":"cebpf4jnsgd1na2vs0mg"},{"bike_id":"5d5578c2-a2af-4336-8a20-d08d83d12092","system_id":"levelo_inurba_marseille","lat":43.2783,"lon":5.39214,"is_reserved":false,"is_disabled":false,"rental_uris":{"android":"levelo://app?vid=5d5578c2-a2af-4336-8a20-d08d83d12092","ios":"levelo://app?vid=5d5578c2-a2af-4336-8a20-d08d83d12092"},"vehicle_type_id":"4","last_reported":1739916539,"current_range_meters":16800,"station_id":"ce4bhjp2rcd13ifvqga0","pricing_plan_id":"cebpf4jnsgd1na2vs0mg"},{"bike_id":"b1cbe859-1f45-4d1a-94c7-eb23ca2149c9","system_id":"levelo_inurba_marseille","lat":43.30264,"lon":5.40082,"is_reserved":false,"is_disabled":false,"rental_uris":{"android":"levelo://app?vid=b1cbe859-1f45-4d1a-94c7-eb23ca2149c9","ios":"levelo://app?vid=b1cbe859-1f45-4d1a-94c7-eb23ca2149c9"},"vehicle_type_id":"4","last_reported":1739916539,"current_range_meters":19200,"station_id":"ce4bgvh2rcd13ifvqcs0","pricing_plan_id":"cebpf4jnsgd1na2vs0mg"},{"bike_id":"10187bb7-af82-432d-b2a8-de4260bb30be","system_id":"levelo_inurba_marseille","lat":43.29254,"lon":5.38442,"is_reserved":false,"is_disabled":false,"rental_uris":{"android":"levelo://app?vid=10187bb7-af82-432d-b2a8-de4260bb30be","ios":"levelo://app?vid=10187bb7-af82-432d-b2a8-de4260bb30be"},"vehicle_type_id":"4","last_reported":1739916539,"current_range_meters":16800,"station_id":"","pricing_plan_id":"cebpf4jnsgd1na2vs0mg"},{"bike_id":"9935677e-0262-4894-974f-fec1281c49ef","system_id":"levelo_inurba_marseille","lat":43.29523,"lon":5.39406,"is_reserved":false,"is_disabled":false,"rental_uris":{"android":"levelo://app?vid=9935677e-0262-4894-974f-fec1281c49ef","ios":"levelo://app?vid=9935677e-0262-4894-974f-fec1281c49ef"},"vehicle_type_id":"4","last_reported":1739916539,"current_range_meters":16800,"station_id":"ce4bh292rcd13ifvqdf0","pricing_plan_id":"cebpf4jnsgd1na2vs0mg"},{"bike_id":"422f950e-d245-4c7c-a1ea-6f2106c7b798","system_id":"levelo_inurba_marseille","lat":43.28613,"lon":5.37068,"is_reserved":false,"is_disabled":false,"rental_uris":{"android":"levelo://app?vid=422f950e-d245-4c7c-a1ea-6f2106c7b798","ios":"levelo://app?vid=422f950e-d245-4c7c-a1ea-6f2106c7b798"},"vehicle_type_id":"4","last_reported":1739916539,"current_range_meters":16800,"station_id":"ce4bht12rcd13ifvqi60","pricing_plan_id":"cebpf4jnsgd1na2vs0mg"},{"bike_id":"495b4304-c9b3-47f2-a172-35d2e3522097","system_id":"levelo_inurba_marseille","lat":43.2893,"lon":5.36627,"is_reserved":false,"is_disabled":false,"rental_uris":{"android":"levelo://app?vid=495b4304-c9b3-47f2-a172-35d2e3522097","ios":"levelo://app?vid=495b4304-c9b3-47f2-a172-35d2e3522097"},"vehicle_type_id":"4","last_reported":1739916539,"current_range_meters":16800,"station_id":"ce4bhap2rcd13ifvqek0","pricing_plan_id":"cebpf4jnsgd1na2vs0mg"},{"bike_id":"94eade8c-f8c9-4698-988c-d5e43f780057","system_id":"levelo_inurba_marseille","lat":43.31488,"lon":5.37315,"is_reserved":false,"is_disabled":false,"rental_uris":{"android":"levelo://app?vid=94eade8c-f8c9-4698-988c-d5e43f780057","ios":"levelo://app?vid=94eade8c-f8c9-4698-988c-d5e43f780057"},"vehicle_type_id":"4","last_reported":1739916539,"current_range_meters":16400,"station_id":"ce4bgt12rcd13ifvqcd0","pricing_plan_id":"cebpf4jnsgd1na2vs0mg"},{"bike_id":"ec82ab7e-7bfd-4902-af32-9a8ef38275a8","system_id":"levelo_inurba_marseille","lat":43.29535,"lon":5.3854,"is_reserved":false,"is_disabled":false,"rental_uris":{"android":"levelo://app?vid=ec82ab7e-7bfd-4902-af32-9a8ef38275a8","ios":"levelo://app?vid=ec82ab7e-7bfd-4902-af32-9a8ef38275a8"},"vehicle_type_id":"4","last_reported":1739916539,"current_range_meters":16800,"station_id":"","pricing_plan_id":"cebpf4jnsgd1na2vs0mg"},{"bike_id":"5180f318-4948-4085-aaf1-5f3160b57dbe","system_id":"levelo_inurba_marseille","lat":43.2762,"lon":5.36105,"is_reserved":false,"is_disabled":true,"rental_uris":{"android":"levelo://app?vid=5180f318-4948-4085-aaf1-5f3160b57dbe","ios":"levelo://app?vid=5180f318-4948-4085-aaf1-5f3160b57dbe"},"vehicle_type_id":"4","last_reported":1739916539,"current_range_meters":16800,"station_id":"ce4bgj92rcd13ifvqbe0","pricing_plan_id":"cebpf4jnsgd1na2vs0mg"},{"bike_id":"712b3527-737c-4555-bbb2-2952f0c5ba44","system_id":"levelo_inurba_marseille","lat":43.28026,"lon":5.36951,"is_reserved":false,"is_disabled":false,"rental_uris":{"android":"levelo://app?vid=712b3527-737c-4555-bbb2-2952f0c5ba44","ios":"levelo://app?vid=712b3527-737c-4555-bbb2-2952f0c5ba44"},"vehicle_type_id":"4","last_reported":1739916539,"current_range_meters":17200,"station_id":"ce4bha12rcd13ifvqef0","pricing_plan_id":"cebpf4jnsgd1na2vs0mg"},{"bike_id":"4c049e8c-dd47-4937-b343-0b8e81c04fa5","system_id":"levelo_inurba_marseille","lat":43.29535,"lon":5.38548,"is_reserved":false,"is_disabled":false,"rental_uris":{"android":"levelo://app?vid=4c049e8c-dd47-4937-b343-0b8e81c04fa5","ios":"levelo://app?vid=4c049e8c-dd47-4937-b343-0b8e81c04fa5"},"vehicle_type_id":"4","last_reported":1739916539,"current_range_meters":17200,"station_id":"ce4bgih2rcd13ifvqba0","pricing_plan_id":"cebpf4jnsgd1na2vs0mg"},{"bike_id":"f7502bfd-8bea-434d-9ea7-fa2a70769933","system_id":"levelo_inurba_marseille","lat":43.32053,"lon":5.41562,"is_reserved":false,"is_disabled":false,"rental_uris":{"android":"levelo://app?vid=f7502bfd-8bea-434d-9ea7-fa2a70769933","ios":"levelo://app?vid=f7502bfd-8bea-434d-9ea7-fa2a70769933"},"vehicle_type_id":"4","last_reported":1739916539,"current_range_meters":16800,"station_id":"ce4bhq92rcd13ifvqhkg","pricing_plan_id":"cebpf4jnsgd1na2vs0mg"},{"bike_id":"e3422978-e3d1-4168-a7a6-5ae7ec99e03f","system_id":"levelo_inurba_marseille","lat":43.2718,"lon":5.40994,"is_reserved":false,"is_disabled":false,"rental_uris":{"android":"levelo://app?vid=e3422978-e3d1-4168-a7a6-5ae7ec99e03f","ios":"levelo://app?vid=e3422978-e3d1-4168-a7a6-5ae7ec99e03f"},"vehicle_type_id":"4","last_reported":1739916539,"current_range_meters":17200,"station_id":"","pricing_plan_id":"cebpf4jnsgd1na2vs0mg"},{"bike_id":"bd14d312-2e14-49ec-8eda-7f9faf5d358b","system_id":"levelo_inurba_marseille","lat":43.3211,"lon":5.36766,"is_reserved":false,"is_disabled":false,"rental_uris":{"android":"levelo://app?vid=bd14d312-2e14-49ec-8eda-7f9faf5d358b","ios":"levelo://app?vid=bd14d312-2e14-49ec-8eda-7f9faf5d358b"},"vehicle_type_id":"4","last_reported":1739916539,"current_range_meters":17200,"station_id":"ce4bhrh2rcd13ifvqhug","pricing_plan_id":"cebpf4jnsgd1na2vs0mg"},{"bike_id":"5b80abf9-df02-44a7-b61b-dd0a85631c27","system_id":"levelo_inurba_marseille","lat":43.23963,"lon":5.36647,"is_reserved":false,"is_disabled":false,"rental_uris":{"android":"levelo://app?vid=5b80abf9-df02-44a7-b61b-dd0a85631c27","ios":"levelo://app?vid=5b80abf9-df02-44a7-b61b-dd0a85631c27"},"vehicle_type_id":"4","last_reported":1739916539,"current_range_meters":17200,"station_id":"","pricing_plan_id":"cebpf4jnsgd1na2vs0mg"},{"bike_id":"e8af6774-9853-4dcf-b2da-40728ab09614","system_id":"levelo_inurba_marseille","lat":43.28278,"lon":5.35078,"is_reserved":false,"is_disabled":false,"rental_uris":{"android":"levelo://app?vid=e8af6774-9853-4dcf-b2da-40728ab09614","ios":"levelo://app?vid=e8af6774-9853-4dcf-b2da-40728ab09614"},"vehicle_type_id":"4","last_reported":1739916539,"current_range_meters":17600,"station_id":"ce4bhbp2rcd13ifvqerg","pricing_plan_id":"cebpf4jnsgd1na2vs0mg"},{"bike_id":"5089bb88-a0cd-4434-a1a9-f3d5b67361c6","system_id":"levelo_inurba_marseille","lat":43.24377,"lon":5.38764,"is_reserved":false,"is_disabled":false,"rental_uris":{"android":"levelo://app?vid=5089bb88-a0cd-4434-a1a9-f3d5b67361c6","ios":"levelo://app?vid=5089bb88-a0cd-4434-a1a9-f3d5b67361c6"},"vehicle_type_id":"4","last_reported":1739916539,"current_range_meters":17600,"station_id":"","pricing_plan_id":"cebpf4jnsgd1na2vs0mg"},{"bike_id":"659813f7-fc3e-49b2-b743-3ceee2ae3dd9","system_id":"levelo_inurba_marseille","lat":43.231899,"lon":5.399854,"is_reserved":false,"is_disabled":false,"rental_uris":{"android":"levelo://app?vid=659813f7-fc3e-49b2-b743-3ceee2ae3dd9","ios":"levelo://app?vid=659813f7-fc3e-49b2-b743-3ceee2ae3dd9"},"vehicle_type_id":"4","last_reported":1739916539,"current_range_meters":17600,"station_id":"ce4bhn12rcd13ifvqgqg","pricing_plan_id":"cebpf4jnsgd1na2vs0mg"},{"bike_id":"33604822-0839-49e5-a64a-3e509bb43553","system_id":"levelo_inurba_marseille","lat":43.28189,"lon":5.42692,"is_reserved":false,"is_disabled":false,"rental_uris":{"android":"levelo://app?vid=33604822-0839-49e5-a64a-3e509bb43553","ios":"levelo://app?vid=33604822-0839-49e5-a64a-3e509bb43553"},"vehicle_type_id":"4","last_reported":1739916539,"current_range_meters":17600,"station_id":"ce4bhnh2rcd13ifvqgug","pricing_plan_id":"cebpf4jnsgd1na2vs0mg"},{"bike_id":"5ecd443d-db34-486a-b6f9-c8e67e540a70","system_id":"levelo_inurba_marseille","lat":43.28599,"lon":5.3508,"is_reserved":false,"is_disabled":false,"rental_uris":{"android":"levelo://app?vid=5ecd443d-db34-486a-b6f9-c8e67e540a70","ios":"levelo://app?vid=5ecd443d-db34-486a-b6f9-c8e67e540a70"},"vehicle_type_id":"4","last_reported":1739916539,"current_range_meters":17600,"station_id":"ce4bhch2rcd13ifvqeug","pricing_plan_id":"cebpf4jnsgd1na2vs0mg"},{"bike_id":"32738602-b17f-4e62-a23a-a98ea191ef69","system_id":"levelo_inurba_marseille","lat":43.29533,"lon":5.38546,"is_reserved":false,"is_disabled":false,"rental_uris":{"android":"levelo://app?vid=32738602-b17f-4e62-a23a-a98ea191ef69","ios":"levelo://app?vid=32738602-b17f-4e62-a23a-a98ea191ef69"},"vehicle_type_id":"4","last_reported":1739916539,"current_range_meters":17600,"station_id":"","pricing_plan_id":"cebpf4jnsgd1na2vs0mg"},{"bike_id":"05870f88-3b88-4731-867f-b6f8d5bc8150","system_id":"levelo_inurba_marseille","lat":43.29866,"lon":5.39749,"is_reserved":false,"is_disabled":false,"rental_uris":{"android":"levelo://app?vid=05870f88-3b88-4731-867f-b6f8d5bc8150","ios":"levelo://app?vid=05870f88-3b88-4731-867f-b6f8d5bc8150"},"vehicle_type_id":"4","last_reported":1739916539,"current_range_meters":17600,"station_id":"","pricing_plan_id":"cebpf4jnsgd1na2vs0mg"},{"bike_id":"21c97aee-504c-480f-84c7-11258b97f58a","system_id":"levelo_inurba_marseille","lat":43.28925,"lon":5.38395,"is_reserved":false,"is_disabled":false,"rental_uris":{"android":"levelo://app?vid=21c97aee-504c-480f-84c7-11258b97f58a","ios":"levelo://app?vid=21c97aee-504c-480f-84c7-11258b97f58a"},"vehicle_type_id":"4","last_reported":1739916539,"current_range_meters":17600,"station_id":"ce4bh612rcd13ifvqe6g","pricing_plan_id":"cebpf4jnsgd1na2vs0mg"},{"bike_id":"942572d4-f1f4-4d01-b81b-0524fbeb3e9d","system_id":"levelo_inurba_marseille","lat":43.24806,"lon":5.37464,"is_reserved":false,"is_disabled":false,"rental_uris":{"android":"levelo://app?vid=942572d4-f1f4-4d01-b81b-0524fbeb3e9d","ios":"levelo://app?vid=942572d4-f1f4-4d01-b81b-0524fbeb3e9d"},"vehicle_type_id":"4","last_reported":1739916539,"current_range_meters":17600,"station_id":"","pricing_plan_id":"cebpf4jnsgd1na2vs0mg"},{"bike_id":"ee318ccd-c697-43a6-bafd-c758274e6962","system_id":"levelo_inurba_marseille","lat":43.30327,"lon":5.40112,"is_reserved":false,"is_disabled":false,"rental_uris":{"android":"levelo://app?vid=ee318ccd-c697-43a6-bafd-c758274e6962","ios":"levelo://app?vid=ee318ccd-c697-43a6-bafd-c758274e6962"},"vehicle_type_id":"4","last_reported":1739916539,"current_range_meters":17600,"station_id":"","pricing_plan_id":"cebpf4jnsgd1na2vs0mg"},{"bike_id":"b85644ed-f65a-4039-a397-da921e97276e","system_id":"levelo_inurba_marseille","lat":43.23958,"lon":5.36646,"is_reserved":false,"is_disabled":false,"rental_uris":{"android":"levelo://app?vid=b85644ed-f65a-4039-a397-da921e97276e","ios":"levelo://app?vid=b85644ed-f65a-4039-a397-da921e97276e"},"vehicle_type_id":"4","last_reported":1739916539,"current_range_meters":18000,"station_id":"ce4bhi12rcd13ifvqfp0","pricing_plan_id":"cebpf4jnsgd1na2vs0mg"},{"bike_id":"5f9ede52-c720-4107-a864-980fb2608395","system_id":"levelo_inurba_marseille","lat":43.24069,"lon":5.38674,"is_reserved":false,"is_disabled":false,"rental_uris":{"android":"levelo://app?vid=5f9ede52-c720-4107-a864-980fb2608395","ios":"levelo://app?vid=5f9ede52-c720-4107-a864-980fb2608395"},"vehicle_type_id":"4","last_reported":1739916539,"current_range_meters":18000,"station_id":"","pricing_plan_id":"cebpf4jnsgd1na2vs0mg"},{"bike_id":"511a1fc5-2507-4444-ba14-462e08fc6db9","system_id":"levelo_inurba_marseille","lat":43.28355,"lon":5.3811,"is_reserved":false,"is_disabled":false,"rental_uris":{"android":"levelo://app?vid=511a1fc5-2507-4444-ba14-462e08fc6db9","ios":"levelo://app?vid=511a1fc5-2507-4444-ba14-462e08fc6db9"},"vehicle_type_id":"4","last_reported":1739916539,"current_range_meters":17200,"station_id":"ce4bh412rcd13ifvqdr0","pricing_plan_id":"cebpf4jnsgd1na2vs0mg"},{"bike_id":"a0af3547-0f5a-4ee7-a39d-23ed992db956","system_id":"levelo_inurba_marseille","lat":43.23418,"lon":5.40452,"is_reserved":false,"is_disabled":false,"rental_uris":{"android":"levelo://app?vid=a0af3547-0f5a-4ee7-a39d-23ed992db956","ios":"levelo://app?vid=a0af3547-0f5a-4ee7-a39d-23ed992db956"},"vehicle_type_id":"4","last_reported":1739916539,"current_range_meters":18000,"station_id":"","pricing_plan_id":"cebpf4jnsgd1na2vs0mg"},{"bike_id":"e215a793-b581-4982-bdf8-ff0f3e26ede5","system_id":"levelo_inurba_marseille","lat":43.292563,"lon":5.384418,"is_reserved":false,"is_disabled":false,"rental_uris":{"android":"levelo://app?vid=e215a793-b581-4982-bdf8-ff0f3e26ede5","ios":"levelo://app?vid=e215a793-b581-4982-bdf8-ff0f3e26ede5"},"vehicle_type_id":"4","last_reported":1739916539,"current_range_meters":17600,"station_id":"ce4bh692rcd13ifvqea0","pricing_plan_id":"cebpf4jnsgd1na2vs0mg"},{"bike_id":"7e3809a0-01e4-4f37-9275-3c7b0fd64ef4","system_id":"levelo_inurba_marseille","lat":43.27918,"lon":5.39602,"is_reserved":false,"is_disabled":false,"rental_uris":{"android":"levelo://app?vid=7e3809a0-01e4-4f37-9275-3c7b0fd64ef4","ios":"levelo://app?vid=7e3809a0-01e4-4f37-9275-3c7b0fd64ef4"},"vehicle_type_id":"4","last_reported":1739916539,"current_range_meters":18000,"station_id":"ce4bhf92rcd13ifvqf40","pricing_plan_id":"cebpf4jnsgd1na2vs0mg"},{"bike_id":"ffa697b7-285b-4519-acbd-7c152b9e76d0","system_id":"levelo_inurba_marseille","lat":43.28711,"lon":5.36098,"is_reserved":false,"is_disabled":false,"rental_uris":{"android":"levelo://app?vid=ffa697b7-285b-4519-acbd-7c152b9e76d0","ios":"levelo://app?vid=ffa697b7-285b-4519-acbd-7c152b9e76d0"},"vehicle_type_id":"4","last_reported":1739916539,"current_range_meters":18000,"station_id":"cki0cbj6b192h4jlfktg","pricing_plan_id":"cebpf4jnsgd1na2vs0mg"},{"bike_id":"b9733126-3c3f-4c59-bad9-f580c8a42f02","system_id":"levelo_inurba_marseille","lat":43.23195,"lon":5.39988,"is_reserved":false,"is_disabled":false,"rental_uris":{"android":"levelo://app?vid=b9733126-3c3f-4c59-bad9-f580c8a42f02","ios":"levelo://app?vid=b9733126-3c3f-4c59-bad9-f580c8a42f02"},"vehicle_type_id":"4","last_reported":1739916539,"current_range_meters":18000,"station_id":"ce4bhn12rcd13ifvqgqg","pricing_plan_id":"cebpf4jnsgd1na2vs0mg"},{"bike_id":"af246186-84c5-47ac-9840-acf8926725e0","system_id":"levelo_inurba_marseille","lat":43.23959,"lon":5.36662,"is_reserved":false,"is_disabled":false,"rental_uris":{"android":"levelo://app?vid=af246186-84c5-47ac-9840-acf8926725e0","ios":"levelo://app?vid=af246186-84c5-47ac-9840-acf8926725e0"},"vehicle_type_id":"4","last_reported":1739916539,"current_range_meters":18000,"station_id":"","pricing_plan_id":"cebpf4jnsgd1na2vs0mg"},{"bike_id":"e13d1d57-553f-4505-996a-b1ff7131a4b4","system_id":"levelo_inurba_marseille","lat":43.28699,"lon":5.39992,"is_reserved":false,"is_disabled":false,"rental_uris":{"android":"levelo://app?vid=e13d1d57-553f-4505-996a-b1ff7131a4b4","ios":"levelo://app?vid=e13d1d57-553f-4505-996a-b1ff7131a4b4"},"vehicle_type_id":"4","last_reported":1739916539,"current_range_meters":18000,"station_id":"","pricing_plan_id":"cebpf4jnsgd1na2vs0mg"},{"bike_id":"ec5814cc-8b7e-4d45-b2f0-e8a2b9b37adc","system_id":"levelo_inurba_marseille","lat":43.28128,"lon":5.42631,"is_reserved":false,"is_disabled":false,"rental_uris":{"android":"levelo://app?vid=ec5814cc-8b7e-4d45-b2f0-e8a2b9b37adc","ios":"levelo://app?vid=ec5814cc-8b7e-4d45-b2f0-e8a2b9b37adc"},"vehicle_type_id":"4","last_reported":1739916539,"current_range_meters":18000,"station_id":"ce4bhnh2rcd13ifvqgug","pricing_plan_id":"cebpf4jnsgd1na2vs0mg"},{"bike_id":"f7db23b2-4c03-4c27-a486-c3e2483540b0","system_id":"levelo_inurba_marseille","lat":43.28729,"lon":5.36093,"is_reserved":false,"is_disabled":false,"rental_uris":{"android":"levelo://app?vid=f7db23b2-4c03-4c27-a486-c3e2483540b0","ios":"levelo://app?vid=f7db23b2-4c03-4c27-a486-c3e2483540b0"},"vehicle_type_id":"4","last_reported":1739916539,"current_range_meters":18000,"station_id":"cki0cbj6b192h4jlfktg","pricing_plan_id":"cebpf4jnsgd1na2vs0mg"},{"bike_id":"7a8f9ca6-11e0-4ff0-ae28-18de920f43ce","system_id":"levelo_inurba_marseille","lat":43.29522,"lon":5.38522,"is_reserved":false,"is_disabled":false,"rental_uris":{"android":"levelo://app?vid=7a8f9ca6-11e0-4ff0-ae28-18de920f43ce","ios":"levelo://app?vid=7a8f9ca6-11e0-4ff0-ae28-18de920f43ce"},"vehicle_type_id":"4","last_reported":1739916539,"current_range_meters":18000,"station_id":"","pricing_plan_id":"cebpf4jnsgd1na2vs0mg"},{"bike_id":"e46c179c-969e-4fe6-8b83-52017debaf62","system_id":"levelo_inurba_marseille","lat":43.27926,"lon":5.39593,"is_reserved":false,"is_disabled":false,"rental_uris":{"android":"levelo://app?vid=e46c179c-969e-4fe6-8b83-52017debaf62","ios":"levelo://app?vid=e46c179c-969e-4fe6-8b83-52017debaf62"},"vehicle_type_id":"4","last_reported":1739916539,"current_range_meters":18000,"station_id":"ce4bhf92rcd13ifvqf40","pricing_plan_id":"cebpf4jnsgd1na2vs0mg"},{"bike_id":"53cc3e09-8226-4f83-9e42-b5b81a54d618","system_id":"levelo_inurba_marseille","lat":43.28875,"lon":5.35867,"is_reserved":false,"is_disabled":false,"rental_uris":{"android":"levelo://app?vid=53cc3e09-8226-4f83-9e42-b5b81a54d618","ios":"levelo://app?vid=53cc3e09-8226-4f83-9e42-b5b81a54d618"},"vehicle_type_id":"4","last_reported":1739916539,"current_range_meters":18000,"station_id":"ce4bhdp2rcd13ifvqf20","pricing_plan_id":"cebpf4jnsgd1na2vs0mg"},{"bike_id":"92976659-85fd-47c2-b762-4263c63c96d3","system_id":"levelo_inurba_marseille","lat":43.30103,"lon":5.39079,"is_reserved":false,"is_disabled":false,"rental_uris":{"android":"levelo://app?vid=92976659-85fd-47c2-b762-4263c63c96d3","ios":"levelo://app?vid=92976659-85fd-47c2-b762-4263c63c96d3"},"vehicle_type_id":"4","last_reported":1739916539,"current_range_meters":18800,"station_id":"ce4bh192rcd13ifvqdb0","pricing_plan_id":"cebpf4jnsgd1na2vs0mg"},{"bike_id":"5428c4a6-2268-45c5-aff9-a5f8e308d92b","system_id":"levelo_inurba_marseille","lat":43.30931,"lon":5.37306,"is_reserved":false,"is_disabled":false,"rental_uris":{"android":"levelo://app?vid=5428c4a6-2268-45c5-aff9-a5f8e308d92b","ios":"levelo://app?vid=5428c4a6-2268-45c5-aff9-a5f8e308d92b"},"vehicle_type_id":"4","last_reported":1739916539,"current_range_meters":19200,"station_id":"ce4bguh2rcd13ifvqckg","pricing_plan_id":"cebpf4jnsgd1na2vs0mg"},{"bike_id":"0b1a3b32-459a-4ff9-a388-d16482304482","system_id":"levelo_inurba_marseille","lat":43.2799,"lon":5.40012,"is_reserved":false,"is_disabled":true,"rental_uris":{"android":"levelo://app?vid=0b1a3b32-459a-4ff9-a388-d16482304482","ios":"levelo://app?vid=0b1a3b32-459a-4ff9-a388-d16482304482"},"vehicle_type_id":"4","last_reported":1739916539,"current_range_meters":19200,"station_id":"","pricing_plan_id":"cebpf4jnsgd1na2vs0mg"},{"bike_id":"25463790-041d-4228-abe8-4cb0481d16fb","system_id":"levelo_inurba_marseille","lat":43.28696,"lon":5.39988,"is_reserved":false,"is_disabled":false,"rental_uris":{"android":"levelo://app?vid=25463790-041d-4228-abe8-4cb0481d16fb","ios":"levelo://app?vid=25463790-041d-4228-abe8-4cb0481d16fb"},"vehicle_type_id":"4","last_reported":1739916539,"current_range_meters":19200,"station_id":"","pricing_plan_id":"cebpf4jnsgd1na2vs0mg"},{"bike_id":"ecbd6e29-5b86-41d0-a4bd-3518ee3bab53","system_id":"levelo_inurba_marseille","lat":43.24635,"lon":5.38907,"is_reserved":false,"is_disabled":false,"rental_uris":{"android":"levelo://app?vid=ecbd6e29-5b86-41d0-a4bd-3518ee3bab53","ios":"levelo://app?vid=ecbd6e29-5b86-41d0-a4bd-3518ee3bab53"},"vehicle_type_id":"4","last_reported":1739916539,"current_range_meters":19200,"station_id":"ce4bhg12rcd13ifvqf60","pricing_plan_id":"cebpf4jnsgd1na2vs0mg"},{"bike_id":"ad359680-270a-4809-a6be-cc0bca8cc2fb","system_id":"levelo_inurba_marseille","lat":43.23189,"lon":5.39984,"is_reserved":false,"is_disabled":false,"rental_uris":{"android":"levelo://app?vid=ad359680-270a-4809-a6be-cc0bca8cc2fb","ios":"levelo://app?vid=ad359680-270a-4809-a6be-cc0bca8cc2fb"},"vehicle_type_id":"4","last_reported":1739916539,"current_range_meters":19200,"station_id":"ce4bhn12rcd13ifvqgqg","pricing_plan_id":"cebpf4jnsgd1na2vs0mg"},{"bike_id":"b6c48bd6-2b12-44c9-b2cf-db7866bbd8bf","system_id":"levelo_inurba_marseille","lat":43.28448,"lon":5.35891,"is_reserved":false,"is_disabled":false,"rental_uris":{"android":"levelo://app?vid=b6c48bd6-2b12-44c9-b2cf-db7866bbd8bf","ios":"levelo://app?vid=b6c48bd6-2b12-44c9-b2cf-db7866bbd8bf"},"vehicle_type_id":"4","last_reported":1739916539,"current_range_meters":19200,"station_id":"ce4bhah2rcd13ifvqei0","pricing_plan_id":"cebpf4jnsgd1na2vs0mg"},{"bike_id":"e5e2ed65-0a50-46fd-af77-1264dac67336","system_id":"levelo_inurba_marseille","lat":43.24157,"lon":5.36416,"is_reserved":false,"is_disabled":false,"rental_uris":{"android":"levelo://app?vid=e5e2ed65-0a50-46fd-af77-1264dac67336","ios":"levelo://app?vid=e5e2ed65-0a50-46fd-af77-1264dac67336"},"vehicle_type_id":"4","last_reported":1739916539,"current_range_meters":19200,"station_id":"","pricing_plan_id":"cebpf4jnsgd1na2vs0mg"},{"bike_id":"ed0a7614-7380-46a3-854b-f819ee7a1b79","system_id":"levelo_inurba_marseille","lat":43.2866,"lon":5.36357,"is_reserved":false,"is_disabled":false,"rental_uris":{"android":"levelo://app?vid=ed0a7614-7380-46a3-854b-f819ee7a1b79","ios":"levelo://app?vid=ed0a7614-7380-46a3-854b-f819ee7a1b79"},"vehicle_type_id":"4","last_reported":1739916539,"current_range_meters":19200,"station_id":"ce4bhah2rcd13ifvqej0","pricing_plan_id":"cebpf4jnsgd1na2vs0mg"},{"bike_id":"4df47e88-41bc-4b68-b0d1-97f3b41c726a","system_id":"levelo_inurba_marseille","lat":43.30114,"lon":5.39863,"is_reserved":false,"is_disabled":true,"rental_uris":{"android":"levelo://app?vid=4df47e88-41bc-4b68-b0d1-97f3b41c726a","ios":"levelo://app?vid=4df47e88-41bc-4b68-b0d1-97f3b41c726a"},"vehicle_type_id":"4","last_reported":1739916539,"current_range_meters":19200,"station_id":"ce4bh0h2rcd13ifvqd40","pricing_plan_id":"cebpf4jnsgd1na2vs0mg"},{"bike_id":"530e1f32-df4c-4fa6-a604-a93fa1550392","system_id":"levelo_inurba_marseille","lat":43.29615,"lon":5.38051,"is_reserved":false,"is_disabled":false,"rental_uris":{"android":"levelo://app?vid=530e1f32-df4c-4fa6-a604-a93fa1550392","ios":"levelo://app?vid=530e1f32-df4c-4fa6-a604-a93fa1550392"},"vehicle_type_id":"4","last_reported":1739916539,"current_range_meters":19200,"station_id":"","pricing_plan_id":"cebpf4jnsgd1na2vs0mg"},{"bike_id":"ca8b528a-7731-4b3c-8fb1-7e3556ed10d0","system_id":"levelo_inurba_marseille","lat":43.25023,"lon":5.38927,"is_reserved":false,"is_disabled":false,"rental_uris":{"android":"levelo://app?vid=ca8b528a-7731-4b3c-8fb1-7e3556ed10d0","ios":"levelo://app?vid=ca8b528a-7731-4b3c-8fb1-7e3556ed10d0"},"vehicle_type_id":"4","last_reported":1739916539,"current_range_meters":19200,"station_id":"ce4bhgp2rcd13ifvqfd0","pricing_plan_id":"cebpf4jnsgd1na2vs0mg"},{"bike_id":"bb3be691-f0be-4096-8eea-552dbe72c2b3","system_id":"levelo_inurba_marseille","lat":43.2862,"lon":5.35103,"is_reserved":false,"is_disabled":false,"rental_uris":{"android":"levelo://app?vid=bb3be691-f0be-4096-8eea-552dbe72c2b3","ios":"levelo://app?vid=bb3be691-f0be-4096-8eea-552dbe72c2b3"},"vehicle_type_id":"4","last_reported":1739916539,"current_range_meters":19200,"station_id":"ce4bhch2rcd13ifvqeug","pricing_plan_id":"cebpf4jnsgd1na2vs0mg"},{"bike_id":"41b1f5b8-75f3-4ec6-8344-959b9791673e","system_id":"levelo_inurba_marseille","lat":43.2318,"lon":5.39999,"is_reserved":false,"is_disabled":false,"rental_uris":{"android":"levelo://app?vid=41b1f5b8-75f3-4ec6-8344-959b9791673e","ios":"levelo://app?vid=41b1f5b8-75f3-4ec6-8344-959b9791673e"},"vehicle_type_id":"4","last_reported":1739916539,"current_range_meters":19600,"station_id":"ce4bhn12rcd13ifvqgqg","pricing_plan_id":"cebpf4jnsgd1na2vs0mg"},{"bike_id":"42e2bd54-1a48-406e-b37b-2c2f8e97f788","system_id":"levelo_inurba_marseille","lat":43.25575,"lon":5.38247,"is_reserved":false,"is_disabled":false,"rental_uris":{"android":"levelo://app?vid=42e2bd54-1a48-406e-b37b-2c2f8e97f788","ios":"levelo://app?vid=42e2bd54-1a48-406e-b37b-2c2f8e97f788"},"vehicle_type_id":"4","last_reported":1739916539,"current_range_meters":19600,"station_id":"ce4bhih2rcd13ifvqfs0","pricing_plan_id":"cebpf4jnsgd1na2vs0mg"},{"bike_id":"d2ebe9e9-0e91-4596-9593-66367cd0223f","system_id":"levelo_inurba_marseille","lat":43.29597,"lon":5.38093,"is_reserved":false,"is_disabled":false,"rental_uris":{"android":"levelo://app?vid=d2ebe9e9-0e91-4596-9593-66367cd0223f","ios":"levelo://app?vid=d2ebe9e9-0e91-4596-9593-66367cd0223f"},"vehicle_type_id":"4","last_reported":1739916539,"current_range_meters":19600,"station_id":"","pricing_plan_id":"cebpf4jnsgd1na2vs0mg"},{"bike_id":"ffe9eab2-d4dc-4453-a33d-12df5bd7df9c","system_id":"levelo_inurba_marseille","lat":43.28181,"lon":5.42674,"is_reserved":false,"is_disabled":false,"rental_uris":{"android":"levelo://app?vid=ffe9eab2-d4dc-4453-a33d-12df5bd7df9c","ios":"levelo://app?vid=ffe9eab2-d4dc-4453-a33d-12df5bd7df9c"},"vehicle_type_id":"4","last_reported":1739916539,"current_range_meters":19600,"station_id":"ce4bhnh2rcd13ifvqgug","pricing_plan_id":"cebpf4jnsgd1na2vs0mg"},{"bike_id":"94ce4c1f-b676-43e1-9e28-ed9f6f6c8e2b","system_id":"levelo_inurba_marseille","lat":43.23625,"lon":5.39154,"is_reserved":false,"is_disabled":false,"rental_uris":{"android":"levelo://app?vid=94ce4c1f-b676-43e1-9e28-ed9f6f6c8e2b","ios":"levelo://app?vid=94ce4c1f-b676-43e1-9e28-ed9f6f6c8e2b"},"vehicle_type_id":"4","last_reported":1739916539,"current_range_meters":19600,"station_id":"","pricing_plan_id":"cebpf4jnsgd1na2vs0mg"},{"bike_id":"6c695163-13d1-4682-b513-311ea8d75027","system_id":"levelo_inurba_marseille","lat":43.30862,"lon":5.37421,"is_reserved":false,"is_disabled":false,"rental_uris":{"android":"levelo://app?vid=6c695163-13d1-4682-b513-311ea8d75027","ios":"levelo://app?vid=6c695163-13d1-4682-b513-311ea8d75027"},"vehicle_type_id":"4","last_reported":1739916539,"current_range_meters":19600,"station_id":"ce4bgs12rcd13ifvqcag","pricing_plan_id":"cebpf4jnsgd1na2vs0mg"},{"bike_id":"14079f7d-8e23-4c1f-bbfd-c149bacc30d3","system_id":"levelo_inurba_marseille","lat":43.27495,"lon":5.42464,"is_reserved":false,"is_disabled":false,"rental_uris":{"android":"levelo://app?vid=14079f7d-8e23-4c1f-bbfd-c149bacc30d3","ios":"levelo://app?vid=14079f7d-8e23-4c1f-bbfd-c149bacc30d3"},"vehicle_type_id":"4","last_reported":1739916539,"current_range_meters":19600,"station_id":"ce4bhn92rcd13ifvqgrg","pricing_plan_id":"cebpf4jnsgd1na2vs0mg"},{"bike_id":"bd7560e7-fb92-4ab4-8a29-1479e62c4249","system_id":"levelo_inurba_marseille","lat":43.28352,"lon":5.38114,"is_reserved":false,"is_disabled":false,"rental_uris":{"android":"levelo://app?vid=bd7560e7-fb92-4ab4-8a29-1479e62c4249","ios":"levelo://app?vid=bd7560e7-fb92-4ab4-8a29-1479e62c4249"},"vehicle_type_id":"4","last_reported":1739916539,"current_range_meters":19600,"station_id":"ce4bh412rcd13ifvqdr0","pricing_plan_id":"cebpf4jnsgd1na2vs0mg"},{"bike_id":"dba39cfc-3254-45c5-98fa-7b9e9d384114","system_id":"levelo_inurba_marseille","lat":43.30133,"lon":5.38791,"is_reserved":false,"is_disabled":false,"rental_uris":{"android":"levelo://app?vid=dba39cfc-3254-45c5-98fa-7b9e9d384114","ios":"levelo://app?vid=dba39cfc-3254-45c5-98fa-7b9e9d384114"},"vehicle_type_id":"4","last_reported":1739916539,"current_range_meters":20000,"station_id":"ce4bghh2rcd13ifvqb60","pricing_plan_id":"cebpf4jnsgd1na2vs0mg"},{"bike_id":"02eca2a3-2b2b-440c-ac45-c5a0bf317715","system_id":"levelo_inurba_marseille","lat":43.28704,"lon":5.374,"is_reserved":false,"is_disabled":false,"rental_uris":{"android":"levelo://app?vid=02eca2a3-2b2b-440c-ac45-c5a0bf317715","ios":"levelo://app?vid=02eca2a3-2b2b-440c-ac45-c5a0bf317715"},"vehicle_type_id":"4","last_reported":1739916539,"current_range_meters":19600,"station_id":"ce4bh3p2rcd13ifvqdq0","pricing_plan_id":"cebpf4jnsgd1na2vs0mg"},{"bike_id":"d5e8e1ef-42ea-44e6-b804-06519d4613ee","system_id":"levelo_inurba_marseille","lat":43.28709,"lon":5.37391,"is_reserved":false,"is_disabled":false,"rental_uris":{"android":"levelo://app?vid=d5e8e1ef-42ea-44e6-b804-06519d4613ee","ios":"levelo://app?vid=d5e8e1ef-42ea-44e6-b804-06519d4613ee"},