{"last_updated":1702739157,"ttl":30,"version":"2.2","data":{"bikes":[{"bike_id":"3f8b821f-e430-4a35-bf14-f8b6e777ea11","system_id":"levelo_inurba_marseille","lat":43.313939,"lon":5.375306,"is_reserved":false,"is_disabled":false,"rental_uris":{"android":"levelo://app?vid=3f8b821f-e430-4a35-bf14-f8b6e777ea11","ios":"levelo://app?vid=3f8b821f-e430-4a35-bf14-f8b6e777ea11"},"vehicle_type_id":"4","last_reported":1702739157,"current_range_meters":0,"station_id":"","pricing_plan_id":"free"},{"bike_id":"87b66b1b-d504-4c00-aeb1-791570313e6a","system_id":"levelo_inurba_marseille","lat":43.30538,"lon":5.36715,"is_reserved":false,"is_disabled":false,"rental_uris":{"android":"levelo://app?vid=87b66b1b-d504-4c00-aeb1-791570313e6a","ios":"levelo://app?vid=87b66b1b-d504-4c00-aeb1-791570313e6a"},"vehicle_type_id":"4","last_reported":1702739157,"current_range_meters":10000,"station_id":"ce4bgrp2rcd13ifvqc9g","pricing_plan_id":"free"},{"bike_id":"955e4ab2-16e5-44e8-a986-a2f50ff96c06","system_id":"levelo_inurba_marseille","lat":43.305382,"lon":5.365389,"is_reserved":false,"is_disabled":false,"rental_uris":{"android":"levelo://app?vid=955e4ab2-16e5-44e8-a986-a2f50ff96c06","ios":"levelo://app?vid=955e4ab2-16e5-44e8-a986-a2f50ff96c06"},"vehicle_type_id":"4","last_reported":1702739157,"current_range_meters":15200,"station_id":"","pricing_plan_id":"free"},{"bike_id":"8ca06f85-0a67-4f2f-b47b-6329136aa613","system_id":"levelo_inurba_marseille","lat":43.317075,"lon":5.377367,"is_reserved":false,"is_disabled":false,"rental_uris":{"android":"levelo://app?vid=8ca06f85-0a67-4f2f-b47b-6329136aa613","ios":"levelo://app?vid=8ca06f85-0a67-4f2f-b47b-6329136aa613"},"vehicle_type_id":"4","last_reported":1702739157,"current_range_meters":29200,"station_id":"ce4bgth2rcd13ifvqch0","pricing_plan_id":"free"},{"bike_id":"b2ca7211-3520-4798-8d2a-270064a15e13","system_id":"levelo_inurba_marseille","lat":43.303046,"lon":5.368981,"is_reserved":false,"is_disabled":false,"rental_uris":{"android":"levelo://app?vid=b2ca7211-3520-4798-8d2a-270064a15e13","ios":"levelo://app?vid=b2ca7211-3520-4798-8d2a-270064a15e13"},"vehicle_type_id":"4","last_reported":1702739157,"current_range_meters":9200,"station_id":"ce4bgqh2rcd13ifvqc5g","pricing_plan_id":"free"},{"bike_id":"676a0b32-2254-4e1c-a5ee-9854d40cc2a2","system_id":"levelo_inurba_marseille","lat":43.304606,"lon":5.379026,"is_reserved":false,"is_disabled":false,"rental_uris":{"android":"levelo://app?vid=676a0b32-2254-4e1c-a5ee-9854d40cc2a2","ios":"levelo://app?vid=676a0b32-2254-4e1c-a5ee-9854d40cc2a2"},"vehicle_type_id":"4","last_reported":1702739157,"current_range_meters":4800,"station_id":"ce4bgup2rcd13ifvqcn0","pricing_plan_id":"free"},{"bike_id":"dfe62985-6f65-471f-8bdb-4e96693a7937","system_id":"levelo_inurba_marseille","lat":43.324784,"lon":5.365768,"is_reserved":false,"is_disabled":false,"rental_uris":{"android":"levelo://app?vid=dfe62985-6f65-471f-8bdb-4e96693a7937","ios":"levelo://app?vid=dfe62985-6f65-471f-8bdb-4e96693a7937"},"vehicle_type_id":"4","last_reported":1702739157,"current_range_meters":18000,"station_id":"ce4bhs12rcd13ifvqhvg","pricing_plan_id":"free"},{"bike_id":"f1cde3ff-6cd4-4e86-99bc-06e7a73fc0a0","system_id":"levelo_inurba_marseille","lat":43.324771,"lon":5.36557,"is_reserved":false,"is_disabled":false,"rental_uris":{"android":"levelo://app?vid=f1cde3ff-6cd4-4e86-99bc-06e7a73fc0a0","ios":"levelo://app?vid=f1cde3ff-6cd4-4e86-99bc-06e7a73fc0a0"},"vehicle_type_id":"4","last_reported":1702739157,"current_range_meters":16800,"station_id":"ce4bhs12rcd13ifvqhvg","pricing_plan_id":"free"},{"bike_id":"88f7ea2a-62f7-4a88-9e9d-900940b4d7e5","system_id":"levelo_inurba_marseille","lat":43.324771,"lon":5.36557,"is_reserved":false,"is_disabled":false,"rental_uris":{"android":"levelo://app?vid=88f7ea2a-62f7-4a88-9e9d-900940b4d7e5","ios":"levelo://app?vid=88f7ea2a-62f7-4a88-9e9d-900940b4d7e5"},"vehicle_type_id":"4","last_reported":1702739157,"current_range_meters":15200,"station_id":"ce4bhs12rcd13ifvqhvg","pricing_plan_id":"free"},{"bike_id":"261c2922-94e2-4345-9ad6-7701739921bb","system_id":"levelo_inurba_marseille","lat":43.30143,"lon":5.37413,"is_reserved":false,"is_disabled":false,"rental_uris":{"android":"levelo://app?vid=261c2922-94e2-4345-9ad6-7701739921bb","ios":"levelo://app?vid=261c2922-94e2-4345-9ad6-7701739921bb"},"vehicle_type_id":"4","last_reported":1702739157,"current_range_meters":15600,"station_id":"ce4bgs92rcd13ifvqcc0","pricing_plan_id":"free"},{"bike_id":"42b6b205-cfe9-42b7-ab48-8c3b3937c165","system_id":"levelo_inurba_marseille","lat":43.301429,"lon":5.37413,"is_reserved":false,"is_disabled":false,"rental_uris":{"android":"levelo://app?vid=42b6b205-cfe9-42b7-ab48-8c3b3937c165","ios":"levelo://app?vid=42b6b205-cfe9-42b7-ab48-8c3b3937c165"},"vehicle_type_id":"4","last_reported":1702739157,"current_range_meters":1600,"station_id":"ce4bgs92rcd13ifvqcc0","pricing_plan_id":"free"},{"bike_id":"2c4f59d8-e973-4f0d-8c8c-2f2b8ec4dfec","system_id":"levelo_inurba_marseille","lat":43.299222,"lon":5.365554,"is_reserved":false,"is_disabled":false,"rental_uris":{"android":"levelo://app?vid=2c4f59d8-e973-4f0d-8c8c-2f2b8ec4dfec","ios":"levelo://app?vid=2c4f59d8-e973-4f0d-8c8c-2f2b8ec4dfec"},"vehicle_type_id":"4","last_reported":1702739157,"current_range_meters":23600,"station_id":"ce4bgm92rcd13ifvqbr0","pricing_plan_id":"free"},{"bike_id":"c4e77394-aef9-4077-b745-e99148625344","system_id":"levelo_inurba_marseille","lat":43.32733,"lon":5.36707,"is_reserved":false,"is_disabled":false,"rental_uris":{"android":"levelo://app?vid=c4e77394-aef9-4077-b745-e99148625344","ios":"levelo://app?vid=c4e77394-aef9-4077-b745-e99148625344"},"vehicle_type_id":"4","last_reported":1702739157,"current_range_meters":22400,"station_id":"","pricing_plan_id":"free"},{"bike_id":"819cb438-2e9c-4e0b-902b-5e19ef554d5c","system_id":"levelo_inurba_marseille","lat":43.305473,"lon":5.384487,"is_reserved":false,"is_disabled":false,"rental_uris":{"android":"levelo://app?vid=819cb438-2e9c-4e0b-902b-5e19ef554d5c","ios":"levelo://app?vid=819cb438-2e9c-4e0b-902b-5e19ef554d5c"},"vehicle_type_id":"4","last_reported":1702739157,"current_range_meters":16000,"station_id":"","pricing_plan_id":"free"},{"bike_id":"ab9cee8f-172d-4c34-a744-840bf6a93f60","system_id":"levelo_inurba_marseille","lat":43.299243,"lon":5.37481,"is_reserved":false,"is_disabled":false,"rental_uris":{"android":"levelo://app?vid=ab9cee8f-172d-4c34-a744-840bf6a93f60","ios":"levelo://app?vid=ab9cee8f-172d-4c34-a744-840bf6a93f60"},"vehicle_type_id":"4","last_reported":1702739157,"current_range_meters":15200,"station_id":"ce4bgjh2rcd13ifvqbg0","pricing_plan_id":"free"},{"bike_id":"1737724e-cb2c-4de9-82f2-77dd2021971f","system_id":"levelo_inurba_marseille","lat":43.32828,"lon":5.36678,"is_reserved":false,"is_disabled":false,"rental_uris":{"android":"levelo://app?vid=1737724e-cb2c-4de9-82f2-77dd2021971f","ios":"levelo://app?vid=1737724e-cb2c-4de9-82f2-77dd2021971f"},"vehicle_type_id":"4","last_reported":1702739157,"current_range_meters":16400,"station_id":"ce4bhs92rcd13ifvqi0g","pricing_plan_id":"free"},{"bike_id":"c68ce7b5-bc99-40db-ab83-3cf295ad35bb","system_id":"levelo_inurba_marseille","lat":43.296935,"lon":5.376544,"is_reserved":false,"is_disabled":false,"rental_uris":{"android":"levelo://app?vid=c68ce7b5-bc99-40db-ab83-3cf295ad35bb","ios":"levelo://app?vid=c68ce7b5-bc99-40db-ab83-3cf295ad35bb"},"vehicle_type_id":"4","last_reported":1702739157,"current_range_meters":16400,"station_id":"ce4bgkh2rcd13ifvqbl0","pricing_plan_id":"free"},{"bike_id":"acc7baf0-3f82-4350-be47-aacc64d3f598","system_id":"levelo_inurba_marseille","lat":43.296921,"lon":5.376579,"is_reserved":false,"is_disabled":false,"rental_uris":{"android":"levelo://app?vid=acc7baf0-3f82-4350-be47-aacc64d3f598","ios":"levelo://app?vid=acc7baf0-3f82-4350-be47-aacc64d3f598"},"vehicle_type_id":"4","last_reported":1702739157,"current_range_meters":28800,"station_id":"ce4bgkh2rcd13ifvqbl0","pricing_plan_id":"free"},{"bike_id":"b5439042-6467-41ee-aa6e-ef14606c6717","system_id":"levelo_inurba_marseille","lat":43.296935,"lon":5.376544,"is_reserved":false,"is_disabled":false,"rental_uris":{"android":"levelo://app?vid=b5439042-6467-41ee-aa6e-ef14606c6717","ios":"levelo://app?vid=b5439042-6467-41ee-aa6e-ef14606c6717"},"vehicle_type_id":"4","last_reported":1702739157,"current_range_meters":20400,"station_id":"ce4bgkh2rcd13ifvqbl0","pricing_plan_id":"free"},{"bike_id":"e4e25505-fc35-4e76-ba27-c2b94e35f175","system_id":"levelo_inurba_marseille","lat":43.317557,"lon":5.390173,"is_reserved":false,"is_disabled":false,"rental_uris":{"android":"levelo://app?vid=e4e25505-fc35-4e76-ba27-c2b94e35f175","ios":"levelo://app?vid=e4e25505-fc35-4e76-ba27-c2b94e35f175"},"vehicle_type_id":"4","last_reported":1702739157,"current_range_meters":25200,"station_id":"ce4bhqp2rcd13ifvqhng","pricing_plan_id":"free"},{"bike_id":"785769bb-cd7a-46de-ade2-4100aabf5465","system_id":"levelo_inurba_marseille","lat":43.298125,"lon":5.381018,"is_reserved":false,"is_disabled":false,"rental_uris":{"android":"levelo://app?vid=785769bb-cd7a-46de-ade2-4100aabf5465","ios":"levelo://app?vid=785769bb-cd7a-46de-ade2-4100aabf5465"},"vehicle_type_id":"4","last_reported":1702739157,"current_range_meters":31200,"station_id":"","pricing_plan_id":"free"},{"bike_id":"74b59407-1f1d-4e77-bd0b-2dfd6fb85ddc","system_id":"levelo_inurba_marseille","lat":43.298087,"lon":5.380957,"is_reserved":false,"is_disabled":false,"rental_uris":{"android":"levelo://app?vid=74b59407-1f1d-4e77-bd0b-2dfd6fb85ddc","ios":"levelo://app?vid=74b59407-1f1d-4e77-bd0b-2dfd6fb85ddc"},"vehicle_type_id":"4","last_reported":1702739157,"current_range_meters":9600,"station_id":"","pricing_plan_id":"free"},{"bike_id":"937d8f46-f69d-4f3a-ba75-f1d2631683a9","system_id":"levelo_inurba_marseille","lat":43.295748,"lon":5.37522,"is_reserved":false,"is_disabled":false,"rental_uris":{"android":"levelo://app?vid=937d8f46-f69d-4f3a-ba75-f1d2631683a9","ios":"levelo://app?vid=937d8f46-f69d-4f3a-ba75-f1d2631683a9"},"vehicle_type_id":"4","last_reported":1702739157,"current_range_meters":23200,"station_id":"ce4bgh92rcd13ifvqb50","pricing_plan_id":"free"},{"bike_id":"3d49b5c9-75f8-487c-a068-f8fe6822ce8f","system_id":"levelo_inurba_marseille","lat":43.296277,"lon":5.377108,"is_reserved":false,"is_disabled":false,"rental_uris":{"android":"levelo://app?vid=3d49b5c9-75f8-487c-a068-f8fe6822ce8f","ios":"levelo://app?vid=3d49b5c9-75f8-487c-a068-f8fe6822ce8f"},"vehicle_type_id":"4","last_reported":1702739157,"current_range_meters":15200,"station_id":"ce4bgi92rcd13ifvqb90","pricing_plan_id":"free"},{"bike_id":"e16eac1a-ce90-4a06-bb16-e592980c762f","system_id":"levelo_inurba_marseille","lat":43.295748,"lon":5.37522,"is_reserved":false,"is_disabled":false,"rental_uris":{"android":"levelo://app?vid=e16eac1a-ce90-4a06-bb16-e592980c762f","ios":"levelo://app?vid=e16eac1a-ce90-4a06-bb16-e592980c762f"},"vehicle_type_id":"4","last_reported":1702739157,"current_range_meters":20400,"station_id":"ce4bgh92rcd13ifvqb50","pricing_plan_id":"free"},{"bike_id":"eab7cf9b-b222-4436-92e5-a4dda3df3cc4","system_id":"levelo_inurba_marseille","lat":43.296263,"lon":5.377094,"is_reserved":false,"is_disabled":false,"rental_uris":{"android":"levelo://app?vid=eab7cf9b-b222-4436-92e5-a4dda3df3cc4","ios":"levelo://app?vid=eab7cf9b-b222-4436-92e5-a4dda3df3cc4"},"vehicle_type_id":"4","last_reported":1702739157,"current_range_meters":10800,"station_id":"ce4bgi92rcd13ifvqb90","pricing_plan_id":"free"},{"bike_id":"21f3ae4a-938a-46f9-9e61-d2d93f8a48f8","system_id":"levelo_inurba_marseille","lat":43.295279,"lon":5.375048,"is_reserved":false,"is_disabled":false,"rental_uris":{"android":"levelo://app?vid=21f3ae4a-938a-46f9-9e61-d2d93f8a48f8","ios":"levelo://app?vid=21f3ae4a-938a-46f9-9e61-d2d93f8a48f8"},"vehicle_type_id":"4","last_reported":1702739157,"current_range_meters":14800,"station_id":"ce4bgkp2rcd13ifvqbmg","pricing_plan_id":"free"},{"bike_id":"59714292-8fbb-4680-9091-f6716d92c77d","system_id":"levelo_inurba_marseille","lat":43.32366,"lon":5.38887,"is_reserved":false,"is_disabled":false,"rental_uris":{"android":"levelo://app?vid=59714292-8fbb-4680-9091-f6716d92c77d","ios":"levelo://app?vid=59714292-8fbb-4680-9091-f6716d92c77d"},"vehicle_type_id":"4","last_reported":1702739157,"current_range_meters":7600,"station_id":"ce4bhqp2rcd13ifvqhog","pricing_plan_id":"free"},{"bike_id":"3e2cf221-2346-48f9-b7a3-b3fe6c8b7640","system_id":"levelo_inurba_marseille","lat":43.29601,"lon":5.381084,"is_reserved":false,"is_disabled":false,"rental_uris":{"android":"levelo://app?vid=3e2cf221-2346-48f9-b7a3-b3fe6c8b7640","ios":"levelo://app?vid=3e2cf221-2346-48f9-b7a3-b3fe6c8b7640"},"vehicle_type_id":"4","last_reported":1702739157,"current_range_meters":11600,"station_id":"ce4bgl12rcd13ifvqbo0","pricing_plan_id":"free"},{"bike_id":"0288605f-83b1-4bb1-a1a8-6e3d22e746f1","system_id":"levelo_inurba_marseille","lat":43.29602,"lon":5.381084,"is_reserved":false,"is_disabled":false,"rental_uris":{"android":"levelo://app?vid=0288605f-83b1-4bb1-a1a8-6e3d22e746f1","ios":"levelo://app?vid=0288605f-83b1-4bb1-a1a8-6e3d22e746f1"},"vehicle_type_id":"4","last_reported":1702739157,"current_range_meters":28800,"station_id":"ce4bgl12rcd13ifvqbo0","pricing_plan_id":"free"},{"bike_id":"07aabb58-ad3d-42b4-bcb5-fc11d355618e","system_id":"levelo_inurba_marseille","lat":43.29279,"lon":5.36843,"is_reserved":false,"is_disabled":false,"rental_uris":{"android":"levelo://app?vid=07aabb58-ad3d-42b4-bcb5-fc11d355618e","ios":"levelo://app?vid=07aabb58-ad3d-42b4-bcb5-fc11d355618e"},"vehicle_type_id":"4","last_reported":1702739157,"current_range_meters":0,"station_id":"ce4bhbp2rcd13ifvqesg","pricing_plan_id":"free"},{"bike_id":"fe7de837-1892-48d8-80a4-4ec72595b3a0","system_id":"levelo_inurba_marseille","lat":43.293009,"lon":5.374584,"is_reserved":false,"is_disabled":false,"rental_uris":{"android":"levelo://app?vid=fe7de837-1892-48d8-80a4-4ec72595b3a0","ios":"levelo://app?vid=fe7de837-1892-48d8-80a4-4ec72595b3a0"},"vehicle_type_id":"4","last_reported":1702739157,"current_range_meters":13200,"station_id":"ce4bgi12rcd13ifvqb70","pricing_plan_id":"free"},{"bike_id":"7bf8e31c-5234-46ba-95da-5d7bfbf6816f","system_id":"levelo_inurba_marseille","lat":43.291675,"lon":5.371583,"is_reserved":false,"is_disabled":false,"rental_uris":{"android":"levelo://app?vid=7bf8e31c-5234-46ba-95da-5d7bfbf6816f","ios":"levelo://app?vid=7bf8e31c-5234-46ba-95da-5d7bfbf6816f"},"vehicle_type_id":"4","last_reported":1702739157,"current_range_meters":28400,"station_id":"ce4bha92rcd13ifvqeh0","pricing_plan_id":"free"},{"bike_id":"ff275f38-158d-4a92-adf6-539e2eae3fcf","system_id":"levelo_inurba_marseille","lat":43.291994,"lon":5.357886,"is_reserved":false,"is_disabled":false,"rental_uris":{"android":"levelo://app?vid=ff275f38-158d-4a92-adf6-539e2eae3fcf","ios":"levelo://app?vid=ff275f38-158d-4a92-adf6-539e2eae3fcf"},"vehicle_type_id":"4","last_reported":1702739157,"current_range_meters":22800,"station_id":"ce4bhb12rcd13ifvqel0","pricing_plan_id":"free"},{"bike_id":"e3d445f2-e3d6-4aa0-a1e0-30a594065a20","system_id":"levelo_inurba_marseille","lat":43.290104,"lon":5.356111,"is_reserved":false,"is_disabled":false,"rental_uris":{"android":"levelo://app?vid=e3d445f2-e3d6-4aa0-a1e0-30a594065a20","ios":"levelo://app?vid=e3d445f2-e3d6-4aa0-a1e0-30a594065a20"},"vehicle_type_id":"4","last_reported":1702739157,"current_range_meters":20800,"station_id":"ce4bhb92rcd13ifvqen0","pricing_plan_id":"free"},{"bike_id":"b0801c1b-767d-482c-b852-f5395a0071fe","system_id":"levelo_inurba_marseille","lat":43.313291,"lon":5.396838,"is_reserved":false,"is_disabled":false,"rental_uris":{"android":"levelo://app?vid=b0801c1b-767d-482c-b852-f5395a0071fe","ios":"levelo://app?vid=b0801c1b-767d-482c-b852-f5395a0071fe"},"vehicle_type_id":"4","last_reported":1702739157,"current_range_meters":24800,"station_id":"ce4bgvp2rcd13ifvqcu0","pricing_plan_id":"free"},{"bike_id":"96d0771a-0dec-44d4-9d96-5b38b8231754","system_id":"levelo_inurba_marseille","lat":43.294153,"lon":5.386305,"is_reserved":false,"is_disabled":false,"rental_uris":{"android":"levelo://app?vid=96d0771a-0dec-44d4-9d96-5b38b8231754","ios":"levelo://app?vid=96d0771a-0dec-44d4-9d96-5b38b8231754"},"vehicle_type_id":"4","last_reported":1702739157,"current_range_meters":10000,"station_id":"ce4bh2h2rcd13ifvqdh0","pricing_plan_id":"free"},{"bike_id":"c99de735-eade-4ec3-844c-e602d5c22091","system_id":"levelo_inurba_marseille","lat":43.302008,"lon":5.394694,"is_reserved":false,"is_disabled":false,"rental_uris":{"android":"levelo://app?vid=c99de735-eade-4ec3-844c-e602d5c22091","ios":"levelo://app?vid=c99de735-eade-4ec3-844c-e602d5c22091"},"vehicle_type_id":"4","last_reported":1702739157,"current_range_meters":3200,"station_id":"ce4bh0p2rcd13ifvqd70","pricing_plan_id":"free"},{"bike_id":"24641cbc-870f-415f-9076-18bc531a8cc9","system_id":"levelo_inurba_marseille","lat":43.302008,"lon":5.394694,"is_reserved":false,"is_disabled":false,"rental_uris":{"android":"levelo://app?vid=24641cbc-870f-415f-9076-18bc531a8cc9","ios":"levelo://app?vid=24641cbc-870f-415f-9076-18bc531a8cc9"},"vehicle_type_id":"4","last_reported":1702739157,"current_range_meters":14000,"station_id":"ce4bh0p2rcd13ifvqd70","pricing_plan_id":"free"},{"bike_id":"1b8034c2-ef19-4a90-b057-5aa40ff54a61","system_id":"levelo_inurba_marseille","lat":43.302008,"lon":5.394694,"is_reserved":false,"is_disabled":false,"rental_uris":{"android":"levelo://app?vid=1b8034c2-ef19-4a90-b057-5aa40ff54a61","ios":"levelo://app?vid=1b8034c2-ef19-4a90-b057-5aa40ff54a61"},"vehicle_type_id":"4","last_reported":1702739157,"current_range_meters":18800,"station_id":"ce4bh0p2rcd13ifvqd70","pricing_plan_id":"free"},{"bike_id":"cc204d3b-c8c0-4da0-a434-ec856423653a","system_id":"levelo_inurba_marseille","lat":43.294153,"lon":5.386305,"is_reserved":false,"is_disabled":false,"rental_uris":{"android":"levelo://app?vid=cc204d3b-c8c0-4da0-a434-ec856423653a","ios":"levelo://app?vid=cc204d3b-c8c0-4da0-a434-ec856423653a"},"vehicle_type_id":"4","last_reported":1702739157,"current_range_meters":15600,"station_id":"ce4bh2h2rcd13ifvqdh0","pricing_plan_id":"free"},{"bike_id":"e918ab70-4165-4f57-ab4c-4be6ab78bbbd","system_id":"levelo_inurba_marseille","lat":43.290327,"lon":5.375711,"is_reserved":false,"is_disabled":false,"rental_uris":{"android":"levelo://app?vid=e918ab70-4165-4f57-ab4c-4be6ab78bbbd","ios":"levelo://app?vid=e918ab70-4165-4f57-ab4c-4be6ab78bbbd"},"vehicle_type_id":"4","last_reported":1702739157,"current_range_meters":3600,"station_id":"ce4bh692rcd13ifvqe90","pricing_plan_id":"free"},{"bike_id":"17c76d3d-47dc-4b89-b478-ab0d2ad8515c","system_id":"levelo_inurba_marseille","lat":43.289184,"lon":5.366408,"is_reserved":false,"is_disabled":false,"rental_uris":{"android":"levelo://app?vid=17c76d3d-47dc-4b89-b478-ab0d2ad8515c","ios":"levelo://app?vid=17c76d3d-47dc-4b89-b478-ab0d2ad8515c"},"vehicle_type_id":"4","last_reported":1702739157,"current_range_meters":14400,"station_id":"ce4bhap2rcd13ifvqek0","pricing_plan_id":"free"},{"bike_id":"317f5a90-7d34-4a2f-9503-b7cdb010f923","system_id":"levelo_inurba_marseille","lat":43.289184,"lon":5.366408,"is_reserved":false,"is_disabled":false,"rental_uris":{"android":"levelo://app?vid=317f5a90-7d34-4a2f-9503-b7cdb010f923","ios":"levelo://app?vid=317f5a90-7d34-4a2f-9503-b7cdb010f923"},"vehicle_type_id":"4","last_reported":1702739157,"current_range_meters":7600,"station_id":"ce4bhap2rcd13ifvqek0","pricing_plan_id":"free"},{"bike_id":"bb43c308-b4a1-4cd9-adc8-ab77b4873e4c","system_id":"levelo_inurba_marseille","lat":43.289439,"lon":5.364096,"is_reserved":false,"is_disabled":false,"rental_uris":{"android":"levelo://app?vid=bb43c308-b4a1-4cd9-adc8-ab77b4873e4c","ios":"levelo://app?vid=bb43c308-b4a1-4cd9-adc8-ab77b4873e4c"},"vehicle_type_id":"4","last_reported":1702739157,"current_range_meters":20800,"station_id":"ce4bhc92rcd13ifvqetg","pricing_plan_id":"free"},{"bike_id":"934b3069-13f9-46e6-ab2f-81e87257dd88","system_id":"levelo_inurba_marseille","lat":43.304274,"lon":5.397513,"is_reserved":false,"is_disabled":false,"rental_uris":{"android":"levelo://app?vid=934b3069-13f9-46e6-ab2f-81e87257dd88","ios":"levelo://app?vid=934b3069-13f9-46e6-ab2f-81e87257dd88"},"vehicle_type_id":"4","last_reported":1702739157,"current_range_meters":26000,"station_id":"ce4bh092rcd13ifvqd20","pricing_plan_id":"free"},{"bike_id":"b7015c97-1e2d-47ea-9fe4-1521fdff8377","system_id":"levelo_inurba_marseille","lat":43.29258,"lon":5.38449,"is_reserved":false,"is_disabled":false,"rental_uris":{"android":"levelo://app?vid=b7015c97-1e2d-47ea-9fe4-1521fdff8377","ios":"levelo://app?vid=b7015c97-1e2d-47ea-9fe4-1521fdff8377"},"vehicle_type_id":"4","last_reported":1702739157,"current_range_meters":0,"station_id":"ce4bh692rcd13ifvqea0","pricing_plan_id":"free"},{"bike_id":"c7c22690-c74a-4728-92b5-7ed48d41eb44","system_id":"levelo_inurba_marseille","lat":43.290104,"lon":5.356111,"is_reserved":false,"is_disabled":false,"rental_uris":{"android":"levelo://app?vid=c7c22690-c74a-4728-92b5-7ed48d41eb44","ios":"levelo://app?vid=c7c22690-c74a-4728-92b5-7ed48d41eb44"},"vehicle_type_id":"4","last_reported":1702739157,"current_range_meters":28400,"station_id":"ce4bhb92rcd13ifvqen0","pricing_plan_id":"free"},{"bike_id":"a7c0097a-6250-47d9-93a4-f2066d6be0b3","system_id":"levelo_inurba_marseille","lat":43.28993,"lon":5.35612,"is_reserved":false,"is_disabled":false,"rental_uris":{"android":"levelo://app?vid=a7c0097a-6250-47d9-93a4-f2066d6be0b3","ios":"levelo://app?vid=a7c0097a-6250-47d9-93a4-f2066d6be0b3"},"vehicle_type_id":"4","last_reported":1702739157,"current_range_meters":28000,"station_id":"","pricing_plan_id":"free"},{"bike_id":"8d534898-5fdd-4069-995f-a1b87525e62d","system_id":"levelo_inurba_marseille","lat":43.29795,"lon":5.39342,"is_reserved":false,"is_disabled":false,"rental_uris":{"android":"levelo://app?vid=8d534898-5fdd-4069-995f-a1b87525e62d","ios":"levelo://app?vid=8d534898-5fdd-4069-995f-a1b87525e62d"},"vehicle_type_id":"4","last_reported":1702739157,"current_range_meters":22000,"station_id":"chh1huq6cuj3fo74tm60","pricing_plan_id":"free"},{"bike_id":"42a47166-0b8a-4e53-98ce-c6ba4a7ad411","system_id":"levelo_inurba_marseille","lat":43.295169,"lon":5.390426,"is_reserved":false,"is_disabled":false,"rental_uris":{"android":"levelo://app?vid=42a47166-0b8a-4e53-98ce-c6ba4a7ad411","ios":"levelo://app?vid=42a47166-0b8a-4e53-98ce-c6ba4a7ad411"},"vehicle_type_id":"4","last_reported":1702739157,"current_range_meters":16000,"station_id":"ce4bh3p2rcd13ifvqdp0","pricing_plan_id":"free"},{"bike_id":"38a56976-1c98-4849-96db-067fd8b96a5c","system_id":"levelo_inurba_marseille","lat":43.295169,"lon":5.390426,"is_reserved":false,"is_disabled":false,"rental_uris":{"android":"levelo://app?vid=38a56976-1c98-4849-96db-067fd8b96a5c","ios":"levelo://app?vid=38a56976-1c98-4849-96db-067fd8b96a5c"},"vehicle_type_id":"4","last_reported":1702739157,"current_range_meters":10800,"station_id":"ce4bh3p2rcd13ifvqdp0","pricing_plan_id":"free"},{"bike_id":"b6d4390d-59e8-4a1f-9c15-c1944e071cdf","system_id":"levelo_inurba_marseille","lat":43.28847,"lon":5.35863,"is_reserved":false,"is_disabled":false,"rental_uris":{"android":"levelo://app?vid=b6d4390d-59e8-4a1f-9c15-c1944e071cdf","ios":"levelo://app?vid=b6d4390d-59e8-4a1f-9c15-c1944e071cdf"},"vehicle_type_id":"4","last_reported":1702739157,"current_range_meters":31200,"station_id":"ce4bhb12rcd13ifvqem0","pricing_plan_id":"free"},{"bike_id":"72b13e85-d5a5-4769-b816-17423b3ebc5a","system_id":"levelo_inurba_marseille","lat":43.28856,"lon":5.358371,"is_reserved":false,"is_disabled":false,"rental_uris":{"android":"levelo://app?vid=72b13e85-d5a5-4769-b816-17423b3ebc5a","ios":"levelo://app?vid=72b13e85-d5a5-4769-b816-17423b3ebc5a"},"vehicle_type_id":"4","last_reported":1702739157,"current_range_meters":31200,"station_id":"ce4bhb12rcd13ifvqem0","pricing_plan_id":"free"},{"bike_id":"f0cd831c-cfb9-44c7-9487-103b6df223ca","system_id":"levelo_inurba_marseille","lat":43.337445,"lon":5.374592,"is_reserved":false,"is_disabled":false,"rental_uris":{"android":"levelo://app?vid=f0cd831c-cfb9-44c7-9487-103b6df223ca","ios":"levelo://app?vid=f0cd831c-cfb9-44c7-9487-103b6df223ca"},"vehicle_type_id":"4","last_reported":1702739157,"current_range_meters":28800,"station_id":"","pricing_plan_id":"free"},{"bike_id":"e825280f-6908-4798-bc42-f92edb257dbb","system_id":"levelo_inurba_marseille","lat":43.312609,"lon":5.401662,"is_reserved":false,"is_disabled":false,"rental_uris":{"android":"levelo://app?vid=e825280f-6908-4798-bc42-f92edb257dbb","ios":"levelo://app?vid=e825280f-6908-4798-bc42-f92edb257dbb"},"vehicle_type_id":"4","last_reported":1702739157,"current_range_meters":0,"station_id":"ce4bh092rcd13ifvqd30","pricing_plan_id":"free"},{"bike_id":"7102a4b4-279f-4e05-a138-f45c93d138ef","system_id":"levelo_inurba_marseille","lat":43.30939,"lon":5.40147,"is_reserved":false,"is_disabled":false,"rental_uris":{"android":"levelo://app?vid=7102a4b4-279f-4e05-a138-f45c93d138ef","ios":"levelo://app?vid=7102a4b4-279f-4e05-a138-f45c93d138ef"},"vehicle_type_id":"4","last_reported":1702739157,"current_range_meters":0,"station_id":"ce4bgvp2rcd13ifvqct0","pricing_plan_id":"free"},{"bike_id":"a15a6f31-d26a-498f-aab0-fad2629bd007","system_id":"levelo_inurba_marseille","lat":43.337535,"lon":5.37446,"is_reserved":false,"is_disabled":false,"rental_uris":{"android":"levelo://app?vid=a15a6f31-d26a-498f-aab0-fad2629bd007","ios":"levelo://app?vid=a15a6f31-d26a-498f-aab0-fad2629bd007"},"vehicle_type_id":"4","last_reported":1702739157,"current_range_meters":0,"station_id":"","pricing_plan_id":"free"},{"bike_id":"ef80ceab-dc9f-4b6c-8f52-707d5177f481","system_id":"levelo_inurba_marseille","lat":43.33752,"lon":5.37466,"is_reserved":false,"is_disabled":false,"rental_uris":{"android":"levelo://app?vid=ef80ceab-dc9f-4b6c-8f52-707d5177f481","ios":"levelo://app?vid=ef80ceab-dc9f-4b6c-8f52-707d5177f481"},"vehicle_type_id":"4","last_reported":1702739157,"current_range_meters":28400,"station_id":"","pricing_plan_id":"free"},{"bike_id":"87cc8c4f-8ecf-420c-bac2-ed05f14f8c04","system_id":"levelo_inurba_marseille","lat":43.33777,"lon":5.37423,"is_reserved":false,"is_disabled":false,"rental_uris":{"android":"levelo://app?vid=87cc8c4f-8ecf-420c-bac2-ed05f14f8c04","ios":"levelo://app?vid=87cc8c4f-8ecf-420c-bac2-ed05f14f8c04"},"vehicle_type_id":"4","last_reported":1702739157,"current_range_meters":26400,"station_id":"","pricing_plan_id":"free"},{"bike_id":"a6487dc3-d7a1-465e-9155-e37d8d7be264","system_id":"levelo_inurba_marseille","lat":43.306412,"lon":5.401035,"is_reserved":false,"is_disabled":false,"rental_uris":{"android":"levelo://app?vid=a6487dc3-d7a1-465e-9155-e37d8d7be264","ios":"levelo://app?vid=a6487dc3-d7a1-465e-9155-e37d8d7be264"},"vehicle_type_id":"4","last_reported":1702739157,"current_range_meters":14000,"station_id":"ce4bh112rcd13ifvqda0","pricing_plan_id":"free"},{"bike_id":"e608665c-a0fa-449d-b33f-ed0cd033c740","system_id":"levelo_inurba_marseille","lat":43.33784,"lon":5.37423,"is_reserved":false,"is_disabled":false,"rental_uris":{"android":"levelo://app?vid=e608665c-a0fa-449d-b33f-ed0cd033c740","ios":"levelo://app?vid=e608665c-a0fa-449d-b33f-ed0cd033c740"},"vehicle_type_id":"4","last_reported":1702739157,"current_range_meters":24400,"station_id":"","pricing_plan_id":"free"},{"bike_id":"74868d95-486b-45b2-a96f-a2bfd8a885b7","system_id":"levelo_inurba_marseille","lat":43.28727,"lon":5.36078,"is_reserved":false,"is_disabled":false,"rental_uris":{"android":"levelo://app?vid=74868d95-486b-45b2-a96f-a2bfd8a885b7","ios":"levelo://app?vid=74868d95-486b-45b2-a96f-a2bfd8a885b7"},"vehicle_type_id":"4","last_reported":1702739157,"current_range_meters":1200,"station_id":"cki0cbj6b192h4jlfktg","pricing_plan_id":"free"},{"bike_id":"84835311-a3b0-4bf9-9c8d-18c4577f8b6f","system_id":"levelo_inurba_marseille","lat":43.286961,"lon":5.373785,"is_reserved":false,"is_disabled":false,"rental_uris":{"android":"levelo://app?vid=84835311-a3b0-4bf9-9c8d-18c4577f8b6f","ios":"levelo://app?vid=84835311-a3b0-4bf9-9c8d-18c4577f8b6f"},"vehicle_type_id":"4","last_reported":1702739157,"current_range_meters":10000,"station_id":"ce4bh3p2rcd13ifvqdq0","pricing_plan_id":"free"},{"bike_id":"a5689f7c-7708-4e98-a639-7d2e64207bea","system_id":"levelo_inurba_marseille","lat":43.286961,"lon":5.373785,"is_reserved":false,"is_disabled":false,"rental_uris":{"android":"levelo://app?vid=a5689f7c-7708-4e98-a639-7d2e64207bea","ios":"levelo://app?vid=a5689f7c-7708-4e98-a639-7d2e64207bea"},"vehicle_type_id":"4","last_reported":1702739157,"current_range_meters":27200,"station_id":"ce4bh3p2rcd13ifvqdq0","pricing_plan_id":"free"},{"bike_id":"11bf572f-b940-4adf-8876-6ee70f0d9760","system_id":"levelo_inurba_marseille","lat":43.295194,"lon":5.39397,"is_reserved":false,"is_disabled":false,"rental_uris":{"android":"levelo://app?vid=11bf572f-b940-4adf-8876-6ee70f0d9760","ios":"levelo://app?vid=11bf572f-b940-4adf-8876-6ee70f0d9760"},"vehicle_type_id":"4","last_reported":1702739157,"current_range_meters":15600,"station_id":"ce4bh292rcd13ifvqdf0","pricing_plan_id":"free"},{"bike_id":"e346e0ef-4e18-46b9-933d-1b1e0359967f","system_id":"levelo_inurba_marseille","lat":43.289307,"lon":5.38406,"is_reserved":false,"is_disabled":false,"rental_uris":{"android":"levelo://app?vid=e346e0ef-4e18-46b9-933d-1b1e0359967f","ios":"levelo://app?vid=e346e0ef-4e18-46b9-933d-1b1e0359967f"},"vehicle_type_id":"4","last_reported":1702739157,"current_range_meters":13200,"station_id":"ce4bh612rcd13ifvqe6g","pricing_plan_id":"free"},{"bike_id":"729a4244-5b7d-496e-a450-9e62d6a1a3d6","system_id":"levelo_inurba_marseille","lat":43.302759,"lon":5.400793,"is_reserved":false,"is_disabled":false,"rental_uris":{"android":"levelo://app?vid=729a4244-5b7d-496e-a450-9e62d6a1a3d6","ios":"levelo://app?vid=729a4244-5b7d-496e-a450-9e62d6a1a3d6"},"vehicle_type_id":"4","last_reported":1702739157,"current_range_meters":16000,"station_id":"ce4bgvh2rcd13ifvqcs0","pricing_plan_id":"free"},{"bike_id":"46937d05-36c2-495a-9b30-7603f646a5e5","system_id":"levelo_inurba_marseille","lat":43.307474,"lon":5.402784,"is_reserved":false,"is_disabled":false,"rental_uris":{"android":"levelo://app?vid=46937d05-36c2-495a-9b30-7603f646a5e5","ios":"levelo://app?vid=46937d05-36c2-495a-9b30-7603f646a5e5"},"vehicle_type_id":"4","last_reported":1702739157,"current_range_meters":13200,"station_id":"","pricing_plan_id":"free"},{"bike_id":"f27e3303-888f-4c4e-81c9-df13be5c7492","system_id":"levelo_inurba_marseille","lat":43.302759,"lon":5.400793,"is_reserved":false,"is_disabled":false,"rental_uris":{"android":"levelo://app?vid=f27e3303-888f-4c4e-81c9-df13be5c7492","ios":"levelo://app?vid=f27e3303-888f-4c4e-81c9-df13be5c7492"},"vehicle_type_id":"4","last_reported":1702739157,"current_range_meters":800,"station_id":"ce4bgvh2rcd13ifvqcs0","pricing_plan_id":"free"},{"bike_id":"09c62dc0-7e47-401d-bf1d-351480fc347e","system_id":"levelo_inurba_marseille","lat":43.286039,"lon":5.370681,"is_reserved":false,"is_disabled":false,"rental_uris":{"android":"levelo://app?vid=09c62dc0-7e47-401d-bf1d-351480fc347e","ios":"levelo://app?vid=09c62dc0-7e47-401d-bf1d-351480fc347e"},"vehicle_type_id":"4","last_reported":1702739157,"current_range_meters":2400,"station_id":"ce4bht12rcd13ifvqi60","pricing_plan_id":"free"},{"bike_id":"c20797a9-c99d-4b0d-be19-2d5a419a85ff","system_id":"levelo_inurba_marseille","lat":43.286039,"lon":5.370681,"is_reserved":false,"is_disabled":false,"rental_uris":{"android":"levelo://app?vid=c20797a9-c99d-4b0d-be19-2d5a419a85ff","ios":"levelo://app?vid=c20797a9-c99d-4b0d-be19-2d5a419a85ff"},"vehicle_type_id":"4","last_reported":1702739157,"current_range_meters":2000,"station_id":"ce4bht12rcd13ifvqi60","pricing_plan_id":"free"},{"bike_id":"8925a346-cac4-4be3-b936-7e9dac96f6bf","system_id":"levelo_inurba_marseille","lat":43.286039,"lon":5.370681,"is_reserved":false,"is_disabled":false,"rental_uris":{"android":"levelo://app?vid=8925a346-cac4-4be3-b936-7e9dac96f6bf","ios":"levelo://app?vid=8925a346-cac4-4be3-b936-7e9dac96f6bf"},"vehicle_type_id":"4","last_reported":1702739157,"current_range_meters":20400,"station_id":"ce4bht12rcd13ifvqi60","pricing_plan_id":"free"},{"bike_id":"ab72c613-9d56-4d25-88ca-30152667dcc5","system_id":"levelo_inurba_marseille","lat":43.287184,"lon":5.37937,"is_reserved":false,"is_disabled":false,"rental_uris":{"android":"levelo://app?vid=ab72c613-9d56-4d25-88ca-30152667dcc5","ios":"levelo://app?vid=ab72c613-9d56-4d25-88ca-30152667dcc5"},"vehicle_type_id":"4","last_reported":1702739157,"current_range_meters":14400,"station_id":"ce4bh9p2rcd13ifvqec0","pricing_plan_id":"free"},{"bike_id":"5e3831c8-4d2e-4b74-ad7c-39d6f5e20ebe","system_id":"levelo_inurba_marseille","lat":43.31686,"lon":5.40473,"is_reserved":false,"is_disabled":false,"rental_uris":{"android":"levelo://app?vid=5e3831c8-4d2e-4b74-ad7c-39d6f5e20ebe","ios":"levelo://app?vid=5e3831c8-4d2e-4b74-ad7c-39d6f5e20ebe"},"vehicle_type_id":"4","last_reported":1702739157,"current_range_meters":21200,"station_id":"ce4bh012rcd13ifvqd00","pricing_plan_id":"free"},{"bike_id":"29b4333c-19be-4f83-80f0-3630e916e3c5","system_id":"levelo_inurba_marseille","lat":43.284538,"lon":5.358657,"is_reserved":false,"is_disabled":false,"rental_uris":{"android":"levelo://app?vid=29b4333c-19be-4f83-80f0-3630e916e3c5","ios":"levelo://app?vid=29b4333c-19be-4f83-80f0-3630e916e3c5"},"vehicle_type_id":"4","last_reported":1702739157,"current_range_meters":10000,"station_id":"ce4bhah2rcd13ifvqei0","pricing_plan_id":"free"},{"bike_id":"f1f62bbe-f291-4e87-83bb-8d7f4d52e82a","system_id":"levelo_inurba_marseille","lat":43.294314,"lon":5.397498,"is_reserved":false,"is_disabled":false,"rental_uris":{"android":"levelo://app?vid=f1f62bbe-f291-4e87-83bb-8d7f4d52e82a","ios":"levelo://app?vid=f1f62bbe-f291-4e87-83bb-8d7f4d52e82a"},"vehicle_type_id":"4","last_reported":1702739157,"current_range_meters":12000,"station_id":"ce4bh3h2rcd13ifvqdo0","pricing_plan_id":"free"},{"bike_id":"a8b12c7d-6865-40b6-87c9-25f2ef8fe373","system_id":"levelo_inurba_marseille","lat":43.294314,"lon":5.397498,"is_reserved":false,"is_disabled":false,"rental_uris":{"android":"levelo://app?vid=a8b12c7d-6865-40b6-87c9-25f2ef8fe373","ios":"levelo://app?vid=a8b12c7d-6865-40b6-87c9-25f2ef8fe373"},"vehicle_type_id":"4","last_reported":1702739157,"current_range_meters":22000,"station_id":"ce4bh3h2rcd13ifvqdo0","pricing_plan_id":"free"},{"bike_id":"90897c13-5235-4500-b5a1-32a57ea44f99","system_id":"levelo_inurba_marseille","lat":43.283998,"lon":5.375062,"is_reserved":false,"is_disabled":false,"rental_uris":{"android":"levelo://app?vid=90897c13-5235-4500-b5a1-32a57ea44f99","ios":"levelo://app?vid=90897c13-5235-4500-b5a1-32a57ea44f99"},"vehicle_type_id":"4","last_reported":1702739157,"current_range_meters":15600,"station_id":"ce4bh412rcd13ifvqds0","pricing_plan_id":"free"},{"bike_id":"67374a14-8813-427a-a747-5f3e219b6cf6","system_id":"levelo_inurba_marseille","lat":43.295713,"lon":5.399639,"is_reserved":false,"is_disabled":false,"rental_uris":{"android":"levelo://app?vid=67374a14-8813-427a-a747-5f3e219b6cf6","ios":"levelo://app?vid=67374a14-8813-427a-a747-5f3e219b6cf6"},"vehicle_type_id":"4","last_reported":1702739157,"current_range_meters":2000,"station_id":"ce4bh312rcd13ifvqdj0","pricing_plan_id":"free"},{"bike_id":"e72a509c-3ac7-4fbc-b7f4-47ae9c24572e","system_id":"levelo_inurba_marseille","lat":43.295713,"lon":5.399639,"is_reserved":false,"is_disabled":false,"rental_uris":{"android":"levelo://app?vid=e72a509c-3ac7-4fbc-b7f4-47ae9c24572e","ios":"levelo://app?vid=e72a509c-3ac7-4fbc-b7f4-47ae9c24572e"},"vehicle_type_id":"4","last_reported":1702739157,"current_range_meters":16000,"station_id":"ce4bh312rcd13ifvqdj0","pricing_plan_id":"free"},{"bike_id":"f12d2c06-bae6-4b54-a938-11de5a53c092","system_id":"levelo_inurba_marseille","lat":43.286595,"lon":5.386795,"is_reserved":false,"is_disabled":false,"rental_uris":{"android":"levelo://app?vid=f12d2c06-bae6-4b54-a938-11de5a53c092","ios":"levelo://app?vid=f12d2c06-bae6-4b54-a938-11de5a53c092"},"vehicle_type_id":"4","last_reported":1702739157,"current_range_meters":0,"station_id":"ce4bh492rcd13ifvqdug","pricing_plan_id":"free"},{"bike_id":"74c5cf30-49f6-42f3-835f-9c531e7566b4","system_id":"levelo_inurba_marseille","lat":43.319179,"lon":5.407725,"is_reserved":false,"is_disabled":false,"rental_uris":{"android":"levelo://app?vid=74c5cf30-49f6-42f3-835f-9c531e7566b4","ios":"levelo://app?vid=74c5cf30-49f6-42f3-835f-9c531e7566b4"},"vehicle_type_id":"4","last_reported":1702739157,"current_range_meters":28000,"station_id":"ce4bhq12rcd13ifvqhig","pricing_plan_id":"free"},{"bike_id":"0f6a7757-291e-47f0-88b5-c6d05c2bfcb3","system_id":"levelo_inurba_marseille","lat":43.323464,"lon":5.406297,"is_reserved":false,"is_disabled":false,"rental_uris":{"android":"levelo://app?vid=0f6a7757-291e-47f0-88b5-c6d05c2bfcb3","ios":"levelo://app?vid=0f6a7757-291e-47f0-88b5-c6d05c2bfcb3"},"vehicle_type_id":"4","last_reported":1702739157,"current_range_meters":23200,"station_id":"ce4bhq92rcd13ifvqhjg","pricing_plan_id":"free"},{"bike_id":"9cafbd46-443b-45b4-ab61-dc2bc1541fbf","system_id":"levelo_inurba_marseille","lat":43.323464,"lon":5.406297,"is_reserved":false,"is_disabled":false,"rental_uris":{"android":"levelo://app?vid=9cafbd46-443b-45b4-ab61-dc2bc1541fbf","ios":"levelo://app?vid=9cafbd46-443b-45b4-ab61-dc2bc1541fbf"},"vehicle_type_id":"4","last_reported":1702739157,"current_range_meters":28000,"station_id":"ce4bhq92rcd13ifvqhjg","pricing_plan_id":"free"},{"bike_id":"eca0d983-9da9-46e9-9ca9-8ca06c05ddd8","system_id":"levelo_inurba_marseille","lat":43.32353,"lon":5.40623,"is_reserved":false,"is_disabled":false,"rental_uris":{"android":"levelo://app?vid=eca0d983-9da9-46e9-9ca9-8ca06c05ddd8","ios":"levelo://app?vid=eca0d983-9da9-46e9-9ca9-8ca06c05ddd8"},"vehicle_type_id":"4","last_reported":1702739157,"current_range_meters":12000,"station_id":"ce4bhq92rcd13ifvqhjg","pricing_plan_id":"free"},{"bike_id":"f93d46f9-ec14-40e4-ae6c-175f792cfc07","system_id":"levelo_inurba_marseille","lat":43.288534,"lon":5.393166,"is_reserved":false,"is_disabled":false,"rental_uris":{"android":"levelo://app?vid=f93d46f9-ec14-40e4-ae6c-175f792cfc07","ios":"levelo://app?vid=f93d46f9-ec14-40e4-ae6c-175f792cfc07"},"vehicle_type_id":"4","last_reported":1702739157,"current_range_meters":0,"station_id":"","pricing_plan_id":"free"},{"bike_id":"84e7fdc3-908a-4ed2-b0c3-d58e1e43664b","system_id":"levelo_inurba_marseille","lat":43.292724,"lon":5.401131,"is_reserved":false,"is_disabled":false,"rental_uris":{"android":"levelo://app?vid=84e7fdc3-908a-4ed2-b0c3-d58e1e43664b","ios":"levelo://app?vid=84e7fdc3-908a-4ed2-b0c3-d58e1e43664b"},"vehicle_type_id":"4","last_reported":1702739157,"current_range_meters":13600,"station_id":"ce4bh312rcd13ifvqdk0","pricing_plan_id":"free"},{"bike_id":"e14a15d3-c933-41c0-82ce-fba361a22baa","system_id":"levelo_inurba_marseille","lat":43.283502,"lon":5.386471,"is_reserved":false,"is_disabled":false,"rental_uris":{"android":"levelo://app?vid=e14a15d3-c933-41c0-82ce-fba361a22baa","ios":"levelo://app?vid=e14a15d3-c933-41c0-82ce-fba361a22baa"},"vehicle_type_id":"4","last_reported":1702739157,"current_range_meters":2000,"station_id":"ce4bh492rcd13ifvqdvg","pricing_plan_id":"free"},{"bike_id":"85554afe-b222-48f3-a7b0-f0ae03242a17","system_id":"levelo_inurba_marseille","lat":43.281044,"lon":5.378308,"is_reserved":false,"is_disabled":false,"rental_uris":{"android":"levelo://app?vid=85554afe-b222-48f3-a7b0-f0ae03242a17","ios":"levelo://app?vid=85554afe-b222-48f3-a7b0-f0ae03242a17"},"vehicle_type_id":"4","last_reported":1702739157,"current_range_meters":800,"station_id":"ce4bha12rcd13ifvqee0","pricing_plan_id":"free"},{"bike_id":"0d6c51b3-1f5f-4039-95f2-7bd1c74f6556","system_id":"levelo_inurba_marseille","lat":43.280382,"lon":5.369291,"is_reserved":false,"is_disabled":false,"rental_uris":{"android":"levelo://app?vid=0d6c51b3-1f5f-4039-95f2-7bd1c74f6556","ios":"levelo://app?vid=0d6c51b3-1f5f-4039-95f2-7bd1c74f6556"},"vehicle_type_id":"4","last_reported":1702739157,"current_range_meters":3600,"station_id":"ce4bha12rcd13ifvqef0","pricing_plan_id":"free"},{"bike_id":"8f1d1468-6121-4171-b4a6-c2cd61ad4bdc","system_id":"levelo_inurba_marseille","lat":43.281044,"lon":5.378308,"is_reserved":false,"is_disabled":false,"rental_uris":{"android":"levelo://app?vid=8f1d1468-6121-4171-b4a6-c2cd61ad4bdc","ios":"levelo://app?vid=8f1d1468-6121-4171-b4a6-c2cd61ad4bdc"},"vehicle_type_id":"4","last_reported":1702739157,"current_range_meters":6000,"station_id":"ce4bha12rcd13ifvqee0","pricing_plan_id":"free"},{"bike_id":"28a9afce-9d39-4230-b0a3-7cb925da3588","system_id":"levelo_inurba_marseille","lat":43.326605,"lon":5.409903,"is_reserved":false,"is_disabled":false,"rental_uris":{"android":"levelo://app?vid=28a9afce-9d39-4230-b0a3-7cb925da3588","ios":"levelo://app?vid=28a9afce-9d39-4230-b0a3-7cb925da3588"},"vehicle_type_id":"4","last_reported":1702739157,"current_range_meters":7200,"station_id":"ce4bhpp2rcd13ifvqhgg","pricing_plan_id":"free"},{"bike_id":"4b4681e8-5ae5-40ac-b6b6-d29c248b4938","system_id":"levelo_inurba_marseille","lat":43.304188,"lon":5.412904,"is_reserved":false,"is_disabled":false,"rental_uris":{"android":"levelo://app?vid=4b4681e8-5ae5-40ac-b6b6-d29c248b4938","ios":"levelo://app?vid=4b4681e8-5ae5-40ac-b6b6-d29c248b4938"},"vehicle_type_id":"4","last_reported":1702739157,"current_range_meters":31200,"station_id":"ce4bhop2rcd13ifvqh8g","pricing_plan_id":"free"},{"bike_id":"d7165970-d21f-4a5a-8753-47daa742087e","system_id":"levelo_inurba_marseille","lat":43.279087,"lon":5.380114,"is_reserved":false,"is_disabled":false,"rental_uris":{"android":"levelo://app?vid=d7165970-d21f-4a5a-8753-47daa742087e","ios":"levelo://app?vid=d7165970-d21f-4a5a-8753-47daa742087e"},"vehicle_type_id":"4","last_reported":1702739157,"current_range_meters":24400,"station_id":"ce4bhf92rcd13ifvqf50","pricing_plan_id":"free"},{"bike_id":"ff37b15d-8556-415a-8272-970e6f0cff81","system_id":"levelo_inurba_marseille","lat":43.279087,"lon":5.380114,"is_reserved":false,"is_disabled":false,"rental_uris":{"android":"levelo://app?vid=ff37b15d-8556-415a-8272-970e6f0cff81","ios":"levelo://app?vid=ff37b15d-8556-415a-8272-970e6f0cff81"},"vehicle_type_id":"4","last_reported":1702739157,"current_range_meters":11200,"station_id":"ce4bhf92rcd13ifvqf50","pricing_plan_id":"free"},{"bike_id":"5f75d5dc-d076-42f0-ab8b-1cb820a59ba7","system_id":"levelo_inurba_marseille","lat":43.292571,"lon":5.409107,"is_reserved":false,"is_disabled":false,"rental_uris":{"android":"levelo://app?vid=5f75d5dc-d076-42f0-ab8b-1cb820a59ba7","ios":"levelo://app?vid=5f75d5dc-d076-42f0-ab8b-1cb820a59ba7"},"vehicle_type_id":"4","last_reported":1702739157,"current_range_meters":5200,"station_id":"ce4bh192rcd13ifvqdc0","pricing_plan_id":"free"},{"bike_id":"04c31a2c-3979-41b8-ac39-67ffed4ad17e","system_id":"levelo_inurba_marseille","lat":43.303837,"lon":5.418724,"is_reserved":false,"is_disabled":false,"rental_uris":{"android":"levelo://app?vid=04c31a2c-3979-41b8-ac39-67ffed4ad17e","ios":"levelo://app?vid=04c31a2c-3979-41b8-ac39-67ffed4ad17e"},"vehicle_type_id":"4","last_reported":1702739157,"current_range_meters":2000,"station_id":"ce4bhop2rcd13ifvqh7g","pricing_plan_id":"free"},{"bike_id":"74b5105d-d71e-408d-baba-96ee8b5ab165","system_id":"levelo_inurba_marseille","lat":43.275625,"lon":5.384392,"is_reserved":false,"is_disabled":false,"rental_uris":{"android":"levelo://app?vid=74b5105d-d71e-408d-baba-96ee8b5ab165","ios":"levelo://app?vid=74b5105d-d71e-408d-baba-96ee8b5ab165"},"vehicle_type_id":"4","last_reported":1702739157,"current_range_meters":27600,"station_id":"ce4bhh92rcd13ifvqfi0","pricing_plan_id":"free"},{"bike_id":"7c3da292-cf45-4b7b-90ee-560711d5b3cd","system_id":"levelo_inurba_marseille","lat":43.273613,"lon":5.362705,"is_reserved":false,"is_disabled":false,"rental_uris":{"android":"levelo://app?vid=7c3da292-cf45-4b7b-90ee-560711d5b3cd","ios":"levelo://app?vid=7c3da292-cf45-4b7b-90ee-560711d5b3cd"},"vehicle_type_id":"4","last_reported":1702739157,"current_range_meters":23200,"station_id":"ce4bhbh2rcd13ifvqeo0","pricing_plan_id":"free"},{"bike_id":"a16003f8-6ee5-400e-b9cc-95a819cc5e64","system_id":"levelo_inurba_marseille","lat":43.27375,"lon":5.36251,"is_reserved":false,"is_disabled":false,"rental_uris":{"android":"levelo://app?vid=a16003f8-6ee5-400e-b9cc-95a819cc5e64","ios":"levelo://app?vid=a16003f8-6ee5-400e-b9cc-95a819cc5e64"},"vehicle_type_id":"4","last_reported":1702739157,"current_range_meters":27600,"station_id":"ce4bhbh2rcd13ifvqeo0","pricing_plan_id":"free"},{"bike_id":"b23173a5-9918-4c10-b92b-d155857f9d95","system_id":"levelo_inurba_marseille","lat":43.27375,"lon":5.36248,"is_reserved":false,"is_disabled":false,"rental_uris":{"android":"levelo://app?vid=b23173a5-9918-4c10-b92b-d155857f9d95","ios":"levelo://app?vid=b23173a5-9918-4c10-b92b-d155857f9d95"},"vehicle_type_id":"4","last_reported":1702739157,"current_range_meters":27600,"station_id":"ce4bhbh2rcd13ifvqeo0","pricing_plan_id":"free"},{"bike_id":"462fb428-40b3-4580-b7bf-003bd1f563d0","system_id":"levelo_inurba_marseille","lat":43.273613,"lon":5.362705,"is_reserved":false,"is_disabled":false,"rental_uris":{"android":"levelo://app?vid=462fb428-40b3-4580-b7bf-003bd1f563d0","ios":"levelo://app?vid=462fb428-40b3-4580-b7bf-003bd1f563d0"},"vehicle_type_id":"4","last_reported":1702739157,"current_range_meters":22400,"station_id":"ce4bhbh2rcd13ifvqeo0","pricing_plan_id":"free"},{"bike_id":"ce4e205a-6ee7-486f-a41d-63b17e2bca45","system_id":"levelo_inurba_marseille","lat":43.273613,"lon":5.362705,"is_reserved":false,"is_disabled":false,"rental_uris":{"android":"levelo://app?vid=ce4e205a-6ee7-486f-a41d-63b17e2bca45","ios":"levelo://app?vid=ce4e205a-6ee7-486f-a41d-63b17e2bca45"},"vehicle_type_id":"4","last_reported":1702739157,"current_range_meters":31200,"station_id":"ce4bhbh2rcd13ifvqeo0","pricing_plan_id":"free"},{"bike_id":"5ebbafd3-4425-4b56-91c5-ba048b8c65b7","system_id":"levelo_inurba_marseille","lat":43.273609,"lon":5.362708,"is_reserved":false,"is_disabled":false,"rental_uris":{"android":"levelo://app?vid=5ebbafd3-4425-4b56-91c5-ba048b8c65b7","ios":"levelo://app?vid=5ebbafd3-4425-4b56-91c5-ba048b8c65b7"},"vehicle_type_id":"4","last_reported":1702739157,"current_range_meters":30000,"station_id":"ce4bhbh2rcd13ifvqeo0","pricing_plan_id":"free"},{"bike_id":"7f2c5036-bbca-45ec-975a-7e0fbea4945c","system_id":"levelo_inurba_marseille","lat":43.273609,"lon":5.362708,"is_reserved":false,"is_disabled":false,"rental_uris":{"android":"levelo://app?vid=7f2c5036-bbca-45ec-975a-7e0fbea4945c","ios":"levelo://app?vid=7f2c5036-bbca-45ec-975a-7e0fbea4945c"},"vehicle_type_id":"4","last_reported":1702739157,"current_range_meters":16400,"station_id":"ce4bhbh2rcd13ifvqeo0","pricing_plan_id":"free"},{"bike_id":"8e67b144-a95b-4644-931c-51813a3443d4","system_id":"levelo_inurba_marseille","lat":43.273613,"lon":5.362705,"is_reserved":false,"is_disabled":false,"rental_uris":{"android":"levelo://app?vid=8e67b144-a95b-4644-931c-51813a3443d4","ios":"levelo://app?vid=8e67b144-a95b-4644-931c-51813a3443d4"},"vehicle_type_id":"4","last_reported":1702739157,"current_range_meters":25200,"station_id":"ce4bhbh2rcd13ifvqeo0","pricing_plan_id":"free"},{"bike_id":"91841844-896b-4149-86be-1682f4533b6a","system_id":"levelo_inurba_marseille","lat":43.27371,"lon":5.36257,"is_reserved":false,"is_disabled":false,"rental_uris":{"android":"levelo://app?vid=91841844-896b-4149-86be-1682f4533b6a","ios":"levelo://app?vid=91841844-896b-4149-86be-1682f4533b6a"},"vehicle_type_id":"4","last_reported":1702739157,"current_range_meters":15200,"station_id":"ce4bhbh2rcd13ifvqeo0","pricing_plan_id":"free"},{"bike_id":"03f5bf83-79d3-4210-b993-288b257d7eb3","system_id":"levelo_inurba_marseille","lat":43.273609,"lon":5.362708,"is_reserved":false,"is_disabled":false,"rental_uris":{"android":"levelo://app?vid=03f5bf83-79d3-4210-b993-288b257d7eb3","ios":"levelo://app?vid=03f5bf83-79d3-4210-b993-288b257d7eb3"},"vehicle_type_id":"4","last_reported":1702739157,"current_range_meters":27600,"station_id":"ce4bhbh2rcd13ifvqeo0","pricing_plan_id":"free"},{"bike_id":"d42e8555-6019-4631-9aaf-667d76b0507f","system_id":"levelo_inurba_marseille","lat":43.273609,"lon":5.362708,"is_reserved":false,"is_disabled":false,"rental_uris":{"android":"levelo://app?vid=d42e8555-6019-4631-9aaf-667d76b0507f","ios":"levelo://app?vid=d42e8555-6019-4631-9aaf-667d76b0507f"},"vehicle_type_id":"4","last_reported":1702739157,"current_range_meters":17200,"station_id":"ce4bhbh2rcd13ifvqeo0","pricing_plan_id":"free"},{"bike_id":"a29e20d4-18d0-4f9c-a13d-90cc9f50c878","system_id":"levelo_inurba_marseille","lat":43.273609,"lon":5.362708,"is_reserved":false,"is_disabled":false,"rental_uris":{"android":"levelo://app?vid=a29e20d4-18d0-4f9c-a13d-90cc9f50c878","ios":"levelo://app?vid=a29e20d4-18d0-4f9c-a13d-90cc9f50c878"},"vehicle_type_id":"4","last_reported":1702739157,"current_range_meters":27200,"station_id":"ce4bhbh2rcd13ifvqeo0","pricing_plan_id":"free"},{"bike_id":"e7f3199b-16c7-4ec8-844a-fb3b2f233e43","system_id":"levelo_inurba_marseille","lat":43.317121,"lon":5.423936,"is_reserved":false,"is_disabled":false,"rental_uris":{"android":"levelo://app?vid=e7f3199b-16c7-4ec8-844a-fb3b2f233e43","ios":"levelo://app?vid=e7f3199b-16c7-4ec8-844a-fb3b2f233e43"},"vehicle_type_id":"4","last_reported":1702739157,"current_range_meters":31200,"station_id":"ce4bhp92rcd13ifvqhbg","pricing_plan_id":"free"},{"bike_id":"d5776951-a88b-40da-9925-a49c0668d0c0","system_id":"levelo_inurba_marseille","lat":43.310785,"lon":5.424305,"is_reserved":false,"is_disabled":false,"rental_uris":{"android":"levelo://app?vid=d5776951-a88b-40da-9925-a49c0668d0c0","ios":"levelo://app?vid=d5776951-a88b-40da-9925-a49c0668d0c0"},"vehicle_type_id":"4","last_reported":1702739157,"current_range_meters":8000,"station_id":"ce4bhp92rcd13ifvqhag","pricing_plan_id":"free"},{"bike_id":"13b63d08-aaa3-4985-bf57-1f32727c58d1","system_id":"levelo_inurba_marseille","lat":43.310785,"lon":5.424305,"is_reserved":false,"is_disabled":false,"rental_uris":{"android":"levelo://app?vid=13b63d08-aaa3-4985-bf57-1f32727c58d1","ios":"levelo://app?vid=13b63d08-aaa3-4985-bf57-1f32727c58d1"},"vehicle_type_id":"4","last_reported":1702739157,"current_range_meters":30400,"station_id":"ce4bhp92rcd13ifvqhag","pricing_plan_id":"free"},{"bike_id":"93a9a0b0-f09a-4679-973e-f3ebca0caf36","system_id":"levelo_inurba_marseille","lat":43.310785,"lon":5.424305,"is_reserved":false,"is_disabled":false,"rental_uris":{"android":"levelo://app?vid=93a9a0b0-f09a-4679-973e-f3ebca0caf36","ios":"levelo://app?vid=93a9a0b0-f09a-4679-973e-f3ebca0caf36"},"vehicle_type_id":"4","last_reported":1702739157,"current_range_meters":31200,"station_id":"ce4bhp92rcd13ifvqhag","pricing_plan_id":"free"},{"bike_id":"537d4ba1-d686-41ad-b23a-d66071d8f96a","system_id":"levelo_inurba_marseille","lat":43.310785,"lon":5.424305,"is_reserved":false,"is_disabled":false,"rental_uris":{"android":"levelo://app?vid=537d4ba1-d686-41ad-b23a-d66071d8f96a","ios":"levelo://app?vid=537d4ba1-d686-41ad-b23a-d66071d8f96a"},"vehicle_type_id":"4","last_reported":1702739157,"current_range_meters":30800,"station_id":"ce4bhp92rcd13ifvqhag","pricing_plan_id":"free"},{"bike_id":"10eadedf-b2e9-4bb9-a1f0-77df69175439","system_id":"levelo_inurba_marseille","lat":43.28386,"lon":5.40852,"is_reserved":false,"is_disabled":false,"rental_uris":{"android":"levelo://app?vid=10eadedf-b2e9-4bb9-a1f0-77df69175439","ios":"levelo://app?vid=10eadedf-b2e9-4bb9-a1f0-77df69175439"},"vehicle_type_id":"4","last_reported":1702739157,"current_range_meters":12000,"station_id":"","pricing_plan_id":"free"},{"bike_id":"3ca2c2d2-99b0-4aa6-a05d-e30f02e6a7fb","system_id":"levelo_inurba_marseille","lat":43.276092,"lon":5.395289,"is_reserved":false,"is_disabled":false,"rental_uris":{"android":"levelo://app?vid=3ca2c2d2-99b0-4aa6-a05d-e30f02e6a7fb","ios":"levelo://app?vid=3ca2c2d2-99b0-4aa6-a05d-e30f02e6a7fb"},"vehicle_type_id":"4","last_reported":1702739157,"current_range_meters":22400,"station_id":"","pricing_plan_id":"free"},{"bike_id":"19541092-7362-4be4-8908-5d83863a4be3","system_id":"levelo_inurba_marseille","lat":43.295511,"lon":5.422926,"is_reserved":false,"is_disabled":false,"rental_uris":{"android":"levelo://app?vid=19541092-7362-4be4-8908-5d83863a4be3","ios":"levelo://app?vid=19541092-7362-4be4-8908-5d83863a4be3"},"vehicle_type_id":"4","last_reported":1702739157,"current_range_meters":26400,"station_id":"ce4bhph2rcd13ifvqhdg","pricing_plan_id":"free"},{"bike_id":"5110e4b3-d09d-42e1-9825-c04502f09554","system_id":"levelo_inurba_marseille","lat":43.295511,"lon":5.422926,"is_reserved":false,"is_disabled":false,"rental_uris":{"android":"levelo://app?vid=5110e4b3-d09d-42e1-9825-c04502f09554","ios":"levelo://app?vid=5110e4b3-d09d-42e1-9825-c04502f09554"},"vehicle_type_id":"4","last_reported":1702739157,"current_range_meters":14400,"station_id":"ce4bhph2rcd13ifvqhdg","pricing_plan_id":"free"},{"bike_id":"7c5e5a9a-9f39-4a14-9573-d5b8ab599dd5","system_id":"levelo_inurba_marseille","lat":43.27191,"lon":5.39229,"is_reserved":false,"is_disabled":false,"rental_uris":{"android":"levelo://app?vid=7c5e5a9a-9f39-4a14-9573-d5b8ab599dd5","ios":"levelo://app?vid=7c5e5a9a-9f39-4a14-9573-d5b8ab599dd5"},"vehicle_type_id":"4","last_reported":1702739157,"current_range_meters":18400,"station_id":"ce4bhhp2rcd13ifvqfm0","pricing_plan_id":"free"},{"bike_id":"72ef019a-7364-4e50-9ca7-24a91c82c412","system_id":"levelo_inurba_marseille","lat":43.278128,"lon":5.407195,"is_reserved":false,"is_disabled":false,"rental_uris":{"android":"levelo://app?vid=72ef019a-7364-4e50-9ca7-24a91c82c412","ios":"levelo://app?vid=72ef019a-7364-4e50-9ca7-24a91c82c412"},"vehicle_type_id":"4","last_reported":1702739157,"current_range_meters":19600,"station_id":"ce4bhnh2rcd13ifvqgtg","pricing_plan_id":"free"},{"bike_id":"db774753-4382-453e-a138-c32d538f9839","system_id":"levelo_inurba_marseille","lat":43.35867,"lon":5.35674,"is_reserved":false,"is_disabled":false,"rental_uris":{"android":"levelo://app?vid=db774753-4382-453e-a138-c32d538f9839","ios":"levelo://app?vid=db774753-4382-453e-a138-c32d538f9839"},"vehicle_type_id":"4","last_reported":1702739157,"current_range_meters":9600,"station_id":"","pricing_plan_id":"free"},{"bike_id":"9b4435bb-f73a-4921-ba4a-62608975e466","system_id":"levelo_inurba_marseille","lat":43.2656,"lon":5.37292,"is_reserved":false,"is_disabled":false,"rental_uris":{"android":"levelo://app?vid=9b4435bb-f73a-4921-ba4a-62608975e466","ios":"levelo://app?vid=9b4435bb-f73a-4921-ba4a-62608975e466"},"vehicle_type_id":"4","last_reported":1702739157,"current_range_meters":31200,"station_id":"ce4bhg12rcd13ifvqf70","pricing_plan_id":"free"},{"bike_id":"7b902b2f-d8a2-4e9a-ba54-5ba16afce726","system_id":"levelo_inurba_marseille","lat":43.26681,"lon":5.382694,"is_reserved":false,"is_disabled":false,"rental_uris":{"android":"levelo://app?vid=7b902b2f-d8a2-4e9a-ba54-5ba16afce726","ios":"levelo://app?vid=7b902b2f-d8a2-4e9a-ba54-5ba16afce726"},"vehicle_type_id":"4","last_reported":1702739157,"current_range_meters":2800,"station_id":"ce4bhg92rcd13ifvqf90","pricing_plan_id":"free"},{"bike_id":"875ef6a1-d488-4d9b-9875-b6baa6a2f243","system_id":"levelo_inurba_marseille","lat":43.26681,"lon":5.382694,"is_reserved":false,"is_disabled":false,"rental_uris":{"android":"levelo://app?vid=875ef6a1-d488-4d9b-9875-b6baa6a2f243","ios":"levelo://app?vid=875ef6a1-d488-4d9b-9875-b6baa6a2f243"},"vehicle_type_id":"4","last_reported":1702739157,"current_range_meters":10400,"station_id":"ce4bhg92rcd13ifvqf90","pricing_plan_id":"free"},{"bike_id":"33b754d7-0e33-4910-8233-1908e190d1f3","system_id":"levelo_inurba_marseille","lat":43.26571,"lon":5.38999,"is_reserved":false,"is_disabled":false,"rental_uris":{"android":"levelo://app?vid=33b754d7-0e33-4910-8233-1908e190d1f3","ios":"levelo://app?vid=33b754d7-0e33-4910-8233-1908e190d1f3"},"vehicle_type_id":"4","last_reported":1702739157,"current_range_meters":5600,"station_id":"ce4bhe12rcd13ifvqf30","pricing_plan_id":"free"},{"bike_id":"71a92863-06bb-4840-bc35-445b4aeb1d72","system_id":"levelo_inurba_marseille","lat":43.265734,"lon":5.390091,"is_reserved":false,"is_disabled":false,"rental_uris":{"android":"levelo://app?vid=71a92863-06bb-4840-bc35-445b4aeb1d72","ios":"levelo://app?vid=71a92863-06bb-4840-bc35-445b4aeb1d72"},"vehicle_type_id":"4","last_reported":1702739157,"current_range_meters":2400,"station_id":"ce4bhe12rcd13ifvqf30","pricing_plan_id":"free"},{"bike_id":"33bdd27b-a666-41da-8e2f-1849efe1a9ee","system_id":"levelo_inurba_marseille","lat":43.2657,"lon":5.39004,"is_reserved":false,"is_disabled":false,"rental_uris":{"android":"levelo://app?vid=33bdd27b-a666-41da-8e2f-1849efe1a9ee","ios":"levelo://app?vid=33bdd27b-a666-41da-8e2f-1849efe1a9ee"},"vehicle_type_id":"4","last_reported":1702739157,"current_range_meters":0,"station_id":"ce4bhe12rcd13ifvqf30","pricing_plan_id":"free"},{"bike_id":"7b3acfec-7269-4a55-abfa-7819202d73ef","system_id":"levelo_inurba_marseille","lat":43.308051,"lon":5.43527,"is_reserved":false,"is_disabled":false,"rental_uris":{"android":"levelo://app?vid=7b3acfec-7269-4a55-abfa-7819202d73ef","ios":"levelo://app?vid=7b3acfec-7269-4a55-abfa-7819202d73ef"},"vehicle_type_id":"4","last_reported":1702739157,"current_range_meters":28400,"station_id":"ce4bhph2rcd13ifvqheg","pricing_plan_id":"free"},{"bike_id":"b6353fdf-5c53-4ee6-9792-95abb314c3be","system_id":"levelo_inurba_marseille","lat":43.2657,"lon":5.39017,"is_reserved":false,"is_disabled":false,"rental_uris":{"android":"levelo://app?vid=b6353fdf-5c53-4ee6-9792-95abb314c3be","ios":"levelo://app?vid=b6353fdf-5c53-4ee6-9792-95abb314c3be"},"vehicle_type_id":"4","last_reported":1702739157,"current_range_meters":29600,"station_id":"ce4bhe12rcd13ifvqf30","pricing_plan_id":"free"},{"bike_id":"c4f0b715-326e-4ff2-9acd-13b7abf1862b","system_id":"levelo_inurba_marseille","lat":43.2657,"lon":5.39021,"is_reserved":false,"is_disabled":false,"rental_uris":{"android":"levelo://app?vid=c4f0b715-326e-4ff2-9acd-13b7abf1862b","ios":"levelo://app?vid=c4f0b715-326e-4ff2-9acd-13b7abf1862b"},"vehicle_type_id":"4","last_reported":1702739157,"current_range_meters":4400,"station_id":"ce4bhe12rcd13ifvqf30","pricing_plan_id":"free"},{"bike_id":"5ec4a0fa-131a-48b5-9d42-38e18e9e6942","system_id":"levelo_inurba_marseille","lat":43.265695,"lon":5.390198,"is_reserved":false,"is_disabled":false,"rental_uris":{"android":"levelo://app?vid=5ec4a0fa-131a-48b5-9d42-38e18e9e6942","ios":"levelo://app?vid=5ec4a0fa-131a-48b5-9d42-38e18e9e6942"},"vehicle_type_id":"4","last_reported":1702739157,"current_range_meters":12000,"station_id":"","pricing_plan_id":"free"},{"bike_id":"63a5be26-ca79-42ce-b963-ff2f251917d4","system_id":"levelo_inurba_marseille","lat":43.26563,"lon":5.39012,"is_reserved":false,"is_disabled":false,"rental_uris":{"android":"levelo://app?vid=63a5be26-ca79-42ce-b963-ff2f251917d4","ios":"levelo://app?vid=63a5be26-ca79-42ce-b963-ff2f251917d4"},"vehicle_type_id":"4","last_reported":1702739157,"current_range_meters":0,"station_id":"ce4bhe12rcd13ifvqf30","pricing_plan_id":"free"},{"bike_id":"9c972d29-d006-4f8c-9f09-669e0ec463f1","system_id":"levelo_inurba_marseille","lat":43.26563,"lon":5.390197,"is_reserved":false,"is_disabled":false,"rental_uris":{"android":"levelo://app?vid=9c972d29-d006-4f8c-9f09-669e0ec463f1","ios":"levelo://app?vid=9c972d29-d006-4f8c-9f09-669e0ec463f1"},"vehicle_type_id":"4","last_reported":1702739157,"current_range_meters":11600,"station_id":"ce4bhe12rcd13ifvqf30","pricing_plan_id":"free"},{"bike_id":"21187d67-c0c0-4715-83b9-383209db93eb","system_id":"levelo_inurba_marseille","lat":43.265569,"lon":5.390047,"is_reserved":false,"is_disabled":false,"rental_uris":{"android":"levelo://app?vid=21187d67-c0c0-4715-83b9-383209db93eb","ios":"levelo://app?vid=21187d67-c0c0-4715-83b9-383209db93eb"},"vehicle_type_id":"4","last_reported":1702739157,"current_range_meters":22000,"station_id":"ce4bhe12rcd13ifvqf30","pricing_plan_id":"free"},{"bike_id":"01eea83e-55d9-4aeb-99a1-cdffaa271251","system_id":"levelo_inurba_marseille","lat":43.26192,"lon":5.37442,"is_reserved":false,"is_disabled":false,"rental_uris":{"android":"levelo://app?vid=01eea83e-55d9-4aeb-99a1-cdffaa271251","ios":"levelo://app?vid=01eea83e-55d9-4aeb-99a1-cdffaa271251"},"vehicle_type_id":"4","last_reported":1702739157,"current_range_meters":0,"station_id":"ce4bhgp2rcd13ifvqfc0","pricing_plan_id":"free"},{"bike_id":"4f05c806-20a5-408a-8d5c-74f26aabe002","system_id":"levelo_inurba_marseille","lat":43.26187,"lon":5.37443,"is_reserved":false,"is_disabled":false,"rental_uris":{"android":"levelo://app?vid=4f05c806-20a5-408a-8d5c-74f26aabe002","ios":"levelo://app?vid=4f05c806-20a5-408a-8d5c-74f26aabe002"},"vehicle_type_id":"4","last_reported":1702739157,"current_range_meters":17600,"station_id":"ce4bhgp2rcd13ifvqfc0","pricing_plan_id":"free"},{"bike_id":"6b0b40a9-74eb-4531-99c0-4501597d0817","system_id":"levelo_inurba_marseille","lat":43.262012,"lon":5.379307,"is_reserved":false,"is_disabled":false,"rental_uris":{"android":"levelo://app?vid=6b0b40a9-74eb-4531-99c0-4501597d0817","ios":"levelo://app?vid=6b0b40a9-74eb-4531-99c0-4501597d0817"},"vehicle_type_id":"4","last_reported":1702739157,"current_range_meters":12400,"station_id":"ce4bhjp2rcd13ifvqg90","pricing_plan_id":"free"},{"bike_id":"9a565409-9e4d-4447-8a35-ed26f5edc19c","system_id":"levelo_inurba_marseille","lat":43.26202,"lon":5.379299,"is_reserved":false,"is_disabled":false,"rental_uris":{"android":"levelo://app?vid=9a565409-9e4d-4447-8a35-ed26f5edc19c","ios":"levelo://app?vid=9a565409-9e4d-4447-8a35-ed26f5edc19c"},"vehicle_type_id":"4","last_reported":1702739157,"current_range_meters":2800,"station_id":"ce4bhjp2rcd13ifvqg90","pricing_plan_id":"free"},{"bike_id":"13d8f21a-915d-4b44-a5d4-e05dbec66ced","system_id":"levelo_inurba_marseille","lat":43.26499,"lon":5.39549,"is_reserved":false,"is_disabled":false,"rental_uris":{"android":"levelo://app?vid=13d8f21a-915d-4b44-a5d4-e05dbec66ced","ios":"levelo://app?vid=13d8f21a-915d-4b44-a5d4-e05dbec66ced"},"vehicle_type_id":"4","last_reported":1702739157,"current_range_meters":16000,"station_id":"","pricing_plan_id":"free"},{"bike_id":"ef1ed4df-a6af-43d7-83ad-c599364fa346","system_id":"levelo_inurba_marseille","lat":43.26483,"lon":5.39549,"is_reserved":false,"is_disabled":false,"rental_uris":{"android":"levelo://app?vid=ef1ed4df-a6af-43d7-83ad-c599364fa346","ios":"levelo://app?vid=ef1ed4df-a6af-43d7-83ad-c599364fa346"},"vehicle_type_id":"4","last_reported":1702739157,"current_range_meters":26400,"station_id":"","pricing_plan_id":"free"},{"bike_id":"57ccc1ea-131c-42fd-8beb-82cc191b9608","system_id":"levelo_inurba_marseille","lat":43.2607,"lon":5.393983,"is_reserved":false,"is_disabled":false,"rental_uris":{"android":"levelo://app?vid=57ccc1ea-131c-42fd-8beb-82cc191b9608","ios":"levelo://app?vid=57ccc1ea-131c-42fd-8beb-82cc191b9608"},"vehicle_type_id":"4","last_reported":1702739157,"current_range_meters":24000,"station_id":"ce4bhh92rcd13ifvqfj0","pricing_plan_id":"free"},{"bike_id":"b481152f-ea2a-4488-a299-5e31f8dff5d2","system_id":"levelo_inurba_marseille","lat":43.2607,"lon":5.393983,"is_reserved":false,"is_disabled":false,"rental_uris":{"android":"levelo://app?vid=b481152f-ea2a-4488-a299-5e31f8dff5d2","ios":"levelo://app?vid=b481152f-ea2a-4488-a299-5e31f8dff5d2"},"vehicle_type_id":"4","last_reported":1702739157,"current_range_meters":25200,"station_id":"ce4bhh92rcd13ifvqfj0","pricing_plan_id":"free"},{"bike_id":"b944248a-76c7-45d4-bedf-9798d0e1e0db","system_id":"levelo_inurba_marseille","lat":43.2607,"lon":5.393983,"is_reserved":false,"is_disabled":false,"rental_uris":{"android":"levelo://app?vid=b944248a-76c7-45d4-bedf-9798d0e1e0db","ios":"levelo://app?vid=b944248a-76c7-45d4-bedf-9798d0e1e0db"},"vehicle_type_id":"4","last_reported":1702739157,"current_range_meters":16400,"station_id":"ce4bhh92rcd13ifvqfj0","pricing_plan_id":"free"},{"bike_id":"95e872dd-8240-479c-a75b-117640d5867e","system_id":"levelo_inurba_marseille","lat":43.2607,"lon":5.393983,"is_reserved":false,"is_disabled":false,"rental_uris":{"android":"levelo://app?vid=95e872dd-8240-479c-a75b-117640d5867e","ios":"levelo://app?vid=95e872dd-8240-479c-a75b-117640d5867e"},"vehicle_type_id":"4","last_reported":1702739157,"current_range_meters":18400,"station_id":"ce4bhh92rcd13ifvqfj0","pricing_plan_id":"free"},{"bike_id":"7b0436b3-ff96-4c5c-8bad-aa3b2a2477cd","system_id":"levelo_inurba_marseille","lat":43.275028,"lon":5.424534,"is_reserved":false,"is_disabled":false,"rental_uris":{"android":"levelo://app?vid=7b0436b3-ff96-4c5c-8bad-aa3b2a2477cd","ios":"levelo://app?vid=7b0436b3-ff96-4c5c-8bad-aa3b2a2477cd"},"vehicle_type_id":"4","last_reported":1702739157,"current_range_meters":30000,"station_id":"ce4bhn92rcd13ifvqgrg","pricing_plan_id":"free"},{"bike_id":"f817cae9-049d-414b-b373-9819c9ce59d4","system_id":"levelo_inurba_marseille","lat":43.255756,"lon":5.382303,"is_reserved":false,"is_disabled":false,"rental_uris":{"android":"levelo://app?vid=f817cae9-049d-414b-b373-9819c9ce59d4","ios":"levelo://app?vid=f817cae9-049d-414b-b373-9819c9ce59d4"},"vehicle_type_id":"4","last_reported":1702739157,"current_range_meters":28800,"station_id":"ce4bhih2rcd13ifvqfs0","pricing_plan_id":"free"},{"bike_id":"eadd3c4d-f16c-4035-8e55-227066638d63","system_id":"levelo_inurba_marseille","lat":43.258224,"lon":5.394369,"is_reserved":false,"is_disabled":false,"rental_uris":{"android":"levelo://app?vid=eadd3c4d-f16c-4035-8e55-227066638d63","ios":"levelo://app?vid=eadd3c4d-f16c-4035-8e55-227066638d63"},"vehicle_type_id":"4","last_reported":1702739157,"current_range_meters":16000,"station_id":"ce4bhip2rcd13ifvqft0","pricing_plan_id":"free"},{"bike_id":"370447df-b209-41ad-8c43-574dc9a47e54","system_id":"levelo_inurba_marseille","lat":43.25503,"lon":5.37651,"is_reserved":false,"is_disabled":false,"rental_uris":{"android":"levelo://app?vid=370447df-b209-41ad-8c43-574dc9a47e54","ios":"levelo://app?vid=370447df-b209-41ad-8c43-574dc9a47e54"},"vehicle_type_id":"4","last_reported":1702739157,"current_range_meters":2400,"station_id":"ce4bhh12rcd13ifvqff0","pricing_plan_id":"free"},{"bike_id":"e6cdc3ab-fc1f-46da-b251-bab347a95ba6","system_id":"levelo_inurba_marseille","lat":43.25501,"lon":5.37651,"is_reserved":false,"is_disabled":false,"rental_uris":{"android":"levelo://app?vid=e6cdc3ab-fc1f-46da-b251-bab347a95ba6","ios":"levelo://app?vid=e6cdc3ab-fc1f-46da-b251-bab347a95ba6"},"vehicle_type_id":"4","last_reported":1702739157,"current_range_meters":10800,"station_id":"ce4bhh12rcd13ifvqff0","pricing_plan_id":"free"},{"bike_id":"26954362-f19b-4ce0-ad65-e308ed4d326d","system_id":"levelo_inurba_marseille","lat":43.270721,"lon":5.422764,"is_reserved":false,"is_disabled":false,"rental_uris":{"android":"levelo://app?vid=26954362-f19b-4ce0-ad65-e308ed4d326d","ios":"levelo://app?vid=26954362-f19b-4ce0-ad65-e308ed4d326d"},"vehicle_type_id":"4","last_reported":1702739157,"current_range_meters":19600,"station_id":"ce4bhk92rcd13ifvqgb0","pricing_plan_id":"free"},{"bike_id":"72b18dfa-34f6-4967-9cd1-6491cf975629","system_id":"levelo_inurba_marseille","lat":43.270721,"lon":5.422764,"is_reserved":false,"is_disabled":false,"rental_uris":{"android":"levelo://app?vid=72b18dfa-34f6-4967-9cd1-6491cf975629","ios":"levelo://app?vid=72b18dfa-34f6-4967-9cd1-6491cf975629"},"vehicle_type_id":"4","last_reported":1702739157,"current_range_meters":17600,"station_id":"ce4bhk92rcd13ifvqgb0","pricing_plan_id":"free"},{"bike_id":"c98d070b-1c6e-483c-b054-c855006c48f8","system_id":"levelo_inurba_marseille","lat":43.270721,"lon":5.422764,"is_reserved":false,"is_disabled":false,"rental_uris":{"android":"levelo://app?vid=c98d070b-1c6e-483c-b054-c855006c48f8","ios":"levelo://app?vid=c98d070b-1c6e-483c-b054-c855006c48f8"},"vehicle_type_id":"4","last_reported":1702739157,"current_range_meters":27200,"station_id":"ce4bhk92rcd13ifvqgb0","pricing_plan_id":"free"},{"bike_id":"d580425e-fb16-4470-bb41-0d899b50c75c","system_id":"levelo_inurba_marseille","lat":43.257079,"lon":5.411051,"is_reserved":false,"is_disabled":false,"rental_uris":{"android":"levelo://app?vid=d580425e-fb16-4470-bb41-0d899b50c75c","ios":"levelo://app?vid=d580425e-fb16-4470-bb41-0d899b50c75c"},"vehicle_type_id":"4","last_reported":1702739157,"current_range_meters":11600,"station_id":"ce4bhkp2rcd13ifvqgd0","pricing_plan_id":"free"},{"bike_id":"61a6bfe9-9134-4d07-ba28-9c4b89d1ba25","system_id":"levelo_inurba_marseille","lat":43.25102,"lon":5.403214,"is_reserved":false,"is_disabled":false,"rental_uris":{"android":"levelo://app?vid=61a6bfe9-9134-4d07-ba28-9c4b89d1ba25","ios":"levelo://app?vid=61a6bfe9-9134-4d07-ba28-9c4b89d1ba25"},"vehicle_type_id":"4","last_reported":1702739157,"current_range_meters":14400,"station_id":"ce4bhlh2rcd13ifvqgig","pricing_plan_id":"free"},{"bike_id":"e5323691-4c61-4a2e-a692-6645547b9541","system_id":"levelo_inurba_marseille","lat":43.24693,"lon":5.382096,"is_reserved":false,"is_disabled":false,"rental_uris":{"android":"levelo://app?vid=e5323691-4c61-4a2e-a692-6645547b9541","ios":"levelo://app?vid=e5323691-4c61-4a2e-a692-6645547b9541"},"vehicle_type_id":"4","last_reported":1702739157,"current_range_meters":16800,"station_id":"ce4bhih2rcd13ifvqfr0","pricing_plan_id":"free"},{"bike_id":"cda151f2-9ad2-46c9-9115-b73ba9a06619","system_id":"levelo_inurba_marseille","lat":43.25218,"lon":5.40639,"is_reserved":false,"is_disabled":false,"rental_uris":{"android":"levelo://app?vid=cda151f2-9ad2-46c9-9115-b73ba9a06619","ios":"levelo://app?vid=cda151f2-9ad2-46c9-9115-b73ba9a06619"},"vehicle_type_id":"4","last_reported":1702739157,"current_range_meters":3600,"station_id":"","pricing_plan_id":"free"},{"bike_id":"949d15e9-8df3-4d8f-90d6-7e91ac0bdddf","system_id":"levelo_inurba_marseille","lat":43.246461,"lon":5.389014,"is_reserved":false,"is_disabled":false,"rental_uris":{"android":"levelo://app?vid=949d15e9-8df3-4d8f-90d6-7e91ac0bdddf","ios":"levelo://app?vid=949d15e9-8df3-4d8f-90d6-7e91ac0bdddf"},"vehicle_type_id":"4","last_reported":1702739157,"current_range_meters":27600,"station_id":"ce4bhg12rcd13ifvqf60","pricing_plan_id":"free"},{"bike_id":"ef2db4b3-7784-4335-8a5b-2b997284e3ad","system_id":"levelo_inurba_marseille","lat":43.243884,"lon":5.370737,"is_reserved":false,"is_disabled":false,"rental_uris":{"android":"levelo://app?vid=ef2db4b3-7784-4335-8a5b-2b997284e3ad","ios":"levelo://app?vid=ef2db4b3-7784-4335-8a5b-2b997284e3ad"},"vehicle_type_id":"4","last_reported":1702739157,"current_range_meters":28400,"station_id":"ce4bhhh2rcd13ifvqfk0","pricing_plan_id":"free"},{"bike_id":"c8fb3ef5-2594-44bf-9329-0f87f5449748","system_id":"levelo_inurba_marseille","lat":43.243884,"lon":5.370737,"is_reserved":false,"is_disabled":false,"rental_uris":{"android":"levelo://app?vid=c8fb3ef5-2594-44bf-9329-0f87f5449748","ios":"levelo://app?vid=c8fb3ef5-2594-44bf-9329-0f87f5449748"},"vehicle_type_id":"4","last_reported":1702739157,"current_range_meters":30000,"station_id":"ce4bhhh2rcd13ifvqfk0","pricing_plan_id":"free"},{"bike_id":"3259f5de-e9eb-44b9-9f8a-cc9eded0b82d","system_id":"levelo_inurba_marseille","lat":43.24545,"lon":5.39521,"is_reserved":false,"is_disabled":false,"rental_uris":{"android":"levelo://app?vid=3259f5de-e9eb-44b9-9f8a-cc9eded0b82d","ios":"levelo://app?vid=3259f5de-e9eb-44b9-9f8a-cc9eded0b82d"},"vehicle_type_id":"4","last_reported":1702739157,"current_range_meters":0,"station_id":"ce4bhlp2rcd13ifvqgjg","pricing_plan_id":"free"},{"bike_id":"2913b0e3-c44c-49f1-ba84-d9d46d3f68b0","system_id":"levelo_inurba_marseille","lat":43.24869,"lon":5.41,"is_reserved":false,"is_disabled":false,"rental_uris":{"android":"levelo://app?vid=2913b0e3-c44c-49f1-ba84-d9d46d3f68b0","ios":"levelo://app?vid=2913b0e3-c44c-49f1-ba84-d9d46d3f68b0"},"vehicle_type_id":"4","last_reported":1702739157,"current_range_meters":18800,"station_id":"","pricing_plan_id":"free"},{"bike_id":"723190e8-2435-4395-8f3a-405b8b91239c","system_id":"levelo_inurba_marseille","lat":43.240623,"lon":5.377642,"is_reserved":false,"is_disabled":false,"rental_uris":{"android":"levelo://app?vid=723190e8-2435-4395-8f3a-405b8b91239c","ios":"levelo://app?vid=723190e8-2435-4395-8f3a-405b8b91239c"},"vehicle_type_id":"4","last_reported":1702739157,"current_range_meters":400,"station_id":"ce4bhnp2rcd13ifvqgvg","pricing_plan_id":"free"},{"bike_id":"02c0256e-8eb1-4621-8bdd-516f8996f080","system_id":"levelo_inurba_marseille","lat":43.240623,"lon":5.377642,"is_reserved":false,"is_disabled":false,"rental_uris":{"android":"levelo://app?vid=02c0256e-8eb1-4621-8bdd-516f8996f080","ios":"levelo://app?vid=02c0256e-8eb1-4621-8bdd-516f8996f080"},"vehicle_type_id":"4","last_reported":1702739157,"current_range_meters":20800,"station_id":"ce4bhnp2rcd13ifvqgvg","pricing_plan_id":"free"},{"bike_id":"6dd0bf1c-9ede-4c3e-897f-e93caf4eafe3","system_id":"levelo_inurba_marseille","lat":43.2407,"lon":5.37763,"is_reserved":false,"is_disabled":false,"rental_uris":{"android":"levelo://app?vid=6dd0bf1c-9ede-4c3e-897f-e93caf4eafe3","ios":"levelo://app?vid=6dd0bf1c-9ede-4c3e-897f-e93caf4eafe3"},"vehicle_type_id":"4","last_reported":1702739157,"current_range_meters":800,"station_id":"","pricing_plan_id":"free"},{"bike_id":"c1b67299-17e7-4231-b697-e0dca317cc64","system_id":"levelo_inurba_marseille","lat":43.239588,"lon":5.366238,"is_reserved":false,"is_disabled":false,"rental_uris":{"android":"levelo://app?vid=c1b67299-17e7-4231-b697-e0dca317cc64","ios":"levelo://app?vid=c1b67299-17e7-4231-b697-e0dca317cc64"},"vehicle_type_id":"4","last_reported":1702739157,"current_range_meters":0,"station_id":"ce4bhi12rcd13ifvqfp0","pricing_plan_id":"free"},{"bike_id":"435d75ee-de91-4ee4-89fb-fa5635ccaf42","system_id":"levelo_inurba_marseille","lat":43.231919,"lon":5.355532,"is_reserved":false,"is_disabled":false,"rental_uris":{"android":"levelo://app?vid=435d75ee-de91-4ee4-89fb-fa5635ccaf42","ios":"levelo://app?vid=435d75ee-de91-4ee4-89fb-fa5635ccaf42"},"vehicle_type_id":"4","last_reported":1702739157,"current_range_meters":31200,"station_id":"ce4bhu92rcd13ifvqi70","pricing_plan_id":"free"},{"bike_id":"85d4097c-b8fb-47e3-9b73-ba49b70e33d8","system_id":"levelo_inurba_marseille","lat":43.23198,"lon":5.35558,"is_reserved":false,"is_disabled":false,"rental_uris":{"android":"levelo://app?vid=85d4097c-b8fb-47e3-9b73-ba49b70e33d8","ios":"levelo://app?vid=85d4097c-b8fb-47e3-9b73-ba49b70e33d8"},"vehicle_type_id":"4","last_reported":1702739157,"current_range_meters":24000,"station_id":"ce4bhu92rcd13ifvqi70","pricing_plan_id":"free"},{"bike_id":"d3de5ca6-d559-43d0-8ed6-c46c756ed81c","system_id":"levelo_inurba_marseille","lat":43.23198,"lon":5.35556,"is_reserved":false,"is_disabled":false,"rental_uris":{"android":"levelo://app?vid=d3de5ca6-d559-43d0-8ed6-c46c756ed81c","ios":"levelo://app?vid=d3de5ca6-d559-43d0-8ed6-c46c756ed81c"},"vehicle_type_id":"4","last_reported":1702739157,"current_range_meters":2400,"station_id":"ce4bhu92rcd13ifvqi70","pricing_plan_id":"free"},{"bike_id":"bf3e6daf-e882-4943-8888-2e2ca6915d4a","system_id":"levelo_inurba_marseille","lat":43.231923,"lon":5.355545,"is_reserved":false,"is_disabled":false,"rental_uris":{"android":"levelo://app?vid=bf3e6daf-e882-4943-8888-2e2ca6915d4a","ios":"levelo://app?vid=bf3e6daf-e882-4943-8888-2e2ca6915d4a"},"vehicle_type_id":"4","last_reported":1702739157,"current_range_meters":13600,"station_id":"ce4bhu92rcd13ifvqi70","pricing_plan_id":"free"},{"bike_id":"4b0d1008-3587-4b4f-8125-808574d7e7d7","system_id":"levelo_inurba_marseille","lat":43.23198,"lon":5.35554,"is_reserved":false,"is_disabled":false,"rental_uris":{"android":"levelo://app?vid=4b0d1008-3587-4b4f-8125-808574d7e7d7","ios":"levelo://app?vid=4b0d1008-3587-4b4f-8125-808574d7e7d7"},"vehicle_type_id":"4","last_reported":1702739157,"current_range_meters":24800,"station_id":"ce4bhu92rcd13ifvqi70","pricing_plan_id":"free"},{"bike_id":"547672b1-18af-4711-b9a3-86e73cab70b4","system_id":"levelo_inurba_marseille","lat":43.23198,"lon":5.35552,"is_reserved":false,"is_disabled":false,"rental_uris":{"android":"levelo://app?vid=547672b1-18af-4711-b9a3-86e73cab70b4","ios":"levelo://app?vid=547672b1-18af-4711-b9a3-86e73cab70b4"},"vehicle_type_id":"4","last_reported":1702739157,"current_range_meters":16000,"station_id":"ce4bhu92rcd13ifvqi70","pricing_plan_id":"free"},{"bike_id":"e4f94050-aae1-4821-b78a-030e7070af2a","system_id":"levelo_inurba_marseille","lat":43.23197,"lon":5.35552,"is_reserved":false,"is_disabled":false,"rental_uris":{"android":"levelo://app?vid=e4f94050-aae1-4821-b78a-030e7070af2a","ios":"levelo://app?vid=e4f94050-aae1-4821-b78a-030e7070af2a"},"vehicle_type_id":"4","last_reported":1702739157,"current_range_meters":20000,"station_id":"ce4bhu92rcd13ifvqi70","pricing_plan_id":"free"},{"bike_id":"c0509687-6622-44dd-a042-9b19ef27d0ea","system_id":"levelo_inurba_marseille","lat":43.231953,"lon":5.355563,"is_reserved":false,"is_disabled":false,"rental_uris":{"android":"levelo://app?vid=c0509687-6622-44dd-a042-9b19ef27d0ea","ios":"levelo://app?vid=c0509687-6622-44dd-a042-9b19ef27d0ea"},"vehicle_type_id":"4","last_reported":1702739157,"current_range_meters":31200,"station_id":"ce4bhu92rcd13ifvqi70","pricing_plan_id":"free"},{"bike_id":"760219ab-0887-48ce-b49e-5a40cc3afc6e","system_id":"levelo_inurba_marseille","lat":43.23196,"lon":5.35547,"is_reserved":false,"is_disabled":false,"rental_uris":{"android":"levelo://app?vid=760219ab-0887-48ce-b49e-5a40cc3afc6e","ios":"levelo://app?vid=760219ab-0887-48ce-b49e-5a40cc3afc6e"},"vehicle_type_id":"4","last_reported":1702739157,"current_range_meters":22000,"station_id":"ce4bhu92rcd13ifvqi70","pricing_plan_id":"free"},{"bike_id":"9ca3011f-2d0a-4b46-84e2-5e1bb5df7278","system_id":"levelo_inurba_marseille","lat":43.23195,"lon":5.3555,"is_reserved":false,"is_disabled":false,"rental_uris":{"android":"levelo://app?vid=9ca3011f-2d0a-4b46-84e2-5e1bb5df7278","ios":"levelo://app?vid=9ca3011f-2d0a-4b46-84e2-5e1bb5df7278"},"vehicle_type_id":"4","last_reported":1702739157,"current_range_meters":31200,"station_id":"ce4bhu92rcd13ifvqi70","pricing_plan_id":"free"},{"bike_id":"73cd9c87-b558-4a96-b49b-b12814d070b1","system_id":"levelo_inurba_marseille","lat":43.23195,"lon":5.3555,"is_reserved":false,"is_disabled":false,"rental_uris":{"android":"levelo://app?vid=73cd9c87-b558-4a96-b49b-b12814d070b1","ios":"levelo://app?vid=73cd9c87-b558-4a96-b49b-b12814d070b1"},"vehicle_type_id":"4","last_reported":1702739157,"current_range_meters":30800,"station_id":"ce4bhu92rcd13ifvqi70","pricing_plan_id":"free"},{"bike_id":"bad9b33d-de7d-4c7c-82d1-be01fc455f93","system_id":"levelo_inurba_marseille","lat":43.231948,"lon":5.355478,"is_reserved":false,"is_disabled":false,"rental_uris":{"android":"levelo://app?vid=bad9b33d-de7d-4c7c-82d1-be01fc455f93","ios":"levelo://app?vid=bad9b33d-de7d-4c7c-82d1-be01fc455f93"},"vehicle_type_id":"4","last_reported":1702739157,"current_range_meters":22400,"station_id":"ce4bhu92rcd13ifvqi70","pricing_plan_id":"free"},{"bike_id":"c1f76b82-4e66-4ae8-8e5d-049d6742016a","system_id":"levelo_inurba_marseille","lat":43.231919,"lon":5.355532,"is_reserved":false,"is_disabled":false,"rental_uris":{"android":"levelo://app?vid=c1f76b82-4e66-4ae8-8e5d-049d6742016a","ios":"levelo://app?vid=c1f76b82-4e66-4ae8-8e5d-049d6742016a"},"vehicle_type_id":"4","last_reported":1702739157,"current_range_meters":19200,"station_id":"ce4bhu92rcd13ifvqi70","pricing_plan_id":"free"},{"bike_id":"bb21ca5a-cb13-451e-943b-2dfa4a3b7fbc","system_id":"levelo_inurba_marseille","lat":43.23194,"lon":5.35556,"is_reserved":false,"is_disabled":false,"rental_uris":{"android":"levelo://app?vid=bb21ca5a-cb13-451e-943b-2dfa4a3b7fbc","ios":"levelo://app?vid=bb21ca5a-cb13-451e-943b-2dfa4a3b7fbc"},"vehicle_type_id":"4","last_reported":1702739157,"current_range_meters":31200,"station_id":"ce4bhu92rcd13ifvqi70","pricing_plan_id":"free"},{"bike_id":"a6ab5f0e-f0ee-41be-b237-17726a43f065","system_id":"levelo_inurba_marseille","lat":43.23194,"lon":5.35551,"is_reserved":false,"is_disabled":false,"rental_uris":{"android":"levelo://app?vid=a6ab5f0e-f0ee-41be-b237-17726a43f065","ios":"levelo://app?vid=a6ab5f0e-f0ee-41be-b237-17726a43f065"},"vehicle_type_id":"4","last_reported":1702739157,"current_range_meters":28800,"station_id":"ce4bhu92rcd13ifvqi70","pricing_plan_id":"free"},{"bike_id":"039c8836-5750-4239-bfe5-c54c2d49b674","system_id":"levelo_inurba_marseille","lat":43.231919,"lon":5.355532,"is_reserved":false,"is_disabled":false,"rental_uris":{"android":"levelo://app?vid=039c8836-5750-4239-bfe5-c54c2d49b674","ios":"levelo://app?vid=039c8836-5750-4239-bfe5-c54c2d49b674"},"vehicle_type_id":"4","last_reported":1702739157,"current_range_meters":13600,"station_id":"ce4bhu92rcd13ifvqi70","pricing_plan_id":"free"},{"bike_id":"1941891e-39f7-4cab-a101-89db57bf9cfa","system_id":"levelo_inurba_marseille","lat":43.23193,"lon":5.35556,"is_reserved":false,"is_disabled":false,"rental_uris":{"android":"levelo://app?vid=1941891e-39f7-4cab-a101-89db57bf9cfa","ios":"levelo://app?vid=1941891e-39f7-4cab-a101-89db57bf9cfa"},"vehicle_type_id":"4","last_reported":1702739157,"current_range_meters":30800,"station_id":"ce4bhu92rcd13ifvqi70","pricing_plan_id":"free"},{"bike_id":"a5be7a02-752c-452e-81d7-6afcc7acad03","system_id":"levelo_inurba_marseille","lat":43.231923,"lon":5.355545,"is_reserved":false,"is_disabled":false,"rental_uris":{"android":"levelo://app?vid=a5be7a02-752c-452e-81d7-6afcc7acad03","ios":"levelo://app?vid=a5be7a02-752c-452e-81d7-6afcc7acad03"},"vehicle_type_id":"4","last_reported":1702739157,"current_range_meters":16800,"station_id":"ce4bhu92rcd13ifvqi70","pricing_plan_id":"free"},{"bike_id":"90458881-97e2-4d19-a7dd-597c18dc1844","system_id":"levelo_inurba_marseille","lat":43.231923,"lon":5.355533,"is_reserved":false,"is_disabled":false,"rental_uris":{"android":"levelo://app?vid=90458881-97e2-4d19-a7dd-597c18dc1844","ios":"levelo://app?vid=90458881-97e2-4d19-a7dd-597c18dc1844"},"vehicle_type_id":"4","last_reported":1702739157,"current_range_meters":22000,"station_id":"ce4bhu92rcd13ifvqi70","pricing_plan_id":"free"},{"bike_id":"59a5075d-8f46-4a64-85f3-6c3e0f3bcf1e","system_id":"levelo_inurba_marseille","lat":43.23192,"lon":5.35555,"is_reserved":false,"is_disabled":false,"rental_uris":{"android":"levelo://app?vid=59a5075d-8f46-4a64-85f3-6c3e0f3bcf1e","ios":"levelo://app?vid=59a5075d-8f46-4a64-85f3-6c3e0f3bcf1e"},"vehicle_type_id":"4","last_reported":1702739157,"current_range_meters":22400,"station_id":"ce4bhu92rcd13ifvqi70","pricing_plan_id":"free"},{"bike_id":"c58c2105-152a-4be3-96b7-ef7d8114d5d4","system_id":"levelo_inurba_marseille","lat":43.23192,"lon":5.35554,"is_reserved":false,"is_disabled":false,"rental_uris":{"android":"levelo://app?vid=c58c2105-152a-4be3-96b7-ef7d8114d5d4","ios":"levelo://app?vid=c58c2105-152a-4be3-96b7-ef7d8114d5d4"},"vehicle_type_id":"4","last_reported":1702739157,"current_range_meters":17600,"station_id":"ce4bhu92rcd13ifvqi70","pricing_plan_id":"free"},{"bike_id":"8f40641d-ea03-4e11-8c81-5cd047455ed4","system_id":"levelo_inurba_marseille","lat":43.231919,"lon":5.355532,"is_reserved":false,"is_disabled":false,"rental_uris":{"android":"levelo://app?vid=8f40641d-ea03-4e11-8c81-5cd047455ed4","ios":"levelo://app?vid=8f40641d-ea03-4e11-8c81-5cd047455ed4"},"vehicle_type_id":"4","last_reported":1702739157,"current_range_meters":19200,"station_id":"ce4bhu92rcd13ifvqi70","pricing_plan_id":"free"},{"bike_id":"be641546-dcea-4309-ad5a-32c7507f146a","system_id":"levelo_inurba_marseille","lat":43.23191,"lon":5.35558,"is_reserved":false,"is_disabled":false,"rental_uris":{"android":"levelo://app?vid=be641546-dcea-4309-ad5a-32c7507f146a","ios":"levelo://app?vid=be641546-dcea-4309-ad5a-32c7507f146a"},"vehicle_type_id":"4","last_reported":1702739157,"current_range_meters":14800,"station_id":"ce4bhu92rcd13ifvqi70","pricing_plan_id":"free"},{"bike_id":"e2effc20-8600-4cb3-88e5-e93a2f872714","system_id":"levelo_inurba_marseille","lat":43.23191,"lon":5.35549,"is_reserved":false,"is_disabled":false,"rental_uris":{"android":"levelo://app?vid=e2effc20-8600-4cb3-88e5-e93a2f872714","ios":"levelo://app?vid=e2effc20-8600-4cb3-88e5-e93a2f872714"},"vehicle_type_id":"4","last_reported":1702739157,"current_range_meters":28400,"station_id":"ce4bhu92rcd13ifvqi70","pricing_plan_id":"free"},{"bike_id":"600bdeb8-ea2a-4d1c-a6da-f7a255388a48","system_id":"levelo_inurba_marseille","lat":43.23189,"lon":5.35548,"is_reserved":false,"is_disabled":false,"rental_uris":{"android":"levelo://app?vid=600bdeb8-ea2a-4d1c-a6da-f7a255388a48","ios":"levelo://app?vid=600bdeb8-ea2a-4d1c-a6da-f7a255388a48"},"vehicle_type_id":"4","last_reported":1702739157,"current_range_meters":31200,"station_id":"ce4bhu92rcd13ifvqi70","pricing_plan_id":"free"},{"bike_id":"0914bc04-89c8-46f4-bf04-78aea5230869","system_id":"levelo_inurba_marseille","lat":43.23188,"lon":5.35559,"is_reserved":false,"is_disabled":false,"rental_uris":{"android":"levelo://app?vid=0914bc04-89c8-46f4-bf04-78aea5230869","ios":"levelo://app?vid=0914bc04-89c8-46f4-bf04-78aea5230869"},"vehicle_type_id":"4","last_reported":1702739157,"current_range_meters":30000,"station_id":"ce4bhu92rcd13ifvqi70","pricing_plan_id":"free"},{"bike_id":"9c1c07ed-3609-4a39-97ae-94381b87de66","system_id":"levelo_inurba_marseille","lat":43.23185,"lon":5.35575,"is_reserved":false,"is_disabled":false,"rental_uris":{"android":"levelo://app?vid=9c1c07ed-3609-4a39-97ae-94381b87de66","ios":"levelo://app?vid=9c1c07ed-3609-4a39-97ae-94381b87de66"},"vehicle_type_id":"4","last_reported":1702739157,"current_range_meters":30000,"station_id":"ce4bhu92rcd13ifvqi70","pricing_plan_id":"free"},{"bike_id":"0ad95f91-d9fc-452b-b19b-b9d46b238aff","system_id":"levelo_inurba_marseille","lat":43.291994,"lon":5.357886,"is_reserved":false,"is_disabled":false,"rental_uris":{"android":"levelo://app?vid=0ad95f91-d9fc-452b-b19b-b9d46b238aff","ios":"levelo://app?vid=0ad95f91-d9fc-452b-b19b-b9d46b238aff"},"vehicle_type_id":"4","last_reported":1702739157,"current_range_meters":10400,"station_id":"ce4bhb12rcd13ifvqel0","pricing_plan_id":"free"}]}}