{"last_updated":1739394531,"ttl":60,"version":"2.2","data":{"bikes":[{"bike_id":"9ae4959d-6de9-4c98-bb63-3a430a52595d","system_id":"levelo_inurba_marseille","lat":43.31381,"lon":5.36662,"is_reserved":false,"is_disabled":false,"rental_uris":{"android":"levelo://app?vid=9ae4959d-6de9-4c98-bb63-3a430a52595d","ios":"levelo://app?vid=9ae4959d-6de9-4c98-bb63-3a430a52595d"},"vehicle_type_id":"4","last_reported":1739394531,"current_range_meters":16000,"station_id":"","pricing_plan_id":"cebpf4jnsgd1na2vs0mg"},{"bike_id":"289ba408-0ff9-43d7-b093-e374a42c046c","system_id":"levelo_inurba_marseille","lat":43.28929,"lon":5.36401,"is_reserved":false,"is_disabled":false,"rental_uris":{"android":"levelo://app?vid=289ba408-0ff9-43d7-b093-e374a42c046c","ios":"levelo://app?vid=289ba408-0ff9-43d7-b093-e374a42c046c"},"vehicle_type_id":"4","last_reported":1739394531,"current_range_meters":36800,"station_id":"ce4bhc92rcd13ifvqetg","pricing_plan_id":"cebpf4jnsgd1na2vs0mg"},{"bike_id":"7803dd1a-a242-4883-848b-e4cbfccf197b","system_id":"levelo_inurba_marseille","lat":43.31355,"lon":5.36711,"is_reserved":false,"is_disabled":true,"rental_uris":{"android":"levelo://app?vid=7803dd1a-a242-4883-848b-e4cbfccf197b","ios":"levelo://app?vid=7803dd1a-a242-4883-848b-e4cbfccf197b"},"vehicle_type_id":"4","last_reported":1739394531,"current_range_meters":7200,"station_id":"ce4bgr92rcd13ifvqc6g","pricing_plan_id":"cebpf4jnsgd1na2vs0mg"},{"bike_id":"4006fe94-6b72-425d-8d94-64ada51347a6","system_id":"levelo_inurba_marseille","lat":43.3093,"lon":5.40138,"is_reserved":false,"is_disabled":false,"rental_uris":{"android":"levelo://app?vid=4006fe94-6b72-425d-8d94-64ada51347a6","ios":"levelo://app?vid=4006fe94-6b72-425d-8d94-64ada51347a6"},"vehicle_type_id":"4","last_reported":1739394531,"current_range_meters":8800,"station_id":"ce4bgvp2rcd13ifvqct0","pricing_plan_id":"cebpf4jnsgd1na2vs0mg"},{"bike_id":"4bae22a6-0478-41d7-8bc5-8503fa4f5e94","system_id":"levelo_inurba_marseille","lat":43.24075,"lon":5.37762,"is_reserved":false,"is_disabled":false,"rental_uris":{"android":"levelo://app?vid=4bae22a6-0478-41d7-8bc5-8503fa4f5e94","ios":"levelo://app?vid=4bae22a6-0478-41d7-8bc5-8503fa4f5e94"},"vehicle_type_id":"4","last_reported":1739394531,"current_range_meters":12000,"station_id":"ce4bhnp2rcd13ifvqgvg","pricing_plan_id":"cebpf4jnsgd1na2vs0mg"},{"bike_id":"9c9e6dfa-122e-4154-8057-4016db8e7671","system_id":"levelo_inurba_marseille","lat":43.33737,"lon":5.39152,"is_reserved":false,"is_disabled":false,"rental_uris":{"android":"levelo://app?vid=9c9e6dfa-122e-4154-8057-4016db8e7671","ios":"levelo://app?vid=9c9e6dfa-122e-4154-8057-4016db8e7671"},"vehicle_type_id":"4","last_reported":1739394531,"current_range_meters":38800,"station_id":"ce4bhr92rcd13ifvqhsg","pricing_plan_id":"cebpf4jnsgd1na2vs0mg"},{"bike_id":"192a8f3d-2053-4408-8f04-ba45aeb37d2a","system_id":"levelo_inurba_marseille","lat":43.28569,"lon":5.39494,"is_reserved":false,"is_disabled":false,"rental_uris":{"android":"levelo://app?vid=192a8f3d-2053-4408-8f04-ba45aeb37d2a","ios":"levelo://app?vid=192a8f3d-2053-4408-8f04-ba45aeb37d2a"},"vehicle_type_id":"4","last_reported":1739394531,"current_range_meters":32400,"station_id":"ce4bh292rcd13ifvqdg0","pricing_plan_id":"cebpf4jnsgd1na2vs0mg"},{"bike_id":"1d4165b9-e8af-42e7-8e88-54a0f84b4f26","system_id":"levelo_inurba_marseille","lat":43.23174,"lon":5.39988,"is_reserved":false,"is_disabled":false,"rental_uris":{"android":"levelo://app?vid=1d4165b9-e8af-42e7-8e88-54a0f84b4f26","ios":"levelo://app?vid=1d4165b9-e8af-42e7-8e88-54a0f84b4f26"},"vehicle_type_id":"4","last_reported":1739394531,"current_range_meters":37600,"station_id":"ce4bhn12rcd13ifvqgqg","pricing_plan_id":"cebpf4jnsgd1na2vs0mg"},{"bike_id":"f6ef4f9a-c914-4d4b-a06e-00485b64285e","system_id":"levelo_inurba_marseille","lat":43.32491,"lon":5.36578,"is_reserved":false,"is_disabled":false,"rental_uris":{"android":"levelo://app?vid=f6ef4f9a-c914-4d4b-a06e-00485b64285e","ios":"levelo://app?vid=f6ef4f9a-c914-4d4b-a06e-00485b64285e"},"vehicle_type_id":"4","last_reported":1739394531,"current_range_meters":38800,"station_id":"ce4bhs12rcd13ifvqhvg","pricing_plan_id":"cebpf4jnsgd1na2vs0mg"},{"bike_id":"fc1fee92-8273-4c53-9b5d-b59db38ef6ee","system_id":"levelo_inurba_marseille","lat":43.29428,"lon":5.38633,"is_reserved":false,"is_disabled":false,"rental_uris":{"android":"levelo://app?vid=fc1fee92-8273-4c53-9b5d-b59db38ef6ee","ios":"levelo://app?vid=fc1fee92-8273-4c53-9b5d-b59db38ef6ee"},"vehicle_type_id":"4","last_reported":1739394531,"current_range_meters":14000,"station_id":"ce4bh2h2rcd13ifvqdh0","pricing_plan_id":"cebpf4jnsgd1na2vs0mg"},{"bike_id":"92b0e20b-bdc1-4235-9279-2766910a7620","system_id":"levelo_inurba_marseille","lat":43.30655,"lon":5.40083,"is_reserved":false,"is_disabled":false,"rental_uris":{"android":"levelo://app?vid=92b0e20b-bdc1-4235-9279-2766910a7620","ios":"levelo://app?vid=92b0e20b-bdc1-4235-9279-2766910a7620"},"vehicle_type_id":"4","last_reported":1739394531,"current_range_meters":39200,"station_id":"ce4bh112rcd13ifvqda0","pricing_plan_id":"cebpf4jnsgd1na2vs0mg"},{"bike_id":"9a810e7f-f4d3-4692-9027-c552af7c0f96","system_id":"levelo_inurba_marseille","lat":43.29024,"lon":5.3592,"is_reserved":false,"is_disabled":true,"rental_uris":{"android":"levelo://app?vid=9a810e7f-f4d3-4692-9027-c552af7c0f96","ios":"levelo://app?vid=9a810e7f-f4d3-4692-9027-c552af7c0f96"},"vehicle_type_id":"4","last_reported":1739394531,"current_range_meters":37600,"station_id":"ce4bha92rcd13ifvqeg0","pricing_plan_id":"cebpf4jnsgd1na2vs0mg"},{"bike_id":"4c4891db-fb43-4fcc-aed3-6542b2bf0dbf","system_id":"levelo_inurba_marseille","lat":43.27442,"lon":5.41045,"is_reserved":false,"is_disabled":false,"rental_uris":{"android":"levelo://app?vid=4c4891db-fb43-4fcc-aed3-6542b2bf0dbf","ios":"levelo://app?vid=4c4891db-fb43-4fcc-aed3-6542b2bf0dbf"},"vehicle_type_id":"4","last_reported":1739394531,"current_range_meters":28800,"station_id":"","pricing_plan_id":"cebpf4jnsgd1na2vs0mg"},{"bike_id":"8390feee-0735-4b8f-90c8-f81c741ca7d5","system_id":"levelo_inurba_marseille","lat":43.24817,"lon":5.37466,"is_reserved":false,"is_disabled":false,"rental_uris":{"android":"levelo://app?vid=8390feee-0735-4b8f-90c8-f81c741ca7d5","ios":"levelo://app?vid=8390feee-0735-4b8f-90c8-f81c741ca7d5"},"vehicle_type_id":"4","last_reported":1739394531,"current_range_meters":38800,"station_id":"ce4bhgh2rcd13ifvqfb0","pricing_plan_id":"cebpf4jnsgd1na2vs0mg"},{"bike_id":"0e32f314-de1c-43d6-9735-aad0bdcd1c6f","system_id":"levelo_inurba_marseille","lat":43.28611,"lon":5.35123,"is_reserved":false,"is_disabled":false,"rental_uris":{"android":"levelo://app?vid=0e32f314-de1c-43d6-9735-aad0bdcd1c6f","ios":"levelo://app?vid=0e32f314-de1c-43d6-9735-aad0bdcd1c6f"},"vehicle_type_id":"4","last_reported":1739394531,"current_range_meters":38800,"station_id":"ce4bhch2rcd13ifvqeug","pricing_plan_id":"cebpf4jnsgd1na2vs0mg"},{"bike_id":"9e4564f0-0519-46c9-beea-73f529a3ce6a","system_id":"levelo_inurba_marseille","lat":43.2481,"lon":5.37475,"is_reserved":false,"is_disabled":false,"rental_uris":{"android":"levelo://app?vid=9e4564f0-0519-46c9-beea-73f529a3ce6a","ios":"levelo://app?vid=9e4564f0-0519-46c9-beea-73f529a3ce6a"},"vehicle_type_id":"4","last_reported":1739394531,"current_range_meters":27200,"station_id":"ce4bhgh2rcd13ifvqfb0","pricing_plan_id":"cebpf4jnsgd1na2vs0mg"},{"bike_id":"0250aca6-c9a4-4915-b4e4-9b6ef95dcbd9","system_id":"levelo_inurba_marseille","lat":43.30482,"lon":5.37903,"is_reserved":false,"is_disabled":false,"rental_uris":{"android":"levelo://app?vid=0250aca6-c9a4-4915-b4e4-9b6ef95dcbd9","ios":"levelo://app?vid=0250aca6-c9a4-4915-b4e4-9b6ef95dcbd9"},"vehicle_type_id":"4","last_reported":1739394531,"current_range_meters":38800,"station_id":"ce4bgup2rcd13ifvqcn0","pricing_plan_id":"cebpf4jnsgd1na2vs0mg"},{"bike_id":"d337aa82-d93f-459b-9b0e-9817b976a831","system_id":"levelo_inurba_marseille","lat":43.29777,"lon":5.37137,"is_reserved":false,"is_disabled":false,"rental_uris":{"android":"levelo://app?vid=d337aa82-d93f-459b-9b0e-9817b976a831","ios":"levelo://app?vid=d337aa82-d93f-459b-9b0e-9817b976a831"},"vehicle_type_id":"4","last_reported":1739394531,"current_range_meters":32800,"station_id":"ce4bgop2rcd13ifvqc1g","pricing_plan_id":"cebpf4jnsgd1na2vs0mg"},{"bike_id":"d61f1a82-a9af-4cb4-b60e-a1bdf8706c13","system_id":"levelo_inurba_marseille","lat":43.27819,"lon":5.40699,"is_reserved":false,"is_disabled":false,"rental_uris":{"android":"levelo://app?vid=d61f1a82-a9af-4cb4-b60e-a1bdf8706c13","ios":"levelo://app?vid=d61f1a82-a9af-4cb4-b60e-a1bdf8706c13"},"vehicle_type_id":"4","last_reported":1739394531,"current_range_meters":38800,"station_id":"ce4bhnh2rcd13ifvqgtg","pricing_plan_id":"cebpf4jnsgd1na2vs0mg"},{"bike_id":"21eb4c43-e775-41c5-90fc-a36be7f0fdd0","system_id":"levelo_inurba_marseille","lat":43.30314,"lon":5.36889,"is_reserved":false,"is_disabled":false,"rental_uris":{"android":"levelo://app?vid=21eb4c43-e775-41c5-90fc-a36be7f0fdd0","ios":"levelo://app?vid=21eb4c43-e775-41c5-90fc-a36be7f0fdd0"},"vehicle_type_id":"4","last_reported":1739394531,"current_range_meters":4800,"station_id":"ce4bgqh2rcd13ifvqc5g","pricing_plan_id":"cebpf4jnsgd1na2vs0mg"},{"bike_id":"85e50414-9cde-40dd-a3d7-d71baac7f164","system_id":"levelo_inurba_marseille","lat":43.2884,"lon":5.39304,"is_reserved":false,"is_disabled":false,"rental_uris":{"android":"levelo://app?vid=85e50414-9cde-40dd-a3d7-d71baac7f164","ios":"levelo://app?vid=85e50414-9cde-40dd-a3d7-d71baac7f164"},"vehicle_type_id":"4","last_reported":1739394531,"current_range_meters":38000,"station_id":"ce4bh2p2rcd13ifvqdi0","pricing_plan_id":"cebpf4jnsgd1na2vs0mg"},{"bike_id":"446c921d-2cb7-4707-9a39-eb0b537dd153","system_id":"levelo_inurba_marseille","lat":43.30328,"lon":5.40425,"is_reserved":false,"is_disabled":false,"rental_uris":{"android":"levelo://app?vid=446c921d-2cb7-4707-9a39-eb0b537dd153","ios":"levelo://app?vid=446c921d-2cb7-4707-9a39-eb0b537dd153"},"vehicle_type_id":"4","last_reported":1739394531,"current_range_meters":25200,"station_id":"ce4bh012rcd13ifvqd10","pricing_plan_id":"cebpf4jnsgd1na2vs0mg"},{"bike_id":"224dce56-c44e-4b91-bb45-919ca8990be5","system_id":"levelo_inurba_marseille","lat":43.29047,"lon":5.35913,"is_reserved":false,"is_disabled":false,"rental_uris":{"android":"levelo://app?vid=224dce56-c44e-4b91-bb45-919ca8990be5","ios":"levelo://app?vid=224dce56-c44e-4b91-bb45-919ca8990be5"},"vehicle_type_id":"4","last_reported":1739394531,"current_range_meters":38800,"station_id":"ce4bha92rcd13ifvqeg0","pricing_plan_id":"cebpf4jnsgd1na2vs0mg"},{"bike_id":"45794646-8ec2-4f0d-b829-7c35a7e99dd3","system_id":"levelo_inurba_marseille","lat":43.28706,"lon":5.37386,"is_reserved":false,"is_disabled":false,"rental_uris":{"android":"levelo://app?vid=45794646-8ec2-4f0d-b829-7c35a7e99dd3","ios":"levelo://app?vid=45794646-8ec2-4f0d-b829-7c35a7e99dd3"},"vehicle_type_id":"4","last_reported":1739394531,"current_range_meters":22000,"station_id":"ce4bh3p2rcd13ifvqdq0","pricing_plan_id":"cebpf4jnsgd1na2vs0mg"},{"bike_id":"39e55a90-fe76-4904-bf9c-9841fe168f13","system_id":"levelo_inurba_marseille","lat":43.3373,"lon":5.39174,"is_reserved":false,"is_disabled":false,"rental_uris":{"android":"levelo://app?vid=39e55a90-fe76-4904-bf9c-9841fe168f13","ios":"levelo://app?vid=39e55a90-fe76-4904-bf9c-9841fe168f13"},"vehicle_type_id":"4","last_reported":1739394531,"current_range_meters":38800,"station_id":"ce4bhr92rcd13ifvqhsg","pricing_plan_id":"cebpf4jnsgd1na2vs0mg"},{"bike_id":"374291eb-dc58-4562-ad40-83cb7ab12d1d","system_id":"levelo_inurba_marseille","lat":43.30318,"lon":5.36894,"is_reserved":false,"is_disabled":false,"rental_uris":{"android":"levelo://app?vid=374291eb-dc58-4562-ad40-83cb7ab12d1d","ios":"levelo://app?vid=374291eb-dc58-4562-ad40-83cb7ab12d1d"},"vehicle_type_id":"4","last_reported":1739394531,"current_range_meters":8400,"station_id":"ce4bgqh2rcd13ifvqc5g","pricing_plan_id":"cebpf4jnsgd1na2vs0mg"},{"bike_id":"e9b1e2c3-4aa6-4f91-a44a-25404004ade1","system_id":"levelo_inurba_marseille","lat":43.30541,"lon":5.3842,"is_reserved":false,"is_disabled":false,"rental_uris":{"android":"levelo://app?vid=e9b1e2c3-4aa6-4f91-a44a-25404004ade1","ios":"levelo://app?vid=e9b1e2c3-4aa6-4f91-a44a-25404004ade1"},"vehicle_type_id":"4","last_reported":1739394531,"current_range_meters":24000,"station_id":"ce4bgg92rcd13ifvqb30","pricing_plan_id":"cebpf4jnsgd1na2vs0mg"},{"bike_id":"ad55ee2a-2b36-44bf-9bea-ebb16c51c77b","system_id":"levelo_inurba_marseille","lat":43.27375,"lon":5.36264,"is_reserved":false,"is_disabled":false,"rental_uris":{"android":"levelo://app?vid=ad55ee2a-2b36-44bf-9bea-ebb16c51c77b","ios":"levelo://app?vid=ad55ee2a-2b36-44bf-9bea-ebb16c51c77b"},"vehicle_type_id":"4","last_reported":1739394531,"current_range_meters":28400,"station_id":"ce4bhbh2rcd13ifvqeo0","pricing_plan_id":"cebpf4jnsgd1na2vs0mg"},{"bike_id":"2a5c1b07-7008-4f6d-9a02-f1ed29550b44","system_id":"levelo_inurba_marseille","lat":43.32486,"lon":5.36563,"is_reserved":false,"is_disabled":false,"rental_uris":{"android":"levelo://app?vid=2a5c1b07-7008-4f6d-9a02-f1ed29550b44","ios":"levelo://app?vid=2a5c1b07-7008-4f6d-9a02-f1ed29550b44"},"vehicle_type_id":"4","last_reported":1739394531,"current_range_meters":30400,"station_id":"ce4bhs12rcd13ifvqhvg","pricing_plan_id":"cebpf4jnsgd1na2vs0mg"},{"bike_id":"f30dab52-eb41-433c-9e4f-d62f15ac92f9","system_id":"levelo_inurba_marseille","lat":43.31274,"lon":5.40179,"is_reserved":false,"is_disabled":false,"rental_uris":{"android":"levelo://app?vid=f30dab52-eb41-433c-9e4f-d62f15ac92f9","ios":"levelo://app?vid=f30dab52-eb41-433c-9e4f-d62f15ac92f9"},"vehicle_type_id":"4","last_reported":1739394531,"current_range_meters":11200,"station_id":"ce4bh092rcd13ifvqd30","pricing_plan_id":"cebpf4jnsgd1na2vs0mg"},{"bike_id":"beaf99d0-78ae-4346-9234-eab9e30e97c5","system_id":"levelo_inurba_marseille","lat":43.34159,"lon":5.40854,"is_reserved":false,"is_disabled":false,"rental_uris":{"android":"levelo://app?vid=beaf99d0-78ae-4346-9234-eab9e30e97c5","ios":"levelo://app?vid=beaf99d0-78ae-4346-9234-eab9e30e97c5"},"vehicle_type_id":"4","last_reported":1739394531,"current_range_meters":38000,"station_id":"ce4bhqh2rcd13ifvqhlg","pricing_plan_id":"cebpf4jnsgd1na2vs0mg"},{"bike_id":"8cb8bf97-682e-470a-bfba-7fc561c8ac49","system_id":"levelo_inurba_marseille","lat":43.28567,"lon":5.39504,"is_reserved":false,"is_disabled":false,"rental_uris":{"android":"levelo://app?vid=8cb8bf97-682e-470a-bfba-7fc561c8ac49","ios":"levelo://app?vid=8cb8bf97-682e-470a-bfba-7fc561c8ac49"},"vehicle_type_id":"4","last_reported":1739394531,"current_range_meters":24400,"station_id":"ce4bh292rcd13ifvqdg0","pricing_plan_id":"cebpf4jnsgd1na2vs0mg"},{"bike_id":"b737ae82-c86e-4ede-80b2-31fc6f755e14","system_id":"levelo_inurba_marseille","lat":43.29537,"lon":5.38538,"is_reserved":false,"is_disabled":true,"rental_uris":{"android":"levelo://app?vid=b737ae82-c86e-4ede-80b2-31fc6f755e14","ios":"levelo://app?vid=b737ae82-c86e-4ede-80b2-31fc6f755e14"},"vehicle_type_id":"4","last_reported":1739394531,"current_range_meters":38000,"station_id":"ce4bgih2rcd13ifvqba0","pricing_plan_id":"cebpf4jnsgd1na2vs0mg"},{"bike_id":"25c671e0-0402-4bec-957d-62e6fc533515","system_id":"levelo_inurba_marseille","lat":43.28051,"lon":5.36898,"is_reserved":false,"is_disabled":false,"rental_uris":{"android":"levelo://app?vid=25c671e0-0402-4bec-957d-62e6fc533515","ios":"levelo://app?vid=25c671e0-0402-4bec-957d-62e6fc533515"},"vehicle_type_id":"4","last_reported":1739394531,"current_range_meters":24000,"station_id":"ce4bha12rcd13ifvqef0","pricing_plan_id":"cebpf4jnsgd1na2vs0mg"},{"bike_id":"770f5d6e-dff9-4b5f-9cf9-4949364ba6c1","system_id":"levelo_inurba_marseille","lat":43.25584,"lon":5.38232,"is_reserved":false,"is_disabled":false,"rental_uris":{"android":"levelo://app?vid=770f5d6e-dff9-4b5f-9cf9-4949364ba6c1","ios":"levelo://app?vid=770f5d6e-dff9-4b5f-9cf9-4949364ba6c1"},"vehicle_type_id":"4","last_reported":1739394531,"current_range_meters":17200,"station_id":"ce4bhih2rcd13ifvqfs0","pricing_plan_id":"cebpf4jnsgd1na2vs0mg"},{"bike_id":"20cff2ea-df40-43e9-9e60-e9c41ce0ec64","system_id":"levelo_inurba_marseille","lat":43.23154,"lon":5.43707,"is_reserved":false,"is_disabled":false,"rental_uris":{"android":"levelo://app?vid=20cff2ea-df40-43e9-9e60-e9c41ce0ec64","ios":"levelo://app?vid=20cff2ea-df40-43e9-9e60-e9c41ce0ec64"},"vehicle_type_id":"4","last_reported":1739394531,"current_range_meters":39200,"station_id":"ce4bhmp2rcd13ifvqgog","pricing_plan_id":"cebpf4jnsgd1na2vs0mg"},{"bike_id":"55fa0fd1-4793-4372-94cc-c9ee5bd4ca87","system_id":"levelo_inurba_marseille","lat":43.28677,"lon":5.38634,"is_reserved":false,"is_disabled":true,"rental_uris":{"android":"levelo://app?vid=55fa0fd1-4793-4372-94cc-c9ee5bd4ca87","ios":"levelo://app?vid=55fa0fd1-4793-4372-94cc-c9ee5bd4ca87"},"vehicle_type_id":"4","last_reported":1739394531,"current_range_meters":36000,"station_id":"ce4bh492rcd13ifvqdug","pricing_plan_id":"cebpf4jnsgd1na2vs0mg"},{"bike_id":"5e91a58d-a04e-4ac5-8e6a-b7165a1c45f4","system_id":"levelo_inurba_marseille","lat":43.29718,"lon":5.36613,"is_reserved":false,"is_disabled":false,"rental_uris":{"android":"levelo://app?vid=5e91a58d-a04e-4ac5-8e6a-b7165a1c45f4","ios":"levelo://app?vid=5e91a58d-a04e-4ac5-8e6a-b7165a1c45f4"},"vehicle_type_id":"4","last_reported":1739394531,"current_range_meters":39200,"station_id":"ce4bgn12rcd13ifvqbt0","pricing_plan_id":"cebpf4jnsgd1na2vs0mg"},{"bike_id":"22ff1dad-02eb-4e0d-a41d-94815f9a4df0","system_id":"levelo_inurba_marseille","lat":43.27496,"lon":5.42454,"is_reserved":false,"is_disabled":false,"rental_uris":{"android":"levelo://app?vid=22ff1dad-02eb-4e0d-a41d-94815f9a4df0","ios":"levelo://app?vid=22ff1dad-02eb-4e0d-a41d-94815f9a4df0"},"vehicle_type_id":"4","last_reported":1739394531,"current_range_meters":38800,"station_id":"ce4bhn92rcd13ifvqgrg","pricing_plan_id":"cebpf4jnsgd1na2vs0mg"},{"bike_id":"679b51a7-0864-4c79-a75b-8b937ab8b8fc","system_id":"levelo_inurba_marseille","lat":43.24544,"lon":5.39537,"is_reserved":false,"is_disabled":false,"rental_uris":{"android":"levelo://app?vid=679b51a7-0864-4c79-a75b-8b937ab8b8fc","ios":"levelo://app?vid=679b51a7-0864-4c79-a75b-8b937ab8b8fc"},"vehicle_type_id":"4","last_reported":1739394531,"current_range_meters":35200,"station_id":"ce4bhlp2rcd13ifvqgjg","pricing_plan_id":"cebpf4jnsgd1na2vs0mg"},{"bike_id":"d2090b16-1da9-4170-8973-962616ace04b","system_id":"levelo_inurba_marseille","lat":43.28441,"lon":5.39169,"is_reserved":false,"is_disabled":true,"rental_uris":{"android":"levelo://app?vid=d2090b16-1da9-4170-8973-962616ace04b","ios":"levelo://app?vid=d2090b16-1da9-4170-8973-962616ace04b"},"vehicle_type_id":"4","last_reported":1739394531,"current_range_meters":30000,"station_id":"ce4bhoh2rcd13ifvqh5g","pricing_plan_id":"cebpf4jnsgd1na2vs0mg"},{"bike_id":"6c956ae1-e540-4fc7-9455-5729ac7f892e","system_id":"levelo_inurba_marseille","lat":43.29852,"lon":5.36265,"is_reserved":false,"is_disabled":false,"rental_uris":{"android":"levelo://app?vid=6c956ae1-e540-4fc7-9455-5729ac7f892e","ios":"levelo://app?vid=6c956ae1-e540-4fc7-9455-5729ac7f892e"},"vehicle_type_id":"4","last_reported":1739394531,"current_range_meters":17200,"station_id":"ce4bgpp2rcd13ifvqc3g","pricing_plan_id":"cebpf4jnsgd1na2vs0mg"},{"bike_id":"3425a89b-f60c-4d0e-aca5-29bd2e04eccc","system_id":"levelo_inurba_marseille","lat":43.28941,"lon":5.36632,"is_reserved":false,"is_disabled":false,"rental_uris":{"android":"levelo://app?vid=3425a89b-f60c-4d0e-aca5-29bd2e04eccc","ios":"levelo://app?vid=3425a89b-f60c-4d0e-aca5-29bd2e04eccc"},"vehicle_type_id":"4","last_reported":1739394531,"current_range_meters":27200,"station_id":"ce4bhap2rcd13ifvqek0","pricing_plan_id":"cebpf4jnsgd1na2vs0mg"},{"bike_id":"afab657c-f010-460e-9dd2-84e36d509c29","system_id":"levelo_inurba_marseille","lat":43.30894,"lon":5.39627,"is_reserved":false,"is_disabled":false,"rental_uris":{"android":"levelo://app?vid=afab657c-f010-460e-9dd2-84e36d509c29","ios":"levelo://app?vid=afab657c-f010-460e-9dd2-84e36d509c29"},"vehicle_type_id":"4","last_reported":1739394531,"current_range_meters":39200,"station_id":"ce4bh012rcd13ifvqcv0","pricing_plan_id":"cebpf4jnsgd1na2vs0mg"},{"bike_id":"83f86852-939d-4ba2-8006-31400717194c","system_id":"levelo_inurba_marseille","lat":43.27815,"lon":5.4071,"is_reserved":false,"is_disabled":false,"rental_uris":{"android":"levelo://app?vid=83f86852-939d-4ba2-8006-31400717194c","ios":"levelo://app?vid=83f86852-939d-4ba2-8006-31400717194c"},"vehicle_type_id":"4","last_reported":1739394531,"current_range_meters":28800,"station_id":"ce4bhnh2rcd13ifvqgtg","pricing_plan_id":"cebpf4jnsgd1na2vs0mg"},{"bike_id":"ccdae001-9573-4b87-92dd-6c043d86e6c5","system_id":"levelo_inurba_marseille","lat":43.31263,"lon":5.40165,"is_reserved":false,"is_disabled":false,"rental_uris":{"android":"levelo://app?vid=ccdae001-9573-4b87-92dd-6c043d86e6c5","ios":"levelo://app?vid=ccdae001-9573-4b87-92dd-6c043d86e6c5"},"vehicle_type_id":"4","last_reported":1739394531,"current_range_meters":39200,"station_id":"ce4bh092rcd13ifvqd30","pricing_plan_id":"cebpf4jnsgd1na2vs0mg"},{"bike_id":"704ec19d-e7c0-4858-a423-dcfa560220a5","system_id":"levelo_inurba_marseille","lat":43.23188,"lon":5.39978,"is_reserved":false,"is_disabled":false,"rental_uris":{"android":"levelo://app?vid=704ec19d-e7c0-4858-a423-dcfa560220a5","ios":"levelo://app?vid=704ec19d-e7c0-4858-a423-dcfa560220a5"},"vehicle_type_id":"4","last_reported":1739394531,"current_range_meters":38000,"station_id":"ce4bhn12rcd13ifvqgqg","pricing_plan_id":"cebpf4jnsgd1na2vs0mg"},{"bike_id":"6aa1eeb5-b35e-43ad-992b-ddcb7e868893","system_id":"levelo_inurba_marseille","lat":43.26693,"lon":5.38272,"is_reserved":false,"is_disabled":false,"rental_uris":{"android":"levelo://app?vid=6aa1eeb5-b35e-43ad-992b-ddcb7e868893","ios":"levelo://app?vid=6aa1eeb5-b35e-43ad-992b-ddcb7e868893"},"vehicle_type_id":"4","last_reported":1739394531,"current_range_meters":38800,"station_id":"ce4bhg92rcd13ifvqf90","pricing_plan_id":"cebpf4jnsgd1na2vs0mg"},{"bike_id":"18cd0ac3-8508-44a5-b8aa-4df23e3d83ca","system_id":"levelo_inurba_marseille","lat":43.27996,"lon":5.41661,"is_reserved":false,"is_disabled":false,"rental_uris":{"android":"levelo://app?vid=18cd0ac3-8508-44a5-b8aa-4df23e3d83ca","ios":"levelo://app?vid=18cd0ac3-8508-44a5-b8aa-4df23e3d83ca"},"vehicle_type_id":"4","last_reported":1739394531,"current_range_meters":22800,"station_id":"ce4bho12rcd13ifvqh1g","pricing_plan_id":"cebpf4jnsgd1na2vs0mg"},{"bike_id":"7f922148-2ec9-4ffb-81da-2699ff8cc00b","system_id":"levelo_inurba_marseille","lat":43.23188,"lon":5.39993,"is_reserved":false,"is_disabled":false,"rental_uris":{"android":"levelo://app?vid=7f922148-2ec9-4ffb-81da-2699ff8cc00b","ios":"levelo://app?vid=7f922148-2ec9-4ffb-81da-2699ff8cc00b"},"vehicle_type_id":"4","last_reported":1739394531,"current_range_meters":10000,"station_id":"ce4bhn12rcd13ifvqgqg","pricing_plan_id":"cebpf4jnsgd1na2vs0mg"},{"bike_id":"310e901e-439f-4230-a3a7-eaa903aa1f67","system_id":"levelo_inurba_marseille","lat":43.28705,"lon":5.37397,"is_reserved":false,"is_disabled":false,"rental_uris":{"android":"levelo://app?vid=310e901e-439f-4230-a3a7-eaa903aa1f67","ios":"levelo://app?vid=310e901e-439f-4230-a3a7-eaa903aa1f67"},"vehicle_type_id":"4","last_reported":1739394531,"current_range_meters":36800,"station_id":"ce4bh3p2rcd13ifvqdq0","pricing_plan_id":"cebpf4jnsgd1na2vs0mg"},{"bike_id":"f5140a58-b137-4968-80ec-951b81687f9e","system_id":"levelo_inurba_marseille","lat":43.28454,"lon":5.39183,"is_reserved":false,"is_disabled":false,"rental_uris":{"android":"levelo://app?vid=f5140a58-b137-4968-80ec-951b81687f9e","ios":"levelo://app?vid=f5140a58-b137-4968-80ec-951b81687f9e"},"vehicle_type_id":"4","last_reported":1739394531,"current_range_meters":38800,"station_id":"ce4bhoh2rcd13ifvqh5g","pricing_plan_id":"cebpf4jnsgd1na2vs0mg"},{"bike_id":"e4ca7d71-dbbb-4a96-b462-a74ecad575e3","system_id":"levelo_inurba_marseille","lat":43.27493,"lon":5.42452,"is_reserved":false,"is_disabled":false,"rental_uris":{"android":"levelo://app?vid=e4ca7d71-dbbb-4a96-b462-a74ecad575e3","ios":"levelo://app?vid=e4ca7d71-dbbb-4a96-b462-a74ecad575e3"},"vehicle_type_id":"4","last_reported":1739394531,"current_range_meters":38800,"station_id":"ce4bhn92rcd13ifvqgrg","pricing_plan_id":"cebpf4jnsgd1na2vs0mg"},{"bike_id":"f61f0289-db11-4f78-af36-f70fd4404161","system_id":"levelo_inurba_marseille","lat":43.290051,"lon":5.356176,"is_reserved":false,"is_disabled":true,"rental_uris":{"android":"levelo://app?vid=f61f0289-db11-4f78-af36-f70fd4404161","ios":"levelo://app?vid=f61f0289-db11-4f78-af36-f70fd4404161"},"vehicle_type_id":"4","last_reported":1739394531,"current_range_meters":32800,"station_id":"","pricing_plan_id":"cebpf4jnsgd1na2vs0mg"},{"bike_id":"9430e314-d1fa-4943-b407-a6dba19f85c9","system_id":"levelo_inurba_marseille","lat":43.295212,"lon":5.390507,"is_reserved":false,"is_disabled":false,"rental_uris":{"android":"levelo://app?vid=9430e314-d1fa-4943-b407-a6dba19f85c9","ios":"levelo://app?vid=9430e314-d1fa-4943-b407-a6dba19f85c9"},"vehicle_type_id":"4","last_reported":1739394531,"current_range_meters":39200,"station_id":"ce4bh3p2rcd13ifvqdp0","pricing_plan_id":"cebpf4jnsgd1na2vs0mg"},{"bike_id":"d06fb2b2-c3c2-4116-87f0-f0d5ad8f7bab","system_id":"levelo_inurba_marseille","lat":43.28959,"lon":5.36408,"is_reserved":false,"is_disabled":false,"rental_uris":{"android":"levelo://app?vid=d06fb2b2-c3c2-4116-87f0-f0d5ad8f7bab","ios":"levelo://app?vid=d06fb2b2-c3c2-4116-87f0-f0d5ad8f7bab"},"vehicle_type_id":"4","last_reported":1739394531,"current_range_meters":38800,"station_id":"ce4bhc92rcd13ifvqetg","pricing_plan_id":"cebpf4jnsgd1na2vs0mg"},{"bike_id":"bc235a4c-617d-46ba-8c7a-21502f4b2aaf","system_id":"levelo_inurba_marseille","lat":43.2319,"lon":5.40001,"is_reserved":false,"is_disabled":false,"rental_uris":{"android":"levelo://app?vid=bc235a4c-617d-46ba-8c7a-21502f4b2aaf","ios":"levelo://app?vid=bc235a4c-617d-46ba-8c7a-21502f4b2aaf"},"vehicle_type_id":"4","last_reported":1739394531,"current_range_meters":19200,"station_id":"ce4bhn12rcd13ifvqgqg","pricing_plan_id":"cebpf4jnsgd1na2vs0mg"},{"bike_id":"7e4baaff-43df-45ac-ba99-60d4ee3b5a14","system_id":"levelo_inurba_marseille","lat":43.32476,"lon":5.36552,"is_reserved":false,"is_disabled":false,"rental_uris":{"android":"levelo://app?vid=7e4baaff-43df-45ac-ba99-60d4ee3b5a14","ios":"levelo://app?vid=7e4baaff-43df-45ac-ba99-60d4ee3b5a14"},"vehicle_type_id":"4","last_reported":1739394531,"current_range_meters":38800,"station_id":"ce4bhs12rcd13ifvqhvg","pricing_plan_id":"cebpf4jnsgd1na2vs0mg"},{"bike_id":"5bf7b31a-f643-4d39-ac8f-028588cb3b5d","system_id":"levelo_inurba_marseille","lat":43.24077,"lon":5.37782,"is_reserved":false,"is_disabled":false,"rental_uris":{"android":"levelo://app?vid=5bf7b31a-f643-4d39-ac8f-028588cb3b5d","ios":"levelo://app?vid=5bf7b31a-f643-4d39-ac8f-028588cb3b5d"},"vehicle_type_id":"4","last_reported":1739394531,"current_range_meters":37600,"station_id":"ce4bhnp2rcd13ifvqgvg","pricing_plan_id":"cebpf4jnsgd1na2vs0mg"},{"bike_id":"51ab7186-5043-4bed-baca-73708608a302","system_id":"levelo_inurba_marseille","lat":43.29584,"lon":5.37026,"is_reserved":false,"is_disabled":true,"rental_uris":{"android":"levelo://app?vid=51ab7186-5043-4bed-baca-73708608a302","ios":"levelo://app?vid=51ab7186-5043-4bed-baca-73708608a302"},"vehicle_type_id":"4","last_reported":1739394531,"current_range_meters":1200,"station_id":"","pricing_plan_id":"cebpf4jnsgd1na2vs0mg"},{"bike_id":"dcb68988-bee1-45a5-b901-2c78423029a0","system_id":"levelo_inurba_marseille","lat":43.29974,"lon":5.3849,"is_reserved":false,"is_disabled":true,"rental_uris":{"android":"levelo://app?vid=dcb68988-bee1-45a5-b901-2c78423029a0","ios":"levelo://app?vid=dcb68988-bee1-45a5-b901-2c78423029a0"},"vehicle_type_id":"4","last_reported":1739394531,"current_range_meters":38800,"station_id":"ce4bgj92rcd13ifvqbd0","pricing_plan_id":"cebpf4jnsgd1na2vs0mg"},{"bike_id":"3a6545aa-16b6-4902-b0e8-66d739ac070d","system_id":"levelo_inurba_marseille","lat":43.29565,"lon":5.39957,"is_reserved":false,"is_disabled":true,"rental_uris":{"android":"levelo://app?vid=3a6545aa-16b6-4902-b0e8-66d739ac070d","ios":"levelo://app?vid=3a6545aa-16b6-4902-b0e8-66d739ac070d"},"vehicle_type_id":"4","last_reported":1739394531,"current_range_meters":0,"station_id":"ce4bh312rcd13ifvqdj0","pricing_plan_id":"cebpf4jnsgd1na2vs0mg"},{"bike_id":"d7ba4570-ccc0-4c4a-9795-2a59aca3d79a","system_id":"levelo_inurba_marseille","lat":43.2866,"lon":5.36355,"is_reserved":false,"is_disabled":false,"rental_uris":{"android":"levelo://app?vid=d7ba4570-ccc0-4c4a-9795-2a59aca3d79a","ios":"levelo://app?vid=d7ba4570-ccc0-4c4a-9795-2a59aca3d79a"},"vehicle_type_id":"4","last_reported":1739394531,"current_range_meters":38400,"station_id":"ce4bhah2rcd13ifvqej0","pricing_plan_id":"cebpf4jnsgd1na2vs0mg"},{"bike_id":"d3fc5f7e-9983-4343-a9af-f36df7d45f29","system_id":"levelo_inurba_marseille","lat":43.23186,"lon":5.39961,"is_reserved":false,"is_disabled":false,"rental_uris":{"android":"levelo://app?vid=d3fc5f7e-9983-4343-a9af-f36df7d45f29","ios":"levelo://app?vid=d3fc5f7e-9983-4343-a9af-f36df7d45f29"},"vehicle_type_id":"4","last_reported":1739394531,"current_range_meters":26800,"station_id":"ce4bhn12rcd13ifvqgqg","pricing_plan_id":"cebpf4jnsgd1na2vs0mg"},{"bike_id":"7e2037ba-d8da-4a44-a25b-f35749aa1add","system_id":"levelo_inurba_marseille","lat":43.30664,"lon":5.40081,"is_reserved":false,"is_disabled":false,"rental_uris":{"android":"levelo://app?vid=7e2037ba-d8da-4a44-a25b-f35749aa1add","ios":"levelo://app?vid=7e2037ba-d8da-4a44-a25b-f35749aa1add"},"vehicle_type_id":"4","last_reported":1739394531,"current_range_meters":38000,"station_id":"ce4bh112rcd13ifvqda0","pricing_plan_id":"cebpf4jnsgd1na2vs0mg"},{"bike_id":"dd61fc60-3e11-4988-b969-c4b225ea0685","system_id":"levelo_inurba_marseille","lat":43.31179,"lon":5.3873,"is_reserved":false,"is_disabled":false,"rental_uris":{"android":"levelo://app?vid=dd61fc60-3e11-4988-b969-c4b225ea0685","ios":"levelo://app?vid=dd61fc60-3e11-4988-b969-c4b225ea0685"},"vehicle_type_id":"4","last_reported":1739394531,"current_range_meters":37600,"station_id":"ce4bgv12rcd13ifvqcp0","pricing_plan_id":"cebpf4jnsgd1na2vs0mg"},{"bike_id":"e0fc15a1-ba07-4eb8-a223-8d9f1f02c313","system_id":"levelo_inurba_marseille","lat":43.29537,"lon":5.38556,"is_reserved":false,"is_disabled":false,"rental_uris":{"android":"levelo://app?vid=e0fc15a1-ba07-4eb8-a223-8d9f1f02c313","ios":"levelo://app?vid=e0fc15a1-ba07-4eb8-a223-8d9f1f02c313"},"vehicle_type_id":"4","last_reported":1739394531,"current_range_meters":28400,"station_id":"ce4bgih2rcd13ifvqba0","pricing_plan_id":"cebpf4jnsgd1na2vs0mg"},{"bike_id":"6bd4f803-1f3e-4190-90ca-5126bf5f811a","system_id":"levelo_inurba_marseille","lat":43.30477,"lon":5.38902,"is_reserved":false,"is_disabled":false,"rental_uris":{"android":"levelo://app?vid=6bd4f803-1f3e-4190-90ca-5126bf5f811a","ios":"levelo://app?vid=6bd4f803-1f3e-4190-90ca-5126bf5f811a"},"vehicle_type_id":"4","last_reported":1739394531,"current_range_meters":22000,"station_id":"ce4bgk12rcd13ifvqbi0","pricing_plan_id":"cebpf4jnsgd1na2vs0mg"},{"bike_id":"e271ebaa-9335-461c-9c9d-59affe0a1232","system_id":"levelo_inurba_marseille","lat":43.29428,"lon":5.39735,"is_reserved":false,"is_disabled":false,"rental_uris":{"android":"levelo://app?vid=e271ebaa-9335-461c-9c9d-59affe0a1232","ios":"levelo://app?vid=e271ebaa-9335-461c-9c9d-59affe0a1232"},"vehicle_type_id":"4","last_reported":1739394531,"current_range_meters":38800,"station_id":"ce4bh3h2rcd13ifvqdo0","pricing_plan_id":"cebpf4jnsgd1na2vs0mg"},{"bike_id":"c26f339c-a88c-45b3-8b18-f9db9e06922f","system_id":"levelo_inurba_marseille","lat":43.273227,"lon":5.390655,"is_reserved":false,"is_disabled":false,"rental_uris":{"android":"levelo://app?vid=c26f339c-a88c-45b3-8b18-f9db9e06922f","ios":"levelo://app?vid=c26f339c-a88c-45b3-8b18-f9db9e06922f"},"vehicle_type_id":"4","last_reported":1739394531,"current_range_meters":26000,"station_id":"ce4bhgp2rcd13ifvqfe0","pricing_plan_id":"cebpf4jnsgd1na2vs0mg"},{"bike_id":"bc0ff9a9-308e-46fc-b95f-d1b75b502cb5","system_id":"levelo_inurba_marseille","lat":43.24666,"lon":5.38142,"is_reserved":false,"is_disabled":false,"rental_uris":{"android":"levelo://app?vid=bc0ff9a9-308e-46fc-b95f-d1b75b502cb5","ios":"levelo://app?vid=bc0ff9a9-308e-46fc-b95f-d1b75b502cb5"},"vehicle_type_id":"4","last_reported":1739394531,"current_range_meters":29600,"station_id":"ce4bhih2rcd13ifvqfr0","pricing_plan_id":"cebpf4jnsgd1na2vs0mg"},{"bike_id":"31f90b97-4de2-4aec-84ff-0a8305902b31","system_id":"levelo_inurba_marseille","lat":43.28728,"lon":5.36116,"is_reserved":false,"is_disabled":false,"rental_uris":{"android":"levelo://app?vid=31f90b97-4de2-4aec-84ff-0a8305902b31","ios":"levelo://app?vid=31f90b97-4de2-4aec-84ff-0a8305902b31"},"vehicle_type_id":"4","last_reported":1739394531,"current_range_meters":37600,"station_id":"cki0cbj6b192h4jlfktg","pricing_plan_id":"cebpf4jnsgd1na2vs0mg"},{"bike_id":"de77abfa-6f74-40e9-8131-b7884eda37eb","system_id":"levelo_inurba_marseille","lat":43.2994,"lon":5.39403,"is_reserved":false,"is_disabled":false,"rental_uris":{"android":"levelo://app?vid=de77abfa-6f74-40e9-8131-b7884eda37eb","ios":"levelo://app?vid=de77abfa-6f74-40e9-8131-b7884eda37eb"},"vehicle_type_id":"4","last_reported":1739394531,"current_range_meters":24800,"station_id":"","pricing_plan_id":"cebpf4jnsgd1na2vs0mg"},{"bike_id":"827ec44a-0027-4d65-9033-fa2622768b39","system_id":"levelo_inurba_marseille","lat":43.28482,"lon":5.38419,"is_reserved":false,"is_disabled":true,"rental_uris":{"android":"levelo://app?vid=827ec44a-0027-4d65-9033-fa2622768b39","ios":"levelo://app?vid=827ec44a-0027-4d65-9033-fa2622768b39"},"vehicle_type_id":"4","last_reported":1739394531,"current_range_meters":1600,"station_id":"ce4bh512rcd13ifvqe3g","pricing_plan_id":"cebpf4jnsgd1na2vs0mg"},{"bike_id":"decdc089-5e26-41a6-babc-18d5c8728914","system_id":"levelo_inurba_marseille","lat":43.25128,"lon":5.40367,"is_reserved":false,"is_disabled":false,"rental_uris":{"android":"levelo://app?vid=decdc089-5e26-41a6-babc-18d5c8728914","ios":"levelo://app?vid=decdc089-5e26-41a6-babc-18d5c8728914"},"vehicle_type_id":"4","last_reported":1739394531,"current_range_meters":38800,"station_id":"ce4bhlh2rcd13ifvqgig","pricing_plan_id":"cebpf4jnsgd1na2vs0mg"},{"bike_id":"ee079ffa-4416-4a91-bc98-3bd665acea3b","system_id":"levelo_inurba_marseille","lat":43.33733,"lon":5.39183,"is_reserved":false,"is_disabled":false,"rental_uris":{"android":"levelo://app?vid=ee079ffa-4416-4a91-bc98-3bd665acea3b","ios":"levelo://app?vid=ee079ffa-4416-4a91-bc98-3bd665acea3b"},"vehicle_type_id":"4","last_reported":1739394531,"current_range_meters":38800,"station_id":"ce4bhr92rcd13ifvqhsg","pricing_plan_id":"cebpf4jnsgd1na2vs0mg"},{"bike_id":"1fa82dc6-47d4-4356-bbca-393bf4461726","system_id":"levelo_inurba_marseille","lat":43.2396,"lon":5.36625,"is_reserved":false,"is_disabled":false,"rental_uris":{"android":"levelo://app?vid=1fa82dc6-47d4-4356-bbca-393bf4461726","ios":"levelo://app?vid=1fa82dc6-47d4-4356-bbca-393bf4461726"},"vehicle_type_id":"4","last_reported":1739394531,"current_range_meters":11200,"station_id":"ce4bhi12rcd13ifvqfp0","pricing_plan_id":"cebpf4jnsgd1na2vs0mg"},{"bike_id":"2355c6e5-09c3-4950-a7a8-dbebf456e6b5","system_id":"levelo_inurba_marseille","lat":43.30793,"lon":5.36647,"is_reserved":false,"is_disabled":false,"rental_uris":{"android":"levelo://app?vid=2355c6e5-09c3-4950-a7a8-dbebf456e6b5","ios":"levelo://app?vid=2355c6e5-09c3-4950-a7a8-dbebf456e6b5"},"vehicle_type_id":"4","last_reported":1739394531,"current_range_meters":25200,"station_id":"","pricing_plan_id":"cebpf4jnsgd1na2vs0mg"},{"bike_id":"5f625246-20f6-4397-ade3-1a99b0fcdbf8","system_id":"levelo_inurba_marseille","lat":43.28711,"lon":5.37404,"is_reserved":false,"is_disabled":false,"rental_uris":{"android":"levelo://app?vid=5f625246-20f6-4397-ade3-1a99b0fcdbf8","ios":"levelo://app?vid=5f625246-20f6-4397-ade3-1a99b0fcdbf8"},"vehicle_type_id":"4","last_reported":1739394531,"current_range_meters":30000,"station_id":"ce4bh3p2rcd13ifvqdq0","pricing_plan_id":"cebpf4jnsgd1na2vs0mg"},{"bike_id":"964a4964-76d8-4ae4-9b51-9834b60db9c2","system_id":"levelo_inurba_marseille","lat":43.29876,"lon":5.3835,"is_reserved":false,"is_disabled":false,"rental_uris":{"android":"levelo://app?vid=964a4964-76d8-4ae4-9b51-9834b60db9c2","ios":"levelo://app?vid=964a4964-76d8-4ae4-9b51-9834b60db9c2"},"vehicle_type_id":"4","last_reported":1739394531,"current_range_meters":19200,"station_id":"","pricing_plan_id":"cebpf4jnsgd1na2vs0mg"},{"bike_id":"3c47c6a4-306b-452f-bde4-43d2cba25f03","system_id":"levelo_inurba_marseille","lat":43.29332,"lon":5.3749,"is_reserved":false,"is_disabled":false,"rental_uris":{"android":"levelo://app?vid=3c47c6a4-306b-452f-bde4-43d2cba25f03","ios":"levelo://app?vid=3c47c6a4-306b-452f-bde4-43d2cba25f03"},"vehicle_type_id":"4","last_reported":1739394531,"current_range_meters":8000,"station_id":"ce4bgi12rcd13ifvqb70","pricing_plan_id":"cebpf4jnsgd1na2vs0mg"},{"bike_id":"b8a563cc-b2ee-406b-9db4-089c69404f1f","system_id":"levelo_inurba_marseille","lat":43.29298,"lon":5.37496,"is_reserved":false,"is_disabled":false,"rental_uris":{"android":"levelo://app?vid=b8a563cc-b2ee-406b-9db4-089c69404f1f","ios":"levelo://app?vid=b8a563cc-b2ee-406b-9db4-089c69404f1f"},"vehicle_type_id":"4","last_reported":1739394531,"current_range_meters":31200,"station_id":"ce4bgi12rcd13ifvqb70","pricing_plan_id":"cebpf4jnsgd1na2vs0mg"},{"bike_id":"3adb6699-f719-4456-92ab-1968693e97fb","system_id":"levelo_inurba_marseille","lat":43.241705,"lon":5.363971,"is_reserved":false,"is_disabled":false,"rental_uris":{"android":"levelo://app?vid=3adb6699-f719-4456-92ab-1968693e97fb","ios":"levelo://app?vid=3adb6699-f719-4456-92ab-1968693e97fb"},"vehicle_type_id":"4","last_reported":1739394531,"current_range_meters":26000,"station_id":"cpo36qri1sfpv3e86is0","pricing_plan_id":"cebpf4jnsgd1na2vs0mg"},{"bike_id":"04e82eae-1243-4f87-97ae-c2b403027eb5","system_id":"levelo_inurba_marseille","lat":43.28166,"lon":5.42655,"is_reserved":false,"is_disabled":true,"rental_uris":{"android":"levelo://app?vid=04e82eae-1243-4f87-97ae-c2b403027eb5","ios":"levelo://app?vid=04e82eae-1243-4f87-97ae-c2b403027eb5"},"vehicle_type_id":"4","last_reported":1739394531,"current_range_meters":0,"station_id":"ce4bhnh2rcd13ifvqgug","pricing_plan_id":"cebpf4jnsgd1na2vs0mg"},{"bike_id":"476efa06-ff76-4710-9c45-8a07585e8d77","system_id":"levelo_inurba_marseille","lat":43.29548,"lon":5.42279,"is_reserved":false,"is_disabled":true,"rental_uris":{"android":"levelo://app?vid=476efa06-ff76-4710-9c45-8a07585e8d77","ios":"levelo://app?vid=476efa06-ff76-4710-9c45-8a07585e8d77"},"vehicle_type_id":"4","last_reported":1739394531,"current_range_meters":27600,"station_id":"ce4bhph2rcd13ifvqhdg","pricing_plan_id":"cebpf4jnsgd1na2vs0mg"},{"bike_id":"643156d1-3c94-46e5-a455-f51c8e5fba6b","system_id":"levelo_inurba_marseille","lat":43.29253,"lon":5.38416,"is_reserved":false,"is_disabled":false,"rental_uris":{"android":"levelo://app?vid=643156d1-3c94-46e5-a455-f51c8e5fba6b","ios":"levelo://app?vid=643156d1-3c94-46e5-a455-f51c8e5fba6b"},"vehicle_type_id":"4","last_reported":1739394531,"current_range_meters":37600,"station_id":"ce4bh692rcd13ifvqea0","pricing_plan_id":"cebpf4jnsgd1na2vs0mg"},{"bike_id":"a43b8534-1f7d-4016-b81a-d6ab195d0275","system_id":"levelo_inurba_marseille","lat":43.28418,"lon":5.37525,"is_reserved":false,"is_disabled":false,"rental_uris":{"android":"levelo://app?vid=a43b8534-1f7d-4016-b81a-d6ab195d0275","ios":"levelo://app?vid=a43b8534-1f7d-4016-b81a-d6ab195d0275"},"vehicle_type_id":"4","last_reported":1739394531,"current_range_meters":27600,"station_id":"ce4bh412rcd13ifvqds0","pricing_plan_id":"cebpf4jnsgd1na2vs0mg"},{"bike_id":"c9b96d2c-c7dd-495d-82e8-da1c9e8afb24","system_id":"levelo_inurba_marseille","lat":43.28025,"lon":5.36946,"is_reserved":false,"is_disabled":false,"rental_uris":{"android":"levelo://app?vid=c9b96d2c-c7dd-495d-82e8-da1c9e8afb24","ios":"levelo://app?vid=c9b96d2c-c7dd-495d-82e8-da1c9e8afb24"},"vehicle_type_id":"4","last_reported":1739394531,"current_range_meters":23200,"station_id":"ce4bha12rcd13ifvqef0","pricing_plan_id":"cebpf4jnsgd1na2vs0mg"},{"bike_id":"16287428-d44f-4349-8fd1-dcff10487c0a","system_id":"levelo_inurba_marseille","lat":43.30218,"lon":5.3946,"is_reserved":false,"is_disabled":false,"rental_uris":{"android":"levelo://app?vid=16287428-d44f-4349-8fd1-dcff10487c0a","ios":"levelo://app?vid=16287428-d44f-4349-8fd1-dcff10487c0a"},"vehicle_type_id":"4","last_reported":1739394531,"current_range_meters":23200,"station_id":"ce4bh0p2rcd13ifvqd70","pricing_plan_id":"cebpf4jnsgd1na2vs0mg"},{"bike_id":"d674d394-04ab-4838-a267-bcdd8affd803","system_id":"levelo_inurba_marseille","lat":43.30811,"lon":5.43492,"is_reserved":false,"is_disabled":false,"rental_uris":{"android":"levelo://app?vid=d674d394-04ab-4838-a267-bcdd8affd803","ios":"levelo://app?vid=d674d394-04ab-4838-a267-bcdd8affd803"},"vehicle_type_id":"4","last_reported":1739394531,"current_range_meters":38800,"station_id":"ce4bhph2rcd13ifvqheg","pricing_plan_id":"cebpf4jnsgd1na2vs0mg"},{"bike_id":"23add747-230f-460e-aeb7-444ff7ca37a5","system_id":"levelo_inurba_marseille","lat":43.29539,"lon":5.38544,"is_reserved":false,"is_disabled":false,"rental_uris":{"android":"levelo://app?vid=23add747-230f-460e-aeb7-444ff7ca37a5","ios":"levelo://app?vid=23add747-230f-460e-aeb7-444ff7ca37a5"},"vehicle_type_id":"4","last_reported":1739394531,"current_range_meters":37600,"station_id":"ce4bgih2rcd13ifvqba0","pricing_plan_id":"cebpf4jnsgd1na2vs0mg"},{"bike_id":"032d1edd-812d-4276-bb8f-bf1b6a339fcf","system_id":"levelo_inurba_marseille","lat":43.23195,"lon":5.35559,"is_reserved":false,"is_disabled":false,"rental_uris":{"android":"levelo://app?vid=032d1edd-812d-4276-bb8f-bf1b6a339fcf","ios":"levelo://app?vid=032d1edd-812d-4276-bb8f-bf1b6a339fcf"},"vehicle_type_id":"4","last_reported":1739394531,"current_range_meters":15200,"station_id":"ce4bhu92rcd13ifvqi70","pricing_plan_id":"cebpf4jnsgd1na2vs0mg"},{"bike_id":"fc615b26-aa17-41b7-ba04-4874c302c290","system_id":"levelo_inurba_marseille","lat":43.23152,"lon":5.43713,"is_reserved":false,"is_disabled":false,"rental_uris":{"android":"levelo://app?vid=fc615b26-aa17-41b7-ba04-4874c302c290","ios":"levelo://app?vid=fc615b26-aa17-41b7-ba04-4874c302c290"},"vehicle_type_id":"4","last_reported":1739394531,"current_range_meters":38800,"station_id":"ce4bhmp2rcd13ifvqgog","pricing_plan_id":"cebpf4jnsgd1na2vs0mg"},{"bike_id":"7140356e-acc1-4683-9f7a-ba5330d14dc0","system_id":"levelo_inurba_marseille","lat":43.3054,"lon":5.36561,"is_reserved":false,"is_disabled":true,"rental_uris":{"android":"levelo://app?vid=7140356e-acc1-4683-9f7a-ba5330d14dc0","ios":"levelo://app?vid=7140356e-acc1-4683-9f7a-ba5330d14dc0"},"vehicle_type_id":"4","last_reported":1739394531,"current_range_meters":31200,"station_id":"ce4bgs12rcd13ifvqcag","pricing_plan_id":"cebpf4jnsgd1na2vs0mg"},{"bike_id":"c07ffd3b-1b45-4f4f-af96-2b31373f9d65","system_id":"levelo_inurba_marseille","lat":43.24171,"lon":5.36381,"is_reserved":false,"is_disabled":false,"rental_uris":{"android":"levelo://app?vid=c07ffd3b-1b45-4f4f-af96-2b31373f9d65","ios":"levelo://app?vid=c07ffd3b-1b45-4f4f-af96-2b31373f9d65"},"vehicle_type_id":"4","last_reported":1739394531,"current_range_meters":26800,"station_id":"cpo36qri1sfpv3e86is0","pricing_plan_id":"cebpf4jnsgd1na2vs0mg"},{"bike_id":"76ed4e97-7fa9-4836-bcd3-e52753ef31b4","system_id":"levelo_inurba_marseille","lat":43.298461,"lon":5.362769,"is_reserved":false,"is_disabled":false,"rental_uris":{"android":"levelo://app?vid=76ed4e97-7fa9-4836-bcd3-e52753ef31b4","ios":"levelo://app?vid=76ed4e97-7fa9-4836-bcd3-e52753ef31b4"},"vehicle_type_id":"4","last_reported":1739394531,"current_range_meters":36800,"station_id":"ce4bgpp2rcd13ifvqc3g","pricing_plan_id":"cebpf4jnsgd1na2vs0mg"},{"bike_id":"130c5783-cf9a-4d9c-8058-01e23923a150","system_id":"levelo_inurba_marseille","lat":43.29541,"lon":5.38539,"is_reserved":false,"is_disabled":false,"rental_uris":{"android":"levelo://app?vid=130c5783-cf9a-4d9c-8058-01e23923a150","ios":"levelo://app?vid=130c5783-cf9a-4d9c-8058-01e23923a150"},"vehicle_type_id":"4","last_reported":1739394531,"current_range_meters":24000,"station_id":"ce4bgih2rcd13ifvqba0","pricing_plan_id":"cebpf4jnsgd1na2vs0mg"},{"bike_id":"d32849cf-4c14-4032-9063-172d06d3f04f","system_id":"levelo_inurba_marseille","lat":43.23193,"lon":5.35489,"is_reserved":false,"is_disabled":false,"rental_uris":{"android":"levelo://app?vid=d32849cf-4c14-4032-9063-172d06d3f04f","ios":"levelo://app?vid=d32849cf-4c14-4032-9063-172d06d3f04f"},"vehicle_type_id":"4","last_reported":1739394531,"current_range_meters":30000,"station_id":"ce4bhu92rcd13ifvqi70","pricing_plan_id":"cebpf4jnsgd1na2vs0mg"},{"bike_id":"2ff86c0c-69fd-4294-8842-114f3593748f","system_id":"levelo_inurba_marseille","lat":43.313417,"lon":5.367114,"is_reserved":false,"is_disabled":false,"rental_uris":{"android":"levelo://app?vid=2ff86c0c-69fd-4294-8842-114f3593748f","ios":"levelo://app?vid=2ff86c0c-69fd-4294-8842-114f3593748f"},"vehicle_type_id":"4","last_reported":1739394531,"current_range_meters":35600,"station_id":"ce4bgr92rcd13ifvqc6g","pricing_plan_id":"cebpf4jnsgd1na2vs0mg"},{"bike_id":"77e60b2f-ce6b-4aae-a0a0-d5666429a96e","system_id":"levelo_inurba_marseille","lat":43.29062,"lon":5.37167,"is_reserved":false,"is_disabled":true,"rental_uris":{"android":"levelo://app?vid=77e60b2f-ce6b-4aae-a0a0-d5666429a96e","ios":"levelo://app?vid=77e60b2f-ce6b-4aae-a0a0-d5666429a96e"},"vehicle_type_id":"4","last_reported":1739394531,"current_range_meters":24000,"station_id":"ce4bh5p2rcd13ifvqe4g","pricing_plan_id":"cebpf4jnsgd1na2vs0mg"},{"bike_id":"5e474422-8440-473a-bede-62827c8d99e1","system_id":"levelo_inurba_marseille","lat":43.29924,"lon":5.37225,"is_reserved":false,"is_disabled":false,"rental_uris":{"android":"levelo://app?vid=5e474422-8440-473a-bede-62827c8d99e1","ios":"levelo://app?vid=5e474422-8440-473a-bede-62827c8d99e1"},"vehicle_type_id":"4","last_reported":1739394531,"current_range_meters":38800,"station_id":"","pricing_plan_id":"cebpf4jnsgd1na2vs0mg"},{"bike_id":"89b847eb-8b72-48a7-8017-2936b33a5c9b","system_id":"levelo_inurba_marseille","lat":43.2781,"lon":5.40699,"is_reserved":false,"is_disabled":false,"rental_uris":{"android":"levelo://app?vid=89b847eb-8b72-48a7-8017-2936b33a5c9b","ios":"levelo://app?vid=89b847eb-8b72-48a7-8017-2936b33a5c9b"},"vehicle_type_id":"4","last_reported":1739394531,"current_range_meters":23200,"station_id":"ce4bhnh2rcd13ifvqgtg","pricing_plan_id":"cebpf4jnsgd1na2vs0mg"},{"bike_id":"bde5060f-ae6f-4f21-91d2-7357d02cb24a","system_id":"levelo_inurba_marseille","lat":43.30897,"lon":5.39645,"is_reserved":false,"is_disabled":false,"rental_uris":{"android":"levelo://app?vid=bde5060f-ae6f-4f21-91d2-7357d02cb24a","ios":"levelo://app?vid=bde5060f-ae6f-4f21-91d2-7357d02cb24a"},"vehicle_type_id":"4","last_reported":1739394531,"current_range_meters":20800,"station_id":"ce4bh012rcd13ifvqcv0","pricing_plan_id":"cebpf4jnsgd1na2vs0mg"},{"bike_id":"0720224f-bce1-4028-8166-c7cf581646dc","system_id":"levelo_inurba_marseille","lat":43.31363,"lon":5.38487,"is_reserved":false,"is_disabled":false,"rental_uris":{"android":"levelo://app?vid=0720224f-bce1-4028-8166-c7cf581646dc","ios":"levelo://app?vid=0720224f-bce1-4028-8166-c7cf581646dc"},"vehicle_type_id":"4","last_reported":1739394531,"current_range_meters":38800,"station_id":"ce4bgt92rcd13ifvqcf0","pricing_plan_id":"cebpf4jnsgd1na2vs0mg"},{"bike_id":"9ba133ba-7b58-4607-8737-7fb5bce66e58","system_id":"levelo_inurba_marseille","lat":43.24402,"lon":5.37051,"is_reserved":false,"is_disabled":false,"rental_uris":{"android":"levelo://app?vid=9ba133ba-7b58-4607-8737-7fb5bce66e58","ios":"levelo://app?vid=9ba133ba-7b58-4607-8737-7fb5bce66e58"},"vehicle_type_id":"4","last_reported":1739394531,"current_range_meters":38800,"station_id":"ce4bhhh2rcd13ifvqfk0","pricing_plan_id":"cebpf4jnsgd1na2vs0mg"},{"bike_id":"24d2a29b-fa24-4c85-a726-541b11d56bc0","system_id":"levelo_inurba_marseille","lat":43.31407,"lon":5.3663,"is_reserved":false,"is_disabled":false,"rental_uris":{"android":"levelo://app?vid=24d2a29b-fa24-4c85-a726-541b11d56bc0","ios":"levelo://app?vid=24d2a29b-fa24-4c85-a726-541b11d56bc0"},"vehicle_type_id":"4","last_reported":1739394531,"current_range_meters":38800,"station_id":"ce4bgr92rcd13ifvqc6g","pricing_plan_id":"cebpf4jnsgd1na2vs0mg"},{"bike_id":"a2f9b997-eedd-4c0f-bea6-8a149bad7884","system_id":"levelo_inurba_marseille","lat":43.28343,"lon":5.38104,"is_reserved":false,"is_disabled":false,"rental_uris":{"android":"levelo://app?vid=a2f9b997-eedd-4c0f-bea6-8a149bad7884","ios":"levelo://app?vid=a2f9b997-eedd-4c0f-bea6-8a149bad7884"},"vehicle_type_id":"4","last_reported":1739394531,"current_range_meters":38800,"station_id":"ce4bh412rcd13ifvqdr0","pricing_plan_id":"cebpf4jnsgd1na2vs0mg"},{"bike_id":"7aedee12-1549-453d-ac51-f3f4b677e0ec","system_id":"levelo_inurba_marseille","lat":43.32286,"lon":5.38254,"is_reserved":false,"is_disabled":false,"rental_uris":{"android":"levelo://app?vid=7aedee12-1549-453d-ac51-f3f4b677e0ec","ios":"levelo://app?vid=7aedee12-1549-453d-ac51-f3f4b677e0ec"},"vehicle_type_id":"4","last_reported":1739394531,"current_range_meters":32000,"station_id":"ce4bhr12rcd13ifvqhqg","pricing_plan_id":"cebpf4jnsgd1na2vs0mg"},{"bike_id":"ba0489f2-5883-4e52-9755-f26962840dd6","system_id":"levelo_inurba_marseille","lat":43.292646,"lon":5.384439,"is_reserved":false,"is_disabled":false,"rental_uris":{"android":"levelo://app?vid=ba0489f2-5883-4e52-9755-f26962840dd6","ios":"levelo://app?vid=ba0489f2-5883-4e52-9755-f26962840dd6"},"vehicle_type_id":"4","last_reported":1739394531,"current_range_meters":37600,"station_id":"ce4bh692rcd13ifvqea0","pricing_plan_id":"cebpf4jnsgd1na2vs0mg"},{"bike_id":"14b2070b-6ddc-42e3-b1e8-9c0cbc081f72","system_id":"levelo_inurba_marseille","lat":43.33731,"lon":5.39174,"is_reserved":false,"is_disabled":false,"rental_uris":{"android":"levelo://app?vid=14b2070b-6ddc-42e3-b1e8-9c0cbc081f72","ios":"levelo://app?vid=14b2070b-6ddc-42e3-b1e8-9c0cbc081f72"},"vehicle_type_id":"4","last_reported":1739394531,"current_range_meters":38800,"station_id":"ce4bhr92rcd13ifvqhsg","pricing_plan_id":"cebpf4jnsgd1na2vs0mg"},{"bike_id":"0f8af0ae-f55c-4508-a98b-09e092d98a7d","system_id":"levelo_inurba_marseille","lat":43.30252,"lon":5.40078,"is_reserved":false,"is_disabled":false,"rental_uris":{"android":"levelo://app?vid=0f8af0ae-f55c-4508-a98b-09e092d98a7d","ios":"levelo://app?vid=0f8af0ae-f55c-4508-a98b-09e092d98a7d"},"vehicle_type_id":"4","last_reported":1739394531,"current_range_meters":32800,"station_id":"ce4bgvh2rcd13ifvqcs0","pricing_plan_id":"cebpf4jnsgd1na2vs0mg"},{"bike_id":"1c3c5356-feb2-4139-a8f5-3ebd188579ce","system_id":"levelo_inurba_marseille","lat":43.30312,"lon":5.40421,"is_reserved":false,"is_disabled":false,"rental_uris":{"android":"levelo://app?vid=1c3c5356-feb2-4139-a8f5-3ebd188579ce","ios":"levelo://app?vid=1c3c5356-feb2-4139-a8f5-3ebd188579ce"},"vehicle_type_id":"4","last_reported":1739394531,"current_range_meters":38000,"station_id":"ce4bh012rcd13ifvqd10","pricing_plan_id":"cebpf4jnsgd1na2vs0mg"},{"bike_id":"90069231-8d02-46fd-ba3f-d8e7e83900ee","system_id":"levelo_inurba_marseille","lat":43.28841,"lon":5.43819,"is_reserved":false,"is_disabled":true,"rental_uris":{"android":"levelo://app?vid=90069231-8d02-46fd-ba3f-d8e7e83900ee","ios":"levelo://app?vid=90069231-8d02-46fd-ba3f-d8e7e83900ee"},"vehicle_type_id":"4","last_reported":1739394531,"current_range_meters":0,"station_id":"","pricing_plan_id":"cebpf4jnsgd1na2vs0mg"},{"bike_id":"d10ae851-7bf5-4e4d-8bc2-ccec8a53b9e8","system_id":"levelo_inurba_marseille","lat":43.28842,"lon":5.3931,"is_reserved":false,"is_disabled":false,"rental_uris":{"android":"levelo://app?vid=d10ae851-7bf5-4e4d-8bc2-ccec8a53b9e8","ios":"levelo://app?vid=d10ae851-7bf5-4e4d-8bc2-ccec8a53b9e8"},"vehicle_type_id":"4","last_reported":1739394531,"current_range_meters":20400,"station_id":"ce4bh2p2rcd13ifvqdi0","pricing_plan_id":"cebpf4jnsgd1na2vs0mg"},{"bike_id":"02d4d811-6e8e-4705-b31c-397c1d3dc54e","system_id":"levelo_inurba_marseille","lat":43.27078,"lon":5.42282,"is_reserved":false,"is_disabled":false,"rental_uris":{"android":"levelo://app?vid=02d4d811-6e8e-4705-b31c-397c1d3dc54e","ios":"levelo://app?vid=02d4d811-6e8e-4705-b31c-397c1d3dc54e"},"vehicle_type_id":"4","last_reported":1739394531,"current_range_meters":16800,"station_id":"ce4bhk92rcd13ifvqgb0","pricing_plan_id":"cebpf4jnsgd1na2vs0mg"},{"bike_id":"b049a7c6-aecd-4e14-9446-873b79a46dd4","system_id":"levelo_inurba_marseille","lat":43.29575,"lon":5.39943,"is_reserved":false,"is_disabled":false,"rental_uris":{"android":"levelo://app?vid=b049a7c6-aecd-4e14-9446-873b79a46dd4","ios":"levelo://app?vid=b049a7c6-aecd-4e14-9446-873b79a46dd4"},"vehicle_type_id":"4","last_reported":1739394531,"current_range_meters":27200,"station_id":"ce4bh312rcd13ifvqdj0","pricing_plan_id":"cebpf4jnsgd1na2vs0mg"},{"bike_id":"7f3d4923-dfe9-4502-b696-54c6ec6c6459","system_id":"levelo_inurba_marseille","lat":43.2788,"lon":5.38021,"is_reserved":false,"is_disabled":false,"rental_uris":{"android":"levelo://app?vid=7f3d4923-dfe9-4502-b696-54c6ec6c6459","ios":"levelo://app?vid=7f3d4923-dfe9-4502-b696-54c6ec6c6459"},"vehicle_type_id":"4","last_reported":1739394531,"current_range_meters":38800,"station_id":"ce4bhf92rcd13ifvqf50","pricing_plan_id":"cebpf4jnsgd1na2vs0mg"},{"bike_id":"00053a72-9207-4b4c-b59b-20606453610f","system_id":"levelo_inurba_marseille","lat":43.324894,"lon":5.365774,"is_reserved":false,"is_disabled":false,"rental_uris":{"android":"levelo://app?vid=00053a72-9207-4b4c-b59b-20606453610f","ios":"levelo://app?vid=00053a72-9207-4b4c-b59b-20606453610f"},"vehicle_type_id":"4","last_reported":1739394531,"current_range_meters":34800,"station_id":"ce4bhs12rcd13ifvqhvg","pricing_plan_id":"cebpf4jnsgd1na2vs0mg"},{"bike_id":"65f67ebf-c94d-4b9f-9a14-d0eddb88b568","system_id":"levelo_inurba_marseille","lat":43.27549,"lon":5.38453,"is_reserved":false,"is_disabled":false,"rental_uris":{"android":"levelo://app?vid=65f67ebf-c94d-4b9f-9a14-d0eddb88b568","ios":"levelo://app?vid=65f67ebf-c94d-4b9f-9a14-d0eddb88b568"},"vehicle_type_id":"4","last_reported":1739394531,"current_range_meters":6800,"station_id":"ce4bhh92rcd13ifvqfi0","pricing_plan_id":"cebpf4jnsgd1na2vs0mg"},{"bike_id":"acd088e7-dc82-4cb8-8e19-47754c61567c","system_id":"levelo_inurba_marseille","lat":43.31349,"lon":5.36719,"is_reserved":false,"is_disabled":false,"rental_uris":{"android":"levelo://app?vid=acd088e7-dc82-4cb8-8e19-47754c61567c","ios":"levelo://app?vid=acd088e7-dc82-4cb8-8e19-47754c61567c"},"vehicle_type_id":"4","last_reported":1739394531,"current_range_meters":32400,"station_id":"ce4bgr92rcd13ifvqc6g","pricing_plan_id":"cebpf4jnsgd1na2vs0mg"},{"bike_id":"0b7715f7-1471-4f00-b3f6-48ec278ef5d1","system_id":"levelo_inurba_marseille","lat":43.30185,"lon":5.3806,"is_reserved":false,"is_disabled":false,"rental_uris":{"android":"levelo://app?vid=0b7715f7-1471-4f00-b3f6-48ec278ef5d1","ios":"levelo://app?vid=0b7715f7-1471-4f00-b3f6-48ec278ef5d1"},"vehicle_type_id":"4","last_reported":1739394531,"current_range_meters":9200,"station_id":"","pricing_plan_id":"cebpf4jnsgd1na2vs0mg"},{"bike_id":"a43a5c61-4093-4ef7-b21d-9dc062e9f2e3","system_id":"levelo_inurba_marseille","lat":43.29258,"lon":5.38426,"is_reserved":false,"is_disabled":false,"rental_uris":{"android":"levelo://app?vid=a43a5c61-4093-4ef7-b21d-9dc062e9f2e3","ios":"levelo://app?vid=a43a5c61-4093-4ef7-b21d-9dc062e9f2e3"},"vehicle_type_id":"4","last_reported":1739394531,"current_range_meters":38800,"station_id":"ce4bh692rcd13ifvqea0","pricing_plan_id":"cebpf4jnsgd1na2vs0mg"},{"bike_id":"cdd04f75-2a09-4734-ab55-4b7e85da17e8","system_id":"levelo_inurba_marseille","lat":43.28699,"lon":5.37393,"is_reserved":false,"is_disabled":false,"rental_uris":{"android":"levelo://app?vid=cdd04f75-2a09-4734-ab55-4b7e85da17e8","ios":"levelo://app?vid=cdd04f75-2a09-4734-ab55-4b7e85da17e8"},"vehicle_type_id":"4","last_reported":1739394531,"current_range_meters":38000,"station_id":"ce4bh3p2rcd13ifvqdq0","pricing_plan_id":"cebpf4jnsgd1na2vs0mg"},{"bike_id":"94a1fe7e-a459-4400-9162-bfbba846c26a","system_id":"levelo_inurba_marseille","lat":43.27189,"lon":5.40974,"is_reserved":false,"is_disabled":false,"rental_uris":{"android":"levelo://app?vid=94a1fe7e-a459-4400-9162-bfbba846c26a","ios":"levelo://app?vid=94a1fe7e-a459-4400-9162-bfbba846c26a"},"vehicle_type_id":"4","last_reported":1739394531,"current_range_meters":39200,"station_id":"ce4bhl12rcd13ifvqgf0","pricing_plan_id":"cebpf4jnsgd1na2vs0mg"},{"bike_id":"b9693b17-aaa4-407c-914c-0247196c5898","system_id":"levelo_inurba_marseille","lat":43.29423,"lon":5.38625,"is_reserved":false,"is_disabled":false,"rental_uris":{"android":"levelo://app?vid=b9693b17-aaa4-407c-914c-0247196c5898","ios":"levelo://app?vid=b9693b17-aaa4-407c-914c-0247196c5898"},"vehicle_type_id":"4","last_reported":1739394531,"current_range_meters":38800,"station_id":"ce4bh2h2rcd13ifvqdh0","pricing_plan_id":"cebpf4jnsgd1na2vs0mg"},{"bike_id":"0bb74977-bdfe-4159-ba67-be7e22ae2761","system_id":"levelo_inurba_marseille","lat":43.29599,"lon":5.38106,"is_reserved":false,"is_disabled":true,"rental_uris":{"android":"levelo://app?vid=0bb74977-bdfe-4159-ba67-be7e22ae2761","ios":"levelo://app?vid=0bb74977-bdfe-4159-ba67-be7e22ae2761"},"vehicle_type_id":"4","last_reported":1739394531,"current_range_meters":37600,"station_id":"ce4bgl12rcd13ifvqbo0","pricing_plan_id":"cebpf4jnsgd1na2vs0mg"},{"bike_id":"746bd82f-b444-4f0e-bbcf-06757cdf85d8","system_id":"levelo_inurba_marseille","lat":43.24658,"lon":5.38142,"is_reserved":false,"is_disabled":false,"rental_uris":{"android":"levelo://app?vid=746bd82f-b444-4f0e-bbcf-06757cdf85d8","ios":"levelo://app?vid=746bd82f-b444-4f0e-bbcf-06757cdf85d8"},"vehicle_type_id":"4","last_reported":1739394531,"current_range_meters":34000,"station_id":"ce4bhih2rcd13ifvqfr0","pricing_plan_id":"cebpf4jnsgd1na2vs0mg"},{"bike_id":"c2250f20-2283-4e17-b7ce-382f2f740aa1","system_id":"levelo_inurba_marseille","lat":43.24819,"lon":5.3744,"is_reserved":false,"is_disabled":false,"rental_uris":{"android":"levelo://app?vid=c2250f20-2283-4e17-b7ce-382f2f740aa1","ios":"levelo://app?vid=c2250f20-2283-4e17-b7ce-382f2f740aa1"},"vehicle_type_id":"4","last_reported":1739394531,"current_range_meters":38800,"station_id":"ce4bhgh2rcd13ifvqfb0","pricing_plan_id":"cebpf4jnsgd1na2vs0mg"},{"bike_id":"cae753ae-2904-4959-a53a-5c8306d07841","system_id":"levelo_inurba_marseille","lat":43.24811,"lon":5.37459,"is_reserved":false,"is_disabled":false,"rental_uris":{"android":"levelo://app?vid=cae753ae-2904-4959-a53a-5c8306d07841","ios":"levelo://app?vid=cae753ae-2904-4959-a53a-5c8306d07841"},"vehicle_type_id":"4","last_reported":1739394531,"current_range_meters":32000,"station_id":"ce4bhgh2rcd13ifvqfb0","pricing_plan_id":"cebpf4jnsgd1na2vs0mg"},{"bike_id":"40cd4de0-81ea-4fb7-b9ad-4238703d56c8","system_id":"levelo_inurba_marseille","lat":43.29291,"lon":5.37466,"is_reserved":false,"is_disabled":false,"rental_uris":{"android":"levelo://app?vid=40cd4de0-81ea-4fb7-b9ad-4238703d56c8","ios":"levelo://app?vid=40cd4de0-81ea-4fb7-b9ad-4238703d56c8"},"vehicle_type_id":"4","last_reported":1739394531,"current_range_meters":26800,"station_id":"ce4bgi12rcd13ifvqb70","pricing_plan_id":"cebpf4jnsgd1na2vs0mg"},{"bike_id":"8fdf2887-7c74-4939-bd6e-dc94966ec87e","system_id":"levelo_inurba_marseille","lat":43.28711,"lon":5.40003,"is_reserved":false,"is_disabled":false,"rental_uris":{"android":"levelo://app?vid=8fdf2887-7c74-4939-bd6e-dc94966ec87e","ios":"levelo://app?vid=8fdf2887-7c74-4939-bd6e-dc94966ec87e"},"vehicle_type_id":"4","last_reported":1739394531,"current_range_meters":26000,"station_id":"ce4bho92rcd13ifvqh3g","pricing_plan_id":"cebpf4jnsgd1na2vs0mg"},{"bike_id":"492e558b-0ce5-4984-b6b1-1d33f225a96b","system_id":"levelo_inurba_marseille","lat":43.24146,"lon":5.36402,"is_reserved":false,"is_disabled":false,"rental_uris":{"android":"levelo://app?vid=492e558b-0ce5-4984-b6b1-1d33f225a96b","ios":"levelo://app?vid=492e558b-0ce5-4984-b6b1-1d33f225a96b"},"vehicle_type_id":"4","last_reported":1739394531,"current_range_meters":9200,"station_id":"cpo36qri1sfpv3e86is0","pricing_plan_id":"cebpf4jnsgd1na2vs0mg"},{"bike_id":"83e6f7f3-c516-4711-afa9-2e5365517fb0","system_id":"levelo_inurba_marseille","lat":43.28948,"lon":5.39621,"is_reserved":false,"is_disabled":false,"rental_uris":{"android":"levelo://app?vid=83e6f7f3-c516-4711-afa9-2e5365517fb0","ios":"levelo://app?vid=83e6f7f3-c516-4711-afa9-2e5365517fb0"},"vehicle_type_id":"4","last_reported":1739394531,"current_range_meters":28800,"station_id":"ce4bh3h2rcd13ifvqdn0","pricing_plan_id":"cebpf4jnsgd1na2vs0mg"},{"bike_id":"c6ab2079-aa0d-4c6d-8608-a1cea0571a2d","system_id":"levelo_inurba_marseille","lat":43.32676,"lon":5.43094,"is_reserved":false,"is_disabled":true,"rental_uris":{"android":"levelo://app?vid=c6ab2079-aa0d-4c6d-8608-a1cea0571a2d","ios":"levelo://app?vid=c6ab2079-aa0d-4c6d-8608-a1cea0571a2d"},"vehicle_type_id":"4","last_reported":1739394531,"current_range_meters":0,"station_id":"","pricing_plan_id":"cebpf4jnsgd1na2vs0mg"},{"bike_id":"40bc8b89-4b89-4043-9794-12c16f3c0836","system_id":"levelo_inurba_marseille","lat":43.31492,"lon":5.37317,"is_reserved":false,"is_disabled":false,"rental_uris":{"android":"levelo://app?vid=40bc8b89-4b89-4043-9794-12c16f3c0836","ios":"levelo://app?vid=40bc8b89-4b89-4043-9794-12c16f3c0836"},"vehicle_type_id":"4","last_reported":1739394531,"current_range_meters":22400,"station_id":"ce4bgt12rcd13ifvqcd0","pricing_plan_id":"cebpf4jnsgd1na2vs0mg"},{"bike_id":"30b76049-e41b-4adb-862f-755fe2524e05","system_id":"levelo_inurba_marseille","lat":43.288513,"lon":5.393247,"is_reserved":false,"is_disabled":true,"rental_uris":{"android":"levelo://app?vid=30b76049-e41b-4adb-862f-755fe2524e05","ios":"levelo://app?vid=30b76049-e41b-4adb-862f-755fe2524e05"},"vehicle_type_id":"4","last_reported":1739394531,"current_range_meters":34800,"station_id":"","pricing_plan_id":"cebpf4jnsgd1na2vs0mg"},{"bike_id":"c8cada38-be52-4720-ac5a-9f4c125bad0b","system_id":"levelo_inurba_marseille","lat":43.2835,"lon":5.38142,"is_reserved":false,"is_disabled":false,"rental_uris":{"android":"levelo://app?vid=c8cada38-be52-4720-ac5a-9f4c125bad0b","ios":"levelo://app?vid=c8cada38-be52-4720-ac5a-9f4c125bad0b"},"vehicle_type_id":"4","last_reported":1739394531,"current_range_meters":38400,"station_id":"ce4bh412rcd13ifvqdr0","pricing_plan_id":"cebpf4jnsgd1na2vs0mg"},{"bike_id":"084550d1-0260-4e97-97a5-5804dceb22a6","system_id":"levelo_inurba_marseille","lat":43.308832,"lon":5.396338,"is_reserved":false,"is_disabled":false,"rental_uris":{"android":"levelo://app?vid=084550d1-0260-4e97-97a5-5804dceb22a6","ios":"levelo://app?vid=084550d1-0260-4e97-97a5-5804dceb22a6"},"vehicle_type_id":"4","last_reported":1739394531,"current_range_meters":39200,"station_id":"ce4bh012rcd13ifvqcv0","pricing_plan_id":"cebpf4jnsgd1na2vs0mg"},{"bike_id":"86b103c3-51ad-4218-bccb-79a8e39e4b25","system_id":"levelo_inurba_marseille","lat":43.2943,"lon":5.38653,"is_reserved":false,"is_disabled":false,"rental_uris":{"android":"levelo://app?vid=86b103c3-51ad-4218-bccb-79a8e39e4b25","ios":"levelo://app?vid=86b103c3-51ad-4218-bccb-79a8e39e4b25"},"vehicle_type_id":"4","last_reported":1739394531,"current_range_meters":19200,"station_id":"ce4bh2h2rcd13ifvqdh0","pricing_plan_id":"cebpf4jnsgd1na2vs0mg"},{"bike_id":"ebaf1afe-6793-4830-8b43-689bbe41f293","system_id":"levelo_inurba_marseille","lat":43.304381,"lon":5.38883,"is_reserved":false,"is_disabled":false,"rental_uris":{"android":"levelo://app?vid=ebaf1afe-6793-4830-8b43-689bbe41f293","ios":"levelo://app?vid=ebaf1afe-6793-4830-8b43-689bbe41f293"},"vehicle_type_id":"4","last_reported":1739394531,"current_range_meters":36800,"station_id":"ce4bgk12rcd13ifvqbi0","pricing_plan_id":"cebpf4jnsgd1na2vs0mg"},{"bike_id":"2c7e9a1a-f41b-4230-ad31-fa1174cac54e","system_id":"levelo_inurba_marseille","lat":43.322852,"lon":5.39051,"is_reserved":false,"is_disabled":false,"rental_uris":{"android":"levelo://app?vid=2c7e9a1a-f41b-4230-ad31-fa1174cac54e","ios":"levelo://app?vid=2c7e9a1a-f41b-4230-ad31-fa1174cac54e"},"vehicle_type_id":"4","last_reported":1739394531,"current_range_meters":12800,"station_id":"","pricing_plan_id":"cebpf4jnsgd1na2vs0mg"},{"bike_id":"ca3411ed-a02c-4230-a75b-02b01b14999b","system_id":"levelo_inurba_marseille","lat":43.30647,"lon":5.40071,"is_reserved":false,"is_disabled":false,"rental_uris":{"android":"levelo://app?vid=ca3411ed-a02c-4230-a75b-02b01b14999b","ios":"levelo://app?vid=ca3411ed-a02c-4230-a75b-02b01b14999b"},"vehicle_type_id":"4","last_reported":1739394531,"current_range_meters":14400,"station_id":"ce4bh112rcd13ifvqda0","pricing_plan_id":"cebpf4jnsgd1na2vs0mg"},{"bike_id":"47cb2fce-eaed-4c60-8993-d77f1e500fd7","system_id":"levelo_inurba_marseille","lat":43.26207,"lon":5.37924,"is_reserved":false,"is_disabled":false,"rental_uris":{"android":"levelo://app?vid=47cb2fce-eaed-4c60-8993-d77f1e500fd7","ios":"levelo://app?vid=47cb2fce-eaed-4c60-8993-d77f1e500fd7"},"vehicle_type_id":"4","last_reported":1739394531,"current_range_meters":36000,"station_id":"ce4bhjp2rcd13ifvqg90","pricing_plan_id":"cebpf4jnsgd1na2vs0mg"},{"bike_id":"b7693aec-223a-413c-9ae8-da4dd9d61acc","system_id":"levelo_inurba_marseille","lat":43.30145,"lon":5.3988,"is_reserved":false,"is_disabled":false,"rental_uris":{"android":"levelo://app?vid=b7693aec-223a-413c-9ae8-da4dd9d61acc","ios":"levelo://app?vid=b7693aec-223a-413c-9ae8-da4dd9d61acc"},"vehicle_type_id":"4","last_reported":1739394531,"current_range_meters":27200,"station_id":"ce4bh0h2rcd13ifvqd40","pricing_plan_id":"cebpf4jnsgd1na2vs0mg"},{"bike_id":"bccbf638-28da-42bd-a137-7537cf6e01c0","system_id":"levelo_inurba_marseille","lat":43.29529,"lon":5.39036,"is_reserved":false,"is_disabled":false,"rental_uris":{"android":"levelo://app?vid=bccbf638-28da-42bd-a137-7537cf6e01c0","ios":"levelo://app?vid=bccbf638-28da-42bd-a137-7537cf6e01c0"},"vehicle_type_id":"4","last_reported":1739394531,"current_range_meters":25200,"station_id":"ce4bh3p2rcd13ifvqdp0","pricing_plan_id":"cebpf4jnsgd1na2vs0mg"},{"bike_id":"56601044-7ee0-45ff-bd13-f686208b330f","system_id":"levelo_inurba_marseille","lat":43.29548,"lon":5.38531,"is_reserved":false,"is_disabled":false,"rental_uris":{"android":"levelo://app?vid=56601044-7ee0-45ff-bd13-f686208b330f","ios":"levelo://app?vid=56601044-7ee0-45ff-bd13-f686208b330f"},"vehicle_type_id":"4","last_reported":1739394531,"current_range_meters":24000,"station_id":"ce4bgih2rcd13ifvqba0","pricing_plan_id":"cebpf4jnsgd1na2vs0mg"},{"bike_id":"55780c50-6a84-4e88-bef1-f348e4c19a48","system_id":"levelo_inurba_marseille","lat":43.311791,"lon":5.387203,"is_reserved":false,"is_disabled":true,"rental_uris":{"android":"levelo://app?vid=55780c50-6a84-4e88-bef1-f348e4c19a48","ios":"levelo://app?vid=55780c50-6a84-4e88-bef1-f348e4c19a48"},"vehicle_type_id":"4","last_reported":1739394531,"current_range_meters":36400,"station_id":"ce4bgv12rcd13ifvqcp0","pricing_plan_id":"cebpf4jnsgd1na2vs0mg"},{"bike_id":"7335b564-6dbe-4484-93db-55ac8075f374","system_id":"levelo_inurba_marseille","lat":43.28458,"lon":5.3589,"is_reserved":false,"is_disabled":false,"rental_uris":{"android":"levelo://app?vid=7335b564-6dbe-4484-93db-55ac8075f374","ios":"levelo://app?vid=7335b564-6dbe-4484-93db-55ac8075f374"},"vehicle_type_id":"4","last_reported":1739394531,"current_range_meters":22000,"station_id":"ce4bhah2rcd13ifvqei0","pricing_plan_id":"cebpf4jnsgd1na2vs0mg"},{"bike_id":"e5efd828-eef1-418b-b92d-690982123ea2","system_id":"levelo_inurba_marseille","lat":43.25577,"lon":5.38236,"is_reserved":false,"is_disabled":false,"rental_uris":{"android":"levelo://app?vid=e5efd828-eef1-418b-b92d-690982123ea2","ios":"levelo://app?vid=e5efd828-eef1-418b-b92d-690982123ea2"},"vehicle_type_id":"4","last_reported":1739394531,"current_range_meters":10000,"station_id":"ce4bhih2rcd13ifvqfs0","pricing_plan_id":"cebpf4jnsgd1na2vs0mg"},{"bike_id":"b1b93a49-25bc-4589-b584-866c5f20cedd","system_id":"levelo_inurba_marseille","lat":43.31624,"lon":5.37662,"is_reserved":false,"is_disabled":false,"rental_uris":{"android":"levelo://app?vid=b1b93a49-25bc-4589-b584-866c5f20cedd","ios":"levelo://app?vid=b1b93a49-25bc-4589-b584-866c5f20cedd"},"vehicle_type_id":"4","last_reported":1739394531,"current_range_meters":6800,"station_id":"","pricing_plan_id":"cebpf4jnsgd1na2vs0mg"},{"bike_id":"e72933b5-9c55-4371-b54e-521ef3bd97b6","system_id":"levelo_inurba_marseille","lat":43.29053,"lon":5.35903,"is_reserved":false,"is_disabled":false,"rental_uris":{"android":"levelo://app?vid=e72933b5-9c55-4371-b54e-521ef3bd97b6","ios":"levelo://app?vid=e72933b5-9c55-4371-b54e-521ef3bd97b6"},"vehicle_type_id":"4","last_reported":1739394531,"current_range_meters":34000,"station_id":"ce4bha92rcd13ifvqeg0","pricing_plan_id":"cebpf4jnsgd1na2vs0mg"},{"bike_id":"912408e1-cc35-4819-863d-c8b209129180","system_id":"levelo_inurba_marseille","lat":43.26533,"lon":5.37291,"is_reserved":false,"is_disabled":false,"rental_uris":{"android":"levelo://app?vid=912408e1-cc35-4819-863d-c8b209129180","ios":"levelo://app?vid=912408e1-cc35-4819-863d-c8b209129180"},"vehicle_type_id":"4","last_reported":1739394531,"current_range_meters":11600,"station_id":"ce4bhg12rcd13ifvqf70","pricing_plan_id":"cebpf4jnsgd1na2vs0mg"},{"bike_id":"db7e6ca1-9db5-4d53-b036-8961d14e4b4f","system_id":"levelo_inurba_marseille","lat":43.29278,"lon":5.36845,"is_reserved":false,"is_disabled":false,"rental_uris":{"android":"levelo://app?vid=db7e6ca1-9db5-4d53-b036-8961d14e4b4f","ios":"levelo://app?vid=db7e6ca1-9db5-4d53-b036-8961d14e4b4f"},"vehicle_type_id":"4","last_reported":1739394531,"current_range_meters":38400,"station_id":"ce4bhbp2rcd13ifvqesg","pricing_plan_id":"cebpf4jnsgd1na2vs0mg"},{"bike_id":"04d4b8ab-1d4d-44ab-9d49-e10f569c0553","system_id":"levelo_inurba_marseille","lat":43.29844,"lon":5.36245,"is_reserved":false,"is_disabled":false,"rental_uris":{"android":"levelo://app?vid=04d4b8ab-1d4d-44ab-9d49-e10f569c0553","ios":"levelo://app?vid=04d4b8ab-1d4d-44ab-9d49-e10f569c0553"},"vehicle_type_id":"4","last_reported":1739394531,"current_range_meters":30800,"station_id":"ce4bgpp2rcd13ifvqc3g","pricing_plan_id":"cebpf4jnsgd1na2vs0mg"},{"bike_id":"1e27a57f-c848-41af-a2d3-5d053a440eb3","system_id":"levelo_inurba_marseille","lat":43.325723,"lon":5.430568,"is_reserved":false,"is_disabled":false,"rental_uris":{"android":"levelo://app?vid=1e27a57f-c848-41af-a2d3-5d053a440eb3","ios":"levelo://app?vid=1e27a57f-c848-41af-a2d3-5d053a440eb3"},"vehicle_type_id":"4","last_reported":1739394531,"current_range_meters":14400,"station_id":"","pricing_plan_id":"cebpf4jnsgd1na2vs0mg"},{"bike_id":"e0e88e32-cb96-4b9b-ae72-a756accf51b3","system_id":"levelo_inurba_marseille","lat":43.25835,"lon":5.39403,"is_reserved":false,"is_disabled":false,"rental_uris":{"android":"levelo://app?vid=e0e88e32-cb96-4b9b-ae72-a756accf51b3","ios":"levelo://app?vid=e0e88e32-cb96-4b9b-ae72-a756accf51b3"},"vehicle_type_id":"4","last_reported":1739394531,"current_range_meters":8000,"station_id":"ce4bhip2rcd13ifvqft0","pricing_plan_id":"cebpf4jnsgd1na2vs0mg"},{"bike_id":"c62b1faa-f28b-40b9-b32d-c145fe962623","system_id":"levelo_inurba_marseille","lat":43.32664,"lon":5.40986,"is_reserved":false,"is_disabled":false,"rental_uris":{"android":"levelo://app?vid=c62b1faa-f28b-40b9-b32d-c145fe962623","ios":"levelo://app?vid=c62b1faa-f28b-40b9-b32d-c145fe962623"},"vehicle_type_id":"4","last_reported":1739394531,"current_range_meters":38400,"station_id":"ce4bhpp2rcd13ifvqhgg","pricing_plan_id":"cebpf4jnsgd1na2vs0mg"},{"bike_id":"60b283a1-229b-4adb-83f1-d1d7d9987d23","system_id":"levelo_inurba_marseille","lat":43.29043,"lon":5.35896,"is_reserved":false,"is_disabled":false,"rental_uris":{"android":"levelo://app?vid=60b283a1-229b-4adb-83f1-d1d7d9987d23","ios":"levelo://app?vid=60b283a1-229b-4adb-83f1-d1d7d9987d23"},"vehicle_type_id":"4","last_reported":1739394531,"current_range_meters":24800,"station_id":"ce4bha92rcd13ifvqeg0","pricing_plan_id":"cebpf4jnsgd1na2vs0mg"},{"bike_id":"c4813b27-4250-43ea-8be5-ccd7321d2af3","system_id":"levelo_inurba_marseille","lat":43.28202,"lon":5.36982,"is_reserved":false,"is_disabled":false,"rental_uris":{"android":"levelo://app?vid=c4813b27-4250-43ea-8be5-ccd7321d2af3","ios":"levelo://app?vid=c4813b27-4250-43ea-8be5-ccd7321d2af3"},"vehicle_type_id":"4","last_reported":1739394531,"current_range_meters":16400,"station_id":"","pricing_plan_id":"cebpf4jnsgd1na2vs0mg"},{"bike_id":"b694c8c4-5419-44d7-9b73-3e320bd36d96","system_id":"levelo_inurba_marseille","lat":43.29244,"lon":5.38456,"is_reserved":false,"is_disabled":false,"rental_uris":{"android":"levelo://app?vid=b694c8c4-5419-44d7-9b73-3e320bd36d96","ios":"levelo://app?vid=b694c8c4-5419-44d7-9b73-3e320bd36d96"},"vehicle_type_id":"4","last_reported":1739394531,"current_range_meters":38800,"station_id":"ce4bh692rcd13ifvqea0","pricing_plan_id":"cebpf4jnsgd1na2vs0mg"},{"bike_id":"728be96f-7972-4f4c-b020-cf451b83734c","system_id":"levelo_inurba_marseille","lat":43.29537,"lon":5.38534,"is_reserved":false,"is_disabled":false,"rental_uris":{"android":"levelo://app?vid=728be96f-7972-4f4c-b020-cf451b83734c","ios":"levelo://app?vid=728be96f-7972-4f4c-b020-cf451b83734c"},"vehicle_type_id":"4","last_reported":1739394531,"current_range_meters":38800,"station_id":"ce4bgih2rcd13ifvqba0","pricing_plan_id":"cebpf4jnsgd1na2vs0mg"},{"bike_id":"3b13e641-2fb0-4db2-bba0-d9bc629890f8","system_id":"levelo_inurba_marseille","lat":43.29262,"lon":5.38435,"is_reserved":false,"is_disabled":false,"rental_uris":{"android":"levelo://app?vid=3b13e641-2fb0-4db2-bba0-d9bc629890f8","ios":"levelo://app?vid=3b13e641-2fb0-4db2-bba0-d9bc629890f8"},"vehicle_type_id":"4","last_reported":1739394531,"current_range_meters":27600,"station_id":"ce4bh692rcd13ifvqea0","pricing_plan_id":"cebpf4jnsgd1na2vs0mg"},{"bike_id":"94663b4d-bbb4-4f72-9908-0a36fbfdfe20","system_id":"levelo_inurba_marseille","lat":43.30556,"lon":5.38426,"is_reserved":false,"is_disabled":false,"rental_uris":{"android":"levelo://app?vid=94663b4d-bbb4-4f72-9908-0a36fbfdfe20","ios":"levelo://app?vid=94663b4d-bbb4-4f72-9908-0a36fbfdfe20"},"vehicle_type_id":"4","last_reported":1739394531,"current_range_meters":28400,"station_id":"ce4bgg92rcd13ifvqb30","pricing_plan_id":"cebpf4jnsgd1na2vs0mg"},{"bike_id":"6186000f-f3a0-4135-b286-aa0d822a91f3","system_id":"levelo_inurba_marseille","lat":43.31714,"lon":5.42413,"is_reserved":false,"is_disabled":false,"rental_uris":{"android":"levelo://app?vid=6186000f-f3a0-4135-b286-aa0d822a91f3","ios":"levelo://app?vid=6186000f-f3a0-4135-b286-aa0d822a91f3"},"vehicle_type_id":"4","last_reported":1739394531,"current_range_meters":24000,"station_id":"ce4bhp92rcd13ifvqhbg","pricing_plan_id":"cebpf4jnsgd1na2vs0mg"},{"bike_id":"bab4c94c-7750-482d-a146-7ced32a91773","system_id":"levelo_inurba_marseille","lat":43.2952,"lon":5.39397,"is_reserved":false,"is_disabled":false,"rental_uris":{"android":"levelo://app?vid=bab4c94c-7750-482d-a146-7ced32a91773","ios":"levelo://app?vid=bab4c94c-7750-482d-a146-7ced32a91773"},"vehicle_type_id":"4","last_reported":1739394531,"current_range_meters":35600,"station_id":"ce4bh292rcd13ifvqdf0","pricing_plan_id":"cebpf4jnsgd1na2vs0mg"},{"bike_id":"eb74081f-8035-495f-a073-abb8444b5eb2","system_id":"levelo_inurba_marseille","lat":43.23958,"lon":5.36631,"is_reserved":false,"is_disabled":false,"rental_uris":{"android":"levelo://app?vid=eb74081f-8035-495f-a073-abb8444b5eb2","ios":"levelo://app?vid=eb74081f-8035-495f-a073-abb8444b5eb2"},"vehicle_type_id":"4","last_reported":1739394531,"current_range_meters":19200,"station_id":"ce4bhi12rcd13ifvqfp0","pricing_plan_id":"cebpf4jnsgd1na2vs0mg"},{"bike_id":"588801fb-c9d5-4487-969b-0e540c1ff525","system_id":"levelo_inurba_marseille","lat":43.27839,"lon":5.39205,"is_reserved":false,"is_disabled":false,"rental_uris":{"android":"levelo://app?vid=588801fb-c9d5-4487-969b-0e540c1ff525","ios":"levelo://app?vid=588801fb-c9d5-4487-969b-0e540c1ff525"},"vehicle_type_id":"4","last_reported":1739394531,"current_range_meters":9600,"station_id":"ce4bhjp2rcd13ifvqga0","pricing_plan_id":"cebpf4jnsgd1na2vs0mg"},{"bike_id":"bd4cb2aa-dd9c-4b68-abba-ae4f85286222","system_id":"levelo_inurba_marseille","lat":43.29428,"lon":5.38648,"is_reserved":false,"is_disabled":false,"rental_uris":{"android":"levelo://app?vid=bd4cb2aa-dd9c-4b68-abba-ae4f85286222","ios":"levelo://app?vid=bd4cb2aa-dd9c-4b68-abba-ae4f85286222"},"vehicle_type_id":"4","last_reported":1739394531,"current_range_meters":34800,"station_id":"ce4bh2h2rcd13ifvqdh0","pricing_plan_id":"cebpf4jnsgd1na2vs0mg"},{"bike_id":"5a144cb3-a695-4ed6-b4c2-98bf7d7f99fa","system_id":"levelo_inurba_marseille","lat":43.28268,"lon":5.35069,"is_reserved":false,"is_disabled":false,"rental_uris":{"android":"levelo://app?vid=5a144cb3-a695-4ed6-b4c2-98bf7d7f99fa","ios":"levelo://app?vid=5a144cb3-a695-4ed6-b4c2-98bf7d7f99fa"},"vehicle_type_id":"4","last_reported":1739394531,"current_range_meters":38800,"station_id":"ce4bhbp2rcd13ifvqerg","pricing_plan_id":"cebpf4jnsgd1na2vs0mg"},{"bike_id":"4ca24f42-da8d-4f4c-b599-4aab66b77cbc","system_id":"levelo_inurba_marseille","lat":43.2872,"lon":5.36103,"is_reserved":false,"is_disabled":false,"rental_uris":{"android":"levelo://app?vid=4ca24f42-da8d-4f4c-b599-4aab66b77cbc","ios":"levelo://app?vid=4ca24f42-da8d-4f4c-b599-4aab66b77cbc"},"vehicle_type_id":"4","last_reported":1739394531,"current_range_meters":38000,"station_id":"cki0cbj6b192h4jlfktg","pricing_plan_id":"cebpf4jnsgd1na2vs0mg"},{"bike_id":"8d2d4012-ff69-4800-927a-45caff6cd054","system_id":"levelo_inurba_marseille","lat":43.2315,"lon":5.43687,"is_reserved":false,"is_disabled":false,"rental_uris":{"android":"levelo://app?vid=8d2d4012-ff69-4800-927a-45caff6cd054","ios":"levelo://app?vid=8d2d4012-ff69-4800-927a-45caff6cd054"},"vehicle_type_id":"4","last_reported":1739394531,"current_range_meters":13600,"station_id":"ce4bhmp2rcd13ifvqgog","pricing_plan_id":"cebpf4jnsgd1na2vs0mg"},{"bike_id":"1ec14052-2d33-4aa1-9ab8-58cc71db74d1","system_id":"levelo_inurba_marseille","lat":43.24159,"lon":5.3641,"is_reserved":false,"is_disabled":false,"rental_uris":{"android":"levelo://app?vid=1ec14052-2d33-4aa1-9ab8-58cc71db74d1","ios":"levelo://app?vid=1ec14052-2d33-4aa1-9ab8-58cc71db74d1"},"vehicle_type_id":"4","last_reported":1739394531,"current_range_meters":8800,"station_id":"cpo36qri1sfpv3e86is0","pricing_plan_id":"cebpf4jnsgd1na2vs0mg"},{"bike_id":"6e58a69c-2a4e-4c49-840d-6e728a603acb","system_id":"levelo_inurba_marseille","lat":43.230665,"lon":5.354907,"is_reserved":false,"is_disabled":false,"rental_uris":{"android":"levelo://app?vid=6e58a69c-2a4e-4c49-840d-6e728a603acb","ios":"levelo://app?vid=6e58a69c-2a4e-4c49-840d-6e728a603acb"},"vehicle_type_id":"4","last_reported":1739394531,"current_range_meters":8000,"station_id":"cpo3342slgdg3j2ifvpg","pricing_plan_id":"cebpf4jnsgd1na2vs0mg"},{"bike_id":"add7e1b7-46d4-4b7f-bf50-34281873e788","system_id":"levelo_inurba_marseille","lat":43.31238,"lon":5.36825,"is_reserved":false,"is_disabled":true,"rental_uris":{"android":"levelo://app?vid=add7e1b7-46d4-4b7f-bf50-34281873e788","ios":"levelo://app?vid=add7e1b7-46d4-4b7f-bf50-34281873e788"},"vehicle_type_id":"4","last_reported":1739394531,"current_range_meters":30800,"station_id":"ce4bgl92rcd13ifvqbq0","pricing_plan_id":"cebpf4jnsgd1na2vs0mg"},{"bike_id":"aaf5d84c-409c-4cea-a87d-9adf5073cc96","system_id":"levelo_inurba_marseille","lat":43.25869,"lon":5.39894,"is_reserved":false,"is_disabled":false,"rental_uris":{"android":"levelo://app?vid=aaf5d84c-409c-4cea-a87d-9adf5073cc96","ios":"levelo://app?vid=aaf5d84c-409c-4cea-a87d-9adf5073cc96"},"vehicle_type_id":"4","last_reported":1739394531,"current_range_meters":20800,"station_id":"ce4bhl92rcd13ifvqghg","pricing_plan_id":"cebpf4jnsgd1na2vs0mg"},{"bike_id":"487b84c5-8809-479a-969a-47f572f8c420","system_id":"levelo_inurba_marseille","lat":43.29212,"lon":5.35818,"is_reserved":false,"is_disabled":false,"rental_uris":{"android":"levelo://app?vid=487b84c5-8809-479a-969a-47f572f8c420","ios":"levelo://app?vid=487b84c5-8809-479a-969a-47f572f8c420"},"vehicle_type_id":"4","last_reported":1739394531,"current_range_meters":25200,"station_id":"ce4bhb12rcd13ifvqel0","pricing_plan_id":"cebpf4jnsgd1na2vs0mg"},{"bike_id":"bb8d4545-1dfa-4929-b03f-e7a6dbc7e511","system_id":"levelo_inurba_marseille","lat":43.304301,"lon":5.388992,"is_reserved":false,"is_disabled":false,"rental_uris":{"android":"levelo://app?vid=bb8d4545-1dfa-4929-b03f-e7a6dbc7e511","ios":"levelo://app?vid=bb8d4545-1dfa-4929-b03f-e7a6dbc7e511"},"vehicle_type_id":"4","last_reported":1739394531,"current_range_meters":38000,"station_id":"ce4bgk12rcd13ifvqbi0","pricing_plan_id":"cebpf4jnsgd1na2vs0mg"},{"bike_id":"1b3eb435-3a2a-4540-9213-d8bec842fbee","system_id":"levelo_inurba_marseille","lat":43.284102,"lon":5.375192,"is_reserved":false,"is_disabled":false,"rental_uris":{"android":"levelo://app?vid=1b3eb435-3a2a-4540-9213-d8bec842fbee","ios":"levelo://app?vid=1b3eb435-3a2a-4540-9213-d8bec842fbee"},"vehicle_type_id":"4","last_reported":1739394531,"current_range_meters":19200,"station_id":"ce4bh412rcd13ifvqds0","pricing_plan_id":"cebpf4jnsgd1na2vs0mg"},{"bike_id":"4450d397-c7c4-4c68-aed9-fa811598c082","system_id":"levelo_inurba_marseille","lat":43.32548,"lon":5.36531,"is_reserved":false,"is_disabled":false,"rental_uris":{"android":"levelo://app?vid=4450d397-c7c4-4c68-aed9-fa811598c082","ios":"levelo://app?vid=4450d397-c7c4-4c68-aed9-fa811598c082"},"vehicle_type_id":"4","last_reported":1739394531,"current_range_meters":38800,"station_id":"","pricing_plan_id":"cebpf4jnsgd1na2vs0mg"},{"bike_id":"79df8d93-a019-4f4d-ad9b-607d770a7910","system_id":"levelo_inurba_marseille","lat":43.2941,"lon":5.38917,"is_reserved":false,"is_disabled":false,"rental_uris":{"android":"levelo://app?vid=79df8d93-a019-4f4d-ad9b-607d770a7910","ios":"levelo://app?vid=79df8d93-a019-4f4d-ad9b-607d770a7910"},"vehicle_type_id":"4","last_reported":1739394531,"current_range_meters":20400,"station_id":"","pricing_plan_id":"cebpf4jnsgd1na2vs0mg"},{"bike_id":"06a3d1ba-24d8-4216-a4f0-3953752034fc","system_id":"levelo_inurba_marseille","lat":43.28555,"lon":5.39505,"is_reserved":false,"is_disabled":false,"rental_uris":{"android":"levelo://app?vid=06a3d1ba-24d8-4216-a4f0-3953752034fc","ios":"levelo://app?vid=06a3d1ba-24d8-4216-a4f0-3953752034fc"},"vehicle_type_id":"4","last_reported":1739394531,"current_range_meters":39200,"station_id":"ce4bh292rcd13ifvqdg0","pricing_plan_id":"cebpf4jnsgd1na2vs0mg"},{"bike_id":"3ce6ec9a-a388-4f67-ba41-a371735d7bb6","system_id":"levelo_inurba_marseille","lat":43.295314,"lon":5.385369,"is_reserved":false,"is_disabled":false,"rental_uris":{"android":"levelo://app?vid=3ce6ec9a-a388-4f67-ba41-a371735d7bb6","ios":"levelo://app?vid=3ce6ec9a-a388-4f67-ba41-a371735d7bb6"},"vehicle_type_id":"4","last_reported":1739394531,"current_range_meters":32000,"station_id":"ce4bgih2rcd13ifvqba0","pricing_plan_id":"cebpf4jnsgd1na2vs0mg"},{"bike_id":"e08b5eef-0ee5-4ffc-82bb-a4774f7c9b52","system_id":"levelo_inurba_marseille","lat":43.30556,"lon":5.36555,"is_reserved":false,"is_disabled":false,"rental_uris":{"android":"levelo://app?vid=e08b5eef-0ee5-4ffc-82bb-a4774f7c9b52","ios":"levelo://app?vid=e08b5eef-0ee5-4ffc-82bb-a4774f7c9b52"},"vehicle_type_id":"4","last_reported":1739394531,"current_range_meters":38000,"station_id":"ce4bgs12rcd13ifvqcag","pricing_plan_id":"cebpf4jnsgd1na2vs0mg"},{"bike_id":"04e79b02-26b7-408e-8d07-a04361b8a27a","system_id":"levelo_inurba_marseille","lat":43.232,"lon":5.39955,"is_reserved":false,"is_disabled":false,"rental_uris":{"android":"levelo://app?vid=04e79b02-26b7-408e-8d07-a04361b8a27a","ios":"levelo://app?vid=04e79b02-26b7-408e-8d07-a04361b8a27a"},"vehicle_type_id":"4","last_reported":1739394531,"current_range_meters":39200,"station_id":"ce4bhn12rcd13ifvqgqg","pricing_plan_id":"cebpf4jnsgd1na2vs0mg"},{"bike_id":"7b7aefaf-046b-432f-9d0c-363c3f21eb79","system_id":"levelo_inurba_marseille","lat":43.292617,"lon":5.384428,"is_reserved":false,"is_disabled":false,"rental_uris":{"android":"levelo://app?vid=7b7aefaf-046b-432f-9d0c-363c3f21eb79","ios":"levelo://app?vid=7b7aefaf-046b-432f-9d0c-363c3f21eb79"},"vehicle_type_id":"4","last_reported":1739394531,"current_range_meters":38400,"station_id":"ce4bh692rcd13ifvqea0","pricing_plan_id":"cebpf4jnsgd1na2vs0mg"},{"bike_id":"131035c0-e0e9-48c0-bc5c-112eadec296e","system_id":"levelo_inurba_marseille","lat":43.25508,"lon":5.37652,"is_reserved":false,"is_disabled":false,"rental_uris":{"android":"levelo://app?vid=131035c0-e0e9-48c0-bc5c-112eadec296e","ios":"levelo://app?vid=131035c0-e0e9-48c0-bc5c-112eadec296e"},"vehicle_type_id":"4","last_reported":1739394531,"current_range_meters":38800,"station_id":"ce4bhh12rcd13ifvqff0","pricing_plan_id":"cebpf4jnsgd1na2vs0mg"},{"bike_id":"0af6ce70-a73d-4e15-ae66-afdf903dbe27","system_id":"levelo_inurba_marseille","lat":43.24814,"lon":5.3747,"is_reserved":false,"is_disabled":true,"rental_uris":{"android":"levelo://app?vid=0af6ce70-a73d-4e15-ae66-afdf903dbe27","ios":"levelo://app?vid=0af6ce70-a73d-4e15-ae66-afdf903dbe27"},"vehicle_type_id":"4","last_reported":1739394531,"current_range_meters":4800,"station_id":"ce4bhgh2rcd13ifvqfb0","pricing_plan_id":"cebpf4jnsgd1na2vs0mg"},{"bike_id":"4d500bb6-d8a0-467e-b39c-79643f891777","system_id":"levelo_inurba_marseille","lat":43.29977,"lon":5.37175,"is_reserved":false,"is_disabled":false,"rental_uris":{"android":"levelo://app?vid=4d500bb6-d8a0-467e-b39c-79643f891777","ios":"levelo://app?vid=4d500bb6-d8a0-467e-b39c-79643f891777"},"vehicle_type_id":"4","last_reported":1739394531,"current_range_meters":38800,"station_id":"ce4bgr92rcd13ifvqc7g","pricing_plan_id":"cebpf4jnsgd1na2vs0mg"},{"bike_id":"5cf302ed-d281-48c7-bf89-e5bada141783","system_id":"levelo_inurba_marseille","lat":43.27957,"lon":5.41057,"is_reserved":false,"is_disabled":false,"rental_uris":{"android":"levelo://app?vid=5cf302ed-d281-48c7-bf89-e5bada141783","ios":"levelo://app?vid=5cf302ed-d281-48c7-bf89-e5bada141783"},"vehicle_type_id":"4","last_reported":1739394531,"current_range_meters":24800,"station_id":"ce4bhnp2rcd13ifvqh0g","pricing_plan_id":"cebpf4jnsgd1na2vs0mg"},{"bike_id":"6796631d-480f-4a08-92eb-5eaddde30a94","system_id":"levelo_inurba_marseille","lat":43.25002,"lon":5.38921,"is_reserved":false,"is_disabled":false,"rental_uris":{"android":"levelo://app?vid=6796631d-480f-4a08-92eb-5eaddde30a94","ios":"levelo://app?vid=6796631d-480f-4a08-92eb-5eaddde30a94"},"vehicle_type_id":"4","last_reported":1739394531,"current_range_meters":38400,"station_id":"ce4bhgp2rcd13ifvqfd0","pricing_plan_id":"cebpf4jnsgd1na2vs0mg"},{"bike_id":"c7cd5159-81f5-4ce5-b57a-694f486e5871","system_id":"levelo_inurba_marseille","lat":43.31172,"lon":5.3873,"is_reserved":false,"is_disabled":false,"rental_uris":{"android":"levelo://app?vid=c7cd5159-81f5-4ce5-b57a-694f486e5871","ios":"levelo://app?vid=c7cd5159-81f5-4ce5-b57a-694f486e5871"},"vehicle_type_id":"4","last_reported":1739394531,"current_range_meters":38800,"station_id":"ce4bgv12rcd13ifvqcp0","pricing_plan_id":"cebpf4jnsgd1na2vs0mg"},{"bike_id":"95238438-aee1-472d-8c03-6f5da0f062d1","system_id":"levelo_inurba_marseille","lat":43.31365,"lon":5.36677,"is_reserved":false,"is_disabled":false,"rental_uris":{"android":"levelo://app?vid=95238438-aee1-472d-8c03-6f5da0f062d1","ios":"levelo://app?vid=95238438-aee1-472d-8c03-6f5da0f062d1"},"vehicle_type_id":"4","last_reported":1739394531,"current_range_meters":38000,"station_id":"ce4bgr92rcd13ifvqc6g","pricing_plan_id":"cebpf4jnsgd1na2vs0mg"},{"bike_id":"dd022f6c-26cb-4e0e-95ef-1ffb66fc1123","system_id":"levelo_inurba_marseille","lat":43.29242,"lon":5.38441,"is_reserved":false,"is_disabled":false,"rental_uris":{"android":"levelo://app?vid=dd022f6c-26cb-4e0e-95ef-1ffb66fc1123","ios":"levelo://app?vid=dd022f6c-26cb-4e0e-95ef-1ffb66fc1123"},"vehicle_type_id":"4","last_reported":1739394531,"current_range_meters":18800,"station_id":"ce4bh692rcd13ifvqea0","pricing_plan_id":"cebpf4jnsgd1na2vs0mg"},{"bike_id":"52dcb574-7301-4c43-8ea9-fa55db7bffc5","system_id":"levelo_inurba_marseille","lat":43.29095,"lon":5.38127,"is_reserved":false,"is_disabled":false,"rental_uris":{"android":"levelo://app?vid=52dcb574-7301-4c43-8ea9-fa55db7bffc5","ios":"levelo://app?vid=52dcb574-7301-4c43-8ea9-fa55db7bffc5"},"vehicle_type_id":"4","last_reported":1739394531,"current_range_meters":39200,"station_id":"ce4bh512rcd13ifvqe2g","pricing_plan_id":"cebpf4jnsgd1na2vs0mg"},{"bike_id":"f273b23d-87e7-43c5-8a1e-c40f5fdb1364","system_id":"levelo_inurba_marseille","lat":43.246744,"lon":5.381678,"is_reserved":false,"is_disabled":false,"rental_uris":{"android":"levelo://app?vid=f273b23d-87e7-43c5-8a1e-c40f5fdb1364","ios":"levelo://app?vid=f273b23d-87e7-43c5-8a1e-c40f5fdb1364"},"vehicle_type_id":"4","last_reported":1739394531,"current_range_meters":38800,"station_id":"ce4bhih2rcd13ifvqfr0","pricing_plan_id":"cebpf4jnsgd1na2vs0mg"},{"bike_id":"4e3ec424-711f-41cd-a254-773fde6b9d74","system_id":"levelo_inurba_marseille","lat":43.28715,"lon":5.36089,"is_reserved":false,"is_disabled":false,"rental_uris":{"android":"levelo://app?vid=4e3ec424-711f-41cd-a254-773fde6b9d74","ios":"levelo://app?vid=4e3ec424-711f-41cd-a254-773fde6b9d74"},"vehicle_type_id":"4","last_reported":1739394531,"current_range_meters":11600,"station_id":"cki0cbj6b192h4jlfktg","pricing_plan_id":"cebpf4jnsgd1na2vs0mg"},{"bike_id":"28a15986-4000-4e12-9e7a-ff0ccecc1fbe","system_id":"levelo_inurba_marseille","lat":43.30647,"lon":5.40096,"is_reserved":false,"is_disabled":false,"rental_uris":{"android":"levelo://app?vid=28a15986-4000-4e12-9e7a-ff0ccecc1fbe","ios":"levelo://app?vid=28a15986-4000-4e12-9e7a-ff0ccecc1fbe"},"vehicle_type_id":"4","last_reported":1739394531,"current_range_meters":30400,"station_id":"ce4bh112rcd13ifvqda0","pricing_plan_id":"cebpf4jnsgd1na2vs0mg"},{"bike_id":"52591901-7075-4154-8ec9-0dfca05a1446","system_id":"levelo_inurba_marseille","lat":43.32478,"lon":5.36568,"is_reserved":false,"is_disabled":false,"rental_uris":{"android":"levelo://app?vid=52591901-7075-4154-8ec9-0dfca05a1446","ios":"levelo://app?vid=52591901-7075-4154-8ec9-0dfca05a1446"},"vehicle_type_id":"4","last_reported":1739394531,"current_range_meters":12000,"station_id":"ce4bhs12rcd13ifvqhvg","pricing_plan_id":"cebpf4jnsgd1na2vs0mg"},{"bike_id":"3661bdb9-5fee-450a-923e-1549e8560ef0","system_id":"levelo_inurba_marseille","lat":43.31271,"lon":5.40149,"is_reserved":false,"is_disabled":false,"rental_uris":{"android":"levelo://app?vid=3661bdb9-5fee-450a-923e-1549e8560ef0","ios":"levelo://app?vid=3661bdb9-5fee-450a-923e-1549e8560ef0"},"vehicle_type_id":"4","last_reported":1739394531,"current_range_meters":37600,"station_id":"ce4bh092rcd13ifvqd30","pricing_plan_id":"cebpf4jnsgd1na2vs0mg"},{"bike_id":"aca8ad83-5f38-470b-a112-908a7f3ad9d2","system_id":"levelo_inurba_marseille","lat":43.29273,"lon":5.38409,"is_reserved":false,"is_disabled":false,"rental_uris":{"android":"levelo://app?vid=aca8ad83-5f38-470b-a112-908a7f3ad9d2","ios":"levelo://app?vid=aca8ad83-5f38-470b-a112-908a7f3ad9d2"},"vehicle_type_id":"4","last_reported":1739394531,"current_range_meters":38800,"station_id":"ce4bh692rcd13ifvqea0","pricing_plan_id":"cebpf4jnsgd1na2vs0mg"},{"bike_id":"9652caaf-1f0c-48f2-8501-937306fb17e1","system_id":"levelo_inurba_marseille","lat":43.30804,"lon":5.3815,"is_reserved":false,"is_disabled":false,"rental_uris":{"android":"levelo://app?vid=9652caaf-1f0c-48f2-8501-937306fb17e1","ios":"levelo://app?vid=9652caaf-1f0c-48f2-8501-937306fb17e1"},"vehicle_type_id":"4","last_reported":1739394531,"current_range_meters":13600,"station_id":"ce4bgt12rcd13ifvqce0","pricing_plan_id":"cebpf4jnsgd1na2vs0mg"},{"bike_id":"df65cc1f-1e67-490c-89a4-d5f74f10ed95","system_id":"levelo_inurba_marseille","lat":43.28268,"lon":5.35055,"is_reserved":false,"is_disabled":false,"rental_uris":{"android":"levelo://app?vid=df65cc1f-1e67-490c-89a4-d5f74f10ed95","ios":"levelo://app?vid=df65cc1f-1e67-490c-89a4-d5f74f10ed95"},"vehicle_type_id":"4","last_reported":1739394531,"current_range_meters":37600,"station_id":"ce4bhbp2rcd13ifvqerg","pricing_plan_id":"cebpf4jnsgd1na2vs0mg"},{"bike_id":"a98b9a2e-2042-4bef-8756-3b353acb3973","system_id":"levelo_inurba_marseille","lat":43.29534,"lon":5.38556,"is_reserved":false,"is_disabled":false,"rental_uris":{"android":"levelo://app?vid=a98b9a2e-2042-4bef-8756-3b353acb3973","ios":"levelo://app?vid=a98b9a2e-2042-4bef-8756-3b353acb3973"},"vehicle_type_id":"4","last_reported":1739394531,"current_range_meters":30800,"station_id":"ce4bgih2rcd13ifvqba0","pricing_plan_id":"cebpf4jnsgd1na2vs0mg"},{"bike_id":"68a10961-d3e2-468b-ba97-fb6fdb24a4de","system_id":"levelo_inurba_marseille","lat":43.31378,"lon":5.38497,"is_reserved":false,"is_disabled":false,"rental_uris":{"android":"levelo://app?vid=68a10961-d3e2-468b-ba97-fb6fdb24a4de","ios":"levelo://app?vid=68a10961-d3e2-468b-ba97-fb6fdb24a4de"},"vehicle_type_id":"4","last_reported":1739394531,"current_range_meters":39200,"station_id":"ce4bgt92rcd13ifvqcf0","pricing_plan_id":"cebpf4jnsgd1na2vs0mg"},{"bike_id":"ca60b2af-cce7-4290-adcc-eaec354c2c93","system_id":"levelo_inurba_marseille","lat":43.25007,"lon":5.38909,"is_reserved":false,"is_disabled":false,"rental_uris":{"android":"levelo://app?vid=ca60b2af-cce7-4290-adcc-eaec354c2c93","ios":"levelo://app?vid=ca60b2af-cce7-4290-adcc-eaec354c2c93"},"vehicle_type_id":"4","last_reported":1739394531,"current_range_meters":25600,"station_id":"ce4bhgp2rcd13ifvqfd0","pricing_plan_id":"cebpf4jnsgd1na2vs0mg"},{"bike_id":"3f53f95a-9c5c-4075-a387-a50f84061cec","system_id":"levelo_inurba_marseille","lat":43.25865,"lon":5.39893,"is_reserved":false,"is_disabled":false,"rental_uris":{"android":"levelo://app?vid=3f53f95a-9c5c-4075-a387-a50f84061cec","ios":"levelo://app?vid=3f53f95a-9c5c-4075-a387-a50f84061cec"},"vehicle_type_id":"4","last_reported":1739394531,"current_range_meters":38800,"station_id":"ce4bhl92rcd13ifvqghg","pricing_plan_id":"cebpf4jnsgd1na2vs0mg"},{"bike_id":"98e54b54-5579-4b78-a98b-e4def0765729","system_id":"levelo_inurba_marseille","lat":43.32348,"lon":5.38875,"is_reserved":false,"is_disabled":false,"rental_uris":{"android":"levelo://app?vid=98e54b54-5579-4b78-a98b-e4def0765729","ios":"levelo://app?vid=98e54b54-5579-4b78-a98b-e4def0765729"},"vehicle_type_id":"4","last_reported":1739394531,"current_range_meters":35200,"station_id":"ce4bhqp2rcd13ifvqhog","pricing_plan_id":"cebpf4jnsgd1na2vs0mg"},{"bike_id":"b0f70249-6360-4dc3-a83a-fd73a6b534c8","system_id":"levelo_inurba_marseille","lat":43.321514,"lon":5.384583,"is_reserved":false,"is_disabled":false,"rental_uris":{"android":"levelo://app?vid=b0f70249-6360-4dc3-a83a-fd73a6b534c8","ios":"levelo://app?vid=b0f70249-6360-4dc3-a83a-fd73a6b534c8"},"vehicle_type_id":"4","last_reported":1739394531,"current_range_meters":32000,"station_id":"","pricing_plan_id":"cebpf4jnsgd1na2vs0mg"},{"bike_id":"54ce597b-1ca1-4d62-923d-d4b29eec04b3","system_id":"levelo_inurba_marseille","lat":43.31131,"lon":5.38261,"is_reserved":false,"is_disabled":false,"rental_uris":{"android":"levelo://app?vid=54ce597b-1ca1-4d62-923d-d4b29eec04b3","ios":"levelo://app?vid=54ce597b-1ca1-4d62-923d-d4b29eec04b3"},"vehicle_type_id":"4","last_reported":1739394531,"current_range_meters":14000,"station_id":"","pricing_plan_id":"cebpf4jnsgd1na2vs0mg"},{"bike_id":"ce3fa350-a693-4b64-bf9f-5385693aa408","system_id":"levelo_inurba_marseille","lat":43.27962,"lon":5.41025,"is_reserved":false,"is_disabled":false,"rental_uris":{"android":"levelo://app?vid=ce3fa350-a693-4b64-bf9f-5385693aa408","ios":"levelo://app?vid=ce3fa350-a693-4b64-bf9f-5385693aa408"},"vehicle_type_id":"4","last_reported":1739394531,"current_range_meters":14000,"station_id":"ce4bhnp2rcd13ifvqh0g","pricing_plan_id":"cebpf4jnsgd1na2vs0mg"},{"bike_id":"d5d8073d-88be-496f-b8db-ad4198d742b5","system_id":"levelo_inurba_marseille","lat":43.28329,"lon":5.38125,"is_reserved":false,"is_disabled":false,"rental_uris":{"android":"levelo://app?vid=d5d8073d-88be-496f-b8db-ad4198d742b5","ios":"levelo://app?vid=d5d8073d-88be-496f-b8db-ad4198d742b5"},"vehicle_type_id":"4","last_reported":1739394531,"current_range_meters":29600,"station_id":"ce4bh412rcd13ifvqdr0","pricing_plan_id":"cebpf4jnsgd1na2vs0mg"},{"bike_id":"9d6c6a2c-f4a8-4f2e-9a51-0f83be3f4454","system_id":"levelo_inurba_marseille","lat":43.25008,"lon":5.38892,"is_reserved":false,"is_disabled":false,"rental_uris":{"android":"levelo://app?vid=9d6c6a2c-f4a8-4f2e-9a51-0f83be3f4454","ios":"levelo://app?vid=9d6c6a2c-f4a8-4f2e-9a51-0f83be3f4454"},"vehicle_type_id":"4","last_reported":1739394531,"current_range_meters":30400,"station_id":"ce4bhgp2rcd13ifvqfd0","pricing_plan_id":"cebpf4jnsgd1na2vs0mg"},{"bike_id":"a2c53d3c-466c-49c6-bffd-6d8680a3f2d9","system_id":"levelo_inurba_marseille","lat":43.28866,"lon":5.39307,"is_reserved":false,"is_disabled":false,"rental_uris":{"android":"levelo://app?vid=a2c53d3c-466c-49c6-bffd-6d8680a3f2d9","ios":"levelo://app?vid=a2c53d3c-466c-49c6-bffd-6d8680a3f2d9"},"vehicle_type_id":"4","last_reported":1739394531,"current_range_meters":28000,"station_id":"ce4bh2p2rcd13ifvqdi0","pricing_plan_id":"cebpf4jnsgd1na2vs0mg"},{"bike_id":"531f4f83-ff44-41f7-9cf3-15321221561d","system_id":"levelo_inurba_marseille","lat":43.31327,"lon":5.39691,"is_reserved":false,"is_disabled":false,"rental_uris":{"android":"levelo://app?vid=531f4f83-ff44-41f7-9cf3-15321221561d","ios":"levelo://app?vid=531f4f83-ff44-41f7-9cf3-15321221561d"},"vehicle_type_id":"4","last_reported":1739394531,"current_range_meters":25200,"station_id":"ce4bgvp2rcd13ifvqcu0","pricing_plan_id":"cebpf4jnsgd1na2vs0mg"},{"bike_id":"ada458cc-0386-4960-91d1-f14ed09a1803","system_id":"levelo_inurba_marseille","lat":43.3133,"lon":5.39681,"is_reserved":false,"is_disabled":false,"rental_uris":{"android":"levelo://app?vid=ada458cc-0386-4960-91d1-f14ed09a1803","ios":"levelo://app?vid=ada458cc-0386-4960-91d1-f14ed09a1803"},"vehicle_type_id":"4","last_reported":1739394531,"current_range_meters":31200,"station_id":"ce4bgvp2rcd13ifvqcu0","pricing_plan_id":"cebpf4jnsgd1na2vs0mg"},{"bike_id":"b316ce17-ffa3-4db6-aea0-87b99324498a","system_id":"levelo_inurba_marseille","lat":43.28479,"lon":5.38426,"is_reserved":false,"is_disabled":true,"rental_uris":{"android":"levelo://app?vid=b316ce17-ffa3-4db6-aea0-87b99324498a","ios":"levelo://app?vid=b316ce17-ffa3-4db6-aea0-87b99324498a"},"vehicle_type_id":"4","last_reported":1739394531,"current_range_meters":0,"station_id":"ce4bh512rcd13ifvqe3g","pricing_plan_id":"cebpf4jnsgd1na2vs0mg"},{"bike_id":"c383321a-30dd-447d-8c6d-b88742a3c3a0","system_id":"levelo_inurba_marseille","lat":43.27174,"lon":5.4099,"is_reserved":false,"is_disabled":false,"rental_uris":{"android":"levelo://app?vid=c383321a-30dd-447d-8c6d-b88742a3c3a0","ios":"levelo://app?vid=c383321a-30dd-447d-8c6d-b88742a3c3a0"},"vehicle_type_id":"4","last_reported":1739394531,"current_range_meters":36000,"station_id":"ce4bhl12rcd13ifvqgf0","pricing_plan_id":"cebpf4jnsgd1na2vs0mg"},{"bike_id":"8c9291a5-f979-4d7c-b6f6-27dd9f0ffcde","system_id":"levelo_inurba_marseille","lat":43.30785,"lon":5.37657,"is_reserved":false,"is_disabled":false,"rental_uris":{"android":"levelo://app?vid=8c9291a5-f979-4d7c-b6f6-27dd9f0ffcde","ios":"levelo://app?vid=8c9291a5-f979-4d7c-b6f6-27dd9f0ffcde"},"vehicle_type_id":"4","last_reported":1739394531,"current_range_meters":31200,"station_id":"ce4bgv92rcd13ifvqcq0","pricing_plan_id":"cebpf4jnsgd1na2vs0mg"},{"bike_id":"58a923a1-50e5-4bcc-a5c7-59fd5ea18680","system_id":"levelo_inurba_marseille","lat":43.2316,"lon":5.436976,"is_reserved":false,"is_disabled":false,"rental_uris":{"android":"levelo://app?vid=58a923a1-50e5-4bcc-a5c7-59fd5ea18680","ios":"levelo://app?vid=58a923a1-50e5-4bcc-a5c7-59fd5ea18680"},"vehicle_type_id":"4","last_reported":1739394531,"current_range_meters":18000,"station_id":"ce4bhmp2rcd13ifvqgog","pricing_plan_id":"cebpf4jnsgd1na2vs0mg"},{"bike_id":"37766470-3414-4516-ba54-02e266a7536b","system_id":"levelo_inurba_marseille","lat":43.25088,"lon":5.39522,"is_reserved":false,"is_disabled":false,"rental_uris":{"android":"levelo://app?vid=37766470-3414-4516-ba54-02e266a7536b","ios":"levelo://app?vid=37766470-3414-4516-ba54-02e266a7536b"},