{"last_updated":1762971402,"ttl":60,"version":"2.2","data":{"bikes":[{"bike_id":"d7db12ce-11cc-4c98-8751-ac59baa5d7aa","system_id":"levelo_inurba_marseille","lat":43.337444,"lon":5.374475,"is_reserved":false,"is_disabled":false,"rental_uris":{"android":"levelo://app?vid=d7db12ce-11cc-4c98-8751-ac59baa5d7aa","ios":"levelo://app?vid=d7db12ce-11cc-4c98-8751-ac59baa5d7aa"},"vehicle_type_id":"4","last_reported":1762971402,"current_range_meters":0,"station_id":"","pricing_plan_id":"cebpf4jnsgd1na2vs0mg"},{"bike_id":"df104e17-39d5-43f7-8144-cc3ce68a1080","system_id":"levelo_inurba_marseille","lat":43.3025,"lon":5.40058,"is_reserved":false,"is_disabled":true,"rental_uris":{"android":"levelo://app?vid=df104e17-39d5-43f7-8144-cc3ce68a1080","ios":"levelo://app?vid=df104e17-39d5-43f7-8144-cc3ce68a1080"},"vehicle_type_id":"4","last_reported":1762971402,"current_range_meters":2800,"station_id":"ce4bgvh2rcd13ifvqcs0","pricing_plan_id":"cebpf4jnsgd1na2vs0mg"},{"bike_id":"abcbebc9-54a7-4616-97f2-43ce9e2e11e4","system_id":"levelo_inurba_marseille","lat":43.31505,"lon":5.37284,"is_reserved":false,"is_disabled":false,"rental_uris":{"android":"levelo://app?vid=abcbebc9-54a7-4616-97f2-43ce9e2e11e4","ios":"levelo://app?vid=abcbebc9-54a7-4616-97f2-43ce9e2e11e4"},"vehicle_type_id":"4","last_reported":1762971402,"current_range_meters":2800,"station_id":"ce4bgt12rcd13ifvqcd0","pricing_plan_id":"cebpf4jnsgd1na2vs0mg"},{"bike_id":"06889cc2-9653-49ff-900b-0aef4ae90cac","system_id":"levelo_inurba_marseille","lat":43.30937,"lon":5.39038,"is_reserved":false,"is_disabled":false,"rental_uris":{"android":"levelo://app?vid=06889cc2-9653-49ff-900b-0aef4ae90cac","ios":"levelo://app?vid=06889cc2-9653-49ff-900b-0aef4ae90cac"},"vehicle_type_id":"4","last_reported":1762971402,"current_range_meters":2800,"station_id":"ce4bgup2rcd13ifvqco0","pricing_plan_id":"cebpf4jnsgd1na2vs0mg"},{"bike_id":"7dd03990-6b73-4ea7-89fa-b4e2d0871a00","system_id":"levelo_inurba_marseille","lat":43.300962,"lon":5.390686,"is_reserved":false,"is_disabled":false,"rental_uris":{"android":"levelo://app?vid=7dd03990-6b73-4ea7-89fa-b4e2d0871a00","ios":"levelo://app?vid=7dd03990-6b73-4ea7-89fa-b4e2d0871a00"},"vehicle_type_id":"4","last_reported":1762971402,"current_range_meters":3200,"station_id":"ce4bh192rcd13ifvqdb0","pricing_plan_id":"cebpf4jnsgd1na2vs0mg"},{"bike_id":"6d71abbe-3c0f-4408-925d-b2633c441681","system_id":"levelo_inurba_marseille","lat":43.240902,"lon":5.377299,"is_reserved":false,"is_disabled":false,"rental_uris":{"android":"levelo://app?vid=6d71abbe-3c0f-4408-925d-b2633c441681","ios":"levelo://app?vid=6d71abbe-3c0f-4408-925d-b2633c441681"},"vehicle_type_id":"4","last_reported":1762971402,"current_range_meters":3200,"station_id":"ce4bhnp2rcd13ifvqgvg","pricing_plan_id":"cebpf4jnsgd1na2vs0mg"},{"bike_id":"e8030b49-d788-487f-a09d-6891ee6d832d","system_id":"levelo_inurba_marseille","lat":43.310814,"lon":5.383505,"is_reserved":false,"is_disabled":false,"rental_uris":{"android":"levelo://app?vid=e8030b49-d788-487f-a09d-6891ee6d832d","ios":"levelo://app?vid=e8030b49-d788-487f-a09d-6891ee6d832d"},"vehicle_type_id":"4","last_reported":1762971402,"current_range_meters":3200,"station_id":"ce4bgv92rcd13ifvqcr0","pricing_plan_id":"cebpf4jnsgd1na2vs0mg"},{"bike_id":"a2f15e8c-39ab-41a0-a98b-792576a72113","system_id":"levelo_inurba_marseille","lat":43.27189,"lon":5.40997,"is_reserved":false,"is_disabled":false,"rental_uris":{"android":"levelo://app?vid=a2f15e8c-39ab-41a0-a98b-792576a72113","ios":"levelo://app?vid=a2f15e8c-39ab-41a0-a98b-792576a72113"},"vehicle_type_id":"4","last_reported":1762971402,"current_range_meters":3200,"station_id":"ce4bhl12rcd13ifvqgf0","pricing_plan_id":"cebpf4jnsgd1na2vs0mg"},{"bike_id":"b1dcbee6-2ea1-4fde-b238-a7a30562d8bd","system_id":"levelo_inurba_marseille","lat":43.265797,"lon":5.390257,"is_reserved":false,"is_disabled":false,"rental_uris":{"android":"levelo://app?vid=b1dcbee6-2ea1-4fde-b238-a7a30562d8bd","ios":"levelo://app?vid=b1dcbee6-2ea1-4fde-b238-a7a30562d8bd"},"vehicle_type_id":"4","last_reported":1762971402,"current_range_meters":3200,"station_id":"ce4bhap2rcd13ifvqek0","pricing_plan_id":"cebpf4jnsgd1na2vs0mg"},{"bike_id":"6ebf07e2-d247-4c2a-ac00-567cd08fab59","system_id":"levelo_inurba_marseille","lat":43.26198,"lon":5.37439,"is_reserved":false,"is_disabled":false,"rental_uris":{"android":"levelo://app?vid=6ebf07e2-d247-4c2a-ac00-567cd08fab59","ios":"levelo://app?vid=6ebf07e2-d247-4c2a-ac00-567cd08fab59"},"vehicle_type_id":"4","last_reported":1762971402,"current_range_meters":3200,"station_id":"ce4bhgp2rcd13ifvqfc0","pricing_plan_id":"cebpf4jnsgd1na2vs0mg"},{"bike_id":"349b2ad9-adea-4dd9-9ac9-fffb121b5424","system_id":"levelo_inurba_marseille","lat":43.29892,"lon":5.37537,"is_reserved":false,"is_disabled":false,"rental_uris":{"android":"levelo://app?vid=349b2ad9-adea-4dd9-9ac9-fffb121b5424","ios":"levelo://app?vid=349b2ad9-adea-4dd9-9ac9-fffb121b5424"},"vehicle_type_id":"4","last_reported":1762971402,"current_range_meters":3600,"station_id":"","pricing_plan_id":"cebpf4jnsgd1na2vs0mg"},{"bike_id":"5516fcbc-8859-4e2c-b202-9ee1b682ef92","system_id":"levelo_inurba_marseille","lat":43.28436,"lon":5.39168,"is_reserved":false,"is_disabled":false,"rental_uris":{"android":"levelo://app?vid=5516fcbc-8859-4e2c-b202-9ee1b682ef92","ios":"levelo://app?vid=5516fcbc-8859-4e2c-b202-9ee1b682ef92"},"vehicle_type_id":"4","last_reported":1762971402,"current_range_meters":3600,"station_id":"ce4bgjp2rcd13ifvqbh0","pricing_plan_id":"cebpf4jnsgd1na2vs0mg"},{"bike_id":"93be0262-5634-4a82-ab5e-0f7889f61b2a","system_id":"levelo_inurba_marseille","lat":43.292989,"lon":5.374667,"is_reserved":false,"is_disabled":false,"rental_uris":{"android":"levelo://app?vid=93be0262-5634-4a82-ab5e-0f7889f61b2a","ios":"levelo://app?vid=93be0262-5634-4a82-ab5e-0f7889f61b2a"},"vehicle_type_id":"4","last_reported":1762971402,"current_range_meters":3600,"station_id":"","pricing_plan_id":"cebpf4jnsgd1na2vs0mg"},{"bike_id":"62da84d0-7b33-4437-9377-83a424aee13a","system_id":"levelo_inurba_marseille","lat":43.308021,"lon":5.43532,"is_reserved":false,"is_disabled":false,"rental_uris":{"android":"levelo://app?vid=62da84d0-7b33-4437-9377-83a424aee13a","ios":"levelo://app?vid=62da84d0-7b33-4437-9377-83a424aee13a"},"vehicle_type_id":"4","last_reported":1762971402,"current_range_meters":3600,"station_id":"","pricing_plan_id":"cebpf4jnsgd1na2vs0mg"},{"bike_id":"9da81d5f-6baa-40f1-82c1-557a3bbff4d6","system_id":"levelo_inurba_marseille","lat":43.29162,"lon":5.37159,"is_reserved":false,"is_disabled":false,"rental_uris":{"android":"levelo://app?vid=9da81d5f-6baa-40f1-82c1-557a3bbff4d6","ios":"levelo://app?vid=9da81d5f-6baa-40f1-82c1-557a3bbff4d6"},"vehicle_type_id":"4","last_reported":1762971402,"current_range_meters":3600,"station_id":"ce4bha92rcd13ifvqeh0","pricing_plan_id":"cebpf4jnsgd1na2vs0mg"},{"bike_id":"c5af1b30-944e-43ba-9e11-cd39fbb20692","system_id":"levelo_inurba_marseille","lat":43.29251,"lon":5.36083,"is_reserved":false,"is_disabled":false,"rental_uris":{"android":"levelo://app?vid=c5af1b30-944e-43ba-9e11-cd39fbb20692","ios":"levelo://app?vid=c5af1b30-944e-43ba-9e11-cd39fbb20692"},"vehicle_type_id":"4","last_reported":1762971402,"current_range_meters":3600,"station_id":"ce4bhbh2rcd13ifvqeqg","pricing_plan_id":"cebpf4jnsgd1na2vs0mg"},{"bike_id":"5bf027e8-14ea-4be3-86ef-cb110ff7c69b","system_id":"levelo_inurba_marseille","lat":43.286985,"lon":5.373755,"is_reserved":false,"is_disabled":false,"rental_uris":{"android":"levelo://app?vid=5bf027e8-14ea-4be3-86ef-cb110ff7c69b","ios":"levelo://app?vid=5bf027e8-14ea-4be3-86ef-cb110ff7c69b"},"vehicle_type_id":"4","last_reported":1762971402,"current_range_meters":3600,"station_id":"ce4bh3p2rcd13ifvqdq0","pricing_plan_id":"cebpf4jnsgd1na2vs0mg"},{"bike_id":"53ebdaf7-bfcb-4ef2-b2d3-a6031b770d27","system_id":"levelo_inurba_marseille","lat":43.28564,"lon":5.39498,"is_reserved":false,"is_disabled":false,"rental_uris":{"android":"levelo://app?vid=53ebdaf7-bfcb-4ef2-b2d3-a6031b770d27","ios":"levelo://app?vid=53ebdaf7-bfcb-4ef2-b2d3-a6031b770d27"},"vehicle_type_id":"4","last_reported":1762971402,"current_range_meters":4000,"station_id":"ce4bh292rcd13ifvqdg0","pricing_plan_id":"cebpf4jnsgd1na2vs0mg"},{"bike_id":"f434bd96-9b74-42a1-bdd0-4dcf131836cb","system_id":"levelo_inurba_marseille","lat":43.28217,"lon":5.39047,"is_reserved":false,"is_disabled":false,"rental_uris":{"android":"levelo://app?vid=f434bd96-9b74-42a1-bdd0-4dcf131836cb","ios":"levelo://app?vid=f434bd96-9b74-42a1-bdd0-4dcf131836cb"},"vehicle_type_id":"4","last_reported":1762971402,"current_range_meters":4000,"station_id":"ce4bhn92rcd13ifvqgsg","pricing_plan_id":"cebpf4jnsgd1na2vs0mg"},{"bike_id":"8d42998b-b037-473c-b6b9-f4ba809e10a7","system_id":"levelo_inurba_marseille","lat":43.298979,"lon":5.436691,"is_reserved":false,"is_disabled":false,"rental_uris":{"android":"levelo://app?vid=8d42998b-b037-473c-b6b9-f4ba809e10a7","ios":"levelo://app?vid=8d42998b-b037-473c-b6b9-f4ba809e10a7"},"vehicle_type_id":"4","last_reported":1762971402,"current_range_meters":4000,"station_id":"ce4bhpp2rcd13ifvqhfg","pricing_plan_id":"cebpf4jnsgd1na2vs0mg"},{"bike_id":"ff93e98c-151d-404b-b7fc-108a3e7d4fed","system_id":"levelo_inurba_marseille","lat":43.28756,"lon":5.38942,"is_reserved":false,"is_disabled":false,"rental_uris":{"android":"levelo://app?vid=ff93e98c-151d-404b-b7fc-108a3e7d4fed","ios":"levelo://app?vid=ff93e98c-151d-404b-b7fc-108a3e7d4fed"},"vehicle_type_id":"4","last_reported":1762971402,"current_range_meters":4000,"station_id":"","pricing_plan_id":"cebpf4jnsgd1na2vs0mg"},{"bike_id":"78c02fc6-e82d-47d7-9878-3e48a9dafbc2","system_id":"levelo_inurba_marseille","lat":43.2854,"lon":5.44107,"is_reserved":false,"is_disabled":false,"rental_uris":{"android":"levelo://app?vid=78c02fc6-e82d-47d7-9878-3e48a9dafbc2","ios":"levelo://app?vid=78c02fc6-e82d-47d7-9878-3e48a9dafbc2"},"vehicle_type_id":"4","last_reported":1762971402,"current_range_meters":4000,"station_id":"st_d3j3df2ikq2c7380ej80","pricing_plan_id":"cebpf4jnsgd1na2vs0mg"},{"bike_id":"e9788630-e4df-4959-8d2e-d9e3283f7268","system_id":"levelo_inurba_marseille","lat":43.29288,"lon":5.37472,"is_reserved":false,"is_disabled":false,"rental_uris":{"android":"levelo://app?vid=e9788630-e4df-4959-8d2e-d9e3283f7268","ios":"levelo://app?vid=e9788630-e4df-4959-8d2e-d9e3283f7268"},"vehicle_type_id":"4","last_reported":1762971402,"current_range_meters":4000,"station_id":"ce4bgi12rcd13ifvqb70","pricing_plan_id":"cebpf4jnsgd1na2vs0mg"},{"bike_id":"1233050a-1a3b-44f8-8b2f-39c7bd744687","system_id":"levelo_inurba_marseille","lat":43.28062,"lon":5.39648,"is_reserved":false,"is_disabled":false,"rental_uris":{"android":"levelo://app?vid=1233050a-1a3b-44f8-8b2f-39c7bd744687","ios":"levelo://app?vid=1233050a-1a3b-44f8-8b2f-39c7bd744687"},"vehicle_type_id":"4","last_reported":1762971402,"current_range_meters":4000,"station_id":"ce4bho12rcd13ifvqh2g","pricing_plan_id":"cebpf4jnsgd1na2vs0mg"},{"bike_id":"16352e7f-c034-4ef1-8a6e-b54abc767aa3","system_id":"levelo_inurba_marseille","lat":43.31356,"lon":5.37618,"is_reserved":false,"is_disabled":false,"rental_uris":{"android":"levelo://app?vid=16352e7f-c034-4ef1-8a6e-b54abc767aa3","ios":"levelo://app?vid=16352e7f-c034-4ef1-8a6e-b54abc767aa3"},"vehicle_type_id":"4","last_reported":1762971402,"current_range_meters":4400,"station_id":"","pricing_plan_id":"cebpf4jnsgd1na2vs0mg"},{"bike_id":"3d6a390f-e2fe-43fb-b342-259b1c6ad156","system_id":"levelo_inurba_marseille","lat":43.29528,"lon":5.38546,"is_reserved":false,"is_disabled":false,"rental_uris":{"android":"levelo://app?vid=3d6a390f-e2fe-43fb-b342-259b1c6ad156","ios":"levelo://app?vid=3d6a390f-e2fe-43fb-b342-259b1c6ad156"},"vehicle_type_id":"4","last_reported":1762971402,"current_range_meters":4400,"station_id":"ce4bgih2rcd13ifvqba0","pricing_plan_id":"cebpf4jnsgd1na2vs0mg"},{"bike_id":"697e7d71-ff79-4a10-935b-ee0502c3e06a","system_id":"levelo_inurba_marseille","lat":43.28409,"lon":5.37506,"is_reserved":false,"is_disabled":false,"rental_uris":{"android":"levelo://app?vid=697e7d71-ff79-4a10-935b-ee0502c3e06a","ios":"levelo://app?vid=697e7d71-ff79-4a10-935b-ee0502c3e06a"},"vehicle_type_id":"4","last_reported":1762971402,"current_range_meters":4400,"station_id":"ce4bh412rcd13ifvqds0","pricing_plan_id":"cebpf4jnsgd1na2vs0mg"},{"bike_id":"ae172c3c-9036-401d-94f6-51bc4a397c58","system_id":"levelo_inurba_marseille","lat":43.27585,"lon":5.38425,"is_reserved":false,"is_disabled":false,"rental_uris":{"android":"levelo://app?vid=ae172c3c-9036-401d-94f6-51bc4a397c58","ios":"levelo://app?vid=ae172c3c-9036-401d-94f6-51bc4a397c58"},"vehicle_type_id":"4","last_reported":1762971402,"current_range_meters":4400,"station_id":"ce4bhh92rcd13ifvqfi0","pricing_plan_id":"cebpf4jnsgd1na2vs0mg"},{"bike_id":"61259666-4479-46b9-860b-188b1964573a","system_id":"levelo_inurba_marseille","lat":43.275619,"lon":5.384173,"is_reserved":false,"is_disabled":false,"rental_uris":{"android":"levelo://app?vid=61259666-4479-46b9-860b-188b1964573a","ios":"levelo://app?vid=61259666-4479-46b9-860b-188b1964573a"},"vehicle_type_id":"4","last_reported":1762971402,"current_range_meters":4400,"station_id":"ce4bhh92rcd13ifvqfi0","pricing_plan_id":"cebpf4jnsgd1na2vs0mg"},{"bike_id":"d7026fc3-a346-49bd-8209-179291ba2736","system_id":"levelo_inurba_marseille","lat":43.29859,"lon":5.38406,"is_reserved":false,"is_disabled":false,"rental_uris":{"android":"levelo://app?vid=d7026fc3-a346-49bd-8209-179291ba2736","ios":"levelo://app?vid=d7026fc3-a346-49bd-8209-179291ba2736"},"vehicle_type_id":"4","last_reported":1762971402,"current_range_meters":4400,"station_id":"","pricing_plan_id":"cebpf4jnsgd1na2vs0mg"},{"bike_id":"fb010b36-5885-4f21-9743-9de57d892a8c","system_id":"levelo_inurba_marseille","lat":43.290324,"lon":5.386523,"is_reserved":false,"is_disabled":false,"rental_uris":{"android":"levelo://app?vid=fb010b36-5885-4f21-9743-9de57d892a8c","ios":"levelo://app?vid=fb010b36-5885-4f21-9743-9de57d892a8c"},"vehicle_type_id":"4","last_reported":1762971402,"current_range_meters":4800,"station_id":"","pricing_plan_id":"cebpf4jnsgd1na2vs0mg"},{"bike_id":"a71e59d7-e0b1-4a09-85d4-bc5a8b5d893c","system_id":"levelo_inurba_marseille","lat":43.294478,"lon":5.37543,"is_reserved":false,"is_disabled":false,"rental_uris":{"android":"levelo://app?vid=a71e59d7-e0b1-4a09-85d4-bc5a8b5d893c","ios":"levelo://app?vid=a71e59d7-e0b1-4a09-85d4-bc5a8b5d893c"},"vehicle_type_id":"4","last_reported":1762971402,"current_range_meters":4800,"station_id":"","pricing_plan_id":"cebpf4jnsgd1na2vs0mg"},{"bike_id":"22a325cd-c066-4eef-95fb-c6eb7e939bd0","system_id":"levelo_inurba_marseille","lat":43.26059,"lon":5.39395,"is_reserved":false,"is_disabled":false,"rental_uris":{"android":"levelo://app?vid=22a325cd-c066-4eef-95fb-c6eb7e939bd0","ios":"levelo://app?vid=22a325cd-c066-4eef-95fb-c6eb7e939bd0"},"vehicle_type_id":"4","last_reported":1762971402,"current_range_meters":4800,"station_id":"ce4bhh92rcd13ifvqfj0","pricing_plan_id":"cebpf4jnsgd1na2vs0mg"},{"bike_id":"74116e2b-126f-4a79-a4a4-e39b445093b2","system_id":"levelo_inurba_marseille","lat":43.28416,"lon":5.37514,"is_reserved":false,"is_disabled":false,"rental_uris":{"android":"levelo://app?vid=74116e2b-126f-4a79-a4a4-e39b445093b2","ios":"levelo://app?vid=74116e2b-126f-4a79-a4a4-e39b445093b2"},"vehicle_type_id":"4","last_reported":1762971402,"current_range_meters":4800,"station_id":"ce4bh412rcd13ifvqds0","pricing_plan_id":"cebpf4jnsgd1na2vs0mg"},{"bike_id":"ac34785c-3126-4356-8ce3-d2cac51d8098","system_id":"levelo_inurba_marseille","lat":43.28216,"lon":5.39055,"is_reserved":false,"is_disabled":false,"rental_uris":{"android":"levelo://app?vid=ac34785c-3126-4356-8ce3-d2cac51d8098","ios":"levelo://app?vid=ac34785c-3126-4356-8ce3-d2cac51d8098"},"vehicle_type_id":"4","last_reported":1762971402,"current_range_meters":4800,"station_id":"ce4bhn92rcd13ifvqgsg","pricing_plan_id":"cebpf4jnsgd1na2vs0mg"},{"bike_id":"699cde5c-94eb-4688-9806-beab78ca5dc2","system_id":"levelo_inurba_marseille","lat":43.29684,"lon":5.36559,"is_reserved":false,"is_disabled":false,"rental_uris":{"android":"levelo://app?vid=699cde5c-94eb-4688-9806-beab78ca5dc2","ios":"levelo://app?vid=699cde5c-94eb-4688-9806-beab78ca5dc2"},"vehicle_type_id":"4","last_reported":1762971402,"current_range_meters":5600,"station_id":"ce4bgn12rcd13ifvqbt0","pricing_plan_id":"cebpf4jnsgd1na2vs0mg"},{"bike_id":"6ce37e9a-f5c9-4386-8340-5beb0068225a","system_id":"levelo_inurba_marseille","lat":43.30926,"lon":5.36826,"is_reserved":false,"is_disabled":false,"rental_uris":{"android":"levelo://app?vid=6ce37e9a-f5c9-4386-8340-5beb0068225a","ios":"levelo://app?vid=6ce37e9a-f5c9-4386-8340-5beb0068225a"},"vehicle_type_id":"4","last_reported":1762971402,"current_range_meters":5600,"station_id":"ce4bgn92rcd13ifvqbvg","pricing_plan_id":"cebpf4jnsgd1na2vs0mg"},{"bike_id":"4fe7e4e2-3f97-4704-b8f3-2e3d51dd4fd2","system_id":"levelo_inurba_marseille","lat":43.28853,"lon":5.35865,"is_reserved":false,"is_disabled":false,"rental_uris":{"android":"levelo://app?vid=4fe7e4e2-3f97-4704-b8f3-2e3d51dd4fd2","ios":"levelo://app?vid=4fe7e4e2-3f97-4704-b8f3-2e3d51dd4fd2"},"vehicle_type_id":"4","last_reported":1762971402,"current_range_meters":5600,"station_id":"ce4bhb12rcd13ifvqem0","pricing_plan_id":"cebpf4jnsgd1na2vs0mg"},{"bike_id":"37e0294d-4e36-4c97-a6fd-c6fc2535086a","system_id":"levelo_inurba_marseille","lat":43.290271,"lon":5.386477,"is_reserved":false,"is_disabled":false,"rental_uris":{"android":"levelo://app?vid=37e0294d-4e36-4c97-a6fd-c6fc2535086a","ios":"levelo://app?vid=37e0294d-4e36-4c97-a6fd-c6fc2535086a"},"vehicle_type_id":"4","last_reported":1762971402,"current_range_meters":5600,"station_id":"ce4bh4p2rcd13ifvqe0g","pricing_plan_id":"cebpf4jnsgd1na2vs0mg"},{"bike_id":"0b1a999e-fbc3-428c-8a0d-f367857529eb","system_id":"levelo_inurba_marseille","lat":43.27817,"lon":5.40709,"is_reserved":false,"is_disabled":false,"rental_uris":{"android":"levelo://app?vid=0b1a999e-fbc3-428c-8a0d-f367857529eb","ios":"levelo://app?vid=0b1a999e-fbc3-428c-8a0d-f367857529eb"},"vehicle_type_id":"4","last_reported":1762971402,"current_range_meters":5600,"station_id":"ce4bhnh2rcd13ifvqgtg","pricing_plan_id":"cebpf4jnsgd1na2vs0mg"},{"bike_id":"eded1b6d-ea5b-4081-a2c2-ccbf46fd363a","system_id":"levelo_inurba_marseille","lat":43.27332,"lon":5.39097,"is_reserved":false,"is_disabled":false,"rental_uris":{"android":"levelo://app?vid=eded1b6d-ea5b-4081-a2c2-ccbf46fd363a","ios":"levelo://app?vid=eded1b6d-ea5b-4081-a2c2-ccbf46fd363a"},"vehicle_type_id":"4","last_reported":1762971402,"current_range_meters":6000,"station_id":"ce4bhgp2rcd13ifvqfe0","pricing_plan_id":"cebpf4jnsgd1na2vs0mg"},{"bike_id":"f210c5d9-e6c9-4a47-a92c-7d32d99c058f","system_id":"levelo_inurba_marseille","lat":43.303512,"lon":5.39697,"is_reserved":false,"is_disabled":false,"rental_uris":{"android":"levelo://app?vid=f210c5d9-e6c9-4a47-a92c-7d32d99c058f","ios":"levelo://app?vid=f210c5d9-e6c9-4a47-a92c-7d32d99c058f"},"vehicle_type_id":"4","last_reported":1762971402,"current_range_meters":6000,"station_id":"","pricing_plan_id":"cebpf4jnsgd1na2vs0mg"},{"bike_id":"258cfa4a-e37c-4553-bf93-53421e2a9ec2","system_id":"levelo_inurba_marseille","lat":43.30187,"lon":5.36607,"is_reserved":false,"is_disabled":false,"rental_uris":{"android":"levelo://app?vid=258cfa4a-e37c-4553-bf93-53421e2a9ec2","ios":"levelo://app?vid=258cfa4a-e37c-4553-bf93-53421e2a9ec2"},"vehicle_type_id":"4","last_reported":1762971402,"current_range_meters":6000,"station_id":"ce4bgrh2rcd13ifvqc8g","pricing_plan_id":"cebpf4jnsgd1na2vs0mg"},{"bike_id":"9aab732d-99d8-458a-aff5-1ef833353481","system_id":"levelo_inurba_marseille","lat":43.29826,"lon":5.37759,"is_reserved":false,"is_disabled":false,"rental_uris":{"android":"levelo://app?vid=9aab732d-99d8-458a-aff5-1ef833353481","ios":"levelo://app?vid=9aab732d-99d8-458a-aff5-1ef833353481"},"vehicle_type_id":"4","last_reported":1762971402,"current_range_meters":6000,"station_id":"","pricing_plan_id":"cebpf4jnsgd1na2vs0mg"},{"bike_id":"d1ffb84b-e137-494e-aaf6-ee937b9a52ea","system_id":"levelo_inurba_marseille","lat":43.30283,"lon":5.39214,"is_reserved":false,"is_disabled":false,"rental_uris":{"android":"levelo://app?vid=d1ffb84b-e137-494e-aaf6-ee937b9a52ea","ios":"levelo://app?vid=d1ffb84b-e137-494e-aaf6-ee937b9a52ea"},"vehicle_type_id":"4","last_reported":1762971402,"current_range_meters":6000,"station_id":"ce4bgkh2rcd13ifvqbk0","pricing_plan_id":"cebpf4jnsgd1na2vs0mg"},{"bike_id":"47676d4b-98fb-4816-9bed-05a999b3f22e","system_id":"levelo_inurba_marseille","lat":43.31331,"lon":5.397,"is_reserved":false,"is_disabled":false,"rental_uris":{"android":"levelo://app?vid=47676d4b-98fb-4816-9bed-05a999b3f22e","ios":"levelo://app?vid=47676d4b-98fb-4816-9bed-05a999b3f22e"},"vehicle_type_id":"4","last_reported":1762971402,"current_range_meters":6000,"station_id":"ce4bgvp2rcd13ifvqcu0","pricing_plan_id":"cebpf4jnsgd1na2vs0mg"},{"bike_id":"d7008073-8a9b-4db4-8e8d-65fa2f4903cf","system_id":"levelo_inurba_marseille","lat":43.29976,"lon":5.3849,"is_reserved":false,"is_disabled":false,"rental_uris":{"android":"levelo://app?vid=d7008073-8a9b-4db4-8e8d-65fa2f4903cf","ios":"levelo://app?vid=d7008073-8a9b-4db4-8e8d-65fa2f4903cf"},"vehicle_type_id":"4","last_reported":1762971402,"current_range_meters":6000,"station_id":"ce4bgj92rcd13ifvqbd0","pricing_plan_id":"cebpf4jnsgd1na2vs0mg"},{"bike_id":"e0467342-2ee8-4c36-aeb9-27d25d94ead5","system_id":"levelo_inurba_marseille","lat":43.281527,"lon":5.426489,"is_reserved":false,"is_disabled":true,"rental_uris":{"android":"levelo://app?vid=e0467342-2ee8-4c36-aeb9-27d25d94ead5","ios":"levelo://app?vid=e0467342-2ee8-4c36-aeb9-27d25d94ead5"},"vehicle_type_id":"4","last_reported":1762971402,"current_range_meters":6000,"station_id":"ce4bhnh2rcd13ifvqgug","pricing_plan_id":"cebpf4jnsgd1na2vs0mg"},{"bike_id":"98f2b279-f77a-4e42-92a6-7b5790b055a2","system_id":"levelo_inurba_marseille","lat":43.30162,"lon":5.38801,"is_reserved":false,"is_disabled":false,"rental_uris":{"android":"levelo://app?vid=98f2b279-f77a-4e42-92a6-7b5790b055a2","ios":"levelo://app?vid=98f2b279-f77a-4e42-92a6-7b5790b055a2"},"vehicle_type_id":"4","last_reported":1762971402,"current_range_meters":6400,"station_id":"ce4bghh2rcd13ifvqb60","pricing_plan_id":"cebpf4jnsgd1na2vs0mg"},{"bike_id":"3c9f4a29-f3b0-441f-8149-ccb0afdf8ac4","system_id":"levelo_inurba_marseille","lat":43.29542,"lon":5.390848,"is_reserved":false,"is_disabled":false,"rental_uris":{"android":"levelo://app?vid=3c9f4a29-f3b0-441f-8149-ccb0afdf8ac4","ios":"levelo://app?vid=3c9f4a29-f3b0-441f-8149-ccb0afdf8ac4"},"vehicle_type_id":"4","last_reported":1762971402,"current_range_meters":6400,"station_id":"ce4bh3p2rcd13ifvqdp0","pricing_plan_id":"cebpf4jnsgd1na2vs0mg"},{"bike_id":"04f8a71c-2eae-48fc-b7db-dc1b735e80b0","system_id":"levelo_inurba_marseille","lat":43.29,"lon":5.35614,"is_reserved":false,"is_disabled":false,"rental_uris":{"android":"levelo://app?vid=04f8a71c-2eae-48fc-b7db-dc1b735e80b0","ios":"levelo://app?vid=04f8a71c-2eae-48fc-b7db-dc1b735e80b0"},"vehicle_type_id":"4","last_reported":1762971402,"current_range_meters":6400,"station_id":"ce4bhb92rcd13ifvqen0","pricing_plan_id":"cebpf4jnsgd1na2vs0mg"},{"bike_id":"861892f2-0af0-40fe-b698-191d9906341b","system_id":"levelo_inurba_marseille","lat":43.30887,"lon":5.37183,"is_reserved":false,"is_disabled":true,"rental_uris":{"android":"levelo://app?vid=861892f2-0af0-40fe-b698-191d9906341b","ios":"levelo://app?vid=861892f2-0af0-40fe-b698-191d9906341b"},"vehicle_type_id":"4","last_reported":1762971402,"current_range_meters":6400,"station_id":"ce4bguh2rcd13ifvqckg","pricing_plan_id":"cebpf4jnsgd1na2vs0mg"},{"bike_id":"2fc78f48-5f57-44c8-8ebe-e2499d280ac3","system_id":"levelo_inurba_marseille","lat":43.28225,"lon":5.39075,"is_reserved":false,"is_disabled":false,"rental_uris":{"android":"levelo://app?vid=2fc78f48-5f57-44c8-8ebe-e2499d280ac3","ios":"levelo://app?vid=2fc78f48-5f57-44c8-8ebe-e2499d280ac3"},"vehicle_type_id":"4","last_reported":1762971402,"current_range_meters":6400,"station_id":"ce4bhn92rcd13ifvqgsg","pricing_plan_id":"cebpf4jnsgd1na2vs0mg"},{"bike_id":"492ada86-ceea-4eae-acfa-0aecafaa7c4e","system_id":"levelo_inurba_marseille","lat":43.257049,"lon":5.376701,"is_reserved":false,"is_disabled":false,"rental_uris":{"android":"levelo://app?vid=492ada86-ceea-4eae-acfa-0aecafaa7c4e","ios":"levelo://app?vid=492ada86-ceea-4eae-acfa-0aecafaa7c4e"},"vehicle_type_id":"4","last_reported":1762971402,"current_range_meters":6400,"station_id":"ce4bhh12rcd13ifvqff0","pricing_plan_id":"cebpf4jnsgd1na2vs0mg"},{"bike_id":"36b2972b-36f9-411b-ad9d-bb258a7a9540","system_id":"levelo_inurba_marseille","lat":43.28102,"lon":5.37834,"is_reserved":false,"is_disabled":false,"rental_uris":{"android":"levelo://app?vid=36b2972b-36f9-411b-ad9d-bb258a7a9540","ios":"levelo://app?vid=36b2972b-36f9-411b-ad9d-bb258a7a9540"},"vehicle_type_id":"4","last_reported":1762971402,"current_range_meters":6800,"station_id":"ce4bha12rcd13ifvqee0","pricing_plan_id":"cebpf4jnsgd1na2vs0mg"},{"bike_id":"5be44a2e-d684-44ef-b242-e689777b9c84","system_id":"levelo_inurba_marseille","lat":43.30201,"lon":5.39464,"is_reserved":false,"is_disabled":false,"rental_uris":{"android":"levelo://app?vid=5be44a2e-d684-44ef-b242-e689777b9c84","ios":"levelo://app?vid=5be44a2e-d684-44ef-b242-e689777b9c84"},"vehicle_type_id":"4","last_reported":1762971402,"current_range_meters":6800,"station_id":"ce4bh0p2rcd13ifvqd70","pricing_plan_id":"cebpf4jnsgd1na2vs0mg"},{"bike_id":"75121102-ea33-45a9-a597-2bab183bb7f7","system_id":"levelo_inurba_marseille","lat":43.29909,"lon":5.37486,"is_reserved":false,"is_disabled":false,"rental_uris":{"android":"levelo://app?vid=75121102-ea33-45a9-a597-2bab183bb7f7","ios":"levelo://app?vid=75121102-ea33-45a9-a597-2bab183bb7f7"},"vehicle_type_id":"4","last_reported":1762971402,"current_range_meters":6800,"station_id":"ce4bgjh2rcd13ifvqbg0","pricing_plan_id":"cebpf4jnsgd1na2vs0mg"},{"bike_id":"e3354204-877c-4896-aaa1-eef015539434","system_id":"levelo_inurba_marseille","lat":43.28113,"lon":5.37838,"is_reserved":false,"is_disabled":false,"rental_uris":{"android":"levelo://app?vid=e3354204-877c-4896-aaa1-eef015539434","ios":"levelo://app?vid=e3354204-877c-4896-aaa1-eef015539434"},"vehicle_type_id":"4","last_reported":1762971402,"current_range_meters":6800,"station_id":"ce4bha12rcd13ifvqee0","pricing_plan_id":"cebpf4jnsgd1na2vs0mg"},{"bike_id":"28e935ea-8a97-47d5-8b85-5230fa36ae7c","system_id":"levelo_inurba_marseille","lat":43.268011,"lon":5.394059,"is_reserved":false,"is_disabled":false,"rental_uris":{"android":"levelo://app?vid=28e935ea-8a97-47d5-8b85-5230fa36ae7c","ios":"levelo://app?vid=28e935ea-8a97-47d5-8b85-5230fa36ae7c"},"vehicle_type_id":"4","last_reported":1762971402,"current_range_meters":6800,"station_id":"ce4bhh12rcd13ifvqfg0","pricing_plan_id":"cebpf4jnsgd1na2vs0mg"},{"bike_id":"d73545c0-7f0c-49be-998b-30e6ad82c2ea","system_id":"levelo_inurba_marseille","lat":43.30527,"lon":5.38434,"is_reserved":false,"is_disabled":false,"rental_uris":{"android":"levelo://app?vid=d73545c0-7f0c-49be-998b-30e6ad82c2ea","ios":"levelo://app?vid=d73545c0-7f0c-49be-998b-30e6ad82c2ea"},"vehicle_type_id":"4","last_reported":1762971402,"current_range_meters":6800,"station_id":"ce4bgg92rcd13ifvqb30","pricing_plan_id":"cebpf4jnsgd1na2vs0mg"},{"bike_id":"62a14efb-5f7a-4e0d-bbfa-d4a60d07f475","system_id":"levelo_inurba_marseille","lat":43.297548,"lon":5.373132,"is_reserved":false,"is_disabled":false,"rental_uris":{"android":"levelo://app?vid=62a14efb-5f7a-4e0d-bbfa-d4a60d07f475","ios":"levelo://app?vid=62a14efb-5f7a-4e0d-bbfa-d4a60d07f475"},"vehicle_type_id":"4","last_reported":1762971402,"current_range_meters":6800,"station_id":"","pricing_plan_id":"cebpf4jnsgd1na2vs0mg"},{"bike_id":"06012800-7869-4608-8705-e4b125420d18","system_id":"levelo_inurba_marseille","lat":43.2864,"lon":5.35092,"is_reserved":false,"is_disabled":false,"rental_uris":{"android":"levelo://app?vid=06012800-7869-4608-8705-e4b125420d18","ios":"levelo://app?vid=06012800-7869-4608-8705-e4b125420d18"},"vehicle_type_id":"4","last_reported":1762971402,"current_range_meters":6800,"station_id":"ce4bhch2rcd13ifvqeug","pricing_plan_id":"cebpf4jnsgd1na2vs0mg"},{"bike_id":"e0ed7929-20a1-4d5c-ab67-3994c5a84870","system_id":"levelo_inurba_marseille","lat":43.252316,"lon":5.406327,"is_reserved":false,"is_disabled":false,"rental_uris":{"android":"levelo://app?vid=e0ed7929-20a1-4d5c-ab67-3994c5a84870","ios":"levelo://app?vid=e0ed7929-20a1-4d5c-ab67-3994c5a84870"},"vehicle_type_id":"4","last_reported":1762971402,"current_range_meters":6800,"station_id":"","pricing_plan_id":"cebpf4jnsgd1na2vs0mg"},{"bike_id":"7a7dcdfa-f1cb-4866-9ebe-649ec3cf058d","system_id":"levelo_inurba_marseille","lat":43.26513,"lon":5.395,"is_reserved":false,"is_disabled":false,"rental_uris":{"android":"levelo://app?vid=7a7dcdfa-f1cb-4866-9ebe-649ec3cf058d","ios":"levelo://app?vid=7a7dcdfa-f1cb-4866-9ebe-649ec3cf058d"},"vehicle_type_id":"4","last_reported":1762971402,"current_range_meters":6800,"station_id":"ce4bhi12rcd13ifvqfq0","pricing_plan_id":"cebpf4jnsgd1na2vs0mg"},{"bike_id":"b1912dc6-562a-409a-b346-1626d61f3a69","system_id":"levelo_inurba_marseille","lat":43.25589,"lon":5.38237,"is_reserved":false,"is_disabled":true,"rental_uris":{"android":"levelo://app?vid=b1912dc6-562a-409a-b346-1626d61f3a69","ios":"levelo://app?vid=b1912dc6-562a-409a-b346-1626d61f3a69"},"vehicle_type_id":"4","last_reported":1762971402,"current_range_meters":6800,"station_id":"ce4bhih2rcd13ifvqfs0","pricing_plan_id":"cebpf4jnsgd1na2vs0mg"},{"bike_id":"487ea418-8ddb-4133-9586-f99af9eb9949","system_id":"levelo_inurba_marseille","lat":43.23789,"lon":5.36623,"is_reserved":false,"is_disabled":false,"rental_uris":{"android":"levelo://app?vid=487ea418-8ddb-4133-9586-f99af9eb9949","ios":"levelo://app?vid=487ea418-8ddb-4133-9586-f99af9eb9949"},"vehicle_type_id":"4","last_reported":1762971402,"current_range_meters":7200,"station_id":"st_d3nk18o9ro0c73en2l3g","pricing_plan_id":"cebpf4jnsgd1na2vs0mg"},{"bike_id":"bd6a1b16-9e85-47b2-9c7d-9a475aad571e","system_id":"levelo_inurba_marseille","lat":43.299111,"lon":5.381507,"is_reserved":false,"is_disabled":false,"rental_uris":{"android":"levelo://app?vid=bd6a1b16-9e85-47b2-9c7d-9a475aad571e","ios":"levelo://app?vid=bd6a1b16-9e85-47b2-9c7d-9a475aad571e"},"vehicle_type_id":"4","last_reported":1762971402,"current_range_meters":7200,"station_id":"ce4bgh92rcd13ifvqb40","pricing_plan_id":"cebpf4jnsgd1na2vs0mg"},{"bike_id":"48d5f346-64ec-4e03-944c-9ed3f48cbecc","system_id":"levelo_inurba_marseille","lat":43.27571,"lon":5.38422,"is_reserved":false,"is_disabled":true,"rental_uris":{"android":"levelo://app?vid=48d5f346-64ec-4e03-944c-9ed3f48cbecc","ios":"levelo://app?vid=48d5f346-64ec-4e03-944c-9ed3f48cbecc"},"vehicle_type_id":"4","last_reported":1762971402,"current_range_meters":7200,"station_id":"ce4bhh92rcd13ifvqfi0","pricing_plan_id":"cebpf4jnsgd1na2vs0mg"},{"bike_id":"829f0471-923d-43c4-ad28-06924c645f39","system_id":"levelo_inurba_marseille","lat":43.27942,"lon":5.3871,"is_reserved":false,"is_disabled":false,"rental_uris":{"android":"levelo://app?vid=829f0471-923d-43c4-ad28-06924c645f39","ios":"levelo://app?vid=829f0471-923d-43c4-ad28-06924c645f39"},"vehicle_type_id":"4","last_reported":1762971402,"current_range_meters":7200,"station_id":"ce4bhg12rcd13ifvqf80","pricing_plan_id":"cebpf4jnsgd1na2vs0mg"},{"bike_id":"024c0780-6b75-4b14-a566-fb51d8d66bb0","system_id":"levelo_inurba_marseille","lat":43.301453,"lon":5.38078,"is_reserved":false,"is_disabled":false,"rental_uris":{"android":"levelo://app?vid=024c0780-6b75-4b14-a566-fb51d8d66bb0","ios":"levelo://app?vid=024c0780-6b75-4b14-a566-fb51d8d66bb0"},"vehicle_type_id":"4","last_reported":1762971402,"current_range_meters":7200,"station_id":"ce4bgjp2rcd13ifvqbh0","pricing_plan_id":"cebpf4jnsgd1na2vs0mg"},{"bike_id":"dede42ac-961c-4983-a58f-4687d6e7dfef","system_id":"levelo_inurba_marseille","lat":43.28856,"lon":5.39327,"is_reserved":false,"is_disabled":true,"rental_uris":{"android":"levelo://app?vid=dede42ac-961c-4983-a58f-4687d6e7dfef","ios":"levelo://app?vid=dede42ac-961c-4983-a58f-4687d6e7dfef"},"vehicle_type_id":"4","last_reported":1762971402,"current_range_meters":8000,"station_id":"ce4bh2p2rcd13ifvqdi0","pricing_plan_id":"cebpf4jnsgd1na2vs0mg"},{"bike_id":"7aa3896c-abea-4ad0-a0d2-a24762f025c6","system_id":"levelo_inurba_marseille","lat":43.309495,"lon":5.390485,"is_reserved":false,"is_disabled":false,"rental_uris":{"android":"levelo://app?vid=7aa3896c-abea-4ad0-a0d2-a24762f025c6","ios":"levelo://app?vid=7aa3896c-abea-4ad0-a0d2-a24762f025c6"},"vehicle_type_id":"4","last_reported":1762971402,"current_range_meters":8000,"station_id":"ce4bgup2rcd13ifvqco0","pricing_plan_id":"cebpf4jnsgd1na2vs0mg"},{"bike_id":"09788319-a5f6-4d19-b2a8-de882399aa14","system_id":"levelo_inurba_marseille","lat":43.3095,"lon":5.39037,"is_reserved":false,"is_disabled":false,"rental_uris":{"android":"levelo://app?vid=09788319-a5f6-4d19-b2a8-de882399aa14","ios":"levelo://app?vid=09788319-a5f6-4d19-b2a8-de882399aa14"},"vehicle_type_id":"4","last_reported":1762971402,"current_range_meters":8000,"station_id":"ce4bgup2rcd13ifvqco0","pricing_plan_id":"cebpf4jnsgd1na2vs0mg"},{"bike_id":"6109b326-9683-4bb1-b85f-0c0697956308","system_id":"levelo_inurba_marseille","lat":43.26205,"lon":5.3792,"is_reserved":false,"is_disabled":false,"rental_uris":{"android":"levelo://app?vid=6109b326-9683-4bb1-b85f-0c0697956308","ios":"levelo://app?vid=6109b326-9683-4bb1-b85f-0c0697956308"},"vehicle_type_id":"4","last_reported":1762971402,"current_range_meters":8000,"station_id":"ce4bhjp2rcd13ifvqg90","pricing_plan_id":"cebpf4jnsgd1na2vs0mg"},{"bike_id":"0ddb5fc2-8ec0-4a87-8bc9-71765c494461","system_id":"levelo_inurba_marseille","lat":43.28926,"lon":5.36637,"is_reserved":false,"is_disabled":false,"rental_uris":{"android":"levelo://app?vid=0ddb5fc2-8ec0-4a87-8bc9-71765c494461","ios":"levelo://app?vid=0ddb5fc2-8ec0-4a87-8bc9-71765c494461"},"vehicle_type_id":"4","last_reported":1762971402,"current_range_meters":8000,"station_id":"ce4bhap2rcd13ifvqek0","pricing_plan_id":"cebpf4jnsgd1na2vs0mg"},{"bike_id":"a7c253f5-d202-42ee-9bd5-855c23071934","system_id":"levelo_inurba_marseille","lat":43.30783,"lon":5.37636,"is_reserved":false,"is_disabled":false,"rental_uris":{"android":"levelo://app?vid=a7c253f5-d202-42ee-9bd5-855c23071934","ios":"levelo://app?vid=a7c253f5-d202-42ee-9bd5-855c23071934"},"vehicle_type_id":"4","last_reported":1762971402,"current_range_meters":8000,"station_id":"ce4bgv92rcd13ifvqcq0","pricing_plan_id":"cebpf4jnsgd1na2vs0mg"},{"bike_id":"81766a57-2256-49fc-8e54-e0114950c8ed","system_id":"levelo_inurba_marseille","lat":43.26836,"lon":5.39474,"is_reserved":false,"is_disabled":false,"rental_uris":{"android":"levelo://app?vid=81766a57-2256-49fc-8e54-e0114950c8ed","ios":"levelo://app?vid=81766a57-2256-49fc-8e54-e0114950c8ed"},"vehicle_type_id":"4","last_reported":1762971402,"current_range_meters":8000,"station_id":"ce4bhh12rcd13ifvqfg0","pricing_plan_id":"cebpf4jnsgd1na2vs0mg"},{"bike_id":"ed2e14a8-9152-4cff-a607-1d8fbd399ad3","system_id":"levelo_inurba_marseille","lat":43.28046,"lon":5.36947,"is_reserved":false,"is_disabled":false,"rental_uris":{"android":"levelo://app?vid=ed2e14a8-9152-4cff-a607-1d8fbd399ad3","ios":"levelo://app?vid=ed2e14a8-9152-4cff-a607-1d8fbd399ad3"},"vehicle_type_id":"4","last_reported":1762971402,"current_range_meters":8000,"station_id":"ce4bha12rcd13ifvqef0","pricing_plan_id":"cebpf4jnsgd1na2vs0mg"},{"bike_id":"0eb923af-2bc9-4c38-a5cb-36eb43398429","system_id":"levelo_inurba_marseille","lat":43.24801,"lon":5.37456,"is_reserved":false,"is_disabled":false,"rental_uris":{"android":"levelo://app?vid=0eb923af-2bc9-4c38-a5cb-36eb43398429","ios":"levelo://app?vid=0eb923af-2bc9-4c38-a5cb-36eb43398429"},"vehicle_type_id":"4","last_reported":1762971402,"current_range_meters":8000,"station_id":"ce4bhgh2rcd13ifvqfb0","pricing_plan_id":"cebpf4jnsgd1na2vs0mg"},{"bike_id":"16f02f4c-1f84-4cbb-afc5-9dbc5b026330","system_id":"levelo_inurba_marseille","lat":43.27372,"lon":5.36252,"is_reserved":false,"is_disabled":false,"rental_uris":{"android":"levelo://app?vid=16f02f4c-1f84-4cbb-afc5-9dbc5b026330","ios":"levelo://app?vid=16f02f4c-1f84-4cbb-afc5-9dbc5b026330"},"vehicle_type_id":"4","last_reported":1762971402,"current_range_meters":8000,"station_id":"ce4bhbh2rcd13ifvqeo0","pricing_plan_id":"cebpf4jnsgd1na2vs0mg"},{"bike_id":"5ad62a9b-0251-433f-b808-e5dad8bd820d","system_id":"levelo_inurba_marseille","lat":43.299008,"lon":5.436672,"is_reserved":false,"is_disabled":false,"rental_uris":{"android":"levelo://app?vid=5ad62a9b-0251-433f-b808-e5dad8bd820d","ios":"levelo://app?vid=5ad62a9b-0251-433f-b808-e5dad8bd820d"},"vehicle_type_id":"4","last_reported":1762971402,"current_range_meters":8400,"station_id":"ce4bhpp2rcd13ifvqhfg","pricing_plan_id":"cebpf4jnsgd1na2vs0mg"},{"bike_id":"003c2d4f-8a2b-40d0-943c-345656e5ea87","system_id":"levelo_inurba_marseille","lat":43.30952,"lon":5.39028,"is_reserved":false,"is_disabled":false,"rental_uris":{"android":"levelo://app?vid=003c2d4f-8a2b-40d0-943c-345656e5ea87","ios":"levelo://app?vid=003c2d4f-8a2b-40d0-943c-345656e5ea87"},"vehicle_type_id":"4","last_reported":1762971402,"current_range_meters":8400,"station_id":"ce4bgup2rcd13ifvqco0","pricing_plan_id":"cebpf4jnsgd1na2vs0mg"},{"bike_id":"070cbae5-2e12-445d-ae6e-e96f1e6cdb05","system_id":"levelo_inurba_marseille","lat":43.28596,"lon":5.40023,"is_reserved":false,"is_disabled":false,"rental_uris":{"android":"levelo://app?vid=070cbae5-2e12-445d-ae6e-e96f1e6cdb05","ios":"levelo://app?vid=070cbae5-2e12-445d-ae6e-e96f1e6cdb05"},"vehicle_type_id":"4","last_reported":1762971402,"current_range_meters":8400,"station_id":"","pricing_plan_id":"cebpf4jnsgd1na2vs0mg"},{"bike_id":"09e3691b-3315-442c-b9fa-00604d2cad1a","system_id":"levelo_inurba_marseille","lat":43.29023,"lon":5.38619,"is_reserved":false,"is_disabled":false,"rental_uris":{"android":"levelo://app?vid=09e3691b-3315-442c-b9fa-00604d2cad1a","ios":"levelo://app?vid=09e3691b-3315-442c-b9fa-00604d2cad1a"},"vehicle_type_id":"4","last_reported":1762971402,"current_range_meters":8400,"station_id":"ce4bh4p2rcd13ifvqe0g","pricing_plan_id":"cebpf4jnsgd1na2vs0mg"},{"bike_id":"fac8c11c-a701-43bb-aa11-91a24f1b6138","system_id":"levelo_inurba_marseille","lat":43.26503,"lon":5.39537,"is_reserved":false,"is_disabled":false,"rental_uris":{"android":"levelo://app?vid=fac8c11c-a701-43bb-aa11-91a24f1b6138","ios":"levelo://app?vid=fac8c11c-a701-43bb-aa11-91a24f1b6138"},"vehicle_type_id":"4","last_reported":1762971402,"current_range_meters":8400,"station_id":"ce4bhi12rcd13ifvqfq0","pricing_plan_id":"cebpf4jnsgd1na2vs0mg"},{"bike_id":"53bd18ff-ab2a-4e71-88fd-d34f7a48a436","system_id":"levelo_inurba_marseille","lat":43.28717,"lon":5.36102,"is_reserved":false,"is_disabled":false,"rental_uris":{"android":"levelo://app?vid=53bd18ff-ab2a-4e71-88fd-d34f7a48a436","ios":"levelo://app?vid=53bd18ff-ab2a-4e71-88fd-d34f7a48a436"},"vehicle_type_id":"4","last_reported":1762971402,"current_range_meters":8400,"station_id":"cki0cbj6b192h4jlfktg","pricing_plan_id":"cebpf4jnsgd1na2vs0mg"},{"bike_id":"e1cc662b-aada-4d58-9b0e-ff786ecf75c9","system_id":"levelo_inurba_marseille","lat":43.3009,"lon":5.39077,"is_reserved":false,"is_disabled":false,"rental_uris":{"android":"levelo://app?vid=e1cc662b-aada-4d58-9b0e-ff786ecf75c9","ios":"levelo://app?vid=e1cc662b-aada-4d58-9b0e-ff786ecf75c9"},"vehicle_type_id":"4","last_reported":1762971402,"current_range_meters":8400,"station_id":"ce4bh192rcd13ifvqdb0","pricing_plan_id":"cebpf4jnsgd1na2vs0mg"},{"bike_id":"985bd4b1-2e11-42ff-b656-c65d63845b46","system_id":"levelo_inurba_marseille","lat":43.22568,"lon":5.41626,"is_reserved":false,"is_disabled":false,"rental_uris":{"android":"levelo://app?vid=985bd4b1-2e11-42ff-b656-c65d63845b46","ios":"levelo://app?vid=985bd4b1-2e11-42ff-b656-c65d63845b46"},"vehicle_type_id":"4","last_reported":1762971402,"current_range_meters":8400,"station_id":"st_d2o4gvlbi1j2169b742g","pricing_plan_id":"cebpf4jnsgd1na2vs0mg"},{"bike_id":"f30ac3ab-8b51-4483-86ce-b04687c63cd7","system_id":"levelo_inurba_marseille","lat":43.28156,"lon":5.42645,"is_reserved":false,"is_disabled":false,"rental_uris":{"android":"levelo://app?vid=f30ac3ab-8b51-4483-86ce-b04687c63cd7","ios":"levelo://app?vid=f30ac3ab-8b51-4483-86ce-b04687c63cd7"},"vehicle_type_id":"4","last_reported":1762971402,"current_range_meters":8400,"station_id":"ce4bhnh2rcd13ifvqgug","pricing_plan_id":"cebpf4jnsgd1na2vs0mg"},{"bike_id":"4ac0b8d2-a557-4b7b-a887-0ebde746680e","system_id":"levelo_inurba_marseille","lat":43.23794,"lon":5.36623,"is_reserved":false,"is_disabled":false,"rental_uris":{"android":"levelo://app?vid=4ac0b8d2-a557-4b7b-a887-0ebde746680e","ios":"levelo://app?vid=4ac0b8d2-a557-4b7b-a887-0ebde746680e"},"vehicle_type_id":"4","last_reported":1762971402,"current_range_meters":8400,"station_id":"st_d3nk18o9ro0c73en2l3g","pricing_plan_id":"cebpf4jnsgd1na2vs0mg"},{"bike_id":"bf003d09-06a6-48d1-955a-0a0daedc084b","system_id":"levelo_inurba_marseille","lat":43.26563,"lon":5.39003,"is_reserved":false,"is_disabled":false,"rental_uris":{"android":"levelo://app?vid=bf003d09-06a6-48d1-955a-0a0daedc084b","ios":"levelo://app?vid=bf003d09-06a6-48d1-955a-0a0daedc084b"},"vehicle_type_id":"4","last_reported":1762971402,"current_range_meters":8400,"station_id":"ce4bhe12rcd13ifvqf30","pricing_plan_id":"cebpf4jnsgd1na2vs0mg"},{"bike_id":"3323d668-9537-4895-893c-63a33f216756","system_id":"levelo_inurba_marseille","lat":43.291992,"lon":5.39321,"is_reserved":false,"is_disabled":false,"rental_uris":{"android":"levelo://app?vid=3323d668-9537-4895-893c-63a33f216756","ios":"levelo://app?vid=3323d668-9537-4895-893c-63a33f216756"},"vehicle_type_id":"4","last_reported":1762971402,"current_range_meters":8800,"station_id":"","pricing_plan_id":"cebpf4jnsgd1na2vs0mg"},{"bike_id":"84aade2c-4b39-4bce-814f-cfa3d6ed46f7","system_id":"levelo_inurba_marseille","lat":43.28479,"lon":5.48386,"is_reserved":false,"is_disabled":false,"rental_uris":{"android":"levelo://app?vid=84aade2c-4b39-4bce-814f-cfa3d6ed46f7","ios":"levelo://app?vid=84aade2c-4b39-4bce-814f-cfa3d6ed46f7"},"vehicle_type_id":"4","last_reported":1762971402,"current_range_meters":8800,"station_id":"st_d3svhcjqgbts73a3dn0g","pricing_plan_id":"cebpf4jnsgd1na2vs0mg"},{"bike_id":"c80c1c01-368c-46ce-95fa-baee6c258882","system_id":"levelo_inurba_marseille","lat":43.298968,"lon":5.436695,"is_reserved":false,"is_disabled":false,"rental_uris":{"android":"levelo://app?vid=c80c1c01-368c-46ce-95fa-baee6c258882","ios":"levelo://app?vid=c80c1c01-368c-46ce-95fa-baee6c258882"},"vehicle_type_id":"4","last_reported":1762971402,"current_range_meters":8800,"station_id":"ce4bhpp2rcd13ifvqhfg","pricing_plan_id":"cebpf4jnsgd1na2vs0mg"},{"bike_id":"a889be0a-2d20-4f75-a4fa-375f2c8aa375","system_id":"levelo_inurba_marseille","lat":43.2901,"lon":5.3813,"is_reserved":false,"is_disabled":false,"rental_uris":{"android":"levelo://app?vid=a889be0a-2d20-4f75-a4fa-375f2c8aa375","ios":"levelo://app?vid=a889be0a-2d20-4f75-a4fa-375f2c8aa375"},"vehicle_type_id":"4","last_reported":1762971402,"current_range_meters":8800,"station_id":"ce4bh4p2rcd13ifvqe1g","pricing_plan_id":"cebpf4jnsgd1na2vs0mg"},{"bike_id":"883f1861-53d5-48b1-8605-b9733601f1b1","system_id":"levelo_inurba_marseille","lat":43.31329,"lon":5.39701,"is_reserved":false,"is_disabled":false,"rental_uris":{"android":"levelo://app?vid=883f1861-53d5-48b1-8605-b9733601f1b1","ios":"levelo://app?vid=883f1861-53d5-48b1-8605-b9733601f1b1"},"vehicle_type_id":"4","last_reported":1762971402,"current_range_meters":9200,"station_id":"ce4bgvp2rcd13ifvqcu0","pricing_plan_id":"cebpf4jnsgd1na2vs0mg"},{"bike_id":"a6630938-bf5d-41de-b419-3340273537b2","system_id":"levelo_inurba_marseille","lat":43.28716,"lon":5.37384,"is_reserved":false,"is_disabled":false,"rental_uris":{"android":"levelo://app?vid=a6630938-bf5d-41de-b419-3340273537b2","ios":"levelo://app?vid=a6630938-bf5d-41de-b419-3340273537b2"},"vehicle_type_id":"4","last_reported":1762971402,"current_range_meters":9200,"station_id":"ce4bh3p2rcd13ifvqdq0","pricing_plan_id":"cebpf4jnsgd1na2vs0mg"},{"bike_id":"c47023ab-2905-4a00-af93-ffd0b768cdc9","system_id":"levelo_inurba_marseille","lat":43.288676,"lon":5.425179,"is_reserved":false,"is_disabled":false,"rental_uris":{"android":"levelo://app?vid=c47023ab-2905-4a00-af93-ffd0b768cdc9","ios":"levelo://app?vid=c47023ab-2905-4a00-af93-ffd0b768cdc9"},"vehicle_type_id":"4","last_reported":1762971402,"current_range_meters":9200,"station_id":"st_d3b462108ojc7389ooeg","pricing_plan_id":"cebpf4jnsgd1na2vs0mg"},{"bike_id":"cbe81620-5f37-49b3-956b-3b39a84486bb","system_id":"levelo_inurba_marseille","lat":43.31166,"lon":5.38718,"is_reserved":false,"is_disabled":false,"rental_uris":{"android":"levelo://app?vid=cbe81620-5f37-49b3-956b-3b39a84486bb","ios":"levelo://app?vid=cbe81620-5f37-49b3-956b-3b39a84486bb"},"vehicle_type_id":"4","last_reported":1762971402,"current_range_meters":9200,"station_id":"ce4bgv12rcd13ifvqcp0","pricing_plan_id":"cebpf4jnsgd1na2vs0mg"},{"bike_id":"35879002-14a8-49e2-b035-6faedfd1cfe6","system_id":"levelo_inurba_marseille","lat":43.246366,"lon":5.431381,"is_reserved":false,"is_disabled":false,"rental_uris":{"android":"levelo://app?vid=35879002-14a8-49e2-b035-6faedfd1cfe6","ios":"levelo://app?vid=35879002-14a8-49e2-b035-6faedfd1cfe6"},"vehicle_type_id":"4","last_reported":1762971402,"current_range_meters":9200,"station_id":"st_d2m6c4gdas8pm72e190g","pricing_plan_id":"cebpf4jnsgd1na2vs0mg"},{"bike_id":"b0daa8f4-b260-4b4e-8dd7-c0d2593782f7","system_id":"levelo_inurba_marseille","lat":43.27963,"lon":5.38706,"is_reserved":false,"is_disabled":false,"rental_uris":{"android":"levelo://app?vid=b0daa8f4-b260-4b4e-8dd7-c0d2593782f7","ios":"levelo://app?vid=b0daa8f4-b260-4b4e-8dd7-c0d2593782f7"},"vehicle_type_id":"4","last_reported":1762971402,"current_range_meters":9200,"station_id":"ce4bhg12rcd13ifvqf80","pricing_plan_id":"cebpf4jnsgd1na2vs0mg"},{"bike_id":"eea72cab-583d-4d51-9d23-22ddc388a40f","system_id":"levelo_inurba_marseille","lat":43.28866,"lon":5.4252,"is_reserved":false,"is_disabled":false,"rental_uris":{"android":"levelo://app?vid=eea72cab-583d-4d51-9d23-22ddc388a40f","ios":"levelo://app?vid=eea72cab-583d-4d51-9d23-22ddc388a40f"},"vehicle_type_id":"4","last_reported":1762971402,"current_range_meters":9200,"station_id":"st_d3b462108ojc7389ooeg","pricing_plan_id":"cebpf4jnsgd1na2vs0mg"},{"bike_id":"00bc440b-4d09-43d2-86f8-3cf22f3953ab","system_id":"levelo_inurba_marseille","lat":43.28929,"lon":5.36639,"is_reserved":false,"is_disabled":false,"rental_uris":{"android":"levelo://app?vid=00bc440b-4d09-43d2-86f8-3cf22f3953ab","ios":"levelo://app?vid=00bc440b-4d09-43d2-86f8-3cf22f3953ab"},"vehicle_type_id":"4","last_reported":1762971402,"current_range_meters":9600,"station_id":"ce4bhap2rcd13ifvqek0","pricing_plan_id":"cebpf4jnsgd1na2vs0mg"},{"bike_id":"e2b9d622-f034-41f9-b871-95329e8eef3a","system_id":"levelo_inurba_marseille","lat":43.30542,"lon":5.38438,"is_reserved":false,"is_disabled":false,"rental_uris":{"android":"levelo://app?vid=e2b9d622-f034-41f9-b871-95329e8eef3a","ios":"levelo://app?vid=e2b9d622-f034-41f9-b871-95329e8eef3a"},"vehicle_type_id":"4","last_reported":1762971402,"current_range_meters":9600,"station_id":"","pricing_plan_id":"cebpf4jnsgd1na2vs0mg"},{"bike_id":"443a4a83-3594-42d0-8a97-e8d66930e255","system_id":"levelo_inurba_marseille","lat":43.271764,"lon":5.409884,"is_reserved":false,"is_disabled":false,"rental_uris":{"android":"levelo://app?vid=443a4a83-3594-42d0-8a97-e8d66930e255","ios":"levelo://app?vid=443a4a83-3594-42d0-8a97-e8d66930e255"},"vehicle_type_id":"4","last_reported":1762971402,"current_range_meters":9600,"station_id":"ce4bhl12rcd13ifvqgf0","pricing_plan_id":"cebpf4jnsgd1na2vs0mg"},{"bike_id":"442be215-9827-4775-8903-635082f0d466","system_id":"levelo_inurba_marseille","lat":43.30149,"lon":5.38784,"is_reserved":false,"is_disabled":false,"rental_uris":{"android":"levelo://app?vid=442be215-9827-4775-8903-635082f0d466","ios":"levelo://app?vid=442be215-9827-4775-8903-635082f0d466"},"vehicle_type_id":"4","last_reported":1762971402,"current_range_meters":9600,"station_id":"ce4bghh2rcd13ifvqb60","pricing_plan_id":"cebpf4jnsgd1na2vs0mg"},{"bike_id":"cc6a6d4c-7ce7-416c-a9af-ccc2a2e816f8","system_id":"levelo_inurba_marseille","lat":43.30205,"lon":5.36631,"is_reserved":false,"is_disabled":false,"rental_uris":{"android":"levelo://app?vid=cc6a6d4c-7ce7-416c-a9af-ccc2a2e816f8","ios":"levelo://app?vid=cc6a6d4c-7ce7-416c-a9af-ccc2a2e816f8"},"vehicle_type_id":"4","last_reported":1762971402,"current_range_meters":9600,"station_id":"ce4bgrh2rcd13ifvqc8g","pricing_plan_id":"cebpf4jnsgd1na2vs0mg"},{"bike_id":"6f24922f-a094-4ded-98c6-52f3bc85ca80","system_id":"levelo_inurba_marseille","lat":43.29896,"lon":5.36543,"is_reserved":false,"is_disabled":false,"rental_uris":{"android":"levelo://app?vid=6f24922f-a094-4ded-98c6-52f3bc85ca80","ios":"levelo://app?vid=6f24922f-a094-4ded-98c6-52f3bc85ca80"},"vehicle_type_id":"4","last_reported":1762971402,"current_range_meters":9600,"station_id":"ce4bgm92rcd13ifvqbr0","pricing_plan_id":"cebpf4jnsgd1na2vs0mg"},{"bike_id":"466b4238-fe80-44a4-9ac4-e16c7df49bc5","system_id":"levelo_inurba_marseille","lat":43.28102,"lon":5.37831,"is_reserved":false,"is_disabled":false,"rental_uris":{"android":"levelo://app?vid=466b4238-fe80-44a4-9ac4-e16c7df49bc5","ios":"levelo://app?vid=466b4238-fe80-44a4-9ac4-e16c7df49bc5"},"vehicle_type_id":"4","last_reported":1762971402,"current_range_meters":10000,"station_id":"ce4bha12rcd13ifvqee0","pricing_plan_id":"cebpf4jnsgd1na2vs0mg"},{"bike_id":"01e8cce2-ff84-43ff-914a-c0c695f60ca4","system_id":"levelo_inurba_marseille","lat":43.29438,"lon":5.38025,"is_reserved":false,"is_disabled":false,"rental_uris":{"android":"levelo://app?vid=01e8cce2-ff84-43ff-914a-c0c695f60ca4","ios":"levelo://app?vid=01e8cce2-ff84-43ff-914a-c0c695f60ca4"},"vehicle_type_id":"4","last_reported":1762971402,"current_range_meters":10000,"station_id":"","pricing_plan_id":"cebpf4jnsgd1na2vs0mg"},{"bike_id":"f0c847c1-80fb-4f64-9f5e-82159bdeadf4","system_id":"levelo_inurba_marseille","lat":43.30147,"lon":5.37419,"is_reserved":false,"is_disabled":false,"rental_uris":{"android":"levelo://app?vid=f0c847c1-80fb-4f64-9f5e-82159bdeadf4","ios":"levelo://app?vid=f0c847c1-80fb-4f64-9f5e-82159bdeadf4"},"vehicle_type_id":"4","last_reported":1762971402,"current_range_meters":10000,"station_id":"ce4bgs92rcd13ifvqcc0","pricing_plan_id":"cebpf4jnsgd1na2vs0mg"},{"bike_id":"775b4704-e301-42bc-b612-e776a12dfd29","system_id":"levelo_inurba_marseille","lat":43.31213,"lon":5.3684,"is_reserved":false,"is_disabled":false,"rental_uris":{"android":"levelo://app?vid=775b4704-e301-42bc-b612-e776a12dfd29","ios":"levelo://app?vid=775b4704-e301-42bc-b612-e776a12dfd29"},"vehicle_type_id":"4","last_reported":1762971402,"current_range_meters":10000,"station_id":"ce4bgl92rcd13ifvqbq0","pricing_plan_id":"cebpf4jnsgd1na2vs0mg"},{"bike_id":"77b415d4-248c-4d92-8afc-df05780022c2","system_id":"levelo_inurba_marseille","lat":43.27911,"lon":5.39581,"is_reserved":false,"is_disabled":false,"rental_uris":{"android":"levelo://app?vid=77b415d4-248c-4d92-8afc-df05780022c2","ios":"levelo://app?vid=77b415d4-248c-4d92-8afc-df05780022c2"},"vehicle_type_id":"4","last_reported":1762971402,"current_range_meters":10000,"station_id":"ce4bhf92rcd13ifvqf40","pricing_plan_id":"cebpf4jnsgd1na2vs0mg"},{"bike_id":"0a519a0c-2009-4da9-8c56-32b85503cc06","system_id":"levelo_inurba_marseille","lat":43.28546,"lon":5.44099,"is_reserved":false,"is_disabled":false,"rental_uris":{"android":"levelo://app?vid=0a519a0c-2009-4da9-8c56-32b85503cc06","ios":"levelo://app?vid=0a519a0c-2009-4da9-8c56-32b85503cc06"},"vehicle_type_id":"4","last_reported":1762971402,"current_range_meters":10000,"station_id":"st_d3j3df2ikq2c7380ej80","pricing_plan_id":"cebpf4jnsgd1na2vs0mg"},{"bike_id":"5b379ee6-aeb4-4666-b1ce-1304ecbf26e7","system_id":"levelo_inurba_marseille","lat":43.30331,"lon":5.39206,"is_reserved":false,"is_disabled":false,"rental_uris":{"android":"levelo://app?vid=5b379ee6-aeb4-4666-b1ce-1304ecbf26e7","ios":"levelo://app?vid=5b379ee6-aeb4-4666-b1ce-1304ecbf26e7"},"vehicle_type_id":"4","last_reported":1762971402,"current_range_meters":10800,"station_id":"ce4bgkh2rcd13ifvqbk0","pricing_plan_id":"cebpf4jnsgd1na2vs0mg"},{"bike_id":"b69f80ef-52ef-4d9d-8329-7f559fd39250","system_id":"levelo_inurba_marseille","lat":43.28842,"lon":5.35865,"is_reserved":false,"is_disabled":false,"rental_uris":{"android":"levelo://app?vid=b69f80ef-52ef-4d9d-8329-7f559fd39250","ios":"levelo://app?vid=b69f80ef-52ef-4d9d-8329-7f559fd39250"},"vehicle_type_id":"4","last_reported":1762971402,"current_range_meters":10800,"station_id":"ce4bhb12rcd13ifvqem0","pricing_plan_id":"cebpf4jnsgd1na2vs0mg"},{"bike_id":"1955b94e-06c7-40db-a0e7-3e9ee2246d2d","system_id":"levelo_inurba_marseille","lat":43.286826,"lon":5.373964,"is_reserved":false,"is_disabled":false,"rental_uris":{"android":"levelo://app?vid=1955b94e-06c7-40db-a0e7-3e9ee2246d2d","ios":"levelo://app?vid=1955b94e-06c7-40db-a0e7-3e9ee2246d2d"},"vehicle_type_id":"4","last_reported":1762971402,"current_range_meters":10800,"station_id":"ce4bh3p2rcd13ifvqdq0","pricing_plan_id":"cebpf4jnsgd1na2vs0mg"},{"bike_id":"556e8195-ee6f-447a-b294-b1d438becc1c","system_id":"levelo_inurba_marseille","lat":43.27434,"lon":5.39423,"is_reserved":false,"is_disabled":false,"rental_uris":{"android":"levelo://app?vid=556e8195-ee6f-447a-b294-b1d438becc1c","ios":"levelo://app?vid=556e8195-ee6f-447a-b294-b1d438becc1c"},"vehicle_type_id":"4","last_reported":1762971402,"current_range_meters":10800,"station_id":"ce4bhdp2rcd13ifvqf20","pricing_plan_id":"cebpf4jnsgd1na2vs0mg"},{"bike_id":"ac6ab44c-e825-4598-b735-1343c4378912","system_id":"levelo_inurba_marseille","lat":43.25346,"lon":5.42172,"is_reserved":false,"is_disabled":false,"rental_uris":{"android":"levelo://app?vid=ac6ab44c-e825-4598-b735-1343c4378912","ios":"levelo://app?vid=ac6ab44c-e825-4598-b735-1343c4378912"},"vehicle_type_id":"4","last_reported":1762971402,"current_range_meters":10800,"station_id":"st_d2m65c5bi1j21697t3ng","pricing_plan_id":"cebpf4jnsgd1na2vs0mg"},{"bike_id":"9c95a2a1-c3a0-4288-bdb6-5c64cd8f8a1c","system_id":"levelo_inurba_marseille","lat":43.26572,"lon":5.373018,"is_reserved":false,"is_disabled":false,"rental_uris":{"android":"levelo://app?vid=9c95a2a1-c3a0-4288-bdb6-5c64cd8f8a1c","ios":"levelo://app?vid=9c95a2a1-c3a0-4288-bdb6-5c64cd8f8a1c"},"vehicle_type_id":"4","last_reported":1762971402,"current_range_meters":11200,"station_id":"ce4bhg12rcd13ifvqf70","pricing_plan_id":"cebpf4jnsgd1na2vs0mg"},{"bike_id":"f09b69fd-4220-4b51-8365-9a85828617f1","system_id":"levelo_inurba_marseille","lat":43.330268,"lon":5.390397,"is_reserved":false,"is_disabled":true,"rental_uris":{"android":"levelo://app?vid=f09b69fd-4220-4b51-8365-9a85828617f1","ios":"levelo://app?vid=f09b69fd-4220-4b51-8365-9a85828617f1"},"vehicle_type_id":"4","last_reported":1762971402,"current_range_meters":11200,"station_id":"ce4bhr92rcd13ifvqhrg","pricing_plan_id":"cebpf4jnsgd1na2vs0mg"},{"bike_id":"62dcc0f9-3d2c-49ba-bfbc-29d73ac49326","system_id":"levelo_inurba_marseille","lat":43.28626,"lon":5.35078,"is_reserved":false,"is_disabled":false,"rental_uris":{"android":"levelo://app?vid=62dcc0f9-3d2c-49ba-bfbc-29d73ac49326","ios":"levelo://app?vid=62dcc0f9-3d2c-49ba-bfbc-29d73ac49326"},"vehicle_type_id":"4","last_reported":1762971402,"current_range_meters":11200,"station_id":"ce4bhch2rcd13ifvqeug","pricing_plan_id":"cebpf4jnsgd1na2vs0mg"},{"bike_id":"5804ac99-3bd4-4091-bff1-7487e9285e0c","system_id":"levelo_inurba_marseille","lat":43.291955,"lon":5.375858,"is_reserved":false,"is_disabled":false,"rental_uris":{"android":"levelo://app?vid=5804ac99-3bd4-4091-bff1-7487e9285e0c","ios":"levelo://app?vid=5804ac99-3bd4-4091-bff1-7487e9285e0c"},"vehicle_type_id":"4","last_reported":1762971402,"current_range_meters":11200,"station_id":"","pricing_plan_id":"cebpf4jnsgd1na2vs0mg"},{"bike_id":"8b027115-1a9e-4312-923f-dbf5aec10ee4","system_id":"levelo_inurba_marseille","lat":43.302341,"lon":5.365162,"is_reserved":false,"is_disabled":false,"rental_uris":{"android":"levelo://app?vid=8b027115-1a9e-4312-923f-dbf5aec10ee4","ios":"levelo://app?vid=8b027115-1a9e-4312-923f-dbf5aec10ee4"},"vehicle_type_id":"4","last_reported":1762971402,"current_range_meters":11200,"station_id":"","pricing_plan_id":"cebpf4jnsgd1na2vs0mg"},{"bike_id":"138acbc8-a44a-45ec-9d4e-f41258a8778e","system_id":"levelo_inurba_marseille","lat":43.29811,"lon":5.43993,"is_reserved":false,"is_disabled":false,"rental_uris":{"android":"levelo://app?vid=138acbc8-a44a-45ec-9d4e-f41258a8778e","ios":"levelo://app?vid=138acbc8-a44a-45ec-9d4e-f41258a8778e"},"vehicle_type_id":"4","last_reported":1762971402,"current_range_meters":11200,"station_id":"st_d3jp68qikq2c7381ktn0","pricing_plan_id":"cebpf4jnsgd1na2vs0mg"},{"bike_id":"293edf29-b144-433d-bfc7-4f9b78d6afa0","system_id":"levelo_inurba_marseille","lat":43.27179,"lon":5.40999,"is_reserved":false,"is_disabled":false,"rental_uris":{"android":"levelo://app?vid=293edf29-b144-433d-bfc7-4f9b78d6afa0","ios":"levelo://app?vid=293edf29-b144-433d-bfc7-4f9b78d6afa0"},"vehicle_type_id":"4","last_reported":1762971402,"current_range_meters":11200,"station_id":"ce4bhl12rcd13ifvqgf0","pricing_plan_id":"cebpf4jnsgd1na2vs0mg"},{"bike_id":"deb22c28-c17d-4812-a479-8c21fcb2162c","system_id":"levelo_inurba_marseille","lat":43.29254,"lon":5.40911,"is_reserved":false,"is_disabled":true,"rental_uris":{"android":"levelo://app?vid=deb22c28-c17d-4812-a479-8c21fcb2162c","ios":"levelo://app?vid=deb22c28-c17d-4812-a479-8c21fcb2162c"},"vehicle_type_id":"4","last_reported":1762971402,"current_range_meters":11600,"station_id":"ce4bh192rcd13ifvqdc0","pricing_plan_id":"cebpf4jnsgd1na2vs0mg"},{"bike_id":"ffed7597-e455-493e-bbe8-a3865146d108","system_id":"levelo_inurba_marseille","lat":43.28453,"lon":5.35894,"is_reserved":false,"is_disabled":false,"rental_uris":{"android":"levelo://app?vid=ffed7597-e455-493e-bbe8-a3865146d108","ios":"levelo://app?vid=ffed7597-e455-493e-bbe8-a3865146d108"},"vehicle_type_id":"4","last_reported":1762971402,"current_range_meters":11600,"station_id":"ce4bhah2rcd13ifvqei0","pricing_plan_id":"cebpf4jnsgd1na2vs0mg"},{"bike_id":"bf4b96d5-5eb8-45e4-afac-458a3fe26d07","system_id":"levelo_inurba_marseille","lat":43.31169,"lon":5.387198,"is_reserved":false,"is_disabled":false,"rental_uris":{"android":"levelo://app?vid=bf4b96d5-5eb8-45e4-afac-458a3fe26d07","ios":"levelo://app?vid=bf4b96d5-5eb8-45e4-afac-458a3fe26d07"},"vehicle_type_id":"4","last_reported":1762971402,"current_range_meters":11600,"station_id":"ce4bgv12rcd13ifvqcp0","pricing_plan_id":"cebpf4jnsgd1na2vs0mg"},{"bike_id":"79c9aeb2-4d34-4f71-8050-99d15efbe605","system_id":"levelo_inurba_marseille","lat":43.27918,"lon":5.3958,"is_reserved":false,"is_disabled":false,"rental_uris":{"android":"levelo://app?vid=79c9aeb2-4d34-4f71-8050-99d15efbe605","ios":"levelo://app?vid=79c9aeb2-4d34-4f71-8050-99d15efbe605"},"vehicle_type_id":"4","last_reported":1762971402,"current_range_meters":11600,"station_id":"ce4bhf92rcd13ifvqf40","pricing_plan_id":"cebpf4jnsgd1na2vs0mg"},{"bike_id":"841cb1e3-d7ff-4e82-a83c-eaf5e87abdbe","system_id":"levelo_inurba_marseille","lat":43.25579,"lon":5.38229,"is_reserved":false,"is_disabled":false,"rental_uris":{"android":"levelo://app?vid=841cb1e3-d7ff-4e82-a83c-eaf5e87abdbe","ios":"levelo://app?vid=841cb1e3-d7ff-4e82-a83c-eaf5e87abdbe"},"vehicle_type_id":"4","last_reported":1762971402,"current_range_meters":11600,"station_id":"ce4bhih2rcd13ifvqfs0","pricing_plan_id":"cebpf4jnsgd1na2vs0mg"},{"bike_id":"d80d1d7f-ea88-434a-b3c3-7502e37395af","system_id":"levelo_inurba_marseille","lat":43.28942,"lon":5.36412,"is_reserved":false,"is_disabled":false,"rental_uris":{"android":"levelo://app?vid=d80d1d7f-ea88-434a-b3c3-7502e37395af","ios":"levelo://app?vid=d80d1d7f-ea88-434a-b3c3-7502e37395af"},"vehicle_type_id":"4","last_reported":1762971402,"current_range_meters":11600,"station_id":"ce4bhc92rcd13ifvqetg","pricing_plan_id":"cebpf4jnsgd1na2vs0mg"},{"bike_id":"d761a8e1-85d3-4059-99dd-8910b76c6af5","system_id":"levelo_inurba_marseille","lat":43.27546,"lon":5.38448,"is_reserved":false,"is_disabled":false,"rental_uris":{"android":"levelo://app?vid=d761a8e1-85d3-4059-99dd-8910b76c6af5","ios":"levelo://app?vid=d761a8e1-85d3-4059-99dd-8910b76c6af5"},"vehicle_type_id":"4","last_reported":1762971402,"current_range_meters":11600,"station_id":"ce4bhh92rcd13ifvqfi0","pricing_plan_id":"cebpf4jnsgd1na2vs0mg"},{"bike_id":"07b66c92-6268-4848-afd4-431e37d6bd94","system_id":"levelo_inurba_marseille","lat":43.30933,"lon":5.40147,"is_reserved":false,"is_disabled":false,"rental_uris":{"android":"levelo://app?vid=07b66c92-6268-4848-afd4-431e37d6bd94","ios":"levelo://app?vid=07b66c92-6268-4848-afd4-431e37d6bd94"},"vehicle_type_id":"4","last_reported":1762971402,"current_range_meters":12000,"station_id":"ce4bgvp2rcd13ifvqct0","pricing_plan_id":"cebpf4jnsgd1na2vs0mg"},{"bike_id":"ee24cfcb-927e-4dc4-abbc-2385878debe3","system_id":"levelo_inurba_marseille","lat":43.29002,"lon":5.35602,"is_reserved":false,"is_disabled":false,"rental_uris":{"android":"levelo://app?vid=ee24cfcb-927e-4dc4-abbc-2385878debe3","ios":"levelo://app?vid=ee24cfcb-927e-4dc4-abbc-2385878debe3"},"vehicle_type_id":"4","last_reported":1762971402,"current_range_meters":12000,"station_id":"ce4bhb92rcd13ifvqen0","pricing_plan_id":"cebpf4jnsgd1na2vs0mg"},{"bike_id":"1abe7de8-1f5d-4464-9c1e-74f7e6984228","system_id":"levelo_inurba_marseille","lat":43.28448,"lon":5.35805,"is_reserved":false,"is_disabled":false,"rental_uris":{"android":"levelo://app?vid=1abe7de8-1f5d-4464-9c1e-74f7e6984228","ios":"levelo://app?vid=1abe7de8-1f5d-4464-9c1e-74f7e6984228"},"vehicle_type_id":"4","last_reported":1762971402,"current_range_meters":12000,"station_id":"ce4bhah2rcd13ifvqei0","pricing_plan_id":"cebpf4jnsgd1na2vs0mg"},{"bike_id":"9c096df1-ec8a-4a1a-a589-f9f04e6e5d11","system_id":"levelo_inurba_marseille","lat":43.279724,"lon":5.387116,"is_reserved":false,"is_disabled":false,"rental_uris":{"android":"levelo://app?vid=9c096df1-ec8a-4a1a-a589-f9f04e6e5d11","ios":"levelo://app?vid=9c096df1-ec8a-4a1a-a589-f9f04e6e5d11"},"vehicle_type_id":"4","last_reported":1762971402,"current_range_meters":12000,"station_id":"ce4bhg12rcd13ifvqf80","pricing_plan_id":"cebpf4jnsgd1na2vs0mg"},{"bike_id":"fd1ddb74-2136-4f88-9b68-0434fb2d84a7","system_id":"levelo_inurba_marseille","lat":43.26929,"lon":5.38921,"is_reserved":false,"is_disabled":false,"rental_uris":{"android":"levelo://app?vid=fd1ddb74-2136-4f88-9b68-0434fb2d84a7","ios":"levelo://app?vid=fd1ddb74-2136-4f88-9b68-0434fb2d84a7"},"vehicle_type_id":"4","last_reported":1762971402,"current_range_meters":12000,"station_id":"ce4bhhh2rcd13ifvqfl0","pricing_plan_id":"cebpf4jnsgd1na2vs0mg"},{"bike_id":"5e1acd26-54f6-4d9d-a656-6c8296f946a5","system_id":"levelo_inurba_marseille","lat":43.25818,"lon":5.39416,"is_reserved":false,"is_disabled":false,"rental_uris":{"android":"levelo://app?vid=5e1acd26-54f6-4d9d-a656-6c8296f946a5","ios":"levelo://app?vid=5e1acd26-54f6-4d9d-a656-6c8296f946a5"},"vehicle_type_id":"4","last_reported":1762971402,"current_range_meters":12000,"station_id":"ce4bhip2rcd13ifvqft0","pricing_plan_id":"cebpf4jnsgd1na2vs0mg"},{"bike_id":"23cf5617-2a8e-4b86-b9b4-9b049dde7593","system_id":"levelo_inurba_marseille","lat":43.32362,"lon":5.36732,"is_reserved":false,"is_disabled":false,"rental_uris":{"android":"levelo://app?vid=23cf5617-2a8e-4b86-b9b4-9b049dde7593","ios":"levelo://app?vid=23cf5617-2a8e-4b86-b9b4-9b049dde7593"},"vehicle_type_id":"4","last_reported":1762971402,"current_range_meters":12400,"station_id":"ce4bhsh2rcd13ifvqi2g","pricing_plan_id":"cebpf4jnsgd1na2vs0mg"},{"bike_id":"8505783d-4c45-4813-9650-0bbcbd7aa333","system_id":"levelo_inurba_marseille","lat":43.26065,"lon":5.39398,"is_reserved":false,"is_disabled":false,"rental_uris":{"android":"levelo://app?vid=8505783d-4c45-4813-9650-0bbcbd7aa333","ios":"levelo://app?vid=8505783d-4c45-4813-9650-0bbcbd7aa333"},"vehicle_type_id":"4","last_reported":1762971402,"current_range_meters":12400,"station_id":"ce4bhh92rcd13ifvqfj0","pricing_plan_id":"cebpf4jnsgd1na2vs0mg"},{"bike_id":"eef093b0-7ce8-4302-9432-a50faa6344dc","system_id":"levelo_inurba_marseille","lat":43.25126,"lon":5.4032,"is_reserved":false,"is_disabled":false,"rental_uris":{"android":"levelo://app?vid=eef093b0-7ce8-4302-9432-a50faa6344dc","ios":"levelo://app?vid=eef093b0-7ce8-4302-9432-a50faa6344dc"},"vehicle_type_id":"4","last_reported":1762971402,"current_range_meters":12400,"station_id":"ce4bhlh2rcd13ifvqgig","pricing_plan_id":"cebpf4jnsgd1na2vs0mg"},{"bike_id":"f19a854d-96e9-4cf0-92aa-d357813dc143","system_id":"levelo_inurba_marseille","lat":43.284749,"lon":5.384275,"is_reserved":false,"is_disabled":true,"rental_uris":{"android":"levelo://app?vid=f19a854d-96e9-4cf0-92aa-d357813dc143","ios":"levelo://app?vid=f19a854d-96e9-4cf0-92aa-d357813dc143"},"vehicle_type_id":"4","last_reported":1762971402,"current_range_meters":12400,"station_id":"ce4bh512rcd13ifvqe3g","pricing_plan_id":"cebpf4jnsgd1na2vs0mg"},{"bike_id":"0528378f-1b50-41df-b328-6686306ee922","system_id":"levelo_inurba_marseille","lat":43.216273,"lon":5.344478,"is_reserved":false,"is_disabled":false,"rental_uris":{"android":"levelo://app?vid=0528378f-1b50-41df-b328-6686306ee922","ios":"levelo://app?vid=0528378f-1b50-41df-b328-6686306ee922"},"vehicle_type_id":"4","last_reported":1762971402,"current_range_meters":12400,"station_id":"","pricing_plan_id":"cebpf4jnsgd1na2vs0mg"},{"bike_id":"cf825f94-f1e9-4e55-a54a-6af1c4e8014d","system_id":"levelo_inurba_marseille","lat":43.28847,"lon":5.39322,"is_reserved":false,"is_disabled":false,"rental_uris":{"android":"levelo://app?vid=cf825f94-f1e9-4e55-a54a-6af1c4e8014d","ios":"levelo://app?vid=cf825f94-f1e9-4e55-a54a-6af1c4e8014d"},"vehicle_type_id":"4","last_reported":1762971402,"current_range_meters":12400,"station_id":"ce4bh2p2rcd13ifvqdi0","pricing_plan_id":"cebpf4jnsgd1na2vs0mg"},{"bike_id":"f86bf3ee-33fc-43ec-8951-0e53c52e0400","system_id":"levelo_inurba_marseille","lat":43.29197,"lon":5.35815,"is_reserved":false,"is_disabled":false,"rental_uris":{"android":"levelo://app?vid=f86bf3ee-33fc-43ec-8951-0e53c52e0400","ios":"levelo://app?vid=f86bf3ee-33fc-43ec-8951-0e53c52e0400"},"vehicle_type_id":"4","last_reported":1762971402,"current_range_meters":12400,"station_id":"ce4bhb12rcd13ifvqel0","pricing_plan_id":"cebpf4jnsgd1na2vs0mg"},{"bike_id":"f0a376bb-57a8-4d52-84a7-534e483222c5","system_id":"levelo_inurba_marseille","lat":43.32662,"lon":5.40994,"is_reserved":false,"is_disabled":false,"rental_uris":{"android":"levelo://app?vid=f0a376bb-57a8-4d52-84a7-534e483222c5","ios":"levelo://app?vid=f0a376bb-57a8-4d52-84a7-534e483222c5"},"vehicle_type_id":"4","last_reported":1762971402,"current_range_meters":12400,"station_id":"ce4bhpp2rcd13ifvqhgg","pricing_plan_id":"cebpf4jnsgd1na2vs0mg"},{"bike_id":"7cd3fc91-8b4e-4cc9-a97a-8aec9cd4160c","system_id":"levelo_inurba_marseille","lat":43.29875,"lon":5.372003,"is_reserved":false,"is_disabled":true,"rental_uris":{"android":"levelo://app?vid=7cd3fc91-8b4e-4cc9-a97a-8aec9cd4160c","ios":"levelo://app?vid=7cd3fc91-8b4e-4cc9-a97a-8aec9cd4160c"},"vehicle_type_id":"4","last_reported":1762971402,"current_range_meters":12800,"station_id":"","pricing_plan_id":"cebpf4jnsgd1na2vs0mg"},{"bike_id":"9c1d5200-fbd4-4b99-86ec-25ca9d57af4f","system_id":"levelo_inurba_marseille","lat":43.2842,"lon":5.37512,"is_reserved":false,"is_disabled":false,"rental_uris":{"android":"levelo://app?vid=9c1d5200-fbd4-4b99-86ec-25ca9d57af4f","ios":"levelo://app?vid=9c1d5200-fbd4-4b99-86ec-25ca9d57af4f"},"vehicle_type_id":"4","last_reported":1762971402,"current_range_meters":12800,"station_id":"ce4bh412rcd13ifvqds0","pricing_plan_id":"cebpf4jnsgd1na2vs0mg"},{"bike_id":"e13b78db-2231-48a0-b9e0-a153f32a43f4","system_id":"levelo_inurba_marseille","lat":43.23059,"lon":5.35492,"is_reserved":false,"is_disabled":false,"rental_uris":{"android":"levelo://app?vid=e13b78db-2231-48a0-b9e0-a153f32a43f4","ios":"levelo://app?vid=e13b78db-2231-48a0-b9e0-a153f32a43f4"},"vehicle_type_id":"4","last_reported":1762971402,"current_range_meters":12800,"station_id":"cpo3342slgdg3j2ifvpg","pricing_plan_id":"cebpf4jnsgd1na2vs0mg"},{"bike_id":"48ff0507-2b30-41bb-a9a7-9ca258421729","system_id":"levelo_inurba_marseille","lat":43.3108,"lon":5.38498,"is_reserved":false,"is_disabled":false,"rental_uris":{"android":"levelo://app?vid=48ff0507-2b30-41bb-a9a7-9ca258421729","ios":"levelo://app?vid=48ff0507-2b30-41bb-a9a7-9ca258421729"},"vehicle_type_id":"4","last_reported":1762971402,"current_range_meters":12800,"station_id":"","pricing_plan_id":"cebpf4jnsgd1na2vs0mg"},{"bike_id":"da9ac611-7db0-4d14-9632-a61b72195c61","system_id":"levelo_inurba_marseille","lat":43.246283,"lon":5.394996,"is_reserved":false,"is_disabled":false,"rental_uris":{"android":"levelo://app?vid=da9ac611-7db0-4d14-9632-a61b72195c61","ios":"levelo://app?vid=da9ac611-7db0-4d14-9632-a61b72195c61"},"vehicle_type_id":"4","last_reported":1762971402,"current_range_meters":12800,"station_id":"ce4bhlp2rcd13ifvqgjg","pricing_plan_id":"cebpf4jnsgd1na2vs0mg"},{"bike_id":"40b5131c-ec9f-4f03-8dc6-b633ad070bba","system_id":"levelo_inurba_marseille","lat":43.28551,"lon":5.39489,"is_reserved":false,"is_disabled":false,"rental_uris":{"android":"levelo://app?vid=40b5131c-ec9f-4f03-8dc6-b633ad070bba","ios":"levelo://app?vid=40b5131c-ec9f-4f03-8dc6-b633ad070bba"},"vehicle_type_id":"4","last_reported":1762971402,"current_range_meters":12800,"station_id":"ce4bh292rcd13ifvqdg0","pricing_plan_id":"cebpf4jnsgd1na2vs0mg"},{"bike_id":"56252ebb-3d3c-4996-ab17-f095250b50cd","system_id":"levelo_inurba_marseille","lat":43.21753,"lon":5.34601,"is_reserved":false,"is_disabled":true,"rental_uris":{"android":"levelo://app?vid=56252ebb-3d3c-4996-ab17-f095250b50cd","ios":"levelo://app?vid=56252ebb-3d3c-4996-ab17-f095250b50cd"},"vehicle_type_id":"4","last_reported":1762971402,"current_range_meters":12800,"station_id":"","pricing_plan_id":"cebpf4jnsgd1na2vs0mg"},{"bike_id":"52b95ec5-33eb-4fe4-80dd-5dd3b5ed9022","system_id":"levelo_inurba_marseille","lat":43.29771,"lon":5.37126,"is_reserved":false,"is_disabled":false,"rental_uris":{"android":"levelo://app?vid=52b95ec5-33eb-4fe4-80dd-5dd3b5ed9022","ios":"levelo://app?vid=52b95ec5-33eb-4fe4-80dd-5dd3b5ed9022"},"vehicle_type_id":"4","last_reported":1762971402,"current_range_meters":12800,"station_id":"ce4bha92rcd13ifvqeg0","pricing_plan_id":"cebpf4jnsgd1na2vs0mg"},{"bike_id":"e3df63a1-f3d2-4d82-8bf6-df212c4e8b69","system_id":"levelo_inurba_marseille","lat":43.284794,"lon":5.484026,"is_reserved":false,"is_disabled":false,"rental_uris":{"android":"levelo://app?vid=e3df63a1-f3d2-4d82-8bf6-df212c4e8b69","ios":"levelo://app?vid=e3df63a1-f3d2-4d82-8bf6-df212c4e8b69"},"vehicle_type_id":"4","last_reported":1762971402,"current_range_meters":13600,"station_id":"st_d3svhcjqgbts73a3dn0g","pricing_plan_id":"cebpf4jnsgd1na2vs0mg"},{"bike_id":"e8ae9154-04f3-4461-8276-0739d1e853ea","system_id":"levelo_inurba_marseille","lat":43.265648,"lon":5.390045,"is_reserved":false,"is_disabled":false,"rental_uris":{"android":"levelo://app?vid=e8ae9154-04f3-4461-8276-0739d1e853ea","ios":"levelo://app?vid=e8ae9154-04f3-4461-8276-0739d1e853ea"},"vehicle_type_id":"4","last_reported":1762971402,"current_range_meters":13600,"station_id":"ce4bhe12rcd13ifvqf30","pricing_plan_id":"cebpf4jnsgd1na2vs0mg"},{"bike_id":"09fb4cb0-8e93-46e0-a031-081a58536ef2","system_id":"levelo_inurba_marseille","lat":43.30731,"lon":5.42482,"is_reserved":false,"is_disabled":false,"rental_uris":{"android":"levelo://app?vid=09fb4cb0-8e93-46e0-a031-081a58536ef2","ios":"levelo://app?vid=09fb4cb0-8e93-46e0-a031-081a58536ef2"},"vehicle_type_id":"4","last_reported":1762971402,"current_range_meters":13600,"station_id":"st_cvj6ca6bvosntc0bfgr0","pricing_plan_id":"cebpf4jnsgd1na2vs0mg"},{"bike_id":"a2f7640d-87c8-4b57-8a70-96bb3011c777","system_id":"levelo_inurba_marseille","lat":43.28953,"lon":5.38093,"is_reserved":false,"is_disabled":false,"rental_uris":{"android":"levelo://app?vid=a2f7640d-87c8-4b57-8a70-96bb3011c777","ios":"levelo://app?vid=a2f7640d-87c8-4b57-8a70-96bb3011c777"},"vehicle_type_id":"4","last_reported":1762971402,"current_range_meters":13600,"station_id":"","pricing_plan_id":"cebpf4jnsgd1na2vs0mg"},{"bike_id":"038fd947-a0f1-4279-9b9e-45b37702560d","system_id":"levelo_inurba_marseille","lat":43.25851,"lon":5.39847,"is_reserved":false,"is_disabled":false,"rental_uris":{"android":"levelo://app?vid=038fd947-a0f1-4279-9b9e-45b37702560d","ios":"levelo://app?vid=038fd947-a0f1-4279-9b9e-45b37702560d"},"vehicle_type_id":"4","last_reported":1762971402,"current_range_meters":13600,"station_id":"ce4bhl92rcd13ifvqghg","pricing_plan_id":"cebpf4jnsgd1na2vs0mg"},{"bike_id":"a24d1ed3-7d2a-4935-9058-4a4ebef3dc61","system_id":"levelo_inurba_marseille","lat":43.265388,"lon":5.373182,"is_reserved":false,"is_disabled":false,"rental_uris":{"android":"levelo://app?vid=a24d1ed3-7d2a-4935-9058-4a4ebef3dc61","ios":"levelo://app?vid=a24d1ed3-7d2a-4935-9058-4a4ebef3dc61"},"vehicle_type_id":"4","last_reported":1762971402,"current_range_meters":13600,"station_id":"ce4bhg12rcd13ifvqf70","pricing_plan_id":"cebpf4jnsgd1na2vs0mg"},{"bike_id":"18bd7a88-ab6f-4bb5-981d-4251930787db","system_id":"levelo_inurba_marseille","lat":43.2657,"lon":5.3901,"is_reserved":false,"is_disabled":false,"rental_uris":{"android":"levelo://app?vid=18bd7a88-ab6f-4bb5-981d-4251930787db","ios":"levelo://app?vid=18bd7a88-ab6f-4bb5-981d-4251930787db"},"vehicle_type_id":"4","last_reported":1762971402,"current_range_meters":13600,"station_id":"ce4bhe12rcd13ifvqf30","pricing_plan_id":"cebpf4jnsgd1na2vs0mg"},{"bike_id":"705659d6-db3a-41c7-9d91-46787bc39ab6","system_id":"levelo_inurba_marseille","lat":43.286941,"lon":5.373866,"is_reserved":false,"is_disabled":false,"rental_uris":{"android":"levelo://app?vid=705659d6-db3a-41c7-9d91-46787bc39ab6","ios":"levelo://app?vid=705659d6-db3a-41c7-9d91-46787bc39ab6"},"vehicle_type_id":"4","last_reported":1762971402,"current_range_meters":13600,"station_id":"ce4bh3p2rcd13ifvqdq0","pricing_plan_id":"cebpf4jnsgd1na2vs0mg"},{"bike_id":"b3c5bd70-23b2-49fe-9379-2178427ea7e0","system_id":"levelo_inurba_marseille","lat":43.27174,"lon":5.41,"is_reserved":false,"is_disabled":false,"rental_uris":{"android":"levelo://app?vid=b3c5bd70-23b2-49fe-9379-2178427ea7e0","ios":"levelo://app?vid=b3c5bd70-23b2-49fe-9379-2178427ea7e0"},"vehicle_type_id":"4","last_reported":1762971402,"current_range_meters":14000,"station_id":"ce4bhl12rcd13ifvqgf0","pricing_plan_id":"cebpf4jnsgd1na2vs0mg"},{"bike_id":"4cd00cfe-7773-42e9-ace7-18bdb6b33df9","system_id":"levelo_inurba_marseille","lat":43.29977,"lon":5.38478,"is_reserved":false,"is_disabled":false,"rental_uris":{"android":"levelo://app?vid=4cd00cfe-7773-42e9-ace7-18bdb6b33df9","ios":"levelo://app?vid=4cd00cfe-7773-42e9-ace7-18bdb6b33df9"},"vehicle_type_id":"4","last_reported":1762971402,"current_range_meters":14000,"station_id":"ce4bgj92rcd13ifvqbd0","pricing_plan_id":"cebpf4jnsgd1na2vs0mg"},{"bike_id":"7405fff1-54cb-4441-8d3b-98a0b2f0eb43","system_id":"levelo_inurba_marseille","lat":43.273281,"lon":5.390523,"is_reserved":false,"is_disabled":false,"rental_uris":{"android":"levelo://app?vid=7405fff1-54cb-4441-8d3b-98a0b2f0eb43","ios":"levelo://app?vid=7405fff1-54cb-4441-8d3b-98a0b2f0eb43"},"vehicle_type_id":"4","last_reported":1762971402,"current_range_meters":14000,"station_id":"","pricing_plan_id":"cebpf4jnsgd1na2vs0mg"},{"bike_id":"c01ee74c-0907-4ca7-82d0-a92efd488ad9","system_id":"levelo_inurba_marseille","lat":43.22577,"lon":5.41637,"is_reserved":false,"is_disabled":false,"rental_uris":{"android":"levelo://app?vid=c01ee74c-0907-4ca7-82d0-a92efd488ad9","ios":"levelo://app?vid=c01ee74c-0907-4ca7-82d0-a92efd488ad9"},"vehicle_type_id":"4","last_reported":1762971402,"current_range_meters":14000,"station_id":"st_d2o4gvlbi1j2169b742g","pricing_plan_id":"cebpf4jnsgd1na2vs0mg"},{"bike_id":"60e7fa8d-04e1-4bde-9e50-96c18d1e42a2","system_id":"levelo_inurba_marseille","lat":43.3318,"lon":5.36468,"is_reserved":false,"is_disabled":false,"rental_uris":{"android":"levelo://app?vid=60e7fa8d-04e1-4bde-9e50-96c18d1e42a2","ios":"levelo://app?vid=60e7fa8d-04e1-4bde-9e50-96c18d1e42a2"},"vehicle_type_id":"4","last_reported":1762971402,"current_range_meters":14000,"station_id":"","pricing_plan_id":"cebpf4jnsgd1na2vs0mg"},{"bike_id":"7806cf14-4581-459f-b20f-2de402f4b2e2","system_id":"levelo_inurba_marseille","lat":43.29764,"lon":5.4279,"is_reserved":false,"is_disabled":false,"rental_uris":{"android":"levelo://app?vid=7806cf14-4581-459f-b20f-2de402f4b2e2","ios":"levelo://app?vid=7806cf14-4581-459f-b20f-2de402f4b2e2"},"vehicle_type_id":"4","last_reported":1762971402,"current_range_meters":14000,"station_id":"st_d3md5207bmas73dh9klg","pricing_plan_id":"cebpf4jnsgd1na2vs0mg"},{"bike_id":"773e1174-a6d8-4557-aecf-23ea0bb72d04","system_id":"levelo_inurba_marseille","lat":43.27969,"lon":5.41037,"is_reserved":false,"is_disabled":false,"rental_uris":{"android":"levelo://app?vid=773e1174-a6d8-4557-aecf-23ea0bb72d04","ios":"levelo://app?vid=773e1174-a6d8-4557-aecf-23ea0bb72d04"},"vehicle_type_id":"4","last_reported":1762971402,"current_range_meters":14000,"station_id":"ce4bhnp2rcd13ifvqh0g","pricing_plan_id":"cebpf4jnsgd1na2vs0mg"},{"bike_id":"07cdd6c0-c821-469a-9a6b-e067fa27bb41","system_id":"levelo_inurba_marseille","lat":43.211964,"lon":5.350798,"is_reserved":false,"is_disabled":true,"rental_uris":{"android":"levelo://app?vid=07cdd6c0-c821-469a-9a6b-e067fa27bb41","ios":"levelo://app?vid=07cdd6c0-c821-469a-9a6b-e067fa27bb41"},"vehicle_type_id":"4","last_reported":1762971402,"current_range_meters":14000,"station_id":"","pricing_plan_id":"cebpf4jnsgd1na2vs0mg"},{"bike_id":"1826021c-78d5-4bf7-9950-ab922f7cd7e0","system_id":"levelo_inurba_marseille","lat":43.32374,"lon":5.36781,"is_reserved":false,"is_disabled":false,"rental_uris":{"android":"levelo://app?vid=1826021c-78d5-4bf7-9950-ab922f7cd7e0","ios":"levelo://app?vid=1826021c-78d5-4bf7-9950-ab922f7cd7e0"},"vehicle_type_id":"4","last_reported":1762971402,"current_range_meters":14400,"station_id":"ce4bhsh2rcd13ifvqi2g","pricing_plan_id":"cebpf4jnsgd1na2vs0mg"},{"bike_id":"384de422-09d8-4619-80b2-e1a6729b4a02","system_id":"levelo_inurba_marseille","lat":43.28472,"lon":5.38429,"is_reserved":false,"is_disabled":false,"rental_uris":{"android":"levelo://app?vid=384de422-09d8-4619-80b2-e1a6729b4a02","ios":"levelo://app?vid=384de422-09d8-4619-80b2-e1a6729b4a02"},"vehicle_type_id":"4","last_reported":1762971402,"current_range_meters":14400,"station_id":"ce4bh512rcd13ifvqe3g","pricing_plan_id":"cebpf4jnsgd1na2vs0mg"},{"bike_id":"a26712ac-c4dc-4d7c-9767-877ec57b4780","system_id":"levelo_inurba_marseille","lat":43.28486,"lon":5.48368,"is_reserved":false,"is_disabled":false,"rental_uris":{"android":"levelo://app?vid=a26712ac-c4dc-4d7c-9767-877ec57b4780","ios":"levelo://app?vid=a26712ac-c4dc-4d7c-9767-877ec57b4780"},"vehicle_type_id":"4","last_reported":1762971402,"current_range_meters":14400,"station_id":"st_d3svhcjqgbts73a3dn0g","pricing_plan_id":"cebpf4jnsgd1na2vs0mg"},{"bike_id":"69d9106d-5aad-4a8d-ba87-b002f022d837","system_id":"levelo_inurba_marseille","lat":43.302622,"lon":5.400753,"is_reserved":false,"is_disabled":false,"rental_uris":{"android":"levelo://app?vid=69d9106d-5aad-4a8d-ba87-b002f022d837","ios":"levelo://app?vid=69d9106d-5aad-4a8d-ba87-b002f022d837"},"vehicle_type_id":"4","last_reported":1762971402,"current_range_meters":14400,"station_id":"ce4bgvh2rcd13ifvqcs0","pricing_plan_id":"cebpf4jnsgd1na2vs0mg"},{"bike_id":"abf2c661-1073-496f-948f-aa5929baf983","system_id":"levelo_inurba_marseille","lat":43.27954,"lon":5.38699,"is_reserved":false,"is_disabled":false,"rental_uris":{"android":"levelo://app?vid=abf2c661-1073-496f-948f-aa5929baf983","ios":"levelo://app?vid=abf2c661-1073-496f-948f-aa5929baf983"},"vehicle_type_id":"4","last_reported":1762971402,"current_range_meters":14400,"station_id":"ce4bhg12rcd13ifvqf80","pricing_plan_id":"cebpf4jnsgd1na2vs0mg"},{"bike_id":"2a2ec83a-2b84-4bf4-b19a-cd864bece9fd","system_id":"levelo_inurba_marseille","lat":43.24638,"lon":5.431459,"is_reserved":false,"is_disabled":false,"rental_uris":{"android":"levelo://app?vid=2a2ec83a-2b84-4bf4-b19a-cd864bece9fd","ios":"levelo://app?vid=2a2ec83a-2b84-4bf4-b19a-cd864bece9fd"},"vehicle_type_id":"4","last_reported":1762971402,"current_range_meters":14400,"station_id":"st_d2m6c4gdas8pm72e190g","pricing_plan_id":"cebpf4jnsgd1na2vs0mg"},{"bike_id":"2380415b-651d-4cb4-9936-c30499ae6b46","system_id":"levelo_inurba_marseille","lat":43.2176,"lon":5.34593,"is_reserved":false,"is_disabled":true,"rental_uris":{"android":"levelo://app?vid=2380415b-651d-4cb4-9936-c30499ae6b46","ios":"levelo://app?vid=2380415b-651d-4cb4-9936-c30499ae6b46"},"vehicle_type_id":"4","last_reported":1762971402,"current_range_meters":14400,"station_id":"st_cvj6r9ubvosntc0bgbag","pricing_plan_id":"cebpf4jnsgd1na2vs0mg"},{"bike_id":"04a6edf3-cc28-447f-a97c-4bedb0ba724e","system_id":"levelo_inurba_marseille","lat":43.282553,"lon":5.351021,"is_reserved":false,"is_disabled":false,"rental_uris":{"android":"levelo://app?vid=04a6edf3-cc28-447f-a97c-4bedb0ba724e","ios":"levelo://app?vid=04a6edf3-cc28-447f-a97c-4bedb0ba724e"},"vehicle_type_id":"4","last_reported":1762971402,"current_range_meters":14800,"station_id":"","pricing_plan_id":"cebpf4jnsgd1na2vs0mg"},{"bike_id":"d78f906f-13cd-4d72-a609-4996fd5044a7","system_id":"levelo_inurba_marseille","lat":43.29644,"lon":5.37898,"is_reserved":false,"is_disabled":false,"rental_uris":{"android":"levelo://app?vid=d78f906f-13cd-4d72-a609-4996fd5044a7","ios":"levelo://app?vid=d78f906f-13cd-4d72-a609-4996fd5044a7"},"vehicle_type_id":"4","last_reported":1762971402,"current_range_meters":14800,"station_id":"","pricing_plan_id":"cebpf4jnsgd1na2vs0mg"},{"bike_id":"59210900-245d-470e-a96c-0a9fcba64819","system_id":"levelo_inurba_marseille","lat":43.233528,"lon":5.399495,"is_reserved":false,"is_disabled":false,"rental_uris":{"android":"levelo://app?vid=59210900-245d-470e-a96c-0a9fcba64819","ios":"levelo://app?vid=59210900-245d-470e-a96c-0a9fcba64819"},"vehicle_type_id":"4","last_reported":1762971402,"current_range_meters":14800,"station_id":"ce4bhn12rcd13ifvqgqg","pricing_plan_id":"cebpf4jnsgd1na2vs0mg"},{"bike_id":"502a8213-e2c5-4509-8429-9fded9cb3d0a","system_id":"levelo_inurba_marseille","lat":43.292729,"lon":5.368348,"is_reserved":false,"is_disabled":true,"rental_uris":{"android":"levelo://app?vid=502a8213-e2c5-4509-8429-9fded9cb3d0a","ios":"levelo://app?vid=502a8213-e2c5-4509-8429-9fded9cb3d0a"},"vehicle_type_id":"4","last_reported":1762971402,"current_range_meters":14800,"station_id":"ce4bhbp2rcd13ifvqesg","pricing_plan_id":"cebpf4jnsgd1na2vs0mg"},{"bike_id":"9f77fce6-b576-455d-a43d-b1e175676c28","system_id":"levelo_inurba_marseille","lat":43.33773,"lon":5.37473,"is_reserved":false,"is_disabled":false,"rental_uris":{"android":"levelo://app?vid=9f77fce6-b576-455d-a43d-b1e175676c28","ios":"levelo://app?vid=9f77fce6-b576-455d-a43d-b1e175676c28"},"vehicle_type_id":"4","last_reported":1762971402,"current_range_meters":14800,"station_id":"","pricing_plan_id":"cebpf4jnsgd1na2vs0mg"},{"bike_id":"fb2d799c-a882-490e-92fb-bc08b2901f56","system_id":"levelo_inurba_marseille","lat":43.28407,"lon":5.37522,"is_reserved":false,"is_disabled":false,"rental_uris":{"android":"levelo://app?vid=fb2d799c-a882-490e-92fb-bc08b2901f56","ios":"levelo://app?vid=fb2d799c-a882-490e-92fb-bc08b2901f56"},"vehicle_type_id":"4","last_reported":1762971402,"current_range_meters":14800,"station_id":"ce4bh412rcd13ifvqds0","pricing_plan_id":"cebpf4jnsgd1na2vs0mg"},{"bike_id":"413c8f99-7950-4964-890d-b38954f7db0b","system_id":"levelo_inurba_marseille","lat":43.30414,"lon":5.41261,"is_reserved":false,"is_disabled":false,"rental_uris":{"android":"levelo://app?vid=413c8f99-7950-4964-890d-b38954f7db0b","ios":"levelo://app?vid=413c8f99-7950-4964-890d-b38954f7db0b"},"vehicle_type_id":"4","last_reported":1762971402,"current_range_meters":14800,"station_id":"ce4bhop2rcd13ifvqh8g","pricing_plan_id":"cebpf4jnsgd1na2vs0mg"},{"bike_id":"ae5fea2a-e70f-4ee0-8128-21e9009429f0","system_id":"levelo_inurba_marseille","lat":43.29264,"lon":5.4091,"is_reserved":false,"is_disabled":false,"rental_uris":{"android":"levelo://app?vid=ae5fea2a-e70f-4ee0-8128-21e9009429f0","ios":"levelo://app?vid=ae5fea2a-e70f-4ee0-8128-21e9009429f0"},"vehicle_type_id":"4","last_reported":1762971402,"current_range_meters":15200,"station_id":"ce4bh192rcd13ifvqdc0","pricing_plan_id":"cebpf4jnsgd1na2vs0mg"},{"bike_id":"7fdb0343-e3f4-4268-bb2b-f58cb211fd6d","system_id":"levelo_inurba_marseille","lat":43.28183,"lon":5.42654,"is_reserved":false,"is_disabled":false,"rental_uris":{"android":"levelo://app?vid=7fdb0343-e3f4-4268-bb2b-f58cb211fd6d","ios":"levelo://app?vid=7fdb0343-e3f4-4268-bb2b-f58cb211fd6d"},"vehicle_type_id":"4","last_reported":1762971402,"current_range_meters":15200,"station_id":"ce4bhnh2rcd13ifvqgug","pricing_plan_id":"cebpf4jnsgd1na2vs0mg"},{"bike_id":"e0940536-8e97-445f-9fc3-1d0cc2c2fe80","system_id":"levelo_inurba_marseille","lat":43.288588,"lon":5.425108,"is_reserved":false,"is_disabled":false,"rental_uris":{"android":"levelo://app?vid=e0940536-8e97-445f-9fc3-1d0cc2c2fe80","ios":"levelo://app?vid=e0940536-8e97-445f-9fc3-1d0cc2c2fe80"},"vehicle_type_id":"4","last_reported":1762971402,"current_range_meters":15200,"station_id":"st_d3b462108ojc7389ooeg","pricing_plan_id":"cebpf4jnsgd1na2vs0mg"},{"bike_id":"89a5853d-7357-4c51-91e1-024fa8840940","system_id":"levelo_inurba_marseille","lat":43.278092,"lon":5.407006,"is_reserved":false,"is_disabled":false,"rental_uris":{"android":"levelo://app?vid=89a5853d-7357-4c51-91e1-024fa8840940","ios":"levelo://app?vid=89a5853d-7357-4c51-91e1-024fa8840940"},"vehicle_type_id":"4","last_reported":1762971402,"current_range_meters":16000,"station_id":"ce4bhnh2rcd13ifvqgtg","pricing_plan_id":"cebpf4jnsgd1na2vs0mg"},{"bike_id":"da570b79-ba57-42d1-8c83-8ebda484ddfc","system_id":"levelo_inurba_marseille","lat":43.24814,"lon":5.3745,"is_reserved":false,"is_disabled":false,"rental_uris":{"android":"levelo://app?vid=da570b79-ba57-42d1-8c83-8ebda484ddfc","ios":"levelo://app?vid=da570b79-ba57-42d1-8c83-8ebda484ddfc"},"vehicle_type_id":"4","last_reported":1762971402,"current_range_meters":16000,"station_id":"","pricing_plan_id":"cebpf4jnsgd1na2vs0mg"},{"bike_id":"f0413c71-e0c3-427b-98cb-cdf950c219e3","system_id":"levelo_inurba_marseille","lat":43.31069,"lon":5.40066,"is_reserved":false,"is_disabled":false,"rental_uris":{"android":"levelo://app?vid=f0413c71-e0c3-427b-98cb-cdf950c219e3","ios":"levelo://app?vid=f0413c71-e0c3-427b-98cb-cdf950c219e3"},"vehicle_type_id":"4","last_reported":1762971402,"current_range_meters":16000,"station_id":"","pricing_plan_id":"cebpf4jnsgd1na2vs0mg"},{"bike_id":"a76ed384-8adb-4855-8ea9-608b64e9d92b","system_id":"levelo_inurba_marseille","lat":43.32314,"lon":5.37016,"is_reserved":false,"is_disabled":false,"rental_uris":{"android":"levelo://app?vid=a76ed384-8adb-4855-8ea9-608b64e9d92b","ios":"levelo://app?vid=a76ed384-8adb-4855-8ea9-608b64e9d92b"},"vehicle_type_id":"4","last_reported":1762971402,"current_range_meters":16000,"station_id":"","pricing_plan_id":"cebpf4jnsgd1na2vs0mg"},{"bike_id":"9317c30c-03b7-4a14-a50d-aee0f1370f5e","system_id":"levelo_inurba_marseille","lat":43.27572,"lon":5.38423,"is_reserved":false,"is_disabled":false,"rental_uris":{"android":"levelo://app?vid=9317c30c-03b7-4a14-a50d-aee0f1370f5e","ios":"levelo://app?vid=9317c30c-03b7-4a14-a50d-aee0f1370f5e"},"vehicle_type_id":"4","last_reported":1762971402,"current_range_meters":16000,"station_id":"ce4bhh92rcd13ifvqfi0","pricing_plan_id":"cebpf4jnsgd1na2vs0mg"},{"bike_id":"db625a29-d718-4576-a2a1-6b4e9d14fc4c","system_id":"levelo_inurba_marseille","lat":43.29929,"lon":5.36541,"is_reserved":false,"is_disabled":false,"rental_uris":{"android":"levelo://app?vid=db625a29-d718-4576-a2a1-6b4e9d14fc4c","ios":"levelo://app?vid=db625a29-d718-4576-a2a1-6b4e9d14fc4c"},"vehicle_type_id":"4","last_reported":1762971402,"current_range_meters":16000,"station_id":"ce4bgm92rcd13ifvqbr0","pricing_plan_id":"cebpf4jnsgd1na2vs0mg"},{"bike_id":"25198ded-f706-4878-8b65-61feab89d0e0","system_id":"levelo_inurba_marseille","lat":43.28408,"lon":5.37512,"is_reserved":false,"is_disabled":false,"rental_uris":{"android":"levelo://app?vid=25198ded-f706-4878-8b65-61feab89d0e0","ios":"levelo://app?vid=25198ded-f706-4878-8b65-61feab89d0e0"},"vehicle_type_id":"4","last_reported":1762971402,"current_range_meters":16400,"station_id":"ce4bh412rcd13ifvqds0","pricing_plan_id":"cebpf4jnsgd1na2vs0mg"},{"bike_id":"3c5e4a9a-e362-4195-91b6-29d907cbb575","system_id":"levelo_inurba_marseille","lat":43.29156,"lon":5.37153,"is_reserved":false,"is_disabled":false,"rental_uris":{"android":"levelo://app?vid=3c5e4a9a-e362-4195-91b6-29d907cbb575","ios":"levelo://app?vid=3c5e4a9a-e362-4195-91b6-29d907cbb575"},"vehicle_type_id":"4","last_reported":1762971402,"current_range_meters":16400,"station_id":"ce4bha92rcd13ifvqeh0","pricing_plan_id":"cebpf4jnsgd1na2vs0mg"},{"bike_id":"d92b248b-b2af-4c46-88f9-82a1ef3d68f5","system_id":"levelo_inurba_marseille","lat":43.29653,"lon":5.37886,"is_reserved":false,"is_disabled":false,"rental_uris":{"android":"levelo://app?vid=d92b248b-b2af-4c46-88f9-82a1ef3d68f5","ios":"levelo://app?vid=d92b248b-b2af-4c46-88f9-82a1ef3d68f5"},"vehicle_type_id":"4","last_reported":1762971402,"current_range_meters":16400,"station_id":"","pricing_plan_id":"cebpf4jnsgd1na2vs0mg"},{"bike_id":"ab20174e-2906-46de-b401-0a933009ea7b","system_id":"levelo_inurba_marseille","lat":43.3112,"lon":5.37765,"is_reserved":false,"is_disabled":false,"rental_uris":{"android":"levelo://app?vid=ab20174e-2906-46de-b401-0a933009ea7b","ios":"levelo://app?vid=ab20174e-2906-46de-b401-0a933009ea7b"},"vehicle_type_id":"4","last_reported":1762971402,"current_range_meters":16400,"station_id":"ce4bgt92rcd13ifvqcg0","pricing_plan_id":"cebpf4jnsgd1na2vs0mg"},{"bike_id":"9106d1e6-c848-4688-b917-d0e5e79fb4b2","system_id":"levelo_inurba_marseille","lat":43.29765,"lon":5.42775,"is_reserved":false,"is_disabled":false,"rental_uris":{"android":"levelo://app?vid=9106d1e6-c848-4688-b917-d0e5e79fb4b2","ios":"levelo://app?vid=9106d1e6-c848-4688-b917-d0e5e79fb4b2"},"vehicle_type_id":"4","last_reported":1762971402,"current_range_meters":16400,"station_id":"st_d3md5207bmas73dh9klg","pricing_plan_id":"cebpf4jnsgd1na2vs0mg"},{"bike_id":"1b0b7981-696f-4ec5-932c-764cd2899c70","system_id":"levelo_inurba_marseille","lat":43.28475,"lon":5.48401,"is_reserved":false,"is_disabled":false,"rental_uris":{"android":"levelo://app?vid=1b0b7981-696f-4ec5-932c-764cd2899c70","ios":"levelo://app?vid=1b0b7981-696f-4ec5-932c-764cd2899c70"},"vehicle_type_id":"4","last_reported":1762971402,"current_range_meters":16400,"station_id":"","pricing_plan_id":"cebpf4jnsgd1na2vs0mg"},{"bike_id":"9f257429-210e-4187-b310-fa3b4c5c3978","system_id":"levelo_inurba_marseille","lat":43.27346,"lon":5.40145,"is_reserved":false,"is_disabled":false,"rental_uris":{"android":"levelo://app?vid=9f257429-210e-4187-b310-fa3b4c5c3978","ios":"levelo://app?vid=9f257429-210e-4187-b310-fa3b4c5c3978"},"vehicle_type_id":"4","last_reported":1762971402,"current_range_meters":16400,"station_id":"","pricing_plan_id":"cebpf4jnsgd1na2vs0mg"},{"bike_id":"98d9ed27-1c51-4232-bb05-142a9e7f98db","system_id":"levelo_inurba_marseille","lat":43.31066,"lon":5.38346,"is_reserved":false,"is_disabled":true,"rental_uris":{"android":"levelo://app?vid=98d9ed27-1c51-4232-bb05-142a9e7f98db","ios":"levelo://app?vid=98d9ed27-1c51-4232-bb05-142a9e7f98db"},"vehicle_type_id":"4","last_reported":1762971402,"current_range_meters":16400,"station_id":"ce4bgv92rcd13ifvqcr0","pricing_plan_id":"cebpf4jnsgd1na2vs0mg"},{"bike_id":"b176c5bf-526a-4483-aef9-39ad0f000235","system_id":"levelo_inurba_marseille","lat":43.32002,"lon":5.38144,"is_reserved":false,"is_disabled":true,"rental_uris":{"android":"levelo://app?vid=b176c5bf-526a-4483-aef9-39ad0f000235","ios":"levelo://app?vid=b176c5bf-526a-4483-aef9-39ad0f000235"},"vehicle_type_id":"4","last_reported":1762971402,"current_range_meters":16400,"station_id":"ce4bhr12rcd13ifvqhpg","pricing_plan_id":"cebpf4jnsgd1na2vs0mg"},{"bike_id":"b973542d-88ff-4253-9b4e-a75517007190","system_id":"levelo_inurba_marseille","lat":43.29687,"lon":5.37549,"is_reserved":false,"is_disabled":false,"rental_uris":{"android":"levelo://app?vid=b973542d-88ff-4253-9b4e-a75517007190","ios":"levelo://app?vid=b973542d-88ff-4253-9b4e-a75517007190"},"vehicle_type_id":"4","last_reported":1762971402,"current_range_meters":16400,"station_id":"","pricing_plan_id":"cebpf4jnsgd1na2vs0mg"},{"bike_id":"c34d772a-59c8-4da7-a593-2b8a1cb201d8","system_id":"levelo_inurba_marseille","lat":43.317539,"lon":5.390138,"is_reserved":false,"is_disabled":false,"rental_uris":{"android":"levelo://app?vid=c34d772a-59c8-4da7-a593-2b8a1cb201d8","ios":"levelo://app?vid=c34d772a-59c8-4da7-a593-2b8a1cb201d8"},"vehicle_type_id":"4","last_reported":1762971402,"current_range_meters":16400,"station_id":"ce4bhqp2rcd13ifvqhng","pricing_plan_id":"cebpf4jnsgd1na2vs0mg"},{"bike_id":"4b926498-271a-4963-83a6-559ab4ed6bc8","system_id":"levelo_inurba_marseille","lat":43.299735,"lon":5.371787,"is_reserved":false,"is_disabled":false,"rental_uris":{"android":"levelo://app?vid=4b926498-271a-4963-83a6-559ab4ed6bc8","ios":"levelo://app?vid=4b926498-271a-4963-83a6-559ab4ed6bc8"},"vehicle_type_id":"4","last_reported":1762971402,"current_range_meters":16800,"station_id":"ce4bgr92rcd13ifvqc7g","pricing_plan_id":"cebpf4jnsgd1na2vs0mg"},{"bike_id":"5a1a0488-169c-4229-99cb-d2ad1b73503d","system_id":"levelo_inurba_marseille","lat":43.295331,"lon":5.385416,"is_reserved":false,"is_disabled":false,"rental_uris":{"android":"levelo://app?vid=5a1a0488-169c-4229-99cb-d2ad1b73503d","ios":"levelo://app?vid=5a1a0488-169c-4229-99cb-d2ad1b73503d"},"vehicle_type_id":"4","last_reported":1762971402,"current_range_meters":16800,"station_id":"ce4bgih2rcd13ifvqba0","pricing_plan_id":"cebpf4jnsgd1na2vs0mg"},{"bike_id":"bc1f94c4-0012-4f42-8860-de0e6f3dfdc4","system_id":"levelo_inurba_marseille","lat":43.27783,"lon":5.40617,"is_reserved":false,"is_disabled":false,"rental_uris":{"android":"levelo://app?vid=bc1f94c4-0012-4f42-8860-de0e6f3dfdc4","ios":"levelo://app?vid=bc1f94c4-0012-4f42-8860-de0e6f3dfdc4"},"vehicle_type_id":"4","last_reported":1762971402,"current_range_meters":16800,"station_id":"ce4bhnh2rcd13ifvqgtg","pricing_plan_id":"cebpf4jnsgd1na2vs0mg"},{"bike_id":"cf03037b-7a59-4ddf-bdd3-e82611d9a11e","system_id":"levelo_inurba_marseille","lat":43.25336,"lon":5.42167,"is_reserved":false,"is_disabled":false,"rental_uris":{"android":"levelo://app?vid=cf03037b-7a59-4ddf-bdd3-e82611d9a11e","ios":"levelo://app?vid=cf03037b-7a59-4ddf-bdd3-e82611d9a11e"},"vehicle_type_id":"4","last_reported":1762971402,"current_range_meters":16800,"station_id":"st_d2m65c5bi1j21697t3ng","pricing_plan_id":"cebpf4jnsgd1na2vs0mg"},{"bike_id":"d43e19ef-489c-4768-b20a-5c0a7c4e462a","system_id":"levelo_inurba_marseille","lat":43.293,"lon":5.37155,"is_reserved":false,"is_disabled":false,"rental_uris":{"android":"levelo://app?vid=d43e19ef-489c-4768-b20a-5c0a7c4e462a","ios":"levelo://app?vid=d43e19ef-489c-4768-b20a-5c0a7c4e462a"},"vehicle_type_id":"4","last_reported":1762971402,"current_range_meters":16800,"station_id":"ce4bgh92rcd13ifvqb40","pricing_plan_id":"cebpf4jnsgd1na2vs0mg"},{"bike_id":"23f9c78c-ca0a-48be-8a9d-156c748920c2","system_id":"levelo_inurba_marseille","lat":43.279143,"lon":5.410386,"is_reserved":false,"is_disabled":false,"rental_uris":{"android":"levelo://app?vid=23f9c78c-ca0a-48be-8a9d-156c748920c2","ios":"levelo://app?vid=23f9c78c-ca0a-48be-8a9d-156c748920c2"},"vehicle_type_id":"4","last_reported":1762971402,"current_range_meters":16800,"station_id":"ce4bhnp2rcd13ifvqh0g","pricing_plan_id":"cebpf4jnsgd1na2vs0mg"},{"bike_id":"4f27c235-11df-4df2-bfdf-8938c3d9c6ba","system_id":"levelo_inurba_marseille","lat":43.33781,"lon":5.37431,"is_reserved":false,"is_disabled":false,"rental_uris":{"android":"levelo://app?vid=4f27c235-11df-4df2-bfdf-8938c3d9c6ba","ios":"levelo://app?vid=4f27c235-11df-4df2-bfdf-8938c3d9c6ba"},"vehicle_type_id":"4","last_reported":1762971402,"current_range_meters":16800,"station_id":"","pricing_plan_id":"cebpf4jnsgd1na2vs0mg"},{"bike_id":"e690290b-b188-4bf4-9457-b92ed6970cb4","system_id":"levelo_inurba_marseille","lat":43.211945,"lon":5.350782,"is_reserved":false,"is_disabled":true,"rental_uris":{"android":"levelo://app?vid=e690290b-b188-4bf4-9457-b92ed6970cb4","ios":"levelo://app?vid=e690290b-b188-4bf4-9457-b92ed6970cb4"},"vehicle_type_id":"4","last_reported":1762971402,"current_range_meters":16800,"station_id":"st_cvj6sg6p6f1abm77japg","pricing_plan_id":"cebpf4jnsgd1na2vs0mg"},{"bike_id":"08b14b0c-b993-4b4b-9464-75ba8796b4e7","system_id":"levelo_inurba_marseille","lat":43.278555,"lon":5.395566,"is_reserved":false,"is_disabled":false,"rental_uris":{"android":"levelo://app?vid=08b14b0c-b993-4b4b-9464-75ba8796b4e7","ios":"levelo://app?vid=08b14b0c-b993-4b4b-9464-75ba8796b4e7"},"vehicle_type_id":"4","last_reported":1762971402,"current_range_meters":16800,"station_id":"ce4bhf92rcd13ifvqf40","pricing_plan_id":"cebpf4jnsgd1na2vs0mg"},{"bike_id":"b80b8c27-b467-4050-91d7-19f47b806502","system_id":"levelo_inurba_marseille","lat":43.33021,"lon":5.39035,"is_reserved":false,"is_disabled":false,"rental_uris":{"android":"levelo://app?vid=b80b8c27-b467-4050-91d7-19f47b806502","ios":"levelo://app?vid=b80b8c27-b467-4050-91d7-19f47b806502"},"vehicle_type_id":"4","last_reported":1762971402,"current_range_meters":16800,"station_id":"ce4bhr92rcd13ifvqhrg","pricing_plan_id":"cebpf4jnsgd1na2vs0mg"},{"bike_id":"ad0042cb-7969-4fc5-82e2-c976aae6c319","system_id":"levelo_inurba_marseille","lat":43.26507,"lon":5.39551,"is_reserved":false,"is_disabled":false,"rental_uris":{"android":"levelo://app?vid=ad0042cb-7969-4fc5-82e2-c976aae6c319","ios":"levelo://app?vid=ad0042cb-7969-4fc5-82e2-c976aae6c319"},"vehicle_type_id":"4","last_reported":1762971402,"current_range_meters":16800,"station_id":"ce4bhi12rcd13ifvqfq0","pricing_plan_id":"cebpf4jnsgd1na2vs0mg"},{"bike_id":"1d0126b0-a9ed-4fff-be90-08f5883ab073","system_id":"levelo_inurba_marseille","lat":43.2854,"lon":5.44099,"is_reserved":false,"is_disabled":false,"rental_uris":{"android":"levelo://app?vid=1d0126b0-a9ed-4fff-be90-08f5883ab073","ios":"levelo://app?vid=1d0126b0-a9ed-4fff-be90-08f5883ab073"},"vehicle_type_id":"4","last_reported":1762971402,"current_range_meters":16800,"station_id":"st_d3j3df2ikq2c7380ej80","pricing_plan_id":"cebpf4jnsgd1na2vs0mg"},{"bike_id":"3eca2ea7-2c41-4e92-859a-5ddc9884f501","system_id":"levelo_inurba_marseille","lat":43.30325,"lon":5.40432,"is_reserved":false,"is_disabled":false,"rental_uris":{"android":"levelo://app?vid=3eca2ea7-2c41-4e92-859a-5ddc9884f501","ios":"levelo://app?vid=3eca2ea7-2c41-4e92-859a-5ddc9884f501"},"vehicle_type_id":"4","last_reported":1762971402,"current_range_meters":17200,"station_id":"ce4bh012rcd13ifvqd10","pricing_plan_id":"cebpf4jnsgd1na2vs0mg"},{"bike_id":"4aa89285-b5d1-4f59-894c-ca51a9778df3","system_id":"levelo_inurba_marseille","lat":43.30186,"lon":5.36606,"is_reserved":false,"is_disabled":false,"rental_uris":{"android":"levelo://app?vid=4aa89285-b5d1-4f59-894c-ca51a9778df3","ios":"levelo://app?vid=4aa89285-b5d1-4f59-894c-ca51a9778df3"},"vehicle_type_id":"4","last_reported":1762971402,"current_range_meters":17200,"station_id":"ce4bgrh2rcd13ifvqc8g","pricing_plan_id":"cebpf4jnsgd1na2vs0mg"},{"bike_id":"0368dfae-acbb-4621-a5c2-ad319d601870","system_id":"levelo_inurba_marseille","lat":43.280425,"lon":5.369605,"is_reserved":false,"is_disabled":false,"rental_uris":{"android":"levelo://app?vid=0368dfae-acbb-4621-a5c2-ad319d601870","ios":"levelo://app?vid=0368dfae-acbb-4621-a5c2-ad319d601870"},"vehicle_type_id":"4","last_reported":1762971402,"current_range_meters":17200,"station_id":"ce4bha12rcd13ifvqef0","pricing_plan_id":"cebpf4jnsgd1na2vs0mg"},