{"last_updated":1748617852,"ttl":60,"version":"2.2","data":{"bikes":[{"bike_id":"55d42eeb-6b71-4987-a0f2-3d758b10d43e","system_id":"levelo_inurba_marseille","lat":43.33771,"lon":5.37424,"is_reserved":false,"is_disabled":true,"rental_uris":{"android":"levelo://app?vid=55d42eeb-6b71-4987-a0f2-3d758b10d43e","ios":"levelo://app?vid=55d42eeb-6b71-4987-a0f2-3d758b10d43e"},"vehicle_type_id":"4","last_reported":1748617853,"current_range_meters":0,"station_id":"","pricing_plan_id":"cebpf4jnsgd1na2vs0mg"},{"bike_id":"b7fe4621-b706-42f0-9085-4811142f84e8","system_id":"levelo_inurba_marseille","lat":43.337499,"lon":5.374469,"is_reserved":false,"is_disabled":true,"rental_uris":{"android":"levelo://app?vid=b7fe4621-b706-42f0-9085-4811142f84e8","ios":"levelo://app?vid=b7fe4621-b706-42f0-9085-4811142f84e8"},"vehicle_type_id":"4","last_reported":1748617853,"current_range_meters":0,"station_id":"","pricing_plan_id":"cebpf4jnsgd1na2vs0mg"},{"bike_id":"ad402f0f-3192-410c-afac-8cf064a40c6d","system_id":"levelo_inurba_marseille","lat":43.337444,"lon":5.374475,"is_reserved":false,"is_disabled":true,"rental_uris":{"android":"levelo://app?vid=ad402f0f-3192-410c-afac-8cf064a40c6d","ios":"levelo://app?vid=ad402f0f-3192-410c-afac-8cf064a40c6d"},"vehicle_type_id":"4","last_reported":1748617853,"current_range_meters":0,"station_id":"","pricing_plan_id":"cebpf4jnsgd1na2vs0mg"},{"bike_id":"ab9c9983-bf72-44ed-ad75-a96b382dad3c","system_id":"levelo_inurba_marseille","lat":43.21751,"lon":5.3462,"is_reserved":false,"is_disabled":true,"rental_uris":{"android":"levelo://app?vid=ab9c9983-bf72-44ed-ad75-a96b382dad3c","ios":"levelo://app?vid=ab9c9983-bf72-44ed-ad75-a96b382dad3c"},"vehicle_type_id":"4","last_reported":1748617853,"current_range_meters":0,"station_id":"","pricing_plan_id":"cebpf4jnsgd1na2vs0mg"},{"bike_id":"d90baf97-e6b3-4c48-bcd2-63bc44243da4","system_id":"levelo_inurba_marseille","lat":43.2166,"lon":5.34292,"is_reserved":false,"is_disabled":true,"rental_uris":{"android":"levelo://app?vid=d90baf97-e6b3-4c48-bcd2-63bc44243da4","ios":"levelo://app?vid=d90baf97-e6b3-4c48-bcd2-63bc44243da4"},"vehicle_type_id":"4","last_reported":1748617853,"current_range_meters":0,"station_id":"","pricing_plan_id":"cebpf4jnsgd1na2vs0mg"},{"bike_id":"80dc1064-d63f-4a22-ad21-d8abd70986c0","system_id":"levelo_inurba_marseille","lat":43.337558,"lon":5.374801,"is_reserved":false,"is_disabled":true,"rental_uris":{"android":"levelo://app?vid=80dc1064-d63f-4a22-ad21-d8abd70986c0","ios":"levelo://app?vid=80dc1064-d63f-4a22-ad21-d8abd70986c0"},"vehicle_type_id":"4","last_reported":1748617853,"current_range_meters":0,"station_id":"","pricing_plan_id":"cebpf4jnsgd1na2vs0mg"},{"bike_id":"e85986f7-78ee-45ca-a51c-ad41979e478c","system_id":"levelo_inurba_marseille","lat":43.295166,"lon":5.375107,"is_reserved":false,"is_disabled":true,"rental_uris":{"android":"levelo://app?vid=e85986f7-78ee-45ca-a51c-ad41979e478c","ios":"levelo://app?vid=e85986f7-78ee-45ca-a51c-ad41979e478c"},"vehicle_type_id":"4","last_reported":1748617853,"current_range_meters":0,"station_id":"","pricing_plan_id":"cebpf4jnsgd1na2vs0mg"},{"bike_id":"5847d8e2-f128-4762-bd3f-1cd182d8cf21","system_id":"levelo_inurba_marseille","lat":43.28513,"lon":5.35116,"is_reserved":false,"is_disabled":true,"rental_uris":{"android":"levelo://app?vid=5847d8e2-f128-4762-bd3f-1cd182d8cf21","ios":"levelo://app?vid=5847d8e2-f128-4762-bd3f-1cd182d8cf21"},"vehicle_type_id":"4","last_reported":1748617853,"current_range_meters":0,"station_id":"","pricing_plan_id":"cebpf4jnsgd1na2vs0mg"},{"bike_id":"d98db08e-67d1-4909-942e-01d840d7461c","system_id":"levelo_inurba_marseille","lat":43.337444,"lon":5.374475,"is_reserved":false,"is_disabled":true,"rental_uris":{"android":"levelo://app?vid=d98db08e-67d1-4909-942e-01d840d7461c","ios":"levelo://app?vid=d98db08e-67d1-4909-942e-01d840d7461c"},"vehicle_type_id":"4","last_reported":1748617853,"current_range_meters":0,"station_id":"","pricing_plan_id":"cebpf4jnsgd1na2vs0mg"},{"bike_id":"8f448a94-be66-4775-874a-bef14c56db45","system_id":"levelo_inurba_marseille","lat":43.29949,"lon":5.36552,"is_reserved":false,"is_disabled":true,"rental_uris":{"android":"levelo://app?vid=8f448a94-be66-4775-874a-bef14c56db45","ios":"levelo://app?vid=8f448a94-be66-4775-874a-bef14c56db45"},"vehicle_type_id":"4","last_reported":1748617853,"current_range_meters":0,"station_id":"ce4bgm92rcd13ifvqbr0","pricing_plan_id":"cebpf4jnsgd1na2vs0mg"},{"bike_id":"10406250-f0b3-4a53-8859-5868fb2121d0","system_id":"levelo_inurba_marseille","lat":43.29717,"lon":5.36622,"is_reserved":false,"is_disabled":true,"rental_uris":{"android":"levelo://app?vid=10406250-f0b3-4a53-8859-5868fb2121d0","ios":"levelo://app?vid=10406250-f0b3-4a53-8859-5868fb2121d0"},"vehicle_type_id":"4","last_reported":1748617853,"current_range_meters":0,"station_id":"ce4bgn12rcd13ifvqbt0","pricing_plan_id":"cebpf4jnsgd1na2vs0mg"},{"bike_id":"c74145dc-ea27-4bb4-b32f-e400ac6ea47d","system_id":"levelo_inurba_marseille","lat":43.29701,"lon":5.36609,"is_reserved":false,"is_disabled":true,"rental_uris":{"android":"levelo://app?vid=c74145dc-ea27-4bb4-b32f-e400ac6ea47d","ios":"levelo://app?vid=c74145dc-ea27-4bb4-b32f-e400ac6ea47d"},"vehicle_type_id":"4","last_reported":1748617853,"current_range_meters":0,"station_id":"ce4bgn12rcd13ifvqbt0","pricing_plan_id":"cebpf4jnsgd1na2vs0mg"},{"bike_id":"58e7351c-4a6a-43f8-892e-e9a5e17925de","system_id":"levelo_inurba_marseille","lat":43.29704,"lon":5.36618,"is_reserved":false,"is_disabled":true,"rental_uris":{"android":"levelo://app?vid=58e7351c-4a6a-43f8-892e-e9a5e17925de","ios":"levelo://app?vid=58e7351c-4a6a-43f8-892e-e9a5e17925de"},"vehicle_type_id":"4","last_reported":1748617853,"current_range_meters":0,"station_id":"ce4bgn12rcd13ifvqbt0","pricing_plan_id":"cebpf4jnsgd1na2vs0mg"},{"bike_id":"79f47a93-6b37-4b08-bd06-acee7be7c1cf","system_id":"levelo_inurba_marseille","lat":43.3093,"lon":5.40147,"is_reserved":false,"is_disabled":true,"rental_uris":{"android":"levelo://app?vid=79f47a93-6b37-4b08-bd06-acee7be7c1cf","ios":"levelo://app?vid=79f47a93-6b37-4b08-bd06-acee7be7c1cf"},"vehicle_type_id":"4","last_reported":1748617853,"current_range_meters":0,"station_id":"ce4bgvp2rcd13ifvqct0","pricing_plan_id":"cebpf4jnsgd1na2vs0mg"},{"bike_id":"ac67452d-9948-42e7-a4ea-73a7e139060a","system_id":"levelo_inurba_marseille","lat":43.28935,"lon":5.39629,"is_reserved":false,"is_disabled":true,"rental_uris":{"android":"levelo://app?vid=ac67452d-9948-42e7-a4ea-73a7e139060a","ios":"levelo://app?vid=ac67452d-9948-42e7-a4ea-73a7e139060a"},"vehicle_type_id":"4","last_reported":1748617853,"current_range_meters":0,"station_id":"ce4bh3h2rcd13ifvqdn0","pricing_plan_id":"cebpf4jnsgd1na2vs0mg"},{"bike_id":"b7f9fe2f-1f53-4fd9-a41c-469fbddfc06c","system_id":"levelo_inurba_marseille","lat":43.28477,"lon":5.38412,"is_reserved":false,"is_disabled":true,"rental_uris":{"android":"levelo://app?vid=b7f9fe2f-1f53-4fd9-a41c-469fbddfc06c","ios":"levelo://app?vid=b7f9fe2f-1f53-4fd9-a41c-469fbddfc06c"},"vehicle_type_id":"4","last_reported":1748617853,"current_range_meters":0,"station_id":"ce4bh512rcd13ifvqe3g","pricing_plan_id":"cebpf4jnsgd1na2vs0mg"},{"bike_id":"160c6e8a-dac6-4670-81b3-ef5cea527bf1","system_id":"levelo_inurba_marseille","lat":43.28457,"lon":5.35898,"is_reserved":false,"is_disabled":true,"rental_uris":{"android":"levelo://app?vid=160c6e8a-dac6-4670-81b3-ef5cea527bf1","ios":"levelo://app?vid=160c6e8a-dac6-4670-81b3-ef5cea527bf1"},"vehicle_type_id":"4","last_reported":1748617853,"current_range_meters":0,"station_id":"ce4bhah2rcd13ifvqei0","pricing_plan_id":"cebpf4jnsgd1na2vs0mg"},{"bike_id":"65bb0a46-cdd0-49f2-86f4-7940a6d19fb0","system_id":"levelo_inurba_marseille","lat":43.29171,"lon":5.35777,"is_reserved":false,"is_disabled":true,"rental_uris":{"android":"levelo://app?vid=65bb0a46-cdd0-49f2-86f4-7940a6d19fb0","ios":"levelo://app?vid=65bb0a46-cdd0-49f2-86f4-7940a6d19fb0"},"vehicle_type_id":"4","last_reported":1748617853,"current_range_meters":0,"station_id":"ce4bhb12rcd13ifvqel0","pricing_plan_id":"cebpf4jnsgd1na2vs0mg"},{"bike_id":"697d9367-9253-4cd9-bf9c-fe41669285d2","system_id":"levelo_inurba_marseille","lat":43.2738,"lon":5.36259,"is_reserved":false,"is_disabled":true,"rental_uris":{"android":"levelo://app?vid=697d9367-9253-4cd9-bf9c-fe41669285d2","ios":"levelo://app?vid=697d9367-9253-4cd9-bf9c-fe41669285d2"},"vehicle_type_id":"4","last_reported":1748617853,"current_range_meters":0,"station_id":"ce4bhbh2rcd13ifvqeo0","pricing_plan_id":"cebpf4jnsgd1na2vs0mg"},{"bike_id":"d5d64d35-2fe3-4075-bbd4-4aeff60e5c8c","system_id":"levelo_inurba_marseille","lat":43.27397,"lon":5.36266,"is_reserved":false,"is_disabled":true,"rental_uris":{"android":"levelo://app?vid=d5d64d35-2fe3-4075-bbd4-4aeff60e5c8c","ios":"levelo://app?vid=d5d64d35-2fe3-4075-bbd4-4aeff60e5c8c"},"vehicle_type_id":"4","last_reported":1748617853,"current_range_meters":0,"station_id":"ce4bhbh2rcd13ifvqeo0","pricing_plan_id":"cebpf4jnsgd1na2vs0mg"},{"bike_id":"5c6f602c-15bc-456c-a4f5-e0f27fcf85b1","system_id":"levelo_inurba_marseille","lat":43.28266,"lon":5.35066,"is_reserved":false,"is_disabled":true,"rental_uris":{"android":"levelo://app?vid=5c6f602c-15bc-456c-a4f5-e0f27fcf85b1","ios":"levelo://app?vid=5c6f602c-15bc-456c-a4f5-e0f27fcf85b1"},"vehicle_type_id":"4","last_reported":1748617853,"current_range_meters":0,"station_id":"ce4bhbp2rcd13ifvqerg","pricing_plan_id":"cebpf4jnsgd1na2vs0mg"},{"bike_id":"300c3511-49b5-4a66-8335-d3bb03650cb4","system_id":"levelo_inurba_marseille","lat":43.292662,"lon":5.368493,"is_reserved":false,"is_disabled":true,"rental_uris":{"android":"levelo://app?vid=300c3511-49b5-4a66-8335-d3bb03650cb4","ios":"levelo://app?vid=300c3511-49b5-4a66-8335-d3bb03650cb4"},"vehicle_type_id":"4","last_reported":1748617853,"current_range_meters":0,"station_id":"ce4bhbp2rcd13ifvqesg","pricing_plan_id":"cebpf4jnsgd1na2vs0mg"},{"bike_id":"d5526e3c-9548-4199-ae16-bb3edc1adff8","system_id":"levelo_inurba_marseille","lat":43.26188,"lon":5.37451,"is_reserved":false,"is_disabled":true,"rental_uris":{"android":"levelo://app?vid=d5526e3c-9548-4199-ae16-bb3edc1adff8","ios":"levelo://app?vid=d5526e3c-9548-4199-ae16-bb3edc1adff8"},"vehicle_type_id":"4","last_reported":1748617853,"current_range_meters":0,"station_id":"ce4bhgp2rcd13ifvqfc0","pricing_plan_id":"cebpf4jnsgd1na2vs0mg"},{"bike_id":"5c6a6cd9-6d2b-45ce-a8e9-37b27e7ed0b2","system_id":"levelo_inurba_marseille","lat":43.24998,"lon":5.3892,"is_reserved":false,"is_disabled":true,"rental_uris":{"android":"levelo://app?vid=5c6a6cd9-6d2b-45ce-a8e9-37b27e7ed0b2","ios":"levelo://app?vid=5c6a6cd9-6d2b-45ce-a8e9-37b27e7ed0b2"},"vehicle_type_id":"4","last_reported":1748617853,"current_range_meters":0,"station_id":"ce4bhgp2rcd13ifvqfd0","pricing_plan_id":"cebpf4jnsgd1na2vs0mg"},{"bike_id":"c64dfaad-1706-41ab-b920-c13880d72b19","system_id":"levelo_inurba_marseille","lat":43.2549,"lon":5.37647,"is_reserved":false,"is_disabled":true,"rental_uris":{"android":"levelo://app?vid=c64dfaad-1706-41ab-b920-c13880d72b19","ios":"levelo://app?vid=c64dfaad-1706-41ab-b920-c13880d72b19"},"vehicle_type_id":"4","last_reported":1748617853,"current_range_meters":0,"station_id":"ce4bhh12rcd13ifvqff0","pricing_plan_id":"cebpf4jnsgd1na2vs0mg"},{"bike_id":"7847f305-f89a-41ce-b132-df90225e4673","system_id":"levelo_inurba_marseille","lat":43.23963,"lon":5.36647,"is_reserved":false,"is_disabled":true,"rental_uris":{"android":"levelo://app?vid=7847f305-f89a-41ce-b132-df90225e4673","ios":"levelo://app?vid=7847f305-f89a-41ce-b132-df90225e4673"},"vehicle_type_id":"4","last_reported":1748617853,"current_range_meters":0,"station_id":"ce4bhi12rcd13ifvqfp0","pricing_plan_id":"cebpf4jnsgd1na2vs0mg"},{"bike_id":"67611e52-a8d7-4a41-a5f9-ad4a17547d63","system_id":"levelo_inurba_marseille","lat":43.23958,"lon":5.36635,"is_reserved":false,"is_disabled":true,"rental_uris":{"android":"levelo://app?vid=67611e52-a8d7-4a41-a5f9-ad4a17547d63","ios":"levelo://app?vid=67611e52-a8d7-4a41-a5f9-ad4a17547d63"},"vehicle_type_id":"4","last_reported":1748617853,"current_range_meters":0,"station_id":"ce4bhi12rcd13ifvqfp0","pricing_plan_id":"cebpf4jnsgd1na2vs0mg"},{"bike_id":"308275e5-6099-4ddb-82e1-1aba680b542b","system_id":"levelo_inurba_marseille","lat":43.25584,"lon":5.38231,"is_reserved":false,"is_disabled":true,"rental_uris":{"android":"levelo://app?vid=308275e5-6099-4ddb-82e1-1aba680b542b","ios":"levelo://app?vid=308275e5-6099-4ddb-82e1-1aba680b542b"},"vehicle_type_id":"4","last_reported":1748617853,"current_range_meters":0,"station_id":"ce4bhih2rcd13ifvqfs0","pricing_plan_id":"cebpf4jnsgd1na2vs0mg"},{"bike_id":"ff65314b-c6d7-4480-ae07-5fd9dfc89f84","system_id":"levelo_inurba_marseille","lat":43.27093,"lon":5.4231,"is_reserved":false,"is_disabled":true,"rental_uris":{"android":"levelo://app?vid=ff65314b-c6d7-4480-ae07-5fd9dfc89f84","ios":"levelo://app?vid=ff65314b-c6d7-4480-ae07-5fd9dfc89f84"},"vehicle_type_id":"4","last_reported":1748617853,"current_range_meters":0,"station_id":"ce4bhk92rcd13ifvqgb0","pricing_plan_id":"cebpf4jnsgd1na2vs0mg"},{"bike_id":"b80ee325-09b2-4724-993d-4f8d3707c41c","system_id":"levelo_inurba_marseille","lat":43.25862,"lon":5.39902,"is_reserved":false,"is_disabled":true,"rental_uris":{"android":"levelo://app?vid=b80ee325-09b2-4724-993d-4f8d3707c41c","ios":"levelo://app?vid=b80ee325-09b2-4724-993d-4f8d3707c41c"},"vehicle_type_id":"4","last_reported":1748617853,"current_range_meters":0,"station_id":"ce4bhl92rcd13ifvqghg","pricing_plan_id":"cebpf4jnsgd1na2vs0mg"},{"bike_id":"011c8585-669b-4303-81ec-cc2af09f7440","system_id":"levelo_inurba_marseille","lat":43.25864,"lon":5.399,"is_reserved":false,"is_disabled":true,"rental_uris":{"android":"levelo://app?vid=011c8585-669b-4303-81ec-cc2af09f7440","ios":"levelo://app?vid=011c8585-669b-4303-81ec-cc2af09f7440"},"vehicle_type_id":"4","last_reported":1748617853,"current_range_meters":0,"station_id":"ce4bhl92rcd13ifvqghg","pricing_plan_id":"cebpf4jnsgd1na2vs0mg"},{"bike_id":"25b96502-b2d6-4a34-b195-ba99b17e2822","system_id":"levelo_inurba_marseille","lat":43.259033,"lon":5.398743,"is_reserved":false,"is_disabled":true,"rental_uris":{"android":"levelo://app?vid=25b96502-b2d6-4a34-b195-ba99b17e2822","ios":"levelo://app?vid=25b96502-b2d6-4a34-b195-ba99b17e2822"},"vehicle_type_id":"4","last_reported":1748617853,"current_range_meters":0,"station_id":"ce4bhl92rcd13ifvqghg","pricing_plan_id":"cebpf4jnsgd1na2vs0mg"},{"bike_id":"a9c8cc09-b81f-4b6d-ae1a-4da7ee8da825","system_id":"levelo_inurba_marseille","lat":43.259377,"lon":5.409033,"is_reserved":false,"is_disabled":true,"rental_uris":{"android":"levelo://app?vid=a9c8cc09-b81f-4b6d-ae1a-4da7ee8da825","ios":"levelo://app?vid=a9c8cc09-b81f-4b6d-ae1a-4da7ee8da825"},"vehicle_type_id":"4","last_reported":1748617853,"current_range_meters":0,"station_id":"ce4bhm92rcd13ifvqglg","pricing_plan_id":"cebpf4jnsgd1na2vs0mg"},{"bike_id":"7c858648-2062-4621-8aad-d380e22d3586","system_id":"levelo_inurba_marseille","lat":43.23149,"lon":5.43728,"is_reserved":false,"is_disabled":true,"rental_uris":{"android":"levelo://app?vid=7c858648-2062-4621-8aad-d380e22d3586","ios":"levelo://app?vid=7c858648-2062-4621-8aad-d380e22d3586"},"vehicle_type_id":"4","last_reported":1748617853,"current_range_meters":0,"station_id":"ce4bhmp2rcd13ifvqgog","pricing_plan_id":"cebpf4jnsgd1na2vs0mg"},{"bike_id":"d15385dd-e601-4661-b726-8b3c4d3a429c","system_id":"levelo_inurba_marseille","lat":43.24189,"lon":5.39749,"is_reserved":false,"is_disabled":true,"rental_uris":{"android":"levelo://app?vid=d15385dd-e601-4661-b726-8b3c4d3a429c","ios":"levelo://app?vid=d15385dd-e601-4661-b726-8b3c4d3a429c"},"vehicle_type_id":"4","last_reported":1748617853,"current_range_meters":0,"station_id":"ce4bhn12rcd13ifvqgpg","pricing_plan_id":"cebpf4jnsgd1na2vs0mg"},{"bike_id":"4e5a1d5f-5a6a-4a83-a5ff-d402a6d6435b","system_id":"levelo_inurba_marseille","lat":43.27832,"lon":5.40705,"is_reserved":false,"is_disabled":true,"rental_uris":{"android":"levelo://app?vid=4e5a1d5f-5a6a-4a83-a5ff-d402a6d6435b","ios":"levelo://app?vid=4e5a1d5f-5a6a-4a83-a5ff-d402a6d6435b"},"vehicle_type_id":"4","last_reported":1748617853,"current_range_meters":0,"station_id":"ce4bhnh2rcd13ifvqgtg","pricing_plan_id":"cebpf4jnsgd1na2vs0mg"},{"bike_id":"edd724c4-5217-4146-a8c4-27bb538c8225","system_id":"levelo_inurba_marseille","lat":43.28692,"lon":5.39983,"is_reserved":false,"is_disabled":true,"rental_uris":{"android":"levelo://app?vid=edd724c4-5217-4146-a8c4-27bb538c8225","ios":"levelo://app?vid=edd724c4-5217-4146-a8c4-27bb538c8225"},"vehicle_type_id":"4","last_reported":1748617853,"current_range_meters":0,"station_id":"ce4bho92rcd13ifvqh3g","pricing_plan_id":"cebpf4jnsgd1na2vs0mg"},{"bike_id":"45537438-5696-471e-8650-84e9d3b30c2c","system_id":"levelo_inurba_marseille","lat":43.325352,"lon":5.414405,"is_reserved":false,"is_disabled":true,"rental_uris":{"android":"levelo://app?vid=45537438-5696-471e-8650-84e9d3b30c2c","ios":"levelo://app?vid=45537438-5696-471e-8650-84e9d3b30c2c"},"vehicle_type_id":"4","last_reported":1748617853,"current_range_meters":0,"station_id":"ce4bhq12rcd13ifvqhhg","pricing_plan_id":"cebpf4jnsgd1na2vs0mg"},{"bike_id":"3e80678d-b658-4260-baf6-660f8b511aa0","system_id":"levelo_inurba_marseille","lat":43.32366,"lon":5.36756,"is_reserved":false,"is_disabled":true,"rental_uris":{"android":"levelo://app?vid=3e80678d-b658-4260-baf6-660f8b511aa0","ios":"levelo://app?vid=3e80678d-b658-4260-baf6-660f8b511aa0"},"vehicle_type_id":"4","last_reported":1748617853,"current_range_meters":0,"station_id":"ce4bhsh2rcd13ifvqi2g","pricing_plan_id":"cebpf4jnsgd1na2vs0mg"},{"bike_id":"61fd3d58-2ef0-4e8c-bb45-c9e7bc79660b","system_id":"levelo_inurba_marseille","lat":43.231985,"lon":5.355499,"is_reserved":false,"is_disabled":true,"rental_uris":{"android":"levelo://app?vid=61fd3d58-2ef0-4e8c-bb45-c9e7bc79660b","ios":"levelo://app?vid=61fd3d58-2ef0-4e8c-bb45-c9e7bc79660b"},"vehicle_type_id":"4","last_reported":1748617853,"current_range_meters":0,"station_id":"ce4bhu92rcd13ifvqi70","pricing_plan_id":"cebpf4jnsgd1na2vs0mg"},{"bike_id":"0b603e0a-df90-4fa6-b945-fbb8f205a73d","system_id":"levelo_inurba_marseille","lat":43.24167,"lon":5.36411,"is_reserved":false,"is_disabled":true,"rental_uris":{"android":"levelo://app?vid=0b603e0a-df90-4fa6-b945-fbb8f205a73d","ios":"levelo://app?vid=0b603e0a-df90-4fa6-b945-fbb8f205a73d"},"vehicle_type_id":"4","last_reported":1748617853,"current_range_meters":0,"station_id":"cpo36qri1sfpv3e86is0","pricing_plan_id":"cebpf4jnsgd1na2vs0mg"},{"bike_id":"edcb0dfe-bdaa-4cf7-84cb-f40080951379","system_id":"levelo_inurba_marseille","lat":43.2174,"lon":5.34599,"is_reserved":false,"is_disabled":true,"rental_uris":{"android":"levelo://app?vid=edcb0dfe-bdaa-4cf7-84cb-f40080951379","ios":"levelo://app?vid=edcb0dfe-bdaa-4cf7-84cb-f40080951379"},"vehicle_type_id":"4","last_reported":1748617853,"current_range_meters":0,"station_id":"st_cvj6r9ubvosntc0bgbag","pricing_plan_id":"cebpf4jnsgd1na2vs0mg"},{"bike_id":"1948a6af-3158-41e4-8062-73e6f8b165ac","system_id":"levelo_inurba_marseille","lat":43.29588,"lon":5.37529,"is_reserved":false,"is_disabled":true,"rental_uris":{"android":"levelo://app?vid=1948a6af-3158-41e4-8062-73e6f8b165ac","ios":"levelo://app?vid=1948a6af-3158-41e4-8062-73e6f8b165ac"},"vehicle_type_id":"4","last_reported":1748617853,"current_range_meters":400,"station_id":"ce4bgh92rcd13ifvqb50","pricing_plan_id":"cebpf4jnsgd1na2vs0mg"},{"bike_id":"f6840f8a-35f1-4b6d-a3fb-bddb9c6d3ce4","system_id":"levelo_inurba_marseille","lat":43.30194,"lon":5.36609,"is_reserved":false,"is_disabled":true,"rental_uris":{"android":"levelo://app?vid=f6840f8a-35f1-4b6d-a3fb-bddb9c6d3ce4","ios":"levelo://app?vid=f6840f8a-35f1-4b6d-a3fb-bddb9c6d3ce4"},"vehicle_type_id":"4","last_reported":1748617853,"current_range_meters":400,"station_id":"ce4bgrh2rcd13ifvqc8g","pricing_plan_id":"cebpf4jnsgd1na2vs0mg"},{"bike_id":"96e9616f-1032-4eee-977c-119b12974d56","system_id":"levelo_inurba_marseille","lat":43.298859,"lon":5.389128,"is_reserved":false,"is_disabled":false,"rental_uris":{"android":"levelo://app?vid=96e9616f-1032-4eee-977c-119b12974d56","ios":"levelo://app?vid=96e9616f-1032-4eee-977c-119b12974d56"},"vehicle_type_id":"4","last_reported":1748617853,"current_range_meters":400,"station_id":"ce4bh392rcd13ifvqdl0","pricing_plan_id":"cebpf4jnsgd1na2vs0mg"},{"bike_id":"736187d0-31f2-4c67-a0d5-944f61d15f57","system_id":"levelo_inurba_marseille","lat":43.23181,"lon":5.35594,"is_reserved":false,"is_disabled":true,"rental_uris":{"android":"levelo://app?vid=736187d0-31f2-4c67-a0d5-944f61d15f57","ios":"levelo://app?vid=736187d0-31f2-4c67-a0d5-944f61d15f57"},"vehicle_type_id":"4","last_reported":1748617853,"current_range_meters":400,"station_id":"ce4bhu92rcd13ifvqi70","pricing_plan_id":"cebpf4jnsgd1na2vs0mg"},{"bike_id":"97d9bf3e-5537-44fb-ae8f-043cd11395f2","system_id":"levelo_inurba_marseille","lat":43.230573,"lon":5.354906,"is_reserved":false,"is_disabled":true,"rental_uris":{"android":"levelo://app?vid=97d9bf3e-5537-44fb-ae8f-043cd11395f2","ios":"levelo://app?vid=97d9bf3e-5537-44fb-ae8f-043cd11395f2"},"vehicle_type_id":"4","last_reported":1748617853,"current_range_meters":400,"station_id":"cpo3342slgdg3j2ifvpg","pricing_plan_id":"cebpf4jnsgd1na2vs0mg"},{"bike_id":"5119a4fe-ee22-4883-8a59-455bd21b7e58","system_id":"levelo_inurba_marseille","lat":43.29512,"lon":5.39391,"is_reserved":false,"is_disabled":true,"rental_uris":{"android":"levelo://app?vid=5119a4fe-ee22-4883-8a59-455bd21b7e58","ios":"levelo://app?vid=5119a4fe-ee22-4883-8a59-455bd21b7e58"},"vehicle_type_id":"4","last_reported":1748617853,"current_range_meters":800,"station_id":"ce4bh292rcd13ifvqdf0","pricing_plan_id":"cebpf4jnsgd1na2vs0mg"},{"bike_id":"a84664aa-8bc7-4f36-a655-c1c1980bb677","system_id":"levelo_inurba_marseille","lat":43.27378,"lon":5.3626,"is_reserved":false,"is_disabled":true,"rental_uris":{"android":"levelo://app?vid=a84664aa-8bc7-4f36-a655-c1c1980bb677","ios":"levelo://app?vid=a84664aa-8bc7-4f36-a655-c1c1980bb677"},"vehicle_type_id":"4","last_reported":1748617853,"current_range_meters":800,"station_id":"ce4bhbh2rcd13ifvqeo0","pricing_plan_id":"cebpf4jnsgd1na2vs0mg"},{"bike_id":"f95007fb-3e5b-41e7-93f9-8fca69e0d136","system_id":"levelo_inurba_marseille","lat":43.2558,"lon":5.38245,"is_reserved":false,"is_disabled":true,"rental_uris":{"android":"levelo://app?vid=f95007fb-3e5b-41e7-93f9-8fca69e0d136","ios":"levelo://app?vid=f95007fb-3e5b-41e7-93f9-8fca69e0d136"},"vehicle_type_id":"4","last_reported":1748617853,"current_range_meters":800,"station_id":"ce4bhih2rcd13ifvqfs0","pricing_plan_id":"cebpf4jnsgd1na2vs0mg"},{"bike_id":"82000894-18cf-4dfd-bfcf-3b7b0baba697","system_id":"levelo_inurba_marseille","lat":43.25577,"lon":5.38232,"is_reserved":false,"is_disabled":true,"rental_uris":{"android":"levelo://app?vid=82000894-18cf-4dfd-bfcf-3b7b0baba697","ios":"levelo://app?vid=82000894-18cf-4dfd-bfcf-3b7b0baba697"},"vehicle_type_id":"4","last_reported":1748617853,"current_range_meters":800,"station_id":"ce4bhih2rcd13ifvqfs0","pricing_plan_id":"cebpf4jnsgd1na2vs0mg"},{"bike_id":"2104fef3-b801-49f0-bc7e-c95fb5468f5f","system_id":"levelo_inurba_marseille","lat":43.23188,"lon":5.35559,"is_reserved":false,"is_disabled":true,"rental_uris":{"android":"levelo://app?vid=2104fef3-b801-49f0-bc7e-c95fb5468f5f","ios":"levelo://app?vid=2104fef3-b801-49f0-bc7e-c95fb5468f5f"},"vehicle_type_id":"4","last_reported":1748617853,"current_range_meters":800,"station_id":"ce4bhu92rcd13ifvqi70","pricing_plan_id":"cebpf4jnsgd1na2vs0mg"},{"bike_id":"b1277fb2-77ff-4436-9c9e-525e26c80bc7","system_id":"levelo_inurba_marseille","lat":43.24166,"lon":5.36407,"is_reserved":false,"is_disabled":true,"rental_uris":{"android":"levelo://app?vid=b1277fb2-77ff-4436-9c9e-525e26c80bc7","ios":"levelo://app?vid=b1277fb2-77ff-4436-9c9e-525e26c80bc7"},"vehicle_type_id":"4","last_reported":1748617853,"current_range_meters":800,"station_id":"cpo36qri1sfpv3e86is0","pricing_plan_id":"cebpf4jnsgd1na2vs0mg"},{"bike_id":"26b5c2b4-94cd-4dd8-bba5-ec447d478a00","system_id":"levelo_inurba_marseille","lat":43.24158,"lon":5.36406,"is_reserved":false,"is_disabled":true,"rental_uris":{"android":"levelo://app?vid=26b5c2b4-94cd-4dd8-bba5-ec447d478a00","ios":"levelo://app?vid=26b5c2b4-94cd-4dd8-bba5-ec447d478a00"},"vehicle_type_id":"4","last_reported":1748617853,"current_range_meters":800,"station_id":"cpo36qri1sfpv3e86is0","pricing_plan_id":"cebpf4jnsgd1na2vs0mg"},{"bike_id":"b84a479d-d620-49d9-804a-328e787a0c91","system_id":"levelo_inurba_marseille","lat":43.30915,"lon":5.40109,"is_reserved":false,"is_disabled":true,"rental_uris":{"android":"levelo://app?vid=b84a479d-d620-49d9-804a-328e787a0c91","ios":"levelo://app?vid=b84a479d-d620-49d9-804a-328e787a0c91"},"vehicle_type_id":"4","last_reported":1748617853,"current_range_meters":1200,"station_id":"ce4bgvp2rcd13ifvqct0","pricing_plan_id":"cebpf4jnsgd1na2vs0mg"},{"bike_id":"c1117fd7-65f6-4efd-8a4c-c93f54155199","system_id":"levelo_inurba_marseille","lat":43.25498,"lon":5.37648,"is_reserved":false,"is_disabled":true,"rental_uris":{"android":"levelo://app?vid=c1117fd7-65f6-4efd-8a4c-c93f54155199","ios":"levelo://app?vid=c1117fd7-65f6-4efd-8a4c-c93f54155199"},"vehicle_type_id":"4","last_reported":1748617853,"current_range_meters":1200,"station_id":"ce4bhh12rcd13ifvqff0","pricing_plan_id":"cebpf4jnsgd1na2vs0mg"},{"bike_id":"da87276f-c072-4f57-b3f0-2f2e6d09fcb0","system_id":"levelo_inurba_marseille","lat":43.2467,"lon":5.38149,"is_reserved":false,"is_disabled":true,"rental_uris":{"android":"levelo://app?vid=da87276f-c072-4f57-b3f0-2f2e6d09fcb0","ios":"levelo://app?vid=da87276f-c072-4f57-b3f0-2f2e6d09fcb0"},"vehicle_type_id":"4","last_reported":1748617853,"current_range_meters":1200,"station_id":"ce4bhih2rcd13ifvqfr0","pricing_plan_id":"cebpf4jnsgd1na2vs0mg"},{"bike_id":"028b93d7-85a5-4119-8f00-6efb1c34269a","system_id":"levelo_inurba_marseille","lat":43.27955,"lon":5.4107,"is_reserved":false,"is_disabled":true,"rental_uris":{"android":"levelo://app?vid=028b93d7-85a5-4119-8f00-6efb1c34269a","ios":"levelo://app?vid=028b93d7-85a5-4119-8f00-6efb1c34269a"},"vehicle_type_id":"4","last_reported":1748617853,"current_range_meters":1200,"station_id":"ce4bhnp2rcd13ifvqh0g","pricing_plan_id":"cebpf4jnsgd1na2vs0mg"},{"bike_id":"9830096f-3858-4815-ac30-33ea9fffd1e5","system_id":"levelo_inurba_marseille","lat":43.28439,"lon":5.39203,"is_reserved":false,"is_disabled":true,"rental_uris":{"android":"levelo://app?vid=9830096f-3858-4815-ac30-33ea9fffd1e5","ios":"levelo://app?vid=9830096f-3858-4815-ac30-33ea9fffd1e5"},"vehicle_type_id":"4","last_reported":1748617853,"current_range_meters":1200,"station_id":"ce4bhoh2rcd13ifvqh5g","pricing_plan_id":"cebpf4jnsgd1na2vs0mg"},{"bike_id":"e150ba52-4294-4c56-a114-81b72738bd97","system_id":"levelo_inurba_marseille","lat":43.22936,"lon":5.35385,"is_reserved":false,"is_disabled":true,"rental_uris":{"android":"levelo://app?vid=e150ba52-4294-4c56-a114-81b72738bd97","ios":"levelo://app?vid=e150ba52-4294-4c56-a114-81b72738bd97"},"vehicle_type_id":"4","last_reported":1748617853,"current_range_meters":1200,"station_id":"cpo3532slgdg3j2ikp40","pricing_plan_id":"cebpf4jnsgd1na2vs0mg"},{"bike_id":"6c1d7733-ace6-44b2-b328-1bc0f2d1a038","system_id":"levelo_inurba_marseille","lat":43.22936,"lon":5.35384,"is_reserved":false,"is_disabled":true,"rental_uris":{"android":"levelo://app?vid=6c1d7733-ace6-44b2-b328-1bc0f2d1a038","ios":"levelo://app?vid=6c1d7733-ace6-44b2-b328-1bc0f2d1a038"},"vehicle_type_id":"4","last_reported":1748617853,"current_range_meters":1200,"station_id":"cpo3532slgdg3j2ikp40","pricing_plan_id":"cebpf4jnsgd1na2vs0mg"},{"bike_id":"24204c04-5d8c-4ac1-bc38-3e364dee5b7a","system_id":"levelo_inurba_marseille","lat":43.30246,"lon":5.41311,"is_reserved":false,"is_disabled":true,"rental_uris":{"android":"levelo://app?vid=24204c04-5d8c-4ac1-bc38-3e364dee5b7a","ios":"levelo://app?vid=24204c04-5d8c-4ac1-bc38-3e364dee5b7a"},"vehicle_type_id":"4","last_reported":1748617853,"current_range_meters":1600,"station_id":"","pricing_plan_id":"cebpf4jnsgd1na2vs0mg"},{"bike_id":"8bc26a50-2cbe-4f68-b77e-1ea58e7f3a81","system_id":"levelo_inurba_marseille","lat":43.29266,"lon":5.38452,"is_reserved":false,"is_disabled":true,"rental_uris":{"android":"levelo://app?vid=8bc26a50-2cbe-4f68-b77e-1ea58e7f3a81","ios":"levelo://app?vid=8bc26a50-2cbe-4f68-b77e-1ea58e7f3a81"},"vehicle_type_id":"4","last_reported":1748617853,"current_range_meters":1600,"station_id":"ce4bh692rcd13ifvqea0","pricing_plan_id":"cebpf4jnsgd1na2vs0mg"},{"bike_id":"d5e08583-116d-4b39-9084-710d026779c3","system_id":"levelo_inurba_marseille","lat":43.2657,"lon":5.39018,"is_reserved":false,"is_disabled":true,"rental_uris":{"android":"levelo://app?vid=d5e08583-116d-4b39-9084-710d026779c3","ios":"levelo://app?vid=d5e08583-116d-4b39-9084-710d026779c3"},"vehicle_type_id":"4","last_reported":1748617853,"current_range_meters":1600,"station_id":"ce4bhe12rcd13ifvqf30","pricing_plan_id":"cebpf4jnsgd1na2vs0mg"},{"bike_id":"77e04ab8-b44f-40dc-908e-e5838eb58075","system_id":"levelo_inurba_marseille","lat":43.23548,"lon":5.3605,"is_reserved":false,"is_disabled":true,"rental_uris":{"android":"levelo://app?vid=77e04ab8-b44f-40dc-908e-e5838eb58075","ios":"levelo://app?vid=77e04ab8-b44f-40dc-908e-e5838eb58075"},"vehicle_type_id":"4","last_reported":1748617853,"current_range_meters":2000,"station_id":"","pricing_plan_id":"cebpf4jnsgd1na2vs0mg"},{"bike_id":"8a825a00-c4cf-4e72-b673-d5afd5837b82","system_id":"levelo_inurba_marseille","lat":43.28937,"lon":5.39631,"is_reserved":false,"is_disabled":true,"rental_uris":{"android":"levelo://app?vid=8a825a00-c4cf-4e72-b673-d5afd5837b82","ios":"levelo://app?vid=8a825a00-c4cf-4e72-b673-d5afd5837b82"},"vehicle_type_id":"4","last_reported":1748617853,"current_range_meters":2000,"station_id":"ce4bh3h2rcd13ifvqdn0","pricing_plan_id":"cebpf4jnsgd1na2vs0mg"},{"bike_id":"0edf2f52-3178-4de1-b145-74cbdd12ca5e","system_id":"levelo_inurba_marseille","lat":43.28939,"lon":5.36643,"is_reserved":false,"is_disabled":false,"rental_uris":{"android":"levelo://app?vid=0edf2f52-3178-4de1-b145-74cbdd12ca5e","ios":"levelo://app?vid=0edf2f52-3178-4de1-b145-74cbdd12ca5e"},"vehicle_type_id":"4","last_reported":1748617853,"current_range_meters":2000,"station_id":"ce4bhap2rcd13ifvqek0","pricing_plan_id":"cebpf4jnsgd1na2vs0mg"},{"bike_id":"743f8712-b137-4026-ab31-f01ac368e585","system_id":"levelo_inurba_marseille","lat":43.28941,"lon":5.3664,"is_reserved":false,"is_disabled":true,"rental_uris":{"android":"levelo://app?vid=743f8712-b137-4026-ab31-f01ac368e585","ios":"levelo://app?vid=743f8712-b137-4026-ab31-f01ac368e585"},"vehicle_type_id":"4","last_reported":1748617853,"current_range_meters":2000,"station_id":"ce4bhap2rcd13ifvqek0","pricing_plan_id":"cebpf4jnsgd1na2vs0mg"},{"bike_id":"55ad261b-e958-47a8-9ff8-f398cf3ea717","system_id":"levelo_inurba_marseille","lat":43.28412,"lon":5.34994,"is_reserved":false,"is_disabled":true,"rental_uris":{"android":"levelo://app?vid=55ad261b-e958-47a8-9ff8-f398cf3ea717","ios":"levelo://app?vid=55ad261b-e958-47a8-9ff8-f398cf3ea717"},"vehicle_type_id":"4","last_reported":1748617853,"current_range_meters":2000,"station_id":"ce4bhbh2rcd13ifvqepg","pricing_plan_id":"cebpf4jnsgd1na2vs0mg"},{"bike_id":"e2b66f84-ad23-4660-9609-988ea3ff3465","system_id":"levelo_inurba_marseille","lat":43.26191,"lon":5.37447,"is_reserved":false,"is_disabled":true,"rental_uris":{"android":"levelo://app?vid=e2b66f84-ad23-4660-9609-988ea3ff3465","ios":"levelo://app?vid=e2b66f84-ad23-4660-9609-988ea3ff3465"},"vehicle_type_id":"4","last_reported":1748617853,"current_range_meters":2000,"station_id":"ce4bhgp2rcd13ifvqfc0","pricing_plan_id":"cebpf4jnsgd1na2vs0mg"},{"bike_id":"b805f33e-c052-43fc-880c-8a2824a67324","system_id":"levelo_inurba_marseille","lat":43.27205,"lon":5.39179,"is_reserved":false,"is_disabled":false,"rental_uris":{"android":"levelo://app?vid=b805f33e-c052-43fc-880c-8a2824a67324","ios":"levelo://app?vid=b805f33e-c052-43fc-880c-8a2824a67324"},"vehicle_type_id":"4","last_reported":1748617853,"current_range_meters":2000,"station_id":"ce4bhhp2rcd13ifvqfm0","pricing_plan_id":"cebpf4jnsgd1na2vs0mg"},{"bike_id":"95d69e3f-be53-419a-8a41-496f1c51e368","system_id":"levelo_inurba_marseille","lat":43.29782,"lon":5.3934,"is_reserved":false,"is_disabled":true,"rental_uris":{"android":"levelo://app?vid=95d69e3f-be53-419a-8a41-496f1c51e368","ios":"levelo://app?vid=95d69e3f-be53-419a-8a41-496f1c51e368"},"vehicle_type_id":"4","last_reported":1748617853,"current_range_meters":2000,"station_id":"chh1huq6cuj3fo74tm60","pricing_plan_id":"cebpf4jnsgd1na2vs0mg"},{"bike_id":"5278b434-6c84-40e9-b526-dac962bdf780","system_id":"levelo_inurba_marseille","lat":43.23483,"lon":5.36029,"is_reserved":false,"is_disabled":false,"rental_uris":{"android":"levelo://app?vid=5278b434-6c84-40e9-b526-dac962bdf780","ios":"levelo://app?vid=5278b434-6c84-40e9-b526-dac962bdf780"},"vehicle_type_id":"4","last_reported":1748617853,"current_range_meters":2800,"station_id":"","pricing_plan_id":"cebpf4jnsgd1na2vs0mg"},{"bike_id":"e0598fdc-6ee8-4c17-aa6f-90ac3a09b3df","system_id":"levelo_inurba_marseille","lat":43.29019,"lon":5.36909,"is_reserved":false,"is_disabled":false,"rental_uris":{"android":"levelo://app?vid=e0598fdc-6ee8-4c17-aa6f-90ac3a09b3df","ios":"levelo://app?vid=e0598fdc-6ee8-4c17-aa6f-90ac3a09b3df"},"vehicle_type_id":"4","last_reported":1748617853,"current_range_meters":2800,"station_id":"","pricing_plan_id":"cebpf4jnsgd1na2vs0mg"},{"bike_id":"b992f283-c966-4026-a26d-99417670f146","system_id":"levelo_inurba_marseille","lat":43.29364,"lon":5.37837,"is_reserved":false,"is_disabled":false,"rental_uris":{"android":"levelo://app?vid=b992f283-c966-4026-a26d-99417670f146","ios":"levelo://app?vid=b992f283-c966-4026-a26d-99417670f146"},"vehicle_type_id":"4","last_reported":1748617853,"current_range_meters":2800,"station_id":"ce4bgjh2rcd13ifvqbf0","pricing_plan_id":"cebpf4jnsgd1na2vs0mg"},{"bike_id":"975714ef-e474-4814-a2b1-5399953b88ec","system_id":"levelo_inurba_marseille","lat":43.30425,"lon":5.39734,"is_reserved":false,"is_disabled":false,"rental_uris":{"android":"levelo://app?vid=975714ef-e474-4814-a2b1-5399953b88ec","ios":"levelo://app?vid=975714ef-e474-4814-a2b1-5399953b88ec"},"vehicle_type_id":"4","last_reported":1748617853,"current_range_meters":2800,"station_id":"ce4bh092rcd13ifvqd20","pricing_plan_id":"cebpf4jnsgd1na2vs0mg"},{"bike_id":"dd472e4e-64cc-485d-b74c-860125c3c7e6","system_id":"levelo_inurba_marseille","lat":43.30591,"lon":5.39356,"is_reserved":false,"is_disabled":false,"rental_uris":{"android":"levelo://app?vid=dd472e4e-64cc-485d-b74c-860125c3c7e6","ios":"levelo://app?vid=dd472e4e-64cc-485d-b74c-860125c3c7e6"},"vehicle_type_id":"4","last_reported":1748617853,"current_range_meters":2800,"station_id":"ce4bh0p2rcd13ifvqd80","pricing_plan_id":"cebpf4jnsgd1na2vs0mg"},{"bike_id":"8e9d5c4a-f982-4e80-a72a-a8a5f93b2ac5","system_id":"levelo_inurba_marseille","lat":43.28483,"lon":5.38561,"is_reserved":false,"is_disabled":false,"rental_uris":{"android":"levelo://app?vid=8e9d5c4a-f982-4e80-a72a-a8a5f93b2ac5","ios":"levelo://app?vid=8e9d5c4a-f982-4e80-a72a-a8a5f93b2ac5"},"vehicle_type_id":"4","last_reported":1748617853,"current_range_meters":2800,"station_id":"ce4bh8p2rcd13ifvqeb0","pricing_plan_id":"cebpf4jnsgd1na2vs0mg"},{"bike_id":"00c41287-535e-44b9-8cd1-3138d2c731e9","system_id":"levelo_inurba_marseille","lat":43.2655,"lon":5.37287,"is_reserved":false,"is_disabled":false,"rental_uris":{"android":"levelo://app?vid=00c41287-535e-44b9-8cd1-3138d2c731e9","ios":"levelo://app?vid=00c41287-535e-44b9-8cd1-3138d2c731e9"},"vehicle_type_id":"4","last_reported":1748617853,"current_range_meters":2800,"station_id":"ce4bhg12rcd13ifvqf70","pricing_plan_id":"cebpf4jnsgd1na2vs0mg"},{"bike_id":"c583cc07-6878-478c-93ba-ee04d045cb45","system_id":"levelo_inurba_marseille","lat":43.26209,"lon":5.37925,"is_reserved":false,"is_disabled":false,"rental_uris":{"android":"levelo://app?vid=c583cc07-6878-478c-93ba-ee04d045cb45","ios":"levelo://app?vid=c583cc07-6878-478c-93ba-ee04d045cb45"},"vehicle_type_id":"4","last_reported":1748617853,"current_range_meters":2800,"station_id":"ce4bhjp2rcd13ifvqg90","pricing_plan_id":"cebpf4jnsgd1na2vs0mg"},{"bike_id":"2ed65491-297b-4ce4-a893-145f93e305a6","system_id":"levelo_inurba_marseille","lat":43.25862,"lon":5.39911,"is_reserved":false,"is_disabled":false,"rental_uris":{"android":"levelo://app?vid=2ed65491-297b-4ce4-a893-145f93e305a6","ios":"levelo://app?vid=2ed65491-297b-4ce4-a893-145f93e305a6"},"vehicle_type_id":"4","last_reported":1748617853,"current_range_meters":2800,"station_id":"ce4bhl92rcd13ifvqghg","pricing_plan_id":"cebpf4jnsgd1na2vs0mg"},{"bike_id":"eb054200-8990-4bd8-b4cd-540700ecb834","system_id":"levelo_inurba_marseille","lat":43.29266,"lon":5.38431,"is_reserved":false,"is_disabled":false,"rental_uris":{"android":"levelo://app?vid=eb054200-8990-4bd8-b4cd-540700ecb834","ios":"levelo://app?vid=eb054200-8990-4bd8-b4cd-540700ecb834"},"vehicle_type_id":"4","last_reported":1748617853,"current_range_meters":3200,"station_id":"","pricing_plan_id":"cebpf4jnsgd1na2vs0mg"},{"bike_id":"2f650bb1-6027-4191-83d2-16315820a0a7","system_id":"levelo_inurba_marseille","lat":43.29988,"lon":5.37367,"is_reserved":false,"is_disabled":false,"rental_uris":{"android":"levelo://app?vid=2f650bb1-6027-4191-83d2-16315820a0a7","ios":"levelo://app?vid=2f650bb1-6027-4191-83d2-16315820a0a7"},"vehicle_type_id":"4","last_reported":1748617853,"current_range_meters":3200,"station_id":"","pricing_plan_id":"cebpf4jnsgd1na2vs0mg"},{"bike_id":"97a2f6ac-9302-482e-895d-ddde70acae13","system_id":"levelo_inurba_marseille","lat":43.25862,"lon":5.399,"is_reserved":false,"is_disabled":false,"rental_uris":{"android":"levelo://app?vid=97a2f6ac-9302-482e-895d-ddde70acae13","ios":"levelo://app?vid=97a2f6ac-9302-482e-895d-ddde70acae13"},"vehicle_type_id":"4","last_reported":1748617853,"current_range_meters":3200,"station_id":"ce4bhl92rcd13ifvqghg","pricing_plan_id":"cebpf4jnsgd1na2vs0mg"},{"bike_id":"c254bbe3-2dba-4a9f-9336-418969b865d2","system_id":"levelo_inurba_marseille","lat":43.29048,"lon":5.35918,"is_reserved":false,"is_disabled":false,"rental_uris":{"android":"levelo://app?vid=c254bbe3-2dba-4a9f-9336-418969b865d2","ios":"levelo://app?vid=c254bbe3-2dba-4a9f-9336-418969b865d2"},"vehicle_type_id":"4","last_reported":1748617853,"current_range_meters":3600,"station_id":"ce4bha92rcd13ifvqeg0","pricing_plan_id":"cebpf4jnsgd1na2vs0mg"},{"bike_id":"5a494490-461a-4ad3-988e-e6a60b1620f9","system_id":"levelo_inurba_marseille","lat":43.28267,"lon":5.35059,"is_reserved":false,"is_disabled":false,"rental_uris":{"android":"levelo://app?vid=5a494490-461a-4ad3-988e-e6a60b1620f9","ios":"levelo://app?vid=5a494490-461a-4ad3-988e-e6a60b1620f9"},"vehicle_type_id":"4","last_reported":1748617853,"current_range_meters":3600,"station_id":"ce4bhbp2rcd13ifvqerg","pricing_plan_id":"cebpf4jnsgd1na2vs0mg"},{"bike_id":"cd50d113-9ba4-4fb0-8625-9806a37f638a","system_id":"levelo_inurba_marseille","lat":43.26571,"lon":5.39016,"is_reserved":false,"is_disabled":false,"rental_uris":{"android":"levelo://app?vid=cd50d113-9ba4-4fb0-8625-9806a37f638a","ios":"levelo://app?vid=cd50d113-9ba4-4fb0-8625-9806a37f638a"},"vehicle_type_id":"4","last_reported":1748617853,"current_range_meters":3600,"station_id":"ce4bhe12rcd13ifvqf30","pricing_plan_id":"cebpf4jnsgd1na2vs0mg"},{"bike_id":"df75dfa5-4789-4c41-adc0-5638f8028d33","system_id":"levelo_inurba_marseille","lat":43.23965,"lon":5.36644,"is_reserved":false,"is_disabled":false,"rental_uris":{"android":"levelo://app?vid=df75dfa5-4789-4c41-adc0-5638f8028d33","ios":"levelo://app?vid=df75dfa5-4789-4c41-adc0-5638f8028d33"},"vehicle_type_id":"4","last_reported":1748617853,"current_range_meters":3600,"station_id":"ce4bhi12rcd13ifvqfp0","pricing_plan_id":"cebpf4jnsgd1na2vs0mg"},{"bike_id":"6670d99f-b498-4239-a8cf-ee0816b6781b","system_id":"levelo_inurba_marseille","lat":43.29712,"lon":5.37699,"is_reserved":false,"is_disabled":false,"rental_uris":{"android":"levelo://app?vid=6670d99f-b498-4239-a8cf-ee0816b6781b","ios":"levelo://app?vid=6670d99f-b498-4239-a8cf-ee0816b6781b"},"vehicle_type_id":"4","last_reported":1748617853,"current_range_meters":4000,"station_id":"ce4bgkh2rcd13ifvqbl0","pricing_plan_id":"cebpf4jnsgd1na2vs0mg"},{"bike_id":"7d8528fe-4f52-49f3-8c46-fae072d25b67","system_id":"levelo_inurba_marseille","lat":43.280768,"lon":5.378277,"is_reserved":false,"is_disabled":false,"rental_uris":{"android":"levelo://app?vid=7d8528fe-4f52-49f3-8c46-fae072d25b67","ios":"levelo://app?vid=7d8528fe-4f52-49f3-8c46-fae072d25b67"},"vehicle_type_id":"4","last_reported":1748617853,"current_range_meters":4000,"station_id":"ce4bha12rcd13ifvqee0","pricing_plan_id":"cebpf4jnsgd1na2vs0mg"},{"bike_id":"bc71ebce-519c-4553-86e7-26510c5a61f3","system_id":"levelo_inurba_marseille","lat":43.28935,"lon":5.36639,"is_reserved":false,"is_disabled":false,"rental_uris":{"android":"levelo://app?vid=bc71ebce-519c-4553-86e7-26510c5a61f3","ios":"levelo://app?vid=bc71ebce-519c-4553-86e7-26510c5a61f3"},"vehicle_type_id":"4","last_reported":1748617853,"current_range_meters":4000,"station_id":"ce4bhap2rcd13ifvqek0","pricing_plan_id":"cebpf4jnsgd1na2vs0mg"},{"bike_id":"8376d006-ae01-4816-825d-1bd70f6fa56c","system_id":"levelo_inurba_marseille","lat":43.28938,"lon":5.36639,"is_reserved":false,"is_disabled":false,"rental_uris":{"android":"levelo://app?vid=8376d006-ae01-4816-825d-1bd70f6fa56c","ios":"levelo://app?vid=8376d006-ae01-4816-825d-1bd70f6fa56c"},"vehicle_type_id":"4","last_reported":1748617853,"current_range_meters":4000,"station_id":"ce4bhap2rcd13ifvqek0","pricing_plan_id":"cebpf4jnsgd1na2vs0mg"},{"bike_id":"da4e85f2-114b-49b3-81f9-a2221ab823d6","system_id":"levelo_inurba_marseille","lat":43.27389,"lon":5.36257,"is_reserved":false,"is_disabled":false,"rental_uris":{"android":"levelo://app?vid=da4e85f2-114b-49b3-81f9-a2221ab823d6","ios":"levelo://app?vid=da4e85f2-114b-49b3-81f9-a2221ab823d6"},"vehicle_type_id":"4","last_reported":1748617853,"current_range_meters":4000,"station_id":"ce4bhbh2rcd13ifvqeo0","pricing_plan_id":"cebpf4jnsgd1na2vs0mg"},{"bike_id":"b27fc6eb-f1d0-486e-89ac-e8eace7eaf9b","system_id":"levelo_inurba_marseille","lat":43.27171,"lon":5.4099,"is_reserved":false,"is_disabled":false,"rental_uris":{"android":"levelo://app?vid=b27fc6eb-f1d0-486e-89ac-e8eace7eaf9b","ios":"levelo://app?vid=b27fc6eb-f1d0-486e-89ac-e8eace7eaf9b"},"vehicle_type_id":"4","last_reported":1748617853,"current_range_meters":4000,"station_id":"ce4bhl12rcd13ifvqgf0","pricing_plan_id":"cebpf4jnsgd1na2vs0mg"},{"bike_id":"3609d0c6-aed0-4fef-8e1a-44dc9e1c0035","system_id":"levelo_inurba_marseille","lat":43.27812,"lon":5.40708,"is_reserved":false,"is_disabled":false,"rental_uris":{"android":"levelo://app?vid=3609d0c6-aed0-4fef-8e1a-44dc9e1c0035","ios":"levelo://app?vid=3609d0c6-aed0-4fef-8e1a-44dc9e1c0035"},"vehicle_type_id":"4","last_reported":1748617853,"current_range_meters":4000,"station_id":"ce4bhnh2rcd13ifvqgtg","pricing_plan_id":"cebpf4jnsgd1na2vs0mg"},{"bike_id":"eb3ac2d8-1d63-40bc-80ec-4184cb3dbff7","system_id":"levelo_inurba_marseille","lat":43.231957,"lon":5.355548,"is_reserved":false,"is_disabled":false,"rental_uris":{"android":"levelo://app?vid=eb3ac2d8-1d63-40bc-80ec-4184cb3dbff7","ios":"levelo://app?vid=eb3ac2d8-1d63-40bc-80ec-4184cb3dbff7"},"vehicle_type_id":"4","last_reported":1748617853,"current_range_meters":4000,"station_id":"ce4bhu92rcd13ifvqi70","pricing_plan_id":"cebpf4jnsgd1na2vs0mg"},{"bike_id":"7c6e48ab-b87e-4e89-9339-a1a2992e6797","system_id":"levelo_inurba_marseille","lat":43.26107,"lon":5.41465,"is_reserved":false,"is_disabled":false,"rental_uris":{"android":"levelo://app?vid=7c6e48ab-b87e-4e89-9339-a1a2992e6797","ios":"levelo://app?vid=7c6e48ab-b87e-4e89-9339-a1a2992e6797"},"vehicle_type_id":"4","last_reported":1748617853,"current_range_meters":4400,"station_id":"","pricing_plan_id":"cebpf4jnsgd1na2vs0mg"},{"bike_id":"ebf82dcf-7a53-414a-ab7a-d9860c9dbfff","system_id":"levelo_inurba_marseille","lat":43.29889,"lon":5.38897,"is_reserved":false,"is_disabled":false,"rental_uris":{"android":"levelo://app?vid=ebf82dcf-7a53-414a-ab7a-d9860c9dbfff","ios":"levelo://app?vid=ebf82dcf-7a53-414a-ab7a-d9860c9dbfff"},"vehicle_type_id":"4","last_reported":1748617853,"current_range_meters":4400,"station_id":"ce4bh392rcd13ifvqdl0","pricing_plan_id":"cebpf4jnsgd1na2vs0mg"},{"bike_id":"9c577ffd-c617-42a2-81e0-c523deb63b21","system_id":"levelo_inurba_marseille","lat":43.248068,"lon":5.374545,"is_reserved":false,"is_disabled":false,"rental_uris":{"android":"levelo://app?vid=9c577ffd-c617-42a2-81e0-c523deb63b21","ios":"levelo://app?vid=9c577ffd-c617-42a2-81e0-c523deb63b21"},"vehicle_type_id":"4","last_reported":1748617853,"current_range_meters":4400,"station_id":"ce4bhgh2rcd13ifvqfb0","pricing_plan_id":"cebpf4jnsgd1na2vs0mg"},{"bike_id":"711179a2-69fd-4a88-8355-b5ecd33cea13","system_id":"levelo_inurba_marseille","lat":43.23193,"lon":5.35557,"is_reserved":false,"is_disabled":false,"rental_uris":{"android":"levelo://app?vid=711179a2-69fd-4a88-8355-b5ecd33cea13","ios":"levelo://app?vid=711179a2-69fd-4a88-8355-b5ecd33cea13"},"vehicle_type_id":"4","last_reported":1748617853,"current_range_meters":4400,"station_id":"ce4bhu92rcd13ifvqi70","pricing_plan_id":"cebpf4jnsgd1na2vs0mg"},{"bike_id":"93222ebe-437b-49ba-b05e-139fa3159770","system_id":"levelo_inurba_marseille","lat":43.22887,"lon":5.35341,"is_reserved":false,"is_disabled":false,"rental_uris":{"android":"levelo://app?vid=93222ebe-437b-49ba-b05e-139fa3159770","ios":"levelo://app?vid=93222ebe-437b-49ba-b05e-139fa3159770"},"vehicle_type_id":"4","last_reported":1748617853,"current_range_meters":4800,"station_id":"","pricing_plan_id":"cebpf4jnsgd1na2vs0mg"},{"bike_id":"697d924a-ea53-411b-88e3-ed7542c4178d","system_id":"levelo_inurba_marseille","lat":43.22487,"lon":5.34776,"is_reserved":false,"is_disabled":false,"rental_uris":{"android":"levelo://app?vid=697d924a-ea53-411b-88e3-ed7542c4178d","ios":"levelo://app?vid=697d924a-ea53-411b-88e3-ed7542c4178d"},"vehicle_type_id":"4","last_reported":1748617853,"current_range_meters":4800,"station_id":"st_cvj5dfep6f1abm77gieg","pricing_plan_id":"cebpf4jnsgd1na2vs0mg"},{"bike_id":"f643d6ce-9596-419e-b71d-198dba66fb04","system_id":"levelo_inurba_marseille","lat":43.27441,"lon":5.36219,"is_reserved":false,"is_disabled":false,"rental_uris":{"android":"levelo://app?vid=f643d6ce-9596-419e-b71d-198dba66fb04","ios":"levelo://app?vid=f643d6ce-9596-419e-b71d-198dba66fb04"},"vehicle_type_id":"4","last_reported":1748617853,"current_range_meters":5600,"station_id":"","pricing_plan_id":"cebpf4jnsgd1na2vs0mg"},{"bike_id":"eb6f7b70-b554-4f0b-9071-c468db80e368","system_id":"levelo_inurba_marseille","lat":43.23984,"lon":5.363,"is_reserved":false,"is_disabled":false,"rental_uris":{"android":"levelo://app?vid=eb6f7b70-b554-4f0b-9071-c468db80e368","ios":"levelo://app?vid=eb6f7b70-b554-4f0b-9071-c468db80e368"},"vehicle_type_id":"4","last_reported":1748617853,"current_range_meters":5600,"station_id":"","pricing_plan_id":"cebpf4jnsgd1na2vs0mg"},{"bike_id":"937f5b9c-5a8a-4845-b3a8-ae6604a12b7d","system_id":"levelo_inurba_marseille","lat":43.2885,"lon":5.35858,"is_reserved":false,"is_disabled":false,"rental_uris":{"android":"levelo://app?vid=937f5b9c-5a8a-4845-b3a8-ae6604a12b7d","ios":"levelo://app?vid=937f5b9c-5a8a-4845-b3a8-ae6604a12b7d"},"vehicle_type_id":"4","last_reported":1748617853,"current_range_meters":5600,"station_id":"ce4bhb12rcd13ifvqem0","pricing_plan_id":"cebpf4jnsgd1na2vs0mg"},{"bike_id":"3dd70c98-8d81-4397-8fd3-cb3222568563","system_id":"levelo_inurba_marseille","lat":43.26567,"lon":5.39008,"is_reserved":false,"is_disabled":false,"rental_uris":{"android":"levelo://app?vid=3dd70c98-8d81-4397-8fd3-cb3222568563","ios":"levelo://app?vid=3dd70c98-8d81-4397-8fd3-cb3222568563"},"vehicle_type_id":"4","last_reported":1748617853,"current_range_meters":5600,"station_id":"ce4bhe12rcd13ifvqf30","pricing_plan_id":"cebpf4jnsgd1na2vs0mg"},{"bike_id":"3c8a5c1e-a25f-4975-8d3e-585e822506f1","system_id":"levelo_inurba_marseille","lat":43.24808,"lon":5.37442,"is_reserved":false,"is_disabled":false,"rental_uris":{"android":"levelo://app?vid=3c8a5c1e-a25f-4975-8d3e-585e822506f1","ios":"levelo://app?vid=3c8a5c1e-a25f-4975-8d3e-585e822506f1"},"vehicle_type_id":"4","last_reported":1748617853,"current_range_meters":5600,"station_id":"ce4bhgh2rcd13ifvqfb0","pricing_plan_id":"cebpf4jnsgd1na2vs0mg"},{"bike_id":"8ba67100-d1ca-4257-b107-1e338567a7bc","system_id":"levelo_inurba_marseille","lat":43.27204,"lon":5.3919,"is_reserved":false,"is_disabled":false,"rental_uris":{"android":"levelo://app?vid=8ba67100-d1ca-4257-b107-1e338567a7bc","ios":"levelo://app?vid=8ba67100-d1ca-4257-b107-1e338567a7bc"},"vehicle_type_id":"4","last_reported":1748617853,"current_range_meters":5600,"station_id":"ce4bhhp2rcd13ifvqfm0","pricing_plan_id":"cebpf4jnsgd1na2vs0mg"},{"bike_id":"a611a051-d818-4f97-95a0-b52062348b44","system_id":"levelo_inurba_marseille","lat":43.25119,"lon":5.40321,"is_reserved":false,"is_disabled":false,"rental_uris":{"android":"levelo://app?vid=a611a051-d818-4f97-95a0-b52062348b44","ios":"levelo://app?vid=a611a051-d818-4f97-95a0-b52062348b44"},"vehicle_type_id":"4","last_reported":1748617853,"current_range_meters":5600,"station_id":"ce4bhlh2rcd13ifvqgig","pricing_plan_id":"cebpf4jnsgd1na2vs0mg"},{"bike_id":"34070ccb-d4bd-49ce-b38b-3218e207f1fc","system_id":"levelo_inurba_marseille","lat":43.259085,"lon":5.376005,"is_reserved":false,"is_disabled":false,"rental_uris":{"android":"levelo://app?vid=34070ccb-d4bd-49ce-b38b-3218e207f1fc","ios":"levelo://app?vid=34070ccb-d4bd-49ce-b38b-3218e207f1fc"},"vehicle_type_id":"4","last_reported":1748617853,"current_range_meters":5600,"station_id":"ce4bhr12rcd13ifvqhqg","pricing_plan_id":"cebpf4jnsgd1na2vs0mg"},{"bike_id":"4b58ad7e-8c60-4b92-b983-c7922c4494fd","system_id":"levelo_inurba_marseille","lat":43.29798,"lon":5.381,"is_reserved":false,"is_disabled":false,"rental_uris":{"android":"levelo://app?vid=4b58ad7e-8c60-4b92-b983-c7922c4494fd","ios":"levelo://app?vid=4b58ad7e-8c60-4b92-b983-c7922c4494fd"},"vehicle_type_id":"4","last_reported":1748617853,"current_range_meters":6000,"station_id":"ce4bgip2rcd13ifvqbb0","pricing_plan_id":"cebpf4jnsgd1na2vs0mg"},{"bike_id":"cb88469c-8067-43f3-83f6-c881895e7713","system_id":"levelo_inurba_marseille","lat":43.239537,"lon":5.3665,"is_reserved":false,"is_disabled":false,"rental_uris":{"android":"levelo://app?vid=cb88469c-8067-43f3-83f6-c881895e7713","ios":"levelo://app?vid=cb88469c-8067-43f3-83f6-c881895e7713"},"vehicle_type_id":"4","last_reported":1748617853,"current_range_meters":6000,"station_id":"ce4bhi12rcd13ifvqfp0","pricing_plan_id":"cebpf4jnsgd1na2vs0mg"},{"bike_id":"732dce05-fe69-4b32-a6ac-ddf4d8a21eed","system_id":"levelo_inurba_marseille","lat":43.27048,"lon":5.40263,"is_reserved":false,"is_disabled":false,"rental_uris":{"android":"levelo://app?vid=732dce05-fe69-4b32-a6ac-ddf4d8a21eed","ios":"levelo://app?vid=732dce05-fe69-4b32-a6ac-ddf4d8a21eed"},"vehicle_type_id":"4","last_reported":1748617853,"current_range_meters":6000,"station_id":"ce4bhk92rcd13ifvqgc0","pricing_plan_id":"cebpf4jnsgd1na2vs0mg"},{"bike_id":"299bc464-0062-40b9-b8fd-94e53cb49a69","system_id":"levelo_inurba_marseille","lat":43.29641,"lon":5.36229,"is_reserved":false,"is_disabled":false,"rental_uris":{"android":"levelo://app?vid=299bc464-0062-40b9-b8fd-94e53cb49a69","ios":"levelo://app?vid=299bc464-0062-40b9-b8fd-94e53cb49a69"},"vehicle_type_id":"4","last_reported":1748617853,"current_range_meters":6400,"station_id":"","pricing_plan_id":"cebpf4jnsgd1na2vs0mg"},{"bike_id":"21c9fe04-bb26-496d-b3e2-0471b6751965","system_id":"levelo_inurba_marseille","lat":43.27908,"lon":5.38023,"is_reserved":false,"is_disabled":false,"rental_uris":{"android":"levelo://app?vid=21c9fe04-bb26-496d-b3e2-0471b6751965","ios":"levelo://app?vid=21c9fe04-bb26-496d-b3e2-0471b6751965"},"vehicle_type_id":"4","last_reported":1748617853,"current_range_meters":6400,"station_id":"ce4bhf92rcd13ifvqf50","pricing_plan_id":"cebpf4jnsgd1na2vs0mg"},{"bike_id":"9bdd43f0-b66c-4844-a0d8-7cc8bdf5038b","system_id":"levelo_inurba_marseille","lat":43.29527,"lon":5.39041,"is_reserved":false,"is_disabled":false,"rental_uris":{"android":"levelo://app?vid=9bdd43f0-b66c-4844-a0d8-7cc8bdf5038b","ios":"levelo://app?vid=9bdd43f0-b66c-4844-a0d8-7cc8bdf5038b"},"vehicle_type_id":"4","last_reported":1748617853,"current_range_meters":6800,"station_id":"ce4bh3p2rcd13ifvqdp0","pricing_plan_id":"cebpf4jnsgd1na2vs0mg"},{"bike_id":"5116f85d-3376-4256-aeec-0bb71aff7725","system_id":"levelo_inurba_marseille","lat":43.28271,"lon":5.35076,"is_reserved":false,"is_disabled":false,"rental_uris":{"android":"levelo://app?vid=5116f85d-3376-4256-aeec-0bb71aff7725","ios":"levelo://app?vid=5116f85d-3376-4256-aeec-0bb71aff7725"},"vehicle_type_id":"4","last_reported":1748617853,"current_range_meters":6800,"station_id":"ce4bhbp2rcd13ifvqerg","pricing_plan_id":"cebpf4jnsgd1na2vs0mg"},{"bike_id":"abfe4519-e2a3-4aea-a6a9-016dba2ff093","system_id":"levelo_inurba_marseille","lat":43.265526,"lon":5.372848,"is_reserved":false,"is_disabled":false,"rental_uris":{"android":"levelo://app?vid=abfe4519-e2a3-4aea-a6a9-016dba2ff093","ios":"levelo://app?vid=abfe4519-e2a3-4aea-a6a9-016dba2ff093"},"vehicle_type_id":"4","last_reported":1748617853,"current_range_meters":6800,"station_id":"ce4bhg12rcd13ifvqf70","pricing_plan_id":"cebpf4jnsgd1na2vs0mg"},{"bike_id":"ab7c2e73-ab09-4031-90f3-c1c7f5793715","system_id":"levelo_inurba_marseille","lat":43.27173,"lon":5.41,"is_reserved":false,"is_disabled":false,"rental_uris":{"android":"levelo://app?vid=ab7c2e73-ab09-4031-90f3-c1c7f5793715","ios":"levelo://app?vid=ab7c2e73-ab09-4031-90f3-c1c7f5793715"},"vehicle_type_id":"4","last_reported":1748617853,"current_range_meters":6800,"station_id":"ce4bhl12rcd13ifvqgf0","pricing_plan_id":"cebpf4jnsgd1na2vs0mg"},{"bike_id":"fda844f5-d600-4be6-9201-9d299e18c631","system_id":"levelo_inurba_marseille","lat":43.25117,"lon":5.40326,"is_reserved":false,"is_disabled":false,"rental_uris":{"android":"levelo://app?vid=fda844f5-d600-4be6-9201-9d299e18c631","ios":"levelo://app?vid=fda844f5-d600-4be6-9201-9d299e18c631"},"vehicle_type_id":"4","last_reported":1748617853,"current_range_meters":6800,"station_id":"ce4bhlh2rcd13ifvqgig","pricing_plan_id":"cebpf4jnsgd1na2vs0mg"},{"bike_id":"7861066c-43f9-4bf7-a8eb-56ff1b1b8a7f","system_id":"levelo_inurba_marseille","lat":43.28699,"lon":5.39979,"is_reserved":false,"is_disabled":false,"rental_uris":{"android":"levelo://app?vid=7861066c-43f9-4bf7-a8eb-56ff1b1b8a7f","ios":"levelo://app?vid=7861066c-43f9-4bf7-a8eb-56ff1b1b8a7f"},"vehicle_type_id":"4","last_reported":1748617853,"current_range_meters":6800,"station_id":"ce4bho92rcd13ifvqh3g","pricing_plan_id":"cebpf4jnsgd1na2vs0mg"},{"bike_id":"42dca157-bdb0-4361-8022-7979135f94aa","system_id":"levelo_inurba_marseille","lat":43.28574,"lon":5.36551,"is_reserved":false,"is_disabled":false,"rental_uris":{"android":"levelo://app?vid=42dca157-bdb0-4361-8022-7979135f94aa","ios":"levelo://app?vid=42dca157-bdb0-4361-8022-7979135f94aa"},"vehicle_type_id":"4","last_reported":1748617853,"current_range_meters":7200,"station_id":"","pricing_plan_id":"cebpf4jnsgd1na2vs0mg"},{"bike_id":"b2aef469-b12c-4a4b-84e7-850b1ba9b504","system_id":"levelo_inurba_marseille","lat":43.29433,"lon":5.39755,"is_reserved":false,"is_disabled":false,"rental_uris":{"android":"levelo://app?vid=b2aef469-b12c-4a4b-84e7-850b1ba9b504","ios":"levelo://app?vid=b2aef469-b12c-4a4b-84e7-850b1ba9b504"},"vehicle_type_id":"4","last_reported":1748617853,"current_range_meters":7200,"station_id":"ce4bh3h2rcd13ifvqdo0","pricing_plan_id":"cebpf4jnsgd1na2vs0mg"},{"bike_id":"74dc33cc-8948-4a22-a4e5-c587ec90c458","system_id":"levelo_inurba_marseille","lat":43.28035,"lon":5.3695,"is_reserved":false,"is_disabled":false,"rental_uris":{"android":"levelo://app?vid=74dc33cc-8948-4a22-a4e5-c587ec90c458","ios":"levelo://app?vid=74dc33cc-8948-4a22-a4e5-c587ec90c458"},"vehicle_type_id":"4","last_reported":1748617853,"current_range_meters":7200,"station_id":"ce4bha12rcd13ifvqef0","pricing_plan_id":"cebpf4jnsgd1na2vs0mg"},{"bike_id":"756d6195-ff7d-45a3-bff5-150df4065d34","system_id":"levelo_inurba_marseille","lat":43.27388,"lon":5.36269,"is_reserved":false,"is_disabled":false,"rental_uris":{"android":"levelo://app?vid=756d6195-ff7d-45a3-bff5-150df4065d34","ios":"levelo://app?vid=756d6195-ff7d-45a3-bff5-150df4065d34"},"vehicle_type_id":"4","last_reported":1748617853,"current_range_meters":7200,"station_id":"ce4bhbh2rcd13ifvqeo0","pricing_plan_id":"cebpf4jnsgd1na2vs0mg"},{"bike_id":"188c9a92-eca5-4a12-ba2d-12f9275c27c6","system_id":"levelo_inurba_marseille","lat":43.2826,"lon":5.35088,"is_reserved":false,"is_disabled":false,"rental_uris":{"android":"levelo://app?vid=188c9a92-eca5-4a12-ba2d-12f9275c27c6","ios":"levelo://app?vid=188c9a92-eca5-4a12-ba2d-12f9275c27c6"},"vehicle_type_id":"4","last_reported":1748617853,"current_range_meters":7200,"station_id":"ce4bhbp2rcd13ifvqerg","pricing_plan_id":"cebpf4jnsgd1na2vs0mg"},{"bike_id":"965ccf91-d873-4a33-9d8c-0fcffc01542a","system_id":"levelo_inurba_marseille","lat":43.27915,"lon":5.39578,"is_reserved":false,"is_disabled":false,"rental_uris":{"android":"levelo://app?vid=965ccf91-d873-4a33-9d8c-0fcffc01542a","ios":"levelo://app?vid=965ccf91-d873-4a33-9d8c-0fcffc01542a"},"vehicle_type_id":"4","last_reported":1748617853,"current_range_meters":7200,"station_id":"ce4bhf92rcd13ifvqf40","pricing_plan_id":"cebpf4jnsgd1na2vs0mg"},{"bike_id":"3a9dde02-c5af-42c0-a956-b9063ad69494","system_id":"levelo_inurba_marseille","lat":43.24392,"lon":5.370753,"is_reserved":false,"is_disabled":false,"rental_uris":{"android":"levelo://app?vid=3a9dde02-c5af-42c0-a956-b9063ad69494","ios":"levelo://app?vid=3a9dde02-c5af-42c0-a956-b9063ad69494"},"vehicle_type_id":"4","last_reported":1748617853,"current_range_meters":8000,"station_id":"ce4bhhh2rcd13ifvqfk0","pricing_plan_id":"cebpf4jnsgd1na2vs0mg"},{"bike_id":"80636d8b-805f-4980-87ce-733bce60c199","system_id":"levelo_inurba_marseille","lat":43.23183,"lon":5.35538,"is_reserved":false,"is_disabled":false,"rental_uris":{"android":"levelo://app?vid=80636d8b-805f-4980-87ce-733bce60c199","ios":"levelo://app?vid=80636d8b-805f-4980-87ce-733bce60c199"},"vehicle_type_id":"4","last_reported":1748617853,"current_range_meters":8000,"station_id":"ce4bhu92rcd13ifvqi70","pricing_plan_id":"cebpf4jnsgd1na2vs0mg"},{"bike_id":"00f77637-c960-45d0-b516-a2f6a0285858","system_id":"levelo_inurba_marseille","lat":43.297372,"lon":5.385329,"is_reserved":false,"is_disabled":false,"rental_uris":{"android":"levelo://app?vid=00f77637-c960-45d0-b516-a2f6a0285858","ios":"levelo://app?vid=00f77637-c960-45d0-b516-a2f6a0285858"},"vehicle_type_id":"4","last_reported":1748617853,"current_range_meters":8400,"station_id":"","pricing_plan_id":"cebpf4jnsgd1na2vs0mg"},{"bike_id":"a9c64fd9-2446-4643-97f8-adbea03d10fa","system_id":"levelo_inurba_marseille","lat":43.30595,"lon":5.39361,"is_reserved":false,"is_disabled":false,"rental_uris":{"android":"levelo://app?vid=a9c64fd9-2446-4643-97f8-adbea03d10fa","ios":"levelo://app?vid=a9c64fd9-2446-4643-97f8-adbea03d10fa"},"vehicle_type_id":"4","last_reported":1748617853,"current_range_meters":8400,"station_id":"ce4bh0p2rcd13ifvqd80","pricing_plan_id":"cebpf4jnsgd1na2vs0mg"},{"bike_id":"a6727563-4657-4cbd-a18d-02259f13f69c","system_id":"levelo_inurba_marseille","lat":43.29173,"lon":5.37165,"is_reserved":false,"is_disabled":false,"rental_uris":{"android":"levelo://app?vid=a6727563-4657-4cbd-a18d-02259f13f69c","ios":"levelo://app?vid=a6727563-4657-4cbd-a18d-02259f13f69c"},"vehicle_type_id":"4","last_reported":1748617853,"current_range_meters":8400,"station_id":"ce4bha92rcd13ifvqeh0","pricing_plan_id":"cebpf4jnsgd1na2vs0mg"},{"bike_id":"eac2d8f4-4b47-429a-8edc-3673b84e97da","system_id":"levelo_inurba_marseille","lat":43.28854,"lon":5.35848,"is_reserved":false,"is_disabled":false,"rental_uris":{"android":"levelo://app?vid=eac2d8f4-4b47-429a-8edc-3673b84e97da","ios":"levelo://app?vid=eac2d8f4-4b47-429a-8edc-3673b84e97da"},"vehicle_type_id":"4","last_reported":1748617853,"current_range_meters":8400,"station_id":"ce4bhb12rcd13ifvqem0","pricing_plan_id":"cebpf4jnsgd1na2vs0mg"},{"bike_id":"450ab149-9e09-4034-ba27-50e7136191a5","system_id":"levelo_inurba_marseille","lat":43.27396,"lon":5.362627,"is_reserved":false,"is_disabled":false,"rental_uris":{"android":"levelo://app?vid=450ab149-9e09-4034-ba27-50e7136191a5","ios":"levelo://app?vid=450ab149-9e09-4034-ba27-50e7136191a5"},"vehicle_type_id":"4","last_reported":1748617853,"current_range_meters":8400,"station_id":"ce4bhbh2rcd13ifvqeo0","pricing_plan_id":"cebpf4jnsgd1na2vs0mg"},{"bike_id":"6e26c4e4-5b8b-434a-999e-0b3bfd7495fa","system_id":"levelo_inurba_marseille","lat":43.28414,"lon":5.34983,"is_reserved":false,"is_disabled":false,"rental_uris":{"android":"levelo://app?vid=6e26c4e4-5b8b-434a-999e-0b3bfd7495fa","ios":"levelo://app?vid=6e26c4e4-5b8b-434a-999e-0b3bfd7495fa"},"vehicle_type_id":"4","last_reported":1748617853,"current_range_meters":8400,"station_id":"ce4bhbh2rcd13ifvqepg","pricing_plan_id":"cebpf4jnsgd1na2vs0mg"},{"bike_id":"a426f99b-d34a-41bf-bbda-59f7dfd6939b","system_id":"levelo_inurba_marseille","lat":43.255796,"lon":5.382262,"is_reserved":false,"is_disabled":false,"rental_uris":{"android":"levelo://app?vid=a426f99b-d34a-41bf-bbda-59f7dfd6939b","ios":"levelo://app?vid=a426f99b-d34a-41bf-bbda-59f7dfd6939b"},"vehicle_type_id":"4","last_reported":1748617853,"current_range_meters":8400,"station_id":"ce501612rcd8frsf0b60","pricing_plan_id":"cebpf4jnsgd1na2vs0mg"},{"bike_id":"ae3b3dce-af27-4783-b46b-aceacebb4963","system_id":"levelo_inurba_marseille","lat":43.230524,"lon":5.355039,"is_reserved":false,"is_disabled":false,"rental_uris":{"android":"levelo://app?vid=ae3b3dce-af27-4783-b46b-aceacebb4963","ios":"levelo://app?vid=ae3b3dce-af27-4783-b46b-aceacebb4963"},"vehicle_type_id":"4","last_reported":1748617853,"current_range_meters":8400,"station_id":"cpo3342slgdg3j2ifvpg","pricing_plan_id":"cebpf4jnsgd1na2vs0mg"},{"bike_id":"589d2674-f00d-4f0b-ba06-62403023c413","system_id":"levelo_inurba_marseille","lat":43.24166,"lon":5.36401,"is_reserved":false,"is_disabled":false,"rental_uris":{"android":"levelo://app?vid=589d2674-f00d-4f0b-ba06-62403023c413","ios":"levelo://app?vid=589d2674-f00d-4f0b-ba06-62403023c413"},"vehicle_type_id":"4","last_reported":1748617853,"current_range_meters":8400,"station_id":"cpo36qri1sfpv3e86is0","pricing_plan_id":"cebpf4jnsgd1na2vs0mg"},{"bike_id":"f5733814-9732-4748-bcc9-3b2fac8e1564","system_id":"levelo_inurba_marseille","lat":43.31256,"lon":5.37829,"is_reserved":false,"is_disabled":false,"rental_uris":{"android":"levelo://app?vid=f5733814-9732-4748-bcc9-3b2fac8e1564","ios":"levelo://app?vid=f5733814-9732-4748-bcc9-3b2fac8e1564"},"vehicle_type_id":"4","last_reported":1748617853,"current_range_meters":8800,"station_id":"","pricing_plan_id":"cebpf4jnsgd1na2vs0mg"},{"bike_id":"4258291f-daf6-4adf-952f-cf27f3ce12b6","system_id":"levelo_inurba_marseille","lat":43.26226,"lon":5.37451,"is_reserved":false,"is_disabled":false,"rental_uris":{"android":"levelo://app?vid=4258291f-daf6-4adf-952f-cf27f3ce12b6","ios":"levelo://app?vid=4258291f-daf6-4adf-952f-cf27f3ce12b6"},"vehicle_type_id":"4","last_reported":1748617853,"current_range_meters":8800,"station_id":"ce4bhgp2rcd13ifvqfc0","pricing_plan_id":"cebpf4jnsgd1na2vs0mg"},{"bike_id":"e55e0c4b-7cca-4de5-83bf-1d15d24b510e","system_id":"levelo_inurba_marseille","lat":43.23149,"lon":5.43725,"is_reserved":false,"is_disabled":false,"rental_uris":{"android":"levelo://app?vid=e55e0c4b-7cca-4de5-83bf-1d15d24b510e","ios":"levelo://app?vid=e55e0c4b-7cca-4de5-83bf-1d15d24b510e"},"vehicle_type_id":"4","last_reported":1748617853,"current_range_meters":8800,"station_id":"ce4bhmp2rcd13ifvqgog","pricing_plan_id":"cebpf4jnsgd1na2vs0mg"},{"bike_id":"4cc99582-cc51-4588-9a2d-cc44a71b4f66","system_id":"levelo_inurba_marseille","lat":43.298772,"lon":5.389061,"is_reserved":false,"is_disabled":false,"rental_uris":{"android":"levelo://app?vid=4cc99582-cc51-4588-9a2d-cc44a71b4f66","ios":"levelo://app?vid=4cc99582-cc51-4588-9a2d-cc44a71b4f66"},"vehicle_type_id":"4","last_reported":1748617853,"current_range_meters":9200,"station_id":"","pricing_plan_id":"cebpf4jnsgd1na2vs0mg"},{"bike_id":"e9cda520-c6f4-465d-ad7f-8c059b3dc45a","system_id":"levelo_inurba_marseille","lat":43.313967,"lon":5.383993,"is_reserved":false,"is_disabled":false,"rental_uris":{"android":"levelo://app?vid=e9cda520-c6f4-465d-ad7f-8c059b3dc45a","ios":"levelo://app?vid=e9cda520-c6f4-465d-ad7f-8c059b3dc45a"},"vehicle_type_id":"4","last_reported":1748617853,"current_range_meters":9200,"station_id":"","pricing_plan_id":"cebpf4jnsgd1na2vs0mg"},{"bike_id":"32bbb78f-b019-4b4a-a1ee-e7a5f1d1ee03","system_id":"levelo_inurba_marseille","lat":43.27375,"lon":5.36257,"is_reserved":false,"is_disabled":false,"rental_uris":{"android":"levelo://app?vid=32bbb78f-b019-4b4a-a1ee-e7a5f1d1ee03","ios":"levelo://app?vid=32bbb78f-b019-4b4a-a1ee-e7a5f1d1ee03"},"vehicle_type_id":"4","last_reported":1748617853,"current_range_meters":9200,"station_id":"ce4bhbh2rcd13ifvqeo0","pricing_plan_id":"cebpf4jnsgd1na2vs0mg"},{"bike_id":"2d2ff956-134d-475f-9054-479912371aa1","system_id":"levelo_inurba_marseille","lat":43.28258,"lon":5.35085,"is_reserved":false,"is_disabled":false,"rental_uris":{"android":"levelo://app?vid=2d2ff956-134d-475f-9054-479912371aa1","ios":"levelo://app?vid=2d2ff956-134d-475f-9054-479912371aa1"},"vehicle_type_id":"4","last_reported":1748617853,"current_range_meters":9200,"station_id":"ce4bhbp2rcd13ifvqerg","pricing_plan_id":"cebpf4jnsgd1na2vs0mg"},{"bike_id":"6948c974-658b-4326-bce1-cc610112daaa","system_id":"levelo_inurba_marseille","lat":43.2605,"lon":5.37575,"is_reserved":false,"is_disabled":false,"rental_uris":{"android":"levelo://app?vid=6948c974-658b-4326-bce1-cc610112daaa","ios":"levelo://app?vid=6948c974-658b-4326-bce1-cc610112daaa"},"vehicle_type_id":"4","last_reported":1748617853,"current_range_meters":9200,"station_id":"ce4bhgh2rcd13ifvqfa0","pricing_plan_id":"cebpf4jnsgd1na2vs0mg"},{"bike_id":"b7d0e553-35c9-40be-b79f-2a6d174654a5","system_id":"levelo_inurba_marseille","lat":43.25579,"lon":5.38232,"is_reserved":false,"is_disabled":false,"rental_uris":{"android":"levelo://app?vid=b7d0e553-35c9-40be-b79f-2a6d174654a5","ios":"levelo://app?vid=b7d0e553-35c9-40be-b79f-2a6d174654a5"},"vehicle_type_id":"4","last_reported":1748617853,"current_range_meters":9200,"station_id":"ce4bhih2rcd13ifvqfs0","pricing_plan_id":"cebpf4jnsgd1na2vs0mg"},{"bike_id":"9fa5382e-8381-4df2-a928-3f1e964734b1","system_id":"levelo_inurba_marseille","lat":43.270604,"lon":5.40259,"is_reserved":false,"is_disabled":false,"rental_uris":{"android":"levelo://app?vid=9fa5382e-8381-4df2-a928-3f1e964734b1","ios":"levelo://app?vid=9fa5382e-8381-4df2-a928-3f1e964734b1"},"vehicle_type_id":"4","last_reported":1748617853,"current_range_meters":9200,"station_id":"ce4bhk92rcd13ifvqgc0","pricing_plan_id":"cebpf4jnsgd1na2vs0mg"},{"bike_id":"9d7f6b7c-9a9f-4393-8569-3925d271cd61","system_id":"levelo_inurba_marseille","lat":43.250976,"lon":5.395214,"is_reserved":false,"is_disabled":false,"rental_uris":{"android":"levelo://app?vid=9d7f6b7c-9a9f-4393-8569-3925d271cd61","ios":"levelo://app?vid=9d7f6b7c-9a9f-4393-8569-3925d271cd61"},"vehicle_type_id":"4","last_reported":1748617853,"current_range_meters":9200,"station_id":"ce4bhm12rcd13ifvqgkg","pricing_plan_id":"cebpf4jnsgd1na2vs0mg"},{"bike_id":"a4f83481-4949-47dc-9049-e0cde3be7104","system_id":"levelo_inurba_marseille","lat":43.27948,"lon":5.41041,"is_reserved":false,"is_disabled":false,"rental_uris":{"android":"levelo://app?vid=a4f83481-4949-47dc-9049-e0cde3be7104","ios":"levelo://app?vid=a4f83481-4949-47dc-9049-e0cde3be7104"},"vehicle_type_id":"4","last_reported":1748617853,"current_range_meters":9200,"station_id":"ce4bhnp2rcd13ifvqh0g","pricing_plan_id":"cebpf4jnsgd1na2vs0mg"},{"bike_id":"c666405f-462c-40b6-aad2-05c3e84c9054","system_id":"levelo_inurba_marseille","lat":43.24162,"lon":5.364,"is_reserved":false,"is_disabled":false,"rental_uris":{"android":"levelo://app?vid=c666405f-462c-40b6-aad2-05c3e84c9054","ios":"levelo://app?vid=c666405f-462c-40b6-aad2-05c3e84c9054"},"vehicle_type_id":"4","last_reported":1748617853,"current_range_meters":9200,"station_id":"cpo36qri1sfpv3e86is0","pricing_plan_id":"cebpf4jnsgd1na2vs0mg"},{"bike_id":"a807c8dd-75ce-4f49-b322-50ddd08ec8d0","system_id":"levelo_inurba_marseille","lat":43.347437,"lon":5.373152,"is_reserved":false,"is_disabled":false,"rental_uris":{"android":"levelo://app?vid=a807c8dd-75ce-4f49-b322-50ddd08ec8d0","ios":"levelo://app?vid=a807c8dd-75ce-4f49-b322-50ddd08ec8d0"},"vehicle_type_id":"4","last_reported":1748617853,"current_range_meters":9600,"station_id":"","pricing_plan_id":"cebpf4jnsgd1na2vs0mg"},{"bike_id":"7f8081d1-6ab1-4bea-b581-83c3b69d4e7a","system_id":"levelo_inurba_marseille","lat":43.27376,"lon":5.36264,"is_reserved":false,"is_disabled":false,"rental_uris":{"android":"levelo://app?vid=7f8081d1-6ab1-4bea-b581-83c3b69d4e7a","ios":"levelo://app?vid=7f8081d1-6ab1-4bea-b581-83c3b69d4e7a"},"vehicle_type_id":"4","last_reported":1748617853,"current_range_meters":9600,"station_id":"ce4bhbh2rcd13ifvqeo0","pricing_plan_id":"cebpf4jnsgd1na2vs0mg"},{"bike_id":"e6fd2ca1-d968-4e6d-950a-3de70295f052","system_id":"levelo_inurba_marseille","lat":43.28431,"lon":5.34987,"is_reserved":false,"is_disabled":false,"rental_uris":{"android":"levelo://app?vid=e6fd2ca1-d968-4e6d-950a-3de70295f052","ios":"levelo://app?vid=e6fd2ca1-d968-4e6d-950a-3de70295f052"},"vehicle_type_id":"4","last_reported":1748617853,"current_range_meters":9600,"station_id":"ce4bhbh2rcd13ifvqepg","pricing_plan_id":"cebpf4jnsgd1na2vs0mg"},{"bike_id":"cdfffc32-92dc-4e21-8b45-f15cad927679","system_id":"levelo_inurba_marseille","lat":43.26208,"lon":5.37441,"is_reserved":false,"is_disabled":false,"rental_uris":{"android":"levelo://app?vid=cdfffc32-92dc-4e21-8b45-f15cad927679","ios":"levelo://app?vid=cdfffc32-92dc-4e21-8b45-f15cad927679"},"vehicle_type_id":"4","last_reported":1748617853,"current_range_meters":9600,"station_id":"ce4bhgp2rcd13ifvqfc0","pricing_plan_id":"cebpf4jnsgd1na2vs0mg"},{"bike_id":"80fe5afe-39c4-45f3-b493-0fec6fc59e59","system_id":"levelo_inurba_marseille","lat":43.23189,"lon":5.3555,"is_reserved":false,"is_disabled":false,"rental_uris":{"android":"levelo://app?vid=80fe5afe-39c4-45f3-b493-0fec6fc59e59","ios":"levelo://app?vid=80fe5afe-39c4-45f3-b493-0fec6fc59e59"},"vehicle_type_id":"4","last_reported":1748617853,"current_range_meters":9600,"station_id":"ce4bhu92rcd13ifvqi70","pricing_plan_id":"cebpf4jnsgd1na2vs0mg"},{"bike_id":"12d8cf5f-df4d-4f4e-bf43-d620edebe09d","system_id":"levelo_inurba_marseille","lat":43.2866,"lon":5.36341,"is_reserved":false,"is_disabled":false,"rental_uris":{"android":"levelo://app?vid=12d8cf5f-df4d-4f4e-bf43-d620edebe09d","ios":"levelo://app?vid=12d8cf5f-df4d-4f4e-bf43-d620edebe09d"},"vehicle_type_id":"4","last_reported":1748617853,"current_range_meters":10000,"station_id":"ce4bhah2rcd13ifvqej0","pricing_plan_id":"cebpf4jnsgd1na2vs0mg"},{"bike_id":"288ec2a3-4a78-4561-85f5-338f15a65027","system_id":"levelo_inurba_marseille","lat":43.28947,"lon":5.36637,"is_reserved":false,"is_disabled":false,"rental_uris":{"android":"levelo://app?vid=288ec2a3-4a78-4561-85f5-338f15a65027","ios":"levelo://app?vid=288ec2a3-4a78-4561-85f5-338f15a65027"},"vehicle_type_id":"4","last_reported":1748617853,"current_range_meters":10000,"station_id":"ce4bhap2rcd13ifvqek0","pricing_plan_id":"cebpf4jnsgd1na2vs0mg"},{"bike_id":"5ab0c034-8d81-4e39-bd05-94047d723c15","system_id":"levelo_inurba_marseille","lat":43.27375,"lon":5.36249,"is_reserved":false,"is_disabled":false,"rental_uris":{"android":"levelo://app?vid=5ab0c034-8d81-4e39-bd05-94047d723c15","ios":"levelo://app?vid=5ab0c034-8d81-4e39-bd05-94047d723c15"},"vehicle_type_id":"4","last_reported":1748617853,"current_range_meters":10000,"station_id":"ce4bhbh2rcd13ifvqeo0","pricing_plan_id":"cebpf4jnsgd1na2vs0mg"},{"bike_id":"1a91b5f6-44f1-4ed7-b6f0-dafcf98858a4","system_id":"levelo_inurba_marseille","lat":43.28272,"lon":5.35055,"is_reserved":false,"is_disabled":false,"rental_uris":{"android":"levelo://app?vid=1a91b5f6-44f1-4ed7-b6f0-dafcf98858a4","ios":"levelo://app?vid=1a91b5f6-44f1-4ed7-b6f0-dafcf98858a4"},"vehicle_type_id":"4","last_reported":1748617853,"current_range_meters":10000,"station_id":"ce4bhbp2rcd13ifvqerg","pricing_plan_id":"cebpf4jnsgd1na2vs0mg"},{"bike_id":"15059740-9eec-4a62-9f3d-9db09662395f","system_id":"levelo_inurba_marseille","lat":43.265567,"lon":5.372843,"is_reserved":false,"is_disabled":false,"rental_uris":{"android":"levelo://app?vid=15059740-9eec-4a62-9f3d-9db09662395f","ios":"levelo://app?vid=15059740-9eec-4a62-9f3d-9db09662395f"},"vehicle_type_id":"4","last_reported":1748617853,"current_range_meters":10000,"station_id":"ce4bhg12rcd13ifvqf70","pricing_plan_id":"cebpf4jnsgd1na2vs0mg"},{"bike_id":"fbf62787-a3c6-4f23-83c5-9f8471a73f2d","system_id":"levelo_inurba_marseille","lat":43.265582,"lon":5.372836,"is_reserved":false,"is_disabled":false,"rental_uris":{"android":"levelo://app?vid=fbf62787-a3c6-4f23-83c5-9f8471a73f2d","ios":"levelo://app?vid=fbf62787-a3c6-4f23-83c5-9f8471a73f2d"},"vehicle_type_id":"4","last_reported":1748617853,"current_range_meters":10000,"station_id":"ce4bhg12rcd13ifvqf70","pricing_plan_id":"cebpf4jnsgd1na2vs0mg"},{"bike_id":"fe0e0aab-c84d-4e36-a4c6-6bf7f57a8f05","system_id":"levelo_inurba_marseille","lat":43.26555,"lon":5.37301,"is_reserved":false,"is_disabled":false,"rental_uris":{"android":"levelo://app?vid=fe0e0aab-c84d-4e36-a4c6-6bf7f57a8f05","ios":"levelo://app?vid=fe0e0aab-c84d-4e36-a4c6-6bf7f57a8f05"},"vehicle_type_id":"4","last_reported":1748617853,"current_range_meters":10000,"station_id":"ce4bhg12rcd13ifvqf70","pricing_plan_id":"cebpf4jnsgd1na2vs0mg"},{"bike_id":"9245caac-e9f0-49a7-bf71-c6bac96ccdd1","system_id":"levelo_inurba_marseille","lat":43.24542,"lon":5.39527,"is_reserved":false,"is_disabled":false,"rental_uris":{"android":"levelo://app?vid=9245caac-e9f0-49a7-bf71-c6bac96ccdd1","ios":"levelo://app?vid=9245caac-e9f0-49a7-bf71-c6bac96ccdd1"},"vehicle_type_id":"4","last_reported":1748617853,"current_range_meters":10000,"station_id":"ce4bhlp2rcd13ifvqgjg","pricing_plan_id":"cebpf4jnsgd1na2vs0mg"},{"bike_id":"f209eeb1-23a1-4c5c-a4ab-d73fae8b1898","system_id":"levelo_inurba_marseille","lat":43.32007,"lon":5.38151,"is_reserved":false,"is_disabled":false,"rental_uris":{"android":"levelo://app?vid=f209eeb1-23a1-4c5c-a4ab-d73fae8b1898","ios":"levelo://app?vid=f209eeb1-23a1-4c5c-a4ab-d73fae8b1898"},"vehicle_type_id":"4","last_reported":1748617853,"current_range_meters":10000,"station_id":"ce4bhr12rcd13ifvqhpg","pricing_plan_id":"cebpf4jnsgd1na2vs0mg"},{"bike_id":"10506cb7-ecd1-4b9a-8a8d-ad241d961b8c","system_id":"levelo_inurba_marseille","lat":43.2321,"lon":5.35543,"is_reserved":false,"is_disabled":false,"rental_uris":{"android":"levelo://app?vid=10506cb7-ecd1-4b9a-8a8d-ad241d961b8c","ios":"levelo://app?vid=10506cb7-ecd1-4b9a-8a8d-ad241d961b8c"},"vehicle_type_id":"4","last_reported":1748617853,"current_range_meters":10000,"station_id":"ce4bhu92rcd13ifvqi70","pricing_plan_id":"cebpf4jnsgd1na2vs0mg"},{"bike_id":"10f4a06b-01b8-437d-9271-3075167ec379","system_id":"levelo_inurba_marseille","lat":43.2738,"lon":5.36251,"is_reserved":false,"is_disabled":false,"rental_uris":{"android":"levelo://app?vid=10f4a06b-01b8-437d-9271-3075167ec379","ios":"levelo://app?vid=10f4a06b-01b8-437d-9271-3075167ec379"},"vehicle_type_id":"4","last_reported":1748617853,"current_range_meters":10800,"station_id":"ce4bhbh2rcd13ifvqeo0","pricing_plan_id":"cebpf4jnsgd1na2vs0mg"},{"bike_id":"9f880a7f-bea4-4eef-8ad9-71efd94702fe","system_id":"levelo_inurba_marseille","lat":43.28411,"lon":5.34981,"is_reserved":false,"is_disabled":false,"rental_uris":{"android":"levelo://app?vid=9f880a7f-bea4-4eef-8ad9-71efd94702fe","ios":"levelo://app?vid=9f880a7f-bea4-4eef-8ad9-71efd94702fe"},"vehicle_type_id":"4","last_reported":1748617853,"current_range_meters":10800,"station_id":"ce4bhbh2rcd13ifvqepg","pricing_plan_id":"cebpf4jnsgd1na2vs0mg"},{"bike_id":"f67c0dea-1fe5-4948-9215-8f57b4153744","system_id":"levelo_inurba_marseille","lat":43.28442,"lon":5.35007,"is_reserved":false,"is_disabled":false,"rental_uris":{"android":"levelo://app?vid=f67c0dea-1fe5-4948-9215-8f57b4153744","ios":"levelo://app?vid=f67c0dea-1fe5-4948-9215-8f57b4153744"},"vehicle_type_id":"4","last_reported":1748617853,"current_range_meters":10800,"station_id":"ce4bhbh2rcd13ifvqepg","pricing_plan_id":"cebpf4jnsgd1na2vs0mg"},{"bike_id":"b4762fa1-e596-4ef5-8381-22e8d18b51b2","system_id":"levelo_inurba_marseille","lat":43.28417,"lon":5.34981,"is_reserved":false,"is_disabled":false,"rental_uris":{"android":"levelo://app?vid=b4762fa1-e596-4ef5-8381-22e8d18b51b2","ios":"levelo://app?vid=b4762fa1-e596-4ef5-8381-22e8d18b51b2"},"vehicle_type_id":"4","last_reported":1748617853,"current_range_meters":10800,"station_id":"ce4bhbh2rcd13ifvqepg","pricing_plan_id":"cebpf4jnsgd1na2vs0mg"},{"bike_id":"2bab18aa-61cd-4c18-a24b-1032bd90bb09","system_id":"levelo_inurba_marseille","lat":43.26035,"lon":5.37553,"is_reserved":false,"is_disabled":false,"rental_uris":{"android":"levelo://app?vid=2bab18aa-61cd-4c18-a24b-1032bd90bb09","ios":"levelo://app?vid=2bab18aa-61cd-4c18-a24b-1032bd90bb09"},"vehicle_type_id":"4","last_reported":1748617853,"current_range_meters":10800,"station_id":"ce4bhgh2rcd13ifvqfa0","pricing_plan_id":"cebpf4jnsgd1na2vs0mg"},{"bike_id":"73c25ebd-6e32-4265-9d65-d80a6144d650","system_id":"levelo_inurba_marseille","lat":43.25575,"lon":5.38232,"is_reserved":false,"is_disabled":false,"rental_uris":{"android":"levelo://app?vid=73c25ebd-6e32-4265-9d65-d80a6144d650","ios":"levelo://app?vid=73c25ebd-6e32-4265-9d65-d80a6144d650"},"vehicle_type_id":"4","last_reported":1748617853,"current_range_meters":10800,"station_id":"ce4bhih2rcd13ifvqfs0","pricing_plan_id":"cebpf4jnsgd1na2vs0mg"},{"bike_id":"92647c27-bb72-4f00-8b73-5f40031ef552","system_id":"levelo_inurba_marseille","lat":43.29556,"lon":5.42293,"is_reserved":false,"is_disabled":false,"rental_uris":{"android":"levelo://app?vid=92647c27-bb72-4f00-8b73-5f40031ef552","ios":"levelo://app?vid=92647c27-bb72-4f00-8b73-5f40031ef552"},"vehicle_type_id":"4","last_reported":1748617853,"current_range_meters":10800,"station_id":"ce4bhph2rcd13ifvqhdg","pricing_plan_id":"cebpf4jnsgd1na2vs0mg"},{"bike_id":"af78cd64-d0b1-4ec8-8285-880188198f73","system_id":"levelo_inurba_marseille","lat":43.23195,"lon":5.35574,"is_reserved":false,"is_disabled":false,"rental_uris":{"android":"levelo://app?vid=af78cd64-d0b1-4ec8-8285-880188198f73","ios":"levelo://app?vid=af78cd64-d0b1-4ec8-8285-880188198f73"},"vehicle_type_id":"4","last_reported":1748617853,"current_range_meters":10800,"station_id":"ce4bhu92rcd13ifvqi70","pricing_plan_id":"cebpf4jnsgd1na2vs0mg"},{"bike_id":"3dd1b342-5d0a-4155-9da3-0dd9cd16e16e","system_id":"levelo_inurba_marseille","lat":43.22922,"lon":5.3539,"is_reserved":false,"is_disabled":false,"rental_uris":{"android":"levelo://app?vid=3dd1b342-5d0a-4155-9da3-0dd9cd16e16e","ios":"levelo://app?vid=3dd1b342-5d0a-4155-9da3-0dd9cd16e16e"},"vehicle_type_id":"4","last_reported":1748617853,"current_range_meters":10800,"station_id":"cpo3532slgdg3j2ikp40","pricing_plan_id":"cebpf4jnsgd1na2vs0mg"},{"bike_id":"f46a5942-aa0f-498b-ae15-e1f7f612e9d2","system_id":"levelo_inurba_marseille","lat":43.241654,"lon":5.363994,"is_reserved":false,"is_disabled":false,"rental_uris":{"android":"levelo://app?vid=f46a5942-aa0f-498b-ae15-e1f7f612e9d2","ios":"levelo://app?vid=f46a5942-aa0f-498b-ae15-e1f7f612e9d2"},"vehicle_type_id":"4","last_reported":1748617853,"current_range_meters":10800,"station_id":"cpo36qri1sfpv3e86is0","pricing_plan_id":"cebpf4jnsgd1na2vs0mg"},{"bike_id":"e88454e9-5108-4967-a989-df9e4e3590e1","system_id":"levelo_inurba_marseille","lat":43.27368,"lon":5.36255,"is_reserved":false,"is_disabled":false,"rental_uris":{"android":"levelo://app?vid=e88454e9-5108-4967-a989-df9e4e3590e1","ios":"levelo://app?vid=e88454e9-5108-4967-a989-df9e4e3590e1"},"vehicle_type_id":"4","last_reported":1748617853,"current_range_meters":11200,"station_id":"ce4bhbh2rcd13ifvqeo0","pricing_plan_id":"cebpf4jnsgd1na2vs0mg"},{"bike_id":"14aad61c-394b-4fa3-8548-683ff3215ff5","system_id":"levelo_inurba_marseille","lat":43.27424,"lon":5.3942,"is_reserved":false,"is_disabled":false,"rental_uris":{"android":"levelo://app?vid=14aad61c-394b-4fa3-8548-683ff3215ff5","ios":"levelo://app?vid=14aad61c-394b-4fa3-8548-683ff3215ff5"},"vehicle_type_id":"4","last_reported":1748617853,"current_range_meters":11200,"station_id":"ce4bhdp2rcd13ifvqf20","pricing_plan_id":"cebpf4jnsgd1na2vs0mg"},{"bike_id":"c1c2d85c-5c42-48f8-b1ee-87631c48c9eb","system_id":"levelo_inurba_marseille","lat":43.24836,"lon":5.37451,"is_reserved":false,"is_disabled":false,"rental_uris":{"android":"levelo://app?vid=c1c2d85c-5c42-48f8-b1ee-87631c48c9eb","ios":"levelo://app?vid=c1c2d85c-5c42-48f8-b1ee-87631c48c9eb"},"vehicle_type_id":"4","last_reported":1748617853,"current_range_meters":11200,"station_id":"ce4bhgh2rcd13ifvqfb0","pricing_plan_id":"cebpf4jnsgd1na2vs0mg"},{"bike_id":"c6e1381c-bac9-4582-bfb9-1739ba44fe83","system_id":"levelo_inurba_marseille","lat":43.26197,"lon":5.37466,"is_reserved":false,"is_disabled":false,"rental_uris":{"android":"levelo://app?vid=c6e1381c-bac9-4582-bfb9-1739ba44fe83","ios":"levelo://app?vid=c6e1381c-bac9-4582-bfb9-1739ba44fe83"},"vehicle_type_id":"4","last_reported":1748617853,"current_range_meters":11200,"station_id":"ce4bhgp2rcd13ifvqfc0","pricing_plan_id":"cebpf4jnsgd1na2vs0mg"},{"bike_id":"0512d33e-433c-40b9-92b3-b7133a471cf7","system_id":"levelo_inurba_marseille","lat":43.27203,"lon":5.39176,"is_reserved":false,"is_disabled":false,"rental_uris":{"android":"levelo://app?vid=0512d33e-433c-40b9-92b3-b7133a471cf7","ios":"levelo://app?vid=0512d33e-433c-40b9-92b3-b7133a471cf7"},"vehicle_type_id":"4","last_reported":1748617853,"current_range_meters":11200,"station_id":"ce4bhhp2rcd13ifvqfm0","pricing_plan_id":"cebpf4jnsgd1na2vs0mg"},{"bike_id":"521cb3b3-65a2-473c-b458-b6397d382e92","system_id":"levelo_inurba_marseille","lat":43.21742,"lon":5.34609,"is_reserved":false,"is_disabled":false,"rental_uris":{"android":"levelo://app?vid=521cb3b3-65a2-473c-b458-b6397d382e92","ios":"levelo://app?vid=521cb3b3-65a2-473c-b458-b6397d382e92"},"vehicle_type_id":"4","last_reported":1748617853,"current_range_meters":11200,"station_id":"st_cvj6r9ubvosntc0bgbag","pricing_plan_id":"cebpf4jnsgd1na2vs0mg"},{"bike_id":"7243d7c8-02f5-4392-89cf-8c360e846d55","system_id":"levelo_inurba_marseille","lat":43.25271,"lon":5.3784,"is_reserved":false,"is_disabled":false,"rental_uris":{"android":"levelo://app?vid=7243d7c8-02f5-4392-89cf-8c360e846d55","ios":"levelo://app?vid=7243d7c8-02f5-4392-89cf-8c360e846d55"},"vehicle_type_id":"4","last_reported":1748617853,"current_range_meters":11600,"station_id":"","pricing_plan_id":"cebpf4jnsgd1na2vs0mg"},{"bike_id":"882f96e6-6d51-400c-b332-99ec0e88ba27","system_id":"levelo_inurba_marseille","lat":43.27615,"lon":5.36121,"is_reserved":false,"is_disabled":false,"rental_uris":{"android":"levelo://app?vid=882f96e6-6d51-400c-b332-99ec0e88ba27","ios":"levelo://app?vid=882f96e6-6d51-400c-b332-99ec0e88ba27"},"vehicle_type_id":"4","last_reported":1748617853,"current_range_meters":11600,"station_id":"ce4bgj92rcd13ifvqbe0","pricing_plan_id":"cebpf4jnsgd1na2vs0mg"},{"bike_id":"c41b2fe8-4617-4efa-9d25-14a965a88acd","system_id":"levelo_inurba_marseille","lat":43.284,"lon":5.34975,"is_reserved":false,"is_disabled":false,"rental_uris":{"android":"levelo://app?vid=c41b2fe8-4617-4efa-9d25-14a965a88acd","ios":"levelo://app?vid=c41b2fe8-4617-4efa-9d25-14a965a88acd"},"vehicle_type_id":"4","last_reported":1748617853,"current_range_meters":11600,"station_id":"ce4bhbh2rcd13ifvqepg","pricing_plan_id":"cebpf4jnsgd1na2vs0mg"},{"bike_id":"6e02306c-1a76-42f5-b6b1-6382a9b8efd9","system_id":"levelo_inurba_marseille","lat":43.26554,"lon":5.37288,"is_reserved":false,"is_disabled":false,"rental_uris":{"android":"levelo://app?vid=6e02306c-1a76-42f5-b6b1-6382a9b8efd9","ios":"levelo://app?vid=6e02306c-1a76-42f5-b6b1-6382a9b8efd9"},"vehicle_type_id":"4","last_reported":1748617853,"current_range_meters":11600,"station_id":"ce4bhg12rcd13ifvqf70","pricing_plan_id":"cebpf4jnsgd1na2vs0mg"},{"bike_id":"c77823f5-8280-4286-913c-075655ea1d03","system_id":"levelo_inurba_marseille","lat":43.24394,"lon":5.37065,"is_reserved":false,"is_disabled":false,"rental_uris":{"android":"levelo://app?vid=c77823f5-8280-4286-913c-075655ea1d03","ios":"levelo://app?vid=c77823f5-8280-4286-913c-075655ea1d03"},"vehicle_type_id":"4","last_reported":1748617853,"current_range_meters":11600,"station_id":"ce4bhhh2rcd13ifvqfk0","pricing_plan_id":"cebpf4jnsgd1na2vs0mg"},{"bike_id":"97485326-ec00-4b7a-a4b3-b2d6c30ff511","system_id":"levelo_inurba_marseille","lat":43.27053,"lon":5.40259,"is_reserved":false,"is_disabled":false,"rental_uris":{"android":"levelo://app?vid=97485326-ec00-4b7a-a4b3-b2d6c30ff511","ios":"levelo://app?vid=97485326-ec00-4b7a-a4b3-b2d6c30ff511"},"vehicle_type_id":"4","last_reported":1748617853,"current_range_meters":11600,"station_id":"ce4bhk92rcd13ifvqgc0","pricing_plan_id":"cebpf4jnsgd1na2vs0mg"},{"bike_id":"12367a99-a338-46d6-a772-b731bcc6a2df","system_id":"levelo_inurba_marseille","lat":43.23197,"lon":5.35553,"is_reserved":false,"is_disabled":false,"rental_uris":{"android":"levelo://app?vid=12367a99-a338-46d6-a772-b731bcc6a2df","ios":"levelo://app?vid=12367a99-a338-46d6-a772-b731bcc6a2df"},"vehicle_type_id":"4","last_reported":1748617853,"current_range_meters":11600,"station_id":"ce4bhu92rcd13ifvqi70","pricing_plan_id":"cebpf4jnsgd1na2vs0mg"},{"bike_id":"2bd1caeb-7bed-4a6d-8c76-170a2464b52b","system_id":"levelo_inurba_marseille","lat":43.29939,"lon":5.36556,"is_reserved":false,"is_disabled":false,"rental_uris":{"android":"levelo://app?vid=2bd1caeb-7bed-4a6d-8c76-170a2464b52b","ios":"levelo://app?vid=2bd1caeb-7bed-4a6d-8c76-170a2464b52b"},"vehicle_type_id":"4","last_reported":1748617853,"current_range_meters":12000,"station_id":"ce4bgm92rcd13ifvqbr0","pricing_plan_id":"cebpf4jnsgd1na2vs0mg"},{"bike_id":"529137a1-0fec-4a4c-bbe8-03949b5f4bac","system_id":"levelo_inurba_marseille","lat":43.28421,"lon":5.34992,"is_reserved":false,"is_disabled":false,"rental_uris":{"android":"levelo://app?vid=529137a1-0fec-4a4c-bbe8-03949b5f4bac","ios":"levelo://app?vid=529137a1-0fec-4a4c-bbe8-03949b5f4bac"},"vehicle_type_id":"4","last_reported":1748617853,"current_range_meters":12000,"station_id":"ce4bhbh2rcd13ifvqepg","pricing_plan_id":"cebpf4jnsgd1na2vs0mg"},{"bike_id":"541829c1-4a14-448e-bf0c-35d8616c0499","system_id":"levelo_inurba_marseille","lat":43.28419,"lon":5.35001,"is_reserved":false,"is_disabled":false,"rental_uris":{"android":"levelo://app?vid=541829c1-4a14-448e-bf0c-35d8616c0499","ios":"levelo://app?vid=541829c1-4a14-448e-bf0c-35d8616c0499"},"vehicle_type_id":"4","last_reported":1748617853,"current_range_meters":12000,"station_id":"ce4bhbh2rcd13ifvqepg","pricing_plan_id":"cebpf4jnsgd1na2vs0mg"},{"bike_id":"87e05ecd-1890-46ad-ac6b-d2153e08ec2c","system_id":"levelo_inurba_marseille","lat":43.28417,"lon":5.34991,"is_reserved":false,"is_disabled":false,"rental_uris":{"android":"levelo://app?vid=87e05ecd-1890-46ad-ac6b-d2153e08ec2c","ios":"levelo://app?vid=87e05ecd-1890-46ad-ac6b-d2153e08ec2c"},"vehicle_type_id":"4","last_reported":1748617853,"current_range_meters":12000,"station_id":"ce4bhbh2rcd13ifvqepg","pricing_plan_id":"cebpf4jnsgd1na2vs0mg"},{"bike_id":"c5955212-23b9-47a9-8fed-0e2d976ea049","system_id":"levelo_inurba_marseille","lat":43.26552,"lon":5.37286,"is_reserved":false,"is_disabled":false,"rental_uris":{"android":"levelo://app?vid=c5955212-23b9-47a9-8fed-0e2d976ea049","ios":"levelo://app?vid=c5955212-23b9-47a9-8fed-0e2d976ea049"},"vehicle_type_id":"4","last_reported":1748617853,"current_range_meters":12000,"station_id":"ce4bhg12rcd13ifvqf70","pricing_plan_id":"cebpf4jnsgd1na2vs0mg"},{"bike_id":"376e3220-304c-4620-9a1d-a8a356335e66","system_id":"levelo_inurba_marseille","lat":43.24793,"lon":5.37469,"is_reserved":false,"is_disabled":false,"rental_uris":{"android":"levelo://app?vid=376e3220-304c-4620-9a1d-a8a356335e66","ios":"levelo://app?vid=376e3220-304c-4620-9a1d-a8a356335e66"},"vehicle_type_id":"4","last_reported":1748617853,"current_range_meters":12000,"station_id":"ce4bhgh2rcd13ifvqfb0","pricing_plan_id":"cebpf4jnsgd1na2vs0mg"},{"bike_id":"d51d1b55-e49b-4aab-b17a-941d1955bf76","system_id":"levelo_inurba_marseille","lat":43.26235,"lon":5.37442,"is_reserved":false,"is_disabled":false,"rental_uris":{"android":"levelo://app?vid=d51d1b55-e49b-4aab-b17a-941d1955bf76","ios":"levelo://app?vid=d51d1b55-e49b-4aab-b17a-941d1955bf76"},"vehicle_type_id":"4","last_reported":1748617853,"current_range_meters":12000,"station_id":"ce4bhgp2rcd13ifvqfc0","pricing_plan_id":"cebpf4jnsgd1na2vs0mg"},{"bike_id":"81929695-c996-4344-b136-61f971835187","system_id":"levelo_inurba_marseille","lat":43.26243,"lon":5.37448,"is_reserved":false,"is_disabled":false,"rental_uris":{"android":"levelo://app?vid=81929695-c996-4344-b136-61f971835187","ios":"levelo://app?vid=81929695-c996-4344-b136-61f971835187"},"vehicle_type_id":"4","last_reported":1748617853,"current_range_meters":12000,"station_id":"ce4bhgp2rcd13ifvqfc0","pricing_plan_id":"cebpf4jnsgd1na2vs0mg"},{"bike_id":"07c38af0-9fa2-41ca-af0d-4f3033b090c9","system_id":"levelo_inurba_marseille","lat":43.24166,"lon":5.36399,"is_reserved":false,"is_disabled":false,"rental_uris":{"android":"levelo://app?vid=07c38af0-9fa2-41ca-af0d-4f3033b090c9","ios":"levelo://app?vid=07c38af0-9fa2-41ca-af0d-4f3033b090c9"},"vehicle_type_id":"4","last_reported":1748617853,"current_range_meters":12000,"station_id":"cpo36qri1sfpv3e86is0","pricing_plan_id":"cebpf4jnsgd1na2vs0mg"},{"bike_id":"4dfb43b3-3389-4f77-87b8-e028097feac6","system_id":"levelo_inurba_marseille","lat":43.296,"lon":5.38102,"is_reserved":false,"is_disabled":false,"rental_uris":{"android":"levelo://app?vid=4dfb43b3-3389-4f77-87b8-e028097feac6","ios":"levelo://app?vid=4dfb43b3-3389-4f77-87b8-e028097feac6"},"vehicle_type_id":"4","last_reported":1748617853,"current_range_meters":12400,"station_id":"ce4bgl12rcd13ifvqbo0","pricing_plan_id":"cebpf4jnsgd1na2vs0mg"},{"bike_id":"ad9c1627-34c5-46fc-9099-cf2bb49e0a1d","system_id":"levelo_inurba_marseille","lat":43.28421,"lon":5.34992,"is_reserved":false,"is_disabled":false,"rental_uris":{"android":"levelo://app?vid=ad9c1627-34c5-46fc-9099-cf2bb49e0a1d","ios":"levelo://app?vid=ad9c1627-34c5-46fc-9099-cf2bb49e0a1d"},"vehicle_type_id":"4","last_reported":1748617853,"current_range_meters":12400,"station_id":"ce4bhbh2rcd13ifvqepg","pricing_plan_id":"cebpf4jnsgd1na2vs0mg"},{"bike_id":"0c246155-1f67-45bf-ae79-713e586e552f","system_id":"levelo_inurba_marseille","lat":43.25123,"lon":5.40329,"is_reserved":false,"is_disabled":false,"rental_uris":{"android":"levelo://app?vid=0c246155-1f67-45bf-ae79-713e586e552f","ios":"levelo://app?vid=0c246155-1f67-45bf-ae79-713e586e552f"},"vehicle_type_id":"4","last_reported":1748617853,"current_range_meters":12400,"station_id":"ce4bhlh2rcd13ifvqgig","pricing_plan_id":"cebpf4jnsgd1na2vs0mg"},{"bike_id":"990df701-79a7-41ec-b963-3693dc590a87","system_id":"levelo_inurba_marseille","lat":43.301916,"lon":5.379223,"is_reserved":false,"is_disabled":false,"rental_uris":{"android":"levelo://app?vid=990df701-79a7-41ec-b963-3693dc590a87","ios":"levelo://app?vid=990df701-79a7-41ec-b963-3693dc590a87"},"vehicle_type_id":"4","last_reported":1748617853,"current_range_meters":12800,"station_id":"","pricing_plan_id":"cebpf4jnsgd1na2vs0mg"},{"bike_id":"4d78e84e-9b3b-4ac9-8d25-ca032492c620","system_id":"levelo_inurba_marseille","lat":43.27615,"lon":5.36112,"is_reserved":false,"is_disabled":false,"rental_uris":{"android":"levelo://app?vid=4d78e84e-9b3b-4ac9-8d25-ca032492c620","ios":"levelo://app?vid=4d78e84e-9b3b-4ac9-8d25-ca032492c620"},"vehicle_type_id":"4","last_reported":1748617853,"current_range_meters":12800,"station_id":"ce4bgj92rcd13ifvqbe0","pricing_plan_id":"cebpf4jnsgd1na2vs0mg"},{"bike_id":"bac667cf-137e-4ea7-b037-7ebd6a2ad77c","system_id":"levelo_inurba_marseille","lat":43.28257,"lon":5.351038,"is_reserved":false,"is_disabled":false,"rental_uris":{"android":"levelo://app?vid=bac667cf-137e-4ea7-b037-7ebd6a2ad77c","ios":"levelo://app?vid=bac667cf-137e-4ea7-b037-7ebd6a2ad77c"},"vehicle_type_id":"4","last_reported":1748617853,"current_range_meters":12800,"station_id":"ce4bhbp2rcd13ifvqerg","pricing_plan_id":"cebpf4jnsgd1na2vs0mg"},{"bike_id":"6ec32c53-c381-4256-8145-a6dd9e4286eb","system_id":"levelo_inurba_marseille","lat":43.28621,"lon":5.3511,"is_reserved":false,"is_disabled":false,"rental_uris":{"android":"levelo://app?vid=6ec32c53-c381-4256-8145-a6dd9e4286eb","ios":"levelo://app?vid=6ec32c53-c381-4256-8145-a6dd9e4286eb"},"vehicle_type_id":"4","last_reported":1748617853,"current_range_meters":12800,"station_id":"ce4bhch2rcd13ifvqeug","pricing_plan_id":"cebpf4jnsgd1na2vs0mg"},{"bike_id":"950a66c6-0112-4714-a007-202e42172c1f","system_id":"levelo_inurba_marseille","lat":43.24796,"lon":5.37428,"is_reserved":false,"is_disabled":false,"rental_uris":{"android":"levelo://app?vid=950a66c6-0112-4714-a007-202e42172c1f","ios":"levelo://app?vid=950a66c6-0112-4714-a007-202e42172c1f"},"vehicle_type_id":"4","last_reported":1748617853,"current_range_meters":12800,"station_id":"ce4bhgh2rcd13ifvqfb0","pricing_plan_id":"cebpf4jnsgd1na2vs0mg"},{"bike_id":"691a809d-be35-4d33-b627-0b211f6870b1","system_id":"levelo_inurba_marseille","lat":43.304205,"lon":5.412867,"is_reserved":false,"is_disabled":false,"rental_uris":{"android":"levelo://app?vid=691a809d-be35-4d33-b627-0b211f6870b1","ios":"levelo://app?vid=691a809d-be35-4d33-b627-0b211f6870b1"},"vehicle_type_id":"4","last_reported":1748617853,"current_range_meters":12800,"station_id":"ce4bhop2rcd13ifvqh8g","pricing_plan_id":"cebpf4jnsgd1na2vs0mg"},{"bike_id":"e2323763-e8bc-4c18-8623-deb9c58bfd9b","system_id":"levelo_inurba_marseille","lat":43.24167,"lon":5.36425,"is_reserved":false,"is_disabled":false,"rental_uris":{"android":"levelo://app?vid=e2323763-e8bc-4c18-8623-deb9c58bfd9b","ios":"levelo://app?vid=e2323763-e8bc-4c18-8623-deb9c58bfd9b"},"vehicle_type_id":"4","last_reported":1748617853,"current_range_meters":12800,"station_id":"cpo36qri1sfpv3e86is0","pricing_plan_id":"cebpf4jnsgd1na2vs0mg"},{"bike_id":"7920e439-3ff5-4641-aa23-192c084545b7","system_id":"levelo_inurba_marseille","lat":43.21758,"lon":5.34616,"is_reserved":false,"is_disabled":false,"rental_uris":{"android":"levelo://app?vid=7920e439-3ff5-4641-aa23-192c084545b7","ios":"levelo://app?vid=7920e439-3ff5-4641-aa23-192c084545b7"},"vehicle_type_id":"4","last_reported":1748617853,"current_range_meters":12800,"station_id":"st_cvj6r9ubvosntc0bgbag","pricing_plan_id":"cebpf4jnsgd1na2vs0mg"},{"bike_id":"80b0860b-6499-4ac7-a639-48191c120718","system_id":"levelo_inurba_marseille","lat":43.3053,"lon":5.38433,"is_reserved":false,"is_disabled":false,"rental_uris":{"android":"levelo://app?vid=80b0860b-6499-4ac7-a639-48191c120718","ios":"levelo://app?vid=80b0860b-6499-4ac7-a639-48191c120718"},"vehicle_type_id":"4","last_reported":1748617853,"current_range_meters":13600,"station_id":"ce4bgg92rcd13ifvqb30","pricing_plan_id":"cebpf4jnsgd1na2vs0mg"},{"bike_id":"5025264e-496c-49d0-8c1b-be743ebaf34f","system_id":"levelo_inurba_marseille","lat":43.29418,"lon":5.3862,"is_reserved":false,"is_disabled":false,"rental_uris":{"android":"levelo://app?vid=5025264e-496c-49d0-8c1b-be743ebaf34f","ios":"levelo://app?vid=5025264e-496c-49d0-8c1b-be743ebaf34f"},"vehicle_type_id":"4","last_reported":1748617853,"current_range_meters":13600,"station_id":"ce4bh2h2rcd13ifvqdh0","pricing_plan_id":"cebpf4jnsgd1na2vs0mg"},{"bike_id":"03cd5743-2e38-40d4-8374-92f6a7539a49","system_id":"levelo_inurba_marseille","lat":43.26202,"lon":5.37445,"is_reserved":false,"is_disabled":false,"rental_uris":{"android":"levelo://app?vid=03cd5743-2e38-40d4-8374-92f6a7539a49","ios":"levelo://app?vid=03cd5743-2e38-40d4-8374-92f6a7539a49"},"vehicle_type_id":"4","last_reported":1748617853,"current_range_meters":13600,"station_id":"ce4bhgp2rcd13ifvqfc0","pricing_plan_id":"cebpf4jnsgd1na2vs0mg"},{"bike_id":"21aa1182-d299-489c-8aa3-058c281df06b","system_id":"levelo_inurba_marseille","lat":43.29883,"lon":5.38908,"is_reserved":false,"is_disabled":false,"rental_uris":{"android":"levelo://app?vid=21aa1182-d299-489c-8aa3-058c281df06b","ios":"levelo://app?vid=21aa1182-d299-489c-8aa3-058c281df06b"},"vehicle_type_id":"4","last_reported":1748617853,"current_range_meters":14000,"station_id":"ce4bh392rcd13ifvqdl0","pricing_plan_id":"cebpf4jnsgd1na2vs0mg"},{"bike_id":"b18036e4-cdbb-441f-a4f1-99c9cdbece34","system_id":"levelo_inurba_marseille","lat":43.29525,"lon":5.39051,"is_reserved":false,"is_disabled":false,"rental_uris":{"android":"levelo://app?vid=b18036e4-cdbb-441f-a4f1-99c9cdbece34","ios":"levelo://app?vid=b18036e4-cdbb-441f-a4f1-99c9cdbece34"},"vehicle_type_id":"4","last_reported":1748617853,"current_range_meters":14000,"station_id":"ce4bh3p2rcd13ifvqdp0","pricing_plan_id":"cebpf4jnsgd1na2vs0mg"},{"bike_id":"92f49380-ac37-433a-bcef-c795724a456e","system_id":"levelo_inurba_marseille","lat":43.26029,"lon":5.37547,"is_reserved":false,"is_disabled":false,"rental_uris":{"android":"levelo://app?vid=92f49380-ac37-433a-bcef-c795724a456e","ios":"levelo://app?vid=92f49380-ac37-433a-bcef-c795724a456e"},"vehicle_type_id":"4","last_reported":1748617853,"current_range_meters":14000,"station_id":"ce4bhgh2rcd13ifvqfa0","pricing_plan_id":"cebpf4jnsgd1na2vs0mg"},{"bike_id":"caed8174-199f-47b2-a36a-d066cb3c05d1","system_id":"levelo_inurba_marseille","lat":43.26211,"lon":5.37437,"is_reserved":false,"is_disabled":false,"rental_uris":{"android":"levelo://app?vid=caed8174-199f-47b2-a36a-d066cb3c05d1","ios":"levelo://app?vid=caed8174-199f-47b2-a36a-d066cb3c05d1"},"vehicle_type_id":"4","last_reported":1748617853,"current_range_meters":14000,"station_id":"ce4bhgp2rcd13ifvqfc0","pricing_plan_id":"cebpf4jnsgd1na2vs0mg"},{"bike_id":"049bea5a-b292-4d36-bc62-eb2987d37436","system_id":"levelo_inurba_marseille","lat":43.26187,"lon":5.37452,"is_reserved":false,"is_disabled":false,"rental_uris":{"android":"levelo://app?vid=049bea5a-b292-4d36-bc62-eb2987d37436","ios":"levelo://app?vid=049bea5a-b292-4d36-bc62-eb2987d37436"},"vehicle_type_id":"4","last_reported":1748617853,"current_range_meters":14000,"station_id":"ce4bhgp2rcd13ifvqfc0","pricing_plan_id":"cebpf4jnsgd1na2vs0mg"},{"bike_id":"3ed5c2bb-0885-4b42-8f64-ca5c421e2fc0","system_id":"levelo_inurba_marseille","lat":43.23965,"lon":5.36671,"is_reserved":false,"is_disabled":false,"rental_uris":{"android":"levelo://app?vid=3ed5c2bb-0885-4b42-8f64-ca5c421e2fc0","ios":"levelo://app?vid=3ed5c2bb-0885-4b42-8f64-ca5c421e2fc0"},"vehicle_type_id":"4","last_reported":1748617853,"current_range_meters":14000,"station_id":"ce4bhi12rcd13ifvqfp0","pricing_plan_id":"cebpf4jnsgd1na2vs0mg"},{"bike_id":"d6d1ada7-d095-4848-a9c7-71d520f6d868","system_id":"levelo_inurba_marseille","lat":43.299666,"lon":5.384894,"is_reserved":false,"is_disabled":false,"rental_uris":{"android":"levelo://app?vid=d6d1ada7-d095-4848-a9c7-71d520f6d868","ios":"levelo://app?vid=d6d1ada7-d095-4848-a9c7-71d520f6d868"},"vehicle_type_id":"4","last_reported":1748617853,"current_range_meters":14400,"station_id":"","pricing_plan_id":"cebpf4jnsgd1na2vs0mg"},{"bike_id":"dd34afa2-f665-4263-85a8-7de7dbd3a196","system_id":"levelo_inurba_marseille","lat":43.27599,"lon":5.39731,"is_reserved":false,"is_disabled":false,"rental_uris":{"android":"levelo://app?vid=dd34afa2-f665-4263-85a8-7de7dbd3a196","ios":"levelo://app?vid=dd34afa2-f665-4263-85a8-7de7dbd3a196"},"vehicle_type_id":"4","last_reported":1748617853,"current_range_meters":14400,"station_id":"","pricing_plan_id":"cebpf4jnsgd1na2vs0mg"},{"bike_id":"53d1debe-bb2d-4920-98f1-67088c2d2cc5","system_id":"levelo_inurba_marseille","lat":43.298736,"lon":5.389101,"is_reserved":false,"is_disabled":false,"rental_uris":{"android":"levelo://app?vid=53d1debe-bb2d-4920-98f1-67088c2d2cc5","ios":"levelo://app?vid=53d1debe-bb2d-4920-98f1-67088c2d2cc5"},