{"last_updated":1743296069,"ttl":60,"version":"2.2","data":{"bikes":[{"bike_id":"e11e4a91-b49c-4e4c-9da4-524f7c802067","system_id":"levelo_inurba_marseille","lat":43.30942,"lon":5.40149,"is_reserved":false,"is_disabled":false,"rental_uris":{"android":"levelo://app?vid=e11e4a91-b49c-4e4c-9da4-524f7c802067","ios":"levelo://app?vid=e11e4a91-b49c-4e4c-9da4-524f7c802067"},"vehicle_type_id":"4","last_reported":1743296069,"current_range_meters":2800,"station_id":"ce4bgvp2rcd13ifvqct0","pricing_plan_id":"cebpf4jnsgd1na2vs0mg"},{"bike_id":"680177cb-eac0-405b-b31b-2cf7ea4b09c8","system_id":"levelo_inurba_marseille","lat":43.26953,"lon":5.38628,"is_reserved":false,"is_disabled":false,"rental_uris":{"android":"levelo://app?vid=680177cb-eac0-405b-b31b-2cf7ea4b09c8","ios":"levelo://app?vid=680177cb-eac0-405b-b31b-2cf7ea4b09c8"},"vehicle_type_id":"4","last_reported":1743296069,"current_range_meters":3200,"station_id":"ce4bhh92rcd13ifvqfh0","pricing_plan_id":"cebpf4jnsgd1na2vs0mg"},{"bike_id":"c350c816-6c1c-4ad5-864e-04346f512805","system_id":"levelo_inurba_marseille","lat":43.294905,"lon":5.423034,"is_reserved":false,"is_disabled":false,"rental_uris":{"android":"levelo://app?vid=c350c816-6c1c-4ad5-864e-04346f512805","ios":"levelo://app?vid=c350c816-6c1c-4ad5-864e-04346f512805"},"vehicle_type_id":"4","last_reported":1743296069,"current_range_meters":3200,"station_id":"ce4bhph2rcd13ifvqhdg","pricing_plan_id":"cebpf4jnsgd1na2vs0mg"},{"bike_id":"e8005486-e4f4-4cff-ba5a-2e3db4c38a96","system_id":"levelo_inurba_marseille","lat":43.29321,"lon":5.37472,"is_reserved":false,"is_disabled":false,"rental_uris":{"android":"levelo://app?vid=e8005486-e4f4-4cff-ba5a-2e3db4c38a96","ios":"levelo://app?vid=e8005486-e4f4-4cff-ba5a-2e3db4c38a96"},"vehicle_type_id":"4","last_reported":1743296069,"current_range_meters":3600,"station_id":"ce4bgi12rcd13ifvqb70","pricing_plan_id":"cebpf4jnsgd1na2vs0mg"},{"bike_id":"ef3ab7e4-47aa-4e48-a63f-a437355606eb","system_id":"levelo_inurba_marseille","lat":43.28065,"lon":5.42108,"is_reserved":false,"is_disabled":false,"rental_uris":{"android":"levelo://app?vid=ef3ab7e4-47aa-4e48-a63f-a437355606eb","ios":"levelo://app?vid=ef3ab7e4-47aa-4e48-a63f-a437355606eb"},"vehicle_type_id":"4","last_reported":1743296069,"current_range_meters":3600,"station_id":"","pricing_plan_id":"cebpf4jnsgd1na2vs0mg"},{"bike_id":"8e57473e-5090-4f79-b3fd-56e2309c1399","system_id":"levelo_inurba_marseille","lat":43.30593,"lon":5.39353,"is_reserved":false,"is_disabled":false,"rental_uris":{"android":"levelo://app?vid=8e57473e-5090-4f79-b3fd-56e2309c1399","ios":"levelo://app?vid=8e57473e-5090-4f79-b3fd-56e2309c1399"},"vehicle_type_id":"4","last_reported":1743296069,"current_range_meters":3600,"station_id":"ce4bh0p2rcd13ifvqd80","pricing_plan_id":"cebpf4jnsgd1na2vs0mg"},{"bike_id":"50c044d8-edcd-4b27-afa3-0d401e68b1d2","system_id":"levelo_inurba_marseille","lat":43.322924,"lon":5.382713,"is_reserved":false,"is_disabled":false,"rental_uris":{"android":"levelo://app?vid=50c044d8-edcd-4b27-afa3-0d401e68b1d2","ios":"levelo://app?vid=50c044d8-edcd-4b27-afa3-0d401e68b1d2"},"vehicle_type_id":"4","last_reported":1743296069,"current_range_meters":3600,"station_id":"ce4bhr12rcd13ifvqhqg","pricing_plan_id":"cebpf4jnsgd1na2vs0mg"},{"bike_id":"a68205fa-d67d-433a-af28-c9b285cd5751","system_id":"levelo_inurba_marseille","lat":43.28835,"lon":5.3587,"is_reserved":false,"is_disabled":false,"rental_uris":{"android":"levelo://app?vid=a68205fa-d67d-433a-af28-c9b285cd5751","ios":"levelo://app?vid=a68205fa-d67d-433a-af28-c9b285cd5751"},"vehicle_type_id":"4","last_reported":1743296069,"current_range_meters":0,"station_id":"ce4bhb12rcd13ifvqem0","pricing_plan_id":"cebpf4jnsgd1na2vs0mg"},{"bike_id":"d7c9e49f-9da5-4b2e-bae8-8dbfb05890a7","system_id":"levelo_inurba_marseille","lat":43.33367,"lon":5.40117,"is_reserved":false,"is_disabled":false,"rental_uris":{"android":"levelo://app?vid=d7c9e49f-9da5-4b2e-bae8-8dbfb05890a7","ios":"levelo://app?vid=d7c9e49f-9da5-4b2e-bae8-8dbfb05890a7"},"vehicle_type_id":"4","last_reported":1743296069,"current_range_meters":4000,"station_id":"","pricing_plan_id":"cebpf4jnsgd1na2vs0mg"},{"bike_id":"3c895042-c22a-456b-b910-53cf43ea7a0a","system_id":"levelo_inurba_marseille","lat":43.28703,"lon":5.38916,"is_reserved":false,"is_disabled":true,"rental_uris":{"android":"levelo://app?vid=3c895042-c22a-456b-b910-53cf43ea7a0a","ios":"levelo://app?vid=3c895042-c22a-456b-b910-53cf43ea7a0a"},"vehicle_type_id":"4","last_reported":1743296069,"current_range_meters":4000,"station_id":"","pricing_plan_id":"cebpf4jnsgd1na2vs0mg"},{"bike_id":"971c92cb-66df-438d-9a85-e63af939e6ff","system_id":"levelo_inurba_marseille","lat":43.28621,"lon":5.35086,"is_reserved":false,"is_disabled":true,"rental_uris":{"android":"levelo://app?vid=971c92cb-66df-438d-9a85-e63af939e6ff","ios":"levelo://app?vid=971c92cb-66df-438d-9a85-e63af939e6ff"},"vehicle_type_id":"4","last_reported":1743296069,"current_range_meters":4000,"station_id":"ce4bhch2rcd13ifvqeug","pricing_plan_id":"cebpf4jnsgd1na2vs0mg"},{"bike_id":"5035eaaf-4c4b-4740-b3e0-521452716a6f","system_id":"levelo_inurba_marseille","lat":43.26216,"lon":5.37438,"is_reserved":false,"is_disabled":true,"rental_uris":{"android":"levelo://app?vid=5035eaaf-4c4b-4740-b3e0-521452716a6f","ios":"levelo://app?vid=5035eaaf-4c4b-4740-b3e0-521452716a6f"},"vehicle_type_id":"4","last_reported":1743296069,"current_range_meters":4400,"station_id":"ce4bhgp2rcd13ifvqfc0","pricing_plan_id":"cebpf4jnsgd1na2vs0mg"},{"bike_id":"e7e272ec-5655-4212-92bf-2cf55a6f2c0e","system_id":"levelo_inurba_marseille","lat":43.32282,"lon":5.38273,"is_reserved":false,"is_disabled":false,"rental_uris":{"android":"levelo://app?vid=e7e272ec-5655-4212-92bf-2cf55a6f2c0e","ios":"levelo://app?vid=e7e272ec-5655-4212-92bf-2cf55a6f2c0e"},"vehicle_type_id":"4","last_reported":1743296069,"current_range_meters":4400,"station_id":"ce4bhr12rcd13ifvqhqg","pricing_plan_id":"cebpf4jnsgd1na2vs0mg"},{"bike_id":"2d777215-fde2-4eac-83f9-351710712a4c","system_id":"levelo_inurba_marseille","lat":43.27913,"lon":5.41219,"is_reserved":false,"is_disabled":false,"rental_uris":{"android":"levelo://app?vid=2d777215-fde2-4eac-83f9-351710712a4c","ios":"levelo://app?vid=2d777215-fde2-4eac-83f9-351710712a4c"},"vehicle_type_id":"4","last_reported":1743296069,"current_range_meters":4400,"station_id":"","pricing_plan_id":"cebpf4jnsgd1na2vs0mg"},{"bike_id":"ade0056c-24a5-436b-ac14-0aeaee884a11","system_id":"levelo_inurba_marseille","lat":43.28456,"lon":5.35889,"is_reserved":false,"is_disabled":false,"rental_uris":{"android":"levelo://app?vid=ade0056c-24a5-436b-ac14-0aeaee884a11","ios":"levelo://app?vid=ade0056c-24a5-436b-ac14-0aeaee884a11"},"vehicle_type_id":"4","last_reported":1743296069,"current_range_meters":4400,"station_id":"ce4bhah2rcd13ifvqei0","pricing_plan_id":"cebpf4jnsgd1na2vs0mg"},{"bike_id":"5a6cc06f-8919-47d0-b546-cc2b1570760b","system_id":"levelo_inurba_marseille","lat":43.30296,"lon":5.36888,"is_reserved":false,"is_disabled":false,"rental_uris":{"android":"levelo://app?vid=5a6cc06f-8919-47d0-b546-cc2b1570760b","ios":"levelo://app?vid=5a6cc06f-8919-47d0-b546-cc2b1570760b"},"vehicle_type_id":"4","last_reported":1743296069,"current_range_meters":4800,"station_id":"ce4bgqh2rcd13ifvqc5g","pricing_plan_id":"cebpf4jnsgd1na2vs0mg"},{"bike_id":"fe2e81d7-dd50-4228-8ebb-e8df4e0671ab","system_id":"levelo_inurba_marseille","lat":43.311107,"lon":5.377651,"is_reserved":false,"is_disabled":false,"rental_uris":{"android":"levelo://app?vid=fe2e81d7-dd50-4228-8ebb-e8df4e0671ab","ios":"levelo://app?vid=fe2e81d7-dd50-4228-8ebb-e8df4e0671ab"},"vehicle_type_id":"4","last_reported":1743296069,"current_range_meters":6000,"station_id":"ce4bgt92rcd13ifvqcg0","pricing_plan_id":"cebpf4jnsgd1na2vs0mg"},{"bike_id":"324a7dcd-c161-4591-aa77-6925cdc410c9","system_id":"levelo_inurba_marseille","lat":43.29207,"lon":5.39321,"is_reserved":false,"is_disabled":false,"rental_uris":{"android":"levelo://app?vid=324a7dcd-c161-4591-aa77-6925cdc410c9","ios":"levelo://app?vid=324a7dcd-c161-4591-aa77-6925cdc410c9"},"vehicle_type_id":"4","last_reported":1743296069,"current_range_meters":4800,"station_id":"ce4bh192rcd13ifvqdd0","pricing_plan_id":"cebpf4jnsgd1na2vs0mg"},{"bike_id":"ad9a233d-7fa9-4124-9034-b1a8ddc1c8f3","system_id":"levelo_inurba_marseille","lat":43.23177,"lon":5.39985,"is_reserved":false,"is_disabled":false,"rental_uris":{"android":"levelo://app?vid=ad9a233d-7fa9-4124-9034-b1a8ddc1c8f3","ios":"levelo://app?vid=ad9a233d-7fa9-4124-9034-b1a8ddc1c8f3"},"vehicle_type_id":"4","last_reported":1743296069,"current_range_meters":5600,"station_id":"ce4bhn12rcd13ifvqgqg","pricing_plan_id":"cebpf4jnsgd1na2vs0mg"},{"bike_id":"01fc88c5-2547-40eb-920a-dd733fd4bdf9","system_id":"levelo_inurba_marseille","lat":43.28726,"lon":5.37925,"is_reserved":false,"is_disabled":false,"rental_uris":{"android":"levelo://app?vid=01fc88c5-2547-40eb-920a-dd733fd4bdf9","ios":"levelo://app?vid=01fc88c5-2547-40eb-920a-dd733fd4bdf9"},"vehicle_type_id":"4","last_reported":1743296069,"current_range_meters":5600,"station_id":"ce4bh9p2rcd13ifvqec0","pricing_plan_id":"cebpf4jnsgd1na2vs0mg"},{"bike_id":"7a600c4f-0a3b-4d61-9074-b03702040c20","system_id":"levelo_inurba_marseille","lat":43.29281,"lon":5.40115,"is_reserved":false,"is_disabled":false,"rental_uris":{"android":"levelo://app?vid=7a600c4f-0a3b-4d61-9074-b03702040c20","ios":"levelo://app?vid=7a600c4f-0a3b-4d61-9074-b03702040c20"},"vehicle_type_id":"4","last_reported":1743296069,"current_range_meters":5600,"station_id":"ce4bh312rcd13ifvqdk0","pricing_plan_id":"cebpf4jnsgd1na2vs0mg"},{"bike_id":"2c4fbcdd-bf0d-4aac-971b-e352d18fc745","system_id":"levelo_inurba_marseille","lat":43.28361,"lon":5.38622,"is_reserved":false,"is_disabled":false,"rental_uris":{"android":"levelo://app?vid=2c4fbcdd-bf0d-4aac-971b-e352d18fc745","ios":"levelo://app?vid=2c4fbcdd-bf0d-4aac-971b-e352d18fc745"},"vehicle_type_id":"4","last_reported":1743296069,"current_range_meters":6000,"station_id":"ce4bh492rcd13ifvqdvg","pricing_plan_id":"cebpf4jnsgd1na2vs0mg"},{"bike_id":"43d3f610-2ea9-4eda-a4c8-e3f9706bb87c","system_id":"levelo_inurba_marseille","lat":43.30398,"lon":5.37342,"is_reserved":false,"is_disabled":false,"rental_uris":{"android":"levelo://app?vid=43d3f610-2ea9-4eda-a4c8-e3f9706bb87c","ios":"levelo://app?vid=43d3f610-2ea9-4eda-a4c8-e3f9706bb87c"},"vehicle_type_id":"4","last_reported":1743296069,"current_range_meters":6000,"station_id":"","pricing_plan_id":"cebpf4jnsgd1na2vs0mg"},{"bike_id":"cd2dc4de-70a1-432b-8900-303cf935d2f7","system_id":"levelo_inurba_marseille","lat":43.2482,"lon":5.37455,"is_reserved":false,"is_disabled":false,"rental_uris":{"android":"levelo://app?vid=cd2dc4de-70a1-432b-8900-303cf935d2f7","ios":"levelo://app?vid=cd2dc4de-70a1-432b-8900-303cf935d2f7"},"vehicle_type_id":"4","last_reported":1743296069,"current_range_meters":6000,"station_id":"ce4bhgh2rcd13ifvqfb0","pricing_plan_id":"cebpf4jnsgd1na2vs0mg"},{"bike_id":"6082a6d8-29f3-4441-bd82-d0f95ead75d7","system_id":"levelo_inurba_marseille","lat":43.231865,"lon":5.35557,"is_reserved":false,"is_disabled":false,"rental_uris":{"android":"levelo://app?vid=6082a6d8-29f3-4441-bd82-d0f95ead75d7","ios":"levelo://app?vid=6082a6d8-29f3-4441-bd82-d0f95ead75d7"},"vehicle_type_id":"4","last_reported":1743296069,"current_range_meters":6400,"station_id":"ce4bhu92rcd13ifvqi70","pricing_plan_id":"cebpf4jnsgd1na2vs0mg"},{"bike_id":"91a70422-50ce-459e-8e0b-694a33e948e1","system_id":"levelo_inurba_marseille","lat":43.284097,"lon":5.375033,"is_reserved":false,"is_disabled":false,"rental_uris":{"android":"levelo://app?vid=91a70422-50ce-459e-8e0b-694a33e948e1","ios":"levelo://app?vid=91a70422-50ce-459e-8e0b-694a33e948e1"},"vehicle_type_id":"4","last_reported":1743296069,"current_range_meters":6400,"station_id":"ce4bh412rcd13ifvqds0","pricing_plan_id":"cebpf4jnsgd1na2vs0mg"},{"bike_id":"5031addb-1ed7-4e87-aab7-26eafc1c2aba","system_id":"levelo_inurba_marseille","lat":43.3132,"lon":5.39704,"is_reserved":false,"is_disabled":false,"rental_uris":{"android":"levelo://app?vid=5031addb-1ed7-4e87-aab7-26eafc1c2aba","ios":"levelo://app?vid=5031addb-1ed7-4e87-aab7-26eafc1c2aba"},"vehicle_type_id":"4","last_reported":1743296069,"current_range_meters":6400,"station_id":"ce4bgvp2rcd13ifvqcu0","pricing_plan_id":"cebpf4jnsgd1na2vs0mg"},{"bike_id":"fcb82bc0-f4ee-498d-88ba-7328f037360b","system_id":"levelo_inurba_marseille","lat":43.30644,"lon":5.40094,"is_reserved":false,"is_disabled":false,"rental_uris":{"android":"levelo://app?vid=fcb82bc0-f4ee-498d-88ba-7328f037360b","ios":"levelo://app?vid=fcb82bc0-f4ee-498d-88ba-7328f037360b"},"vehicle_type_id":"4","last_reported":1743296069,"current_range_meters":4400,"station_id":"ce4bh112rcd13ifvqda0","pricing_plan_id":"cebpf4jnsgd1na2vs0mg"},{"bike_id":"c876bfe7-06b5-4ac1-8fc7-afa4c91f62e6","system_id":"levelo_inurba_marseille","lat":43.262083,"lon":5.374438,"is_reserved":false,"is_disabled":false,"rental_uris":{"android":"levelo://app?vid=c876bfe7-06b5-4ac1-8fc7-afa4c91f62e6","ios":"levelo://app?vid=c876bfe7-06b5-4ac1-8fc7-afa4c91f62e6"},"vehicle_type_id":"4","last_reported":1743296069,"current_range_meters":6400,"station_id":"ce4bhgp2rcd13ifvqfc0","pricing_plan_id":"cebpf4jnsgd1na2vs0mg"},{"bike_id":"d5ffff0a-47db-470d-a1ce-99a37bfcd090","system_id":"levelo_inurba_marseille","lat":43.28625,"lon":5.35096,"is_reserved":false,"is_disabled":false,"rental_uris":{"android":"levelo://app?vid=d5ffff0a-47db-470d-a1ce-99a37bfcd090","ios":"levelo://app?vid=d5ffff0a-47db-470d-a1ce-99a37bfcd090"},"vehicle_type_id":"4","last_reported":1743296069,"current_range_meters":6400,"station_id":"ce4bhch2rcd13ifvqeug","pricing_plan_id":"cebpf4jnsgd1na2vs0mg"},{"bike_id":"e63ebc96-4cda-4588-aeed-ac1fbc8ba9de","system_id":"levelo_inurba_marseille","lat":43.24814,"lon":5.37455,"is_reserved":false,"is_disabled":false,"rental_uris":{"android":"levelo://app?vid=e63ebc96-4cda-4588-aeed-ac1fbc8ba9de","ios":"levelo://app?vid=e63ebc96-4cda-4588-aeed-ac1fbc8ba9de"},"vehicle_type_id":"4","last_reported":1743296069,"current_range_meters":6400,"station_id":"ce4bhgh2rcd13ifvqfb0","pricing_plan_id":"cebpf4jnsgd1na2vs0mg"},{"bike_id":"4777850e-a840-44f2-a6a5-fd44a1ac41d3","system_id":"levelo_inurba_marseille","lat":43.28708,"lon":5.39997,"is_reserved":false,"is_disabled":true,"rental_uris":{"android":"levelo://app?vid=4777850e-a840-44f2-a6a5-fd44a1ac41d3","ios":"levelo://app?vid=4777850e-a840-44f2-a6a5-fd44a1ac41d3"},"vehicle_type_id":"4","last_reported":1743296069,"current_range_meters":6800,"station_id":"ce4bho92rcd13ifvqh3g","pricing_plan_id":"cebpf4jnsgd1na2vs0mg"},{"bike_id":"983c4c9f-ee1a-4d13-8ce7-bfd36c479f46","system_id":"levelo_inurba_marseille","lat":43.24169,"lon":5.36405,"is_reserved":false,"is_disabled":false,"rental_uris":{"android":"levelo://app?vid=983c4c9f-ee1a-4d13-8ce7-bfd36c479f46","ios":"levelo://app?vid=983c4c9f-ee1a-4d13-8ce7-bfd36c479f46"},"vehicle_type_id":"4","last_reported":1743296069,"current_range_meters":6800,"station_id":"cpo36qri1sfpv3e86is0","pricing_plan_id":"cebpf4jnsgd1na2vs0mg"},{"bike_id":"c22c38ac-cdc7-4323-bc60-ffc2c0247aa6","system_id":"levelo_inurba_marseille","lat":43.31321,"lon":5.39691,"is_reserved":false,"is_disabled":false,"rental_uris":{"android":"levelo://app?vid=c22c38ac-cdc7-4323-bc60-ffc2c0247aa6","ios":"levelo://app?vid=c22c38ac-cdc7-4323-bc60-ffc2c0247aa6"},"vehicle_type_id":"4","last_reported":1743296069,"current_range_meters":6800,"station_id":"ce4bgvp2rcd13ifvqcu0","pricing_plan_id":"cebpf4jnsgd1na2vs0mg"},{"bike_id":"e2bd22f6-26db-4ce4-b3f3-5f95b865b065","system_id":"levelo_inurba_marseille","lat":43.284121,"lon":5.375093,"is_reserved":false,"is_disabled":false,"rental_uris":{"android":"levelo://app?vid=e2bd22f6-26db-4ce4-b3f3-5f95b865b065","ios":"levelo://app?vid=e2bd22f6-26db-4ce4-b3f3-5f95b865b065"},"vehicle_type_id":"4","last_reported":1743296069,"current_range_meters":6800,"station_id":"ce4bh692rcd13ifvqe90","pricing_plan_id":"cebpf4jnsgd1na2vs0mg"},{"bike_id":"865a02c7-239d-4c4a-8242-4ce424cbd659","system_id":"levelo_inurba_marseille","lat":43.29834,"lon":5.39724,"is_reserved":false,"is_disabled":false,"rental_uris":{"android":"levelo://app?vid=865a02c7-239d-4c4a-8242-4ce424cbd659","ios":"levelo://app?vid=865a02c7-239d-4c4a-8242-4ce424cbd659"},"vehicle_type_id":"4","last_reported":1743296069,"current_range_meters":6800,"station_id":"ce4bh0h2rcd13ifvqd50","pricing_plan_id":"cebpf4jnsgd1na2vs0mg"},{"bike_id":"02ab26d1-cda8-4a6e-b5cd-f0b471ba00de","system_id":"levelo_inurba_marseille","lat":43.2314,"lon":5.43719,"is_reserved":false,"is_disabled":false,"rental_uris":{"android":"levelo://app?vid=02ab26d1-cda8-4a6e-b5cd-f0b471ba00de","ios":"levelo://app?vid=02ab26d1-cda8-4a6e-b5cd-f0b471ba00de"},"vehicle_type_id":"4","last_reported":1743296069,"current_range_meters":6800,"station_id":"ce4bhmp2rcd13ifvqgog","pricing_plan_id":"cebpf4jnsgd1na2vs0mg"},{"bike_id":"388e9556-019a-4b4b-8ff4-37bbffabc80a","system_id":"levelo_inurba_marseille","lat":43.31743,"lon":5.39028,"is_reserved":false,"is_disabled":false,"rental_uris":{"android":"levelo://app?vid=388e9556-019a-4b4b-8ff4-37bbffabc80a","ios":"levelo://app?vid=388e9556-019a-4b4b-8ff4-37bbffabc80a"},"vehicle_type_id":"4","last_reported":1743296069,"current_range_meters":6800,"station_id":"ce4bhqp2rcd13ifvqhng","pricing_plan_id":"cebpf4jnsgd1na2vs0mg"},{"bike_id":"0558bc66-2825-46b4-8c35-dfa19eca05b8","system_id":"levelo_inurba_marseille","lat":43.243966,"lon":5.370568,"is_reserved":false,"is_disabled":false,"rental_uris":{"android":"levelo://app?vid=0558bc66-2825-46b4-8c35-dfa19eca05b8","ios":"levelo://app?vid=0558bc66-2825-46b4-8c35-dfa19eca05b8"},"vehicle_type_id":"4","last_reported":1743296069,"current_range_meters":6800,"station_id":"ce4bhhh2rcd13ifvqfk0","pricing_plan_id":"cebpf4jnsgd1na2vs0mg"},{"bike_id":"82548d6d-17d8-4376-93fb-a38ba1616289","system_id":"levelo_inurba_marseille","lat":43.28479,"lon":5.38405,"is_reserved":false,"is_disabled":false,"rental_uris":{"android":"levelo://app?vid=82548d6d-17d8-4376-93fb-a38ba1616289","ios":"levelo://app?vid=82548d6d-17d8-4376-93fb-a38ba1616289"},"vehicle_type_id":"4","last_reported":1743296069,"current_range_meters":6800,"station_id":"ce4bh512rcd13ifvqe3g","pricing_plan_id":"cebpf4jnsgd1na2vs0mg"},{"bike_id":"d110ea9c-afe8-47f1-b008-e66bc6e44a55","system_id":"levelo_inurba_marseille","lat":43.2841,"lon":5.35001,"is_reserved":false,"is_disabled":false,"rental_uris":{"android":"levelo://app?vid=d110ea9c-afe8-47f1-b008-e66bc6e44a55","ios":"levelo://app?vid=d110ea9c-afe8-47f1-b008-e66bc6e44a55"},"vehicle_type_id":"4","last_reported":1743296069,"current_range_meters":7200,"station_id":"ce4bhbh2rcd13ifvqepg","pricing_plan_id":"cebpf4jnsgd1na2vs0mg"},{"bike_id":"ef465bf1-9392-4211-b499-ecd2bf1a179f","system_id":"levelo_inurba_marseille","lat":43.28091,"lon":5.44172,"is_reserved":false,"is_disabled":false,"rental_uris":{"android":"levelo://app?vid=ef465bf1-9392-4211-b499-ecd2bf1a179f","ios":"levelo://app?vid=ef465bf1-9392-4211-b499-ecd2bf1a179f"},"vehicle_type_id":"4","last_reported":1743296069,"current_range_meters":7200,"station_id":"","pricing_plan_id":"cebpf4jnsgd1na2vs0mg"},{"bike_id":"b5ace6c6-32e3-486d-9744-efb1ce0dfa9d","system_id":"levelo_inurba_marseille","lat":43.28905,"lon":5.37099,"is_reserved":false,"is_disabled":true,"rental_uris":{"android":"levelo://app?vid=b5ace6c6-32e3-486d-9744-efb1ce0dfa9d","ios":"levelo://app?vid=b5ace6c6-32e3-486d-9744-efb1ce0dfa9d"},"vehicle_type_id":"4","last_reported":1743296069,"current_range_meters":7200,"station_id":"","pricing_plan_id":"cebpf4jnsgd1na2vs0mg"},{"bike_id":"fa4a63e6-25c4-479b-ad3a-ab2e6eaa18b0","system_id":"levelo_inurba_marseille","lat":43.29555,"lon":5.42291,"is_reserved":false,"is_disabled":false,"rental_uris":{"android":"levelo://app?vid=fa4a63e6-25c4-479b-ad3a-ab2e6eaa18b0","ios":"levelo://app?vid=fa4a63e6-25c4-479b-ad3a-ab2e6eaa18b0"},"vehicle_type_id":"4","last_reported":1743296069,"current_range_meters":7200,"station_id":"ce4bhph2rcd13ifvqhdg","pricing_plan_id":"cebpf4jnsgd1na2vs0mg"},{"bike_id":"8d6abdef-27aa-4d1b-9448-656a6296f19d","system_id":"levelo_inurba_marseille","lat":43.24188,"lon":5.39733,"is_reserved":false,"is_disabled":false,"rental_uris":{"android":"levelo://app?vid=8d6abdef-27aa-4d1b-9448-656a6296f19d","ios":"levelo://app?vid=8d6abdef-27aa-4d1b-9448-656a6296f19d"},"vehicle_type_id":"4","last_reported":1743296069,"current_range_meters":7200,"station_id":"ce4bhn12rcd13ifvqgpg","pricing_plan_id":"cebpf4jnsgd1na2vs0mg"},{"bike_id":"5fa0b5be-1c83-4f3d-9513-1362bbe52f36","system_id":"levelo_inurba_marseille","lat":43.30272,"lon":5.40074,"is_reserved":false,"is_disabled":false,"rental_uris":{"android":"levelo://app?vid=5fa0b5be-1c83-4f3d-9513-1362bbe52f36","ios":"levelo://app?vid=5fa0b5be-1c83-4f3d-9513-1362bbe52f36"},"vehicle_type_id":"4","last_reported":1743296069,"current_range_meters":7200,"station_id":"ce4bgvh2rcd13ifvqcs0","pricing_plan_id":"cebpf4jnsgd1na2vs0mg"},{"bike_id":"d0e312ef-16fe-4ace-a864-6003e49561f0","system_id":"levelo_inurba_marseille","lat":43.3237,"lon":5.38878,"is_reserved":false,"is_disabled":false,"rental_uris":{"android":"levelo://app?vid=d0e312ef-16fe-4ace-a864-6003e49561f0","ios":"levelo://app?vid=d0e312ef-16fe-4ace-a864-6003e49561f0"},"vehicle_type_id":"4","last_reported":1743296069,"current_range_meters":7200,"station_id":"ce4bhqp2rcd13ifvqhog","pricing_plan_id":"cebpf4jnsgd1na2vs0mg"},{"bike_id":"05eaba65-9be2-411f-9dbe-96a6b6d53829","system_id":"levelo_inurba_marseille","lat":43.29215,"lon":5.39324,"is_reserved":false,"is_disabled":false,"rental_uris":{"android":"levelo://app?vid=05eaba65-9be2-411f-9dbe-96a6b6d53829","ios":"levelo://app?vid=05eaba65-9be2-411f-9dbe-96a6b6d53829"},"vehicle_type_id":"4","last_reported":1743296069,"current_range_meters":7200,"station_id":"ce4bh192rcd13ifvqdd0","pricing_plan_id":"cebpf4jnsgd1na2vs0mg"},{"bike_id":"d14cdd1e-f0b3-48a5-be5e-77128af69a2d","system_id":"levelo_inurba_marseille","lat":43.286407,"lon":5.351207,"is_reserved":false,"is_disabled":false,"rental_uris":{"android":"levelo://app?vid=d14cdd1e-f0b3-48a5-be5e-77128af69a2d","ios":"levelo://app?vid=d14cdd1e-f0b3-48a5-be5e-77128af69a2d"},"vehicle_type_id":"4","last_reported":1743296069,"current_range_meters":7200,"station_id":"ce4bhch2rcd13ifvqeug","pricing_plan_id":"cebpf4jnsgd1na2vs0mg"},{"bike_id":"e4614adf-59ca-49c9-9f29-fb2629aacd37","system_id":"levelo_inurba_marseille","lat":43.28613,"lon":5.35099,"is_reserved":false,"is_disabled":false,"rental_uris":{"android":"levelo://app?vid=e4614adf-59ca-49c9-9f29-fb2629aacd37","ios":"levelo://app?vid=e4614adf-59ca-49c9-9f29-fb2629aacd37"},"vehicle_type_id":"4","last_reported":1743296069,"current_range_meters":7200,"station_id":"ce4bhch2rcd13ifvqeug","pricing_plan_id":"cebpf4jnsgd1na2vs0mg"},{"bike_id":"86402da5-f9ef-43b6-a281-06ce7c4c3160","system_id":"levelo_inurba_marseille","lat":43.2862,"lon":5.35101,"is_reserved":false,"is_disabled":false,"rental_uris":{"android":"levelo://app?vid=86402da5-f9ef-43b6-a281-06ce7c4c3160","ios":"levelo://app?vid=86402da5-f9ef-43b6-a281-06ce7c4c3160"},"vehicle_type_id":"4","last_reported":1743296069,"current_range_meters":8000,"station_id":"ce4bhch2rcd13ifvqeug","pricing_plan_id":"cebpf4jnsgd1na2vs0mg"},{"bike_id":"1cab7f14-7c85-48fc-9930-4b82ae6122a6","system_id":"levelo_inurba_marseille","lat":43.29325,"lon":5.36786,"is_reserved":false,"is_disabled":false,"rental_uris":{"android":"levelo://app?vid=1cab7f14-7c85-48fc-9930-4b82ae6122a6","ios":"levelo://app?vid=1cab7f14-7c85-48fc-9930-4b82ae6122a6"},"vehicle_type_id":"4","last_reported":1743296069,"current_range_meters":8000,"station_id":"ce4bhbp2rcd13ifvqesg","pricing_plan_id":"cebpf4jnsgd1na2vs0mg"},{"bike_id":"b1ecd358-38ec-4753-8af1-9b87454b444a","system_id":"levelo_inurba_marseille","lat":43.28637,"lon":5.35085,"is_reserved":false,"is_disabled":false,"rental_uris":{"android":"levelo://app?vid=b1ecd358-38ec-4753-8af1-9b87454b444a","ios":"levelo://app?vid=b1ecd358-38ec-4753-8af1-9b87454b444a"},"vehicle_type_id":"4","last_reported":1743296069,"current_range_meters":8000,"station_id":"ce4bhch2rcd13ifvqeug","pricing_plan_id":"cebpf4jnsgd1na2vs0mg"},{"bike_id":"0f9fc322-7a0f-4e30-9d4f-f42e9d546b3b","system_id":"levelo_inurba_marseille","lat":43.30558,"lon":5.38416,"is_reserved":false,"is_disabled":true,"rental_uris":{"android":"levelo://app?vid=0f9fc322-7a0f-4e30-9d4f-f42e9d546b3b","ios":"levelo://app?vid=0f9fc322-7a0f-4e30-9d4f-f42e9d546b3b"},"vehicle_type_id":"4","last_reported":1743296069,"current_range_meters":8000,"station_id":"ce4bgg92rcd13ifvqb30","pricing_plan_id":"cebpf4jnsgd1na2vs0mg"},{"bike_id":"a36a9ec1-537e-4091-9d7a-dd0444d14e10","system_id":"levelo_inurba_marseille","lat":43.24819,"lon":5.3746,"is_reserved":false,"is_disabled":false,"rental_uris":{"android":"levelo://app?vid=a36a9ec1-537e-4091-9d7a-dd0444d14e10","ios":"levelo://app?vid=a36a9ec1-537e-4091-9d7a-dd0444d14e10"},"vehicle_type_id":"4","last_reported":1743296069,"current_range_meters":8000,"station_id":"ce4bhgh2rcd13ifvqfb0","pricing_plan_id":"cebpf4jnsgd1na2vs0mg"},{"bike_id":"f8b97fd5-9566-4b1b-bcbe-5d37c1f690bf","system_id":"levelo_inurba_marseille","lat":43.28936,"lon":5.36633,"is_reserved":false,"is_disabled":false,"rental_uris":{"android":"levelo://app?vid=f8b97fd5-9566-4b1b-bcbe-5d37c1f690bf","ios":"levelo://app?vid=f8b97fd5-9566-4b1b-bcbe-5d37c1f690bf"},"vehicle_type_id":"4","last_reported":1743296069,"current_range_meters":8000,"station_id":"ce4bhap2rcd13ifvqek0","pricing_plan_id":"cebpf4jnsgd1na2vs0mg"},{"bike_id":"f2f355ce-53d7-4deb-9775-ca1cf16c5928","system_id":"levelo_inurba_marseille","lat":43.29296,"lon":5.3746,"is_reserved":false,"is_disabled":false,"rental_uris":{"android":"levelo://app?vid=f2f355ce-53d7-4deb-9775-ca1cf16c5928","ios":"levelo://app?vid=f2f355ce-53d7-4deb-9775-ca1cf16c5928"},"vehicle_type_id":"4","last_reported":1743296069,"current_range_meters":8000,"station_id":"ce4bgi12rcd13ifvqb70","pricing_plan_id":"cebpf4jnsgd1na2vs0mg"},{"bike_id":"b01261b3-e365-4d21-b73f-130383da585f","system_id":"levelo_inurba_marseille","lat":43.30961,"lon":5.3903,"is_reserved":false,"is_disabled":false,"rental_uris":{"android":"levelo://app?vid=b01261b3-e365-4d21-b73f-130383da585f","ios":"levelo://app?vid=b01261b3-e365-4d21-b73f-130383da585f"},"vehicle_type_id":"4","last_reported":1743296069,"current_range_meters":8000,"station_id":"ce4bgup2rcd13ifvqco0","pricing_plan_id":"cebpf4jnsgd1na2vs0mg"},{"bike_id":"8146fa8a-bb85-41b3-a961-78ddb70e9b3f","system_id":"levelo_inurba_marseille","lat":43.2862,"lon":5.3511,"is_reserved":false,"is_disabled":false,"rental_uris":{"android":"levelo://app?vid=8146fa8a-bb85-41b3-a961-78ddb70e9b3f","ios":"levelo://app?vid=8146fa8a-bb85-41b3-a961-78ddb70e9b3f"},"vehicle_type_id":"4","last_reported":1743296069,"current_range_meters":8000,"station_id":"ce4bhch2rcd13ifvqeug","pricing_plan_id":"cebpf4jnsgd1na2vs0mg"},{"bike_id":"3be5473a-282d-4aec-a908-2922496a2eac","system_id":"levelo_inurba_marseille","lat":43.29909,"lon":5.3748,"is_reserved":false,"is_disabled":false,"rental_uris":{"android":"levelo://app?vid=3be5473a-282d-4aec-a908-2922496a2eac","ios":"levelo://app?vid=3be5473a-282d-4aec-a908-2922496a2eac"},"vehicle_type_id":"4","last_reported":1743296069,"current_range_meters":8000,"station_id":"ce4bgjh2rcd13ifvqbg0","pricing_plan_id":"cebpf4jnsgd1na2vs0mg"},{"bike_id":"1a8ec8fe-cd0f-44f4-9a76-dfc354a60ccc","system_id":"levelo_inurba_marseille","lat":43.23951,"lon":5.36643,"is_reserved":false,"is_disabled":false,"rental_uris":{"android":"levelo://app?vid=1a8ec8fe-cd0f-44f4-9a76-dfc354a60ccc","ios":"levelo://app?vid=1a8ec8fe-cd0f-44f4-9a76-dfc354a60ccc"},"vehicle_type_id":"4","last_reported":1743296069,"current_range_meters":8000,"station_id":"ce4bhi12rcd13ifvqfp0","pricing_plan_id":"cebpf4jnsgd1na2vs0mg"},{"bike_id":"bccdc0c0-20a2-4696-ad74-263cc8bc333c","system_id":"levelo_inurba_marseille","lat":43.2806,"lon":5.36927,"is_reserved":false,"is_disabled":false,"rental_uris":{"android":"levelo://app?vid=bccdc0c0-20a2-4696-ad74-263cc8bc333c","ios":"levelo://app?vid=bccdc0c0-20a2-4696-ad74-263cc8bc333c"},"vehicle_type_id":"4","last_reported":1743296069,"current_range_meters":8000,"station_id":"ce4bha12rcd13ifvqef0","pricing_plan_id":"cebpf4jnsgd1na2vs0mg"},{"bike_id":"96fa1290-e699-40b9-9109-379d3b77c6fb","system_id":"levelo_inurba_marseille","lat":43.33732,"lon":5.39187,"is_reserved":false,"is_disabled":false,"rental_uris":{"android":"levelo://app?vid=96fa1290-e699-40b9-9109-379d3b77c6fb","ios":"levelo://app?vid=96fa1290-e699-40b9-9109-379d3b77c6fb"},"vehicle_type_id":"4","last_reported":1743296069,"current_range_meters":8400,"station_id":"ce4bhr92rcd13ifvqhsg","pricing_plan_id":"cebpf4jnsgd1na2vs0mg"},{"bike_id":"e1197686-40bb-4955-b683-e80acd2f6914","system_id":"levelo_inurba_marseille","lat":43.255,"lon":5.37648,"is_reserved":false,"is_disabled":false,"rental_uris":{"android":"levelo://app?vid=e1197686-40bb-4955-b683-e80acd2f6914","ios":"levelo://app?vid=e1197686-40bb-4955-b683-e80acd2f6914"},"vehicle_type_id":"4","last_reported":1743296069,"current_range_meters":8400,"station_id":"ce4bhh12rcd13ifvqff0","pricing_plan_id":"cebpf4jnsgd1na2vs0mg"},{"bike_id":"296d0da0-4cc4-40ab-acd1-7c240f5eee02","system_id":"levelo_inurba_marseille","lat":43.30577,"lon":5.37684,"is_reserved":false,"is_disabled":false,"rental_uris":{"android":"levelo://app?vid=296d0da0-4cc4-40ab-acd1-7c240f5eee02","ios":"levelo://app?vid=296d0da0-4cc4-40ab-acd1-7c240f5eee02"},"vehicle_type_id":"4","last_reported":1743296069,"current_range_meters":8400,"station_id":"","pricing_plan_id":"cebpf4jnsgd1na2vs0mg"},{"bike_id":"4b2323ae-94b8-41f7-9062-4d9bd4bd549e","system_id":"levelo_inurba_marseille","lat":43.24186,"lon":5.36386,"is_reserved":false,"is_disabled":false,"rental_uris":{"android":"levelo://app?vid=4b2323ae-94b8-41f7-9062-4d9bd4bd549e","ios":"levelo://app?vid=4b2323ae-94b8-41f7-9062-4d9bd4bd549e"},"vehicle_type_id":"4","last_reported":1743296069,"current_range_meters":8400,"station_id":"cpo36qri1sfpv3e86is0","pricing_plan_id":"cebpf4jnsgd1na2vs0mg"},{"bike_id":"e6967797-29d0-4947-88e5-61bc42de65df","system_id":"levelo_inurba_marseille","lat":43.28624,"lon":5.35101,"is_reserved":false,"is_disabled":false,"rental_uris":{"android":"levelo://app?vid=e6967797-29d0-4947-88e5-61bc42de65df","ios":"levelo://app?vid=e6967797-29d0-4947-88e5-61bc42de65df"},"vehicle_type_id":"4","last_reported":1743296069,"current_range_meters":8400,"station_id":"ce4bhch2rcd13ifvqeug","pricing_plan_id":"cebpf4jnsgd1na2vs0mg"},{"bike_id":"e13c5804-8cfa-4e19-af0d-8fc5e4ec2833","system_id":"levelo_inurba_marseille","lat":43.31094,"lon":5.38356,"is_reserved":false,"is_disabled":false,"rental_uris":{"android":"levelo://app?vid=e13c5804-8cfa-4e19-af0d-8fc5e4ec2833","ios":"levelo://app?vid=e13c5804-8cfa-4e19-af0d-8fc5e4ec2833"},"vehicle_type_id":"4","last_reported":1743296069,"current_range_meters":8400,"station_id":"ce4bgv92rcd13ifvqcr0","pricing_plan_id":"cebpf4jnsgd1na2vs0mg"},{"bike_id":"f6e780c4-90a9-4c52-bdda-724b78ccf213","system_id":"levelo_inurba_marseille","lat":43.28718,"lon":5.37933,"is_reserved":false,"is_disabled":false,"rental_uris":{"android":"levelo://app?vid=f6e780c4-90a9-4c52-bdda-724b78ccf213","ios":"levelo://app?vid=f6e780c4-90a9-4c52-bdda-724b78ccf213"},"vehicle_type_id":"4","last_reported":1743296069,"current_range_meters":8400,"station_id":"ce4bh9p2rcd13ifvqec0","pricing_plan_id":"cebpf4jnsgd1na2vs0mg"},{"bike_id":"4586e23a-2d77-446c-8e8c-a15b6ae5de02","system_id":"levelo_inurba_marseille","lat":43.28621,"lon":5.38102,"is_reserved":false,"is_disabled":false,"rental_uris":{"android":"levelo://app?vid=4586e23a-2d77-446c-8e8c-a15b6ae5de02","ios":"levelo://app?vid=4586e23a-2d77-446c-8e8c-a15b6ae5de02"},"vehicle_type_id":"4","last_reported":1743296069,"current_range_meters":8400,"station_id":"","pricing_plan_id":"cebpf4jnsgd1na2vs0mg"},{"bike_id":"3b9e2dbb-dda4-4ed5-8aef-7e67e6437f0d","system_id":"levelo_inurba_marseille","lat":43.33351,"lon":5.40112,"is_reserved":false,"is_disabled":false,"rental_uris":{"android":"levelo://app?vid=3b9e2dbb-dda4-4ed5-8aef-7e67e6437f0d","ios":"levelo://app?vid=3b9e2dbb-dda4-4ed5-8aef-7e67e6437f0d"},"vehicle_type_id":"4","last_reported":1743296069,"current_range_meters":8400,"station_id":"","pricing_plan_id":"cebpf4jnsgd1na2vs0mg"},{"bike_id":"4cc81884-de11-499d-854b-434327af9601","system_id":"levelo_inurba_marseille","lat":43.28651,"lon":5.36324,"is_reserved":false,"is_disabled":false,"rental_uris":{"android":"levelo://app?vid=4cc81884-de11-499d-854b-434327af9601","ios":"levelo://app?vid=4cc81884-de11-499d-854b-434327af9601"},"vehicle_type_id":"4","last_reported":1743296069,"current_range_meters":8400,"station_id":"ce4bhah2rcd13ifvqej0","pricing_plan_id":"cebpf4jnsgd1na2vs0mg"},{"bike_id":"800af589-15c1-40b3-942b-665ecfd77e8d","system_id":"levelo_inurba_marseille","lat":43.31118,"lon":5.37772,"is_reserved":false,"is_disabled":false,"rental_uris":{"android":"levelo://app?vid=800af589-15c1-40b3-942b-665ecfd77e8d","ios":"levelo://app?vid=800af589-15c1-40b3-942b-665ecfd77e8d"},"vehicle_type_id":"4","last_reported":1743296069,"current_range_meters":8800,"station_id":"ce4bgt92rcd13ifvqcg0","pricing_plan_id":"cebpf4jnsgd1na2vs0mg"},{"bike_id":"709512d8-f54e-4c6a-88d5-c3d45697b58a","system_id":"levelo_inurba_marseille","lat":43.29968,"lon":5.413,"is_reserved":false,"is_disabled":false,"rental_uris":{"android":"levelo://app?vid=709512d8-f54e-4c6a-88d5-c3d45697b58a","ios":"levelo://app?vid=709512d8-f54e-4c6a-88d5-c3d45697b58a"},"vehicle_type_id":"4","last_reported":1743296069,"current_range_meters":8800,"station_id":"ce4bhp12rcd13ifvqh9g","pricing_plan_id":"cebpf4jnsgd1na2vs0mg"},{"bike_id":"486510c6-611e-4a9c-8416-236802eaa658","system_id":"levelo_inurba_marseille","lat":43.30654,"lon":5.40079,"is_reserved":false,"is_disabled":false,"rental_uris":{"android":"levelo://app?vid=486510c6-611e-4a9c-8416-236802eaa658","ios":"levelo://app?vid=486510c6-611e-4a9c-8416-236802eaa658"},"vehicle_type_id":"4","last_reported":1743296069,"current_range_meters":8800,"station_id":"ce4bh112rcd13ifvqda0","pricing_plan_id":"cebpf4jnsgd1na2vs0mg"},{"bike_id":"5522e136-57a3-444a-ae22-63994983ead2","system_id":"levelo_inurba_marseille","lat":43.23151,"lon":5.4371,"is_reserved":false,"is_disabled":false,"rental_uris":{"android":"levelo://app?vid=5522e136-57a3-444a-ae22-63994983ead2","ios":"levelo://app?vid=5522e136-57a3-444a-ae22-63994983ead2"},"vehicle_type_id":"4","last_reported":1743296069,"current_range_meters":8800,"station_id":"ce4bhmp2rcd13ifvqgog","pricing_plan_id":"cebpf4jnsgd1na2vs0mg"},{"bike_id":"b98594d7-8128-4bc2-a9d4-f4c330986c65","system_id":"levelo_inurba_marseille","lat":43.23971,"lon":5.36624,"is_reserved":false,"is_disabled":false,"rental_uris":{"android":"levelo://app?vid=b98594d7-8128-4bc2-a9d4-f4c330986c65","ios":"levelo://app?vid=b98594d7-8128-4bc2-a9d4-f4c330986c65"},"vehicle_type_id":"4","last_reported":1743296069,"current_range_meters":8800,"station_id":"ce4bhi12rcd13ifvqfp0","pricing_plan_id":"cebpf4jnsgd1na2vs0mg"},{"bike_id":"0b1692c5-67c0-4a62-b8cb-04ffe0e0e9eb","system_id":"levelo_inurba_marseille","lat":43.2869,"lon":5.37402,"is_reserved":false,"is_disabled":false,"rental_uris":{"android":"levelo://app?vid=0b1692c5-67c0-4a62-b8cb-04ffe0e0e9eb","ios":"levelo://app?vid=0b1692c5-67c0-4a62-b8cb-04ffe0e0e9eb"},"vehicle_type_id":"4","last_reported":1743296069,"current_range_meters":8800,"station_id":"ce4bh3p2rcd13ifvqdq0","pricing_plan_id":"cebpf4jnsgd1na2vs0mg"},{"bike_id":"0db7fa48-aafe-40b9-92c9-930a237492e0","system_id":"levelo_inurba_marseille","lat":43.31238,"lon":5.36873,"is_reserved":false,"is_disabled":false,"rental_uris":{"android":"levelo://app?vid=0db7fa48-aafe-40b9-92c9-930a237492e0","ios":"levelo://app?vid=0db7fa48-aafe-40b9-92c9-930a237492e0"},"vehicle_type_id":"4","last_reported":1743296069,"current_range_meters":8800,"station_id":"ce4bgl92rcd13ifvqbq0","pricing_plan_id":"cebpf4jnsgd1na2vs0mg"},{"bike_id":"c7c7b51c-aab3-4ead-9e0e-a4587d157305","system_id":"levelo_inurba_marseille","lat":43.28573,"lon":5.39487,"is_reserved":false,"is_disabled":false,"rental_uris":{"android":"levelo://app?vid=c7c7b51c-aab3-4ead-9e0e-a4587d157305","ios":"levelo://app?vid=c7c7b51c-aab3-4ead-9e0e-a4587d157305"},"vehicle_type_id":"4","last_reported":1743296069,"current_range_meters":8800,"station_id":"ce4bh292rcd13ifvqdg0","pricing_plan_id":"cebpf4jnsgd1na2vs0mg"},{"bike_id":"8c0f6e3f-b370-4d64-ac55-96b0ff55a395","system_id":"levelo_inurba_marseille","lat":43.24411,"lon":5.37056,"is_reserved":false,"is_disabled":false,"rental_uris":{"android":"levelo://app?vid=8c0f6e3f-b370-4d64-ac55-96b0ff55a395","ios":"levelo://app?vid=8c0f6e3f-b370-4d64-ac55-96b0ff55a395"},"vehicle_type_id":"4","last_reported":1743296069,"current_range_meters":8800,"station_id":"ce4bhhh2rcd13ifvqfk0","pricing_plan_id":"cebpf4jnsgd1na2vs0mg"},{"bike_id":"ad5337c4-3de7-4298-9263-3a338221d764","system_id":"levelo_inurba_marseille","lat":43.30928,"lon":5.40139,"is_reserved":false,"is_disabled":false,"rental_uris":{"android":"levelo://app?vid=ad5337c4-3de7-4298-9263-3a338221d764","ios":"levelo://app?vid=ad5337c4-3de7-4298-9263-3a338221d764"},"vehicle_type_id":"4","last_reported":1743296069,"current_range_meters":8800,"station_id":"ce4bgvp2rcd13ifvqct0","pricing_plan_id":"cebpf4jnsgd1na2vs0mg"},{"bike_id":"5a3307a6-54ca-44bc-a5fd-ab80751e6464","system_id":"levelo_inurba_marseille","lat":43.23193,"lon":5.39989,"is_reserved":false,"is_disabled":true,"rental_uris":{"android":"levelo://app?vid=5a3307a6-54ca-44bc-a5fd-ab80751e6464","ios":"levelo://app?vid=5a3307a6-54ca-44bc-a5fd-ab80751e6464"},"vehicle_type_id":"4","last_reported":1743296069,"current_range_meters":8800,"station_id":"ce4bhn12rcd13ifvqgqg","pricing_plan_id":"cebpf4jnsgd1na2vs0mg"},{"bike_id":"a1b5a514-f0ef-42eb-b1a4-22dd30a86324","system_id":"levelo_inurba_marseille","lat":43.317552,"lon":5.390143,"is_reserved":false,"is_disabled":false,"rental_uris":{"android":"levelo://app?vid=a1b5a514-f0ef-42eb-b1a4-22dd30a86324","ios":"levelo://app?vid=a1b5a514-f0ef-42eb-b1a4-22dd30a86324"},"vehicle_type_id":"4","last_reported":1743296069,"current_range_meters":8800,"station_id":"ce4bhqp2rcd13ifvqhng","pricing_plan_id":"cebpf4jnsgd1na2vs0mg"},{"bike_id":"4b32355b-7cb2-4761-ac10-e7e10aa3ec76","system_id":"levelo_inurba_marseille","lat":43.24807,"lon":5.37448,"is_reserved":false,"is_disabled":false,"rental_uris":{"android":"levelo://app?vid=4b32355b-7cb2-4761-ac10-e7e10aa3ec76","ios":"levelo://app?vid=4b32355b-7cb2-4761-ac10-e7e10aa3ec76"},"vehicle_type_id":"4","last_reported":1743296069,"current_range_meters":9200,"station_id":"ce4bhgh2rcd13ifvqfb0","pricing_plan_id":"cebpf4jnsgd1na2vs0mg"},{"bike_id":"2babefe7-230c-4dd6-abf4-4247c7977333","system_id":"levelo_inurba_marseille","lat":43.30936,"lon":5.40141,"is_reserved":false,"is_disabled":false,"rental_uris":{"android":"levelo://app?vid=2babefe7-230c-4dd6-abf4-4247c7977333","ios":"levelo://app?vid=2babefe7-230c-4dd6-abf4-4247c7977333"},"vehicle_type_id":"4","last_reported":1743296069,"current_range_meters":9200,"station_id":"ce4bgvp2rcd13ifvqct0","pricing_plan_id":"cebpf4jnsgd1na2vs0mg"},{"bike_id":"0cc92472-d0e4-4683-99ec-a6dc9dd4a34d","system_id":"levelo_inurba_marseille","lat":43.27939,"lon":5.41044,"is_reserved":false,"is_disabled":false,"rental_uris":{"android":"levelo://app?vid=0cc92472-d0e4-4683-99ec-a6dc9dd4a34d","ios":"levelo://app?vid=0cc92472-d0e4-4683-99ec-a6dc9dd4a34d"},"vehicle_type_id":"4","last_reported":1743296069,"current_range_meters":9200,"station_id":"ce4bhnp2rcd13ifvqh0g","pricing_plan_id":"cebpf4jnsgd1na2vs0mg"},{"bike_id":"3a0c5bc9-b54e-4426-8ef4-f9c7a26c49cf","system_id":"levelo_inurba_marseille","lat":43.30933,"lon":5.40149,"is_reserved":false,"is_disabled":false,"rental_uris":{"android":"levelo://app?vid=3a0c5bc9-b54e-4426-8ef4-f9c7a26c49cf","ios":"levelo://app?vid=3a0c5bc9-b54e-4426-8ef4-f9c7a26c49cf"},"vehicle_type_id":"4","last_reported":1743296069,"current_range_meters":9200,"station_id":"ce4bgvp2rcd13ifvqct0","pricing_plan_id":"cebpf4jnsgd1na2vs0mg"},{"bike_id":"97c03575-1a99-42da-ab1d-f359ed466796","system_id":"levelo_inurba_marseille","lat":43.30118,"lon":5.39867,"is_reserved":false,"is_disabled":false,"rental_uris":{"android":"levelo://app?vid=97c03575-1a99-42da-ab1d-f359ed466796","ios":"levelo://app?vid=97c03575-1a99-42da-ab1d-f359ed466796"},"vehicle_type_id":"4","last_reported":1743296069,"current_range_meters":9200,"station_id":"ce4bh0h2rcd13ifvqd40","pricing_plan_id":"cebpf4jnsgd1na2vs0mg"},{"bike_id":"5dca16b0-0836-4d29-a112-b6ae5585b009","system_id":"levelo_inurba_marseille","lat":43.28614,"lon":5.3511,"is_reserved":false,"is_disabled":false,"rental_uris":{"android":"levelo://app?vid=5dca16b0-0836-4d29-a112-b6ae5585b009","ios":"levelo://app?vid=5dca16b0-0836-4d29-a112-b6ae5585b009"},"vehicle_type_id":"4","last_reported":1743296069,"current_range_meters":9200,"station_id":"ce4bhch2rcd13ifvqeug","pricing_plan_id":"cebpf4jnsgd1na2vs0mg"},{"bike_id":"8406ba74-8a1d-45d0-86b2-95af8bb669f0","system_id":"levelo_inurba_marseille","lat":43.29263,"lon":5.36849,"is_reserved":false,"is_disabled":false,"rental_uris":{"android":"levelo://app?vid=8406ba74-8a1d-45d0-86b2-95af8bb669f0","ios":"levelo://app?vid=8406ba74-8a1d-45d0-86b2-95af8bb669f0"},"vehicle_type_id":"4","last_reported":1743296069,"current_range_meters":9600,"station_id":"ce4bhbp2rcd13ifvqesg","pricing_plan_id":"cebpf4jnsgd1na2vs0mg"},{"bike_id":"d0ed36b4-3c5a-4da6-8fb4-955c321dd03a","system_id":"levelo_inurba_marseille","lat":43.27512,"lon":5.41008,"is_reserved":false,"is_disabled":false,"rental_uris":{"android":"levelo://app?vid=d0ed36b4-3c5a-4da6-8fb4-955c321dd03a","ios":"levelo://app?vid=d0ed36b4-3c5a-4da6-8fb4-955c321dd03a"},"vehicle_type_id":"4","last_reported":1743296069,"current_range_meters":9600,"station_id":"","pricing_plan_id":"cebpf4jnsgd1na2vs0mg"},{"bike_id":"7f752182-e4ed-42fc-8f04-cfbffe448954","system_id":"levelo_inurba_marseille","lat":43.28706,"lon":5.37937,"is_reserved":false,"is_disabled":false,"rental_uris":{"android":"levelo://app?vid=7f752182-e4ed-42fc-8f04-cfbffe448954","ios":"levelo://app?vid=7f752182-e4ed-42fc-8f04-cfbffe448954"},"vehicle_type_id":"4","last_reported":1743296069,"current_range_meters":9600,"station_id":"ce4bh9p2rcd13ifvqec0","pricing_plan_id":"cebpf4jnsgd1na2vs0mg"},{"bike_id":"49b5a4d5-2ce4-499c-95d5-119862a0acca","system_id":"levelo_inurba_marseille","lat":43.30902,"lon":5.3962,"is_reserved":false,"is_disabled":false,"rental_uris":{"android":"levelo://app?vid=49b5a4d5-2ce4-499c-95d5-119862a0acca","ios":"levelo://app?vid=49b5a4d5-2ce4-499c-95d5-119862a0acca"},"vehicle_type_id":"4","last_reported":1743296069,"current_range_meters":9600,"station_id":"ce4bh012rcd13ifvqcv0","pricing_plan_id":"cebpf4jnsgd1na2vs0mg"},{"bike_id":"9966a88a-dca6-4472-8469-e76b79f2f40b","system_id":"levelo_inurba_marseille","lat":43.30194,"lon":5.36632,"is_reserved":false,"is_disabled":false,"rental_uris":{"android":"levelo://app?vid=9966a88a-dca6-4472-8469-e76b79f2f40b","ios":"levelo://app?vid=9966a88a-dca6-4472-8469-e76b79f2f40b"},"vehicle_type_id":"4","last_reported":1743296069,"current_range_meters":9600,"station_id":"ce4bgrh2rcd13ifvqc8g","pricing_plan_id":"cebpf4jnsgd1na2vs0mg"},{"bike_id":"004ed55f-f985-4268-b523-9ed16ba4ea3b","system_id":"levelo_inurba_marseille","lat":43.29285,"lon":5.36832,"is_reserved":false,"is_disabled":true,"rental_uris":{"android":"levelo://app?vid=004ed55f-f985-4268-b523-9ed16ba4ea3b","ios":"levelo://app?vid=004ed55f-f985-4268-b523-9ed16ba4ea3b"},"vehicle_type_id":"4","last_reported":1743296069,"current_range_meters":9600,"station_id":"ce4bhbp2rcd13ifvqesg","pricing_plan_id":"cebpf4jnsgd1na2vs0mg"},{"bike_id":"96ac20e8-5840-4579-b371-184ec6253952","system_id":"levelo_inurba_marseille","lat":43.274959,"lon":5.411488,"is_reserved":false,"is_disabled":false,"rental_uris":{"android":"levelo://app?vid=96ac20e8-5840-4579-b371-184ec6253952","ios":"levelo://app?vid=96ac20e8-5840-4579-b371-184ec6253952"},"vehicle_type_id":"4","last_reported":1743296069,"current_range_meters":9600,"station_id":"","pricing_plan_id":"cebpf4jnsgd1na2vs0mg"},{"bike_id":"488767ae-a52a-41d7-8f9a-e947164469f3","system_id":"levelo_inurba_marseille","lat":43.31624,"lon":5.41652,"is_reserved":false,"is_disabled":true,"rental_uris":{"android":"levelo://app?vid=488767ae-a52a-41d7-8f9a-e947164469f3","ios":"levelo://app?vid=488767ae-a52a-41d7-8f9a-e947164469f3"},"vehicle_type_id":"4","last_reported":1743296069,"current_range_meters":9600,"station_id":"","pricing_plan_id":"cebpf4jnsgd1na2vs0mg"},{"bike_id":"ead84735-1991-4501-b506-2229ced7058a","system_id":"levelo_inurba_marseille","lat":43.23051,"lon":5.35495,"is_reserved":false,"is_disabled":false,"rental_uris":{"android":"levelo://app?vid=ead84735-1991-4501-b506-2229ced7058a","ios":"levelo://app?vid=ead84735-1991-4501-b506-2229ced7058a"},"vehicle_type_id":"4","last_reported":1743296069,"current_range_meters":9600,"station_id":"cpo3342slgdg3j2ifvpg","pricing_plan_id":"cebpf4jnsgd1na2vs0mg"},{"bike_id":"89b372e0-e34b-4448-a651-9f0d9816c98e","system_id":"levelo_inurba_marseille","lat":43.2417,"lon":5.36392,"is_reserved":false,"is_disabled":false,"rental_uris":{"android":"levelo://app?vid=89b372e0-e34b-4448-a651-9f0d9816c98e","ios":"levelo://app?vid=89b372e0-e34b-4448-a651-9f0d9816c98e"},"vehicle_type_id":"4","last_reported":1743296069,"current_range_meters":9600,"station_id":"cpo36qri1sfpv3e86is0","pricing_plan_id":"cebpf4jnsgd1na2vs0mg"},{"bike_id":"3f2bcfca-c616-4059-a95b-b1ee7948eb41","system_id":"levelo_inurba_marseille","lat":43.29914,"lon":5.39745,"is_reserved":false,"is_disabled":false,"rental_uris":{"android":"levelo://app?vid=3f2bcfca-c616-4059-a95b-b1ee7948eb41","ios":"levelo://app?vid=3f2bcfca-c616-4059-a95b-b1ee7948eb41"},"vehicle_type_id":"4","last_reported":1743296069,"current_range_meters":9600,"station_id":"","pricing_plan_id":"cebpf4jnsgd1na2vs0mg"},{"bike_id":"87fc32a8-b064-4884-b590-9fc1ae32af5f","system_id":"levelo_inurba_marseille","lat":43.31678,"lon":5.38225,"is_reserved":false,"is_disabled":false,"rental_uris":{"android":"levelo://app?vid=87fc32a8-b064-4884-b590-9fc1ae32af5f","ios":"levelo://app?vid=87fc32a8-b064-4884-b590-9fc1ae32af5f"},"vehicle_type_id":"4","last_reported":1743296069,"current_range_meters":9600,"station_id":"","pricing_plan_id":"cebpf4jnsgd1na2vs0mg"},{"bike_id":"0fd25487-4e05-4de4-9b9d-be346d28239c","system_id":"levelo_inurba_marseille","lat":43.31297,"lon":5.40135,"is_reserved":false,"is_disabled":false,"rental_uris":{"android":"levelo://app?vid=0fd25487-4e05-4de4-9b9d-be346d28239c","ios":"levelo://app?vid=0fd25487-4e05-4de4-9b9d-be346d28239c"},"vehicle_type_id":"4","last_reported":1743296069,"current_range_meters":9600,"station_id":"ce4bh092rcd13ifvqd30","pricing_plan_id":"cebpf4jnsgd1na2vs0mg"},{"bike_id":"96131fa3-eae1-4c76-a5ed-3df85de907fa","system_id":"levelo_inurba_marseille","lat":43.29872,"lon":5.3973,"is_reserved":false,"is_disabled":false,"rental_uris":{"android":"levelo://app?vid=96131fa3-eae1-4c76-a5ed-3df85de907fa","ios":"levelo://app?vid=96131fa3-eae1-4c76-a5ed-3df85de907fa"},"vehicle_type_id":"4","last_reported":1743296069,"current_range_meters":9600,"station_id":"ce4bh0h2rcd13ifvqd50","pricing_plan_id":"cebpf4jnsgd1na2vs0mg"},{"bike_id":"25bb5fbc-8229-4010-b703-31f5ee6ac141","system_id":"levelo_inurba_marseille","lat":43.30649,"lon":5.3661,"is_reserved":false,"is_disabled":false,"rental_uris":{"android":"levelo://app?vid=25bb5fbc-8229-4010-b703-31f5ee6ac141","ios":"levelo://app?vid=25bb5fbc-8229-4010-b703-31f5ee6ac141"},"vehicle_type_id":"4","last_reported":1743296069,"current_range_meters":10000,"station_id":"","pricing_plan_id":"cebpf4jnsgd1na2vs0mg"},{"bike_id":"56382eee-a8fa-40dd-bdaa-e22b9db5afbc","system_id":"levelo_inurba_marseille","lat":43.2893,"lon":5.36633,"is_reserved":false,"is_disabled":false,"rental_uris":{"android":"levelo://app?vid=56382eee-a8fa-40dd-bdaa-e22b9db5afbc","ios":"levelo://app?vid=56382eee-a8fa-40dd-bdaa-e22b9db5afbc"},"vehicle_type_id":"4","last_reported":1743296069,"current_range_meters":10000,"station_id":"ce4bhap2rcd13ifvqek0","pricing_plan_id":"cebpf4jnsgd1na2vs0mg"},{"bike_id":"906b540e-e920-417f-92b5-0ef35349f644","system_id":"levelo_inurba_marseille","lat":43.31547,"lon":5.39704,"is_reserved":false,"is_disabled":false,"rental_uris":{"android":"levelo://app?vid=906b540e-e920-417f-92b5-0ef35349f644","ios":"levelo://app?vid=906b540e-e920-417f-92b5-0ef35349f644"},"vehicle_type_id":"4","last_reported":1743296069,"current_range_meters":10000,"station_id":"","pricing_plan_id":"cebpf4jnsgd1na2vs0mg"},{"bike_id":"92bfecbf-789d-4c73-ae76-0e5a1e2a6e8a","system_id":"levelo_inurba_marseille","lat":43.25576,"lon":5.38245,"is_reserved":false,"is_disabled":false,"rental_uris":{"android":"levelo://app?vid=92bfecbf-789d-4c73-ae76-0e5a1e2a6e8a","ios":"levelo://app?vid=92bfecbf-789d-4c73-ae76-0e5a1e2a6e8a"},"vehicle_type_id":"4","last_reported":1743296069,"current_range_meters":10000,"station_id":"ce4bhih2rcd13ifvqfs0","pricing_plan_id":"cebpf4jnsgd1na2vs0mg"},{"bike_id":"92bfe231-1517-47bb-8ba4-94a7113e8089","system_id":"levelo_inurba_marseille","lat":43.23194,"lon":5.35555,"is_reserved":false,"is_disabled":false,"rental_uris":{"android":"levelo://app?vid=92bfe231-1517-47bb-8ba4-94a7113e8089","ios":"levelo://app?vid=92bfe231-1517-47bb-8ba4-94a7113e8089"},"vehicle_type_id":"4","last_reported":1743296069,"current_range_meters":10000,"station_id":"ce4bhu92rcd13ifvqi70","pricing_plan_id":"cebpf4jnsgd1na2vs0mg"},{"bike_id":"747d2bc2-6706-42d9-8381-8fcc8fac62bd","system_id":"levelo_inurba_marseille","lat":43.28669,"lon":5.36995,"is_reserved":false,"is_disabled":true,"rental_uris":{"android":"levelo://app?vid=747d2bc2-6706-42d9-8381-8fcc8fac62bd","ios":"levelo://app?vid=747d2bc2-6706-42d9-8381-8fcc8fac62bd"},"vehicle_type_id":"4","last_reported":1743296069,"current_range_meters":10000,"station_id":"","pricing_plan_id":"cebpf4jnsgd1na2vs0mg"},{"bike_id":"7699dc8a-14fa-4918-b36a-a478a442365c","system_id":"levelo_inurba_marseille","lat":43.28702,"lon":5.37393,"is_reserved":false,"is_disabled":false,"rental_uris":{"android":"levelo://app?vid=7699dc8a-14fa-4918-b36a-a478a442365c","ios":"levelo://app?vid=7699dc8a-14fa-4918-b36a-a478a442365c"},"vehicle_type_id":"4","last_reported":1743296069,"current_range_meters":10000,"station_id":"ce4bh3p2rcd13ifvqdq0","pricing_plan_id":"cebpf4jnsgd1na2vs0mg"},{"bike_id":"30db6914-811d-4865-8260-74ffbd3a887e","system_id":"levelo_inurba_marseille","lat":43.27457,"lon":5.39436,"is_reserved":false,"is_disabled":false,"rental_uris":{"android":"levelo://app?vid=30db6914-811d-4865-8260-74ffbd3a887e","ios":"levelo://app?vid=30db6914-811d-4865-8260-74ffbd3a887e"},"vehicle_type_id":"4","last_reported":1743296069,"current_range_meters":10000,"station_id":"","pricing_plan_id":"cebpf4jnsgd1na2vs0mg"},{"bike_id":"efff04da-c9e4-43ac-af1d-3d2959bd3159","system_id":"levelo_inurba_marseille","lat":43.23067,"lon":5.35487,"is_reserved":false,"is_disabled":false,"rental_uris":{"android":"levelo://app?vid=efff04da-c9e4-43ac-af1d-3d2959bd3159","ios":"levelo://app?vid=efff04da-c9e4-43ac-af1d-3d2959bd3159"},"vehicle_type_id":"4","last_reported":1743296069,"current_range_meters":10000,"station_id":"cpo3342slgdg3j2ifvpg","pricing_plan_id":"cebpf4jnsgd1na2vs0mg"},{"bike_id":"d7ecebd2-9e49-43ae-916e-d63e5d709fed","system_id":"levelo_inurba_marseille","lat":43.31361,"lon":5.38484,"is_reserved":false,"is_disabled":false,"rental_uris":{"android":"levelo://app?vid=d7ecebd2-9e49-43ae-916e-d63e5d709fed","ios":"levelo://app?vid=d7ecebd2-9e49-43ae-916e-d63e5d709fed"},"vehicle_type_id":"4","last_reported":1743296069,"current_range_meters":10000,"station_id":"ce4bgt92rcd13ifvqcf0","pricing_plan_id":"cebpf4jnsgd1na2vs0mg"},{"bike_id":"b3f1e3e6-0caf-4df4-b1bf-6689e146a67f","system_id":"levelo_inurba_marseille","lat":43.286164,"lon":5.351087,"is_reserved":false,"is_disabled":false,"rental_uris":{"android":"levelo://app?vid=b3f1e3e6-0caf-4df4-b1bf-6689e146a67f","ios":"levelo://app?vid=b3f1e3e6-0caf-4df4-b1bf-6689e146a67f"},"vehicle_type_id":"4","last_reported":1743296069,"current_range_meters":10000,"station_id":"ce4bhch2rcd13ifvqeug","pricing_plan_id":"cebpf4jnsgd1na2vs0mg"},{"bike_id":"d871a26c-bdd3-4190-ae0c-502f524ad221","system_id":"levelo_inurba_marseille","lat":43.2306,"lon":5.35488,"is_reserved":false,"is_disabled":false,"rental_uris":{"android":"levelo://app?vid=d871a26c-bdd3-4190-ae0c-502f524ad221","ios":"levelo://app?vid=d871a26c-bdd3-4190-ae0c-502f524ad221"},"vehicle_type_id":"4","last_reported":1743296069,"current_range_meters":10000,"station_id":"cpo3342slgdg3j2ifvpg","pricing_plan_id":"cebpf4jnsgd1na2vs0mg"},{"bike_id":"76d4ed16-8625-4a14-a5f1-d28ac2574c13","system_id":"levelo_inurba_marseille","lat":43.24549,"lon":5.39533,"is_reserved":false,"is_disabled":false,"rental_uris":{"android":"levelo://app?vid=76d4ed16-8625-4a14-a5f1-d28ac2574c13","ios":"levelo://app?vid=76d4ed16-8625-4a14-a5f1-d28ac2574c13"},"vehicle_type_id":"4","last_reported":1743296069,"current_range_meters":10800,"station_id":"","pricing_plan_id":"cebpf4jnsgd1na2vs0mg"},{"bike_id":"9e6169ef-5f71-4a72-b3c2-effde3fb2783","system_id":"levelo_inurba_marseille","lat":43.30417,"lon":5.41278,"is_reserved":false,"is_disabled":false,"rental_uris":{"android":"levelo://app?vid=9e6169ef-5f71-4a72-b3c2-effde3fb2783","ios":"levelo://app?vid=9e6169ef-5f71-4a72-b3c2-effde3fb2783"},"vehicle_type_id":"4","last_reported":1743296069,"current_range_meters":10800,"station_id":"ce4bhop2rcd13ifvqh8g","pricing_plan_id":"cebpf4jnsgd1na2vs0mg"},{"bike_id":"fd5a39dd-96b5-442c-99c4-5577adc0b24b","system_id":"levelo_inurba_marseille","lat":43.23191,"lon":5.39974,"is_reserved":false,"is_disabled":false,"rental_uris":{"android":"levelo://app?vid=fd5a39dd-96b5-442c-99c4-5577adc0b24b","ios":"levelo://app?vid=fd5a39dd-96b5-442c-99c4-5577adc0b24b"},"vehicle_type_id":"4","last_reported":1743296069,"current_range_meters":10800,"station_id":"ce4bhn12rcd13ifvqgqg","pricing_plan_id":"cebpf4jnsgd1na2vs0mg"},{"bike_id":"0de4a61d-7cbd-46cd-b57d-5a34b2917f05","system_id":"levelo_inurba_marseille","lat":43.284863,"lon":5.385614,"is_reserved":false,"is_disabled":false,"rental_uris":{"android":"levelo://app?vid=0de4a61d-7cbd-46cd-b57d-5a34b2917f05","ios":"levelo://app?vid=0de4a61d-7cbd-46cd-b57d-5a34b2917f05"},"vehicle_type_id":"4","last_reported":1743296069,"current_range_meters":10800,"station_id":"ce4bh8p2rcd13ifvqeb0","pricing_plan_id":"cebpf4jnsgd1na2vs0mg"},{"bike_id":"2c361083-2782-4c65-bba4-366f1418a72a","system_id":"levelo_inurba_marseille","lat":43.27559,"lon":5.3843,"is_reserved":false,"is_disabled":false,"rental_uris":{"android":"levelo://app?vid=2c361083-2782-4c65-bba4-366f1418a72a","ios":"levelo://app?vid=2c361083-2782-4c65-bba4-366f1418a72a"},"vehicle_type_id":"4","last_reported":1743296069,"current_range_meters":10800,"station_id":"ce4bhh92rcd13ifvqfi0","pricing_plan_id":"cebpf4jnsgd1na2vs0mg"},{"bike_id":"8cf4f201-930c-4d9c-9146-38a1c2c66eff","system_id":"levelo_inurba_marseille","lat":43.28397,"lon":5.35003,"is_reserved":false,"is_disabled":false,"rental_uris":{"android":"levelo://app?vid=8cf4f201-930c-4d9c-9146-38a1c2c66eff","ios":"levelo://app?vid=8cf4f201-930c-4d9c-9146-38a1c2c66eff"},"vehicle_type_id":"4","last_reported":1743296069,"current_range_meters":10800,"station_id":"ce4bhbh2rcd13ifvqepg","pricing_plan_id":"cebpf4jnsgd1na2vs0mg"},{"bike_id":"21b7dfed-4bf3-42a6-9071-9b2b5259da3c","system_id":"levelo_inurba_marseille","lat":43.29625,"lon":5.37136,"is_reserved":false,"is_disabled":true,"rental_uris":{"android":"levelo://app?vid=21b7dfed-4bf3-42a6-9071-9b2b5259da3c","ios":"levelo://app?vid=21b7dfed-4bf3-42a6-9071-9b2b5259da3c"},"vehicle_type_id":"4","last_reported":1743296069,"current_range_meters":10800,"station_id":"ce4bgnh2rcd13ifvqc0g","pricing_plan_id":"cebpf4jnsgd1na2vs0mg"},{"bike_id":"211e02b6-c381-4993-a223-66dc669f8c37","system_id":"levelo_inurba_marseille","lat":43.30178,"lon":5.37375,"is_reserved":false,"is_disabled":false,"rental_uris":{"android":"levelo://app?vid=211e02b6-c381-4993-a223-66dc669f8c37","ios":"levelo://app?vid=211e02b6-c381-4993-a223-66dc669f8c37"},"vehicle_type_id":"4","last_reported":1743296069,"current_range_meters":11200,"station_id":"ce4bgs92rcd13ifvqcc0","pricing_plan_id":"cebpf4jnsgd1na2vs0mg"},{"bike_id":"42bc7b23-0e2f-4d72-b583-40bcdabb28c7","system_id":"levelo_inurba_marseille","lat":43.29543,"lon":5.3738,"is_reserved":false,"is_disabled":false,"rental_uris":{"android":"levelo://app?vid=42bc7b23-0e2f-4d72-b583-40bcdabb28c7","ios":"levelo://app?vid=42bc7b23-0e2f-4d72-b583-40bcdabb28c7"},"vehicle_type_id":"4","last_reported":1743296069,"current_range_meters":11200,"station_id":"","pricing_plan_id":"cebpf4jnsgd1na2vs0mg"},{"bike_id":"653ea6de-a177-4007-9cfa-5f3f77e975f6","system_id":"levelo_inurba_marseille","lat":43.24814,"lon":5.37466,"is_reserved":false,"is_disabled":false,"rental_uris":{"android":"levelo://app?vid=653ea6de-a177-4007-9cfa-5f3f77e975f6","ios":"levelo://app?vid=653ea6de-a177-4007-9cfa-5f3f77e975f6"},"vehicle_type_id":"4","last_reported":1743296069,"current_range_meters":11200,"station_id":"ce4bhgh2rcd13ifvqfb0","pricing_plan_id":"cebpf4jnsgd1na2vs0mg"},{"bike_id":"5347da3b-4766-4b5f-860e-e5fcb38f3a05","system_id":"levelo_inurba_marseille","lat":43.31383,"lon":5.3849,"is_reserved":false,"is_disabled":true,"rental_uris":{"android":"levelo://app?vid=5347da3b-4766-4b5f-860e-e5fcb38f3a05","ios":"levelo://app?vid=5347da3b-4766-4b5f-860e-e5fcb38f3a05"},"vehicle_type_id":"4","last_reported":1743296069,"current_range_meters":11200,"station_id":"ce4bgt92rcd13ifvqcf0","pricing_plan_id":"cebpf4jnsgd1na2vs0mg"},{"bike_id":"79c45363-0f08-448a-8f38-e6dbf5775a0e","system_id":"levelo_inurba_marseille","lat":43.31108,"lon":5.37778,"is_reserved":false,"is_disabled":false,"rental_uris":{"android":"levelo://app?vid=79c45363-0f08-448a-8f38-e6dbf5775a0e","ios":"levelo://app?vid=79c45363-0f08-448a-8f38-e6dbf5775a0e"},"vehicle_type_id":"4","last_reported":1743296069,"current_range_meters":11200,"station_id":"ce4bgt92rcd13ifvqcg0","pricing_plan_id":"cebpf4jnsgd1na2vs0mg"},{"bike_id":"71b06318-ccb5-4819-bed3-1d890f104133","system_id":"levelo_inurba_marseille","lat":43.30262,"lon":5.40067,"is_reserved":false,"is_disabled":false,"rental_uris":{"android":"levelo://app?vid=71b06318-ccb5-4819-bed3-1d890f104133","ios":"levelo://app?vid=71b06318-ccb5-4819-bed3-1d890f104133"},"vehicle_type_id":"4","last_reported":1743296069,"current_range_meters":11200,"station_id":"ce4bgvh2rcd13ifvqcs0","pricing_plan_id":"cebpf4jnsgd1na2vs0mg"},{"bike_id":"f6925b6c-b8ce-4863-9174-75310d39c7e8","system_id":"levelo_inurba_marseille","lat":43.22934,"lon":5.35373,"is_reserved":false,"is_disabled":false,"rental_uris":{"android":"levelo://app?vid=f6925b6c-b8ce-4863-9174-75310d39c7e8","ios":"levelo://app?vid=f6925b6c-b8ce-4863-9174-75310d39c7e8"},"vehicle_type_id":"4","last_reported":1743296069,"current_range_meters":11200,"station_id":"cpo3532slgdg3j2ikp40","pricing_plan_id":"cebpf4jnsgd1na2vs0mg"},{"bike_id":"a810a8f1-ad12-455f-88f1-3e6b53c9382f","system_id":"levelo_inurba_marseille","lat":43.29225,"lon":5.3605,"is_reserved":false,"is_disabled":false,"rental_uris":{"android":"levelo://app?vid=a810a8f1-ad12-455f-88f1-3e6b53c9382f","ios":"levelo://app?vid=a810a8f1-ad12-455f-88f1-3e6b53c9382f"},"vehicle_type_id":"4","last_reported":1743296069,"current_range_meters":11600,"station_id":"ce4bhbh2rcd13ifvqeqg","pricing_plan_id":"cebpf4jnsgd1na2vs0mg"},{"bike_id":"9f50066e-01fa-4519-9f61-8109fe65f5d9","system_id":"levelo_inurba_marseille","lat":43.29717,"lon":5.37122,"is_reserved":false,"is_disabled":false,"rental_uris":{"android":"levelo://app?vid=9f50066e-01fa-4519-9f61-8109fe65f5d9","ios":"levelo://app?vid=9f50066e-01fa-4519-9f61-8109fe65f5d9"},"vehicle_type_id":"4","last_reported":1743296069,"current_range_meters":11600,"station_id":"","pricing_plan_id":"cebpf4jnsgd1na2vs0mg"},{"bike_id":"14c490b6-844b-4566-b5ce-4a1eef9a0745","system_id":"levelo_inurba_marseille","lat":43.27819,"lon":5.40708,"is_reserved":false,"is_disabled":false,"rental_uris":{"android":"levelo://app?vid=14c490b6-844b-4566-b5ce-4a1eef9a0745","ios":"levelo://app?vid=14c490b6-844b-4566-b5ce-4a1eef9a0745"},"vehicle_type_id":"4","last_reported":1743296069,"current_range_meters":11600,"station_id":"ce4bhnh2rcd13ifvqgtg","pricing_plan_id":"cebpf4jnsgd1na2vs0mg"},{"bike_id":"f3a92be8-673b-401f-b821-b8cf9a88891f","system_id":"levelo_inurba_marseille","lat":43.28936,"lon":5.36636,"is_reserved":false,"is_disabled":false,"rental_uris":{"android":"levelo://app?vid=f3a92be8-673b-401f-b821-b8cf9a88891f","ios":"levelo://app?vid=f3a92be8-673b-401f-b821-b8cf9a88891f"},"vehicle_type_id":"4","last_reported":1743296069,"current_range_meters":11600,"station_id":"ce4bhap2rcd13ifvqek0","pricing_plan_id":"cebpf4jnsgd1na2vs0mg"},{"bike_id":"fb5a3640-c2bd-4d5a-a532-631ac7449c3d","system_id":"levelo_inurba_marseille","lat":43.28015,"lon":5.40925,"is_reserved":false,"is_disabled":false,"rental_uris":{"android":"levelo://app?vid=fb5a3640-c2bd-4d5a-a532-631ac7449c3d","ios":"levelo://app?vid=fb5a3640-c2bd-4d5a-a532-631ac7449c3d"},"vehicle_type_id":"4","last_reported":1743296069,"current_range_meters":11600,"station_id":"","pricing_plan_id":"cebpf4jnsgd1na2vs0mg"},{"bike_id":"833d058f-e81d-4432-8229-0e76416afd85","system_id":"levelo_inurba_marseille","lat":43.32333,"lon":5.40629,"is_reserved":false,"is_disabled":false,"rental_uris":{"android":"levelo://app?vid=833d058f-e81d-4432-8229-0e76416afd85","ios":"levelo://app?vid=833d058f-e81d-4432-8229-0e76416afd85"},"vehicle_type_id":"4","last_reported":1743296069,"current_range_meters":11600,"station_id":"ce4bhq92rcd13ifvqhjg","pricing_plan_id":"cebpf4jnsgd1na2vs0mg"},{"bike_id":"7d9cf079-d360-4f0a-90d1-6bb13a2a0550","system_id":"levelo_inurba_marseille","lat":43.31352,"lon":5.38496,"is_reserved":false,"is_disabled":false,"rental_uris":{"android":"levelo://app?vid=7d9cf079-d360-4f0a-90d1-6bb13a2a0550","ios":"levelo://app?vid=7d9cf079-d360-4f0a-90d1-6bb13a2a0550"},"vehicle_type_id":"4","last_reported":1743296069,"current_range_meters":11600,"station_id":"ce4bgt92rcd13ifvqcf0","pricing_plan_id":"cebpf4jnsgd1na2vs0mg"},{"bike_id":"7b30d470-9209-4d84-9568-3664fac24105","system_id":"levelo_inurba_marseille","lat":43.30877,"lon":5.37174,"is_reserved":false,"is_disabled":false,"rental_uris":{"android":"levelo://app?vid=7b30d470-9209-4d84-9568-3664fac24105","ios":"levelo://app?vid=7b30d470-9209-4d84-9568-3664fac24105"},"vehicle_type_id":"4","last_reported":1743296069,"current_range_meters":12000,"station_id":"ce4bguh2rcd13ifvqckg","pricing_plan_id":"cebpf4jnsgd1na2vs0mg"},{"bike_id":"a54a5372-c292-48dc-a9bc-4628f4a8b70b","system_id":"levelo_inurba_marseille","lat":43.24386,"lon":5.37063,"is_reserved":false,"is_disabled":false,"rental_uris":{"android":"levelo://app?vid=a54a5372-c292-48dc-a9bc-4628f4a8b70b","ios":"levelo://app?vid=a54a5372-c292-48dc-a9bc-4628f4a8b70b"},"vehicle_type_id":"4","last_reported":1743296069,"current_range_meters":12000,"station_id":"ce4bhhh2rcd13ifvqfk0","pricing_plan_id":"cebpf4jnsgd1na2vs0mg"},{"bike_id":"626d2136-a31c-4224-ba68-9a83c069cd7e","system_id":"levelo_inurba_marseille","lat":43.23189,"lon":5.39988,"is_reserved":false,"is_disabled":false,"rental_uris":{"android":"levelo://app?vid=626d2136-a31c-4224-ba68-9a83c069cd7e","ios":"levelo://app?vid=626d2136-a31c-4224-ba68-9a83c069cd7e"},"vehicle_type_id":"4","last_reported":1743296069,"current_range_meters":12000,"station_id":"ce4bhn12rcd13ifvqgqg","pricing_plan_id":"cebpf4jnsgd1na2vs0mg"},{"bike_id":"823ea277-4675-4c93-906f-e9254970183f","system_id":"levelo_inurba_marseille","lat":43.28701,"lon":5.37937,"is_reserved":false,"is_disabled":false,"rental_uris":{"android":"levelo://app?vid=823ea277-4675-4c93-906f-e9254970183f","ios":"levelo://app?vid=823ea277-4675-4c93-906f-e9254970183f"},"vehicle_type_id":"4","last_reported":1743296069,"current_range_meters":12000,"station_id":"ce4bh9p2rcd13ifvqec0","pricing_plan_id":"cebpf4jnsgd1na2vs0mg"},{"bike_id":"477a8a0c-d993-469b-a55f-34a2688f7cf6","system_id":"levelo_inurba_marseille","lat":43.27969,"lon":5.41647,"is_reserved":false,"is_disabled":false,"rental_uris":{"android":"levelo://app?vid=477a8a0c-d993-469b-a55f-34a2688f7cf6","ios":"levelo://app?vid=477a8a0c-d993-469b-a55f-34a2688f7cf6"},"vehicle_type_id":"4","last_reported":1743296069,"current_range_meters":12000,"station_id":"ce4bho12rcd13ifvqh1g","pricing_plan_id":"cebpf4jnsgd1na2vs0mg"},{"bike_id":"7e92f450-a4be-475e-a6bd-448294f764fc","system_id":"levelo_inurba_marseille","lat":43.299756,"lon":5.371782,"is_reserved":false,"is_disabled":false,"rental_uris":{"android":"levelo://app?vid=7e92f450-a4be-475e-a6bd-448294f764fc","ios":"levelo://app?vid=7e92f450-a4be-475e-a6bd-448294f764fc"},"vehicle_type_id":"4","last_reported":1743296069,"current_range_meters":12000,"station_id":"ce4bh3h2rcd13ifvqdo0","pricing_plan_id":"cebpf4jnsgd1na2vs0mg"},{"bike_id":"bd90bf75-9c99-4619-93c2-7a5fd83388b5","system_id":"levelo_inurba_marseille","lat":43.313603,"lon":5.388284,"is_reserved":false,"is_disabled":false,"rental_uris":{"android":"levelo://app?vid=bd90bf75-9c99-4619-93c2-7a5fd83388b5","ios":"levelo://app?vid=bd90bf75-9c99-4619-93c2-7a5fd83388b5"},"vehicle_type_id":"4","last_reported":1743296069,"current_range_meters":12400,"station_id":"ce4bgt92rcd13ifvqcf0","pricing_plan_id":"cebpf4jnsgd1na2vs0mg"},{"bike_id":"2861f50d-7c1b-4253-8cf7-4824b4260319","system_id":"levelo_inurba_marseille","lat":43.28377,"lon":5.38632,"is_reserved":false,"is_disabled":false,"rental_uris":{"android":"levelo://app?vid=2861f50d-7c1b-4253-8cf7-4824b4260319","ios":"levelo://app?vid=2861f50d-7c1b-4253-8cf7-4824b4260319"},"vehicle_type_id":"4","last_reported":1743296069,"current_range_meters":12400,"station_id":"ce4bh492rcd13ifvqdvg","pricing_plan_id":"cebpf4jnsgd1na2vs0mg"},{"bike_id":"8f76027a-87c1-468c-9f93-a7d7f194ac0f","system_id":"levelo_inurba_marseille","lat":43.23213,"lon":5.35539,"is_reserved":false,"is_disabled":false,"rental_uris":{"android":"levelo://app?vid=8f76027a-87c1-468c-9f93-a7d7f194ac0f","ios":"levelo://app?vid=8f76027a-87c1-468c-9f93-a7d7f194ac0f"},"vehicle_type_id":"4","last_reported":1743296069,"current_range_meters":12400,"station_id":"ce4bhu92rcd13ifvqi70","pricing_plan_id":"cebpf4jnsgd1na2vs0mg"},{"bike_id":"9ff86b05-0bc7-4679-b598-3ee94c8329f0","system_id":"levelo_inurba_marseille","lat":43.31362,"lon":5.385,"is_reserved":false,"is_disabled":false,"rental_uris":{"android":"levelo://app?vid=9ff86b05-0bc7-4679-b598-3ee94c8329f0","ios":"levelo://app?vid=9ff86b05-0bc7-4679-b598-3ee94c8329f0"},"vehicle_type_id":"4","last_reported":1743296069,"current_range_meters":12400,"station_id":"ce4bgt92rcd13ifvqcf0","pricing_plan_id":"cebpf4jnsgd1na2vs0mg"},{"bike_id":"832ed8d6-67fe-42e9-9493-27858bc31708","system_id":"levelo_inurba_marseille","lat":43.29264,"lon":5.40899,"is_reserved":false,"is_disabled":false,"rental_uris":{"android":"levelo://app?vid=832ed8d6-67fe-42e9-9493-27858bc31708","ios":"levelo://app?vid=832ed8d6-67fe-42e9-9493-27858bc31708"},"vehicle_type_id":"4","last_reported":1743296069,"current_range_meters":12400,"station_id":"ce4bh192rcd13ifvqdc0","pricing_plan_id":"cebpf4jnsgd1na2vs0mg"},{"bike_id":"a2695f72-8dc7-41b6-82c6-f4ef7c6aac17","system_id":"levelo_inurba_marseille","lat":43.27376,"lon":5.36257,"is_reserved":false,"is_disabled":false,"rental_uris":{"android":"levelo://app?vid=a2695f72-8dc7-41b6-82c6-f4ef7c6aac17","ios":"levelo://app?vid=a2695f72-8dc7-41b6-82c6-f4ef7c6aac17"},"vehicle_type_id":"4","last_reported":1743296069,"current_range_meters":16800,"station_id":"ce4bhbh2rcd13ifvqeo0","pricing_plan_id":"cebpf4jnsgd1na2vs0mg"},{"bike_id":"61b93b3e-de2c-498f-9067-20d081913f50","system_id":"levelo_inurba_marseille","lat":43.29172,"lon":5.35808,"is_reserved":false,"is_disabled":false,"rental_uris":{"android":"levelo://app?vid=61b93b3e-de2c-498f-9067-20d081913f50","ios":"levelo://app?vid=61b93b3e-de2c-498f-9067-20d081913f50"},"vehicle_type_id":"4","last_reported":1743296069,"current_range_meters":12400,"station_id":"ce4bhb12rcd13ifvqel0","pricing_plan_id":"cebpf4jnsgd1na2vs0mg"},{"bike_id":"60a5895b-0fc5-483c-85ae-f59ef653f234","system_id":"levelo_inurba_marseille","lat":43.25495,"lon":5.37649,"is_reserved":false,"is_disabled":false,"rental_uris":{"android":"levelo://app?vid=60a5895b-0fc5-483c-85ae-f59ef653f234","ios":"levelo://app?vid=60a5895b-0fc5-483c-85ae-f59ef653f234"},"vehicle_type_id":"4","last_reported":1743296069,"current_range_meters":12400,"station_id":"ce4bhh12rcd13ifvqff0","pricing_plan_id":"cebpf4jnsgd1na2vs0mg"},{"bike_id":"8bcc045e-f28b-442a-a0af-38457b26197c","system_id":"levelo_inurba_marseille","lat":43.2417,"lon":5.36399,"is_reserved":false,"is_disabled":false,"rental_uris":{"android":"levelo://app?vid=8bcc045e-f28b-442a-a0af-38457b26197c","ios":"levelo://app?vid=8bcc045e-f28b-442a-a0af-38457b26197c"},"vehicle_type_id":"4","last_reported":1743296069,"current_range_meters":12400,"station_id":"cpo36qri1sfpv3e86is0","pricing_plan_id":"cebpf4jnsgd1na2vs0mg"},{"bike_id":"51f634e3-ac61-4928-9ed6-54eb1e30344e","system_id":"levelo_inurba_marseille","lat":43.29704,"lon":5.37286,"is_reserved":false,"is_disabled":true,"rental_uris":{"android":"levelo://app?vid=51f634e3-ac61-4928-9ed6-54eb1e30344e","ios":"levelo://app?vid=51f634e3-ac61-4928-9ed6-54eb1e30344e"},"vehicle_type_id":"4","last_reported":1743296069,"current_range_meters":12800,"station_id":"ce4bgk12rcd13ifvqbj0","pricing_plan_id":"cebpf4jnsgd1na2vs0mg"},{"bike_id":"bfcad82b-6acc-493c-b418-93ec0bae17e4","system_id":"levelo_inurba_marseille","lat":43.32101,"lon":5.36769,"is_reserved":false,"is_disabled":false,"rental_uris":{"android":"levelo://app?vid=bfcad82b-6acc-493c-b418-93ec0bae17e4","ios":"levelo://app?vid=bfcad82b-6acc-493c-b418-93ec0bae17e4"},"vehicle_type_id":"4","last_reported":1743296069,"current_range_meters":12800,"station_id":"ce4bhrh2rcd13ifvqhug","pricing_plan_id":"cebpf4jnsgd1na2vs0mg"},{"bike_id":"935b76c5-1de4-41eb-a4f9-bcd5c7750693","system_id":"levelo_inurba_marseille","lat":43.31269,"lon":5.3685,"is_reserved":false,"is_disabled":false,"rental_uris":{"android":"levelo://app?vid=935b76c5-1de4-41eb-a4f9-bcd5c7750693","ios":"levelo://app?vid=935b76c5-1de4-41eb-a4f9-bcd5c7750693"},"vehicle_type_id":"4","last_reported":1743296069,"current_range_meters":12800,"station_id":"","pricing_plan_id":"cebpf4jnsgd1na2vs0mg"},{"bike_id":"d37838f5-d062-4b4f-a44c-1f322ec2e1c2","system_id":"levelo_inurba_marseille","lat":43.27374,"lon":5.36258,"is_reserved":false,"is_disabled":false,"rental_uris":{"android":"levelo://app?vid=d37838f5-d062-4b4f-a44c-1f322ec2e1c2","ios":"levelo://app?vid=d37838f5-d062-4b4f-a44c-1f322ec2e1c2"},"vehicle_type_id":"4","last_reported":1743296069,"current_range_meters":16800,"station_id":"ce4bhbh2rcd13ifvqeo0","pricing_plan_id":"cebpf4jnsgd1na2vs0mg"},{"bike_id":"18d5f5fc-724f-4cc3-b787-c3e9421ffca0","system_id":"levelo_inurba_marseille","lat":43.28462,"lon":5.35888,"is_reserved":false,"is_disabled":false,"rental_uris":{"android":"levelo://app?vid=18d5f5fc-724f-4cc3-b787-c3e9421ffca0","ios":"levelo://app?vid=18d5f5fc-724f-4cc3-b787-c3e9421ffca0"},"vehicle_type_id":"4","last_reported":1743296069,"current_range_meters":12800,"station_id":"ce4bhah2rcd13ifvqei0","pricing_plan_id":"cebpf4jnsgd1na2vs0mg"},{"bike_id":"7d5c27f6-f21d-42ee-bcc9-290c5da6c350","system_id":"levelo_inurba_marseille","lat":43.31228,"lon":5.36848,"is_reserved":false,"is_disabled":false,"rental_uris":{"android":"levelo://app?vid=7d5c27f6-f21d-42ee-bcc9-290c5da6c350","ios":"levelo://app?vid=7d5c27f6-f21d-42ee-bcc9-290c5da6c350"},"vehicle_type_id":"4","last_reported":1743296069,"current_range_meters":12800,"station_id":"ce4bgl92rcd13ifvqbq0","pricing_plan_id":"cebpf4jnsgd1na2vs0mg"},{"bike_id":"6ef18dd7-1cb9-4ef6-bfdd-052cde57f183","system_id":"levelo_inurba_marseille","lat":43.32115,"lon":5.36789,"is_reserved":false,"is_disabled":false,"rental_uris":{"android":"levelo://app?vid=6ef18dd7-1cb9-4ef6-bfdd-052cde57f183","ios":"levelo://app?vid=6ef18dd7-1cb9-4ef6-bfdd-052cde57f183"},"vehicle_type_id":"4","last_reported":1743296069,"current_range_meters":12800,"station_id":"ce4bhrh2rcd13ifvqhug","pricing_plan_id":"cebpf4jnsgd1na2vs0mg"},{"bike_id":"5c5b7fa6-c89a-4a5c-ae9d-68399b480756","system_id":"levelo_inurba_marseille","lat":43.31214,"lon":5.36837,"is_reserved":false,"is_disabled":false,"rental_uris":{"android":"levelo://app?vid=5c5b7fa6-c89a-4a5c-ae9d-68399b480756","ios":"levelo://app?vid=5c5b7fa6-c89a-4a5c-ae9d-68399b480756"},"vehicle_type_id":"4","last_reported":1743296069,"current_range_meters":12800,"station_id":"ce4bgl92rcd13ifvqbq0","pricing_plan_id":"cebpf4jnsgd1na2vs0mg"},{"bike_id":"96cfab9e-1725-4c2c-8ade-36b0c11cdcbd","system_id":"levelo_inurba_marseille","lat":43.3111,"lon":5.37779,"is_reserved":false,"is_disabled":false,"rental_uris":{"android":"levelo://app?vid=96cfab9e-1725-4c2c-8ade-36b0c11cdcbd","ios":"levelo://app?vid=96cfab9e-1725-4c2c-8ade-36b0c11cdcbd"},"vehicle_type_id":"4","last_reported":1743296069,"current_range_meters":12800,"station_id":"ce4bgt92rcd13ifvqcg0","pricing_plan_id":"cebpf4jnsgd1na2vs0mg"},{"bike_id":"0e9d92a7-df29-43d8-906d-2a51c6561f7d","system_id":"levelo_inurba_marseille","lat":43.28429,"lon":5.34992,"is_reserved":false,"is_disabled":false,"rental_uris":{"android":"levelo://app?vid=0e9d92a7-df29-43d8-906d-2a51c6561f7d","ios":"levelo://app?vid=0e9d92a7-df29-43d8-906d-2a51c6561f7d"},"vehicle_type_id":"4","last_reported":1743296069,"current_range_meters":12800,"station_id":"ce4bhbh2rcd13ifvqepg","pricing_plan_id":"cebpf4jnsgd1na2vs0mg"},{"bike_id":"5cb8c766-498c-488a-86ec-2317510d9867","system_id":"levelo_inurba_marseille","lat":43.32361,"lon":5.36743,"is_reserved":false,"is_disabled":false,"rental_uris":{"android":"levelo://app?vid=5cb8c766-498c-488a-86ec-2317510d9867","ios":"levelo://app?vid=5cb8c766-498c-488a-86ec-2317510d9867"},"vehicle_type_id":"4","last_reported":1743296069,"current_range_meters":13600,"station_id":"ce4bhsh2rcd13ifvqi2g","pricing_plan_id":"cebpf4jnsgd1na2vs0mg"},{"bike_id":"5c49fc8b-b573-44cd-9da2-767f8f7a765b","system_id":"levelo_inurba_marseille","lat":43.317633,"lon":5.390217,"is_reserved":false,"is_disabled":false,"rental_uris":{"android":"levelo://app?vid=5c49fc8b-b573-44cd-9da2-767f8f7a765b","ios":"levelo://app?vid=5c49fc8b-b573-44cd-9da2-767f8f7a765b"},"vehicle_type_id":"4","last_reported":1743296069,"current_range_meters":13600,"station_id":"ce4bhqp2rcd13ifvqhng","pricing_plan_id":"cebpf4jnsgd1na2vs0mg"},{"bike_id":"7e46e322-27d9-4f9d-b1ce-11741eb7c78f","system_id":"levelo_inurba_marseille","lat":43.317604,"lon":5.390199,"is_reserved":false,"is_disabled":false,"rental_uris":{"android":"levelo://app?vid=7e46e322-27d9-4f9d-b1ce-11741eb7c78f","ios":"levelo://app?vid=7e46e322-27d9-4f9d-b1ce-11741eb7c78f"},"vehicle_type_id":"4","last_reported":1743296069,"current_range_meters":13600,"station_id":"ce4bhqp2rcd13ifvqhng","pricing_plan_id":"cebpf4jnsgd1na2vs0mg"},{"bike_id":"82498994-4a36-4b79-835e-f6e29e5c8feb","system_id":"levelo_inurba_marseille","lat":43.232,"lon":5.35555,"is_reserved":false,"is_disabled":false,"rental_uris":{"android":"levelo://app?vid=82498994-4a36-4b79-835e-f6e29e5c8feb","ios":"levelo://app?vid=82498994-4a36-4b79-835e-f6e29e5c8feb"},"vehicle_type_id":"4","last_reported":1743296069,"current_range_meters":13600,"station_id":"ce4bhu92rcd13ifvqi70","pricing_plan_id":"cebpf4jnsgd1na2vs0mg"},{"bike_id":"59359988-faf5-47a1-b5f8-d319a6e1abfa","system_id":"levelo_inurba_marseille","lat":43.284218,"lon":5.349909,"is_reserved":false,"is_disabled":false,"rental_uris":{"android":"levelo://app?vid=59359988-faf5-47a1-b5f8-d319a6e1abfa","ios":"levelo://app?vid=59359988-faf5-47a1-b5f8-d319a6e1abfa"},"vehicle_type_id":"4","last_reported":1743296069,"current_range_meters":13600,"station_id":"ce4bhbh2rcd13ifvqepg","pricing_plan_id":"cebpf4jnsgd1na2vs0mg"},{"bike_id":"6ba111d1-b25a-4811-ba92-d3078e1a668b","system_id":"levelo_inurba_marseille","lat":43.26946,"lon":5.38629,"is_reserved":false,"is_disabled":false,"rental_uris":{"android":"levelo://app?vid=6ba111d1-b25a-4811-ba92-d3078e1a668b","ios":"levelo://app?vid=6ba111d1-b25a-4811-ba92-d3078e1a668b"},"vehicle_type_id":"4","last_reported":1743296069,"current_range_meters":13600,"station_id":"ce4bhh92rcd13ifvqfh0","pricing_plan_id":"cebpf4jnsgd1na2vs0mg"},{"bike_id":"662085ab-be58-46df-a62c-29e4b66868d5","system_id":"levelo_inurba_marseille","lat":43.32338,"lon":5.4062,"is_reserved":false,"is_disabled":false,"rental_uris":{"android":"levelo://app?vid=662085ab-be58-46df-a62c-29e4b66868d5","ios":"levelo://app?vid=662085ab-be58-46df-a62c-29e4b66868d5"},"vehicle_type_id":"4","last_reported":1743296069,"current_range_meters":13600,"station_id":"ce4bhq92rcd13ifvqhjg","pricing_plan_id":"cebpf4jnsgd1na2vs0mg"},{"bike_id":"474d7622-0f7f-4900-8fb9-eae0150ea1f3","system_id":"levelo_inurba_marseille","lat":43.30889,"lon":5.3965,"is_reserved":false,"is_disabled":false,"rental_uris":{"android":"levelo://app?vid=474d7622-0f7f-4900-8fb9-eae0150ea1f3","ios":"levelo://app?vid=474d7622-0f7f-4900-8fb9-eae0150ea1f3"},"vehicle_type_id":"4","last_reported":1743296069,"current_range_meters":13600,"station_id":"ce4bh012rcd13ifvqcv0","pricing_plan_id":"cebpf4jnsgd1na2vs0mg"},{"bike_id":"8e9afe6a-948c-44bd-a1ec-fc4477b65188","system_id":"levelo_inurba_marseille","lat":43.2481,"lon":5.37453,"is_reserved":false,"is_disabled":false,"rental_uris":{"android":"levelo://app?vid=8e9afe6a-948c-44bd-a1ec-fc4477b65188","ios":"levelo://app?vid=8e9afe6a-948c-44bd-a1ec-fc4477b65188"},"vehicle_type_id":"4","last_reported":1743296069,"current_range_meters":13600,"station_id":"ce4bhgh2rcd13ifvqfb0","pricing_plan_id":"cebpf4jnsgd1na2vs0mg"},{"bike_id":"871f3035-10bb-4a28-afa0-18619600e1a6","system_id":"levelo_inurba_marseille","lat":43.29946,"lon":5.365456,"is_reserved":false,"is_disabled":true,"rental_uris":{"android":"levelo://app?vid=871f3035-10bb-4a28-afa0-18619600e1a6","ios":"levelo://app?vid=871f3035-10bb-4a28-afa0-18619600e1a6"},"vehicle_type_id":"4","last_reported":1743296069,"current_range_meters":14000,"station_id":"ce4bgm92rcd13ifvqbr0","pricing_plan_id":"cebpf4jnsgd1na2vs0mg"},{"bike_id":"ae8c647a-045a-4b0b-9731-1b4a6fb78bc4","system_id":"levelo_inurba_marseille","lat":43.28709,"lon":5.37922,"is_reserved":false,"is_disabled":false,"rental_uris":{"android":"levelo://app?vid=ae8c647a-045a-4b0b-9731-1b4a6fb78bc4","ios":"levelo://app?vid=ae8c647a-045a-4b0b-9731-1b4a6fb78bc4"},"vehicle_type_id":"4","last_reported":1743296069,"current_range_meters":14000,"station_id":"ce4bh9p2rcd13ifvqec0","pricing_plan_id":"cebpf4jnsgd1na2vs0mg"},{"bike_id":"e0418843-2ae7-4c69-8557-9b3d7bbbbed3","system_id":"levelo_inurba_marseille","lat":43.29124,"lon":5.38403,"is_reserved":false,"is_disabled":false,"rental_uris":{"android":"levelo://app?vid=e0418843-2ae7-4c69-8557-9b3d7bbbbed3","ios":"levelo://app?vid=e0418843-2ae7-4c69-8557-9b3d7bbbbed3"},"vehicle_type_id":"4","last_reported":1743296069,"current_range_meters":14000,"station_id":"","pricing_plan_id":"cebpf4jnsgd1na2vs0mg"},{"bike_id":"dfcd2e24-a84f-4fa8-9d38-3bcc55074a11","system_id":"levelo_inurba_marseille","lat":43.26512,"lon":5.39535,"is_reserved":false,"is_disabled":false,"rental_uris":{"android":"levelo://app?vid=dfcd2e24-a84f-4fa8-9d38-3bcc55074a11","ios":"levelo://app?vid=dfcd2e24-a84f-4fa8-9d38-3bcc55074a11"},"vehicle_type_id":"4","last_reported":1743296069,"current_range_meters":14000,"station_id":"ce4bhi12rcd13ifvqfq0","pricing_plan_id":"cebpf4jnsgd1na2vs0mg"},{"bike_id":"eef6f198-30e2-4f80-a632-eacff7db78b9","system_id":"levelo_inurba_marseille","lat":43.30889,"lon":5.39633,"is_reserved":false,"is_disabled":false,"rental_uris":{"android":"levelo://app?vid=eef6f198-30e2-4f80-a632-eacff7db78b9","ios":"levelo://app?vid=eef6f198-30e2-4f80-a632-eacff7db78b9"},"vehicle_type_id":"4","last_reported":1743296069,"current_range_meters":14000,"station_id":"ce4bh012rcd13ifvqcv0","pricing_plan_id":"cebpf4jnsgd1na2vs0mg"},{"bike_id":"799ccde8-5e80-4174-8457-42229912affd","system_id":"levelo_inurba_marseille","lat":43.2839,"lon":5.36319,"is_reserved":false,"is_disabled":false,"rental_uris":{"android":"levelo://app?vid=799ccde8-5e80-4174-8457-42229912affd","ios":"levelo://app?vid=799ccde8-5e80-4174-8457-42229912affd"},"vehicle_type_id":"4","last_reported":1743296069,"current_range_meters":14000,"station_id":"","pricing_plan_id":"cebpf4jnsgd1na2vs0mg"},{"bike_id":"ba362734-34ca-4bcd-8728-cadb040d6152","system_id":"levelo_inurba_marseille","lat":43.243865,"lon":5.370663,"is_reserved":false,"is_disabled":false,"rental_uris":{"android":"levelo://app?vid=ba362734-34ca-4bcd-8728-cadb040d6152","ios":"levelo://app?vid=ba362734-34ca-4bcd-8728-cadb040d6152"},"vehicle_type_id":"4","last_reported":1743296069,"current_range_meters":14000,"station_id":"ce4bhhh2rcd13ifvqfk0","pricing_plan_id":"cebpf4jnsgd1na2vs0mg"},{"bike_id":"787c7258-c69e-43ff-a074-7f72d83ad60e","system_id":"levelo_inurba_marseille","lat":43.28703,"lon":5.37394,"is_reserved":false,"is_disabled":true,"rental_uris":{"android":"levelo://app?vid=787c7258-c69e-43ff-a074-7f72d83ad60e","ios":"levelo://app?vid=787c7258-c69e-43ff-a074-7f72d83ad60e"},"vehicle_type_id":"4","last_reported":1743296069,"current_range_meters":14000,"station_id":"ce4bh3p2rcd13ifvqdq0","pricing_plan_id":"cebpf4jnsgd1na2vs0mg"},{"bike_id":"cb8c9ca5-9083-4e86-9e9f-2bc245af5095","system_id":"levelo_inurba_marseille","lat":43.28422,"lon":5.37518,"is_reserved":false,"is_disabled":true,"rental_uris":{"android":"levelo://app?vid=cb8c9ca5-9083-4e86-9e9f-2bc245af5095","ios":"levelo://app?vid=cb8c9ca5-9083-4e86-9e9f-2bc245af5095"},"vehicle_type_id":"4","last_reported":1743296069,"current_range_meters":14000,"station_id":"ce4bh412rcd13ifvqds0","pricing_plan_id":"cebpf4jnsgd1na2vs0mg"},{"bike_id":"82be5020-df29-4bb6-b821-10f31b9ed89a","system_id":"levelo_inurba_marseille","lat":43.28418,"lon":5.34999,"is_reserved":false,"is_disabled":false,"rental_uris":{"android":"levelo://app?vid=82be5020-df29-4bb6-b821-10f31b9ed89a","ios":"levelo://app?vid=82be5020-df29-4bb6-b821-10f31b9ed89a"},"vehicle_type_id":"4","last_reported":1743296069,"current_range_meters":14000,"station_id":"ce4bhbh2rcd13ifvqepg","pricing_plan_id":"cebpf4jnsgd1na2vs0mg"},{"bike_id":"8e69e7f9-76b5-4d0a-8b34-45d50fc637f3","system_id":"levelo_inurba_marseille","lat":43.24206,"lon":5.38433,"is_reserved":false,"is_disabled":false,"rental_uris":{"android":"levelo://app?vid=8e69e7f9-76b5-4d0a-8b34-45d50fc637f3","ios":"levelo://app?vid=8e69e7f9-76b5-4d0a-8b34-45d50fc637f3"},"vehicle_type_id":"4","last_reported":1743296069,"current_range_meters":14000,"station_id":"","pricing_plan_id":"cebpf4jnsgd1na2vs0mg"},{"bike_id":"b63eee63-392e-4360-bd35-8f9c5961cdc8","system_id":"levelo_inurba_marseille","lat":43.26023,"lon":5.37549,"is_reserved":false,"is_disabled":false,"rental_uris":{"android":"levelo://app?vid=b63eee63-392e-4360-bd35-8f9c5961cdc8","ios":"levelo://app?vid=b63eee63-392e-4360-bd35-8f9c5961cdc8"},"vehicle_type_id":"4","last_reported":1743296069,"current_range_meters":14000,"station_id":"ce4bhgh2rcd13ifvqfa0","pricing_plan_id":"cebpf4jnsgd1na2vs0mg"},{"bike_id":"678bc6d0-4bd4-40f0-8870-caf577205182","system_id":"levelo_inurba_marseille","lat":43.29794,"lon":5.40402,"is_reserved":false,"is_disabled":false,"rental_uris":{"android":"levelo://app?vid=678bc6d0-4bd4-40f0-8870-caf577205182","ios":"levelo://app?vid=678bc6d0-4bd4-40f0-8870-caf577205182"},"vehicle_type_id":"4","last_reported":1743296069,"current_range_meters":14400,"station_id":"ce4bh112rcd13ifvqd90","pricing_plan_id":"cebpf4jnsgd1na2vs0mg"},{"bike_id":"a3c02b11-1fe2-4718-9598-942ef252fe63","system_id":"levelo_inurba_marseille","lat":43.25121,"lon":5.40319,"is_reserved":false,"is_disabled":false,"rental_uris":{"android":"levelo://app?vid=a3c02b11-1fe2-4718-9598-942ef252fe63","ios":"levelo://app?vid=a3c02b11-1fe2-4718-9598-942ef252fe63"},"vehicle_type_id":"4","last_reported":1743296069,"current_range_meters":14400,"station_id":"ce4bhlh2rcd13ifvqgig","pricing_plan_id":"cebpf4jnsgd1na2vs0mg"},{"bike_id":"d657b6c6-9c98-41e1-a011-dd2a714f5f2c","system_id":"levelo_inurba_marseille","lat":43.28452,"lon":5.39229,"is_reserved":false,"is_disabled":false,"rental_uris":{"android":"levelo://app?vid=d657b6c6-9c98-41e1-a011-dd2a714f5f2c","ios":"levelo://app?vid=d657b6c6-9c98-41e1-a011-dd2a714f5f2c"},"vehicle_type_id":"4","last_reported":1743296069,"current_range_meters":14400,"station_id":"ce4bhoh2rcd13ifvqh5g","pricing_plan_id":"cebpf4jnsgd1na2vs0mg"},{"bike_id":"4cecc92c-55c2-47ad-bd4f-c93295a571e1","system_id":"levelo_inurba_marseille","lat":43.30934,"lon":5.40149,"is_reserved":false,"is_disabled":false,"rental_uris":{"android":"levelo://app?vid=4cecc92c-55c2-47ad-bd4f-c93295a571e1","ios":"levelo://app?vid=4cecc92c-55c2-47ad-bd4f-c93295a571e1"},"vehicle_type_id":"4","last_reported":1743296069,"current_range_meters":14400,"station_id":"ce4bgvp2rcd13ifvqct0","pricing_plan_id":"cebpf4jnsgd1na2vs0mg"},{"bike_id":"f536323a-eaac-4757-bc97-e5f66f238cec","system_id":"levelo_inurba_marseille","lat":43.26819,"lon":5.4027,"is_reserved":false,"is_disabled":false,"rental_uris":{"android":"levelo://app?vid=f536323a-eaac-4757-bc97-e5f66f238cec","ios":"levelo://app?vid=f536323a-eaac-4757-bc97-e5f66f238cec"},"vehicle_type_id":"4","last_reported":1743296069,"current_range_meters":14400,"station_id":"ce501612rcd8frsf0b60","pricing_plan_id":"cebpf4jnsgd1na2vs0mg"},{"bike_id":"cd9fe94f-2c46-498e-b98e-ca05102383ed","system_id":"levelo_inurba_marseille","lat":43.28718,"lon":5.37931,"is_reserved":false,"is_disabled":false,"rental_uris":{"android":"levelo://app?vid=cd9fe94f-2c46-498e-b98e-ca05102383ed","ios":"levelo://app?vid=cd9fe94f-2c46-498e-b98e-ca05102383ed"},"vehicle_type_id":"4","last_reported":1743296069,"current_range_meters":14400,"station_id":"ce4bh9p2rcd13ifvqec0","pricing_plan_id":"cebpf4jnsgd1na2vs0mg"},{"bike_id":"a84445ff-337f-4fd5-9926-fe316147aff5","system_id":"levelo_inurba_marseille","lat":43.30942,"lon":5.40145,"is_reserved":false,"is_disabled":false,"rental_uris":{"android":"levelo://app?vid=a84445ff-337f-4fd5-9926-fe316147aff5","ios":"levelo://app?vid=a84445ff-337f-4fd5-9926-fe316147aff5"},"vehicle_type_id":"4","last_reported":1743296069,"current_range_meters":14400,"station_id":"ce4bgvp2rcd13ifvqct0","pricing_plan_id":"cebpf4jnsgd1na2vs0mg"},{"bike_id":"beb34198-0822-4d43-8731-400fe4a5d553","system_id":"levelo_inurba_marseille","lat":43.29552,"lon":5.42284,"is_reserved":false,"is_disabled":false,"rental_uris":{"android":"levelo://app?vid=beb34198-0822-4d43-8731-400fe4a5d553","ios":"levelo://app?vid=beb34198-0822-4d43-8731-400fe4a5d553"},"vehicle_type_id":"4","last_reported":1743296069,"current_range_meters":14800,"station_id":"ce4bhph2rcd13ifvqhdg","pricing_plan_id":"cebpf4jnsgd1na2vs0mg"},{"bike_id":"649a6830-5742-494a-8ceb-85347bcec024","system_id":"levelo_inurba_marseille","lat":43.29027,"lon":5.3757,"is_reserved":false,"is_disabled":false,"rental_uris":{"android":"levelo://app?vid=649a6830-5742-494a-8ceb-85347bcec024","ios":"levelo://app?vid=649a6830-5742-494a-8ceb-85347bcec024"},"vehicle_type_id":"4","last_reported":1743296069,"current_range_meters":14800,"station_id":"ce4bh692rcd13ifvqe90","pricing_plan_id":"cebpf4jnsgd1na2vs0mg"},{"bike_id":"407777fb-60d2-47dc-935e-2af8ba0009b1","system_id":"levelo_inurba_marseille","lat":43.29052,"lon":5.37155,"is_reserved":false,"is_disabled":false,"rental_uris":{"android":"levelo://app?vid=407777fb-60d2-47dc-935e-2af8ba0009b1","ios":"levelo://app?vid=407777fb-60d2-47dc-935e-2af8ba0009b1"},"vehicle_type_id":"4","last_reported":1743296069,"current_range_meters":15200,"station_id":"ce4bh5p2rcd13ifvqe4g","pricing_plan_id":"cebpf4jnsgd1na2vs0mg"},{"bike_id":"76859129-4009-4843-90a4-dc4d2b65271a","system_id":"levelo_inurba_marseille","lat":43.24199,"lon":5.36415,"is_reserved":false,"is_disabled":false,"rental_uris":{"android":"levelo://app?vid=76859129-4009-4843-90a4-dc4d2b65271a","ios":"levelo://app?vid=76859129-4009-4843-90a4-dc4d2b65271a"},"vehicle_type_id":"4","last_reported":1743296069,"current_range_meters":15200,"station_id":"cpo36qri1sfpv3e86is0","pricing_plan_id":"cebpf4jnsgd1na2vs0mg"},{"bike_id":"b73281d3-4024-4cc2-9467-a02b03434418","system_id":"levelo_inurba_marseille","lat":43.286201,"lon":5.351002,"is_reserved":false,"is_disabled":false,"rental_uris":{"android":"levelo://app?vid=b73281d3-4024-4cc2-9467-a02b03434418","ios":"levelo://app?vid=b73281d3-4024-4cc2-9467-a02b03434418"},"vehicle_type_id":"4","last_reported":1743296069,"current_range_meters":15200,"station_id":"ce4bhch2rcd13ifvqeug","pricing_plan_id":"cebpf4jnsgd1na2vs0mg"},{"bike_id":"7ac7a4c1-3112-47d8-9d12-346158e238a7","system_id":"levelo_inurba_marseille","lat":43.31535,"lon":5.3802,"is_reserved":false,"is_disabled":false,"rental_uris":{"android":"levelo://app?vid=7ac7a4c1-3112-47d8-9d12-346158e238a7","ios":"levelo://app?vid=7ac7a4c1-3112-47d8-9d12-346158e238a7"},"vehicle_type_id":"4","last_reported":1743296069,"current_range_meters":15200,"station_id":"ce4bhsp2rcd13ifvqi50","pricing_plan_id":"cebpf4jnsgd1na2vs0mg"},{"bike_id":"ff86a6f3-3f07-4397-ace0-4b2d8e9c1745","system_id":"levelo_inurba_marseille","lat":43.30257,"lon":5.40085,"is_reserved":false,"is_disabled":false,"rental_uris":{"android":"levelo://app?vid=ff86a6f3-3f07-4397-ace0-4b2d8e9c1745","ios":"levelo://app?vid=ff86a6f3-3f07-4397-ace0-4b2d8e9c1745"},"vehicle_type_id":"4","last_reported":1743296069,"current_range_meters":15200,"station_id":"ce4bgvh2rcd13ifvqcs0","pricing_plan_id":"cebpf4jnsgd1na2vs0mg"},{"bike_id":"608f89be-d8f7-4905-90f4-2fcb81c120d3","system_id":"levelo_inurba_marseille","lat":43.29044,"lon":5.37151,"is_reserved":false,"is_disabled":true,"rental_uris":{"android":"levelo://app?vid=608f89be-d8f7-4905-90f4-2fcb81c120d3","ios":"levelo://app?vid=608f89be-d8f7-4905-90f4-2fcb81c120d3"},"vehicle_type_id":"4","last_reported":1743296069,"current_range_meters":15200,"station_id":"ce4bh5p2rcd13ifvqe4g","pricing_plan_id":"cebpf4jnsgd1na2vs0mg"},{"bike_id":"5e62341f-443a-4ab2-9093-8f364ed472ed","system_id":"levelo_inurba_marseille","lat":43.318011,"lon":5.385175,"is_reserved":false,"is_disabled":false,"rental_uris":{"android":"levelo://app?vid=5e62341f-443a-4ab2-9093-8f364ed472ed","ios":"levelo://app?vid=5e62341f-443a-4ab2-9093-8f364ed472ed"},"vehicle_type_id":"4","last_reported":1743296069,"current_range_meters":16000,"station_id":"","pricing_plan_id":"cebpf4jnsgd1na2vs0mg"},{"bike_id":"8800990b-0588-4701-9f9b-d00ff201f1bf","system_id":"levelo_inurba_marseille","lat":43.3173,"lon":5.3901,"is_reserved":false,"is_disabled":false,"rental_uris":{"android":"levelo://app?vid=8800990b-0588-4701-9f9b-d00ff201f1bf","ios":"levelo://app?vid=8800990b-0588-4701-9f9b-d00ff201f1bf"},"vehicle_type_id":"4","last_reported":1743296069,"current_range_meters":16000,"station_id":"ce4bhqp2rcd13ifvqhng","pricing_plan_id":"cebpf4jnsgd1na2vs0mg"},{"bike_id":"c2e94277-389b-4482-ae7e-0f90e44fa1e2","system_id":"levelo_inurba_marseille","lat":43.32113,"lon":5.3677,"is_reserved":false,"is_disabled":false,"rental_uris":{"android":"levelo://app?vid=c2e94277-389b-4482-ae7e-0f90e44fa1e2","ios":"levelo://app?vid=c2e94277-389b-4482-ae7e-0f90e44fa1e2"},"vehicle_type_id":"4","last_reported":1743296069,"current_range_meters":16000,"station_id":"ce4bhrh2rcd13ifvqhug","pricing_plan_id":"cebpf4jnsgd1na2vs0mg"},{"bike_id":"bf8f06f8-9f7a-4ca6-97ef-3f544d07990e","system_id":"levelo_inurba_marseille","lat":43.29934,"lon":5.3941,"is_reserved":false,"is_disabled":false,"rental_uris":{"android":"levelo://app?vid=bf8f06f8-9f7a-4ca6-97ef-3f544d07990e","ios":"levelo://app?vid=bf8f06f8-9f7a-4ca6-97ef-3f544d07990e"},"vehicle_type_id":"4","last_reported":1743296069,"current_range_meters":16000,"station_id":"","pricing_plan_id":"cebpf4jnsgd1na2vs0mg"},{"bike_id":"bb9e407c-3a72-4f9c-a237-f82b7dae7f68","system_id":"levelo_inurba_marseille","lat":43.27123,"lon":5.39222,"is_reserved":false,"is_disabled":false,"rental_uris":{"android":"levelo://app?vid=bb9e407c-3a72-4f9c-a237-f82b7dae7f68","ios":"levelo://app?vid=bb9e407c-3a72-4f9c-a237-f82b7dae7f68"},"vehicle_type_id":"4","last_reported":1743296069,"current_range_meters":16000,"station_id":"","pricing_plan_id":"cebpf4jnsgd1na2vs0mg"},{"bike_id":"d33af3ae-bc40-4777-acfb-c69ad8669c07","system_id":"levelo_inurba_marseille","lat":43.29076,"lon":5.3718,"is_reserved":false,"is_disabled":false,"rental_uris":{"android":"levelo://app?vid=d33af3ae-bc40-4777-acfb-c69ad8669c07","ios":"levelo://app?vid=d33af3ae-bc40-4777-acfb-c69ad8669c07"},"vehicle_type_id":"4","last_reported":1743296069,"current_range_meters":16000,"station_id":"ce4bh5p2rcd13ifvqe4g","pricing_plan_id":"cebpf4jnsgd1na2vs0mg"},{"bike_id":"4323b71b-75a4-4344-aa79-0097aefcc021","system_id":"levelo_inurba_marseille","lat":43.2845,"lon":5.3588,"is_reserved":false,"is_disabled":false,"rental_uris":{"android":"levelo://app?vid=4323b71b-75a4-4344-aa79-0097aefcc021","ios":"levelo://app?vid=4323b71b-75a4-4344-aa79-0097aefcc021"},"vehicle_type_id":"4","last_reported":1743296069,"current_range_meters":16000,"station_id":"ce4bhah2rcd13ifvqei0","pricing_plan_id":"cebpf4jnsgd1na2vs0mg"},{"bike_id":"67085084-85a6-45a2-8452-0c83324101d7","system_id":"levelo_inurba_marseille","lat":43.25509,"lon":5.37648,"is_reserved":false,"is_disabled":false,"rental_uris":{"android":"levelo://app?vid=67085084-85a6-45a2-8452-0c83324101d7","ios":"levelo://app?vid=67085084-85a6-45a2-8452-0c83324101d7"},"vehicle_type_id":"4","last_reported":1743296069,"current_range_meters":16400,"station_id":"ce4bhh12rcd13ifvqff0","pricing_plan_id":"cebpf4jnsgd1na2vs0mg"},{"bike_id":"12cd2614-5759-4501-9c23-d3351a7cc7df","system_id":"levelo_inurba_marseille","lat":43.30543,"lon":5.38418,"is_reserved":false,"is_disabled":true,"rental_uris":{"android":"levelo://app?vid=12cd2614-5759-4501-9c23-d3351a7cc7df","ios":"levelo://app?vid=12cd2614-5759-4501-9c23-d3351a7cc7df"},"vehicle_type_id":"4","last_reported":1743296069,"current_range_meters":16400,"station_id":"ce4bgg92rcd13ifvqb30","pricing_plan_id":"cebpf4jnsgd1na2vs0mg"},{"bike_id":"7bcef57b-2b32-4033-b8b4-6fd7fe51a930","system_id":"levelo_inurba_marseille","lat":43.28626,"lon":5.35104,"is_reserved":false,"is_disabled":false,"rental_uris":{"android":"levelo://app?vid=7bcef57b-2b32-4033-b8b4-6fd7fe51a930","ios":"levelo://app?vid=7bcef57b-2b32-4033-b8b4-6fd7fe51a930"},"vehicle_type_id":"4","last_reported":1743296069,"current_range_meters":16400,"station_id":"ce4bhch2rcd13ifvqeug","pricing_plan_id":"cebpf4jnsgd1na2vs0mg"},{"bike_id":"1bc7cd77-9a11-4126-adfa-cfb607e79a31","system_id":"levelo_inurba_marseille","lat":43.26025,"lon":5.37547,"is_reserved":false,"is_disabled":false,"rental_uris":{"android":"levelo://app?vid=1bc7cd77-9a11-4126-adfa-cfb607e79a31","ios":"levelo://app?vid=1bc7cd77-9a11-4126-adfa-cfb607e79a31"},"vehicle_type_id":"4","last_reported":1743296069,"current_range_meters":16400,"station_id":"ce4bhgh2rcd13ifvqfa0","pricing_plan_id":"cebpf4jnsgd1na2vs0mg"},{"bike_id":"0b60b6cc-65bb-4e73-8958-1b351c6fdd96","system_id":"levelo_inurba_marseille","lat":43.32109,"lon":5.3679,"is_reserved":false,"is_disabled":false,"rental_uris":{"android":"levelo://app?vid=0b60b6cc-65bb-4e73-8958-1b351c6fdd96","ios":"levelo://app?vid=0b60b6cc-65bb-4e73-8958-1b351c6fdd96"},"vehicle_type_id":"4","last_reported":1743296069,"current_range_meters":16400,"station_id":"ce4bhrh2rcd13ifvqhug","pricing_plan_id":"cebpf4jnsgd1na2vs0mg"},{"bike_id":"fd077727-cac9-4da1-be78-e3859541690a","system_id":"levelo_inurba_marseille","lat":43.305379,"lon":5.384312,"is_reserved":false,"is_disabled":true,"rental_uris":{"android":"levelo://app?vid=fd077727-cac9-4da1-be78-e3859541690a","ios":"levelo://app?vid=fd077727-cac9-4da1-be78-e3859541690a"},"vehicle_type_id":"4","last_reported":1743296069,"current_range_meters":16800,"station_id":"ce4bgg92rcd13ifvqb30","pricing_plan_id":"cebpf4jnsgd1na2vs0mg"},{"bike_id":"d2bdab8d-508c-4617-a487-d6f2ad6bec6a","system_id":"levelo_inurba_marseille","lat":43.286188,"lon":5.351009,"is_reserved":false,"is_disabled":false,"rental_uris":{"android":"levelo://app?vid=d2bdab8d-508c-4617-a487-d6f2ad6bec6a","ios":"levelo://app?vid=d2bdab8d-508c-4617-a487-d6f2ad6bec6a"},"vehicle_type_id":"4","last_reported":1743296069,"current_range_meters":16800,"station_id":"ce4bhch2rcd13ifvqeug","pricing_plan_id":"cebpf4jnsgd1na2vs0mg"},{"bike_id":"f80b586e-f44c-41b6-b526-a06cd3999ad5","system_id":"levelo_inurba_marseille","lat":43.24081,"lon":5.37762,"is_reserved":false,"is_disabled":false,"rental_uris":{"android":"levelo://app?vid=f80b586e-f44c-41b6-b526-a06cd3999ad5","ios":"levelo://app?vid=f80b586e-f44c-41b6-b526-a06cd3999ad5"},"vehicle_type_id":"4","last_reported":1743296069,"current_range_meters":16800,"station_id":"ce4bhnp2rcd13ifvqgvg","pricing_plan_id":"cebpf4jnsgd1na2vs0mg"},{"bike_id":"64817d54-f960-48ce-91f2-66a2bd11fede","system_id":"levelo_inurba_marseille","lat":43.28451,"lon":5.39225,"is_reserved":false,"is_disabled":false,"rental_uris":{"android":"levelo://app?vid=64817d54-f960-48ce-91f2-66a2bd11fede","ios":"levelo://app?vid=64817d54-f960-48ce-91f2-66a2bd11fede"},"vehicle_type_id":"4","last_reported":1743296069,"current_range_meters":16800,"station_id":"ce4bhoh2rcd13ifvqh5g","pricing_plan_id":"cebpf4jnsgd1na2vs0mg"},{"bike_id":"e5e87896-fc79-4739-9748-f5cd1d13e44f","system_id":"levelo_inurba_marseille","lat":43.28625,"lon":5.351,"is_reserved":false,"is_disabled":false,"rental_uris":{"android":"levelo://app?vid=e5e87896-fc79-4739-9748-f5cd1d13e44f","ios":"levelo://app?vid=e5e87896-fc79-4739-9748-f5cd1d13e44f"},"vehicle_type_id":"4","last_reported":1743296069,"current_range_meters":16800,"station_id":"ce4bhch2rcd13ifvqeug","pricing_plan_id":"cebpf4jnsgd1na2vs0mg"},{"bike_id":"aff0f8a4-d043-4246-aa92-2f71b6ab6420","system_id":"levelo_inurba_marseille","lat":43.29621,"lon":5.37151,"is_reserved":false,"is_disabled":false,"rental_uris":{"android":"levelo://app?vid=aff0f8a4-d043-4246-aa92-2f71b6ab6420","ios":"levelo://app?vid=aff0f8a4-d043-4246-aa92-2f71b6ab6420"},"vehicle_type_id":"4","last_reported":1743296069,"current_range_meters":16800,"station_id":"ce4bgnh2rcd13ifvqc0g","pricing_plan_id":"cebpf4jnsgd1na2vs0mg"},{"bike_id":"b185afe1-45aa-4bea-b183-90a603b8cfda","system_id":"levelo_inurba_marseille","lat":43.26224,"lon":5.404517,"is_reserved":false,"is_disabled":false,"rental_uris":{"android":"levelo://app?vid=b185afe1-45aa-4bea-b183-90a603b8cfda","ios":"levelo://app?vid=b185afe1-45aa-4bea-b183-90a603b8cfda"},"vehicle_type_id":"4","last_reported":1743296069,"current_range_meters":17200,"station_id":"ce4bhmh2rcd13ifvqgmg","pricing_plan_id":"cebpf4jnsgd1na2vs0mg"},{"bike_id":"f576cb60-7ff4-4eb0-be38-9b8f0381786d","system_id":"levelo_inurba_marseille","lat":43.28328,"lon":5.36333,"is_reserved":false,"is_disabled":false,"rental_uris":{"android":"levelo://app?vid=f576cb60-7ff4-4eb0-be38-9b8f0381786d","ios":"levelo://app?vid=f576cb60-7ff4-4eb0-be38-9b8f0381786d"},"vehicle_type_id":"4","last_reported":1743296069,"current_range_meters":17200,"station_id":"","pricing_plan_id":"cebpf4jnsgd1na2vs0mg"},{"bike_id":"f4aa7984-6e0a-4355-a188-7dfbb140094d","system_id":"levelo_inurba_marseille","lat":43.28173,"lon":5.42633,"is_reserved":false,"is_disabled":false,"rental_uris":{"android":"levelo://app?vid=f4aa7984-6e0a-4355-a188-7dfbb140094d","ios":"levelo://app?vid=f4aa7984-6e0a-4355-a188-7dfbb140094d"},"vehicle_type_id":"4","last_reported":1743296069,"current_range_meters":17200,"station_id":"ce4bhnh2rcd13ifvqgug","pricing_plan_id":"cebpf4jnsgd1na2vs0mg"},{"bike_id":"58eb4411-6876-48b3-98f7-bbd26ed1611c","system_id":"levelo_inurba_marseille","lat":43.24808,"lon":5.37454,"is_reserved":false,"is_disabled":false,"rental_uris":{"android":"levelo://app?vid=58eb4411-6876-48b3-98f7-bbd26ed1611c","ios":"levelo://app?vid=58eb4411-6876-48b3-98f7-bbd26ed1611c"},"vehicle_type_id":"4","last_reported":1743296069,"current_range_meters":17200,"station_id":"ce4bhgh2rcd13ifvqfb0","pricing_plan_id":"cebpf4jnsgd1na2vs0mg"},