{"last_updated":1728576649,"ttl":60,"version":"2.2","data":{"bikes":[{"bike_id":"fc61c697-0405-4d7e-bb40-cfe30b19f812","system_id":"levelo_inurba_marseille","lat":43.26552,"lon":5.37292,"is_reserved":false,"is_disabled":false,"rental_uris":{"android":"levelo://app?vid=fc61c697-0405-4d7e-bb40-cfe30b19f812","ios":"levelo://app?vid=fc61c697-0405-4d7e-bb40-cfe30b19f812"},"vehicle_type_id":"4","last_reported":1728576649,"current_range_meters":7200,"station_id":"ce4bhg12rcd13ifvqf70","pricing_plan_id":"cebpf4jnsgd1na2vs0mg"},{"bike_id":"0b3988c7-09d8-46f2-9806-4fed86d54dff","system_id":"levelo_inurba_marseille","lat":43.23058,"lon":5.35508,"is_reserved":false,"is_disabled":false,"rental_uris":{"android":"levelo://app?vid=0b3988c7-09d8-46f2-9806-4fed86d54dff","ios":"levelo://app?vid=0b3988c7-09d8-46f2-9806-4fed86d54dff"},"vehicle_type_id":"4","last_reported":1728576649,"current_range_meters":2000,"station_id":"cpo3342slgdg3j2ifvpg","pricing_plan_id":"cebpf4jnsgd1na2vs0mg"},{"bike_id":"1f42e27b-c780-43bb-8055-cff472011824","system_id":"levelo_inurba_marseille","lat":43.303603,"lon":5.418833,"is_reserved":false,"is_disabled":false,"rental_uris":{"android":"levelo://app?vid=1f42e27b-c780-43bb-8055-cff472011824","ios":"levelo://app?vid=1f42e27b-c780-43bb-8055-cff472011824"},"vehicle_type_id":"4","last_reported":1728576649,"current_range_meters":38800,"station_id":"ce4bhop2rcd13ifvqh7g","pricing_plan_id":"cebpf4jnsgd1na2vs0mg"},{"bike_id":"d68704af-8f0a-4a2f-8782-6b54369ef33e","system_id":"levelo_inurba_marseille","lat":43.29628,"lon":5.406,"is_reserved":false,"is_disabled":false,"rental_uris":{"android":"levelo://app?vid=d68704af-8f0a-4a2f-8782-6b54369ef33e","ios":"levelo://app?vid=d68704af-8f0a-4a2f-8782-6b54369ef33e"},"vehicle_type_id":"4","last_reported":1728576649,"current_range_meters":11600,"station_id":"ce4bh0h2rcd13ifvqd60","pricing_plan_id":"cebpf4jnsgd1na2vs0mg"},{"bike_id":"2d36dd5f-d067-4b7b-87e3-7dedb20947ef","system_id":"levelo_inurba_marseille","lat":43.26058,"lon":5.39396,"is_reserved":false,"is_disabled":false,"rental_uris":{"android":"levelo://app?vid=2d36dd5f-d067-4b7b-87e3-7dedb20947ef","ios":"levelo://app?vid=2d36dd5f-d067-4b7b-87e3-7dedb20947ef"},"vehicle_type_id":"4","last_reported":1728576649,"current_range_meters":32000,"station_id":"ce4bhh92rcd13ifvqfj0","pricing_plan_id":"cebpf4jnsgd1na2vs0mg"},{"bike_id":"6cb2fd54-0aca-4f7d-aadb-bc057dc4fb59","system_id":"levelo_inurba_marseille","lat":43.23063,"lon":5.35492,"is_reserved":false,"is_disabled":false,"rental_uris":{"android":"levelo://app?vid=6cb2fd54-0aca-4f7d-aadb-bc057dc4fb59","ios":"levelo://app?vid=6cb2fd54-0aca-4f7d-aadb-bc057dc4fb59"},"vehicle_type_id":"4","last_reported":1728576649,"current_range_meters":32400,"station_id":"cpo3342slgdg3j2ifvpg","pricing_plan_id":"cebpf4jnsgd1na2vs0mg"},{"bike_id":"5b63d39e-aac6-4c88-bb01-a8366631a1f4","system_id":"levelo_inurba_marseille","lat":43.283999,"lon":5.34966,"is_reserved":false,"is_disabled":false,"rental_uris":{"android":"levelo://app?vid=5b63d39e-aac6-4c88-bb01-a8366631a1f4","ios":"levelo://app?vid=5b63d39e-aac6-4c88-bb01-a8366631a1f4"},"vehicle_type_id":"4","last_reported":1728576649,"current_range_meters":25200,"station_id":"ce4bhbh2rcd13ifvqepg","pricing_plan_id":"cebpf4jnsgd1na2vs0mg"},{"bike_id":"909aa8a2-9918-44b9-84f6-6b4ef9e2e659","system_id":"levelo_inurba_marseille","lat":43.25727,"lon":5.41112,"is_reserved":false,"is_disabled":false,"rental_uris":{"android":"levelo://app?vid=909aa8a2-9918-44b9-84f6-6b4ef9e2e659","ios":"levelo://app?vid=909aa8a2-9918-44b9-84f6-6b4ef9e2e659"},"vehicle_type_id":"4","last_reported":1728576649,"current_range_meters":18000,"station_id":"ce4bhkp2rcd13ifvqgd0","pricing_plan_id":"cebpf4jnsgd1na2vs0mg"},{"bike_id":"bd5868aa-89da-4716-92dd-e4d3f8d23c8a","system_id":"levelo_inurba_marseille","lat":43.28847,"lon":5.35845,"is_reserved":false,"is_disabled":false,"rental_uris":{"android":"levelo://app?vid=bd5868aa-89da-4716-92dd-e4d3f8d23c8a","ios":"levelo://app?vid=bd5868aa-89da-4716-92dd-e4d3f8d23c8a"},"vehicle_type_id":"4","last_reported":1728576649,"current_range_meters":33600,"station_id":"ce4bhb12rcd13ifvqem0","pricing_plan_id":"cebpf4jnsgd1na2vs0mg"},{"bike_id":"30825048-e09d-4481-98af-184ebdb541e1","system_id":"levelo_inurba_marseille","lat":43.29197,"lon":5.3581,"is_reserved":false,"is_disabled":false,"rental_uris":{"android":"levelo://app?vid=30825048-e09d-4481-98af-184ebdb541e1","ios":"levelo://app?vid=30825048-e09d-4481-98af-184ebdb541e1"},"vehicle_type_id":"4","last_reported":1728576649,"current_range_meters":31200,"station_id":"ce4bhb12rcd13ifvqel0","pricing_plan_id":"cebpf4jnsgd1na2vs0mg"},{"bike_id":"1a334e04-45ee-40e0-94b1-0827dc9a66b9","system_id":"levelo_inurba_marseille","lat":43.29868,"lon":5.39741,"is_reserved":false,"is_disabled":false,"rental_uris":{"android":"levelo://app?vid=1a334e04-45ee-40e0-94b1-0827dc9a66b9","ios":"levelo://app?vid=1a334e04-45ee-40e0-94b1-0827dc9a66b9"},"vehicle_type_id":"4","last_reported":1728576649,"current_range_meters":28800,"station_id":"ce4bh0h2rcd13ifvqd50","pricing_plan_id":"cebpf4jnsgd1na2vs0mg"},{"bike_id":"ef36172c-017b-459a-9ce9-a3b6f9d860f1","system_id":"levelo_inurba_marseille","lat":43.23194,"lon":5.35554,"is_reserved":false,"is_disabled":false,"rental_uris":{"android":"levelo://app?vid=ef36172c-017b-459a-9ce9-a3b6f9d860f1","ios":"levelo://app?vid=ef36172c-017b-459a-9ce9-a3b6f9d860f1"},"vehicle_type_id":"4","last_reported":1728576649,"current_range_meters":4000,"station_id":"ce4bhu92rcd13ifvqi70","pricing_plan_id":"cebpf4jnsgd1na2vs0mg"},{"bike_id":"0696bcda-3c4b-4fc6-a52a-646387bd3f39","system_id":"levelo_inurba_marseille","lat":43.31326,"lon":5.39699,"is_reserved":false,"is_disabled":false,"rental_uris":{"android":"levelo://app?vid=0696bcda-3c4b-4fc6-a52a-646387bd3f39","ios":"levelo://app?vid=0696bcda-3c4b-4fc6-a52a-646387bd3f39"},"vehicle_type_id":"4","last_reported":1728576649,"current_range_meters":37600,"station_id":"ce4bgvp2rcd13ifvqcu0","pricing_plan_id":"cebpf4jnsgd1na2vs0mg"},{"bike_id":"e872fc30-3c57-4a83-b46e-c9748d4c279a","system_id":"levelo_inurba_marseille","lat":43.337221,"lon":5.391973,"is_reserved":false,"is_disabled":false,"rental_uris":{"android":"levelo://app?vid=e872fc30-3c57-4a83-b46e-c9748d4c279a","ios":"levelo://app?vid=e872fc30-3c57-4a83-b46e-c9748d4c279a"},"vehicle_type_id":"4","last_reported":1728576649,"current_range_meters":25200,"station_id":"ce4bhr92rcd13ifvqhsg","pricing_plan_id":"cebpf4jnsgd1na2vs0mg"},{"bike_id":"8fd52a26-edb1-4575-bac7-84ab2b847ac9","system_id":"levelo_inurba_marseille","lat":43.25103,"lon":5.40329,"is_reserved":false,"is_disabled":false,"rental_uris":{"android":"levelo://app?vid=8fd52a26-edb1-4575-bac7-84ab2b847ac9","ios":"levelo://app?vid=8fd52a26-edb1-4575-bac7-84ab2b847ac9"},"vehicle_type_id":"4","last_reported":1728576649,"current_range_meters":12400,"station_id":"ce4bhlh2rcd13ifvqgig","pricing_plan_id":"cebpf4jnsgd1na2vs0mg"},{"bike_id":"e3476b47-e64f-41e3-bdfd-f6d725235dce","system_id":"levelo_inurba_marseille","lat":43.32473,"lon":5.36562,"is_reserved":false,"is_disabled":false,"rental_uris":{"android":"levelo://app?vid=e3476b47-e64f-41e3-bdfd-f6d725235dce","ios":"levelo://app?vid=e3476b47-e64f-41e3-bdfd-f6d725235dce"},"vehicle_type_id":"4","last_reported":1728576649,"current_range_meters":4800,"station_id":"ce4bhs12rcd13ifvqhvg","pricing_plan_id":"cebpf4jnsgd1na2vs0mg"},{"bike_id":"cad4b663-f958-40e6-a709-91f801ca8ed5","system_id":"levelo_inurba_marseille","lat":43.31884,"lon":5.40732,"is_reserved":false,"is_disabled":false,"rental_uris":{"android":"levelo://app?vid=cad4b663-f958-40e6-a709-91f801ca8ed5","ios":"levelo://app?vid=cad4b663-f958-40e6-a709-91f801ca8ed5"},"vehicle_type_id":"4","last_reported":1728576649,"current_range_meters":10800,"station_id":"ce4bhq12rcd13ifvqhig","pricing_plan_id":"cebpf4jnsgd1na2vs0mg"},{"bike_id":"1724a986-206e-44c4-acc6-99c3f365633c","system_id":"levelo_inurba_marseille","lat":43.23188,"lon":5.35559,"is_reserved":false,"is_disabled":false,"rental_uris":{"android":"levelo://app?vid=1724a986-206e-44c4-acc6-99c3f365633c","ios":"levelo://app?vid=1724a986-206e-44c4-acc6-99c3f365633c"},"vehicle_type_id":"4","last_reported":1728576649,"current_range_meters":17600,"station_id":"ce4bhu92rcd13ifvqi70","pricing_plan_id":"cebpf4jnsgd1na2vs0mg"},{"bike_id":"9db4d985-7949-4b7f-b898-6a0ca7ba3693","system_id":"levelo_inurba_marseille","lat":43.33774,"lon":5.37416,"is_reserved":false,"is_disabled":false,"rental_uris":{"android":"levelo://app?vid=9db4d985-7949-4b7f-b898-6a0ca7ba3693","ios":"levelo://app?vid=9db4d985-7949-4b7f-b898-6a0ca7ba3693"},"vehicle_type_id":"4","last_reported":1728576649,"current_range_meters":35600,"station_id":"ce4rr2p2rcd13i802rgg","pricing_plan_id":"cebpf4jnsgd1na2vs0mg"},{"bike_id":"ea70e096-b89a-4b8c-b4d0-38420e4975d1","system_id":"levelo_inurba_marseille","lat":43.29849,"lon":5.36293,"is_reserved":false,"is_disabled":false,"rental_uris":{"android":"levelo://app?vid=ea70e096-b89a-4b8c-b4d0-38420e4975d1","ios":"levelo://app?vid=ea70e096-b89a-4b8c-b4d0-38420e4975d1"},"vehicle_type_id":"4","last_reported":1728576649,"current_range_meters":37600,"station_id":"ce4bgpp2rcd13ifvqc3g","pricing_plan_id":"cebpf4jnsgd1na2vs0mg"},{"bike_id":"c2709d8c-182c-4c66-9678-32143d413767","system_id":"levelo_inurba_marseille","lat":43.22936,"lon":5.35378,"is_reserved":false,"is_disabled":false,"rental_uris":{"android":"levelo://app?vid=c2709d8c-182c-4c66-9678-32143d413767","ios":"levelo://app?vid=c2709d8c-182c-4c66-9678-32143d413767"},"vehicle_type_id":"4","last_reported":1728576649,"current_range_meters":36400,"station_id":"cpo3532slgdg3j2ikp40","pricing_plan_id":"cebpf4jnsgd1na2vs0mg"},{"bike_id":"9e1fc8ca-2c20-4aa4-b67d-0fe3b672594e","system_id":"levelo_inurba_marseille","lat":43.30931,"lon":5.40151,"is_reserved":false,"is_disabled":false,"rental_uris":{"android":"levelo://app?vid=9e1fc8ca-2c20-4aa4-b67d-0fe3b672594e","ios":"levelo://app?vid=9e1fc8ca-2c20-4aa4-b67d-0fe3b672594e"},"vehicle_type_id":"4","last_reported":1728576649,"current_range_meters":38800,"station_id":"ce4bgvp2rcd13ifvqct0","pricing_plan_id":"cebpf4jnsgd1na2vs0mg"},{"bike_id":"ec63c6e9-432c-4339-881b-b1c70a7e2cfb","system_id":"levelo_inurba_marseille","lat":43.28268,"lon":5.35084,"is_reserved":false,"is_disabled":false,"rental_uris":{"android":"levelo://app?vid=ec63c6e9-432c-4339-881b-b1c70a7e2cfb","ios":"levelo://app?vid=ec63c6e9-432c-4339-881b-b1c70a7e2cfb"},"vehicle_type_id":"4","last_reported":1728576649,"current_range_meters":10800,"station_id":"ce4bhbp2rcd13ifvqerg","pricing_plan_id":"cebpf4jnsgd1na2vs0mg"},{"bike_id":"fecb51fb-10a1-4ebb-99b1-41471d86219a","system_id":"levelo_inurba_marseille","lat":43.31688,"lon":5.40478,"is_reserved":false,"is_disabled":false,"rental_uris":{"android":"levelo://app?vid=fecb51fb-10a1-4ebb-99b1-41471d86219a","ios":"levelo://app?vid=fecb51fb-10a1-4ebb-99b1-41471d86219a"},"vehicle_type_id":"4","last_reported":1728576649,"current_range_meters":24800,"station_id":"ce4bh012rcd13ifvqd00","pricing_plan_id":"cebpf4jnsgd1na2vs0mg"},{"bike_id":"5bad3ee3-289e-4912-a5ae-c751b1b68232","system_id":"levelo_inurba_marseille","lat":43.29931,"lon":5.36555,"is_reserved":false,"is_disabled":false,"rental_uris":{"android":"levelo://app?vid=5bad3ee3-289e-4912-a5ae-c751b1b68232","ios":"levelo://app?vid=5bad3ee3-289e-4912-a5ae-c751b1b68232"},"vehicle_type_id":"4","last_reported":1728576649,"current_range_meters":24000,"station_id":"ce4bgm92rcd13ifvqbr0","pricing_plan_id":"cebpf4jnsgd1na2vs0mg"},{"bike_id":"62918417-719d-469b-8283-8987db3281c3","system_id":"levelo_inurba_marseille","lat":43.29556,"lon":5.42297,"is_reserved":false,"is_disabled":false,"rental_uris":{"android":"levelo://app?vid=62918417-719d-469b-8283-8987db3281c3","ios":"levelo://app?vid=62918417-719d-469b-8283-8987db3281c3"},"vehicle_type_id":"4","last_reported":1728576649,"current_range_meters":24000,"station_id":"ce4bhph2rcd13ifvqhdg","pricing_plan_id":"cebpf4jnsgd1na2vs0mg"},{"bike_id":"b1d748ee-8192-48d6-8cd2-baf805274842","system_id":"levelo_inurba_marseille","lat":43.29675,"lon":5.37299,"is_reserved":false,"is_disabled":false,"rental_uris":{"android":"levelo://app?vid=b1d748ee-8192-48d6-8cd2-baf805274842","ios":"levelo://app?vid=b1d748ee-8192-48d6-8cd2-baf805274842"},"vehicle_type_id":"4","last_reported":1728576649,"current_range_meters":3200,"station_id":"ce4bgk12rcd13ifvqbj0","pricing_plan_id":"cebpf4jnsgd1na2vs0mg"},{"bike_id":"4d1417af-5828-4a71-9f17-d5349730b7c9","system_id":"levelo_inurba_marseille","lat":43.28033,"lon":5.36944,"is_reserved":false,"is_disabled":false,"rental_uris":{"android":"levelo://app?vid=4d1417af-5828-4a71-9f17-d5349730b7c9","ios":"levelo://app?vid=4d1417af-5828-4a71-9f17-d5349730b7c9"},"vehicle_type_id":"4","last_reported":1728576649,"current_range_meters":32800,"station_id":"ce4bha12rcd13ifvqef0","pricing_plan_id":"cebpf4jnsgd1na2vs0mg"},{"bike_id":"f35a75c7-6402-4831-8677-14c56e469dc8","system_id":"levelo_inurba_marseille","lat":43.28573,"lon":5.3949,"is_reserved":false,"is_disabled":false,"rental_uris":{"android":"levelo://app?vid=f35a75c7-6402-4831-8677-14c56e469dc8","ios":"levelo://app?vid=f35a75c7-6402-4831-8677-14c56e469dc8"},"vehicle_type_id":"4","last_reported":1728576649,"current_range_meters":6000,"station_id":"ce4bh292rcd13ifvqdg0","pricing_plan_id":"cebpf4jnsgd1na2vs0mg"},{"bike_id":"c4e532ba-6980-4097-9637-96ca47c92953","system_id":"levelo_inurba_marseille","lat":43.25579,"lon":5.38233,"is_reserved":false,"is_disabled":false,"rental_uris":{"android":"levelo://app?vid=c4e532ba-6980-4097-9637-96ca47c92953","ios":"levelo://app?vid=c4e532ba-6980-4097-9637-96ca47c92953"},"vehicle_type_id":"4","last_reported":1728576649,"current_range_meters":14000,"station_id":"ce4bhih2rcd13ifvqfs0","pricing_plan_id":"cebpf4jnsgd1na2vs0mg"},{"bike_id":"43fc1766-8007-41cf-8271-58326cd185e5","system_id":"levelo_inurba_marseille","lat":43.2558,"lon":5.38238,"is_reserved":false,"is_disabled":false,"rental_uris":{"android":"levelo://app?vid=43fc1766-8007-41cf-8271-58326cd185e5","ios":"levelo://app?vid=43fc1766-8007-41cf-8271-58326cd185e5"},"vehicle_type_id":"4","last_reported":1728576649,"current_range_meters":19200,"station_id":"ce4bhih2rcd13ifvqfs0","pricing_plan_id":"cebpf4jnsgd1na2vs0mg"},{"bike_id":"f92a9fb8-9f73-4cf9-bc9b-2bdf5b520248","system_id":"levelo_inurba_marseille","lat":43.32543,"lon":5.41445,"is_reserved":false,"is_disabled":false,"rental_uris":{"android":"levelo://app?vid=f92a9fb8-9f73-4cf9-bc9b-2bdf5b520248","ios":"levelo://app?vid=f92a9fb8-9f73-4cf9-bc9b-2bdf5b520248"},"vehicle_type_id":"4","last_reported":1728576649,"current_range_meters":38800,"station_id":"ce4bhq12rcd13ifvqhhg","pricing_plan_id":"cebpf4jnsgd1na2vs0mg"},{"bike_id":"18ef610d-ab24-4281-9df1-b1c93760f39a","system_id":"levelo_inurba_marseille","lat":43.33026,"lon":5.39028,"is_reserved":false,"is_disabled":false,"rental_uris":{"android":"levelo://app?vid=18ef610d-ab24-4281-9df1-b1c93760f39a","ios":"levelo://app?vid=18ef610d-ab24-4281-9df1-b1c93760f39a"},"vehicle_type_id":"4","last_reported":1728576649,"current_range_meters":38400,"station_id":"ce4bhr92rcd13ifvqhrg","pricing_plan_id":"cebpf4jnsgd1na2vs0mg"},{"bike_id":"7cc85ee3-e5c0-4d75-88a9-1f1df7a03739","system_id":"levelo_inurba_marseille","lat":43.28723,"lon":5.361,"is_reserved":false,"is_disabled":false,"rental_uris":{"android":"levelo://app?vid=7cc85ee3-e5c0-4d75-88a9-1f1df7a03739","ios":"levelo://app?vid=7cc85ee3-e5c0-4d75-88a9-1f1df7a03739"},"vehicle_type_id":"4","last_reported":1728576649,"current_range_meters":23200,"station_id":"cki0cbj6b192h4jlfktg","pricing_plan_id":"cebpf4jnsgd1na2vs0mg"},{"bike_id":"50aa4af7-94b4-48c9-959d-eeec3eaec001","system_id":"levelo_inurba_marseille","lat":43.2319,"lon":5.3555,"is_reserved":false,"is_disabled":false,"rental_uris":{"android":"levelo://app?vid=50aa4af7-94b4-48c9-959d-eeec3eaec001","ios":"levelo://app?vid=50aa4af7-94b4-48c9-959d-eeec3eaec001"},"vehicle_type_id":"4","last_reported":1728576649,"current_range_meters":6800,"station_id":"ce4bhu92rcd13ifvqi70","pricing_plan_id":"cebpf4jnsgd1na2vs0mg"},{"bike_id":"a873da32-93b3-4f8f-b6b5-6e09d61438df","system_id":"levelo_inurba_marseille","lat":43.28034,"lon":5.36951,"is_reserved":false,"is_disabled":false,"rental_uris":{"android":"levelo://app?vid=a873da32-93b3-4f8f-b6b5-6e09d61438df","ios":"levelo://app?vid=a873da32-93b3-4f8f-b6b5-6e09d61438df"},"vehicle_type_id":"4","last_reported":1728576649,"current_range_meters":11600,"station_id":"ce4bha12rcd13ifvqef0","pricing_plan_id":"cebpf4jnsgd1na2vs0mg"},{"bike_id":"c39d82b4-6fe4-41bd-999c-c910cdf93de2","system_id":"levelo_inurba_marseille","lat":43.2963,"lon":5.40601,"is_reserved":false,"is_disabled":false,"rental_uris":{"android":"levelo://app?vid=c39d82b4-6fe4-41bd-999c-c910cdf93de2","ios":"levelo://app?vid=c39d82b4-6fe4-41bd-999c-c910cdf93de2"},"vehicle_type_id":"4","last_reported":1728576649,"current_range_meters":2800,"station_id":"ce4bh0h2rcd13ifvqd60","pricing_plan_id":"cebpf4jnsgd1na2vs0mg"},{"bike_id":"255093a8-c98a-4773-851f-60ca2d6fabdf","system_id":"levelo_inurba_marseille","lat":43.32283,"lon":5.3827,"is_reserved":false,"is_disabled":false,"rental_uris":{"android":"levelo://app?vid=255093a8-c98a-4773-851f-60ca2d6fabdf","ios":"levelo://app?vid=255093a8-c98a-4773-851f-60ca2d6fabdf"},"vehicle_type_id":"4","last_reported":1728576649,"current_range_meters":35200,"station_id":"ce4bhr12rcd13ifvqhqg","pricing_plan_id":"cebpf4jnsgd1na2vs0mg"},{"bike_id":"f387bdab-84ad-49a5-b68d-3415d8c524ae","system_id":"levelo_inurba_marseille","lat":43.29867,"lon":5.39739,"is_reserved":false,"is_disabled":false,"rental_uris":{"android":"levelo://app?vid=f387bdab-84ad-49a5-b68d-3415d8c524ae","ios":"levelo://app?vid=f387bdab-84ad-49a5-b68d-3415d8c524ae"},"vehicle_type_id":"4","last_reported":1728576649,"current_range_meters":22800,"station_id":"ce4bh0h2rcd13ifvqd50","pricing_plan_id":"cebpf4jnsgd1na2vs0mg"},{"bike_id":"1eda9a62-3980-4c15-b6d5-579365675c4b","system_id":"levelo_inurba_marseille","lat":43.29033,"lon":5.37775,"is_reserved":false,"is_disabled":false,"rental_uris":{"android":"levelo://app?vid=1eda9a62-3980-4c15-b6d5-579365675c4b","ios":"levelo://app?vid=1eda9a62-3980-4c15-b6d5-579365675c4b"},"vehicle_type_id":"4","last_reported":1728576649,"current_range_meters":14000,"station_id":"","pricing_plan_id":"cebpf4jnsgd1na2vs0mg"},{"bike_id":"52799f7c-437d-4392-9ce1-0dc74f861eb0","system_id":"levelo_inurba_marseille","lat":43.28456,"lon":5.35903,"is_reserved":false,"is_disabled":false,"rental_uris":{"android":"levelo://app?vid=52799f7c-437d-4392-9ce1-0dc74f861eb0","ios":"levelo://app?vid=52799f7c-437d-4392-9ce1-0dc74f861eb0"},"vehicle_type_id":"4","last_reported":1728576649,"current_range_meters":24800,"station_id":"ce4bhah2rcd13ifvqei0","pricing_plan_id":"cebpf4jnsgd1na2vs0mg"},{"bike_id":"2f69aa11-0d09-4901-a86f-cd3598c88e51","system_id":"levelo_inurba_marseille","lat":43.30882,"lon":5.39651,"is_reserved":false,"is_disabled":false,"rental_uris":{"android":"levelo://app?vid=2f69aa11-0d09-4901-a86f-cd3598c88e51","ios":"levelo://app?vid=2f69aa11-0d09-4901-a86f-cd3598c88e51"},"vehicle_type_id":"4","last_reported":1728576649,"current_range_meters":17600,"station_id":"ce4bh012rcd13ifvqcv0","pricing_plan_id":"cebpf4jnsgd1na2vs0mg"},{"bike_id":"a4490fd3-f193-4aa3-904a-93047e4d61b8","system_id":"levelo_inurba_marseille","lat":43.28705,"lon":5.37393,"is_reserved":false,"is_disabled":false,"rental_uris":{"android":"levelo://app?vid=a4490fd3-f193-4aa3-904a-93047e4d61b8","ios":"levelo://app?vid=a4490fd3-f193-4aa3-904a-93047e4d61b8"},"vehicle_type_id":"4","last_reported":1728576649,"current_range_meters":12800,"station_id":"ce4bh3p2rcd13ifvqdq0","pricing_plan_id":"cebpf4jnsgd1na2vs0mg"},{"bike_id":"5b01b83d-e189-4ebd-99af-cf16d397ae6c","system_id":"levelo_inurba_marseille","lat":43.26937,"lon":5.40255,"is_reserved":false,"is_disabled":false,"rental_uris":{"android":"levelo://app?vid=5b01b83d-e189-4ebd-99af-cf16d397ae6c","ios":"levelo://app?vid=5b01b83d-e189-4ebd-99af-cf16d397ae6c"},"vehicle_type_id":"4","last_reported":1728576649,"current_range_meters":14000,"station_id":"cjm6bp8fraef2m0cb0m0","pricing_plan_id":"cebpf4jnsgd1na2vs0mg"},{"bike_id":"ff68b789-7173-415f-860f-fb58c1b9d01d","system_id":"levelo_inurba_marseille","lat":43.22928,"lon":5.35376,"is_reserved":false,"is_disabled":false,"rental_uris":{"android":"levelo://app?vid=ff68b789-7173-415f-860f-fb58c1b9d01d","ios":"levelo://app?vid=ff68b789-7173-415f-860f-fb58c1b9d01d"},"vehicle_type_id":"4","last_reported":1728576649,"current_range_meters":36000,"station_id":"cpo3532slgdg3j2ikp40","pricing_plan_id":"cebpf4jnsgd1na2vs0mg"},{"bike_id":"924a9ed1-ca4e-44c4-a003-5955b143b28c","system_id":"levelo_inurba_marseille","lat":43.23193,"lon":5.35543,"is_reserved":false,"is_disabled":false,"rental_uris":{"android":"levelo://app?vid=924a9ed1-ca4e-44c4-a003-5955b143b28c","ios":"levelo://app?vid=924a9ed1-ca4e-44c4-a003-5955b143b28c"},"vehicle_type_id":"4","last_reported":1728576649,"current_range_meters":9200,"station_id":"ce4bhu92rcd13ifvqi70","pricing_plan_id":"cebpf4jnsgd1na2vs0mg"},{"bike_id":"fc34a4c2-5dda-43dc-8c76-0302a62a6427","system_id":"levelo_inurba_marseille","lat":43.23191,"lon":5.35558,"is_reserved":false,"is_disabled":false,"rental_uris":{"android":"levelo://app?vid=fc34a4c2-5dda-43dc-8c76-0302a62a6427","ios":"levelo://app?vid=fc34a4c2-5dda-43dc-8c76-0302a62a6427"},"vehicle_type_id":"4","last_reported":1728576649,"current_range_meters":35600,"station_id":"ce4bhu92rcd13ifvqi70","pricing_plan_id":"cebpf4jnsgd1na2vs0mg"},{"bike_id":"8c8a0ee1-3ab0-407d-b80f-5a93c65fda5f","system_id":"levelo_inurba_marseille","lat":43.27377,"lon":5.36254,"is_reserved":false,"is_disabled":false,"rental_uris":{"android":"levelo://app?vid=8c8a0ee1-3ab0-407d-b80f-5a93c65fda5f","ios":"levelo://app?vid=8c8a0ee1-3ab0-407d-b80f-5a93c65fda5f"},"vehicle_type_id":"4","last_reported":1728576649,"current_range_meters":28400,"station_id":"ce4bhbh2rcd13ifvqeo0","pricing_plan_id":"cebpf4jnsgd1na2vs0mg"},{"bike_id":"b43e010f-69ea-40f6-9796-119442586a51","system_id":"levelo_inurba_marseille","lat":43.31334,"lon":5.39702,"is_reserved":false,"is_disabled":false,"rental_uris":{"android":"levelo://app?vid=b43e010f-69ea-40f6-9796-119442586a51","ios":"levelo://app?vid=b43e010f-69ea-40f6-9796-119442586a51"},"vehicle_type_id":"4","last_reported":1728576649,"current_range_meters":8800,"station_id":"ce4bgvp2rcd13ifvqcu0","pricing_plan_id":"cebpf4jnsgd1na2vs0mg"},{"bike_id":"9f88dc8d-9155-4ad8-a361-2d02eb5a9925","system_id":"levelo_inurba_marseille","lat":43.28705,"lon":5.374,"is_reserved":false,"is_disabled":false,"rental_uris":{"android":"levelo://app?vid=9f88dc8d-9155-4ad8-a361-2d02eb5a9925","ios":"levelo://app?vid=9f88dc8d-9155-4ad8-a361-2d02eb5a9925"},"vehicle_type_id":"4","last_reported":1728576649,"current_range_meters":10000,"station_id":"ce4bh3p2rcd13ifvqdq0","pricing_plan_id":"cebpf4jnsgd1na2vs0mg"},{"bike_id":"b88acc46-208f-442f-82c2-468418a3d08f","system_id":"levelo_inurba_marseille","lat":43.33721,"lon":5.39179,"is_reserved":false,"is_disabled":false,"rental_uris":{"android":"levelo://app?vid=b88acc46-208f-442f-82c2-468418a3d08f","ios":"levelo://app?vid=b88acc46-208f-442f-82c2-468418a3d08f"},"vehicle_type_id":"4","last_reported":1728576649,"current_range_meters":36800,"station_id":"ce4bhr92rcd13ifvqhsg","pricing_plan_id":"cebpf4jnsgd1na2vs0mg"},{"bike_id":"0620e781-1a16-480d-9275-a7d02faf0fcb","system_id":"levelo_inurba_marseille","lat":43.25115,"lon":5.40324,"is_reserved":false,"is_disabled":false,"rental_uris":{"android":"levelo://app?vid=0620e781-1a16-480d-9275-a7d02faf0fcb","ios":"levelo://app?vid=0620e781-1a16-480d-9275-a7d02faf0fcb"},"vehicle_type_id":"4","last_reported":1728576649,"current_range_meters":39200,"station_id":"ce4bhlh2rcd13ifvqgig","pricing_plan_id":"cebpf4jnsgd1na2vs0mg"},{"bike_id":"eebb49f0-4579-4d9f-8cfb-42e73af49cac","system_id":"levelo_inurba_marseille","lat":43.29892,"lon":5.43675,"is_reserved":false,"is_disabled":false,"rental_uris":{"android":"levelo://app?vid=eebb49f0-4579-4d9f-8cfb-42e73af49cac","ios":"levelo://app?vid=eebb49f0-4579-4d9f-8cfb-42e73af49cac"},"vehicle_type_id":"4","last_reported":1728576649,"current_range_meters":8000,"station_id":"ce4bhpp2rcd13ifvqhfg","pricing_plan_id":"cebpf4jnsgd1na2vs0mg"},{"bike_id":"1d836810-b087-41ef-9575-71bc0b3b0a92","system_id":"levelo_inurba_marseille","lat":43.293692,"lon":5.378436,"is_reserved":false,"is_disabled":false,"rental_uris":{"android":"levelo://app?vid=1d836810-b087-41ef-9575-71bc0b3b0a92","ios":"levelo://app?vid=1d836810-b087-41ef-9575-71bc0b3b0a92"},"vehicle_type_id":"4","last_reported":1728576649,"current_range_meters":12000,"station_id":"ce4bgjh2rcd13ifvqbf0","pricing_plan_id":"cebpf4jnsgd1na2vs0mg"},{"bike_id":"82697ae7-d045-409e-92f7-ffc3e96088b9","system_id":"levelo_inurba_marseille","lat":43.272278,"lon":5.391901,"is_reserved":false,"is_disabled":false,"rental_uris":{"android":"levelo://app?vid=82697ae7-d045-409e-92f7-ffc3e96088b9","ios":"levelo://app?vid=82697ae7-d045-409e-92f7-ffc3e96088b9"},"vehicle_type_id":"4","last_reported":1728576649,"current_range_meters":22400,"station_id":"ce4bhnh2rcd13ifvqgtg","pricing_plan_id":"cebpf4jnsgd1na2vs0mg"},{"bike_id":"ed387c29-2c35-44c5-9d2d-052874e18014","system_id":"levelo_inurba_marseille","lat":43.29792,"lon":5.381,"is_reserved":false,"is_disabled":false,"rental_uris":{"android":"levelo://app?vid=ed387c29-2c35-44c5-9d2d-052874e18014","ios":"levelo://app?vid=ed387c29-2c35-44c5-9d2d-052874e18014"},"vehicle_type_id":"4","last_reported":1728576649,"current_range_meters":14800,"station_id":"ce4bgip2rcd13ifvqbb0","pricing_plan_id":"cebpf4jnsgd1na2vs0mg"},{"bike_id":"2c320775-be5e-496e-a5b8-68d2e183dc03","system_id":"levelo_inurba_marseille","lat":43.26551,"lon":5.37297,"is_reserved":false,"is_disabled":false,"rental_uris":{"android":"levelo://app?vid=2c320775-be5e-496e-a5b8-68d2e183dc03","ios":"levelo://app?vid=2c320775-be5e-496e-a5b8-68d2e183dc03"},"vehicle_type_id":"4","last_reported":1728576649,"current_range_meters":25200,"station_id":"ce4bhg12rcd13ifvqf70","pricing_plan_id":"cebpf4jnsgd1na2vs0mg"},{"bike_id":"054068ce-16c8-45dd-8ccb-c8f1d3af3d15","system_id":"levelo_inurba_marseille","lat":43.24085,"lon":5.37749,"is_reserved":false,"is_disabled":false,"rental_uris":{"android":"levelo://app?vid=054068ce-16c8-45dd-8ccb-c8f1d3af3d15","ios":"levelo://app?vid=054068ce-16c8-45dd-8ccb-c8f1d3af3d15"},"vehicle_type_id":"4","last_reported":1728576649,"current_range_meters":25600,"station_id":"ce4bhnp2rcd13ifvqgvg","pricing_plan_id":"cebpf4jnsgd1na2vs0mg"},{"bike_id":"f90ca49f-87e5-4ffa-83bf-89fbe4726d17","system_id":"levelo_inurba_marseille","lat":43.232,"lon":5.35549,"is_reserved":false,"is_disabled":false,"rental_uris":{"android":"levelo://app?vid=f90ca49f-87e5-4ffa-83bf-89fbe4726d17","ios":"levelo://app?vid=f90ca49f-87e5-4ffa-83bf-89fbe4726d17"},"vehicle_type_id":"4","last_reported":1728576649,"current_range_meters":35600,"station_id":"ce4bhu92rcd13ifvqi70","pricing_plan_id":"cebpf4jnsgd1na2vs0mg"},{"bike_id":"ac028764-654f-4979-bed1-d337c814b18f","system_id":"levelo_inurba_marseille","lat":43.27837,"lon":5.39206,"is_reserved":false,"is_disabled":false,"rental_uris":{"android":"levelo://app?vid=ac028764-654f-4979-bed1-d337c814b18f","ios":"levelo://app?vid=ac028764-654f-4979-bed1-d337c814b18f"},"vehicle_type_id":"4","last_reported":1728576649,"current_range_meters":12800,"station_id":"ce4bhjp2rcd13ifvqga0","pricing_plan_id":"cebpf4jnsgd1na2vs0mg"},{"bike_id":"f7dadf74-8e19-44f4-9a6a-28a98ca4f1a2","system_id":"levelo_inurba_marseille","lat":43.29529,"lon":5.39398,"is_reserved":false,"is_disabled":false,"rental_uris":{"android":"levelo://app?vid=f7dadf74-8e19-44f4-9a6a-28a98ca4f1a2","ios":"levelo://app?vid=f7dadf74-8e19-44f4-9a6a-28a98ca4f1a2"},"vehicle_type_id":"4","last_reported":1728576649,"current_range_meters":38800,"station_id":"ce4bh292rcd13ifvqdf0","pricing_plan_id":"cebpf4jnsgd1na2vs0mg"},{"bike_id":"0a125837-9c22-46de-adf7-5eaa0fb35a0a","system_id":"levelo_inurba_marseille","lat":43.284821,"lon":5.385477,"is_reserved":false,"is_disabled":false,"rental_uris":{"android":"levelo://app?vid=0a125837-9c22-46de-adf7-5eaa0fb35a0a","ios":"levelo://app?vid=0a125837-9c22-46de-adf7-5eaa0fb35a0a"},"vehicle_type_id":"4","last_reported":1728576649,"current_range_meters":4800,"station_id":"ce4bh8p2rcd13ifvqeb0","pricing_plan_id":"cebpf4jnsgd1na2vs0mg"},{"bike_id":"64f679a1-a1d4-4b59-a1ba-d04a2899b8ee","system_id":"levelo_inurba_marseille","lat":43.28611,"lon":5.3511,"is_reserved":false,"is_disabled":false,"rental_uris":{"android":"levelo://app?vid=64f679a1-a1d4-4b59-a1ba-d04a2899b8ee","ios":"levelo://app?vid=64f679a1-a1d4-4b59-a1ba-d04a2899b8ee"},"vehicle_type_id":"4","last_reported":1728576649,"current_range_meters":27200,"station_id":"ce4bhch2rcd13ifvqeug","pricing_plan_id":"cebpf4jnsgd1na2vs0mg"},{"bike_id":"3923d6a3-e73b-44bb-8509-b03a77b56ca9","system_id":"levelo_inurba_marseille","lat":43.28411,"lon":5.3498,"is_reserved":false,"is_disabled":false,"rental_uris":{"android":"levelo://app?vid=3923d6a3-e73b-44bb-8509-b03a77b56ca9","ios":"levelo://app?vid=3923d6a3-e73b-44bb-8509-b03a77b56ca9"},"vehicle_type_id":"4","last_reported":1728576649,"current_range_meters":12000,"station_id":"ce4bhbh2rcd13ifvqepg","pricing_plan_id":"cebpf4jnsgd1na2vs0mg"},{"bike_id":"b3e9416b-3c96-4d10-978b-bd0136109af7","system_id":"levelo_inurba_marseille","lat":43.30797,"lon":5.43524,"is_reserved":false,"is_disabled":false,"rental_uris":{"android":"levelo://app?vid=b3e9416b-3c96-4d10-978b-bd0136109af7","ios":"levelo://app?vid=b3e9416b-3c96-4d10-978b-bd0136109af7"},"vehicle_type_id":"4","last_reported":1728576649,"current_range_meters":14400,"station_id":"ce4bhph2rcd13ifvqheg","pricing_plan_id":"cebpf4jnsgd1na2vs0mg"},{"bike_id":"6621e1af-9ca0-463c-a3ad-f651030b0dd3","system_id":"levelo_inurba_marseille","lat":43.23193,"lon":5.35549,"is_reserved":false,"is_disabled":false,"rental_uris":{"android":"levelo://app?vid=6621e1af-9ca0-463c-a3ad-f651030b0dd3","ios":"levelo://app?vid=6621e1af-9ca0-463c-a3ad-f651030b0dd3"},"vehicle_type_id":"4","last_reported":1728576649,"current_range_meters":36400,"station_id":"ce4bhu92rcd13ifvqi70","pricing_plan_id":"cebpf4jnsgd1na2vs0mg"},{"bike_id":"e275b495-c8a7-45fc-8a3d-b1141369f512","system_id":"levelo_inurba_marseille","lat":43.31689,"lon":5.40479,"is_reserved":false,"is_disabled":false,"rental_uris":{"android":"levelo://app?vid=e275b495-c8a7-45fc-8a3d-b1141369f512","ios":"levelo://app?vid=e275b495-c8a7-45fc-8a3d-b1141369f512"},"vehicle_type_id":"4","last_reported":1728576649,"current_range_meters":38800,"station_id":"ce4bh012rcd13ifvqd00","pricing_plan_id":"cebpf4jnsgd1na2vs0mg"},{"bike_id":"d38d003d-1f4a-455d-aa6b-5e98ec828e2a","system_id":"levelo_inurba_marseille","lat":43.29905,"lon":5.38136,"is_reserved":false,"is_disabled":false,"rental_uris":{"android":"levelo://app?vid=d38d003d-1f4a-455d-aa6b-5e98ec828e2a","ios":"levelo://app?vid=d38d003d-1f4a-455d-aa6b-5e98ec828e2a"},"vehicle_type_id":"4","last_reported":1728576649,"current_range_meters":6400,"station_id":"ce4bgj12rcd13ifvqbc0","pricing_plan_id":"cebpf4jnsgd1na2vs0mg"},{"bike_id":"3372ba1c-93af-4ac9-8ffa-34868b7baae2","system_id":"levelo_inurba_marseille","lat":43.31755,"lon":5.39021,"is_reserved":false,"is_disabled":false,"rental_uris":{"android":"levelo://app?vid=3372ba1c-93af-4ac9-8ffa-34868b7baae2","ios":"levelo://app?vid=3372ba1c-93af-4ac9-8ffa-34868b7baae2"},"vehicle_type_id":"4","last_reported":1728576649,"current_range_meters":17200,"station_id":"ce4bhqp2rcd13ifvqhng","pricing_plan_id":"cebpf4jnsgd1na2vs0mg"},{"bike_id":"7cc986d5-11bb-46e4-a29e-0a3a8f8867df","system_id":"levelo_inurba_marseille","lat":43.25586,"lon":5.38228,"is_reserved":false,"is_disabled":false,"rental_uris":{"android":"levelo://app?vid=7cc986d5-11bb-46e4-a29e-0a3a8f8867df","ios":"levelo://app?vid=7cc986d5-11bb-46e4-a29e-0a3a8f8867df"},"vehicle_type_id":"4","last_reported":1728576649,"current_range_meters":12000,"station_id":"ce4bhih2rcd13ifvqfs0","pricing_plan_id":"cebpf4jnsgd1na2vs0mg"},{"bike_id":"30d0bead-6542-4716-b2b1-9152d4c027c2","system_id":"levelo_inurba_marseille","lat":43.291962,"lon":5.357925,"is_reserved":false,"is_disabled":false,"rental_uris":{"android":"levelo://app?vid=30d0bead-6542-4716-b2b1-9152d4c027c2","ios":"levelo://app?vid=30d0bead-6542-4716-b2b1-9152d4c027c2"},"vehicle_type_id":"4","last_reported":1728576649,"current_range_meters":27600,"station_id":"ce4bhb12rcd13ifvqel0","pricing_plan_id":"cebpf4jnsgd1na2vs0mg"},{"bike_id":"d536ef4b-b253-4bee-9285-eb782f8f6cab","system_id":"levelo_inurba_marseille","lat":43.32624,"lon":5.40439,"is_reserved":false,"is_disabled":false,"rental_uris":{"android":"levelo://app?vid=d536ef4b-b253-4bee-9285-eb782f8f6cab","ios":"levelo://app?vid=d536ef4b-b253-4bee-9285-eb782f8f6cab"},"vehicle_type_id":"4","last_reported":1728576649,"current_range_meters":30800,"station_id":"","pricing_plan_id":"cebpf4jnsgd1na2vs0mg"},{"bike_id":"7bf9f97c-de8a-4cbc-b649-fea77448e8ee","system_id":"levelo_inurba_marseille","lat":43.30883,"lon":5.39652,"is_reserved":false,"is_disabled":false,"rental_uris":{"android":"levelo://app?vid=7bf9f97c-de8a-4cbc-b649-fea77448e8ee","ios":"levelo://app?vid=7bf9f97c-de8a-4cbc-b649-fea77448e8ee"},"vehicle_type_id":"4","last_reported":1728576649,"current_range_meters":23200,"station_id":"ce4bh012rcd13ifvqcv0","pricing_plan_id":"cebpf4jnsgd1na2vs0mg"},{"bike_id":"9e64e64b-2dc0-438a-beb3-79783aedc41f","system_id":"levelo_inurba_marseille","lat":43.295306,"lon":5.38535,"is_reserved":false,"is_disabled":false,"rental_uris":{"android":"levelo://app?vid=9e64e64b-2dc0-438a-beb3-79783aedc41f","ios":"levelo://app?vid=9e64e64b-2dc0-438a-beb3-79783aedc41f"},"vehicle_type_id":"4","last_reported":1728576649,"current_range_meters":22800,"station_id":"ce4bgih2rcd13ifvqba0","pricing_plan_id":"cebpf4jnsgd1na2vs0mg"},{"bike_id":"c5f0e07f-0529-41c6-8a3e-f846c745494b","system_id":"levelo_inurba_marseille","lat":43.25722,"lon":5.41098,"is_reserved":false,"is_disabled":false,"rental_uris":{"android":"levelo://app?vid=c5f0e07f-0529-41c6-8a3e-f846c745494b","ios":"levelo://app?vid=c5f0e07f-0529-41c6-8a3e-f846c745494b"},"vehicle_type_id":"4","last_reported":1728576649,"current_range_meters":19200,"station_id":"ce4bhkp2rcd13ifvqgd0","pricing_plan_id":"cebpf4jnsgd1na2vs0mg"},{"bike_id":"8034954c-a6c8-46de-8165-a51114fd0886","system_id":"levelo_inurba_marseille","lat":43.29854,"lon":5.36292,"is_reserved":false,"is_disabled":false,"rental_uris":{"android":"levelo://app?vid=8034954c-a6c8-46de-8165-a51114fd0886","ios":"levelo://app?vid=8034954c-a6c8-46de-8165-a51114fd0886"},"vehicle_type_id":"4","last_reported":1728576649,"current_range_meters":19600,"station_id":"ce4bgpp2rcd13ifvqc3g","pricing_plan_id":"cebpf4jnsgd1na2vs0mg"},{"bike_id":"b9264db6-d9eb-46d0-bb4f-c31690a7755e","system_id":"levelo_inurba_marseille","lat":43.28613,"lon":5.3511,"is_reserved":false,"is_disabled":false,"rental_uris":{"android":"levelo://app?vid=b9264db6-d9eb-46d0-bb4f-c31690a7755e","ios":"levelo://app?vid=b9264db6-d9eb-46d0-bb4f-c31690a7755e"},"vehicle_type_id":"4","last_reported":1728576649,"current_range_meters":21600,"station_id":"ce4bhch2rcd13ifvqeug","pricing_plan_id":"cebpf4jnsgd1na2vs0mg"},{"bike_id":"06b27864-a5a7-4489-b26b-eaada4f75230","system_id":"levelo_inurba_marseille","lat":43.31704,"lon":5.37747,"is_reserved":false,"is_disabled":false,"rental_uris":{"android":"levelo://app?vid=06b27864-a5a7-4489-b26b-eaada4f75230","ios":"levelo://app?vid=06b27864-a5a7-4489-b26b-eaada4f75230"},"vehicle_type_id":"4","last_reported":1728576649,"current_range_meters":17600,"station_id":"ce4bgth2rcd13ifvqch0","pricing_plan_id":"cebpf4jnsgd1na2vs0mg"},{"bike_id":"91e3be0f-e79d-4e2e-89ba-4fd94d89b75d","system_id":"levelo_inurba_marseille","lat":43.272325,"lon":5.413755,"is_reserved":false,"is_disabled":false,"rental_uris":{"android":"levelo://app?vid=91e3be0f-e79d-4e2e-89ba-4fd94d89b75d","ios":"levelo://app?vid=91e3be0f-e79d-4e2e-89ba-4fd94d89b75d"},"vehicle_type_id":"4","last_reported":1728576649,"current_range_meters":16000,"station_id":"ce4bhl12rcd13ifvqgf0","pricing_plan_id":"cebpf4jnsgd1na2vs0mg"},{"bike_id":"071ef719-3185-4a47-aca0-a85d9c3aa92b","system_id":"levelo_inurba_marseille","lat":43.299398,"lon":5.372976,"is_reserved":false,"is_disabled":false,"rental_uris":{"android":"levelo://app?vid=071ef719-3185-4a47-aca0-a85d9c3aa92b","ios":"levelo://app?vid=071ef719-3185-4a47-aca0-a85d9c3aa92b"},"vehicle_type_id":"4","last_reported":1728576649,"current_range_meters":37600,"station_id":"ce4bgjh2rcd13ifvqbg0","pricing_plan_id":"cebpf4jnsgd1na2vs0mg"},{"bike_id":"8665fe75-7b1c-4b25-955b-a02aa16eff4b","system_id":"levelo_inurba_marseille","lat":43.28798,"lon":5.36367,"is_reserved":false,"is_disabled":false,"rental_uris":{"android":"levelo://app?vid=8665fe75-7b1c-4b25-955b-a02aa16eff4b","ios":"levelo://app?vid=8665fe75-7b1c-4b25-955b-a02aa16eff4b"},"vehicle_type_id":"4","last_reported":1728576649,"current_range_meters":16800,"station_id":"","pricing_plan_id":"cebpf4jnsgd1na2vs0mg"},{"bike_id":"fff76bcd-6f97-4ba6-8c1a-3c519833be52","system_id":"levelo_inurba_marseille","lat":43.25726,"lon":5.41115,"is_reserved":false,"is_disabled":false,"rental_uris":{"android":"levelo://app?vid=fff76bcd-6f97-4ba6-8c1a-3c519833be52","ios":"levelo://app?vid=fff76bcd-6f97-4ba6-8c1a-3c519833be52"},"vehicle_type_id":"4","last_reported":1728576649,"current_range_meters":28000,"station_id":"ce4bhkp2rcd13ifvqgd0","pricing_plan_id":"cebpf4jnsgd1na2vs0mg"},{"bike_id":"37f3f6b6-21b0-4ec8-93c1-6870b7fbef6b","system_id":"levelo_inurba_marseille","lat":43.28615,"lon":5.35108,"is_reserved":false,"is_disabled":false,"rental_uris":{"android":"levelo://app?vid=37f3f6b6-21b0-4ec8-93c1-6870b7fbef6b","ios":"levelo://app?vid=37f3f6b6-21b0-4ec8-93c1-6870b7fbef6b"},"vehicle_type_id":"4","last_reported":1728576649,"current_range_meters":12800,"station_id":"ce4bhch2rcd13ifvqeug","pricing_plan_id":"cebpf4jnsgd1na2vs0mg"},{"bike_id":"7dcb47e3-78b2-48db-930e-03ffb96525ec","system_id":"levelo_inurba_marseille","lat":43.302027,"lon":5.394218,"is_reserved":false,"is_disabled":false,"rental_uris":{"android":"levelo://app?vid=7dcb47e3-78b2-48db-930e-03ffb96525ec","ios":"levelo://app?vid=7dcb47e3-78b2-48db-930e-03ffb96525ec"},"vehicle_type_id":"4","last_reported":1728576649,"current_range_meters":20800,"station_id":"ce4bh0p2rcd13ifvqd70","pricing_plan_id":"cebpf4jnsgd1na2vs0mg"},{"bike_id":"5e74aa9a-5824-4573-98c2-a304dd58eb4f","system_id":"levelo_inurba_marseille","lat":43.29258,"lon":5.40915,"is_reserved":false,"is_disabled":false,"rental_uris":{"android":"levelo://app?vid=5e74aa9a-5824-4573-98c2-a304dd58eb4f","ios":"levelo://app?vid=5e74aa9a-5824-4573-98c2-a304dd58eb4f"},"vehicle_type_id":"4","last_reported":1728576649,"current_range_meters":36800,"station_id":"ce4bh192rcd13ifvqdc0","pricing_plan_id":"cebpf4jnsgd1na2vs0mg"},{"bike_id":"74b51eaa-19c3-42d8-b347-cdd0662439e4","system_id":"levelo_inurba_marseille","lat":43.3133,"lon":5.39691,"is_reserved":false,"is_disabled":false,"rental_uris":{"android":"levelo://app?vid=74b51eaa-19c3-42d8-b347-cdd0662439e4","ios":"levelo://app?vid=74b51eaa-19c3-42d8-b347-cdd0662439e4"},"vehicle_type_id":"4","last_reported":1728576649,"current_range_meters":38800,"station_id":"ce4bgvp2rcd13ifvqcu0","pricing_plan_id":"cebpf4jnsgd1na2vs0mg"},{"bike_id":"075f4f60-ae71-4882-a451-baf07e9e9ce2","system_id":"levelo_inurba_marseille","lat":43.28421,"lon":5.34992,"is_reserved":false,"is_disabled":false,"rental_uris":{"android":"levelo://app?vid=075f4f60-ae71-4882-a451-baf07e9e9ce2","ios":"levelo://app?vid=075f4f60-ae71-4882-a451-baf07e9e9ce2"},"vehicle_type_id":"4","last_reported":1728576649,"current_range_meters":18000,"station_id":"ce4bhbh2rcd13ifvqepg","pricing_plan_id":"cebpf4jnsgd1na2vs0mg"},{"bike_id":"492e4da9-6417-4ade-8d27-289bbc582369","system_id":"levelo_inurba_marseille","lat":43.30933,"lon":5.40149,"is_reserved":false,"is_disabled":false,"rental_uris":{"android":"levelo://app?vid=492e4da9-6417-4ade-8d27-289bbc582369","ios":"levelo://app?vid=492e4da9-6417-4ade-8d27-289bbc582369"},"vehicle_type_id":"4","last_reported":1728576649,"current_range_meters":38800,"station_id":"ce4bgvp2rcd13ifvqct0","pricing_plan_id":"cebpf4jnsgd1na2vs0mg"},{"bike_id":"fd7604c4-98e4-4252-82ca-41414ed41dfa","system_id":"levelo_inurba_marseille","lat":43.29908,"lon":5.38158,"is_reserved":false,"is_disabled":false,"rental_uris":{"android":"levelo://app?vid=fd7604c4-98e4-4252-82ca-41414ed41dfa","ios":"levelo://app?vid=fd7604c4-98e4-4252-82ca-41414ed41dfa"},"vehicle_type_id":"4","last_reported":1728576649,"current_range_meters":33200,"station_id":"ce4bgj12rcd13ifvqbc0","pricing_plan_id":"cebpf4jnsgd1na2vs0mg"},{"bike_id":"77630871-ee26-4062-bba0-396c87396f66","system_id":"levelo_inurba_marseille","lat":43.313974,"lon":5.397415,"is_reserved":false,"is_disabled":false,"rental_uris":{"android":"levelo://app?vid=77630871-ee26-4062-bba0-396c87396f66","ios":"levelo://app?vid=77630871-ee26-4062-bba0-396c87396f66"},"vehicle_type_id":"4","last_reported":1728576649,"current_range_meters":30800,"station_id":"ce4bgvp2rcd13ifvqcu0","pricing_plan_id":"cebpf4jnsgd1na2vs0mg"},{"bike_id":"aa75c41c-1391-4d5a-b0ad-fb29c317877d","system_id":"levelo_inurba_marseille","lat":43.2307,"lon":5.35496,"is_reserved":false,"is_disabled":false,"rental_uris":{"android":"levelo://app?vid=aa75c41c-1391-4d5a-b0ad-fb29c317877d","ios":"levelo://app?vid=aa75c41c-1391-4d5a-b0ad-fb29c317877d"},"vehicle_type_id":"4","last_reported":1728576649,"current_range_meters":10800,"station_id":"cpo3342slgdg3j2ifvpg","pricing_plan_id":"cebpf4jnsgd1na2vs0mg"},{"bike_id":"01d9a2d0-801d-4574-807a-6b9998cee8c2","system_id":"levelo_inurba_marseille","lat":43.30789,"lon":5.37655,"is_reserved":false,"is_disabled":false,"rental_uris":{"android":"levelo://app?vid=01d9a2d0-801d-4574-807a-6b9998cee8c2","ios":"levelo://app?vid=01d9a2d0-801d-4574-807a-6b9998cee8c2"},"vehicle_type_id":"4","last_reported":1728576649,"current_range_meters":25600,"station_id":"ce4bgv92rcd13ifvqcq0","pricing_plan_id":"cebpf4jnsgd1na2vs0mg"},{"bike_id":"e7b87563-cde2-40b4-b2fa-3db767609ca2","system_id":"levelo_inurba_marseille","lat":43.31279,"lon":5.40172,"is_reserved":false,"is_disabled":false,"rental_uris":{"android":"levelo://app?vid=e7b87563-cde2-40b4-b2fa-3db767609ca2","ios":"levelo://app?vid=e7b87563-cde2-40b4-b2fa-3db767609ca2"},"vehicle_type_id":"4","last_reported":1728576649,"current_range_meters":6800,"station_id":"ce4bh092rcd13ifvqd30","pricing_plan_id":"cebpf4jnsgd1na2vs0mg"},{"bike_id":"b1009450-6152-462c-a724-90df51eeb6db","system_id":"levelo_inurba_marseille","lat":43.32358,"lon":5.3888,"is_reserved":false,"is_disabled":false,"rental_uris":{"android":"levelo://app?vid=b1009450-6152-462c-a724-90df51eeb6db","ios":"levelo://app?vid=b1009450-6152-462c-a724-90df51eeb6db"},"vehicle_type_id":"4","last_reported":1728576649,"current_range_meters":9200,"station_id":"ce4bhqp2rcd13ifvqhog","pricing_plan_id":"cebpf4jnsgd1na2vs0mg"},{"bike_id":"a7fcfde7-1b52-424c-abf3-366cb213470a","system_id":"levelo_inurba_marseille","lat":43.28076,"lon":5.39664,"is_reserved":false,"is_disabled":false,"rental_uris":{"android":"levelo://app?vid=a7fcfde7-1b52-424c-abf3-366cb213470a","ios":"levelo://app?vid=a7fcfde7-1b52-424c-abf3-366cb213470a"},"vehicle_type_id":"4","last_reported":1728576649,"current_range_meters":2000,"station_id":"ce4bho12rcd13ifvqh2g","pricing_plan_id":"cebpf4jnsgd1na2vs0mg"},{"bike_id":"b23acee4-5720-4575-91af-11c4e23edb2d","system_id":"levelo_inurba_marseille","lat":43.337444,"lon":5.374475,"is_reserved":false,"is_disabled":false,"rental_uris":{"android":"levelo://app?vid=b23acee4-5720-4575-91af-11c4e23edb2d","ios":"levelo://app?vid=b23acee4-5720-4575-91af-11c4e23edb2d"},"vehicle_type_id":"4","last_reported":1728576649,"current_range_meters":38800,"station_id":"ce4rr2p2rcd13i802rgg","pricing_plan_id":"cebpf4jnsgd1na2vs0mg"},{"bike_id":"4ed814d6-5875-4046-9910-736c97ebba18","system_id":"levelo_inurba_marseille","lat":43.27902,"lon":5.38006,"is_reserved":false,"is_disabled":false,"rental_uris":{"android":"levelo://app?vid=4ed814d6-5875-4046-9910-736c97ebba18","ios":"levelo://app?vid=4ed814d6-5875-4046-9910-736c97ebba18"},"vehicle_type_id":"4","last_reported":1728576649,"current_range_meters":38800,"station_id":"ce4bhf92rcd13ifvqf50","pricing_plan_id":"cebpf4jnsgd1na2vs0mg"},{"bike_id":"25c4b79c-69ac-41cd-bef7-1f0598342a6b","system_id":"levelo_inurba_marseille","lat":43.24804,"lon":5.37462,"is_reserved":false,"is_disabled":false,"rental_uris":{"android":"levelo://app?vid=25c4b79c-69ac-41cd-bef7-1f0598342a6b","ios":"levelo://app?vid=25c4b79c-69ac-41cd-bef7-1f0598342a6b"},"vehicle_type_id":"4","last_reported":1728576649,"current_range_meters":6400,"station_id":"ce4bhgh2rcd13ifvqfb0","pricing_plan_id":"cebpf4jnsgd1na2vs0mg"},{"bike_id":"dc8a3d09-637e-430f-8e0e-40451ed90d45","system_id":"levelo_inurba_marseille","lat":43.29303,"lon":5.37177,"is_reserved":false,"is_disabled":false,"rental_uris":{"android":"levelo://app?vid=dc8a3d09-637e-430f-8e0e-40451ed90d45","ios":"levelo://app?vid=dc8a3d09-637e-430f-8e0e-40451ed90d45"},"vehicle_type_id":"4","last_reported":1728576649,"current_range_meters":8000,"station_id":"ce4bgh92rcd13ifvqb40","pricing_plan_id":"cebpf4jnsgd1na2vs0mg"},{"bike_id":"7e9118c7-ac91-4dfd-a123-fd0171c1170c","system_id":"levelo_inurba_marseille","lat":43.32535,"lon":5.36873,"is_reserved":false,"is_disabled":false,"rental_uris":{"android":"levelo://app?vid=7e9118c7-ac91-4dfd-a123-fd0171c1170c","ios":"levelo://app?vid=7e9118c7-ac91-4dfd-a123-fd0171c1170c"},"vehicle_type_id":"4","last_reported":1728576649,"current_range_meters":8000,"station_id":"","pricing_plan_id":"cebpf4jnsgd1na2vs0mg"},{"bike_id":"37bd8ca0-8651-4332-ba7d-b93c2a193aca","system_id":"levelo_inurba_marseille","lat":43.30883,"lon":5.39651,"is_reserved":false,"is_disabled":false,"rental_uris":{"android":"levelo://app?vid=37bd8ca0-8651-4332-ba7d-b93c2a193aca","ios":"levelo://app?vid=37bd8ca0-8651-4332-ba7d-b93c2a193aca"},"vehicle_type_id":"4","last_reported":1728576649,"current_range_meters":36400,"station_id":"ce4bh012rcd13ifvqcv0","pricing_plan_id":"cebpf4jnsgd1na2vs0mg"},{"bike_id":"0bc446d5-2b28-44af-a331-dafd96e068db","system_id":"levelo_inurba_marseille","lat":43.29045,"lon":5.35918,"is_reserved":false,"is_disabled":false,"rental_uris":{"android":"levelo://app?vid=0bc446d5-2b28-44af-a331-dafd96e068db","ios":"levelo://app?vid=0bc446d5-2b28-44af-a331-dafd96e068db"},"vehicle_type_id":"4","last_reported":1728576649,"current_range_meters":6400,"station_id":"ce4bha92rcd13ifvqeg0","pricing_plan_id":"cebpf4jnsgd1na2vs0mg"},{"bike_id":"e4d69715-31b8-43a3-9208-69b751e15fcd","system_id":"levelo_inurba_marseille","lat":43.32365,"lon":5.3889,"is_reserved":false,"is_disabled":false,"rental_uris":{"android":"levelo://app?vid=e4d69715-31b8-43a3-9208-69b751e15fcd","ios":"levelo://app?vid=e4d69715-31b8-43a3-9208-69b751e15fcd"},"vehicle_type_id":"4","last_reported":1728576649,"current_range_meters":32400,"station_id":"ce4bhqp2rcd13ifvqhog","pricing_plan_id":"cebpf4jnsgd1na2vs0mg"},{"bike_id":"dfa685be-9105-4751-8093-8a3dfecb3a8d","system_id":"levelo_inurba_marseille","lat":43.26683,"lon":5.3827,"is_reserved":false,"is_disabled":false,"rental_uris":{"android":"levelo://app?vid=dfa685be-9105-4751-8093-8a3dfecb3a8d","ios":"levelo://app?vid=dfa685be-9105-4751-8093-8a3dfecb3a8d"},"vehicle_type_id":"4","last_reported":1728576649,"current_range_meters":2800,"station_id":"ce4bhg92rcd13ifvqf90","pricing_plan_id":"cebpf4jnsgd1na2vs0mg"},{"bike_id":"5211300e-8cc7-4ce3-90b9-f9f7a4a80867","system_id":"levelo_inurba_marseille","lat":43.2404,"lon":5.36409,"is_reserved":false,"is_disabled":false,"rental_uris":{"android":"levelo://app?vid=5211300e-8cc7-4ce3-90b9-f9f7a4a80867","ios":"levelo://app?vid=5211300e-8cc7-4ce3-90b9-f9f7a4a80867"},"vehicle_type_id":"4","last_reported":1728576649,"current_range_meters":19600,"station_id":"","pricing_plan_id":"cebpf4jnsgd1na2vs0mg"},{"bike_id":"a34d029b-b09a-4723-9e9e-cbcb6df7a888","system_id":"levelo_inurba_marseille","lat":43.29419,"lon":5.38621,"is_reserved":false,"is_disabled":false,"rental_uris":{"android":"levelo://app?vid=a34d029b-b09a-4723-9e9e-cbcb6df7a888","ios":"levelo://app?vid=a34d029b-b09a-4723-9e9e-cbcb6df7a888"},"vehicle_type_id":"4","last_reported":1728576649,"current_range_meters":24000,"station_id":"ce4bh2h2rcd13ifvqdh0","pricing_plan_id":"cebpf4jnsgd1na2vs0mg"},{"bike_id":"37b985c9-f3d8-4dd0-9385-54dc38ddc611","system_id":"levelo_inurba_marseille","lat":43.29513,"lon":5.39407,"is_reserved":false,"is_disabled":false,"rental_uris":{"android":"levelo://app?vid=37b985c9-f3d8-4dd0-9385-54dc38ddc611","ios":"levelo://app?vid=37b985c9-f3d8-4dd0-9385-54dc38ddc611"},"vehicle_type_id":"4","last_reported":1728576649,"current_range_meters":4400,"station_id":"ce4bh292rcd13ifvqdf0","pricing_plan_id":"cebpf4jnsgd1na2vs0mg"},{"bike_id":"b3c5eab7-f50b-4fb8-ba0f-81f34bbfb9a3","system_id":"levelo_inurba_marseille","lat":43.29057,"lon":5.35583,"is_reserved":false,"is_disabled":false,"rental_uris":{"android":"levelo://app?vid=b3c5eab7-f50b-4fb8-ba0f-81f34bbfb9a3","ios":"levelo://app?vid=b3c5eab7-f50b-4fb8-ba0f-81f34bbfb9a3"},"vehicle_type_id":"4","last_reported":1728576649,"current_range_meters":26000,"station_id":"","pricing_plan_id":"cebpf4jnsgd1na2vs0mg"},{"bike_id":"d8714f9f-21dd-4e46-8364-f467944f1ce7","system_id":"levelo_inurba_marseille","lat":43.26193,"lon":5.37454,"is_reserved":false,"is_disabled":false,"rental_uris":{"android":"levelo://app?vid=d8714f9f-21dd-4e46-8364-f467944f1ce7","ios":"levelo://app?vid=d8714f9f-21dd-4e46-8364-f467944f1ce7"},"vehicle_type_id":"4","last_reported":1728576649,"current_range_meters":38400,"station_id":"ce4bhgp2rcd13ifvqfc0","pricing_plan_id":"cebpf4jnsgd1na2vs0mg"},{"bike_id":"5dfa2838-4504-41be-9fc8-f547b858c03a","system_id":"levelo_inurba_marseille","lat":43.28104,"lon":5.37843,"is_reserved":false,"is_disabled":false,"rental_uris":{"android":"levelo://app?vid=5dfa2838-4504-41be-9fc8-f547b858c03a","ios":"levelo://app?vid=5dfa2838-4504-41be-9fc8-f547b858c03a"},"vehicle_type_id":"4","last_reported":1728576649,"current_range_meters":27600,"station_id":"ce4bha12rcd13ifvqee0","pricing_plan_id":"cebpf4jnsgd1na2vs0mg"},{"bike_id":"3ae18fed-f345-4ef0-8ed2-3540202f3e73","system_id":"levelo_inurba_marseille","lat":43.33748,"lon":5.37444,"is_reserved":false,"is_disabled":false,"rental_uris":{"android":"levelo://app?vid=3ae18fed-f345-4ef0-8ed2-3540202f3e73","ios":"levelo://app?vid=3ae18fed-f345-4ef0-8ed2-3540202f3e73"},"vehicle_type_id":"4","last_reported":1728576649,"current_range_meters":32000,"station_id":"ce4rr2p2rcd13i802rgg","pricing_plan_id":"cebpf4jnsgd1na2vs0mg"},{"bike_id":"bf9f2382-8f44-401a-a828-ab4329593ed4","system_id":"levelo_inurba_marseille","lat":43.28267,"lon":5.35061,"is_reserved":false,"is_disabled":false,"rental_uris":{"android":"levelo://app?vid=bf9f2382-8f44-401a-a828-ab4329593ed4","ios":"levelo://app?vid=bf9f2382-8f44-401a-a828-ab4329593ed4"},"vehicle_type_id":"4","last_reported":1728576649,"current_range_meters":3600,"station_id":"ce4bhbp2rcd13ifvqerg","pricing_plan_id":"cebpf4jnsgd1na2vs0mg"},{"bike_id":"e0f6e71a-7ca2-4194-8245-64d6c6e6aad8","system_id":"levelo_inurba_marseille","lat":43.30796,"lon":5.43529,"is_reserved":false,"is_disabled":false,"rental_uris":{"android":"levelo://app?vid=e0f6e71a-7ca2-4194-8245-64d6c6e6aad8","ios":"levelo://app?vid=e0f6e71a-7ca2-4194-8245-64d6c6e6aad8"},"vehicle_type_id":"4","last_reported":1728576649,"current_range_meters":28800,"station_id":"ce4bhph2rcd13ifvqheg","pricing_plan_id":"cebpf4jnsgd1na2vs0mg"},{"bike_id":"4333d701-1223-4c86-9e23-9985d2dfc93e","system_id":"levelo_inurba_marseille","lat":43.29263,"lon":5.38443,"is_reserved":false,"is_disabled":false,"rental_uris":{"android":"levelo://app?vid=4333d701-1223-4c86-9e23-9985d2dfc93e","ios":"levelo://app?vid=4333d701-1223-4c86-9e23-9985d2dfc93e"},"vehicle_type_id":"4","last_reported":1728576649,"current_range_meters":33200,"station_id":"ce4bh692rcd13ifvqea0","pricing_plan_id":"cebpf4jnsgd1na2vs0mg"},{"bike_id":"9084b3e1-4325-4062-9eef-e1137f270764","system_id":"levelo_inurba_marseille","lat":43.30425,"lon":5.38897,"is_reserved":false,"is_disabled":false,"rental_uris":{"android":"levelo://app?vid=9084b3e1-4325-4062-9eef-e1137f270764","ios":"levelo://app?vid=9084b3e1-4325-4062-9eef-e1137f270764"},"vehicle_type_id":"4","last_reported":1728576649,"current_range_meters":10800,"station_id":"ce4bgk12rcd13ifvqbi0","pricing_plan_id":"cebpf4jnsgd1na2vs0mg"},{"bike_id":"3eb19325-22a4-425e-a8ef-87280c633e2f","system_id":"levelo_inurba_marseille","lat":43.33027,"lon":5.3904,"is_reserved":false,"is_disabled":false,"rental_uris":{"android":"levelo://app?vid=3eb19325-22a4-425e-a8ef-87280c633e2f","ios":"levelo://app?vid=3eb19325-22a4-425e-a8ef-87280c633e2f"},"vehicle_type_id":"4","last_reported":1728576649,"current_range_meters":9200,"station_id":"ce4bhr92rcd13ifvqhrg","pricing_plan_id":"cebpf4jnsgd1na2vs0mg"},{"bike_id":"4e1efc57-b490-4dd9-9a2b-3c62a9bbddeb","system_id":"levelo_inurba_marseille","lat":43.27374,"lon":5.36253,"is_reserved":false,"is_disabled":false,"rental_uris":{"android":"levelo://app?vid=4e1efc57-b490-4dd9-9a2b-3c62a9bbddeb","ios":"levelo://app?vid=4e1efc57-b490-4dd9-9a2b-3c62a9bbddeb"},"vehicle_type_id":"4","last_reported":1728576649,"current_range_meters":14000,"station_id":"ce4bhbh2rcd13ifvqeo0","pricing_plan_id":"cebpf4jnsgd1na2vs0mg"},{"bike_id":"fbf92bad-cd5c-455a-80bb-d9e65302e187","system_id":"levelo_inurba_marseille","lat":43.31322,"lon":5.39739,"is_reserved":false,"is_disabled":false,"rental_uris":{"android":"levelo://app?vid=fbf92bad-cd5c-455a-80bb-d9e65302e187","ios":"levelo://app?vid=fbf92bad-cd5c-455a-80bb-d9e65302e187"},"vehicle_type_id":"4","last_reported":1728576649,"current_range_meters":37600,"station_id":"ce4bgvp2rcd13ifvqcu0","pricing_plan_id":"cebpf4jnsgd1na2vs0mg"},{"bike_id":"167ac939-8fa2-42de-b75b-0892a4e54b53","system_id":"levelo_inurba_marseille","lat":43.33019,"lon":5.39046,"is_reserved":false,"is_disabled":false,"rental_uris":{"android":"levelo://app?vid=167ac939-8fa2-42de-b75b-0892a4e54b53","ios":"levelo://app?vid=167ac939-8fa2-42de-b75b-0892a4e54b53"},"vehicle_type_id":"4","last_reported":1728576649,"current_range_meters":36400,"station_id":"ce4bhr92rcd13ifvqhrg","pricing_plan_id":"cebpf4jnsgd1na2vs0mg"},{"bike_id":"f720b59a-141e-4e00-a3e2-dd4eda5d7bb2","system_id":"levelo_inurba_marseille","lat":43.28607,"lon":5.37066,"is_reserved":false,"is_disabled":false,"rental_uris":{"android":"levelo://app?vid=f720b59a-141e-4e00-a3e2-dd4eda5d7bb2","ios":"levelo://app?vid=f720b59a-141e-4e00-a3e2-dd4eda5d7bb2"},"vehicle_type_id":"4","last_reported":1728576649,"current_range_meters":20000,"station_id":"ce4bht12rcd13ifvqi60","pricing_plan_id":"cebpf4jnsgd1na2vs0mg"},{"bike_id":"1985bd4d-cc90-470d-bf56-accb4e841a60","system_id":"levelo_inurba_marseille","lat":43.29768,"lon":5.3709,"is_reserved":false,"is_disabled":false,"rental_uris":{"android":"levelo://app?vid=1985bd4d-cc90-470d-bf56-accb4e841a60","ios":"levelo://app?vid=1985bd4d-cc90-470d-bf56-accb4e841a60"},"vehicle_type_id":"4","last_reported":1728576649,"current_range_meters":24800,"station_id":"ce4bgop2rcd13ifvqc1g","pricing_plan_id":"cebpf4jnsgd1na2vs0mg"},{"bike_id":"cec0f34f-1e3e-4d4c-b514-002ec38462df","system_id":"levelo_inurba_marseille","lat":43.30224,"lon":5.39481,"is_reserved":false,"is_disabled":false,"rental_uris":{"android":"levelo://app?vid=cec0f34f-1e3e-4d4c-b514-002ec38462df","ios":"levelo://app?vid=cec0f34f-1e3e-4d4c-b514-002ec38462df"},"vehicle_type_id":"4","last_reported":1728576649,"current_range_meters":24000,"station_id":"ce4bh0p2rcd13ifvqd70","pricing_plan_id":"cebpf4jnsgd1na2vs0mg"},{"bike_id":"80d8465e-db28-423b-b629-97032e1aa4d3","system_id":"levelo_inurba_marseille","lat":43.29522,"lon":5.39407,"is_reserved":false,"is_disabled":false,"rental_uris":{"android":"levelo://app?vid=80d8465e-db28-423b-b629-97032e1aa4d3","ios":"levelo://app?vid=80d8465e-db28-423b-b629-97032e1aa4d3"},"vehicle_type_id":"4","last_reported":1728576649,"current_range_meters":29600,"station_id":"ce4bh292rcd13ifvqdf0","pricing_plan_id":"cebpf4jnsgd1na2vs0mg"},{"bike_id":"f9f65660-7c57-40c3-a903-30dedc0677c3","system_id":"levelo_inurba_marseille","lat":43.25114,"lon":5.40325,"is_reserved":false,"is_disabled":false,"rental_uris":{"android":"levelo://app?vid=f9f65660-7c57-40c3-a903-30dedc0677c3","ios":"levelo://app?vid=f9f65660-7c57-40c3-a903-30dedc0677c3"},"vehicle_type_id":"4","last_reported":1728576649,"current_range_meters":34000,"station_id":"ce4bhlh2rcd13ifvqgig","pricing_plan_id":"cebpf4jnsgd1na2vs0mg"},{"bike_id":"7e95ad82-6e6b-4b77-ba3a-57a0c8122250","system_id":"levelo_inurba_marseille","lat":43.27906,"lon":5.38011,"is_reserved":false,"is_disabled":false,"rental_uris":{"android":"levelo://app?vid=7e95ad82-6e6b-4b77-ba3a-57a0c8122250","ios":"levelo://app?vid=7e95ad82-6e6b-4b77-ba3a-57a0c8122250"},"vehicle_type_id":"4","last_reported":1728576649,"current_range_meters":28800,"station_id":"ce4bhf92rcd13ifvqf50","pricing_plan_id":"cebpf4jnsgd1na2vs0mg"},{"bike_id":"d033b6fd-10bd-4117-9db6-be416162cac5","system_id":"levelo_inurba_marseille","lat":43.23963,"lon":5.36642,"is_reserved":false,"is_disabled":false,"rental_uris":{"android":"levelo://app?vid=d033b6fd-10bd-4117-9db6-be416162cac5","ios":"levelo://app?vid=d033b6fd-10bd-4117-9db6-be416162cac5"},"vehicle_type_id":"4","last_reported":1728576649,"current_range_meters":31200,"station_id":"ce4bhi12rcd13ifvqfp0","pricing_plan_id":"cebpf4jnsgd1na2vs0mg"},{"bike_id":"b46cabd9-1463-4d67-9e04-abf8c39e055a","system_id":"levelo_inurba_marseille","lat":43.28362,"lon":5.38625,"is_reserved":false,"is_disabled":false,"rental_uris":{"android":"levelo://app?vid=b46cabd9-1463-4d67-9e04-abf8c39e055a","ios":"levelo://app?vid=b46cabd9-1463-4d67-9e04-abf8c39e055a"},"vehicle_type_id":"4","last_reported":1728576649,"current_range_meters":3600,"station_id":"ce4bh492rcd13ifvqdvg","pricing_plan_id":"cebpf4jnsgd1na2vs0mg"},{"bike_id":"aff0fc04-d92f-463a-bdf9-991442699654","system_id":"levelo_inurba_marseille","lat":43.32339,"lon":5.40625,"is_reserved":false,"is_disabled":false,"rental_uris":{"android":"levelo://app?vid=aff0fc04-d92f-463a-bdf9-991442699654","ios":"levelo://app?vid=aff0fc04-d92f-463a-bdf9-991442699654"},"vehicle_type_id":"4","last_reported":1728576649,"current_range_meters":38800,"station_id":"ce4bhq92rcd13ifvqhjg","pricing_plan_id":"cebpf4jnsgd1na2vs0mg"},{"bike_id":"291ae059-5cf0-43cf-b714-42d56d3fc848","system_id":"levelo_inurba_marseille","lat":43.29632,"lon":5.40601,"is_reserved":false,"is_disabled":false,"rental_uris":{"android":"levelo://app?vid=291ae059-5cf0-43cf-b714-42d56d3fc848","ios":"levelo://app?vid=291ae059-5cf0-43cf-b714-42d56d3fc848"},"vehicle_type_id":"4","last_reported":1728576649,"current_range_meters":12800,"station_id":"ce4bh0h2rcd13ifvqd60","pricing_plan_id":"cebpf4jnsgd1na2vs0mg"},{"bike_id":"4a3be654-8ab7-4157-aed4-8afa1d8571b5","system_id":"levelo_inurba_marseille","lat":43.32336,"lon":5.40621,"is_reserved":false,"is_disabled":false,"rental_uris":{"android":"levelo://app?vid=4a3be654-8ab7-4157-aed4-8afa1d8571b5","ios":"levelo://app?vid=4a3be654-8ab7-4157-aed4-8afa1d8571b5"},"vehicle_type_id":"4","last_reported":1728576649,"current_range_meters":22800,"station_id":"ce4bhq92rcd13ifvqhjg","pricing_plan_id":"cebpf4jnsgd1na2vs0mg"},{"bike_id":"289df910-4eb6-4551-9390-e162600bd7da","system_id":"levelo_inurba_marseille","lat":43.33715,"lon":5.39184,"is_reserved":false,"is_disabled":false,"rental_uris":{"android":"levelo://app?vid=289df910-4eb6-4551-9390-e162600bd7da","ios":"levelo://app?vid=289df910-4eb6-4551-9390-e162600bd7da"},"vehicle_type_id":"4","last_reported":1728576649,"current_range_meters":24800,"station_id":"ce4bhr92rcd13ifvqhsg","pricing_plan_id":"cebpf4jnsgd1na2vs0mg"},{"bike_id":"daa275ea-ac44-47b4-ac61-333e5afbc9ef","system_id":"levelo_inurba_marseille","lat":43.31716,"lon":5.42405,"is_reserved":false,"is_disabled":false,"rental_uris":{"android":"levelo://app?vid=daa275ea-ac44-47b4-ac61-333e5afbc9ef","ios":"levelo://app?vid=daa275ea-ac44-47b4-ac61-333e5afbc9ef"},"vehicle_type_id":"4","last_reported":1728576649,"current_range_meters":30400,"station_id":"ce4bhp92rcd13ifvqhbg","pricing_plan_id":"cebpf4jnsgd1na2vs0mg"},{"bike_id":"5c281b9c-f597-4d78-ba41-635f506b0df6","system_id":"levelo_inurba_marseille","lat":43.29437,"lon":5.39755,"is_reserved":false,"is_disabled":false,"rental_uris":{"android":"levelo://app?vid=5c281b9c-f597-4d78-ba41-635f506b0df6","ios":"levelo://app?vid=5c281b9c-f597-4d78-ba41-635f506b0df6"},"vehicle_type_id":"4","last_reported":1728576649,"current_range_meters":36800,"station_id":"ce4bh3h2rcd13ifvqdo0","pricing_plan_id":"cebpf4jnsgd1na2vs0mg"},{"bike_id":"54af1efb-9c18-43da-a04d-bf128c06919c","system_id":"levelo_inurba_marseille","lat":43.26197,"lon":5.3793,"is_reserved":false,"is_disabled":false,"rental_uris":{"android":"levelo://app?vid=54af1efb-9c18-43da-a04d-bf128c06919c","ios":"levelo://app?vid=54af1efb-9c18-43da-a04d-bf128c06919c"},"vehicle_type_id":"4","last_reported":1728576649,"current_range_meters":40000,"station_id":"ce4bhjp2rcd13ifvqg90","pricing_plan_id":"cebpf4jnsgd1na2vs0mg"},{"bike_id":"9cf3db70-1431-4372-b452-2d0770d0c15d","system_id":"levelo_inurba_marseille","lat":43.23194,"lon":5.35553,"is_reserved":false,"is_disabled":false,"rental_uris":{"android":"levelo://app?vid=9cf3db70-1431-4372-b452-2d0770d0c15d","ios":"levelo://app?vid=9cf3db70-1431-4372-b452-2d0770d0c15d"},"vehicle_type_id":"4","last_reported":1728576649,"current_range_meters":35600,"station_id":"ce4bhu92rcd13ifvqi70","pricing_plan_id":"cebpf4jnsgd1na2vs0mg"},{"bike_id":"192ee8d3-c247-4f37-ae22-abe99eb7eb20","system_id":"levelo_inurba_marseille","lat":43.30883,"lon":5.39656,"is_reserved":false,"is_disabled":false,"rental_uris":{"android":"levelo://app?vid=192ee8d3-c247-4f37-ae22-abe99eb7eb20","ios":"levelo://app?vid=192ee8d3-c247-4f37-ae22-abe99eb7eb20"},"vehicle_type_id":"4","last_reported":1728576649,"current_range_meters":4000,"station_id":"ce4bh012rcd13ifvqcv0","pricing_plan_id":"cebpf4jnsgd1na2vs0mg"},{"bike_id":"3da66e96-cc11-4fab-9ff8-bb9ed5eedb35","system_id":"levelo_inurba_marseille","lat":43.31718,"lon":5.42413,"is_reserved":false,"is_disabled":false,"rental_uris":{"android":"levelo://app?vid=3da66e96-cc11-4fab-9ff8-bb9ed5eedb35","ios":"levelo://app?vid=3da66e96-cc11-4fab-9ff8-bb9ed5eedb35"},"vehicle_type_id":"4","last_reported":1728576649,"current_range_meters":18800,"station_id":"ce4bhp92rcd13ifvqhbg","pricing_plan_id":"cebpf4jnsgd1na2vs0mg"},{"bike_id":"800704c5-22ff-4987-bcce-5fb01ce1f78c","system_id":"levelo_inurba_marseille","lat":43.28422,"lon":5.34984,"is_reserved":false,"is_disabled":false,"rental_uris":{"android":"levelo://app?vid=800704c5-22ff-4987-bcce-5fb01ce1f78c","ios":"levelo://app?vid=800704c5-22ff-4987-bcce-5fb01ce1f78c"},"vehicle_type_id":"4","last_reported":1728576649,"current_range_meters":38800,"station_id":"ce4bhbh2rcd13ifvqepg","pricing_plan_id":"cebpf4jnsgd1na2vs0mg"},{"bike_id":"3c25dded-f8d5-4193-a336-9fad641c4aac","system_id":"levelo_inurba_marseille","lat":43.33766,"lon":5.37447,"is_reserved":false,"is_disabled":false,"rental_uris":{"android":"levelo://app?vid=3c25dded-f8d5-4193-a336-9fad641c4aac","ios":"levelo://app?vid=3c25dded-f8d5-4193-a336-9fad641c4aac"},"vehicle_type_id":"4","last_reported":1728576649,"current_range_meters":16000,"station_id":"","pricing_plan_id":"cebpf4jnsgd1na2vs0mg"},{"bike_id":"07379426-6bdd-4cf4-b913-84ab965126d9","system_id":"levelo_inurba_marseille","lat":43.3025,"lon":5.40069,"is_reserved":false,"is_disabled":false,"rental_uris":{"android":"levelo://app?vid=07379426-6bdd-4cf4-b913-84ab965126d9","ios":"levelo://app?vid=07379426-6bdd-4cf4-b913-84ab965126d9"},"vehicle_type_id":"4","last_reported":1728576649,"current_range_meters":26000,"station_id":"ce4bgvh2rcd13ifvqcs0","pricing_plan_id":"cebpf4jnsgd1na2vs0mg"},{"bike_id":"7975faaf-f260-41c7-87cd-147b9a3b3ebf","system_id":"levelo_inurba_marseille","lat":43.23057,"lon":5.3549,"is_reserved":false,"is_disabled":false,"rental_uris":{"android":"levelo://app?vid=7975faaf-f260-41c7-87cd-147b9a3b3ebf","ios":"levelo://app?vid=7975faaf-f260-41c7-87cd-147b9a3b3ebf"},"vehicle_type_id":"4","last_reported":1728576649,"current_range_meters":19200,"station_id":"cpo3342slgdg3j2ifvpg","pricing_plan_id":"cebpf4jnsgd1na2vs0mg"},{"bike_id":"d12feae1-62f1-4e37-ac59-99b3b5aea4de","system_id":"levelo_inurba_marseille","lat":43.302429,"lon":5.400693,"is_reserved":false,"is_disabled":false,"rental_uris":{"android":"levelo://app?vid=d12feae1-62f1-4e37-ac59-99b3b5aea4de","ios":"levelo://app?vid=d12feae1-62f1-4e37-ac59-99b3b5aea4de"},"vehicle_type_id":"4","last_reported":1728576649,"current_range_meters":28000,"station_id":"ce4bgi12rcd13ifvqb70","pricing_plan_id":"cebpf4jnsgd1na2vs0mg"},{"bike_id":"703d5faf-e8f5-42e8-a15c-36acb1ae64d2","system_id":"levelo_inurba_marseille","lat":43.22932,"lon":5.35382,"is_reserved":false,"is_disabled":false,"rental_uris":{"android":"levelo://app?vid=703d5faf-e8f5-42e8-a15c-36acb1ae64d2","ios":"levelo://app?vid=703d5faf-e8f5-42e8-a15c-36acb1ae64d2"},"vehicle_type_id":"4","last_reported":1728576649,"current_range_meters":8400,"station_id":"cpo3532slgdg3j2ikp40","pricing_plan_id":"cebpf4jnsgd1na2vs0mg"},{"bike_id":"4b65e5e5-d568-4114-bfd6-70b281240118","system_id":"levelo_inurba_marseille","lat":43.31718,"lon":5.42401,"is_reserved":false,"is_disabled":false,"rental_uris":{"android":"levelo://app?vid=4b65e5e5-d568-4114-bfd6-70b281240118","ios":"levelo://app?vid=4b65e5e5-d568-4114-bfd6-70b281240118"},"vehicle_type_id":"4","last_reported":1728576649,"current_range_meters":19200,"station_id":"ce4bhp92rcd13ifvqhbg","pricing_plan_id":"cebpf4jnsgd1na2vs0mg"},{"bike_id":"025c140d-65b2-41b6-9163-0b2e78e3db0e","system_id":"levelo_inurba_marseille","lat":43.3211,"lon":5.36773,"is_reserved":false,"is_disabled":false,"rental_uris":{"android":"levelo://app?vid=025c140d-65b2-41b6-9163-0b2e78e3db0e","ios":"levelo://app?vid=025c140d-65b2-41b6-9163-0b2e78e3db0e"},"vehicle_type_id":"4","last_reported":1728576649,"current_range_meters":6800,"station_id":"ce4bhrh2rcd13ifvqhug","pricing_plan_id":"cebpf4jnsgd1na2vs0mg"},{"bike_id":"b36af7ec-0aa6-4991-af4c-7f42369ede80","system_id":"levelo_inurba_marseille","lat":43.30791,"lon":5.38156,"is_reserved":false,"is_disabled":false,"rental_uris":{"android":"levelo://app?vid=b36af7ec-0aa6-4991-af4c-7f42369ede80","ios":"levelo://app?vid=b36af7ec-0aa6-4991-af4c-7f42369ede80"},"vehicle_type_id":"4","last_reported":1728576649,"current_range_meters":3600,"station_id":"ce4bgt12rcd13ifvqce0","pricing_plan_id":"cebpf4jnsgd1na2vs0mg"},{"bike_id":"77f63090-45aa-4cfe-bb1c-576a35cb09dc","system_id":"levelo_inurba_marseille","lat":43.311756,"lon":5.396196,"is_reserved":false,"is_disabled":false,"rental_uris":{"android":"levelo://app?vid=77f63090-45aa-4cfe-bb1c-576a35cb09dc","ios":"levelo://app?vid=77f63090-45aa-4cfe-bb1c-576a35cb09dc"},"vehicle_type_id":"4","last_reported":1728576649,"current_range_meters":28800,"station_id":"ce4bgvp2rcd13ifvqcu0","pricing_plan_id":"cebpf4jnsgd1na2vs0mg"},{"bike_id":"516bcc61-fb1e-45f2-a3d5-1f65a16b037e","system_id":"levelo_inurba_marseille","lat":43.25109,"lon":5.40332,"is_reserved":false,"is_disabled":false,"rental_uris":{"android":"levelo://app?vid=516bcc61-fb1e-45f2-a3d5-1f65a16b037e","ios":"levelo://app?vid=516bcc61-fb1e-45f2-a3d5-1f65a16b037e"},"vehicle_type_id":"4","last_reported":1728576649,"current_range_meters":13600,"station_id":"ce4bhlh2rcd13ifvqgig","pricing_plan_id":"cebpf4jnsgd1na2vs0mg"},{"bike_id":"775ae617-1807-4bf7-8bb7-67fb6d08bb81","system_id":"levelo_inurba_marseille","lat":43.30414,"lon":5.41295,"is_reserved":false,"is_disabled":false,"rental_uris":{"android":"levelo://app?vid=775ae617-1807-4bf7-8bb7-67fb6d08bb81","ios":"levelo://app?vid=775ae617-1807-4bf7-8bb7-67fb6d08bb81"},"vehicle_type_id":"4","last_reported":1728576649,"current_range_meters":39200,"station_id":"ce4bhop2rcd13ifvqh8g","pricing_plan_id":"cebpf4jnsgd1na2vs0mg"},{"bike_id":"adac4a77-ce71-402b-bf41-8ed8dfbbadb0","system_id":"levelo_inurba_marseille","lat":43.284448,"lon":5.392039,"is_reserved":false,"is_disabled":false,"rental_uris":{"android":"levelo://app?vid=adac4a77-ce71-402b-bf41-8ed8dfbbadb0","ios":"levelo://app?vid=adac4a77-ce71-402b-bf41-8ed8dfbbadb0"},"vehicle_type_id":"4","last_reported":1728576649,"current_range_meters":19600,"station_id":"ce4bhoh2rcd13ifvqh5g","pricing_plan_id":"cebpf4jnsgd1na2vs0mg"},{"bike_id":"e7b49636-cefa-450a-ba52-4d5362cb1c52","system_id":"levelo_inurba_marseille","lat":43.231929,"lon":5.3555,"is_reserved":false,"is_disabled":false,"rental_uris":{"android":"levelo://app?vid=e7b49636-cefa-450a-ba52-4d5362cb1c52","ios":"levelo://app?vid=e7b49636-cefa-450a-ba52-4d5362cb1c52"},"vehicle_type_id":"4","last_reported":1728576649,"current_range_meters":28000,"station_id":"ce4bhu92rcd13ifvqi70","pricing_plan_id":"cebpf4jnsgd1na2vs0mg"},{"bike_id":"b0b732bd-ebcb-42a6-9774-3a276fbb8e1e","system_id":"levelo_inurba_marseille","lat":43.28617,"lon":5.35108,"is_reserved":false,"is_disabled":false,"rental_uris":{"android":"levelo://app?vid=b0b732bd-ebcb-42a6-9774-3a276fbb8e1e","ios":"levelo://app?vid=b0b732bd-ebcb-42a6-9774-3a276fbb8e1e"},"vehicle_type_id":"4","last_reported":1728576649,"current_range_meters":9600,"station_id":"ce4bhch2rcd13ifvqeug","pricing_plan_id":"cebpf4jnsgd1na2vs0mg"},{"bike_id":"1e41cc49-bee2-4c7c-990a-9cccf842bf25","system_id":"levelo_inurba_marseille","lat":43.27375,"lon":5.36258,"is_reserved":false,"is_disabled":false,"rental_uris":{"android":"levelo://app?vid=1e41cc49-bee2-4c7c-990a-9cccf842bf25","ios":"levelo://app?vid=1e41cc49-bee2-4c7c-990a-9cccf842bf25"},"vehicle_type_id":"4","last_reported":1728576649,"current_range_meters":38800,"station_id":"ce4bhbh2rcd13ifvqeo0","pricing_plan_id":"cebpf4jnsgd1na2vs0mg"},{"bike_id":"b59c911f-15cc-472e-b263-393bee9b742e","system_id":"levelo_inurba_marseille","lat":43.28863,"lon":5.393037,"is_reserved":false,"is_disabled":false,"rental_uris":{"android":"levelo://app?vid=b59c911f-15cc-472e-b263-393bee9b742e","ios":"levelo://app?vid=b59c911f-15cc-472e-b263-393bee9b742e"},"vehicle_type_id":"4","last_reported":1728576649,"current_range_meters":4400,"station_id":"ce4bh2p2rcd13ifvqdi0","pricing_plan_id":"cebpf4jnsgd1na2vs0mg"},{"bike_id":"b040bbad-3d4d-4b28-9bf4-fda71a977bb9","system_id":"levelo_inurba_marseille","lat":43.25581,"lon":5.38233,"is_reserved":false,"is_disabled":false,"rental_uris":{"android":"levelo://app?vid=b040bbad-3d4d-4b28-9bf4-fda71a977bb9","ios":"levelo://app?vid=b040bbad-3d4d-4b28-9bf4-fda71a977bb9"},"vehicle_type_id":"4","last_reported":1728576649,"current_range_meters":6400,"station_id":"ce4bhih2rcd13ifvqfs0","pricing_plan_id":"cebpf4jnsgd1na2vs0mg"},{"bike_id":"b9c78aae-ed34-423d-ba16-35953cd128ed","system_id":"levelo_inurba_marseille","lat":43.29096,"lon":5.38147,"is_reserved":false,"is_disabled":false,"rental_uris":{"android":"levelo://app?vid=b9c78aae-ed34-423d-ba16-35953cd128ed","ios":"levelo://app?vid=b9c78aae-ed34-423d-ba16-35953cd128ed"},"vehicle_type_id":"4","last_reported":1728576649,"current_range_meters":20800,"station_id":"ce4bh512rcd13ifvqe2g","pricing_plan_id":"cebpf4jnsgd1na2vs0mg"},{"bike_id":"245fbd72-a8ea-4a50-b396-f3860863893b","system_id":"levelo_inurba_marseille","lat":43.23195,"lon":5.3555,"is_reserved":false,"is_disabled":false,"rental_uris":{"android":"levelo://app?vid=245fbd72-a8ea-4a50-b396-f3860863893b","ios":"levelo://app?vid=245fbd72-a8ea-4a50-b396-f3860863893b"},"vehicle_type_id":"4","last_reported":1728576649,"current_range_meters":36400,"station_id":"ce4bhu92rcd13ifvqi70","pricing_plan_id":"cebpf4jnsgd1na2vs0mg"},{"bike_id":"3bb5b7e6-f5de-4a6b-ba8e-213c2ae7d9ee","system_id":"levelo_inurba_marseille","lat":43.297,"lon":5.36613,"is_reserved":false,"is_disabled":false,"rental_uris":{"android":"levelo://app?vid=3bb5b7e6-f5de-4a6b-ba8e-213c2ae7d9ee","ios":"levelo://app?vid=3bb5b7e6-f5de-4a6b-ba8e-213c2ae7d9ee"},"vehicle_type_id":"4","last_reported":1728576649,"current_range_meters":2800,"station_id":"ce4bgn12rcd13ifvqbt0","pricing_plan_id":"cebpf4jnsgd1na2vs0mg"},{"bike_id":"87882399-8878-4d7c-9369-faa113ae3d49","system_id":"levelo_inurba_marseille","lat":43.31887,"lon":5.40734,"is_reserved":false,"is_disabled":false,"rental_uris":{"android":"levelo://app?vid=87882399-8878-4d7c-9369-faa113ae3d49","ios":"levelo://app?vid=87882399-8878-4d7c-9369-faa113ae3d49"},"vehicle_type_id":"4","last_reported":1728576649,"current_range_meters":23200,"station_id":"ce4bhq12rcd13ifvqhig","pricing_plan_id":"cebpf4jnsgd1na2vs0mg"},{"bike_id":"9e0dd804-6a9f-49e5-baa0-7a471e7bd274","system_id":"levelo_inurba_marseille","lat":43.29026,"lon":5.38642,"is_reserved":false,"is_disabled":false,"rental_uris":{"android":"levelo://app?vid=9e0dd804-6a9f-49e5-baa0-7a471e7bd274","ios":"levelo://app?vid=9e0dd804-6a9f-49e5-baa0-7a471e7bd274"},"vehicle_type_id":"4","last_reported":1728576649,"current_range_meters":5600,"station_id":"ce4bh4p2rcd13ifvqe0g","pricing_plan_id":"cebpf4jnsgd1na2vs0mg"},{"bike_id":"3968c2cf-5078-4200-862f-6829bb18673f","system_id":"levelo_inurba_marseille","lat":43.29278,"lon":5.36842,"is_reserved":false,"is_disabled":false,"rental_uris":{"android":"levelo://app?vid=3968c2cf-5078-4200-862f-6829bb18673f","ios":"levelo://app?vid=3968c2cf-5078-4200-862f-6829bb18673f"},"vehicle_type_id":"4","last_reported":1728576649,"current_range_meters":4400,"station_id":"ce4bhbp2rcd13ifvqesg","pricing_plan_id":"cebpf4jnsgd1na2vs0mg"},{"bike_id":"d063bf92-66b6-4900-af93-4fd909ed5f0f","system_id":"levelo_inurba_marseille","lat":43.25823,"lon":5.39434,"is_reserved":false,"is_disabled":false,"rental_uris":{"android":"levelo://app?vid=d063bf92-66b6-4900-af93-4fd909ed5f0f","ios":"levelo://app?vid=d063bf92-66b6-4900-af93-4fd909ed5f0f"},"vehicle_type_id":"4","last_reported":1728576649,"current_range_meters":25600,"station_id":"ce4bhip2rcd13ifvqft0","pricing_plan_id":"cebpf4jnsgd1na2vs0mg"},{"bike_id":"d0af47d5-71a2-4e6e-a4f7-a2d225b8e53a","system_id":"levelo_inurba_marseille","lat":43.23058,"lon":5.35499,"is_reserved":false,"is_disabled":false,"rental_uris":{"android":"levelo://app?vid=d0af47d5-71a2-4e6e-a4f7-a2d225b8e53a","ios":"levelo://app?vid=d0af47d5-71a2-4e6e-a4f7-a2d225b8e53a"},"vehicle_type_id":"4","last_reported":1728576649,"current_range_meters":20400,"station_id":"cpo3342slgdg3j2ifvpg","pricing_plan_id":"cebpf4jnsgd1na2vs0mg"},{"bike_id":"06756a06-99f2-4b1d-99ae-8c41b42ed81b","system_id":"levelo_inurba_marseille","lat":43.29613,"lon":5.3727,"is_reserved":false,"is_disabled":false,"rental_uris":{"android":"levelo://app?vid=06756a06-99f2-4b1d-99ae-8c41b42ed81b","ios":"levelo://app?vid=06756a06-99f2-4b1d-99ae-8c41b42ed81b"},"vehicle_type_id":"4","last_reported":1728576649,"current_range_meters":20000,"station_id":"","pricing_plan_id":"cebpf4jnsgd1na2vs0mg"},{"bike_id":"c937cf02-0dc7-4253-b303-f10956f0f218","system_id":"levelo_inurba_marseille","lat":43.27611,"lon":5.36116,"is_reserved":false,"is_disabled":false,"rental_uris":{"android":"levelo://app?vid=c937cf02-0dc7-4253-b303-f10956f0f218","ios":"levelo://app?vid=c937cf02-0dc7-4253-b303-f10956f0f218"},"vehicle_type_id":"4","last_reported":1728576649,"current_range_meters":8400,"station_id":"ce4bgj92rcd13ifvqbe0","pricing_plan_id":"cebpf4jnsgd1na2vs0mg"},{"bike_id":"2f60232e-80a9-4fe4-bdac-65d624308f3e","system_id":"levelo_inurba_marseille","lat":43.28418,"lon":5.35003,"is_reserved":false,"is_disabled":false,"rental_uris":{"android":"levelo://app?vid=2f60232e-80a9-4fe4-bdac-65d624308f3e","ios":"levelo://app?vid=2f60232e-80a9-4fe4-bdac-65d624308f3e"},"vehicle_type_id":"4","last_reported":1728576649,"current_range_meters":28000,"station_id":"ce4bhbh2rcd13ifvqepg","pricing_plan_id":"cebpf4jnsgd1na2vs0mg"},{"bike_id":"7afe8ee0-e2b0-4c08-9c55-7bb257e582b1","system_id":"levelo_inurba_marseille","lat":43.29368,"lon":5.37841,"is_reserved":false,"is_disabled":false,"rental_uris":{"android":"levelo://app?vid=7afe8ee0-e2b0-4c08-9c55-7bb257e582b1","ios":"levelo://app?vid=7afe8ee0-e2b0-4c08-9c55-7bb257e582b1"},"vehicle_type_id":"4","last_reported":1728576649,"current_range_meters":28800,"station_id":"ce4bgjh2rcd13ifvqbf0","pricing_plan_id":"cebpf4jnsgd1na2vs0mg"},{"bike_id":"c128dc7d-fa83-4dcd-8a7d-29792312bba5","system_id":"levelo_inurba_marseille","lat":43.24663,"lon":5.38169,"is_reserved":false,"is_disabled":false,"rental_uris":{"android":"levelo://app?vid=c128dc7d-fa83-4dcd-8a7d-29792312bba5","ios":"levelo://app?vid=c128dc7d-fa83-4dcd-8a7d-29792312bba5"},"vehicle_type_id":"4","last_reported":1728576649,"current_range_meters":25600,"station_id":"ce4bhih2rcd13ifvqfr0","pricing_plan_id":"cebpf4jnsgd1na2vs0mg"},{"bike_id":"4450ea52-c753-40c6-abd8-b1a39f447be6","system_id":"levelo_inurba_marseille","lat":43.27572,"lon":5.38414,"is_reserved":false,"is_disabled":false,"rental_uris":{"android":"levelo://app?vid=4450ea52-c753-40c6-abd8-b1a39f447be6","ios":"levelo://app?vid=4450ea52-c753-40c6-abd8-b1a39f447be6"},"vehicle_type_id":"4","last_reported":1728576649,"current_range_meters":4400,"station_id":"ce4bhh92rcd13ifvqfi0","pricing_plan_id":"cebpf4jnsgd1na2vs0mg"},{"bike_id":"9119bfed-6fe0-44c1-92af-8f9f407caeeb","system_id":"levelo_inurba_marseille","lat":43.22933,"lon":5.3538,"is_reserved":false,"is_disabled":false,"rental_uris":{"android":"levelo://app?vid=9119bfed-6fe0-44c1-92af-8f9f407caeeb","ios":"levelo://app?vid=9119bfed-6fe0-44c1-92af-8f9f407caeeb"},"vehicle_type_id":"4","last_reported":1728576649,"current_range_meters":36400,"station_id":"cpo3532slgdg3j2ikp40","pricing_plan_id":"cebpf4jnsgd1na2vs0mg"},{"bike_id":"7f56ae2b-ab15-4647-af2c-2fc89fcdfb3c","system_id":"levelo_inurba_marseille","lat":43.25116,"lon":5.40323,"is_reserved":false,"is_disabled":false,"rental_uris":{"android":"levelo://app?vid=7f56ae2b-ab15-4647-af2c-2fc89fcdfb3c","ios":"levelo://app?vid=7f56ae2b-ab15-4647-af2c-2fc89fcdfb3c"},"vehicle_type_id":"4","last_reported":1728576649,"current_range_meters":38800,"station_id":"ce4bhlh2rcd13ifvqgig","pricing_plan_id":"cebpf4jnsgd1na2vs0mg"},{"bike_id":"e1b502d1-96fd-488a-9d77-1fe3f08e9a67","system_id":"levelo_inurba_marseille","lat":43.317208,"lon":5.423956,"is_reserved":false,"is_disabled":false,"rental_uris":{"android":"levelo://app?vid=e1b502d1-96fd-488a-9d77-1fe3f08e9a67","ios":"levelo://app?vid=e1b502d1-96fd-488a-9d77-1fe3f08e9a67"},"vehicle_type_id":"4","last_reported":1728576649,"current_range_meters":33200,"station_id":"ce4bhp92rcd13ifvqhbg","pricing_plan_id":"cebpf4jnsgd1na2vs0mg"},{"bike_id":"79b69841-017e-4e9b-9468-3a7b2f7946b4","system_id":"levelo_inurba_marseille","lat":43.26559,"lon":5.37286,"is_reserved":false,"is_disabled":false,"rental_uris":{"android":"levelo://app?vid=79b69841-017e-4e9b-9468-3a7b2f7946b4","ios":"levelo://app?vid=79b69841-017e-4e9b-9468-3a7b2f7946b4"},"vehicle_type_id":"4","last_reported":1728576649,"current_range_meters":22000,"station_id":"ce4bhg12rcd13ifvqf70","pricing_plan_id":"cebpf4jnsgd1na2vs0mg"},{"bike_id":"b1cb134c-8142-42de-b67e-73bb143cdc55","system_id":"levelo_inurba_marseille","lat":43.30248,"lon":5.40059,"is_reserved":false,"is_disabled":false,"rental_uris":{"android":"levelo://app?vid=b1cb134c-8142-42de-b67e-73bb143cdc55","ios":"levelo://app?vid=b1cb134c-8142-42de-b67e-73bb143cdc55"},"vehicle_type_id":"4","last_reported":1728576649,"current_range_meters":37600,"station_id":"ce4bgvh2rcd13ifvqcs0","pricing_plan_id":"cebpf4jnsgd1na2vs0mg"},{"bike_id":"8635d9d1-f580-4f98-9eca-daff21a4d8d0","system_id":"levelo_inurba_marseille","lat":43.284027,"lon":5.375144,"is_reserved":false,"is_disabled":false,"rental_uris":{"android":"levelo://app?vid=8635d9d1-f580-4f98-9eca-daff21a4d8d0","ios":"levelo://app?vid=8635d9d1-f580-4f98-9eca-daff21a4d8d0"},"vehicle_type_id":"4","last_reported":1728576649,"current_range_meters":18800,"station_id":"ce4bh412rcd13ifvqds0","pricing_plan_id":"cebpf4jnsgd1na2vs0mg"},{"bike_id":"e564e53c-0f0a-4e93-a8ae-146dae6d4163","system_id":"levelo_inurba_marseille","lat":43.23065,"lon":5.35492,"is_reserved":false,"is_disabled":false,"rental_uris":{"android":"levelo://app?vid=e564e53c-0f0a-4e93-a8ae-146dae6d4163","ios":"levelo://app?vid=e564e53c-0f0a-4e93-a8ae-146dae6d4163"},"vehicle_type_id":"4","last_reported":1728576649,"current_range_meters":11600,"station_id":"cpo3342slgdg3j2ifvpg","pricing_plan_id":"cebpf4jnsgd1na2vs0mg"},{"bike_id":"e98ce170-24bd-4c0f-9537-65d9ff966318","system_id":"levelo_inurba_marseille","lat":43.28653,"lon":5.363302,"is_reserved":false,"is_disabled":false,"rental_uris":{"android":"levelo://app?vid=e98ce170-24bd-4c0f-9537-65d9ff966318","ios":"levelo://app?vid=e98ce170-24bd-4c0f-9537-65d9ff966318"},"vehicle_type_id":"4","last_reported":1728576649,"current_range_meters":8800,"station_id":"ce4bhah2rcd13ifvqej0","pricing_plan_id":"cebpf4jnsgd1na2vs0mg"},{"bike_id":"92ff2731-e09b-4b0b-b482-128fd8076b9a","system_id":"levelo_inurba_marseille","lat":43.31328,"lon":5.39695,"is_reserved":false,"is_disabled":false,"rental_uris":{"android":"levelo://app?vid=92ff2731-e09b-4b0b-b482-128fd8076b9a","ios":"levelo://app?vid=92ff2731-e09b-4b0b-b482-128fd8076b9a"},"vehicle_type_id":"4","last_reported":1728576649,"current_range_meters":8400,"station_id":"ce4bgvp2rcd13ifvqcu0","pricing_plan_id":"cebpf4jnsgd1na2vs0mg"},{"bike_id":"90e20996-83d0-4e5a-a074-6fcd865c3aa1","system_id":"levelo_inurba_marseille","lat":43.30316,"lon":5.40442,"is_reserved":false,"is_disabled":false,"rental_uris":{"android":"levelo://app?vid=90e20996-83d0-4e5a-a074-6fcd865c3aa1","ios":"levelo://app?vid=90e20996-83d0-4e5a-a074-6fcd865c3aa1"},"vehicle_type_id":"4","last_reported":1728576649,"current_range_meters":3600,"station_id":"ce4bh012rcd13ifvqd10","pricing_plan_id":"cebpf4jnsgd1na2vs0mg"},{"bike_id":"4fe5bb11-3c94-47a4-be96-26038ef70d6b","system_id":"levelo_inurba_marseille","lat":43.29088,"lon":5.38114,"is_reserved":false,"is_disabled":false,"rental_uris":{"android":"levelo://app?vid=4fe5bb11-3c94-47a4-be96-26038ef70d6b","ios":"levelo://app?vid=4fe5bb11-3c94-47a4-be96-26038ef70d6b"},"vehicle_type_id":"4","last_reported":1728576649,"current_range_meters":29600,"station_id":"ce4bh512rcd13ifvqe2g","pricing_plan_id":"cebpf4jnsgd1na2vs0mg"},{"bike_id":"2591b683-e264-4f9d-9aa5-ae14ac3b5de1","system_id":"levelo_inurba_marseille","lat":43.23058,"lon":5.3549,"is_reserved":false,"is_disabled":false,"rental_uris":{"android":"levelo://app?vid=2591b683-e264-4f9d-9aa5-ae14ac3b5de1","ios":"levelo://app?vid=2591b683-e264-4f9d-9aa5-ae14ac3b5de1"},"vehicle_type_id":"4","last_reported":1728576649,"current_range_meters":36000,"station_id":"cpo3342slgdg3j2ifvpg","pricing_plan_id":"cebpf4jnsgd1na2vs0mg"},{"bike_id":"45b73ba5-f6f2-4b10-9b06-a7686ee72c1d","system_id":"levelo_inurba_marseille","lat":43.297,"lon":5.36609,"is_reserved":false,"is_disabled":false,"rental_uris":{"android":"levelo://app?vid=45b73ba5-f6f2-4b10-9b06-a7686ee72c1d","ios":"levelo://app?vid=45b73ba5-f6f2-4b10-9b06-a7686ee72c1d"},"vehicle_type_id":"4","last_reported":1728576649,"current_range_meters":34000,"station_id":"ce4bgn12rcd13ifvqbt0","pricing_plan_id":"cebpf4jnsgd1na2vs0mg"},{"bike_id":"6631039b-78e3-42ae-b3f5-987abeda35e5","system_id":"levelo_inurba_marseille","lat":43.304672,"lon":5.401766,"is_reserved":false,"is_disabled":false,"rental_uris":{"android":"levelo://app?vid=6631039b-78e3-42ae-b3f5-987abeda35e5","ios":"levelo://app?vid=6631039b-78e3-42ae-b3f5-987abeda35e5"},"vehicle_type_id":"4","last_reported":1728576649,"current_range_meters":10000,"station_id":"","pricing_plan_id":"cebpf4jnsgd1na2vs0mg"},{"bike_id":"650e35db-acac-4d1b-b68b-301508abc968","system_id":"levelo_inurba_marseille","lat":43.28411,"lon":5.3499,"is_reserved":false,"is_disabled":false,"rental_uris":{"android":"levelo://app?vid=650e35db-acac-4d1b-b68b-301508abc968","ios":"levelo://app?vid=650e35db-acac-4d1b-b68b-301508abc968"},"vehicle_type_id":"4","last_reported":1728576649,"current_range_meters":39200,"station_id":"ce4bhbh2rcd13ifvqepg","pricing_plan_id":"cebpf4jnsgd1na2vs0mg"},{"bike_id":"27d41c0c-9ebc-46c6-a1d7-2ea2336d7db8","system_id":"levelo_inurba_marseille","lat":43.29692,"lon":5.36608,"is_reserved":false,"is_disabled":false,"rental_uris":{"android":"levelo://app?vid=27d41c0c-9ebc-46c6-a1d7-2ea2336d7db8","ios":"levelo://app?vid=27d41c0c-9ebc-46c6-a1d7-2ea2336d7db8"},"vehicle_type_id":"4","last_reported":1728576649,"current_range_meters":5600,"station_id":"ce4bgn12rcd13ifvqbt0","pricing_plan_id":"cebpf4jnsgd1na2vs0mg"},{"bike_id":"bdee3219-57c1-49d1-a2d1-d02ddf7e4ac9","system_id":"levelo_inurba_marseille","lat":43.23058,"lon":5.35495,"is_reserved":false,"is_disabled":false,"rental_uris":{"android":"levelo://app?vid=bdee3219-57c1-49d1-a2d1-d02ddf7e4ac9","ios":"levelo://app?vid=bdee3219-57c1-49d1-a2d1-d02ddf7e4ac9"},"vehicle_type_id":"4","last_reported":1728576649,"current_range_meters":23200,"station_id":"cpo3342slgdg3j2ifvpg","pricing_plan_id":"cebpf4jnsgd1na2vs0mg"},{"bike_id":"4bfe585a-6f9c-4782-88ed-e11869fe493b","system_id":"levelo_inurba_marseille","lat":43.28262,"lon":5.35059,"is_reserved":false,"is_disabled":false,"rental_uris":{"android":"levelo://app?vid=4bfe585a-6f9c-4782-88ed-e11869fe493b","ios":"levelo://app?vid=4bfe585a-6f9c-4782-88ed-e11869fe493b"},"vehicle_type_id":"4","last_reported":1728576649,"current_range_meters":2800,"station_id":"ce4bhbp2rcd13ifvqerg","pricing_plan_id":"cebpf4jnsgd1na2vs0mg"},{"bike_id":"5bcb4f20-a367-4be8-865d-ad99d0f1fe65","system_id":"levelo_inurba_marseille","lat":43.2319,"lon":5.35552,"is_reserved":false,"is_disabled":false,"rental_uris":{"android":"levelo://app?vid=5bcb4f20-a367-4be8-865d-ad99d0f1fe65","ios":"levelo://app?vid=5bcb4f20-a367-4be8-865d-ad99d0f1fe65"},"vehicle_type_id":"4","last_reported":1728576649,"current_range_meters":30400,"station_id":"ce4bhu92rcd13ifvqi70","pricing_plan_id":"cebpf4jnsgd1na2vs0mg"},{"bike_id":"a562589d-ef23-4da1-8f06-8dd5c89e7ebf","system_id":"levelo_inurba_marseille","lat":43.302842,"lon":5.368567,"is_reserved":false,"is_disabled":false,"rental_uris":{"android":"levelo://app?vid=a562589d-ef23-4da1-8f06-8dd5c89e7ebf","ios":"levelo://app?vid=a562589d-ef23-4da1-8f06-8dd5c89e7ebf"},"vehicle_type_id":"4","last_reported":1728576649,"current_range_meters":14800,"station_id":"ce4bgqh2rcd13ifvqc5g","pricing_plan_id":"cebpf4jnsgd1na2vs0mg"},{"bike_id":"92ca6c5c-e73f-44ae-97d4-96b049518d4d","system_id":"levelo_inurba_marseille","lat":43.27202,"lon":5.39179,"is_reserved":false,"is_disabled":false,"rental_uris":{"android":"levelo://app?vid=92ca6c5c-e73f-44ae-97d4-96b049518d4d","ios":"levelo://app?vid=92ca6c5c-e73f-44ae-97d4-96b049518d4d"},"vehicle_type_id":"4","last_reported":1728576649,"current_range_meters":6000,"station_id":"ce4bhhp2rcd13ifvqfm0","pricing_plan_id":"cebpf4jnsgd1na2vs0mg"},{"bike_id":"ed3ccabb-6320-4c4e-8188-fcfa19aca644","system_id":"levelo_inurba_marseille","lat":43.245758,"lon":5.429509,"is_reserved":false,"is_disabled":false,"rental_uris":{"android":"levelo://app?vid=ed3ccabb-6320-4c4e-8188-fcfa19aca644","ios":"levelo://app?vid=ed3ccabb-6320-4c4e-8188-fcfa19aca644"},"vehicle_type_id":"4","last_reported":1728576649,"current_range_meters":16400,"station_id":"","pricing_plan_id":"cebpf4jnsgd1na2vs0mg"},{"bike_id":"12bcb5d5-c12f-489c-b056-256836c0aab3","system_id":"levelo_inurba_marseille","lat":43.27615,"lon":5.36104,"is_reserved":false,"is_disabled":false,"rental_uris":{"android":"levelo://app?vid=12bcb5d5-c12f-489c-b056-256836c0aab3","ios":"levelo://app?vid=12bcb5d5-c12f-489c-b056-256836c0aab3"},"vehicle_type_id":"4","last_reported":1728576649,"current_range_meters":12800,"station_id":"ce4bgj92rcd13ifvqbe0","pricing_plan_id":"cebpf4jnsgd1na2vs0mg"},{"bike_id":"b253e9bb-939e-4de7-8773-e74c6f8d595f","system_id":"levelo_inurba_marseille","lat":43.27614,"lon":5.3611,"is_reserved":false,"is_disabled":false,"rental_uris":{"android":"levelo://app?vid=b253e9bb-939e-4de7-8773-e74c6f8d595f","ios":"levelo://app?vid=b253e9bb-939e-4de7-8773-e74c6f8d595f"},"vehicle_type_id":"4","last_reported":1728576649,"current_range_meters":27600,"station_id":"ce4bgj92rcd13ifvqbe0","pricing_plan_id":"cebpf4jnsgd1na2vs0mg"},{"bike_id":"898090e8-57d0-4e07-949f-6e3b0f117ce1","system_id":"levelo_inurba_marseille","lat":43.31084,"lon":5.42431,"is_reserved":false,"is_disabled":false,"rental_uris":{"android":"levelo://app?vid=898090e8-57d0-4e07-949f-6e3b0f117ce1","ios":"levelo://app?vid=898090e8-57d0-4e07-949f-6e3b0f117ce1"},"vehicle_type_id":"4","last_reported":1728576649,"current_range_meters":28800,"station_id":"ce4bhp92rcd13ifvqhag","pricing_plan_id":"cebpf4jnsgd1na2vs0mg"},{"bike_id":"d154cabf-b4cb-49ce-8b5e-9f64727d229e","system_id":"levelo_inurba_marseille","lat":43.23057,"lon":5.35489,"is_reserved":false,"is_disabled":false,"rental_uris":{"android":"levelo://app?vid=d154cabf-b4cb-49ce-8b5e-9f64727d229e","ios":"levelo://app?vid=d154cabf-b4cb-49ce-8b5e-9f64727d229e"},"vehicle_type_id":"4","last_reported":1728576649,"current_range_meters":2000,"station_id":"cpo3342slgdg3j2ifvpg","pricing_plan_id":"cebpf4jnsgd1na2vs0mg"},{"bike_id":"911bd761-ed44-4e49-99de-61afbc93801a","system_id":"levelo_inurba_marseille","lat":43.27202,"lon":5.39184,"is_reserved":false,"is_disabled":false,"rental_uris":{"android":"levelo://app?vid=911bd761-ed44-4e49-99de-61afbc93801a","ios":"levelo://app?vid=911bd761-ed44-4e49-99de-61afbc93801a"},"vehicle_type_id":"4","last_reported":1728576649,"current_range_meters":400,"station_id":"ce4bhhp2rcd13ifvqfm0","pricing_plan_id":"cebpf4jnsgd1na2vs0mg"},{"bike_id":"ec59b9d2-1cdf-4971-8800-86872b36a8e9","system_id":"levelo_inurba_marseille","lat":43.30128,"lon":5.38782,"is_reserved":false,"is_disabled":false,"rental_uris":{"android":"levelo://app?vid=ec59b9d2-1cdf-4971-8800-86872b36a8e9","ios":"levelo://app?vid=ec59b9d2-1cdf-4971-8800-86872b36a8e9"},"vehicle_type_id":"4","last_reported":1728576649,"current_range_meters":4400,"station_id":"ce4bghh2rcd13ifvqb60","pricing_plan_id":"cebpf4jnsgd1na2vs0mg"},{"bike_id":"94fea065-aa30-4db0-b940-af85ee8d2a77","system_id":"levelo_inurba_marseille","lat":43.27385,"lon":5.36268,"is_reserved":false,"is_disabled":false,"rental_uris":{"android":"levelo://app?vid=94fea065-aa30-4db0-b940-af85ee8d2a77","ios":"levelo://app?vid=94fea065-aa30-4db0-b940-af85ee8d2a77"},"vehicle_type_id":"4","last_reported":1728576649,"current_range_meters":20800,"station_id":"ce4bhbh2rcd13ifvqeo0","pricing_plan_id":"cebpf4jnsgd1na2vs0mg"},{"bike_id":"ff370754-0e1a-42a8-aad5-62ea4d51412b","system_id":"levelo_inurba_marseille","lat":43.31754,"lon":5.39034,"is_reserved":false,"is_disabled":false,"rental_uris":{"android":"levelo://app?vid=ff370754-0e1a-42a8-aad5-62ea4d51412b","ios":"levelo://app?vid=ff370754-0e1a-42a8-aad5-62ea4d51412b"},"vehicle_type_id":"4","last_reported":1728576649,"current_range_meters":28000,"station_id":"ce4bhqp2rcd13ifvqhng","pricing_plan_id":"cebpf4jnsgd1na2vs0mg"},{"bike_id":"af4d3955-9238-4448-83a0-8c5a3c948ebd","system_id":"levelo_inurba_marseille","lat":43.29535,"lon":5.39408,"is_reserved":false,"is_disabled":false,"rental_uris":{"android":"levelo://app?vid=af4d3955-9238-4448-83a0-8c5a3c948ebd","ios":"levelo://app?vid=af4d3955-9238-4448-83a0-8c5a3c948ebd"},"vehicle_type_id":"4","last_reported":1728576649,"current_range_meters":9600,"station_id":"ce4bh292rcd13ifvqdf0","pricing_plan_id":"cebpf4jnsgd1na2vs0mg"},{"bike_id":"4deab6cd-d032-43cf-a9cd-6de5a76787b4","system_id":"levelo_inurba_marseille","lat":43.30356,"lon":5.41879,"is_reserved":false,"is_disabled":false,"rental_uris":{"android":"levelo://app?vid=4deab6cd-d032-43cf-a9cd-6de5a76787b4","ios":"levelo://app?vid=4deab6cd-d032-43cf-a9cd-6de5a76787b4"},"vehicle_type_id":"4","last_reported":1728576649,"current_range_meters":10800,"station_id":"ce4bhop2rcd13ifvqh7g","pricing_plan_id":"cebpf4jnsgd1na2vs0mg"},{"bike_id":"d7b53285-c0ea-479b-95ed-f08633646462","system_id":"levelo_inurba_marseille","lat":43.28037,"lon":5.36955,"is_reserved":false,"is_disabled":false,"rental_uris":{"android":"levelo://app?vid=d7b53285-c0ea-479b-95ed-f08633646462","ios":"levelo://app?vid=d7b53285-c0ea-479b-95ed-f08633646462"},"vehicle_type_id":"4","last_reported":1728576649,"current_range_meters":32000,"station_id":"ce4bha12rcd13ifvqef0","pricing_plan_id":"cebpf4jnsgd1na2vs0mg"},{"bike_id":"a6393f25-3f35-402e-aab6-a6d42b3dcb39","system_id":"levelo_inurba_marseille","lat":43.23195,"lon":5.35545,"is_reserved":false,"is_disabled":false,"rental_uris":{"android":"levelo://app?vid=a6393f25-3f35-402e-aab6-a6d42b3dcb39","ios":"levelo://app?vid=a6393f25-3f35-402e-aab6-a6d42b3dcb39"},"vehicle_type_id":"4","last_reported":1728576649,"current_range_meters":30000,"station_id":"ce4bhu92rcd13ifvqi70","pricing_plan_id":"cebpf4jnsgd1na2vs0mg"},{"bike_id":"50d5e2cf-04e5-4130-9a11-0ddfcc4d2952","system_id":"levelo_inurba_marseille","lat":43.29781,"lon":5.3935,"is_reserved":false,"is_disabled":false,"rental_uris":{"android":"levelo://app?vid=50d5e2cf-04e5-4130-9a11-0ddfcc4d2952","ios":"levelo://app?vid=50d5e2cf-04e5-4130-9a11-0ddfcc4d2952"},"vehicle_type_id":"4","last_reported":1728576649,"current_range_meters":4800,"station_id":"chh1huq6cuj3fo74tm60","pricing_plan_id":"cebpf4jnsgd1na2vs0mg"},{"bike_id":"868cda8c-7b23-4d5f-a4d6-ce574bafd6a2","system_id":"levelo_inurba_marseille","lat":43.276581,"lon":5.361384,"is_reserved":false,"is_disabled":false,"rental_uris":{"android":"levelo://app?vid=868cda8c-7b23-4d5f-a4d6-ce574bafd6a2","ios":"levelo://app?vid=868cda8c-7b23-4d5f-a4d6-ce574bafd6a2"},"vehicle_type_id":"4","last_reported":1728576649,"current_range_meters":12800,"station_id":"ce4bgj92rcd13ifvqbe0","pricing_plan_id":"cebpf4jnsgd1na2vs0mg"},{"bike_id":"1cbcd505-3f1c-4cf6-b10f-d83743c30329","system_id":"levelo_inurba_marseille","lat":43.295135,"lon":5.394041,"is_reserved":false,"is_disabled":false,"rental_uris":{"android":"levelo://app?vid=1cbcd505-3f1c-4cf6-b10f-d83743c30329","ios":"levelo://app?vid=1cbcd505-3f1c-4cf6-b10f-d83743c30329"},"vehicle_type_id":"4","last_reported":1728576649,"current_range_meters":28800,"station_id":"ce4bh192rcd13ifvqdd0","pricing_plan_id":"cebpf4jnsgd1na2vs0mg"},{"bike_id":"c8830cef-f130-46e3-8ae7-c1e5bdbe678d","system_id":"levelo_inurba_marseille","lat":43.30256,"lon":5.40071,"is_reserved":false,"is_disabled":false,"rental_uris":{"android":"levelo://app?vid=c8830cef-f130-46e3-8ae7-c1e5bdbe678d","ios":"levelo://app?vid=c8830cef-f130-46e3-8ae7-c1e5bdbe678d"},"vehicle_type_id":"4","last_reported":1728576649,"current_range_meters":28000,"station_id":"ce4bgvh2rcd13ifvqcs0","pricing_plan_id":"cebpf4jnsgd1na2vs0mg"},{"bike_id":"155100f2-6246-4a18-9074-677697910409","system_id":"levelo_inurba_marseille","lat":43.29041,"lon":5.35917,"is_reserved":false,"is_disabled":false,"rental_uris":{"android":"levelo://app?vid=155100f2-6246-4a18-9074-677697910409","ios":"levelo://app?vid=155100f2-6246-4a18-9074-677697910409"},"vehicle_type_id":"4","last_reported":1728576649,"current_range_meters":24400,"station_id":"ce4bha92rcd13ifvqeg0","pricing_plan_id":"cebpf4jnsgd1na2vs0mg"},{"bike_id":"f2aed75c-b571-4a98-80aa-d52b9dc28daf","system_id":"levelo_inurba_marseille","lat":43.23059,"lon":5.3549,"is_reserved":false,"is_disabled":false,"rental_uris":{"android":"levelo://app?vid=f2aed75c-b571-4a98-80aa-d52b9dc28daf","ios":"levelo://app?vid=f2aed75c-b571-4a98-80aa-d52b9dc28daf"},"vehicle_type_id":"4","last_reported":1728576649,"current_range_meters":27200,"station_id":"cpo3342slgdg3j2ifvpg","pricing_plan_id":"cebpf4jnsgd1na2vs0mg"},{"bike_id":"21248abb-8156-4272-9a8a-9416745b8250","system_id":"levelo_inurba_marseille","lat":43.30421,"lon":5.4129,"is_reserved":false,"is_disabled":false,"rental_uris":{"android":"levelo://app?vid=21248abb-8156-4272-9a8a-9416745b8250","ios":"levelo://app?vid=21248abb-8156-4272-9a8a-9416745b8250"},"vehicle_type_id":"4","last_reported":1728576649,"current_range_meters":25200,"station_id":"ce4bhop2rcd13ifvqh8g","pricing_plan_id":"cebpf4jnsgd1na2vs0mg"},{"bike_id":"6c3a3da9-6e98-43a8-9e06-df564a166f54","system_id":"levelo_inurba_marseille","lat":43.31887,"lon":5.40749,"is_reserved":false,"is_disabled":false,"rental_uris":{"android":"levelo://app?vid=6c3a3da9-6e98-43a8-9e06-df564a166f54","ios":"levelo://app?vid=6c3a3da9-6e98-43a8-9e06-df564a166f54"},"vehicle_type_id":"4","last_reported":1728576649,"current_range_meters":36800,"station_id":"ce4bhq12rcd13ifvqhig","pricing_plan_id":"cebpf4jnsgd1na2vs0mg"},{"bike_id":"87028750-433d-4b53-8a2f-6e9378336727","system_id":"levelo_inurba_marseille","lat":43.32366,"lon":5.38881,"is_reserved":false,"is_disabled":false,"rental_uris":{"android":"levelo://app?vid=87028750-433d-4b53-8a2f-6e9378336727","ios":"levelo://app?vid=87028750-433d-4b53-8a2f-6e9378336727"},"vehicle_type_id":"4","last_reported":1728576649,"current_range_meters":8000,"station_id":"ce4bhqp2rcd13ifvqhog","pricing_plan_id":"cebpf4jnsgd1na2vs0mg"},{"bike_id":"df65cb07-b29b-429c-8010-b06fd030a9fd","system_id":"levelo_inurba_marseille","lat":43.26552,"lon":5.37288,"is_reserved":false,"is_disabled":false,"rental_uris":{"android":"levelo://app?vid=df65cb07-b29b-429c-8010-b06fd030a9fd","ios":"levelo://app?vid=df65cb07-b29b-429c-8010-b06fd030a9fd"},"vehicle_type_id":"4","last_reported":1728576649,"current_range_meters":38800,"station_id":"ce4bhg12rcd13ifvqf70","pricing_plan_id":"cebpf4jnsgd1na2vs0mg"},{"bike_id":"246a6f87-01e0-4f2c-9acd-c3034105cb73","system_id":"levelo_inurba_marseille","lat":43.25094,"lon":5.39517,"is_reserved":false,"is_disabled":false,"rental_uris":{"android":"levelo://app?vid=246a6f87-01e0-4f2c-9acd-c3034105cb73","ios":"levelo://app?vid=246a6f87-01e0-4f2c-9acd-c3034105cb73"},"vehicle_type_id":"4","last_reported":1728576649,"current_range_meters":32400,"station_id":"ce4bhm12rcd13ifvqgkg","pricing_plan_id":"cebpf4jnsgd1na2vs0mg"},{"bike_id":"10caf173-53b5-4e5b-bdc6-c382f4d64426","system_id":"levelo_inurba_marseille","lat":43.27613,"lon":5.36124,"is_reserved":false,"is_disabled":false,"rental_uris":{"android":"levelo://app?vid=10caf173-53b5-4e5b-bdc6-c382f4d64426","ios":"levelo://app?vid=10caf173-53b5-4e5b-bdc6-c382f4d64426"},"vehicle_type_id":"4","last_reported":1728576649,"current_range_meters":18800,"station_id":"ce4bgj92rcd13ifvqbe0","pricing_plan_id":"cebpf4jnsgd1na2vs0mg"},{"bike_id":"be034814-69ab-41de-8f0e-21627737488e","system_id":"levelo_inurba_marseille","lat":43.27868,"lon":5.38073,"is_reserved":false,"is_disabled":false,"rental_uris":{"android":"levelo://app?vid=be034814-69ab-41de-8f0e-21627737488e","ios":"levelo://app?vid=be034814-69ab-41de-8f0e-21627737488e"},"vehicle_type_id":"4","last_reported":1728576649,"current_range_meters":31200,"station_id":"ce4bhf92rcd13ifvqf50","pricing_plan_id":"cebpf4jnsgd1na2vs0mg"},{"bike_id":"ae4236c3-24c3-4c1d-ab4a-5a600bfc2d3f","system_id":"levelo_inurba_marseille","lat":43.23195,"lon":5.35547,"is_reserved":false,"is_disabled":false,"rental_uris":{"android":"levelo://app?vid=ae4236c3-24c3-4c1d-ab4a-5a600bfc2d3f","ios":"levelo://app?vid=ae4236c3-24c3-4c1d-ab4a-5a600bfc2d3f"},"vehicle_type_id":"4","last_reported":1728576649,"current_range_meters":12800,"station_id":"ce4bhu92rcd13ifvqi70","pricing_plan_id":"cebpf4jnsgd1na2vs0mg"},{"bike_id":"ec6d815e-79f6-4f8a-a2fe-ac10f3d3b30f","system_id":"levelo_inurba_marseille","lat":43.27826,"lon":5.39215,"is_reserved":false,"is_disabled":false,"rental_uris":{"android":"levelo://app?vid=ec6d815e-79f6-4f8a-a2fe-ac10f3d3b30f","ios":"levelo://app?vid=ec6d815e-79f6-4f8a-a2fe-ac10f3d3b30f"},"vehicle_type_id":"4","last_reported":1728576649,"current_range_meters":6400,"station_id":"ce4bhjp2rcd13ifvqga0","pricing_plan_id":"cebpf4jnsgd1na2vs0mg"},{"bike_id":"36005623-3108-41ea-8018-67ad23f20b2c","system_id":"levelo_inurba_marseille","lat":43.2791,"lon":5.39587,"is_reserved":false,"is_disabled":false,"rental_uris":{"android":"levelo://app?vid=36005623-3108-41ea-8018-67ad23f20b2c","ios":"levelo://app?vid=36005623-3108-41ea-8018-67ad23f20b2c"},"vehicle_type_id":"4","last_reported":1728576649,"current_range_meters":7200,"station_id":"ce4bhf92rcd13ifvqf40","pricing_plan_id":"cebpf4jnsgd1na2vs0mg"},