{"last_updated":1724098131,"ttl":30,"version":"2.2","data":{"bikes":[{"bike_id":"090653bd-f8c6-440a-a5f8-ca0261b6d266","system_id":"levelo_inurba_marseille","lat":43.309076,"lon":5.368465,"is_reserved":false,"is_disabled":false,"rental_uris":{"android":"levelo://app?vid=090653bd-f8c6-440a-a5f8-ca0261b6d266","ios":"levelo://app?vid=090653bd-f8c6-440a-a5f8-ca0261b6d266"},"vehicle_type_id":"4","last_reported":1724098131,"current_range_meters":4800,"station_id":"ce4bgn92rcd13ifvqbvg","pricing_plan_id":"cebpf4jnsgd1na2vs0mg"},{"bike_id":"b5d8d076-4df9-4e7a-ac33-bf7987469e21","system_id":"levelo_inurba_marseille","lat":43.314811,"lon":5.373103,"is_reserved":false,"is_disabled":false,"rental_uris":{"android":"levelo://app?vid=b5d8d076-4df9-4e7a-ac33-bf7987469e21","ios":"levelo://app?vid=b5d8d076-4df9-4e7a-ac33-bf7987469e21"},"vehicle_type_id":"4","last_reported":1724098131,"current_range_meters":29600,"station_id":"ce4bgt12rcd13ifvqcd0","pricing_plan_id":"cebpf4jnsgd1na2vs0mg"},{"bike_id":"628637f4-5307-4ae9-a792-071796fa50df","system_id":"levelo_inurba_marseille","lat":43.314811,"lon":5.373103,"is_reserved":false,"is_disabled":false,"rental_uris":{"android":"levelo://app?vid=628637f4-5307-4ae9-a792-071796fa50df","ios":"levelo://app?vid=628637f4-5307-4ae9-a792-071796fa50df"},"vehicle_type_id":"4","last_reported":1724098131,"current_range_meters":29600,"station_id":"ce4bgt12rcd13ifvqcd0","pricing_plan_id":"cebpf4jnsgd1na2vs0mg"},{"bike_id":"367b6a04-0240-4ee4-bca3-f798415e9425","system_id":"levelo_inurba_marseille","lat":43.314811,"lon":5.373103,"is_reserved":false,"is_disabled":false,"rental_uris":{"android":"levelo://app?vid=367b6a04-0240-4ee4-bca3-f798415e9425","ios":"levelo://app?vid=367b6a04-0240-4ee4-bca3-f798415e9425"},"vehicle_type_id":"4","last_reported":1724098131,"current_range_meters":3200,"station_id":"ce4bgt12rcd13ifvqcd0","pricing_plan_id":"cebpf4jnsgd1na2vs0mg"},{"bike_id":"1034c32f-8f11-47d3-95a2-9a0f2fb6aa56","system_id":"levelo_inurba_marseille","lat":43.314811,"lon":5.373103,"is_reserved":false,"is_disabled":false,"rental_uris":{"android":"levelo://app?vid=1034c32f-8f11-47d3-95a2-9a0f2fb6aa56","ios":"levelo://app?vid=1034c32f-8f11-47d3-95a2-9a0f2fb6aa56"},"vehicle_type_id":"4","last_reported":1724098131,"current_range_meters":2000,"station_id":"ce4bgt12rcd13ifvqcd0","pricing_plan_id":"cebpf4jnsgd1na2vs0mg"},{"bike_id":"5a7cc578-79f3-47e1-9358-cf0b1aa9f99b","system_id":"levelo_inurba_marseille","lat":43.309039,"lon":5.371797,"is_reserved":false,"is_disabled":false,"rental_uris":{"android":"levelo://app?vid=5a7cc578-79f3-47e1-9358-cf0b1aa9f99b","ios":"levelo://app?vid=5a7cc578-79f3-47e1-9358-cf0b1aa9f99b"},"vehicle_type_id":"4","last_reported":1724098131,"current_range_meters":8400,"station_id":"ce4bguh2rcd13ifvqckg","pricing_plan_id":"cebpf4jnsgd1na2vs0mg"},{"bike_id":"7b9ee7e8-5abe-4ae5-a03b-760beb6ef082","system_id":"levelo_inurba_marseille","lat":43.314565,"lon":5.37379,"is_reserved":false,"is_disabled":false,"rental_uris":{"android":"levelo://app?vid=7b9ee7e8-5abe-4ae5-a03b-760beb6ef082","ios":"levelo://app?vid=7b9ee7e8-5abe-4ae5-a03b-760beb6ef082"},"vehicle_type_id":"4","last_reported":1724098131,"current_range_meters":1600,"station_id":"","pricing_plan_id":"cebpf4jnsgd1na2vs0mg"},{"bike_id":"2eba57e8-76ae-4a76-ad6b-0566566f7f1a","system_id":"levelo_inurba_marseille","lat":43.309039,"lon":5.371797,"is_reserved":false,"is_disabled":false,"rental_uris":{"android":"levelo://app?vid=2eba57e8-76ae-4a76-ad6b-0566566f7f1a","ios":"levelo://app?vid=2eba57e8-76ae-4a76-ad6b-0566566f7f1a"},"vehicle_type_id":"4","last_reported":1724098131,"current_range_meters":0,"station_id":"ce4bguh2rcd13ifvqckg","pricing_plan_id":"cebpf4jnsgd1na2vs0mg"},{"bike_id":"3bc89b1c-6ff6-4aac-a8a7-347c658ca263","system_id":"levelo_inurba_marseille","lat":43.31876,"lon":5.36673,"is_reserved":false,"is_disabled":false,"rental_uris":{"android":"levelo://app?vid=3bc89b1c-6ff6-4aac-a8a7-347c658ca263","ios":"levelo://app?vid=3bc89b1c-6ff6-4aac-a8a7-347c658ca263"},"vehicle_type_id":"4","last_reported":1724098131,"current_range_meters":29600,"station_id":"","pricing_plan_id":"cebpf4jnsgd1na2vs0mg"},{"bike_id":"17b2ba53-e81f-46fc-b1b5-cb9299a23bf3","system_id":"levelo_inurba_marseille","lat":43.30545,"lon":5.36537,"is_reserved":false,"is_disabled":false,"rental_uris":{"android":"levelo://app?vid=17b2ba53-e81f-46fc-b1b5-cb9299a23bf3","ios":"levelo://app?vid=17b2ba53-e81f-46fc-b1b5-cb9299a23bf3"},"vehicle_type_id":"4","last_reported":1724098131,"current_range_meters":0,"station_id":"ce4bgs12rcd13ifvqcag","pricing_plan_id":"cebpf4jnsgd1na2vs0mg"},{"bike_id":"bf5a6a4b-cd14-45f6-8993-673eeee1255e","system_id":"levelo_inurba_marseille","lat":43.305368,"lon":5.367343,"is_reserved":false,"is_disabled":false,"rental_uris":{"android":"levelo://app?vid=bf5a6a4b-cd14-45f6-8993-673eeee1255e","ios":"levelo://app?vid=bf5a6a4b-cd14-45f6-8993-673eeee1255e"},"vehicle_type_id":"4","last_reported":1724098131,"current_range_meters":20800,"station_id":"ce4bgrp2rcd13ifvqc9g","pricing_plan_id":"cebpf4jnsgd1na2vs0mg"},{"bike_id":"d04c11be-6200-40ce-a3fe-f64aa665c877","system_id":"levelo_inurba_marseille","lat":43.305989,"lon":5.37225,"is_reserved":false,"is_disabled":false,"rental_uris":{"android":"levelo://app?vid=d04c11be-6200-40ce-a3fe-f64aa665c877","ios":"levelo://app?vid=d04c11be-6200-40ce-a3fe-f64aa665c877"},"vehicle_type_id":"4","last_reported":1724098131,"current_range_meters":4800,"station_id":"ce4bgqh2rcd13ifvqc4g","pricing_plan_id":"cebpf4jnsgd1na2vs0mg"},{"bike_id":"9c240d8e-a0fe-4b14-a4f7-9ed20228ef7c","system_id":"levelo_inurba_marseille","lat":43.305989,"lon":5.37225,"is_reserved":false,"is_disabled":false,"rental_uris":{"android":"levelo://app?vid=9c240d8e-a0fe-4b14-a4f7-9ed20228ef7c","ios":"levelo://app?vid=9c240d8e-a0fe-4b14-a4f7-9ed20228ef7c"},"vehicle_type_id":"4","last_reported":1724098131,"current_range_meters":3600,"station_id":"ce4bgqh2rcd13ifvqc4g","pricing_plan_id":"cebpf4jnsgd1na2vs0mg"},{"bike_id":"96aa6b1c-6d5a-4663-b768-36e1af906bc8","system_id":"levelo_inurba_marseille","lat":43.305989,"lon":5.37225,"is_reserved":false,"is_disabled":false,"rental_uris":{"android":"levelo://app?vid=96aa6b1c-6d5a-4663-b768-36e1af906bc8","ios":"levelo://app?vid=96aa6b1c-6d5a-4663-b768-36e1af906bc8"},"vehicle_type_id":"4","last_reported":1724098131,"current_range_meters":16000,"station_id":"ce4bgqh2rcd13ifvqc4g","pricing_plan_id":"cebpf4jnsgd1na2vs0mg"},{"bike_id":"336b65d4-9aae-4027-a5f2-075c2c00d452","system_id":"levelo_inurba_marseille","lat":43.305989,"lon":5.37225,"is_reserved":false,"is_disabled":false,"rental_uris":{"android":"levelo://app?vid=336b65d4-9aae-4027-a5f2-075c2c00d452","ios":"levelo://app?vid=336b65d4-9aae-4027-a5f2-075c2c00d452"},"vehicle_type_id":"4","last_reported":1724098131,"current_range_meters":19200,"station_id":"ce4bgqh2rcd13ifvqc4g","pricing_plan_id":"cebpf4jnsgd1na2vs0mg"},{"bike_id":"a467a661-d752-4acd-8aa9-82e6e5f2ea2c","system_id":"levelo_inurba_marseille","lat":43.305989,"lon":5.37225,"is_reserved":false,"is_disabled":false,"rental_uris":{"android":"levelo://app?vid=a467a661-d752-4acd-8aa9-82e6e5f2ea2c","ios":"levelo://app?vid=a467a661-d752-4acd-8aa9-82e6e5f2ea2c"},"vehicle_type_id":"4","last_reported":1724098131,"current_range_meters":20800,"station_id":"ce4bgqh2rcd13ifvqc4g","pricing_plan_id":"cebpf4jnsgd1na2vs0mg"},{"bike_id":"04eb3bd7-5162-4bdb-a190-9bba7d79e821","system_id":"levelo_inurba_marseille","lat":43.31117,"lon":5.37767,"is_reserved":false,"is_disabled":false,"rental_uris":{"android":"levelo://app?vid=04eb3bd7-5162-4bdb-a190-9bba7d79e821","ios":"levelo://app?vid=04eb3bd7-5162-4bdb-a190-9bba7d79e821"},"vehicle_type_id":"4","last_reported":1724098131,"current_range_meters":0,"station_id":"ce4bgt92rcd13ifvqcg0","pricing_plan_id":"cebpf4jnsgd1na2vs0mg"},{"bike_id":"f0ecb86d-7962-4cbb-baf8-ad831c8df701","system_id":"levelo_inurba_marseille","lat":43.31122,"lon":5.37781,"is_reserved":false,"is_disabled":false,"rental_uris":{"android":"levelo://app?vid=f0ecb86d-7962-4cbb-baf8-ad831c8df701","ios":"levelo://app?vid=f0ecb86d-7962-4cbb-baf8-ad831c8df701"},"vehicle_type_id":"4","last_reported":1724098131,"current_range_meters":0,"station_id":"ce4bgt92rcd13ifvqcg0","pricing_plan_id":"cebpf4jnsgd1na2vs0mg"},{"bike_id":"b123cdb8-55d6-4c5b-b691-0bc9de67d700","system_id":"levelo_inurba_marseille","lat":43.307945,"lon":5.376487,"is_reserved":false,"is_disabled":false,"rental_uris":{"android":"levelo://app?vid=b123cdb8-55d6-4c5b-b691-0bc9de67d700","ios":"levelo://app?vid=b123cdb8-55d6-4c5b-b691-0bc9de67d700"},"vehicle_type_id":"4","last_reported":1724098131,"current_range_meters":0,"station_id":"ce4bgv92rcd13ifvqcq0","pricing_plan_id":"cebpf4jnsgd1na2vs0mg"},{"bike_id":"545c8e51-e822-4604-941b-6bffe9358360","system_id":"levelo_inurba_marseille","lat":43.30929,"lon":5.37891,"is_reserved":false,"is_disabled":false,"rental_uris":{"android":"levelo://app?vid=545c8e51-e822-4604-941b-6bffe9358360","ios":"levelo://app?vid=545c8e51-e822-4604-941b-6bffe9358360"},"vehicle_type_id":"4","last_reported":1724098131,"current_range_meters":14400,"station_id":"","pricing_plan_id":"cebpf4jnsgd1na2vs0mg"},{"bike_id":"565e7015-780c-4a4e-aeed-367572431c22","system_id":"levelo_inurba_marseille","lat":43.303046,"lon":5.368981,"is_reserved":false,"is_disabled":false,"rental_uris":{"android":"levelo://app?vid=565e7015-780c-4a4e-aeed-367572431c22","ios":"levelo://app?vid=565e7015-780c-4a4e-aeed-367572431c22"},"vehicle_type_id":"4","last_reported":1724098131,"current_range_meters":0,"station_id":"ce4bgqh2rcd13ifvqc5g","pricing_plan_id":"cebpf4jnsgd1na2vs0mg"},{"bike_id":"6ca5c7d7-d4ae-42db-8d9d-0d34a84b958f","system_id":"levelo_inurba_marseille","lat":43.31532,"lon":5.3803,"is_reserved":false,"is_disabled":false,"rental_uris":{"android":"levelo://app?vid=6ca5c7d7-d4ae-42db-8d9d-0d34a84b958f","ios":"levelo://app?vid=6ca5c7d7-d4ae-42db-8d9d-0d34a84b958f"},"vehicle_type_id":"4","last_reported":1724098131,"current_range_meters":31200,"station_id":"ce4bhsp2rcd13ifvqi50","pricing_plan_id":"cebpf4jnsgd1na2vs0mg"},{"bike_id":"6ade2417-df2a-4940-8dc9-2e0b8d60df50","system_id":"levelo_inurba_marseille","lat":43.31022,"lon":5.38041,"is_reserved":false,"is_disabled":false,"rental_uris":{"android":"levelo://app?vid=6ade2417-df2a-4940-8dc9-2e0b8d60df50","ios":"levelo://app?vid=6ade2417-df2a-4940-8dc9-2e0b8d60df50"},"vehicle_type_id":"4","last_reported":1724098131,"current_range_meters":10400,"station_id":"","pricing_plan_id":"cebpf4jnsgd1na2vs0mg"},{"bike_id":"1747c425-412b-47df-becc-da54129fa90a","system_id":"levelo_inurba_marseille","lat":43.31025,"lon":5.38062,"is_reserved":false,"is_disabled":false,"rental_uris":{"android":"levelo://app?vid=1747c425-412b-47df-becc-da54129fa90a","ios":"levelo://app?vid=1747c425-412b-47df-becc-da54129fa90a"},"vehicle_type_id":"4","last_reported":1724098131,"current_range_meters":2400,"station_id":"","pricing_plan_id":"cebpf4jnsgd1na2vs0mg"},{"bike_id":"8de2e523-6606-4799-940e-bb1876e3b731","system_id":"levelo_inurba_marseille","lat":43.308012,"lon":5.381511,"is_reserved":false,"is_disabled":false,"rental_uris":{"android":"levelo://app?vid=8de2e523-6606-4799-940e-bb1876e3b731","ios":"levelo://app?vid=8de2e523-6606-4799-940e-bb1876e3b731"},"vehicle_type_id":"4","last_reported":1724098131,"current_range_meters":5200,"station_id":"ce4bgt12rcd13ifvqce0","pricing_plan_id":"cebpf4jnsgd1na2vs0mg"},{"bike_id":"cac2c531-0ad4-4c37-9c20-a80240400801","system_id":"levelo_inurba_marseille","lat":43.308012,"lon":5.381511,"is_reserved":false,"is_disabled":false,"rental_uris":{"android":"levelo://app?vid=cac2c531-0ad4-4c37-9c20-a80240400801","ios":"levelo://app?vid=cac2c531-0ad4-4c37-9c20-a80240400801"},"vehicle_type_id":"4","last_reported":1724098131,"current_range_meters":14800,"station_id":"ce4bgt12rcd13ifvqce0","pricing_plan_id":"cebpf4jnsgd1na2vs0mg"},{"bike_id":"f6b227d0-ce0e-45d0-8119-767353c18806","system_id":"levelo_inurba_marseille","lat":43.324771,"lon":5.36557,"is_reserved":false,"is_disabled":false,"rental_uris":{"android":"levelo://app?vid=f6b227d0-ce0e-45d0-8119-767353c18806","ios":"levelo://app?vid=f6b227d0-ce0e-45d0-8119-767353c18806"},"vehicle_type_id":"4","last_reported":1724098131,"current_range_meters":12800,"station_id":"ce4bhs12rcd13ifvqhvg","pricing_plan_id":"cebpf4jnsgd1na2vs0mg"},{"bike_id":"0d3ff52f-7dc7-41d7-b376-aca825e02703","system_id":"levelo_inurba_marseille","lat":43.32478,"lon":5.36566,"is_reserved":false,"is_disabled":false,"rental_uris":{"android":"levelo://app?vid=0d3ff52f-7dc7-41d7-b376-aca825e02703","ios":"levelo://app?vid=0d3ff52f-7dc7-41d7-b376-aca825e02703"},"vehicle_type_id":"4","last_reported":1724098131,"current_range_meters":30400,"station_id":"ce4bhs12rcd13ifvqhvg","pricing_plan_id":"cebpf4jnsgd1na2vs0mg"},{"bike_id":"2190fca0-046f-4675-8d73-3484b77a52e8","system_id":"levelo_inurba_marseille","lat":43.324771,"lon":5.36557,"is_reserved":false,"is_disabled":false,"rental_uris":{"android":"levelo://app?vid=2190fca0-046f-4675-8d73-3484b77a52e8","ios":"levelo://app?vid=2190fca0-046f-4675-8d73-3484b77a52e8"},"vehicle_type_id":"4","last_reported":1724098131,"current_range_meters":21200,"station_id":"ce4bhs12rcd13ifvqhvg","pricing_plan_id":"cebpf4jnsgd1na2vs0mg"},{"bike_id":"dc18ef80-7b17-4500-950b-a5b475701f80","system_id":"levelo_inurba_marseille","lat":43.324771,"lon":5.36557,"is_reserved":false,"is_disabled":false,"rental_uris":{"android":"levelo://app?vid=dc18ef80-7b17-4500-950b-a5b475701f80","ios":"levelo://app?vid=dc18ef80-7b17-4500-950b-a5b475701f80"},"vehicle_type_id":"4","last_reported":1724098131,"current_range_meters":11600,"station_id":"ce4bhs12rcd13ifvqhvg","pricing_plan_id":"cebpf4jnsgd1na2vs0mg"},{"bike_id":"cc501147-a542-41e3-a5de-86cbb6cb56bd","system_id":"levelo_inurba_marseille","lat":43.324771,"lon":5.36557,"is_reserved":false,"is_disabled":false,"rental_uris":{"android":"levelo://app?vid=cc501147-a542-41e3-a5de-86cbb6cb56bd","ios":"levelo://app?vid=cc501147-a542-41e3-a5de-86cbb6cb56bd"},"vehicle_type_id":"4","last_reported":1724098131,"current_range_meters":26800,"station_id":"ce4bhs12rcd13ifvqhvg","pricing_plan_id":"cebpf4jnsgd1na2vs0mg"},{"bike_id":"fb015930-d654-4b1e-b105-86d079d5b07e","system_id":"levelo_inurba_marseille","lat":43.32483,"lon":5.36571,"is_reserved":false,"is_disabled":false,"rental_uris":{"android":"levelo://app?vid=fb015930-d654-4b1e-b105-86d079d5b07e","ios":"levelo://app?vid=fb015930-d654-4b1e-b105-86d079d5b07e"},"vehicle_type_id":"4","last_reported":1724098131,"current_range_meters":13600,"station_id":"ce4bhs12rcd13ifvqhvg","pricing_plan_id":"cebpf4jnsgd1na2vs0mg"},{"bike_id":"e3320ad1-80fc-4357-8088-3385ae06d232","system_id":"levelo_inurba_marseille","lat":43.324771,"lon":5.36557,"is_reserved":false,"is_disabled":false,"rental_uris":{"android":"levelo://app?vid=e3320ad1-80fc-4357-8088-3385ae06d232","ios":"levelo://app?vid=e3320ad1-80fc-4357-8088-3385ae06d232"},"vehicle_type_id":"4","last_reported":1724098131,"current_range_meters":30800,"station_id":"ce4bhs12rcd13ifvqhvg","pricing_plan_id":"cebpf4jnsgd1na2vs0mg"},{"bike_id":"0621e0a3-b7ec-4b25-a5e0-2832956dff02","system_id":"levelo_inurba_marseille","lat":43.310682,"lon":5.383462,"is_reserved":false,"is_disabled":false,"rental_uris":{"android":"levelo://app?vid=0621e0a3-b7ec-4b25-a5e0-2832956dff02","ios":"levelo://app?vid=0621e0a3-b7ec-4b25-a5e0-2832956dff02"},"vehicle_type_id":"4","last_reported":1724098131,"current_range_meters":6800,"station_id":"ce4bgv92rcd13ifvqcr0","pricing_plan_id":"cebpf4jnsgd1na2vs0mg"},{"bike_id":"548b4cf6-67e3-4fcf-8f9a-9f31921fdc31","system_id":"levelo_inurba_marseille","lat":43.31078,"lon":5.38357,"is_reserved":false,"is_disabled":false,"rental_uris":{"android":"levelo://app?vid=548b4cf6-67e3-4fcf-8f9a-9f31921fdc31","ios":"levelo://app?vid=548b4cf6-67e3-4fcf-8f9a-9f31921fdc31"},"vehicle_type_id":"4","last_reported":1724098131,"current_range_meters":4400,"station_id":"ce4bgv92rcd13ifvqcr0","pricing_plan_id":"cebpf4jnsgd1na2vs0mg"},{"bike_id":"7b66572e-2db6-49dc-9d71-12b6753a2c50","system_id":"levelo_inurba_marseille","lat":43.310804,"lon":5.38359,"is_reserved":false,"is_disabled":false,"rental_uris":{"android":"levelo://app?vid=7b66572e-2db6-49dc-9d71-12b6753a2c50","ios":"levelo://app?vid=7b66572e-2db6-49dc-9d71-12b6753a2c50"},"vehicle_type_id":"4","last_reported":1724098131,"current_range_meters":15600,"station_id":"ce4bgv92rcd13ifvqcr0","pricing_plan_id":"cebpf4jnsgd1na2vs0mg"},{"bike_id":"47620d38-255c-4223-b4e2-70a58e6502ff","system_id":"levelo_inurba_marseille","lat":43.310804,"lon":5.38359,"is_reserved":false,"is_disabled":false,"rental_uris":{"android":"levelo://app?vid=47620d38-255c-4223-b4e2-70a58e6502ff","ios":"levelo://app?vid=47620d38-255c-4223-b4e2-70a58e6502ff"},"vehicle_type_id":"4","last_reported":1724098131,"current_range_meters":12800,"station_id":"ce4bgv92rcd13ifvqcr0","pricing_plan_id":"cebpf4jnsgd1na2vs0mg"},{"bike_id":"9da294b8-2850-4f51-9f3a-5fff040b842e","system_id":"levelo_inurba_marseille","lat":43.31078,"lon":5.38371,"is_reserved":false,"is_disabled":false,"rental_uris":{"android":"levelo://app?vid=9da294b8-2850-4f51-9f3a-5fff040b842e","ios":"levelo://app?vid=9da294b8-2850-4f51-9f3a-5fff040b842e"},"vehicle_type_id":"4","last_reported":1724098131,"current_range_meters":9200,"station_id":"ce4bgv92rcd13ifvqcr0","pricing_plan_id":"cebpf4jnsgd1na2vs0mg"},{"bike_id":"af3836c8-f1ad-4167-8c18-4b115724f463","system_id":"levelo_inurba_marseille","lat":43.302784,"lon":5.377158,"is_reserved":false,"is_disabled":false,"rental_uris":{"android":"levelo://app?vid=af3836c8-f1ad-4167-8c18-4b115724f463","ios":"levelo://app?vid=af3836c8-f1ad-4167-8c18-4b115724f463"},"vehicle_type_id":"4","last_reported":1724098131,"current_range_meters":20800,"station_id":"ce4bguh2rcd13ifvqcj0","pricing_plan_id":"cebpf4jnsgd1na2vs0mg"},{"bike_id":"cd68c938-1166-4cca-b8ea-0596520ee90c","system_id":"levelo_inurba_marseille","lat":43.301429,"lon":5.37413,"is_reserved":false,"is_disabled":false,"rental_uris":{"android":"levelo://app?vid=cd68c938-1166-4cca-b8ea-0596520ee90c","ios":"levelo://app?vid=cd68c938-1166-4cca-b8ea-0596520ee90c"},"vehicle_type_id":"4","last_reported":1724098131,"current_range_meters":31200,"station_id":"ce4bgs92rcd13ifvqcc0","pricing_plan_id":"cebpf4jnsgd1na2vs0mg"},{"bike_id":"28876b5d-d1a5-47fe-bb76-b6a181d33c98","system_id":"levelo_inurba_marseille","lat":43.32517,"lon":5.3652,"is_reserved":false,"is_disabled":false,"rental_uris":{"android":"levelo://app?vid=28876b5d-d1a5-47fe-bb76-b6a181d33c98","ios":"levelo://app?vid=28876b5d-d1a5-47fe-bb76-b6a181d33c98"},"vehicle_type_id":"4","last_reported":1724098131,"current_range_meters":6400,"station_id":"","pricing_plan_id":"cebpf4jnsgd1na2vs0mg"},{"bike_id":"ffc5a2ad-67f7-4df7-aef4-b0be85493715","system_id":"levelo_inurba_marseille","lat":43.32013,"lon":5.38143,"is_reserved":false,"is_disabled":false,"rental_uris":{"android":"levelo://app?vid=ffc5a2ad-67f7-4df7-aef4-b0be85493715","ios":"levelo://app?vid=ffc5a2ad-67f7-4df7-aef4-b0be85493715"},"vehicle_type_id":"4","last_reported":1724098131,"current_range_meters":4000,"station_id":"ce4bhr12rcd13ifvqhpg","pricing_plan_id":"cebpf4jnsgd1na2vs0mg"},{"bike_id":"874e50ba-aa3e-48b7-b610-3263f4ab3eaa","system_id":"levelo_inurba_marseille","lat":43.30589,"lon":5.38197,"is_reserved":false,"is_disabled":false,"rental_uris":{"android":"levelo://app?vid=874e50ba-aa3e-48b7-b610-3263f4ab3eaa","ios":"levelo://app?vid=874e50ba-aa3e-48b7-b610-3263f4ab3eaa"},"vehicle_type_id":"4","last_reported":1724098131,"current_range_meters":20800,"station_id":"","pricing_plan_id":"cebpf4jnsgd1na2vs0mg"},{"bike_id":"938d5e3a-f6e2-408f-a0d6-1a92be98a497","system_id":"levelo_inurba_marseille","lat":43.29988,"lon":5.37187,"is_reserved":false,"is_disabled":false,"rental_uris":{"android":"levelo://app?vid=938d5e3a-f6e2-408f-a0d6-1a92be98a497","ios":"levelo://app?vid=938d5e3a-f6e2-408f-a0d6-1a92be98a497"},"vehicle_type_id":"4","last_reported":1724098131,"current_range_meters":0,"station_id":"ce4bgr92rcd13ifvqc7g","pricing_plan_id":"cebpf4jnsgd1na2vs0mg"},{"bike_id":"1873784e-4058-4c05-a6c2-e55f479c7323","system_id":"levelo_inurba_marseille","lat":43.29984,"lon":5.37183,"is_reserved":false,"is_disabled":false,"rental_uris":{"android":"levelo://app?vid=1873784e-4058-4c05-a6c2-e55f479c7323","ios":"levelo://app?vid=1873784e-4058-4c05-a6c2-e55f479c7323"},"vehicle_type_id":"4","last_reported":1724098131,"current_range_meters":31200,"station_id":"ce4bgr92rcd13ifvqc7g","pricing_plan_id":"cebpf4jnsgd1na2vs0mg"},{"bike_id":"dbce53ef-c1be-453d-bc06-40f547be91c5","system_id":"levelo_inurba_marseille","lat":43.29969,"lon":5.37182,"is_reserved":false,"is_disabled":false,"rental_uris":{"android":"levelo://app?vid=dbce53ef-c1be-453d-bc06-40f547be91c5","ios":"levelo://app?vid=dbce53ef-c1be-453d-bc06-40f547be91c5"},"vehicle_type_id":"4","last_reported":1724098131,"current_range_meters":0,"station_id":"ce4bgr92rcd13ifvqc7g","pricing_plan_id":"cebpf4jnsgd1na2vs0mg"},{"bike_id":"67a6dc40-4051-4e99-9977-83e8ad10995f","system_id":"levelo_inurba_marseille","lat":43.32573,"lon":5.37583,"is_reserved":false,"is_disabled":false,"rental_uris":{"android":"levelo://app?vid=67a6dc40-4051-4e99-9977-83e8ad10995f","ios":"levelo://app?vid=67a6dc40-4051-4e99-9977-83e8ad10995f"},"vehicle_type_id":"4","last_reported":1724098131,"current_range_meters":22000,"station_id":"","pricing_plan_id":"cebpf4jnsgd1na2vs0mg"},{"bike_id":"9dc64b16-7a8d-4d1b-bbdc-5f9e567f7256","system_id":"levelo_inurba_marseille","lat":43.305364,"lon":5.384119,"is_reserved":false,"is_disabled":false,"rental_uris":{"android":"levelo://app?vid=9dc64b16-7a8d-4d1b-bbdc-5f9e567f7256","ios":"levelo://app?vid=9dc64b16-7a8d-4d1b-bbdc-5f9e567f7256"},"vehicle_type_id":"4","last_reported":1724098131,"current_range_meters":14000,"station_id":"ce4bgg92rcd13ifvqb30","pricing_plan_id":"cebpf4jnsgd1na2vs0mg"},{"bike_id":"a83008f3-0e89-4ff9-82eb-11d64d0222a1","system_id":"levelo_inurba_marseille","lat":43.305364,"lon":5.384119,"is_reserved":false,"is_disabled":false,"rental_uris":{"android":"levelo://app?vid=a83008f3-0e89-4ff9-82eb-11d64d0222a1","ios":"levelo://app?vid=a83008f3-0e89-4ff9-82eb-11d64d0222a1"},"vehicle_type_id":"4","last_reported":1724098131,"current_range_meters":14800,"station_id":"ce4bgg92rcd13ifvqb30","pricing_plan_id":"cebpf4jnsgd1na2vs0mg"},{"bike_id":"3c3000f8-551b-4a29-a7b0-63b005ab6fae","system_id":"levelo_inurba_marseille","lat":43.305364,"lon":5.384119,"is_reserved":false,"is_disabled":false,"rental_uris":{"android":"levelo://app?vid=3c3000f8-551b-4a29-a7b0-63b005ab6fae","ios":"levelo://app?vid=3c3000f8-551b-4a29-a7b0-63b005ab6fae"},"vehicle_type_id":"4","last_reported":1724098131,"current_range_meters":400,"station_id":"ce4bgg92rcd13ifvqb30","pricing_plan_id":"cebpf4jnsgd1na2vs0mg"},{"bike_id":"5720afd6-6677-447d-be6a-921a8d44c7e5","system_id":"levelo_inurba_marseille","lat":43.298231,"lon":5.363578,"is_reserved":false,"is_disabled":false,"rental_uris":{"android":"levelo://app?vid=5720afd6-6677-447d-be6a-921a8d44c7e5","ios":"levelo://app?vid=5720afd6-6677-447d-be6a-921a8d44c7e5"},"vehicle_type_id":"4","last_reported":1724098131,"current_range_meters":30000,"station_id":"","pricing_plan_id":"cebpf4jnsgd1na2vs0mg"},{"bike_id":"3eb69f06-eede-48fc-87b9-528fb36b01b8","system_id":"levelo_inurba_marseille","lat":43.299243,"lon":5.374807,"is_reserved":false,"is_disabled":false,"rental_uris":{"android":"levelo://app?vid=3eb69f06-eede-48fc-87b9-528fb36b01b8","ios":"levelo://app?vid=3eb69f06-eede-48fc-87b9-528fb36b01b8"},"vehicle_type_id":"4","last_reported":1724098131,"current_range_meters":0,"station_id":"ce4bgjh2rcd13ifvqbg0","pricing_plan_id":"cebpf4jnsgd1na2vs0mg"},{"bike_id":"87998d84-5caa-4097-9b98-4cc753e7498c","system_id":"levelo_inurba_marseille","lat":43.311722,"lon":5.387247,"is_reserved":false,"is_disabled":false,"rental_uris":{"android":"levelo://app?vid=87998d84-5caa-4097-9b98-4cc753e7498c","ios":"levelo://app?vid=87998d84-5caa-4097-9b98-4cc753e7498c"},"vehicle_type_id":"4","last_reported":1724098131,"current_range_meters":1200,"station_id":"ce4bgv12rcd13ifvqcp0","pricing_plan_id":"cebpf4jnsgd1na2vs0mg"},{"bike_id":"e49d9c8b-ce5b-4098-a4ad-81eeeaaf6642","system_id":"levelo_inurba_marseille","lat":43.311722,"lon":5.387247,"is_reserved":false,"is_disabled":false,"rental_uris":{"android":"levelo://app?vid=e49d9c8b-ce5b-4098-a4ad-81eeeaaf6642","ios":"levelo://app?vid=e49d9c8b-ce5b-4098-a4ad-81eeeaaf6642"},"vehicle_type_id":"4","last_reported":1724098131,"current_range_meters":26800,"station_id":"ce4bgv12rcd13ifvqcp0","pricing_plan_id":"cebpf4jnsgd1na2vs0mg"},{"bike_id":"b51a123a-b37c-4e82-a21e-940aaae1a537","system_id":"levelo_inurba_marseille","lat":43.311722,"lon":5.387247,"is_reserved":false,"is_disabled":false,"rental_uris":{"android":"levelo://app?vid=b51a123a-b37c-4e82-a21e-940aaae1a537","ios":"levelo://app?vid=b51a123a-b37c-4e82-a21e-940aaae1a537"},"vehicle_type_id":"4","last_reported":1724098131,"current_range_meters":29200,"station_id":"ce4bgv12rcd13ifvqcp0","pricing_plan_id":"cebpf4jnsgd1na2vs0mg"},{"bike_id":"a1c798e7-e6ff-4eb3-8363-a999702ac6ea","system_id":"levelo_inurba_marseille","lat":43.311722,"lon":5.387247,"is_reserved":false,"is_disabled":false,"rental_uris":{"android":"levelo://app?vid=a1c798e7-e6ff-4eb3-8363-a999702ac6ea","ios":"levelo://app?vid=a1c798e7-e6ff-4eb3-8363-a999702ac6ea"},"vehicle_type_id":"4","last_reported":1724098131,"current_range_meters":6400,"station_id":"ce4bgv12rcd13ifvqcp0","pricing_plan_id":"cebpf4jnsgd1na2vs0mg"},{"bike_id":"8b605eab-4286-458a-9b9b-d19246621825","system_id":"levelo_inurba_marseille","lat":43.311722,"lon":5.387247,"is_reserved":false,"is_disabled":false,"rental_uris":{"android":"levelo://app?vid=8b605eab-4286-458a-9b9b-d19246621825","ios":"levelo://app?vid=8b605eab-4286-458a-9b9b-d19246621825"},"vehicle_type_id":"4","last_reported":1724098131,"current_range_meters":27200,"station_id":"ce4bgv12rcd13ifvqcp0","pricing_plan_id":"cebpf4jnsgd1na2vs0mg"},{"bike_id":"6f48b20c-5d98-4386-b472-d3a6e3687386","system_id":"levelo_inurba_marseille","lat":43.297794,"lon":5.370888,"is_reserved":false,"is_disabled":false,"rental_uris":{"android":"levelo://app?vid=6f48b20c-5d98-4386-b472-d3a6e3687386","ios":"levelo://app?vid=6f48b20c-5d98-4386-b472-d3a6e3687386"},"vehicle_type_id":"4","last_reported":1724098131,"current_range_meters":6000,"station_id":"ce4bgop2rcd13ifvqc1g","pricing_plan_id":"cebpf4jnsgd1na2vs0mg"},{"bike_id":"d23493e0-f90a-4c04-b87d-d4271852e825","system_id":"levelo_inurba_marseille","lat":43.29777,"lon":5.37105,"is_reserved":false,"is_disabled":false,"rental_uris":{"android":"levelo://app?vid=d23493e0-f90a-4c04-b87d-d4271852e825","ios":"levelo://app?vid=d23493e0-f90a-4c04-b87d-d4271852e825"},"vehicle_type_id":"4","last_reported":1724098131,"current_range_meters":4800,"station_id":"ce4bgop2rcd13ifvqc1g","pricing_plan_id":"cebpf4jnsgd1na2vs0mg"},{"bike_id":"aafd6ceb-cec1-4dbb-875f-556fe8527807","system_id":"levelo_inurba_marseille","lat":43.297774,"lon":5.370875,"is_reserved":false,"is_disabled":false,"rental_uris":{"android":"levelo://app?vid=aafd6ceb-cec1-4dbb-875f-556fe8527807","ios":"levelo://app?vid=aafd6ceb-cec1-4dbb-875f-556fe8527807"},"vehicle_type_id":"4","last_reported":1724098131,"current_range_meters":31200,"station_id":"ce4bgop2rcd13ifvqc1g","pricing_plan_id":"cebpf4jnsgd1na2vs0mg"},{"bike_id":"f5756eed-ea1c-4ab7-b4f2-8ac9473fed35","system_id":"levelo_inurba_marseille","lat":43.322875,"lon":5.38263,"is_reserved":false,"is_disabled":false,"rental_uris":{"android":"levelo://app?vid=f5756eed-ea1c-4ab7-b4f2-8ac9473fed35","ios":"levelo://app?vid=f5756eed-ea1c-4ab7-b4f2-8ac9473fed35"},"vehicle_type_id":"4","last_reported":1724098131,"current_range_meters":26000,"station_id":"ce4bhr12rcd13ifvqhqg","pricing_plan_id":"cebpf4jnsgd1na2vs0mg"},{"bike_id":"c5745b8d-9c63-4f15-9c91-480547a2f3b6","system_id":"levelo_inurba_marseille","lat":43.2982,"lon":5.37341,"is_reserved":false,"is_disabled":false,"rental_uris":{"android":"levelo://app?vid=c5745b8d-9c63-4f15-9c91-480547a2f3b6","ios":"levelo://app?vid=c5745b8d-9c63-4f15-9c91-480547a2f3b6"},"vehicle_type_id":"4","last_reported":1724098131,"current_range_meters":30400,"station_id":"","pricing_plan_id":"cebpf4jnsgd1na2vs0mg"},{"bike_id":"1fc4dd69-1886-4614-92a2-29998f516e2d","system_id":"levelo_inurba_marseille","lat":43.297163,"lon":5.365866,"is_reserved":false,"is_disabled":false,"rental_uris":{"android":"levelo://app?vid=1fc4dd69-1886-4614-92a2-29998f516e2d","ios":"levelo://app?vid=1fc4dd69-1886-4614-92a2-29998f516e2d"},"vehicle_type_id":"4","last_reported":1724098131,"current_range_meters":21600,"station_id":"ce4bgn12rcd13ifvqbt0","pricing_plan_id":"cebpf4jnsgd1na2vs0mg"},{"bike_id":"fc6ad749-8503-4018-b3cf-0f42ea372cc9","system_id":"levelo_inurba_marseille","lat":43.32879,"lon":5.362,"is_reserved":false,"is_disabled":false,"rental_uris":{"android":"levelo://app?vid=fc6ad749-8503-4018-b3cf-0f42ea372cc9","ios":"levelo://app?vid=fc6ad749-8503-4018-b3cf-0f42ea372cc9"},"vehicle_type_id":"4","last_reported":1724098131,"current_range_meters":24400,"station_id":"","pricing_plan_id":"cebpf4jnsgd1na2vs0mg"},{"bike_id":"36bb1de6-23f8-493f-9473-cfb6f30084ad","system_id":"levelo_inurba_marseille","lat":43.29619,"lon":5.37056,"is_reserved":false,"is_disabled":false,"rental_uris":{"android":"levelo://app?vid=36bb1de6-23f8-493f-9473-cfb6f30084ad","ios":"levelo://app?vid=36bb1de6-23f8-493f-9473-cfb6f30084ad"},"vehicle_type_id":"4","last_reported":1724098131,"current_range_meters":27200,"station_id":"","pricing_plan_id":"cebpf4jnsgd1na2vs0mg"},{"bike_id":"fc3367f3-d4bd-431d-b4ad-04a19fcb1ae2","system_id":"levelo_inurba_marseille","lat":43.29625,"lon":5.37149,"is_reserved":false,"is_disabled":false,"rental_uris":{"android":"levelo://app?vid=fc3367f3-d4bd-431d-b4ad-04a19fcb1ae2","ios":"levelo://app?vid=fc3367f3-d4bd-431d-b4ad-04a19fcb1ae2"},"vehicle_type_id":"4","last_reported":1724098131,"current_range_meters":0,"station_id":"ce4bgnh2rcd13ifvqc0g","pricing_plan_id":"cebpf4jnsgd1na2vs0mg"},{"bike_id":"2474b4c2-1873-4480-9460-39ad506fe128","system_id":"levelo_inurba_marseille","lat":43.29623,"lon":5.37154,"is_reserved":false,"is_disabled":false,"rental_uris":{"android":"levelo://app?vid=2474b4c2-1873-4480-9460-39ad506fe128","ios":"levelo://app?vid=2474b4c2-1873-4480-9460-39ad506fe128"},"vehicle_type_id":"4","last_reported":1724098131,"current_range_meters":0,"station_id":"ce4bgnh2rcd13ifvqc0g","pricing_plan_id":"cebpf4jnsgd1na2vs0mg"},{"bike_id":"f27dd21e-e5fb-4a91-bd9e-3e896fa9a14b","system_id":"levelo_inurba_marseille","lat":43.29621,"lon":5.37153,"is_reserved":false,"is_disabled":false,"rental_uris":{"android":"levelo://app?vid=f27dd21e-e5fb-4a91-bd9e-3e896fa9a14b","ios":"levelo://app?vid=f27dd21e-e5fb-4a91-bd9e-3e896fa9a14b"},"vehicle_type_id":"4","last_reported":1724098131,"current_range_meters":0,"station_id":"ce4bgnh2rcd13ifvqc0g","pricing_plan_id":"cebpf4jnsgd1na2vs0mg"},{"bike_id":"2190dcb2-4fa4-4659-9771-5cab92b922f6","system_id":"levelo_inurba_marseille","lat":43.296131,"lon":5.370773,"is_reserved":false,"is_disabled":false,"rental_uris":{"android":"levelo://app?vid=2190dcb2-4fa4-4659-9771-5cab92b922f6","ios":"levelo://app?vid=2190dcb2-4fa4-4659-9771-5cab92b922f6"},"vehicle_type_id":"4","last_reported":1724098131,"current_range_meters":0,"station_id":"ce4bgnh2rcd13ifvqc0g","pricing_plan_id":"cebpf4jnsgd1na2vs0mg"},{"bike_id":"27473da8-ef69-4d47-b44f-dd8c116f293d","system_id":"levelo_inurba_marseille","lat":43.29573,"lon":5.367355,"is_reserved":false,"is_disabled":false,"rental_uris":{"android":"levelo://app?vid=27473da8-ef69-4d47-b44f-dd8c116f293d","ios":"levelo://app?vid=27473da8-ef69-4d47-b44f-dd8c116f293d"},"vehicle_type_id":"4","last_reported":1724098131,"current_range_meters":22800,"station_id":"ce4bgph2rcd13ifvqc2g","pricing_plan_id":"cebpf4jnsgd1na2vs0mg"},{"bike_id":"9d6de6d5-aefb-4d00-bace-51373983b6f7","system_id":"levelo_inurba_marseille","lat":43.299028,"lon":5.381509,"is_reserved":false,"is_disabled":false,"rental_uris":{"android":"levelo://app?vid=9d6de6d5-aefb-4d00-bace-51373983b6f7","ios":"levelo://app?vid=9d6de6d5-aefb-4d00-bace-51373983b6f7"},"vehicle_type_id":"4","last_reported":1724098131,"current_range_meters":19200,"station_id":"ce4bgj12rcd13ifvqbc0","pricing_plan_id":"cebpf4jnsgd1na2vs0mg"},{"bike_id":"73396901-28cd-4d23-80dd-cfe2801e4b27","system_id":"levelo_inurba_marseille","lat":43.296921,"lon":5.376579,"is_reserved":false,"is_disabled":false,"rental_uris":{"android":"levelo://app?vid=73396901-28cd-4d23-80dd-cfe2801e4b27","ios":"levelo://app?vid=73396901-28cd-4d23-80dd-cfe2801e4b27"},"vehicle_type_id":"4","last_reported":1724098131,"current_range_meters":5200,"station_id":"ce4bgkh2rcd13ifvqbl0","pricing_plan_id":"cebpf4jnsgd1na2vs0mg"},{"bike_id":"2b5f7993-adf4-477d-abed-56ef61abdea9","system_id":"levelo_inurba_marseille","lat":43.309589,"lon":5.390258,"is_reserved":false,"is_disabled":false,"rental_uris":{"android":"levelo://app?vid=2b5f7993-adf4-477d-abed-56ef61abdea9","ios":"levelo://app?vid=2b5f7993-adf4-477d-abed-56ef61abdea9"},"vehicle_type_id":"4","last_reported":1724098131,"current_range_meters":6000,"station_id":"ce4bgup2rcd13ifvqco0","pricing_plan_id":"cebpf4jnsgd1na2vs0mg"},{"bike_id":"2da9de28-1d00-419a-b562-b966fb9795e7","system_id":"levelo_inurba_marseille","lat":43.309589,"lon":5.390258,"is_reserved":false,"is_disabled":false,"rental_uris":{"android":"levelo://app?vid=2da9de28-1d00-419a-b562-b966fb9795e7","ios":"levelo://app?vid=2da9de28-1d00-419a-b562-b966fb9795e7"},"vehicle_type_id":"4","last_reported":1724098131,"current_range_meters":8800,"station_id":"ce4bgup2rcd13ifvqco0","pricing_plan_id":"cebpf4jnsgd1na2vs0mg"},{"bike_id":"e15f302f-2b86-419a-b88a-d8b4370dff3e","system_id":"levelo_inurba_marseille","lat":43.317557,"lon":5.390173,"is_reserved":false,"is_disabled":false,"rental_uris":{"android":"levelo://app?vid=e15f302f-2b86-419a-b88a-d8b4370dff3e","ios":"levelo://app?vid=e15f302f-2b86-419a-b88a-d8b4370dff3e"},"vehicle_type_id":"4","last_reported":1724098131,"current_range_meters":28800,"station_id":"ce4bhqp2rcd13ifvqhng","pricing_plan_id":"cebpf4jnsgd1na2vs0mg"},{"bike_id":"054a2d1f-4eb9-4328-b2b7-6a5d65790a41","system_id":"levelo_inurba_marseille","lat":43.317557,"lon":5.390173,"is_reserved":false,"is_disabled":false,"rental_uris":{"android":"levelo://app?vid=054a2d1f-4eb9-4328-b2b7-6a5d65790a41","ios":"levelo://app?vid=054a2d1f-4eb9-4328-b2b7-6a5d65790a41"},"vehicle_type_id":"4","last_reported":1724098131,"current_range_meters":27200,"station_id":"ce4bhqp2rcd13ifvqhng","pricing_plan_id":"cebpf4jnsgd1na2vs0mg"},{"bike_id":"63e73fa5-bb89-40d2-add8-3efcf881ca01","system_id":"levelo_inurba_marseille","lat":43.317557,"lon":5.390173,"is_reserved":false,"is_disabled":false,"rental_uris":{"android":"levelo://app?vid=63e73fa5-bb89-40d2-add8-3efcf881ca01","ios":"levelo://app?vid=63e73fa5-bb89-40d2-add8-3efcf881ca01"},"vehicle_type_id":"4","last_reported":1724098131,"current_range_meters":16800,"station_id":"ce4bhqp2rcd13ifvqhng","pricing_plan_id":"cebpf4jnsgd1na2vs0mg"},{"bike_id":"b1fea780-8461-4d5f-aa68-1abd02dc3e38","system_id":"levelo_inurba_marseille","lat":43.317557,"lon":5.390173,"is_reserved":false,"is_disabled":false,"rental_uris":{"android":"levelo://app?vid=b1fea780-8461-4d5f-aa68-1abd02dc3e38","ios":"levelo://app?vid=b1fea780-8461-4d5f-aa68-1abd02dc3e38"},"vehicle_type_id":"4","last_reported":1724098131,"current_range_meters":13200,"station_id":"ce4bhqp2rcd13ifvqhng","pricing_plan_id":"cebpf4jnsgd1na2vs0mg"},{"bike_id":"caa7c516-54b1-40b5-8259-31ced6958254","system_id":"levelo_inurba_marseille","lat":43.31755,"lon":5.39022,"is_reserved":false,"is_disabled":false,"rental_uris":{"android":"levelo://app?vid=caa7c516-54b1-40b5-8259-31ced6958254","ios":"levelo://app?vid=caa7c516-54b1-40b5-8259-31ced6958254"},"vehicle_type_id":"4","last_reported":1724098131,"current_range_meters":19200,"station_id":"ce4bhqp2rcd13ifvqhng","pricing_plan_id":"cebpf4jnsgd1na2vs0mg"},{"bike_id":"2bc142f9-04b2-4a45-b4e5-58b977e8a379","system_id":"levelo_inurba_marseille","lat":43.317557,"lon":5.390173,"is_reserved":false,"is_disabled":false,"rental_uris":{"android":"levelo://app?vid=2bc142f9-04b2-4a45-b4e5-58b977e8a379","ios":"levelo://app?vid=2bc142f9-04b2-4a45-b4e5-58b977e8a379"},"vehicle_type_id":"4","last_reported":1724098131,"current_range_meters":14400,"station_id":"ce4bhqp2rcd13ifvqhng","pricing_plan_id":"cebpf4jnsgd1na2vs0mg"},{"bike_id":"ff3f19e5-ae13-4523-900a-8f01fc77966d","system_id":"levelo_inurba_marseille","lat":43.317557,"lon":5.390173,"is_reserved":false,"is_disabled":false,"rental_uris":{"android":"levelo://app?vid=ff3f19e5-ae13-4523-900a-8f01fc77966d","ios":"levelo://app?vid=ff3f19e5-ae13-4523-900a-8f01fc77966d"},"vehicle_type_id":"4","last_reported":1724098131,"current_range_meters":29600,"station_id":"ce4bhqp2rcd13ifvqhng","pricing_plan_id":"cebpf4jnsgd1na2vs0mg"},{"bike_id":"34967040-92fc-4cfe-bd52-0edd61dae3ff","system_id":"levelo_inurba_marseille","lat":43.295748,"lon":5.37522,"is_reserved":false,"is_disabled":false,"rental_uris":{"android":"levelo://app?vid=34967040-92fc-4cfe-bd52-0edd61dae3ff","ios":"levelo://app?vid=34967040-92fc-4cfe-bd52-0edd61dae3ff"},"vehicle_type_id":"4","last_reported":1724098131,"current_range_meters":31600,"station_id":"ce4bgh92rcd13ifvqb50","pricing_plan_id":"cebpf4jnsgd1na2vs0mg"},{"bike_id":"50f9d4d3-8196-4279-b1a3-1c662ca832f1","system_id":"levelo_inurba_marseille","lat":43.29575,"lon":5.37515,"is_reserved":false,"is_disabled":false,"rental_uris":{"android":"levelo://app?vid=50f9d4d3-8196-4279-b1a3-1c662ca832f1","ios":"levelo://app?vid=50f9d4d3-8196-4279-b1a3-1c662ca832f1"},"vehicle_type_id":"4","last_reported":1724098131,"current_range_meters":22800,"station_id":"ce4bgh92rcd13ifvqb50","pricing_plan_id":"cebpf4jnsgd1na2vs0mg"},{"bike_id":"fb288041-9dc2-4c18-a29e-797461c10bbb","system_id":"levelo_inurba_marseille","lat":43.29793,"lon":5.38102,"is_reserved":false,"is_disabled":false,"rental_uris":{"android":"levelo://app?vid=fb288041-9dc2-4c18-a29e-797461c10bbb","ios":"levelo://app?vid=fb288041-9dc2-4c18-a29e-797461c10bbb"},"vehicle_type_id":"4","last_reported":1724098131,"current_range_meters":2800,"station_id":"ce4bgip2rcd13ifvqbb0","pricing_plan_id":"cebpf4jnsgd1na2vs0mg"},{"bike_id":"7953ba3a-5ab1-4ad6-854e-89c223a8bd6e","system_id":"levelo_inurba_marseille","lat":43.304274,"lon":5.388873,"is_reserved":false,"is_disabled":false,"rental_uris":{"android":"levelo://app?vid=7953ba3a-5ab1-4ad6-854e-89c223a8bd6e","ios":"levelo://app?vid=7953ba3a-5ab1-4ad6-854e-89c223a8bd6e"},"vehicle_type_id":"4","last_reported":1724098131,"current_range_meters":8400,"station_id":"ce4bgk12rcd13ifvqbi0","pricing_plan_id":"cebpf4jnsgd1na2vs0mg"},{"bike_id":"ead19b64-b98a-499c-a206-d54e36edf9fb","system_id":"levelo_inurba_marseille","lat":43.298037,"lon":5.381066,"is_reserved":false,"is_disabled":false,"rental_uris":{"android":"levelo://app?vid=ead19b64-b98a-499c-a206-d54e36edf9fb","ios":"levelo://app?vid=ead19b64-b98a-499c-a206-d54e36edf9fb"},"vehicle_type_id":"4","last_reported":1724098131,"current_range_meters":10800,"station_id":"ce4bgip2rcd13ifvqbb0","pricing_plan_id":"cebpf4jnsgd1na2vs0mg"},{"bike_id":"6ae84b64-352d-4863-9005-d54140111f08","system_id":"levelo_inurba_marseille","lat":43.295748,"lon":5.37522,"is_reserved":false,"is_disabled":false,"rental_uris":{"android":"levelo://app?vid=6ae84b64-352d-4863-9005-d54140111f08","ios":"levelo://app?vid=6ae84b64-352d-4863-9005-d54140111f08"},"vehicle_type_id":"4","last_reported":1724098131,"current_range_meters":30400,"station_id":"ce4bgh92rcd13ifvqb50","pricing_plan_id":"cebpf4jnsgd1na2vs0mg"},{"bike_id":"5740d68b-adb1-4fa9-86ab-3420de4fa15a","system_id":"levelo_inurba_marseille","lat":43.295748,"lon":5.37522,"is_reserved":false,"is_disabled":false,"rental_uris":{"android":"levelo://app?vid=5740d68b-adb1-4fa9-86ab-3420de4fa15a","ios":"levelo://app?vid=5740d68b-adb1-4fa9-86ab-3420de4fa15a"},"vehicle_type_id":"4","last_reported":1724098131,"current_range_meters":3200,"station_id":"ce4bgh92rcd13ifvqb50","pricing_plan_id":"cebpf4jnsgd1na2vs0mg"},{"bike_id":"116efba7-c7d2-471f-9846-ad2356251ca5","system_id":"levelo_inurba_marseille","lat":43.304274,"lon":5.388873,"is_reserved":false,"is_disabled":false,"rental_uris":{"android":"levelo://app?vid=116efba7-c7d2-471f-9846-ad2356251ca5","ios":"levelo://app?vid=116efba7-c7d2-471f-9846-ad2356251ca5"},"vehicle_type_id":"4","last_reported":1724098131,"current_range_meters":1600,"station_id":"ce4bgk12rcd13ifvqbi0","pricing_plan_id":"cebpf4jnsgd1na2vs0mg"},{"bike_id":"1b907903-d670-4707-962a-9870b12cc144","system_id":"levelo_inurba_marseille","lat":43.304274,"lon":5.388873,"is_reserved":false,"is_disabled":false,"rental_uris":{"android":"levelo://app?vid=1b907903-d670-4707-962a-9870b12cc144","ios":"levelo://app?vid=1b907903-d670-4707-962a-9870b12cc144"},"vehicle_type_id":"4","last_reported":1724098131,"current_range_meters":8800,"station_id":"ce4bgk12rcd13ifvqbi0","pricing_plan_id":"cebpf4jnsgd1na2vs0mg"},{"bike_id":"766d165d-0f85-4410-9e9f-9b2f2d7ff5ba","system_id":"levelo_inurba_marseille","lat":43.296277,"lon":5.377108,"is_reserved":false,"is_disabled":false,"rental_uris":{"android":"levelo://app?vid=766d165d-0f85-4410-9e9f-9b2f2d7ff5ba","ios":"levelo://app?vid=766d165d-0f85-4410-9e9f-9b2f2d7ff5ba"},"vehicle_type_id":"4","last_reported":1724098131,"current_range_meters":31200,"station_id":"ce4bgi92rcd13ifvqb90","pricing_plan_id":"cebpf4jnsgd1na2vs0mg"},{"bike_id":"7918a9f2-34ba-4c92-8492-ae37a89c844f","system_id":"levelo_inurba_marseille","lat":43.304199,"lon":5.389012,"is_reserved":false,"is_disabled":false,"rental_uris":{"android":"levelo://app?vid=7918a9f2-34ba-4c92-8492-ae37a89c844f","ios":"levelo://app?vid=7918a9f2-34ba-4c92-8492-ae37a89c844f"},"vehicle_type_id":"4","last_reported":1724098131,"current_range_meters":2000,"station_id":"","pricing_plan_id":"cebpf4jnsgd1na2vs0mg"},{"bike_id":"b3b93dbd-f8a1-4da1-bb8e-5c8c29b57cef","system_id":"levelo_inurba_marseille","lat":43.29617,"lon":5.37731,"is_reserved":false,"is_disabled":false,"rental_uris":{"android":"levelo://app?vid=b3b93dbd-f8a1-4da1-bb8e-5c8c29b57cef","ios":"levelo://app?vid=b3b93dbd-f8a1-4da1-bb8e-5c8c29b57cef"},"vehicle_type_id":"4","last_reported":1724098131,"current_range_meters":22000,"station_id":"ce4bgi92rcd13ifvqb90","pricing_plan_id":"cebpf4jnsgd1na2vs0mg"},{"bike_id":"1c6035fa-a087-4012-b832-a78f777b8762","system_id":"levelo_inurba_marseille","lat":43.299707,"lon":5.384859,"is_reserved":false,"is_disabled":false,"rental_uris":{"android":"levelo://app?vid=1c6035fa-a087-4012-b832-a78f777b8762","ios":"levelo://app?vid=1c6035fa-a087-4012-b832-a78f777b8762"},"vehicle_type_id":"4","last_reported":1724098131,"current_range_meters":22000,"station_id":"ce4bgj92rcd13ifvqbd0","pricing_plan_id":"cebpf4jnsgd1na2vs0mg"},{"bike_id":"1391de1b-7eb1-42cb-8a96-8d671be36f19","system_id":"levelo_inurba_marseille","lat":43.296263,"lon":5.377094,"is_reserved":false,"is_disabled":false,"rental_uris":{"android":"levelo://app?vid=1391de1b-7eb1-42cb-8a96-8d671be36f19","ios":"levelo://app?vid=1391de1b-7eb1-42cb-8a96-8d671be36f19"},"vehicle_type_id":"4","last_reported":1724098131,"current_range_meters":31600,"station_id":"ce4bgi92rcd13ifvqb90","pricing_plan_id":"cebpf4jnsgd1na2vs0mg"},{"bike_id":"2d0624a6-5100-427c-92c5-1b9719409d5f","system_id":"levelo_inurba_marseille","lat":43.29606,"lon":5.37722,"is_reserved":false,"is_disabled":false,"rental_uris":{"android":"levelo://app?vid=2d0624a6-5100-427c-92c5-1b9719409d5f","ios":"levelo://app?vid=2d0624a6-5100-427c-92c5-1b9719409d5f"},"vehicle_type_id":"4","last_reported":1724098131,"current_range_meters":14800,"station_id":"ce4bgi92rcd13ifvqb90","pricing_plan_id":"cebpf4jnsgd1na2vs0mg"},{"bike_id":"86873a56-6fec-4cef-a43d-f21e64405279","system_id":"levelo_inurba_marseille","lat":43.29534,"lon":5.37503,"is_reserved":false,"is_disabled":false,"rental_uris":{"android":"levelo://app?vid=86873a56-6fec-4cef-a43d-f21e64405279","ios":"levelo://app?vid=86873a56-6fec-4cef-a43d-f21e64405279"},"vehicle_type_id":"4","last_reported":1724098131,"current_range_meters":0,"station_id":"ce4bgkp2rcd13ifvqbmg","pricing_plan_id":"cebpf4jnsgd1na2vs0mg"},{"bike_id":"f67c910f-e18f-466a-8d5f-71a0ccb6f9b7","system_id":"levelo_inurba_marseille","lat":43.299707,"lon":5.384859,"is_reserved":false,"is_disabled":false,"rental_uris":{"android":"levelo://app?vid=f67c910f-e18f-466a-8d5f-71a0ccb6f9b7","ios":"levelo://app?vid=f67c910f-e18f-466a-8d5f-71a0ccb6f9b7"},"vehicle_type_id":"4","last_reported":1724098131,"current_range_meters":13200,"station_id":"ce4bgj92rcd13ifvqbd0","pricing_plan_id":"cebpf4jnsgd1na2vs0mg"},{"bike_id":"b6724bcf-f923-4168-80e2-86dbd466fb3c","system_id":"levelo_inurba_marseille","lat":43.299707,"lon":5.384859,"is_reserved":false,"is_disabled":false,"rental_uris":{"android":"levelo://app?vid=b6724bcf-f923-4168-80e2-86dbd466fb3c","ios":"levelo://app?vid=b6724bcf-f923-4168-80e2-86dbd466fb3c"},"vehicle_type_id":"4","last_reported":1724098131,"current_range_meters":25600,"station_id":"ce4bgj92rcd13ifvqbd0","pricing_plan_id":"cebpf4jnsgd1na2vs0mg"},{"bike_id":"e2910530-fa4e-446a-89a1-6b5a942549f6","system_id":"levelo_inurba_marseille","lat":43.29524,"lon":5.37502,"is_reserved":false,"is_disabled":false,"rental_uris":{"android":"levelo://app?vid=e2910530-fa4e-446a-89a1-6b5a942549f6","ios":"levelo://app?vid=e2910530-fa4e-446a-89a1-6b5a942549f6"},"vehicle_type_id":"4","last_reported":1724098131,"current_range_meters":5600,"station_id":"ce4bgkp2rcd13ifvqbmg","pricing_plan_id":"cebpf4jnsgd1na2vs0mg"},{"bike_id":"1c97dd1c-7444-407a-ba2f-c9cb0da84115","system_id":"levelo_inurba_marseille","lat":43.29969,"lon":5.38492,"is_reserved":false,"is_disabled":false,"rental_uris":{"android":"levelo://app?vid=1c97dd1c-7444-407a-ba2f-c9cb0da84115","ios":"levelo://app?vid=1c97dd1c-7444-407a-ba2f-c9cb0da84115"},"vehicle_type_id":"4","last_reported":1724098131,"current_range_meters":12800,"station_id":"ce4bgj92rcd13ifvqbd0","pricing_plan_id":"cebpf4jnsgd1na2vs0mg"},{"bike_id":"8555b465-56e4-48dd-910d-57b52d0b5a53","system_id":"levelo_inurba_marseille","lat":43.299707,"lon":5.384859,"is_reserved":false,"is_disabled":false,"rental_uris":{"android":"levelo://app?vid=8555b465-56e4-48dd-910d-57b52d0b5a53","ios":"levelo://app?vid=8555b465-56e4-48dd-910d-57b52d0b5a53"},"vehicle_type_id":"4","last_reported":1724098131,"current_range_meters":800,"station_id":"ce4bgj92rcd13ifvqbd0","pricing_plan_id":"cebpf4jnsgd1na2vs0mg"},{"bike_id":"6058e855-46c1-4591-bfce-0eede8068bba","system_id":"levelo_inurba_marseille","lat":43.29971,"lon":5.38496,"is_reserved":false,"is_disabled":false,"rental_uris":{"android":"levelo://app?vid=6058e855-46c1-4591-bfce-0eede8068bba","ios":"levelo://app?vid=6058e855-46c1-4591-bfce-0eede8068bba"},"vehicle_type_id":"4","last_reported":1724098131,"current_range_meters":2800,"station_id":"ce4bgj92rcd13ifvqbd0","pricing_plan_id":"cebpf4jnsgd1na2vs0mg"},{"bike_id":"6104f634-6fc4-4b77-9ff6-0f592989c0da","system_id":"levelo_inurba_marseille","lat":43.2997,"lon":5.38498,"is_reserved":false,"is_disabled":false,"rental_uris":{"android":"levelo://app?vid=6104f634-6fc4-4b77-9ff6-0f592989c0da","ios":"levelo://app?vid=6104f634-6fc4-4b77-9ff6-0f592989c0da"},"vehicle_type_id":"4","last_reported":1724098131,"current_range_meters":8000,"station_id":"ce4bgj92rcd13ifvqbd0","pricing_plan_id":"cebpf4jnsgd1na2vs0mg"},{"bike_id":"242cad08-90ed-46fd-bee3-891187c1913e","system_id":"levelo_inurba_marseille","lat":43.295279,"lon":5.375048,"is_reserved":false,"is_disabled":false,"rental_uris":{"android":"levelo://app?vid=242cad08-90ed-46fd-bee3-891187c1913e","ios":"levelo://app?vid=242cad08-90ed-46fd-bee3-891187c1913e"},"vehicle_type_id":"4","last_reported":1724098131,"current_range_meters":22000,"station_id":"ce4bgkp2rcd13ifvqbmg","pricing_plan_id":"cebpf4jnsgd1na2vs0mg"},{"bike_id":"a99ed253-869a-485b-b254-9e5d0a4bd872","system_id":"levelo_inurba_marseille","lat":43.299707,"lon":5.384859,"is_reserved":false,"is_disabled":false,"rental_uris":{"android":"levelo://app?vid=a99ed253-869a-485b-b254-9e5d0a4bd872","ios":"levelo://app?vid=a99ed253-869a-485b-b254-9e5d0a4bd872"},"vehicle_type_id":"4","last_reported":1724098131,"current_range_meters":2000,"station_id":"ce4bgj92rcd13ifvqbd0","pricing_plan_id":"cebpf4jnsgd1na2vs0mg"},{"bike_id":"3fba1ab3-ceee-47dd-b9e9-17b4e8549089","system_id":"levelo_inurba_marseille","lat":43.295279,"lon":5.375048,"is_reserved":false,"is_disabled":false,"rental_uris":{"android":"levelo://app?vid=3fba1ab3-ceee-47dd-b9e9-17b4e8549089","ios":"levelo://app?vid=3fba1ab3-ceee-47dd-b9e9-17b4e8549089"},"vehicle_type_id":"4","last_reported":1724098131,"current_range_meters":1200,"station_id":"ce4bgkp2rcd13ifvqbmg","pricing_plan_id":"cebpf4jnsgd1na2vs0mg"},{"bike_id":"5bdc6ce9-7720-4bcf-82a7-558abebc22f8","system_id":"levelo_inurba_marseille","lat":43.295279,"lon":5.375048,"is_reserved":false,"is_disabled":false,"rental_uris":{"android":"levelo://app?vid=5bdc6ce9-7720-4bcf-82a7-558abebc22f8","ios":"levelo://app?vid=5bdc6ce9-7720-4bcf-82a7-558abebc22f8"},"vehicle_type_id":"4","last_reported":1724098131,"current_range_meters":1600,"station_id":"ce4bgkp2rcd13ifvqbmg","pricing_plan_id":"cebpf4jnsgd1na2vs0mg"},{"bike_id":"567e9f69-5606-4c31-804a-515a76813eb2","system_id":"levelo_inurba_marseille","lat":43.295279,"lon":5.375048,"is_reserved":false,"is_disabled":false,"rental_uris":{"android":"levelo://app?vid=567e9f69-5606-4c31-804a-515a76813eb2","ios":"levelo://app?vid=567e9f69-5606-4c31-804a-515a76813eb2"},"vehicle_type_id":"4","last_reported":1724098131,"current_range_meters":1600,"station_id":"ce4bgkp2rcd13ifvqbmg","pricing_plan_id":"cebpf4jnsgd1na2vs0mg"},{"bike_id":"80cbf71a-ffde-4e7b-9715-4285bf4b4cef","system_id":"levelo_inurba_marseille","lat":43.295279,"lon":5.375048,"is_reserved":false,"is_disabled":false,"rental_uris":{"android":"levelo://app?vid=80cbf71a-ffde-4e7b-9715-4285bf4b4cef","ios":"levelo://app?vid=80cbf71a-ffde-4e7b-9715-4285bf4b4cef"},"vehicle_type_id":"4","last_reported":1724098131,"current_range_meters":21200,"station_id":"ce4bgkp2rcd13ifvqbmg","pricing_plan_id":"cebpf4jnsgd1na2vs0mg"},{"bike_id":"f18fc3fb-e533-49a6-a9b9-58cdf14ea193","system_id":"levelo_inurba_marseille","lat":43.301396,"lon":5.387812,"is_reserved":false,"is_disabled":false,"rental_uris":{"android":"levelo://app?vid=f18fc3fb-e533-49a6-a9b9-58cdf14ea193","ios":"levelo://app?vid=f18fc3fb-e533-49a6-a9b9-58cdf14ea193"},"vehicle_type_id":"4","last_reported":1724098131,"current_range_meters":13200,"station_id":"ce4bghh2rcd13ifvqb60","pricing_plan_id":"cebpf4jnsgd1na2vs0mg"},{"bike_id":"b62b66a1-d9b8-48dd-b92f-e7a8548640fd","system_id":"levelo_inurba_marseille","lat":43.301396,"lon":5.387812,"is_reserved":false,"is_disabled":false,"rental_uris":{"android":"levelo://app?vid=b62b66a1-d9b8-48dd-b92f-e7a8548640fd","ios":"levelo://app?vid=b62b66a1-d9b8-48dd-b92f-e7a8548640fd"},"vehicle_type_id":"4","last_reported":1724098131,"current_range_meters":28400,"station_id":"ce4bghh2rcd13ifvqb60","pricing_plan_id":"cebpf4jnsgd1na2vs0mg"},{"bike_id":"02391ac4-8d75-48a9-9200-2e49f405ab29","system_id":"levelo_inurba_marseille","lat":43.299224,"lon":5.385317,"is_reserved":false,"is_disabled":false,"rental_uris":{"android":"levelo://app?vid=02391ac4-8d75-48a9-9200-2e49f405ab29","ios":"levelo://app?vid=02391ac4-8d75-48a9-9200-2e49f405ab29"},"vehicle_type_id":"4","last_reported":1724098131,"current_range_meters":7200,"station_id":"","pricing_plan_id":"cebpf4jnsgd1na2vs0mg"},{"bike_id":"ae513f67-fce7-4142-aa4e-3f07a2237c78","system_id":"levelo_inurba_marseille","lat":43.301396,"lon":5.387812,"is_reserved":false,"is_disabled":false,"rental_uris":{"android":"levelo://app?vid=ae513f67-fce7-4142-aa4e-3f07a2237c78","ios":"levelo://app?vid=ae513f67-fce7-4142-aa4e-3f07a2237c78"},"vehicle_type_id":"4","last_reported":1724098131,"current_range_meters":0,"station_id":"ce4bghh2rcd13ifvqb60","pricing_plan_id":"cebpf4jnsgd1na2vs0mg"},{"bike_id":"59dcf91c-94e2-4721-9ad9-614d11302640","system_id":"levelo_inurba_marseille","lat":43.301396,"lon":5.387812,"is_reserved":false,"is_disabled":false,"rental_uris":{"android":"levelo://app?vid=59dcf91c-94e2-4721-9ad9-614d11302640","ios":"levelo://app?vid=59dcf91c-94e2-4721-9ad9-614d11302640"},"vehicle_type_id":"4","last_reported":1724098131,"current_range_meters":21200,"station_id":"ce4bghh2rcd13ifvqb60","pricing_plan_id":"cebpf4jnsgd1na2vs0mg"},{"bike_id":"ec58343b-736c-4180-a454-a63063c07d59","system_id":"levelo_inurba_marseille","lat":43.310804,"lon":5.38359,"is_reserved":false,"is_disabled":false,"rental_uris":{"android":"levelo://app?vid=ec58343b-736c-4180-a454-a63063c07d59","ios":"levelo://app?vid=ec58343b-736c-4180-a454-a63063c07d59"},"vehicle_type_id":"4","last_reported":1724098131,"current_range_meters":20000,"station_id":"ce4bgv92rcd13ifvqcr0","pricing_plan_id":"cebpf4jnsgd1na2vs0mg"},{"bike_id":"6cf1072c-a151-4fd3-819d-bd36cdad9514","system_id":"levelo_inurba_marseille","lat":43.32367,"lon":5.388836,"is_reserved":false,"is_disabled":false,"rental_uris":{"android":"levelo://app?vid=6cf1072c-a151-4fd3-819d-bd36cdad9514","ios":"levelo://app?vid=6cf1072c-a151-4fd3-819d-bd36cdad9514"},"vehicle_type_id":"4","last_reported":1724098131,"current_range_meters":31200,"station_id":"ce4bhqp2rcd13ifvqhog","pricing_plan_id":"cebpf4jnsgd1na2vs0mg"},{"bike_id":"daab8b5b-e62a-44a3-bca6-3f7a01217322","system_id":"levelo_inurba_marseille","lat":43.32367,"lon":5.388836,"is_reserved":false,"is_disabled":false,"rental_uris":{"android":"levelo://app?vid=daab8b5b-e62a-44a3-bca6-3f7a01217322","ios":"levelo://app?vid=daab8b5b-e62a-44a3-bca6-3f7a01217322"},"vehicle_type_id":"4","last_reported":1724098131,"current_range_meters":19200,"station_id":"ce4bhqp2rcd13ifvqhog","pricing_plan_id":"cebpf4jnsgd1na2vs0mg"},{"bike_id":"412c24c6-e69f-4754-b446-39b9b95f6c53","system_id":"levelo_inurba_marseille","lat":43.32367,"lon":5.388836,"is_reserved":false,"is_disabled":false,"rental_uris":{"android":"levelo://app?vid=412c24c6-e69f-4754-b446-39b9b95f6c53","ios":"levelo://app?vid=412c24c6-e69f-4754-b446-39b9b95f6c53"},"vehicle_type_id":"4","last_reported":1724098131,"current_range_meters":22400,"station_id":"ce4bhqp2rcd13ifvqhog","pricing_plan_id":"cebpf4jnsgd1na2vs0mg"},{"bike_id":"a604f407-7927-41e4-8ff6-833d73a66131","system_id":"levelo_inurba_marseille","lat":43.32367,"lon":5.388836,"is_reserved":false,"is_disabled":false,"rental_uris":{"android":"levelo://app?vid=a604f407-7927-41e4-8ff6-833d73a66131","ios":"levelo://app?vid=a604f407-7927-41e4-8ff6-833d73a66131"},"vehicle_type_id":"4","last_reported":1724098131,"current_range_meters":7200,"station_id":"ce4bhqp2rcd13ifvqhog","pricing_plan_id":"cebpf4jnsgd1na2vs0mg"},{"bike_id":"856b791c-7019-46d7-bdbe-a5959df724aa","system_id":"levelo_inurba_marseille","lat":43.32367,"lon":5.388836,"is_reserved":false,"is_disabled":false,"rental_uris":{"android":"levelo://app?vid=856b791c-7019-46d7-bdbe-a5959df724aa","ios":"levelo://app?vid=856b791c-7019-46d7-bdbe-a5959df724aa"},"vehicle_type_id":"4","last_reported":1724098131,"current_range_meters":31200,"station_id":"ce4bhqp2rcd13ifvqhog","pricing_plan_id":"cebpf4jnsgd1na2vs0mg"},{"bike_id":"e0a47840-c09f-4fb5-bdaf-e64848bcc25a","system_id":"levelo_inurba_marseille","lat":43.32367,"lon":5.388836,"is_reserved":false,"is_disabled":false,"rental_uris":{"android":"levelo://app?vid=e0a47840-c09f-4fb5-bdaf-e64848bcc25a","ios":"levelo://app?vid=e0a47840-c09f-4fb5-bdaf-e64848bcc25a"},"vehicle_type_id":"4","last_reported":1724098131,"current_range_meters":13200,"station_id":"ce4bhqp2rcd13ifvqhog","pricing_plan_id":"cebpf4jnsgd1na2vs0mg"},{"bike_id":"c3517886-88ac-47af-bb7b-8cd2205843d8","system_id":"levelo_inurba_marseille","lat":43.32367,"lon":5.388836,"is_reserved":false,"is_disabled":false,"rental_uris":{"android":"levelo://app?vid=c3517886-88ac-47af-bb7b-8cd2205843d8","ios":"levelo://app?vid=c3517886-88ac-47af-bb7b-8cd2205843d8"},"vehicle_type_id":"4","last_reported":1724098131,"current_range_meters":31200,"station_id":"ce4bhqp2rcd13ifvqhog","pricing_plan_id":"cebpf4jnsgd1na2vs0mg"},{"bike_id":"d3da3c6e-7b20-41f8-acfb-c2ca288722f0","system_id":"levelo_inurba_marseille","lat":43.29602,"lon":5.381084,"is_reserved":false,"is_disabled":false,"rental_uris":{"android":"levelo://app?vid=d3da3c6e-7b20-41f8-acfb-c2ca288722f0","ios":"levelo://app?vid=d3da3c6e-7b20-41f8-acfb-c2ca288722f0"},"vehicle_type_id":"4","last_reported":1724098131,"current_range_meters":3600,"station_id":"ce4bgl12rcd13ifvqbo0","pricing_plan_id":"cebpf4jnsgd1na2vs0mg"},{"bike_id":"af9179af-6695-448e-92d2-91e50c6e9163","system_id":"levelo_inurba_marseille","lat":43.2959,"lon":5.381,"is_reserved":false,"is_disabled":false,"rental_uris":{"android":"levelo://app?vid=af9179af-6695-448e-92d2-91e50c6e9163","ios":"levelo://app?vid=af9179af-6695-448e-92d2-91e50c6e9163"},"vehicle_type_id":"4","last_reported":1724098131,"current_range_meters":27200,"station_id":"ce4bgl12rcd13ifvqbo0","pricing_plan_id":"cebpf4jnsgd1na2vs0mg"},{"bike_id":"b53d3558-b245-4be6-a8f7-625f46a02193","system_id":"levelo_inurba_marseille","lat":43.29601,"lon":5.381084,"is_reserved":false,"is_disabled":false,"rental_uris":{"android":"levelo://app?vid=b53d3558-b245-4be6-a8f7-625f46a02193","ios":"levelo://app?vid=b53d3558-b245-4be6-a8f7-625f46a02193"},"vehicle_type_id":"4","last_reported":1724098131,"current_range_meters":27600,"station_id":"ce4bgl12rcd13ifvqbo0","pricing_plan_id":"cebpf4jnsgd1na2vs0mg"},{"bike_id":"de62f585-9981-4e29-a17e-d994b08c5e71","system_id":"levelo_inurba_marseille","lat":43.292749,"lon":5.368402,"is_reserved":false,"is_disabled":false,"rental_uris":{"android":"levelo://app?vid=de62f585-9981-4e29-a17e-d994b08c5e71","ios":"levelo://app?vid=de62f585-9981-4e29-a17e-d994b08c5e71"},"vehicle_type_id":"4","last_reported":1724098131,"current_range_meters":31200,"station_id":"ce4bhbp2rcd13ifvqesg","pricing_plan_id":"cebpf4jnsgd1na2vs0mg"},{"bike_id":"6660c6dc-ab8e-4725-8530-14ef60d5ef47","system_id":"levelo_inurba_marseille","lat":43.293065,"lon":5.371723,"is_reserved":false,"is_disabled":false,"rental_uris":{"android":"levelo://app?vid=6660c6dc-ab8e-4725-8530-14ef60d5ef47","ios":"levelo://app?vid=6660c6dc-ab8e-4725-8530-14ef60d5ef47"},"vehicle_type_id":"4","last_reported":1724098131,"current_range_meters":21200,"station_id":"ce4bgh92rcd13ifvqb40","pricing_plan_id":"cebpf4jnsgd1na2vs0mg"},{"bike_id":"99cdea7f-63ec-456c-8d79-f09dd577094b","system_id":"levelo_inurba_marseille","lat":43.293259,"lon":5.371586,"is_reserved":false,"is_disabled":false,"rental_uris":{"android":"levelo://app?vid=99cdea7f-63ec-456c-8d79-f09dd577094b","ios":"levelo://app?vid=99cdea7f-63ec-456c-8d79-f09dd577094b"},"vehicle_type_id":"4","last_reported":1724098131,"current_range_meters":28800,"station_id":"ce4bgh92rcd13ifvqb40","pricing_plan_id":"cebpf4jnsgd1na2vs0mg"},{"bike_id":"416b9d72-6547-4431-9d66-cb180afb46d2","system_id":"levelo_inurba_marseille","lat":43.292749,"lon":5.368402,"is_reserved":false,"is_disabled":false,"rental_uris":{"android":"levelo://app?vid=416b9d72-6547-4431-9d66-cb180afb46d2","ios":"levelo://app?vid=416b9d72-6547-4431-9d66-cb180afb46d2"},"vehicle_type_id":"4","last_reported":1724098131,"current_range_meters":30000,"station_id":"ce4bhbp2rcd13ifvqesg","pricing_plan_id":"cebpf4jnsgd1na2vs0mg"},{"bike_id":"b2f0f990-2d42-46b5-bd97-81d54553b756","system_id":"levelo_inurba_marseille","lat":43.293259,"lon":5.371586,"is_reserved":false,"is_disabled":false,"rental_uris":{"android":"levelo://app?vid=b2f0f990-2d42-46b5-bd97-81d54553b756","ios":"levelo://app?vid=b2f0f990-2d42-46b5-bd97-81d54553b756"},"vehicle_type_id":"4","last_reported":1724098131,"current_range_meters":28800,"station_id":"ce4bgh92rcd13ifvqb40","pricing_plan_id":"cebpf4jnsgd1na2vs0mg"},{"bike_id":"269cb26b-d340-4600-9720-3d7b1319224f","system_id":"levelo_inurba_marseille","lat":43.292749,"lon":5.368402,"is_reserved":false,"is_disabled":false,"rental_uris":{"android":"levelo://app?vid=269cb26b-d340-4600-9720-3d7b1319224f","ios":"levelo://app?vid=269cb26b-d340-4600-9720-3d7b1319224f"},"vehicle_type_id":"4","last_reported":1724098131,"current_range_meters":22800,"station_id":"ce4bhbp2rcd13ifvqesg","pricing_plan_id":"cebpf4jnsgd1na2vs0mg"},{"bike_id":"da9ad800-822e-4ead-9d7a-0db8726e64af","system_id":"levelo_inurba_marseille","lat":43.292749,"lon":5.368402,"is_reserved":false,"is_disabled":false,"rental_uris":{"android":"levelo://app?vid=da9ad800-822e-4ead-9d7a-0db8726e64af","ios":"levelo://app?vid=da9ad800-822e-4ead-9d7a-0db8726e64af"},"vehicle_type_id":"4","last_reported":1724098131,"current_range_meters":12000,"station_id":"ce4bhbp2rcd13ifvqesg","pricing_plan_id":"cebpf4jnsgd1na2vs0mg"},{"bike_id":"db857eeb-50c7-49e0-8411-360796e4e0a5","system_id":"levelo_inurba_marseille","lat":43.29301,"lon":5.37182,"is_reserved":false,"is_disabled":false,"rental_uris":{"android":"levelo://app?vid=db857eeb-50c7-49e0-8411-360796e4e0a5","ios":"levelo://app?vid=db857eeb-50c7-49e0-8411-360796e4e0a5"},"vehicle_type_id":"4","last_reported":1724098131,"current_range_meters":6400,"station_id":"ce4bgh92rcd13ifvqb40","pricing_plan_id":"cebpf4jnsgd1na2vs0mg"},{"bike_id":"7af23fae-d1f6-4709-8dbf-e4754ce966c3","system_id":"levelo_inurba_marseille","lat":43.292749,"lon":5.368402,"is_reserved":false,"is_disabled":false,"rental_uris":{"android":"levelo://app?vid=7af23fae-d1f6-4709-8dbf-e4754ce966c3","ios":"levelo://app?vid=7af23fae-d1f6-4709-8dbf-e4754ce966c3"},"vehicle_type_id":"4","last_reported":1724098131,"current_range_meters":31200,"station_id":"ce4bhbp2rcd13ifvqesg","pricing_plan_id":"cebpf4jnsgd1na2vs0mg"},{"bike_id":"74bca29a-46d8-47e0-9798-af3da17a8b32","system_id":"levelo_inurba_marseille","lat":43.29301,"lon":5.37185,"is_reserved":false,"is_disabled":false,"rental_uris":{"android":"levelo://app?vid=74bca29a-46d8-47e0-9798-af3da17a8b32","ios":"levelo://app?vid=74bca29a-46d8-47e0-9798-af3da17a8b32"},"vehicle_type_id":"4","last_reported":1724098131,"current_range_meters":17200,"station_id":"ce4bgh92rcd13ifvqb40","pricing_plan_id":"cebpf4jnsgd1na2vs0mg"},{"bike_id":"204a017f-0b88-4106-b1a4-009d91652dd5","system_id":"levelo_inurba_marseille","lat":43.292749,"lon":5.368402,"is_reserved":false,"is_disabled":false,"rental_uris":{"android":"levelo://app?vid=204a017f-0b88-4106-b1a4-009d91652dd5","ios":"levelo://app?vid=204a017f-0b88-4106-b1a4-009d91652dd5"},"vehicle_type_id":"4","last_reported":1724098131,"current_range_meters":29200,"station_id":"ce4bhbp2rcd13ifvqesg","pricing_plan_id":"cebpf4jnsgd1na2vs0mg"},{"bike_id":"53cd27e7-22bb-4d2e-8686-0c0bab7fe1b1","system_id":"levelo_inurba_marseille","lat":43.292749,"lon":5.368402,"is_reserved":false,"is_disabled":false,"rental_uris":{"android":"levelo://app?vid=53cd27e7-22bb-4d2e-8686-0c0bab7fe1b1","ios":"levelo://app?vid=53cd27e7-22bb-4d2e-8686-0c0bab7fe1b1"},"vehicle_type_id":"4","last_reported":1724098131,"current_range_meters":31600,"station_id":"ce4bhbp2rcd13ifvqesg","pricing_plan_id":"cebpf4jnsgd1na2vs0mg"},{"bike_id":"68f471f7-7d48-4503-9b44-10464d65f676","system_id":"levelo_inurba_marseille","lat":43.29243,"lon":5.36592,"is_reserved":false,"is_disabled":false,"rental_uris":{"android":"levelo://app?vid=68f471f7-7d48-4503-9b44-10464d65f676","ios":"levelo://app?vid=68f471f7-7d48-4503-9b44-10464d65f676"},"vehicle_type_id":"4","last_reported":1724098131,"current_range_meters":0,"station_id":"","pricing_plan_id":"cebpf4jnsgd1na2vs0mg"},{"bike_id":"ecb8d800-a22f-441f-954e-8ce1aefba09f","system_id":"levelo_inurba_marseille","lat":43.305994,"lon":5.393687,"is_reserved":false,"is_disabled":false,"rental_uris":{"android":"levelo://app?vid=ecb8d800-a22f-441f-954e-8ce1aefba09f","ios":"levelo://app?vid=ecb8d800-a22f-441f-954e-8ce1aefba09f"},"vehicle_type_id":"4","last_reported":1724098131,"current_range_meters":0,"station_id":"ce4bh0p2rcd13ifvqd80","pricing_plan_id":"cebpf4jnsgd1na2vs0mg"},{"bike_id":"718ebd3d-026b-4d05-81d9-9a0931b812fc","system_id":"levelo_inurba_marseille","lat":43.293009,"lon":5.374584,"is_reserved":false,"is_disabled":false,"rental_uris":{"android":"levelo://app?vid=718ebd3d-026b-4d05-81d9-9a0931b812fc","ios":"levelo://app?vid=718ebd3d-026b-4d05-81d9-9a0931b812fc"},"vehicle_type_id":"4","last_reported":1724098131,"current_range_meters":13600,"station_id":"ce4bgi12rcd13ifvqb70","pricing_plan_id":"cebpf4jnsgd1na2vs0mg"},{"bike_id":"aa837e2f-802c-4e7e-8f21-007f2d012fe2","system_id":"levelo_inurba_marseille","lat":43.305994,"lon":5.393687,"is_reserved":false,"is_disabled":false,"rental_uris":{"android":"levelo://app?vid=aa837e2f-802c-4e7e-8f21-007f2d012fe2","ios":"levelo://app?vid=aa837e2f-802c-4e7e-8f21-007f2d012fe2"},"vehicle_type_id":"4","last_reported":1724098131,"current_range_meters":6800,"station_id":"ce4bh0p2rcd13ifvqd80","pricing_plan_id":"cebpf4jnsgd1na2vs0mg"},{"bike_id":"87ed1d52-747f-43e8-bcb3-654bc088cfa4","system_id":"levelo_inurba_marseille","lat":43.303002,"lon":5.392142,"is_reserved":false,"is_disabled":false,"rental_uris":{"android":"levelo://app?vid=87ed1d52-747f-43e8-bcb3-654bc088cfa4","ios":"levelo://app?vid=87ed1d52-747f-43e8-bcb3-654bc088cfa4"},"vehicle_type_id":"4","last_reported":1724098131,"current_range_meters":14000,"station_id":"ce4bgkh2rcd13ifvqbk0","pricing_plan_id":"cebpf4jnsgd1na2vs0mg"},{"bike_id":"05a2c561-da92-4e4b-9a39-99828a615243","system_id":"levelo_inurba_marseille","lat":43.303002,"lon":5.392142,"is_reserved":false,"is_disabled":false,"rental_uris":{"android":"levelo://app?vid=05a2c561-da92-4e4b-9a39-99828a615243","ios":"levelo://app?vid=05a2c561-da92-4e4b-9a39-99828a615243"},"vehicle_type_id":"4","last_reported":1724098131,"current_range_meters":4800,"station_id":"ce4bgkh2rcd13ifvqbk0","pricing_plan_id":"cebpf4jnsgd1na2vs0mg"},{"bike_id":"f9f77b05-9306-4594-9874-0282a35af2cc","system_id":"levelo_inurba_marseille","lat":43.303002,"lon":5.392142,"is_reserved":false,"is_disabled":false,"rental_uris":{"android":"levelo://app?vid=f9f77b05-9306-4594-9874-0282a35af2cc","ios":"levelo://app?vid=f9f77b05-9306-4594-9874-0282a35af2cc"},"vehicle_type_id":"4","last_reported":1724098131,"current_range_meters":2800,"station_id":"ce4bgkh2rcd13ifvqbk0","pricing_plan_id":"cebpf4jnsgd1na2vs0mg"},{"bike_id":"a04e903b-4314-477a-9a78-ba3df21a8f7d","system_id":"levelo_inurba_marseille","lat":43.2936,"lon":5.37835,"is_reserved":false,"is_disabled":false,"rental_uris":{"android":"levelo://app?vid=a04e903b-4314-477a-9a78-ba3df21a8f7d","ios":"levelo://app?vid=a04e903b-4314-477a-9a78-ba3df21a8f7d"},"vehicle_type_id":"4","last_reported":1724098131,"current_range_meters":12400,"station_id":"ce4bgjh2rcd13ifvqbf0","pricing_plan_id":"cebpf4jnsgd1na2vs0mg"},{"bike_id":"2392b6b2-5d13-4f3e-a51b-2c1bb1c7d569","system_id":"levelo_inurba_marseille","lat":43.2936,"lon":5.37835,"is_reserved":false,"is_disabled":false,"rental_uris":{"android":"levelo://app?vid=2392b6b2-5d13-4f3e-a51b-2c1bb1c7d569","ios":"levelo://app?vid=2392b6b2-5d13-4f3e-a51b-2c1bb1c7d569"},"vehicle_type_id":"4","last_reported":1724098131,"current_range_meters":22000,"station_id":"ce4bgjh2rcd13ifvqbf0","pricing_plan_id":"cebpf4jnsgd1na2vs0mg"},{"bike_id":"c9562103-c630-4300-b5c9-479c4c589aae","system_id":"levelo_inurba_marseille","lat":43.2936,"lon":5.37835,"is_reserved":false,"is_disabled":false,"rental_uris":{"android":"levelo://app?vid=c9562103-c630-4300-b5c9-479c4c589aae","ios":"levelo://app?vid=c9562103-c630-4300-b5c9-479c4c589aae"},"vehicle_type_id":"4","last_reported":1724098131,"current_range_meters":0,"station_id":"ce4bgjh2rcd13ifvqbf0","pricing_plan_id":"cebpf4jnsgd1na2vs0mg"},{"bike_id":"cbacfe01-0632-4555-b0d0-4a4b2cc1433d","system_id":"levelo_inurba_marseille","lat":43.298764,"lon":5.388973,"is_reserved":false,"is_disabled":false,"rental_uris":{"android":"levelo://app?vid=cbacfe01-0632-4555-b0d0-4a4b2cc1433d","ios":"levelo://app?vid=cbacfe01-0632-4555-b0d0-4a4b2cc1433d"},"vehicle_type_id":"4","last_reported":1724098131,"current_range_meters":30400,"station_id":"ce4bh392rcd13ifvqdl0","pricing_plan_id":"cebpf4jnsgd1na2vs0mg"},{"bike_id":"aea128bf-8450-432f-8e4f-3542d03059b0","system_id":"levelo_inurba_marseille","lat":43.298764,"lon":5.388973,"is_reserved":false,"is_disabled":false,"rental_uris":{"android":"levelo://app?vid=aea128bf-8450-432f-8e4f-3542d03059b0","ios":"levelo://app?vid=aea128bf-8450-432f-8e4f-3542d03059b0"},"vehicle_type_id":"4","last_reported":1724098131,"current_range_meters":8400,"station_id":"ce4bh392rcd13ifvqdl0","pricing_plan_id":"cebpf4jnsgd1na2vs0mg"},{"bike_id":"33bbeb34-5b09-4437-9f67-69bfcf7540e5","system_id":"levelo_inurba_marseille","lat":43.298764,"lon":5.388973,"is_reserved":false,"is_disabled":false,"rental_uris":{"android":"levelo://app?vid=33bbeb34-5b09-4437-9f67-69bfcf7540e5","ios":"levelo://app?vid=33bbeb34-5b09-4437-9f67-69bfcf7540e5"},"vehicle_type_id":"4","last_reported":1724098131,"current_range_meters":10000,"station_id":"ce4bh392rcd13ifvqdl0","pricing_plan_id":"cebpf4jnsgd1na2vs0mg"},{"bike_id":"5fd8756a-5150-433f-bd22-d05d5e54007f","system_id":"levelo_inurba_marseille","lat":43.291675,"lon":5.371583,"is_reserved":false,"is_disabled":false,"rental_uris":{"android":"levelo://app?vid=5fd8756a-5150-433f-bd22-d05d5e54007f","ios":"levelo://app?vid=5fd8756a-5150-433f-bd22-d05d5e54007f"},"vehicle_type_id":"4","last_reported":1724098131,"current_range_meters":28800,"station_id":"ce4bha92rcd13ifvqeh0","pricing_plan_id":"cebpf4jnsgd1na2vs0mg"},{"bike_id":"5dec247c-d5e6-4f6a-b7a9-aca478034564","system_id":"levelo_inurba_marseille","lat":43.291671,"lon":5.371575,"is_reserved":false,"is_disabled":false,"rental_uris":{"android":"levelo://app?vid=5dec247c-d5e6-4f6a-b7a9-aca478034564","ios":"levelo://app?vid=5dec247c-d5e6-4f6a-b7a9-aca478034564"},"vehicle_type_id":"4","last_reported":1724098131,"current_range_meters":31200,"station_id":"ce4bha92rcd13ifvqeh0","pricing_plan_id":"cebpf4jnsgd1na2vs0mg"},{"bike_id":"6eb25cf0-3eb4-4413-b9a9-f80b0fd7a732","system_id":"levelo_inurba_marseille","lat":43.29198,"lon":5.35808,"is_reserved":false,"is_disabled":false,"rental_uris":{"android":"levelo://app?vid=6eb25cf0-3eb4-4413-b9a9-f80b0fd7a732","ios":"levelo://app?vid=6eb25cf0-3eb4-4413-b9a9-f80b0fd7a732"},"vehicle_type_id":"4","last_reported":1724098131,"current_range_meters":0,"station_id":"ce4bhb12rcd13ifvqel0","pricing_plan_id":"cebpf4jnsgd1na2vs0mg"},{"bike_id":"fad126b6-a83d-42de-9a43-3452996241d1","system_id":"levelo_inurba_marseille","lat":43.29196,"lon":5.358153,"is_reserved":false,"is_disabled":false,"rental_uris":{"android":"levelo://app?vid=fad126b6-a83d-42de-9a43-3452996241d1","ios":"levelo://app?vid=fad126b6-a83d-42de-9a43-3452996241d1"},"vehicle_type_id":"4","last_reported":1724098131,"current_range_meters":1200,"station_id":"ce4bhb12rcd13ifvqel0","pricing_plan_id":"cebpf4jnsgd1na2vs0mg"},{"bike_id":"b4389734-2a2c-400c-b54c-d8bd2bd4bd7e","system_id":"levelo_inurba_marseille","lat":43.313291,"lon":5.396838,"is_reserved":false,"is_disabled":false,"rental_uris":{"android":"levelo://app?vid=b4389734-2a2c-400c-b54c-d8bd2bd4bd7e","ios":"levelo://app?vid=b4389734-2a2c-400c-b54c-d8bd2bd4bd7e"},"vehicle_type_id":"4","last_reported":1724098131,"current_range_meters":1600,"station_id":"ce4bgvp2rcd13ifvqcu0","pricing_plan_id":"cebpf4jnsgd1na2vs0mg"},{"bike_id":"7629ce50-fda3-4c54-9c2c-4aee34e6d7a4","system_id":"levelo_inurba_marseille","lat":43.313291,"lon":5.396838,"is_reserved":false,"is_disabled":false,"rental_uris":{"android":"levelo://app?vid=7629ce50-fda3-4c54-9c2c-4aee34e6d7a4","ios":"levelo://app?vid=7629ce50-fda3-4c54-9c2c-4aee34e6d7a4"},"vehicle_type_id":"4","last_reported":1724098131,"current_range_meters":5200,"station_id":"ce4bgvp2rcd13ifvqcu0","pricing_plan_id":"cebpf4jnsgd1na2vs0mg"},{"bike_id":"9855bd80-aa3b-4d33-9560-4db88f484dac","system_id":"levelo_inurba_marseille","lat":43.313291,"lon":5.396838,"is_reserved":false,"is_disabled":false,"rental_uris":{"android":"levelo://app?vid=9855bd80-aa3b-4d33-9560-4db88f484dac","ios":"levelo://app?vid=9855bd80-aa3b-4d33-9560-4db88f484dac"},"vehicle_type_id":"4","last_reported":1724098131,"current_range_meters":8800,"station_id":"ce4bgvp2rcd13ifvqcu0","pricing_plan_id":"cebpf4jnsgd1na2vs0mg"},{"bike_id":"5f155c47-5aab-47ca-a02a-e7c98bb5f26b","system_id":"levelo_inurba_marseille","lat":43.313291,"lon":5.396838,"is_reserved":false,"is_disabled":false,"rental_uris":{"android":"levelo://app?vid=5f155c47-5aab-47ca-a02a-e7c98bb5f26b","ios":"levelo://app?vid=5f155c47-5aab-47ca-a02a-e7c98bb5f26b"},"vehicle_type_id":"4","last_reported":1724098131,"current_range_meters":20000,"station_id":"ce4bgvp2rcd13ifvqcu0","pricing_plan_id":"cebpf4jnsgd1na2vs0mg"},{"bike_id":"94adaf13-5b6e-4865-a2d4-7fbb09e34d00","system_id":"levelo_inurba_marseille","lat":43.313291,"lon":5.396838,"is_reserved":false,"is_disabled":false,"rental_uris":{"android":"levelo://app?vid=94adaf13-5b6e-4865-a2d4-7fbb09e34d00","ios":"levelo://app?vid=94adaf13-5b6e-4865-a2d4-7fbb09e34d00"},"vehicle_type_id":"4","last_reported":1724098131,"current_range_meters":27200,"station_id":"ce4bgvp2rcd13ifvqcu0","pricing_plan_id":"cebpf4jnsgd1na2vs0mg"},{"bike_id":"5e9074b9-5ecf-4711-87f0-2f81e628762f","system_id":"levelo_inurba_marseille","lat":43.309038,"lon":5.396546,"is_reserved":false,"is_disabled":false,"rental_uris":{"android":"levelo://app?vid=5e9074b9-5ecf-4711-87f0-2f81e628762f","ios":"levelo://app?vid=5e9074b9-5ecf-4711-87f0-2f81e628762f"},"vehicle_type_id":"4","last_reported":1724098131,"current_range_meters":9600,"station_id":"ce4bh012rcd13ifvqcv0","pricing_plan_id":"cebpf4jnsgd1na2vs0mg"},{"bike_id":"796c4253-dfd1-44ba-b8cb-4127e898374d","system_id":"levelo_inurba_marseille","lat":43.309038,"lon":5.396546,"is_reserved":false,"is_disabled":false,"rental_uris":{"android":"levelo://app?vid=796c4253-dfd1-44ba-b8cb-4127e898374d","ios":"levelo://app?vid=796c4253-dfd1-44ba-b8cb-4127e898374d"},"vehicle_type_id":"4","last_reported":1724098131,"current_range_meters":11600,"station_id":"ce4bh012rcd13ifvqcv0","pricing_plan_id":"cebpf4jnsgd1na2vs0mg"},{"bike_id":"37c1815e-7fba-4968-9406-25662c79f6c4","system_id":"levelo_inurba_marseille","lat":43.313291,"lon":5.396838,"is_reserved":false,"is_disabled":false,"rental_uris":{"android":"levelo://app?vid=37c1815e-7fba-4968-9406-25662c79f6c4","ios":"levelo://app?vid=37c1815e-7fba-4968-9406-25662c79f6c4"},"vehicle_type_id":"4","last_reported":1724098131,"current_range_meters":10800,"station_id":"ce4bgvp2rcd13ifvqcu0","pricing_plan_id":"cebpf4jnsgd1na2vs0mg"},{"bike_id":"9d818014-d313-4c8d-8fca-dc3f60434363","system_id":"levelo_inurba_marseille","lat":43.309038,"lon":5.396546,"is_reserved":false,"is_disabled":false,"rental_uris":{"android":"levelo://app?vid=9d818014-d313-4c8d-8fca-dc3f60434363","ios":"levelo://app?vid=9d818014-d313-4c8d-8fca-dc3f60434363"},"vehicle_type_id":"4","last_reported":1724098131,"current_range_meters":16800,"station_id":"ce4bh012rcd13ifvqcv0","pricing_plan_id":"cebpf4jnsgd1na2vs0mg"},{"bike_id":"d50d3552-648b-44ee-b827-0bc8da4d7d21","system_id":"levelo_inurba_marseille","lat":43.309047,"lon":5.396551,"is_reserved":false,"is_disabled":false,"rental_uris":{"android":"levelo://app?vid=d50d3552-648b-44ee-b827-0bc8da4d7d21","ios":"levelo://app?vid=d50d3552-648b-44ee-b827-0bc8da4d7d21"},"vehicle_type_id":"4","last_reported":1724098131,"current_range_meters":27200,"station_id":"ce4bh012rcd13ifvqcv0","pricing_plan_id":"cebpf4jnsgd1na2vs0mg"},{"bike_id":"b6c13302-a8b1-4948-86a3-f90cd3178077","system_id":"levelo_inurba_marseille","lat":43.29529,"lon":5.385581,"is_reserved":false,"is_disabled":false,"rental_uris":{"android":"levelo://app?vid=b6c13302-a8b1-4948-86a3-f90cd3178077","ios":"levelo://app?vid=b6c13302-a8b1-4948-86a3-f90cd3178077"},"vehicle_type_id":"4","last_reported":1724098131,"current_range_meters":31600,"station_id":"ce4bgih2rcd13ifvqba0","pricing_plan_id":"cebpf4jnsgd1na2vs0mg"},{"bike_id":"e2ec5082-b300-468c-8ade-cc892395fafd","system_id":"levelo_inurba_marseille","lat":43.309038,"lon":5.396546,"is_reserved":false,"is_disabled":false,"rental_uris":{"android":"levelo://app?vid=e2ec5082-b300-468c-8ade-cc892395fafd","ios":"levelo://app?vid=e2ec5082-b300-468c-8ade-cc892395fafd"},"vehicle_type_id":"4","last_reported":1724098131,"current_range_meters":28400,"station_id":"ce4bh012rcd13ifvqcv0","pricing_plan_id":"cebpf4jnsgd1na2vs0mg"},{"bike_id":"1002df02-1e3d-48c3-9e6f-dbb9fded5672","system_id":"levelo_inurba_marseille","lat":43.29529,"lon":5.385581,"is_reserved":false,"is_disabled":false,"rental_uris":{"android":"levelo://app?vid=1002df02-1e3d-48c3-9e6f-dbb9fded5672","ios":"levelo://app?vid=1002df02-1e3d-48c3-9e6f-dbb9fded5672"},"vehicle_type_id":"4","last_reported":1724098131,"current_range_meters":17600,"station_id":"ce4bgih2rcd13ifvqba0","pricing_plan_id":"cebpf4jnsgd1na2vs0mg"},{"bike_id":"db4176f5-608f-45d6-bfc8-d565c59072e9","system_id":"levelo_inurba_marseille","lat":43.295263,"lon":5.385337,"is_reserved":false,"is_disabled":false,"rental_uris":{"android":"levelo://app?vid=db4176f5-608f-45d6-bfc8-d565c59072e9","ios":"levelo://app?vid=db4176f5-608f-45d6-bfc8-d565c59072e9"},"vehicle_type_id":"4","last_reported":1724098131,"current_range_meters":11200,"station_id":"ce4bgih2rcd13ifvqba0","pricing_plan_id":"cebpf4jnsgd1na2vs0mg"},{"bike_id":"de5ace81-673a-4d72-b502-28cdac808a60","system_id":"levelo_inurba_marseille","lat":43.29529,"lon":5.385581,"is_reserved":false,"is_disabled":false,"rental_uris":{"android":"levelo://app?vid=de5ace81-673a-4d72-b502-28cdac808a60","ios":"levelo://app?vid=de5ace81-673a-4d72-b502-28cdac808a60"},"vehicle_type_id":"4","last_reported":1724098131,"current_range_meters":15600,"station_id":"ce4bgih2rcd13ifvqba0","pricing_plan_id":"cebpf4jnsgd1na2vs0mg"},{"bike_id":"741e71a8-2d31-4ecc-9262-2da48ea1075a","system_id":"levelo_inurba_marseille","lat":43.29527,"lon":5.38541,"is_reserved":false,"is_disabled":false,"rental_uris":{"android":"levelo://app?vid=741e71a8-2d31-4ecc-9262-2da48ea1075a","ios":"levelo://app?vid=741e71a8-2d31-4ecc-9262-2da48ea1075a"},"vehicle_type_id":"4","last_reported":1724098131,"current_range_meters":9200,"station_id":"ce4bgih2rcd13ifvqba0","pricing_plan_id":"cebpf4jnsgd1na2vs0mg"},{"bike_id":"33b1a1b5-2366-488f-b896-5241f7af5f62","system_id":"levelo_inurba_marseille","lat":43.29532,"lon":5.38551,"is_reserved":false,"is_disabled":false,"rental_uris":{"android":"levelo://app?vid=33b1a1b5-2366-488f-b896-5241f7af5f62","ios":"levelo://app?vid=33b1a1b5-2366-488f-b896-5241f7af5f62"},"vehicle_type_id":"4","last_reported":1724098131,"current_range_meters":6400,"station_id":"ce4bgih2rcd13ifvqba0","pricing_plan_id":"cebpf4jnsgd1na2vs0mg"},{"bike_id":"232734f2-27bf-4251-96bc-99e7be0b6c1c","system_id":"levelo_inurba_marseille","lat":43.302008,"lon":5.394694,"is_reserved":false,"is_disabled":false,"rental_uris":{"android":"levelo://app?vid=232734f2-27bf-4251-96bc-99e7be0b6c1c","ios":"levelo://app?vid=232734f2-27bf-4251-96bc-99e7be0b6c1c"},"vehicle_type_id":"4","last_reported":1724098131,"current_range_meters":400,"station_id":"ce4bh0p2rcd13ifvqd70","pricing_plan_id":"cebpf4jnsgd1na2vs0mg"},{"bike_id":"7a917bed-a34f-4b9c-b700-1981c4261638","system_id":"levelo_inurba_marseille","lat":43.29443,"lon":5.38592,"is_reserved":false,"is_disabled":false,"rental_uris":{"android":"levelo://app?vid=7a917bed-a34f-4b9c-b700-1981c4261638","ios":"levelo://app?vid=7a917bed-a34f-4b9c-b700-1981c4261638"},"vehicle_type_id":"4","last_reported":1724098131,"current_range_meters":18800,"station_id":"ce4bh2h2rcd13ifvqdh0","pricing_plan_id":"cebpf4jnsgd1na2vs0mg"},{"bike_id":"a3d2b135-1739-491b-a9e4-31b50bb5aa13","system_id":"levelo_inurba_marseille","lat":43.2916,"lon":5.37932,"is_reserved":false,"is_disabled":false,"rental_uris":{"android":"levelo://app?vid=a3d2b135-1739-491b-a9e4-31b50bb5aa13","ios":"levelo://app?vid=a3d2b135-1739-491b-a9e4-31b50bb5aa13"},"vehicle_type_id":"4","last_reported":1724098131,"current_range_meters":20400,"station_id":"","pricing_plan_id":"cebpf4jnsgd1na2vs0mg"},{"bike_id":"341258b5-0931-4d4e-ac10-627e019b1a12","system_id":"levelo_inurba_marseille","lat":43.290415,"lon":5.359285,"is_reserved":false,"is_disabled":false,"rental_uris":{"android":"levelo://app?vid=341258b5-0931-4d4e-ac10-627e019b1a12","ios":"levelo://app?vid=341258b5-0931-4d4e-ac10-627e019b1a12"},"vehicle_type_id":"4","last_reported":1724098131,"current_range_meters":19200,"station_id":"ce4bha92rcd13ifvqeg0","pricing_plan_id":"cebpf4jnsgd1na2vs0mg"},{"bike_id":"8d570ed9-da6f-41fc-9db2-1052089fa30e","system_id":"levelo_inurba_marseille","lat":43.29422,"lon":5.38622,"is_reserved":false,"is_disabled":false,"rental_uris":{"android":"levelo://app?vid=8d570ed9-da6f-41fc-9db2-1052089fa30e","ios":"levelo://app?vid=8d570ed9-da6f-41fc-9db2-1052089fa30e"},"vehicle_type_id":"4","last_reported":1724098131,"current_range_meters":16800,"station_id":"ce4bh2h2rcd13ifvqdh0","pricing_plan_id":"cebpf4jnsgd1na2vs0mg"},{"bike_id":"eff2efdb-85ca-478d-ab82-887ff4fceef1","system_id":"levelo_inurba_marseille","lat":43.29421,"lon":5.38624,"is_reserved":false,"is_disabled":false,"rental_uris":{"android":"levelo://app?vid=eff2efdb-85ca-478d-ab82-887ff4fceef1","ios":"levelo://app?vid=eff2efdb-85ca-478d-ab82-887ff4fceef1"},"vehicle_type_id":"4","last_reported":1724098131,"current_range_meters":12400,"station_id":"ce4bh2h2rcd13ifvqdh0","pricing_plan_id":"cebpf4jnsgd1na2vs0mg"},{"bike_id":"43b0dd6e-6c53-44a9-8ede-7db1fcf930e9","system_id":"levelo_inurba_marseille","lat":43.290319,"lon":5.375732,"is_reserved":false,"is_disabled":false,"rental_uris":{"android":"levelo://app?vid=43b0dd6e-6c53-44a9-8ede-7db1fcf930e9","ios":"levelo://app?vid=43b0dd6e-6c53-44a9-8ede-7db1fcf930e9"},"vehicle_type_id":"4","last_reported":1724098131,"current_range_meters":10400,"station_id":"ce4bh692rcd13ifvqe90","pricing_plan_id":"cebpf4jnsgd1na2vs0mg"},{"bike_id":"bf4d2dbb-39f6-4077-aa86-950a186e8167","system_id":"levelo_inurba_marseille","lat":43.29418,"lon":5.38622,"is_reserved":false,"is_disabled":false,"rental_uris":{"android":"levelo://app?vid=bf4d2dbb-39f6-4077-aa86-950a186e8167","ios":"levelo://app?vid=bf4d2dbb-39f6-4077-aa86-950a186e8167"},"vehicle_type_id":"4","last_reported":1724098131,"current_range_meters":0,"station_id":"ce4bh2h2rcd13ifvqdh0","pricing_plan_id":"cebpf4jnsgd1na2vs0mg"},{"bike_id":"bb978d2e-8120-45da-8f1d-3ad98257e6dc","system_id":"levelo_inurba_marseille","lat":43.29418,"lon":5.38624,"is_reserved":false,"is_disabled":false,"rental_uris":{"android":"levelo://app?vid=bb978d2e-8120-45da-8f1d-3ad98257e6dc","ios":"levelo://app?vid=bb978d2e-8120-45da-8f1d-3ad98257e6dc"},"vehicle_type_id":"4","last_reported":1724098131,"current_range_meters":3600,"station_id":"ce4bh2h2rcd13ifvqdh0","pricing_plan_id":"cebpf4jnsgd1na2vs0mg"},{"bike_id":"281ed857-dc46-4ded-872c-cda214914c61","system_id":"levelo_inurba_marseille","lat":43.294162,"lon":5.386292,"is_reserved":false,"is_disabled":false,"rental_uris":{"android":"levelo://app?vid=281ed857-dc46-4ded-872c-cda214914c61","ios":"levelo://app?vid=281ed857-dc46-4ded-872c-cda214914c61"},"vehicle_type_id":"4","last_reported":1724098131,"current_range_meters":0,"station_id":"ce4bh2h2rcd13ifvqdh0","pricing_plan_id":"cebpf4jnsgd1na2vs0mg"},{"bike_id":"d0b0cc38-e4a8-4928-92e4-8c9026be134d","system_id":"levelo_inurba_marseille","lat":43.294162,"lon":5.386292,"is_reserved":false,"is_disabled":false,"rental_uris":{"android":"levelo://app?vid=d0b0cc38-e4a8-4928-92e4-8c9026be134d","ios":"levelo://app?vid=d0b0cc38-e4a8-4928-92e4-8c9026be134d"},"vehicle_type_id":"4","last_reported":1724098131,"current_range_meters":2400,"station_id":"ce4bh2h2rcd13ifvqdh0","pricing_plan_id":"cebpf4jnsgd1na2vs0mg"},{"bike_id":"4ca78ccf-74f8-4eb1-8eeb-970781ad8aa9","system_id":"levelo_inurba_marseille","lat":43.294162,"lon":5.386292,"is_reserved":false,"is_disabled":false,"rental_uris":{"android":"levelo://app?vid=4ca78ccf-74f8-4eb1-8eeb-970781ad8aa9","ios":"levelo://app?vid=4ca78ccf-74f8-4eb1-8eeb-970781ad8aa9"},"vehicle_type_id":"4","last_reported":1724098131,"current_range_meters":0,"station_id":"ce4bh2h2rcd13ifvqdh0","pricing_plan_id":"cebpf4jnsgd1na2vs0mg"},{"bike_id":"7128e038-58eb-4974-bd0f-c609337d05d9","system_id":"levelo_inurba_marseille","lat":43.294162,"lon":5.386292,"is_reserved":false,"is_disabled":false,"rental_uris":{"android":"levelo://app?vid=7128e038-58eb-4974-bd0f-c609337d05d9","ios":"levelo://app?vid=7128e038-58eb-4974-bd0f-c609337d05d9"},"vehicle_type_id":"4","last_reported":1724098131,"current_range_meters":26000,"station_id":"ce4bh2h2rcd13ifvqdh0","pricing_plan_id":"cebpf4jnsgd1na2vs0mg"},{"bike_id":"175d8ba6-aebb-41de-be45-126968fcb751","system_id":"levelo_inurba_marseille","lat":43.290327,"lon":5.375711,"is_reserved":false,"is_disabled":false,"rental_uris":{"android":"levelo://app?vid=175d8ba6-aebb-41de-be45-126968fcb751","ios":"levelo://app?vid=175d8ba6-aebb-41de-be45-126968fcb751"},"vehicle_type_id":"4","last_reported":1724098131,"current_range_meters":8400,"station_id":"ce4bh692rcd13ifvqe90","pricing_plan_id":"cebpf4jnsgd1na2vs0mg"},{"bike_id":"0f3f978b-bf03-43f5-aa44-a686c7d8cf36","system_id":"levelo_inurba_marseille","lat":43.294162,"lon":5.386292,"is_reserved":false,"is_disabled":false,"rental_uris":{"android":"levelo://app?vid=0f3f978b-bf03-43f5-aa44-a686c7d8cf36","ios":"levelo://app?vid=0f3f978b-bf03-43f5-aa44-a686c7d8cf36"},"vehicle_type_id":"4","last_reported":1724098131,"current_range_meters":0,"station_id":"ce4bh2h2rcd13ifvqdh0","pricing_plan_id":"cebpf4jnsgd1na2vs0mg"},{"bike_id":"5de157cb-5f27-45ef-b401-5e0805ae2bc0","system_id":"levelo_inurba_marseille","lat":43.29414,"lon":5.38626,"is_reserved":false,"is_disabled":false,"rental_uris":{"android":"levelo://app?vid=5de157cb-5f27-45ef-b401-5e0805ae2bc0","ios":"levelo://app?vid=5de157cb-5f27-45ef-b401-5e0805ae2bc0"},"vehicle_type_id":"4","last_reported":1724098131,"current_range_meters":0,"station_id":"ce4bh2h2rcd13ifvqdh0","pricing_plan_id":"cebpf4jnsgd1na2vs0mg"},{"bike_id":"7a83f1a9-ee67-43ae-b4ef-5df471229928","system_id":"levelo_inurba_marseille","lat":43.294153,"lon":5.386305,"is_reserved":false,"is_disabled":false,"rental_uris":{"android":"levelo://app?vid=7a83f1a9-ee67-43ae-b4ef-5df471229928","ios":"levelo://app?vid=7a83f1a9-ee67-43ae-b4ef-5df471229928"},"vehicle_type_id":"4","last_reported":1724098131,"current_range_meters":21200,"station_id":"ce4bh2h2rcd13ifvqdh0","pricing_plan_id":"cebpf4jnsgd1na2vs0mg"},{"bike_id":"6de69ece-9e92-4eeb-80c7-1bc4336e4a08","system_id":"levelo_inurba_marseille","lat":43.29415,"lon":5.3863,"is_reserved":false,"is_disabled":false,"rental_uris":{"android":"levelo://app?vid=6de69ece-9e92-4eeb-80c7-1bc4336e4a08","ios":"levelo://app?vid=6de69ece-9e92-4eeb-80c7-1bc4336e4a08"},"vehicle_type_id":"4","last_reported":1724098131,"current_range_meters":0,"station_id":"ce4bh2h2rcd13ifvqdh0","pricing_plan_id":"cebpf4jnsgd1na2vs0mg"},{"bike_id":"dc8c3631-a90a-48f4-b710-3c6f00d20971","system_id":"levelo_inurba_marseille","lat":43.289348,"lon":5.363978,"is_reserved":false,"is_disabled":false,"rental_uris":{"android":"levelo://app?vid=dc8c3631-a90a-48f4-b710-3c6f00d20971","ios":"levelo://app?vid=dc8c3631-a90a-48f4-b710-3c6f00d20971"},"vehicle_type_id":"4","last_reported":1724098131,"current_range_meters":0,"station_id":"ce4bhc92rcd13ifvqetg","pricing_plan_id":"cebpf4jnsgd1na2vs0mg"},{"bike_id":"2368aa2b-cd4b-485f-abac-e61dbedc0107","system_id":"levelo_inurba_marseille","lat":43.292644,"lon":5.384257,"is_reserved":false,"is_disabled":false,"rental_uris":{"android":"levelo://app?vid=2368aa2b-cd4b-485f-abac-e61dbedc0107","ios":"levelo://app?vid=2368aa2b-cd4b-485f-abac-e61dbedc0107"},"vehicle_type_id":"4","last_reported":1724098131,"current_range_meters":26800,"station_id":"ce4bh692rcd13ifvqea0","pricing_plan_id":"cebpf4jnsgd1na2vs0mg"},{"bike_id":"520b2a5d-2b20-42f7-971c-7689c88c1073","system_id":"levelo_inurba_marseille","lat":43.29271,"lon":5.38451,"is_reserved":false,"is_disabled":false,"rental_uris":{"android":"levelo://app?vid=520b2a5d-2b20-42f7-971c-7689c88c1073","ios":"levelo://app?vid=520b2a5d-2b20-42f7-971c-7689c88c1073"},"vehicle_type_id":"4","last_reported":1724098131,"current_range_meters":0,"station_id":"ce4bh692rcd13ifvqea0","pricing_plan_id":"cebpf4jnsgd1na2vs0mg"},{"bike_id":"74d3223b-5db9-4c49-94b9-e392d80e947f","system_id":"levelo_inurba_marseille","lat":43.29267,"lon":5.38443,"is_reserved":false,"is_disabled":false,"rental_uris":{"android":"levelo://app?vid=74d3223b-5db9-4c49-94b9-e392d80e947f","ios":"levelo://app?vid=74d3223b-5db9-4c49-94b9-e392d80e947f"},"vehicle_type_id":"4","last_reported":1724098131,"current_range_meters":0,"station_id":"ce4bh692rcd13ifvqea0","pricing_plan_id":"cebpf4jnsgd1na2vs0mg"},{"bike_id":"a434a99b-a9c9-4f1e-a25e-ffea363ab564","system_id":"levelo_inurba_marseille","lat":43.292644,"lon":5.384257,"is_reserved":false,"is_disabled":false,"rental_uris":{"android":"levelo://app?vid=a434a99b-a9c9-4f1e-a25e-ffea363ab564","ios":"levelo://app?vid=a434a99b-a9c9-4f1e-a25e-ffea363ab564"},"vehicle_type_id":"4","last_reported":1724098131,"current_range_meters":11200,"station_id":"ce4bh692rcd13ifvqea0","pricing_plan_id":"cebpf4jnsgd1na2vs0mg"},{"bike_id":"2f22dee9-2c28-45ca-a0c8-62df883e194a","system_id":"levelo_inurba_marseille","lat":43.292644,"lon":5.384257,"is_reserved":false,"is_disabled":false,"rental_uris":{"android":"levelo://app?vid=2f22dee9-2c28-45ca-a0c8-62df883e194a","ios":"levelo://app?vid=2f22dee9-2c28-45ca-a0c8-62df883e194a"},"vehicle_type_id":"4","last_reported":1724098131,"current_range_meters":19200,"station_id":"ce4bh692rcd13ifvqea0","pricing_plan_id":"cebpf4jnsgd1na2vs0mg"},{"bike_id":"236a739e-70b2-492b-8bcf-46a81654364d","system_id":"levelo_inurba_marseille","lat":43.292644,"lon":5.384257,"is_reserved":false,"is_disabled":false,"rental_uris":{"android":"levelo://app?vid=236a739e-70b2-492b-8bcf-46a81654364d","ios":"levelo://app?vid=236a739e-70b2-492b-8bcf-46a81654364d"},"vehicle_type_id":"4","last_reported":1724098131,"current_range_meters":2400,"station_id":"ce4bh692rcd13ifvqea0","pricing_plan_id":"cebpf4jnsgd1na2vs0mg"},{"bike_id":"c1f87479-72cc-428e-85e6-bab81b3e6cb8","system_id":"levelo_inurba_marseille","lat":43.29265,"lon":5.384485,"is_reserved":false,"is_disabled":false,"rental_uris":{"android":"levelo://app?vid=c1f87479-72cc-428e-85e6-bab81b3e6cb8","ios":"levelo://app?vid=c1f87479-72cc-428e-85e6-bab81b3e6cb8"},"vehicle_type_id":"4","last_reported":1724098131,"current_range_meters":0,"station_id":"ce4bh692rcd13ifvqea0","pricing_plan_id":"cebpf4jnsgd1na2vs0mg"},{"bike_id":"f63b9228-1053-4f5a-ba2e-e8abfa540cb7","system_id":"levelo_inurba_marseille","lat":43.29258,"lon":5.38435,"is_reserved":false,"is_disabled":false,"rental_uris":{"android":"levelo://app?vid=f63b9228-1053-4f5a-ba2e-e8abfa540cb7","ios":"levelo://app?vid=f63b9228-1053-4f5a-ba2e-e8abfa540cb7"},"vehicle_type_id":"4","last_reported":1724098131,"current_range_meters":0,"station_id":"ce4bh692rcd13ifvqea0","pricing_plan_id":"cebpf4jnsgd1na2vs0mg"},{"bike_id":"74444a3a-b9fa-4e2b-8033-678e807ca36f","system_id":"levelo_inurba_marseille","lat":43.292642,"lon":5.384254,"is_reserved":false,"is_disabled":false,"rental_uris":{"android":"levelo://app?vid=74444a3a-b9fa-4e2b-8033-678e807ca36f","ios":"levelo://app?vid=74444a3a-b9fa-4e2b-8033-678e807ca36f"},"vehicle_type_id":"4","last_reported":1724098131,"current_range_meters":26800,"station_id":"ce4bh692rcd13ifvqea0","pricing_plan_id":"cebpf4jnsgd1na2vs0mg"},{"bike_id":"7e36f04e-b3d3-4be2-8d7f-4f5dc0113a27","system_id":"levelo_inurba_marseille","lat":43.292642,"lon":5.384254,"is_reserved":false,"is_disabled":false,"rental_uris":{"android":"levelo://app?vid=7e36f04e-b3d3-4be2-8d7f-4f5dc0113a27","ios":"levelo://app?vid=7e36f04e-b3d3-4be2-8d7f-4f5dc0113a27"},"vehicle_type_id":"4","last_reported":1724098131,"current_range_meters":28000,"station_id":"ce4bh692rcd13ifvqea0","pricing_plan_id":"cebpf4jnsgd1na2vs0mg"},{"bike_id":"70b0afe7-7834-4174-af42-d8f1d6370504","system_id":"levelo_inurba_marseille","lat":43.292644,"lon":5.384257,"is_reserved":false,"is_disabled":false,"rental_uris":{"android":"levelo://app?vid=70b0afe7-7834-4174-af42-d8f1d6370504","ios":"levelo://app?vid=70b0afe7-7834-4174-af42-d8f1d6370504"},"vehicle_type_id":"4","last_reported":1724098131,"current_range_meters":22800,"station_id":"ce4bh692rcd13ifvqea0","pricing_plan_id":"cebpf4jnsgd1na2vs0mg"},{"bike_id":"e2613351-3ce1-4785-91a8-cafa5a4b4756","system_id":"levelo_inurba_marseille","lat":43.292644,"lon":5.384257,"is_reserved":false,"is_disabled":false,"rental_uris":{"android":"levelo://app?vid=e2613351-3ce1-4785-91a8-cafa5a4b4756","ios":"levelo://app?vid=e2613351-3ce1-4785-91a8-cafa5a4b4756"},"vehicle_type_id":"4","last_reported":1724098131,"current_range_meters":18800,"station_id":"ce4bh692rcd13ifvqea0","pricing_plan_id":"cebpf4jnsgd1na2vs0mg"},{"bike_id":"b8734542-50b3-4c45-80a7-fed12626b2c5","system_id":"levelo_inurba_marseille","lat":43.29252,"lon":5.38443,"is_reserved":false,"is_disabled":false,"rental_uris":{"android":"levelo://app?vid=b8734542-50b3-4c45-80a7-fed12626b2c5","ios":"levelo://app?vid=b8734542-50b3-4c45-80a7-fed12626b2c5"},"vehicle_type_id":"4","last_reported":1724098131,"current_range_meters":0,"station_id":"ce4bh692rcd13ifvqea0","pricing_plan_id":"cebpf4jnsgd1na2vs0mg"},{"bike_id":"6a9371ec-e8f2-4c1b-8359-80efab47cf99","system_id":"levelo_inurba_marseille","lat":43.290104,"lon":5.356111,"is_reserved":false,"is_disabled":false,"rental_uris":{"android":"levelo://app?vid=6a9371ec-e8f2-4c1b-8359-80efab47cf99","ios":"levelo://app?vid=6a9371ec-e8f2-4c1b-8359-80efab47cf99"},"vehicle_type_id":"4","last_reported":1724098131,"current_range_meters":6000,"station_id":"ce4bhb92rcd13ifvqen0","pricing_plan_id":"cebpf4jnsgd1na2vs0mg"},{"bike_id":"94c8019c-2f1d-4912-9de7-a84bd8c87712","system_id":"levelo_inurba_marseille","lat":43.29004,"lon":5.35613,"is_reserved":false,"is_disabled":false,"rental_uris":{"android":"levelo://app?vid=94c8019c-2f1d-4912-9de7-a84bd8c87712","ios":"levelo://app?vid=94c8019c-2f1d-4912-9de7-a84bd8c87712"},"vehicle_type_id":"4","last_reported":1724098131,"current_range_meters":31200,"station_id":"ce4bhb92rcd13ifvqen0","pricing_plan_id":"cebpf4jnsgd1na2vs0mg"},{"bike_id":"c453cca0-d412-4815-9289-7e5c38a00b3d","system_id":"levelo_inurba_marseille","lat":43.290104,"lon":5.356111,"is_reserved":false,"is_disabled":false,"rental_uris":{"android":"levelo://app?vid=c453cca0-d412-4815-9289-7e5c38a00b3d","ios":"levelo://app?vid=c453cca0-d412-4815-9289-7e5c38a00b3d"},"vehicle_type_id":"4","last_reported":1724098131,"current_range_meters":30400,"station_id":"ce4bhb92rcd13ifvqen0","pricing_plan_id":"cebpf4jnsgd1na2vs0mg"},{"bike_id":"005594ea-ac53-457d-bc8a-e3629a6849e1","system_id":"levelo_inurba_marseille","lat":43.290103,"lon":5.356114,"is_reserved":false,"is_disabled":false,"rental_uris":{"android":"levelo://app?vid=005594ea-ac53-457d-bc8a-e3629a6849e1","ios":"levelo://app?vid=005594ea-ac53-457d-bc8a-e3629a6849e1"},"vehicle_type_id":"4","last_reported":1724098131,"current_range_meters":4000,"station_id":"ce4bhb92rcd13ifvqen0","pricing_plan_id":"cebpf4jnsgd1na2vs0mg"},{"bike_id":"f015b82a-df1a-4ed4-8617-669be02408a1","system_id":"levelo_inurba_marseille","lat":43.290104,"lon":5.356111,"is_reserved":false,"is_disabled":false,"rental_uris":{"android":"levelo://app?vid=f015b82a-df1a-4ed4-8617-669be02408a1","ios":"levelo://app?vid=f015b82a-df1a-4ed4-8617-669be02408a1"},"vehicle_type_id":"4","last_reported":1724098131,"current_range_meters":4400,"station_id":"ce4bhb92rcd13ifvqen0","pricing_plan_id":"cebpf4jnsgd1na2vs0mg"},{"bike_id":"6fb3d929-f51f-4ebf-b1c9-4b4f6a40a2ef","system_id":"levelo_inurba_marseille","lat":43.29002,"lon":5.35607,"is_reserved":false,"is_disabled":false,"rental_uris":{"android":"levelo://app?vid=6fb3d929-f51f-4ebf-b1c9-4b4f6a40a2ef","ios":"levelo://app?vid=6fb3d929-f51f-4ebf-b1c9-4b4f6a40a2ef"},"vehicle_type_id":"4","last_reported":1724098131,"current_range_meters":13200,"station_id":"","pricing_plan_id":"cebpf4jnsgd1na2vs0mg"},{"bike_id":"4e89cf44-a3e9-4fe1-ba3f-36e989e5e9cb","system_id":"levelo_inurba_marseille","lat":43.290995,"lon":5.381361,"is_reserved":false,"is_disabled":false,"rental_uris":{"android":"levelo://app?vid=4e89cf44-a3e9-4fe1-ba3f-36e989e5e9cb","ios":"levelo://app?vid=4e89cf44-a3e9-4fe1-ba3f-36e989e5e9cb"},"vehicle_type_id":"4","last_reported":1724098131,"current_range_meters":16400,"station_id":"ce4bh512rcd13ifvqe2g","pricing_plan_id":"cebpf4jnsgd1na2vs0mg"},{"bike_id":"220fe97f-8a3c-4706-bbb7-7a62069428fa","system_id":"levelo_inurba_marseille","lat":43.295169,"lon":5.390426,"is_reserved":false,"is_disabled":false,"rental_uris":{"android":"levelo://app?vid=220fe97f-8a3c-4706-bbb7-7a62069428fa","ios":"levelo://app?vid=220fe97f-8a3c-4706-bbb7-7a62069428fa"},"vehicle_type_id":"4","last_reported":1724098131,"current_range_meters":12400,"station_id":"ce4bh3p2rcd13ifvqdp0","pricing_plan_id":"cebpf4jnsgd1na2vs0mg"},{"bike_id":"56f18044-8659-4922-a5a9-9d9121d7946f","system_id":"levelo_inurba_marseille","lat":43.297815,"lon":5.393548,"is_reserved":false,"is_disabled":false,"rental_uris":{"android":"levelo://app?vid=56f18044-8659-4922-a5a9-9d9121d7946f","ios":"levelo://app?vid=56f18044-8659-4922-a5a9-9d9121d7946f"},"vehicle_type_id":"4","last_reported":1724098131,"current_range_meters":22400,"station_id":"chh1huq6cuj3fo74tm60","pricing_plan_id":"cebpf4jnsgd1na2vs0mg"},{"bike_id":"b303184a-79fd-4227-b6a2-62026a37f90d","system_id":"levelo_inurba_marseille","lat":43.297807,"lon":5.393533,"is_reserved":false,"is_disabled":false,"rental_uris":{"android":"levelo://app?vid=b303184a-79fd-4227-b6a2-62026a37f90d","ios":"levelo://app?vid=b303184a-79fd-4227-b6a2-62026a37f90d"},"vehicle_type_id":"4","last_reported":1724098131,"current_range_meters":27600,"station_id":"chh1huq6cuj3fo74tm60","pricing_plan_id":"cebpf4jnsgd1na2vs0mg"},{"bike_id":"3e31e7fd-06bd-4b2e-a980-a1b3978288f8","system_id":"levelo_inurba_marseille","lat":43.29516,"lon":5.39005,"is_reserved":false,"is_disabled":false,"rental_uris":{"android":"levelo://app?vid=3e31e7fd-06bd-4b2e-a980-a1b3978288f8","ios":"levelo://app?vid=3e31e7fd-06bd-4b2e-a980-a1b3978288f8"},"vehicle_type_id":"4","last_reported":1724098131,"current_range_meters":15200,"station_id":"ce4bh3p2rcd13ifvqdp0","pricing_plan_id":"cebpf4jnsgd1na2vs0mg"},{"bike_id":"c2ac57f1-ee9a-4d6a-b498-2ad5e661540b","system_id":"levelo_inurba_marseille","lat":43.297815,"lon":5.393548,"is_reserved":false,"is_disabled":false,"rental_uris":{"android":"levelo://app?vid=c2ac57f1-ee9a-4d6a-b498-2ad5e661540b","ios":"levelo://app?vid=c2ac57f1-ee9a-4d6a-b498-2ad5e661540b"},"vehicle_type_id":"4","last_reported":1724098131,"current_range_meters":0,"station_id":"chh1huq6cuj3fo74tm60","pricing_plan_id":"cebpf4jnsgd1na2vs0mg"},{"bike_id":"6698728d-047a-48dd-a6d1-4ef3465671af","system_id":"levelo_inurba_marseille","lat":43.295169,"lon":5.390426,"is_reserved":false,"is_disabled":false,"rental_uris":{"android":"levelo://app?vid=6698728d-047a-48dd-a6d1-4ef3465671af","ios":"levelo://app?vid=6698728d-047a-48dd-a6d1-4ef3465671af"},"vehicle_type_id":"4","last_reported":1724098131,"current_range_meters":10000,"station_id":"ce4bh3p2rcd13ifvqdp0","pricing_plan_id":"cebpf4jnsgd1na2vs0mg"},{"bike_id":"de4e3623-62d9-4052-b195-2f6fbf213faa","system_id":"levelo_inurba_marseille","lat":43.29529,"lon":5.390323,"is_reserved":false,"is_disabled":false,"rental_uris":{"android":"levelo://app?vid=de4e3623-62d9-4052-b195-2f6fbf213faa","ios":"levelo://app?vid=de4e3623-62d9-4052-b195-2f6fbf213faa"},"vehicle_type_id":"4","last_reported":1724098131,"current_range_meters":24800,"station_id":"ce4bh3p2rcd13ifvqdp0","pricing_plan_id":"cebpf4jnsgd1na2vs0mg"},{"bike_id":"8b6ed811-0ed1-424d-92a0-b7a3afc5a8e0","system_id":"levelo_inurba_marseille","lat":43.297807,"lon":5.393533,"is_reserved":false,"is_disabled":false,"rental_uris":{"android":"levelo://app?vid=8b6ed811-0ed1-424d-92a0-b7a3afc5a8e0","ios":"levelo://app?vid=8b6ed811-0ed1-424d-92a0-b7a3afc5a8e0"},"vehicle_type_id":"4","last_reported":1724098131,"current_range_meters":5200,"station_id":"chh1huq6cuj3fo74tm60","pricing_plan_id":"cebpf4jnsgd1na2vs0mg"},