{"last_updated":1747544983,"ttl":60,"version":"2.2","data":{"bikes":[{"bike_id":"3193ad55-2474-4440-81b7-a1e4a46d043c","system_id":"levelo_inurba_marseille","lat":43.2846,"lon":5.35889,"is_reserved":false,"is_disabled":false,"rental_uris":{"android":"levelo://app?vid=3193ad55-2474-4440-81b7-a1e4a46d043c","ios":"levelo://app?vid=3193ad55-2474-4440-81b7-a1e4a46d043c"},"vehicle_type_id":"4","last_reported":1747544983,"current_range_meters":2800,"station_id":"ce4bhah2rcd13ifvqei0","pricing_plan_id":"cebpf4jnsgd1na2vs0mg"},{"bike_id":"d2153235-f52a-4124-9d72-3a91fea52bbe","system_id":"levelo_inurba_marseille","lat":43.31325,"lon":5.39726,"is_reserved":false,"is_disabled":false,"rental_uris":{"android":"levelo://app?vid=d2153235-f52a-4124-9d72-3a91fea52bbe","ios":"levelo://app?vid=d2153235-f52a-4124-9d72-3a91fea52bbe"},"vehicle_type_id":"4","last_reported":1747544983,"current_range_meters":2800,"station_id":"ce4bgvp2rcd13ifvqcu0","pricing_plan_id":"cebpf4jnsgd1na2vs0mg"},{"bike_id":"67ac088a-4538-4dec-b4fb-3ce44990ecf0","system_id":"levelo_inurba_marseille","lat":43.241771,"lon":5.39731,"is_reserved":false,"is_disabled":false,"rental_uris":{"android":"levelo://app?vid=67ac088a-4538-4dec-b4fb-3ce44990ecf0","ios":"levelo://app?vid=67ac088a-4538-4dec-b4fb-3ce44990ecf0"},"vehicle_type_id":"4","last_reported":1747544983,"current_range_meters":2800,"station_id":"ce4bhn12rcd13ifvqgpg","pricing_plan_id":"cebpf4jnsgd1na2vs0mg"},{"bike_id":"c0b9fd4f-e181-46ce-b0bf-f5119973334f","system_id":"levelo_inurba_marseille","lat":43.33771,"lon":5.37424,"is_reserved":false,"is_disabled":false,"rental_uris":{"android":"levelo://app?vid=c0b9fd4f-e181-46ce-b0bf-f5119973334f","ios":"levelo://app?vid=c0b9fd4f-e181-46ce-b0bf-f5119973334f"},"vehicle_type_id":"4","last_reported":1747544983,"current_range_meters":2800,"station_id":"","pricing_plan_id":"cebpf4jnsgd1na2vs0mg"},{"bike_id":"9f0c1fb2-960c-4ed7-992e-e8d2729e9fd5","system_id":"levelo_inurba_marseille","lat":43.30801,"lon":5.38157,"is_reserved":false,"is_disabled":false,"rental_uris":{"android":"levelo://app?vid=9f0c1fb2-960c-4ed7-992e-e8d2729e9fd5","ios":"levelo://app?vid=9f0c1fb2-960c-4ed7-992e-e8d2729e9fd5"},"vehicle_type_id":"4","last_reported":1747544983,"current_range_meters":3200,"station_id":"ce4bgt12rcd13ifvqce0","pricing_plan_id":"cebpf4jnsgd1na2vs0mg"},{"bike_id":"206eb918-ba6a-41e3-bf08-d57e5b278296","system_id":"levelo_inurba_marseille","lat":43.30307,"lon":5.3921,"is_reserved":false,"is_disabled":false,"rental_uris":{"android":"levelo://app?vid=206eb918-ba6a-41e3-bf08-d57e5b278296","ios":"levelo://app?vid=206eb918-ba6a-41e3-bf08-d57e5b278296"},"vehicle_type_id":"4","last_reported":1747544983,"current_range_meters":3200,"station_id":"ce4bgkh2rcd13ifvqbk0","pricing_plan_id":"cebpf4jnsgd1na2vs0mg"},{"bike_id":"6e612e7b-28be-478c-9618-97651a5de57b","system_id":"levelo_inurba_marseille","lat":43.24662,"lon":5.395756,"is_reserved":false,"is_disabled":false,"rental_uris":{"android":"levelo://app?vid=6e612e7b-28be-478c-9618-97651a5de57b","ios":"levelo://app?vid=6e612e7b-28be-478c-9618-97651a5de57b"},"vehicle_type_id":"4","last_reported":1747544983,"current_range_meters":3600,"station_id":"","pricing_plan_id":"cebpf4jnsgd1na2vs0mg"},{"bike_id":"ab7c2cbf-d2a6-486b-adbe-731d3f7954f0","system_id":"levelo_inurba_marseille","lat":43.30294,"lon":5.39226,"is_reserved":false,"is_disabled":true,"rental_uris":{"android":"levelo://app?vid=ab7c2cbf-d2a6-486b-adbe-731d3f7954f0","ios":"levelo://app?vid=ab7c2cbf-d2a6-486b-adbe-731d3f7954f0"},"vehicle_type_id":"4","last_reported":1747544983,"current_range_meters":3600,"station_id":"ce4bgkh2rcd13ifvqbk0","pricing_plan_id":"cebpf4jnsgd1na2vs0mg"},{"bike_id":"74ebbf72-e768-4228-bb55-9d74feb70a79","system_id":"levelo_inurba_marseille","lat":43.285649,"lon":5.394926,"is_reserved":false,"is_disabled":false,"rental_uris":{"android":"levelo://app?vid=74ebbf72-e768-4228-bb55-9d74feb70a79","ios":"levelo://app?vid=74ebbf72-e768-4228-bb55-9d74feb70a79"},"vehicle_type_id":"4","last_reported":1747544983,"current_range_meters":4000,"station_id":"ce4bh292rcd13ifvqdg0","pricing_plan_id":"cebpf4jnsgd1na2vs0mg"},{"bike_id":"8d9ba2d4-285a-4b19-a29a-35397ef9dad5","system_id":"levelo_inurba_marseille","lat":43.29029,"lon":5.38638,"is_reserved":false,"is_disabled":false,"rental_uris":{"android":"levelo://app?vid=8d9ba2d4-285a-4b19-a29a-35397ef9dad5","ios":"levelo://app?vid=8d9ba2d4-285a-4b19-a29a-35397ef9dad5"},"vehicle_type_id":"4","last_reported":1747544983,"current_range_meters":4000,"station_id":"ce4bh4p2rcd13ifvqe0g","pricing_plan_id":"cebpf4jnsgd1na2vs0mg"},{"bike_id":"3200028d-adb7-46d7-854a-0d16d1a6f998","system_id":"levelo_inurba_marseille","lat":43.297919,"lon":5.380881,"is_reserved":false,"is_disabled":true,"rental_uris":{"android":"levelo://app?vid=3200028d-adb7-46d7-854a-0d16d1a6f998","ios":"levelo://app?vid=3200028d-adb7-46d7-854a-0d16d1a6f998"},"vehicle_type_id":"4","last_reported":1747544983,"current_range_meters":4000,"station_id":"ce4bgip2rcd13ifvqbb0","pricing_plan_id":"cebpf4jnsgd1na2vs0mg"},{"bike_id":"6906f954-bb21-4ff3-9038-904a598decd8","system_id":"levelo_inurba_marseille","lat":43.286896,"lon":5.374075,"is_reserved":false,"is_disabled":false,"rental_uris":{"android":"levelo://app?vid=6906f954-bb21-4ff3-9038-904a598decd8","ios":"levelo://app?vid=6906f954-bb21-4ff3-9038-904a598decd8"},"vehicle_type_id":"4","last_reported":1747544983,"current_range_meters":4000,"station_id":"ce4bh3p2rcd13ifvqdq0","pricing_plan_id":"cebpf4jnsgd1na2vs0mg"},{"bike_id":"c6af509c-e30d-4e63-9de6-6f238c80ed2c","system_id":"levelo_inurba_marseille","lat":43.31709,"lon":5.40445,"is_reserved":false,"is_disabled":false,"rental_uris":{"android":"levelo://app?vid=c6af509c-e30d-4e63-9de6-6f238c80ed2c","ios":"levelo://app?vid=c6af509c-e30d-4e63-9de6-6f238c80ed2c"},"vehicle_type_id":"4","last_reported":1747544983,"current_range_meters":4000,"station_id":"ce4bh012rcd13ifvqd00","pricing_plan_id":"cebpf4jnsgd1na2vs0mg"},{"bike_id":"247923c1-8cb9-486a-8e5a-c9b973edfdcc","system_id":"levelo_inurba_marseille","lat":43.284033,"lon":5.375211,"is_reserved":false,"is_disabled":false,"rental_uris":{"android":"levelo://app?vid=247923c1-8cb9-486a-8e5a-c9b973edfdcc","ios":"levelo://app?vid=247923c1-8cb9-486a-8e5a-c9b973edfdcc"},"vehicle_type_id":"4","last_reported":1747544983,"current_range_meters":4000,"station_id":"ce4bh412rcd13ifvqds0","pricing_plan_id":"cebpf4jnsgd1na2vs0mg"},{"bike_id":"a4063de7-3465-4b39-9bf8-ef1a75de7c2d","system_id":"levelo_inurba_marseille","lat":43.28576,"lon":5.461,"is_reserved":false,"is_disabled":false,"rental_uris":{"android":"levelo://app?vid=a4063de7-3465-4b39-9bf8-ef1a75de7c2d","ios":"levelo://app?vid=a4063de7-3465-4b39-9bf8-ef1a75de7c2d"},"vehicle_type_id":"4","last_reported":1747544983,"current_range_meters":4000,"station_id":"","pricing_plan_id":"cebpf4jnsgd1na2vs0mg"},{"bike_id":"44953568-b48b-4665-a85b-d42a09e1a988","system_id":"levelo_inurba_marseille","lat":43.260647,"lon":5.394006,"is_reserved":false,"is_disabled":false,"rental_uris":{"android":"levelo://app?vid=44953568-b48b-4665-a85b-d42a09e1a988","ios":"levelo://app?vid=44953568-b48b-4665-a85b-d42a09e1a988"},"vehicle_type_id":"4","last_reported":1747544983,"current_range_meters":4000,"station_id":"ce4bhh92rcd13ifvqfj0","pricing_plan_id":"cebpf4jnsgd1na2vs0mg"},{"bike_id":"c4842f2c-2caf-42cd-a69f-adb966206205","system_id":"levelo_inurba_marseille","lat":43.304266,"lon":5.388768,"is_reserved":false,"is_disabled":false,"rental_uris":{"android":"levelo://app?vid=c4842f2c-2caf-42cd-a69f-adb966206205","ios":"levelo://app?vid=c4842f2c-2caf-42cd-a69f-adb966206205"},"vehicle_type_id":"4","last_reported":1747544983,"current_range_meters":4000,"station_id":"ce4bgk12rcd13ifvqbi0","pricing_plan_id":"cebpf4jnsgd1na2vs0mg"},{"bike_id":"343caff8-66ae-48de-8ad2-12268cecda98","system_id":"levelo_inurba_marseille","lat":43.241703,"lon":5.363978,"is_reserved":false,"is_disabled":false,"rental_uris":{"android":"levelo://app?vid=343caff8-66ae-48de-8ad2-12268cecda98","ios":"levelo://app?vid=343caff8-66ae-48de-8ad2-12268cecda98"},"vehicle_type_id":"4","last_reported":1747544983,"current_range_meters":4000,"station_id":"cpo36qri1sfpv3e86is0","pricing_plan_id":"cebpf4jnsgd1na2vs0mg"},{"bike_id":"1676ddb4-29a5-4180-a7d8-067d530fbaf5","system_id":"levelo_inurba_marseille","lat":43.28857,"lon":5.35856,"is_reserved":false,"is_disabled":false,"rental_uris":{"android":"levelo://app?vid=1676ddb4-29a5-4180-a7d8-067d530fbaf5","ios":"levelo://app?vid=1676ddb4-29a5-4180-a7d8-067d530fbaf5"},"vehicle_type_id":"4","last_reported":1747544983,"current_range_meters":4000,"station_id":"ce4bhb12rcd13ifvqem0","pricing_plan_id":"cebpf4jnsgd1na2vs0mg"},{"bike_id":"69aa41dd-00d4-4743-85c7-2382bfa71cba","system_id":"levelo_inurba_marseille","lat":43.28413,"lon":5.39135,"is_reserved":false,"is_disabled":false,"rental_uris":{"android":"levelo://app?vid=69aa41dd-00d4-4743-85c7-2382bfa71cba","ios":"levelo://app?vid=69aa41dd-00d4-4743-85c7-2382bfa71cba"},"vehicle_type_id":"4","last_reported":1747544983,"current_range_meters":4400,"station_id":"ce4bhoh2rcd13ifvqh5g","pricing_plan_id":"cebpf4jnsgd1na2vs0mg"},{"bike_id":"9dd0dc4e-2f10-4b94-9194-fefea78e6d31","system_id":"levelo_inurba_marseille","lat":43.29571,"lon":5.42275,"is_reserved":false,"is_disabled":false,"rental_uris":{"android":"levelo://app?vid=9dd0dc4e-2f10-4b94-9194-fefea78e6d31","ios":"levelo://app?vid=9dd0dc4e-2f10-4b94-9194-fefea78e6d31"},"vehicle_type_id":"4","last_reported":1747544983,"current_range_meters":4400,"station_id":"ce4bhph2rcd13ifvqhdg","pricing_plan_id":"cebpf4jnsgd1na2vs0mg"},{"bike_id":"5e16ea8f-95fb-446c-ab51-fae1112c0aff","system_id":"levelo_inurba_marseille","lat":43.25912,"lon":5.40902,"is_reserved":false,"is_disabled":false,"rental_uris":{"android":"levelo://app?vid=5e16ea8f-95fb-446c-ab51-fae1112c0aff","ios":"levelo://app?vid=5e16ea8f-95fb-446c-ab51-fae1112c0aff"},"vehicle_type_id":"4","last_reported":1747544983,"current_range_meters":4400,"station_id":"ce4bhm92rcd13ifvqglg","pricing_plan_id":"cebpf4jnsgd1na2vs0mg"},{"bike_id":"6658a317-2c85-4f72-b81a-fe1f5c7392e1","system_id":"levelo_inurba_marseille","lat":43.245444,"lon":5.395237,"is_reserved":false,"is_disabled":false,"rental_uris":{"android":"levelo://app?vid=6658a317-2c85-4f72-b81a-fe1f5c7392e1","ios":"levelo://app?vid=6658a317-2c85-4f72-b81a-fe1f5c7392e1"},"vehicle_type_id":"4","last_reported":1747544983,"current_range_meters":4400,"station_id":"ce4bhlp2rcd13ifvqgjg","pricing_plan_id":"cebpf4jnsgd1na2vs0mg"},{"bike_id":"e5faa87c-800f-4c13-bb95-4090fd787427","system_id":"levelo_inurba_marseille","lat":43.23315,"lon":5.39979,"is_reserved":false,"is_disabled":false,"rental_uris":{"android":"levelo://app?vid=e5faa87c-800f-4c13-bb95-4090fd787427","ios":"levelo://app?vid=e5faa87c-800f-4c13-bb95-4090fd787427"},"vehicle_type_id":"4","last_reported":1747544983,"current_range_meters":4400,"station_id":"","pricing_plan_id":"cebpf4jnsgd1na2vs0mg"},{"bike_id":"61d97dca-c1b9-4058-b0f9-5c4be17ad254","system_id":"levelo_inurba_marseille","lat":43.26232,"lon":5.40486,"is_reserved":false,"is_disabled":false,"rental_uris":{"android":"levelo://app?vid=61d97dca-c1b9-4058-b0f9-5c4be17ad254","ios":"levelo://app?vid=61d97dca-c1b9-4058-b0f9-5c4be17ad254"},"vehicle_type_id":"4","last_reported":1747544983,"current_range_meters":4400,"station_id":"ce4bhmh2rcd13ifvqgmg","pricing_plan_id":"cebpf4jnsgd1na2vs0mg"},{"bike_id":"6d500971-4353-4229-b3cf-3802b55a172e","system_id":"levelo_inurba_marseille","lat":43.25573,"lon":5.38262,"is_reserved":false,"is_disabled":false,"rental_uris":{"android":"levelo://app?vid=6d500971-4353-4229-b3cf-3802b55a172e","ios":"levelo://app?vid=6d500971-4353-4229-b3cf-3802b55a172e"},"vehicle_type_id":"4","last_reported":1747544983,"current_range_meters":4800,"station_id":"ce4bhih2rcd13ifvqfs0","pricing_plan_id":"cebpf4jnsgd1na2vs0mg"},{"bike_id":"3fa58c22-00c6-48db-914d-ec2861a3d890","system_id":"levelo_inurba_marseille","lat":43.31081,"lon":5.402308,"is_reserved":false,"is_disabled":false,"rental_uris":{"android":"levelo://app?vid=3fa58c22-00c6-48db-914d-ec2861a3d890","ios":"levelo://app?vid=3fa58c22-00c6-48db-914d-ec2861a3d890"},"vehicle_type_id":"4","last_reported":1747544983,"current_range_meters":4800,"station_id":"","pricing_plan_id":"cebpf4jnsgd1na2vs0mg"},{"bike_id":"9b9e79af-a96c-43c3-9679-d942d955b379","system_id":"levelo_inurba_marseille","lat":43.283624,"lon":5.386434,"is_reserved":false,"is_disabled":false,"rental_uris":{"android":"levelo://app?vid=9b9e79af-a96c-43c3-9679-d942d955b379","ios":"levelo://app?vid=9b9e79af-a96c-43c3-9679-d942d955b379"},"vehicle_type_id":"4","last_reported":1747544983,"current_range_meters":5600,"station_id":"ce4bh492rcd13ifvqdvg","pricing_plan_id":"cebpf4jnsgd1na2vs0mg"},{"bike_id":"6cd5c425-f8ac-4068-b8ea-a8bfbef29ee5","system_id":"levelo_inurba_marseille","lat":43.249885,"lon":5.379406,"is_reserved":false,"is_disabled":false,"rental_uris":{"android":"levelo://app?vid=6cd5c425-f8ac-4068-b8ea-a8bfbef29ee5","ios":"levelo://app?vid=6cd5c425-f8ac-4068-b8ea-a8bfbef29ee5"},"vehicle_type_id":"4","last_reported":1747544983,"current_range_meters":5600,"station_id":"","pricing_plan_id":"cebpf4jnsgd1na2vs0mg"},{"bike_id":"4d8c250d-3928-4865-ae84-e1d02ffdbb75","system_id":"levelo_inurba_marseille","lat":43.28701,"lon":5.39991,"is_reserved":false,"is_disabled":false,"rental_uris":{"android":"levelo://app?vid=4d8c250d-3928-4865-ae84-e1d02ffdbb75","ios":"levelo://app?vid=4d8c250d-3928-4865-ae84-e1d02ffdbb75"},"vehicle_type_id":"4","last_reported":1747544983,"current_range_meters":5600,"station_id":"ce4bho92rcd13ifvqh3g","pricing_plan_id":"cebpf4jnsgd1na2vs0mg"},{"bike_id":"394cadcc-3a78-4403-9bfc-1006acf0fb23","system_id":"levelo_inurba_marseille","lat":43.26199,"lon":5.37918,"is_reserved":false,"is_disabled":true,"rental_uris":{"android":"levelo://app?vid=394cadcc-3a78-4403-9bfc-1006acf0fb23","ios":"levelo://app?vid=394cadcc-3a78-4403-9bfc-1006acf0fb23"},"vehicle_type_id":"4","last_reported":1747544983,"current_range_meters":6000,"station_id":"ce4bhjp2rcd13ifvqg90","pricing_plan_id":"cebpf4jnsgd1na2vs0mg"},{"bike_id":"e2fc8af1-f5b5-4887-bcc2-61f17df64fdc","system_id":"levelo_inurba_marseille","lat":43.23729,"lon":5.39031,"is_reserved":false,"is_disabled":false,"rental_uris":{"android":"levelo://app?vid=e2fc8af1-f5b5-4887-bcc2-61f17df64fdc","ios":"levelo://app?vid=e2fc8af1-f5b5-4887-bcc2-61f17df64fdc"},"vehicle_type_id":"4","last_reported":1747544983,"current_range_meters":6000,"station_id":"ce4bhih2rcd13ifvqfr0","pricing_plan_id":"cebpf4jnsgd1na2vs0mg"},{"bike_id":"36b1745a-43fa-4776-bad2-1802bcb8f390","system_id":"levelo_inurba_marseille","lat":43.29799,"lon":5.404104,"is_reserved":false,"is_disabled":false,"rental_uris":{"android":"levelo://app?vid=36b1745a-43fa-4776-bad2-1802bcb8f390","ios":"levelo://app?vid=36b1745a-43fa-4776-bad2-1802bcb8f390"},"vehicle_type_id":"4","last_reported":1747544983,"current_range_meters":6000,"station_id":"ce4bh112rcd13ifvqd90","pricing_plan_id":"cebpf4jnsgd1na2vs0mg"},{"bike_id":"3b843dca-d67a-4b0e-916b-710ebb36ec6d","system_id":"levelo_inurba_marseille","lat":43.3251,"lon":5.40147,"is_reserved":false,"is_disabled":false,"rental_uris":{"android":"levelo://app?vid=3b843dca-d67a-4b0e-916b-710ebb36ec6d","ios":"levelo://app?vid=3b843dca-d67a-4b0e-916b-710ebb36ec6d"},"vehicle_type_id":"4","last_reported":1747544983,"current_range_meters":6400,"station_id":"","pricing_plan_id":"cebpf4jnsgd1na2vs0mg"},{"bike_id":"fd8cc24a-6707-458f-be40-b0fcf29dedae","system_id":"levelo_inurba_marseille","lat":43.285687,"lon":5.395038,"is_reserved":false,"is_disabled":false,"rental_uris":{"android":"levelo://app?vid=fd8cc24a-6707-458f-be40-b0fcf29dedae","ios":"levelo://app?vid=fd8cc24a-6707-458f-be40-b0fcf29dedae"},"vehicle_type_id":"4","last_reported":1747544983,"current_range_meters":6400,"station_id":"ce4bh292rcd13ifvqdg0","pricing_plan_id":"cebpf4jnsgd1na2vs0mg"},{"bike_id":"6bf0199a-ebba-4719-8c6c-9de3f1b2b0a4","system_id":"levelo_inurba_marseille","lat":43.29084,"lon":5.38136,"is_reserved":false,"is_disabled":false,"rental_uris":{"android":"levelo://app?vid=6bf0199a-ebba-4719-8c6c-9de3f1b2b0a4","ios":"levelo://app?vid=6bf0199a-ebba-4719-8c6c-9de3f1b2b0a4"},"vehicle_type_id":"4","last_reported":1747544983,"current_range_meters":6400,"station_id":"ce4bh512rcd13ifvqe2g","pricing_plan_id":"cebpf4jnsgd1na2vs0mg"},{"bike_id":"1e5a7839-d218-47a9-988d-f5fdcdfa5acb","system_id":"levelo_inurba_marseille","lat":43.2583,"lon":5.39454,"is_reserved":false,"is_disabled":false,"rental_uris":{"android":"levelo://app?vid=1e5a7839-d218-47a9-988d-f5fdcdfa5acb","ios":"levelo://app?vid=1e5a7839-d218-47a9-988d-f5fdcdfa5acb"},"vehicle_type_id":"4","last_reported":1747544983,"current_range_meters":6400,"station_id":"ce4bhip2rcd13ifvqft0","pricing_plan_id":"cebpf4jnsgd1na2vs0mg"},{"bike_id":"1786e5ad-b059-4e3d-8cb7-6a2055c790b0","system_id":"levelo_inurba_marseille","lat":43.26799,"lon":5.40258,"is_reserved":false,"is_disabled":false,"rental_uris":{"android":"levelo://app?vid=1786e5ad-b059-4e3d-8cb7-6a2055c790b0","ios":"levelo://app?vid=1786e5ad-b059-4e3d-8cb7-6a2055c790b0"},"vehicle_type_id":"4","last_reported":1747544983,"current_range_meters":6800,"station_id":"ce501612rcd8frsf0b60","pricing_plan_id":"cebpf4jnsgd1na2vs0mg"},{"bike_id":"7711fff8-1c30-4c3a-aa27-6e5dbb51f698","system_id":"levelo_inurba_marseille","lat":43.251108,"lon":5.403334,"is_reserved":false,"is_disabled":false,"rental_uris":{"android":"levelo://app?vid=7711fff8-1c30-4c3a-aa27-6e5dbb51f698","ios":"levelo://app?vid=7711fff8-1c30-4c3a-aa27-6e5dbb51f698"},"vehicle_type_id":"4","last_reported":1747544983,"current_range_meters":6800,"station_id":"ce4bhlh2rcd13ifvqgig","pricing_plan_id":"cebpf4jnsgd1na2vs0mg"},{"bike_id":"da23a86e-14c4-44c9-bf5e-75ab537d58d7","system_id":"levelo_inurba_marseille","lat":43.30063,"lon":5.39918,"is_reserved":false,"is_disabled":false,"rental_uris":{"android":"levelo://app?vid=da23a86e-14c4-44c9-bf5e-75ab537d58d7","ios":"levelo://app?vid=da23a86e-14c4-44c9-bf5e-75ab537d58d7"},"vehicle_type_id":"4","last_reported":1747544983,"current_range_meters":6800,"station_id":"ce4bh0h2rcd13ifvqd40","pricing_plan_id":"cebpf4jnsgd1na2vs0mg"},{"bike_id":"83df6560-d839-4cc1-b9c4-6c477190f614","system_id":"levelo_inurba_marseille","lat":43.243918,"lon":5.370688,"is_reserved":false,"is_disabled":true,"rental_uris":{"android":"levelo://app?vid=83df6560-d839-4cc1-b9c4-6c477190f614","ios":"levelo://app?vid=83df6560-d839-4cc1-b9c4-6c477190f614"},"vehicle_type_id":"4","last_reported":1747544983,"current_range_meters":6800,"station_id":"ce4bhhh2rcd13ifvqfk0","pricing_plan_id":"cebpf4jnsgd1na2vs0mg"},{"bike_id":"872f7738-5e44-4ffb-a9c9-fd3653391711","system_id":"levelo_inurba_marseille","lat":43.281019,"lon":5.378348,"is_reserved":false,"is_disabled":true,"rental_uris":{"android":"levelo://app?vid=872f7738-5e44-4ffb-a9c9-fd3653391711","ios":"levelo://app?vid=872f7738-5e44-4ffb-a9c9-fd3653391711"},"vehicle_type_id":"4","last_reported":1747544983,"current_range_meters":6800,"station_id":"ce4bha12rcd13ifvqee0","pricing_plan_id":"cebpf4jnsgd1na2vs0mg"},{"bike_id":"a4b63d34-1f52-4f3f-9233-0660815ceeda","system_id":"levelo_inurba_marseille","lat":43.25582,"lon":5.38232,"is_reserved":false,"is_disabled":false,"rental_uris":{"android":"levelo://app?vid=a4b63d34-1f52-4f3f-9233-0660815ceeda","ios":"levelo://app?vid=a4b63d34-1f52-4f3f-9233-0660815ceeda"},"vehicle_type_id":"4","last_reported":1747544983,"current_range_meters":6800,"station_id":"ce4bhih2rcd13ifvqfs0","pricing_plan_id":"cebpf4jnsgd1na2vs0mg"},{"bike_id":"f422de0d-c618-4f7f-bb53-97f17150b375","system_id":"levelo_inurba_marseille","lat":43.28459,"lon":5.35884,"is_reserved":false,"is_disabled":false,"rental_uris":{"android":"levelo://app?vid=f422de0d-c618-4f7f-bb53-97f17150b375","ios":"levelo://app?vid=f422de0d-c618-4f7f-bb53-97f17150b375"},"vehicle_type_id":"4","last_reported":1747544983,"current_range_meters":6800,"station_id":"ce4bhah2rcd13ifvqei0","pricing_plan_id":"cebpf4jnsgd1na2vs0mg"},{"bike_id":"bdf92037-99f2-4cfc-a99a-67349a2569de","system_id":"levelo_inurba_marseille","lat":43.30149,"lon":5.3809,"is_reserved":false,"is_disabled":false,"rental_uris":{"android":"levelo://app?vid=bdf92037-99f2-4cfc-a99a-67349a2569de","ios":"levelo://app?vid=bdf92037-99f2-4cfc-a99a-67349a2569de"},"vehicle_type_id":"4","last_reported":1747544983,"current_range_meters":6800,"station_id":"ce4bgjp2rcd13ifvqbh0","pricing_plan_id":"cebpf4jnsgd1na2vs0mg"},{"bike_id":"55fb771a-6e76-45c4-a9b7-cda97a0011d0","system_id":"levelo_inurba_marseille","lat":43.28761,"lon":5.38271,"is_reserved":false,"is_disabled":false,"rental_uris":{"android":"levelo://app?vid=55fb771a-6e76-45c4-a9b7-cda97a0011d0","ios":"levelo://app?vid=55fb771a-6e76-45c4-a9b7-cda97a0011d0"},"vehicle_type_id":"4","last_reported":1747544983,"current_range_meters":8000,"station_id":"","pricing_plan_id":"cebpf4jnsgd1na2vs0mg"},{"bike_id":"123ae55b-6b07-49b7-90aa-71520b895cea","system_id":"levelo_inurba_marseille","lat":43.270545,"lon":5.402615,"is_reserved":false,"is_disabled":false,"rental_uris":{"android":"levelo://app?vid=123ae55b-6b07-49b7-90aa-71520b895cea","ios":"levelo://app?vid=123ae55b-6b07-49b7-90aa-71520b895cea"},"vehicle_type_id":"4","last_reported":1747544983,"current_range_meters":7200,"station_id":"ce4bhk92rcd13ifvqgc0","pricing_plan_id":"cebpf4jnsgd1na2vs0mg"},{"bike_id":"8659cb80-f7b2-4f04-a88e-e3eb7e094f49","system_id":"levelo_inurba_marseille","lat":43.28443,"lon":5.39188,"is_reserved":false,"is_disabled":false,"rental_uris":{"android":"levelo://app?vid=8659cb80-f7b2-4f04-a88e-e3eb7e094f49","ios":"levelo://app?vid=8659cb80-f7b2-4f04-a88e-e3eb7e094f49"},"vehicle_type_id":"4","last_reported":1747544983,"current_range_meters":7200,"station_id":"ce4bhoh2rcd13ifvqh5g","pricing_plan_id":"cebpf4jnsgd1na2vs0mg"},{"bike_id":"c1d5f882-d71a-4c0b-b205-2bbfdb801b0f","system_id":"levelo_inurba_marseille","lat":43.32329,"lon":5.40623,"is_reserved":false,"is_disabled":false,"rental_uris":{"android":"levelo://app?vid=c1d5f882-d71a-4c0b-b205-2bbfdb801b0f","ios":"levelo://app?vid=c1d5f882-d71a-4c0b-b205-2bbfdb801b0f"},"vehicle_type_id":"4","last_reported":1747544983,"current_range_meters":7200,"station_id":"ce4bhq92rcd13ifvqhjg","pricing_plan_id":"cebpf4jnsgd1na2vs0mg"},{"bike_id":"80ce8948-82cf-42c6-8ab6-4636b50ac5f8","system_id":"levelo_inurba_marseille","lat":43.315331,"lon":5.380277,"is_reserved":false,"is_disabled":false,"rental_uris":{"android":"levelo://app?vid=80ce8948-82cf-42c6-8ab6-4636b50ac5f8","ios":"levelo://app?vid=80ce8948-82cf-42c6-8ab6-4636b50ac5f8"},"vehicle_type_id":"4","last_reported":1747544983,"current_range_meters":7200,"station_id":"ce4bhsp2rcd13ifvqi50","pricing_plan_id":"cebpf4jnsgd1na2vs0mg"},{"bike_id":"093b888a-9c5d-4574-bb57-20f4bb5014c9","system_id":"levelo_inurba_marseille","lat":43.30641,"lon":5.40071,"is_reserved":false,"is_disabled":false,"rental_uris":{"android":"levelo://app?vid=093b888a-9c5d-4574-bb57-20f4bb5014c9","ios":"levelo://app?vid=093b888a-9c5d-4574-bb57-20f4bb5014c9"},"vehicle_type_id":"4","last_reported":1747544983,"current_range_meters":7200,"station_id":"ce4bh112rcd13ifvqda0","pricing_plan_id":"cebpf4jnsgd1na2vs0mg"},{"bike_id":"39295a67-818d-4c4b-acd8-ebcf53b310ba","system_id":"levelo_inurba_marseille","lat":43.30937,"lon":5.40142,"is_reserved":false,"is_disabled":false,"rental_uris":{"android":"levelo://app?vid=39295a67-818d-4c4b-acd8-ebcf53b310ba","ios":"levelo://app?vid=39295a67-818d-4c4b-acd8-ebcf53b310ba"},"vehicle_type_id":"4","last_reported":1747544983,"current_range_meters":7200,"station_id":"ce4bgvp2rcd13ifvqct0","pricing_plan_id":"cebpf4jnsgd1na2vs0mg"},{"bike_id":"456df13e-096a-4823-8eea-67f822f45ee6","system_id":"levelo_inurba_marseille","lat":43.251105,"lon":5.403331,"is_reserved":false,"is_disabled":false,"rental_uris":{"android":"levelo://app?vid=456df13e-096a-4823-8eea-67f822f45ee6","ios":"levelo://app?vid=456df13e-096a-4823-8eea-67f822f45ee6"},"vehicle_type_id":"4","last_reported":1747544983,"current_range_meters":8000,"station_id":"ce4bhlh2rcd13ifvqgig","pricing_plan_id":"cebpf4jnsgd1na2vs0mg"},{"bike_id":"7e8ca646-fbd8-47c1-b576-6a662073d69b","system_id":"levelo_inurba_marseille","lat":43.251149,"lon":5.403236,"is_reserved":false,"is_disabled":false,"rental_uris":{"android":"levelo://app?vid=7e8ca646-fbd8-47c1-b576-6a662073d69b","ios":"levelo://app?vid=7e8ca646-fbd8-47c1-b576-6a662073d69b"},"vehicle_type_id":"4","last_reported":1747544983,"current_range_meters":8000,"station_id":"ce4bhlh2rcd13ifvqgig","pricing_plan_id":"cebpf4jnsgd1na2vs0mg"},{"bike_id":"fdb61a9e-b53b-48c4-b0cb-6db5c626390b","system_id":"levelo_inurba_marseille","lat":43.29054,"lon":5.39968,"is_reserved":false,"is_disabled":true,"rental_uris":{"android":"levelo://app?vid=fdb61a9e-b53b-48c4-b0cb-6db5c626390b","ios":"levelo://app?vid=fdb61a9e-b53b-48c4-b0cb-6db5c626390b"},"vehicle_type_id":"4","last_reported":1747544983,"current_range_meters":8000,"station_id":"ce4bh392rcd13ifvqdm0","pricing_plan_id":"cebpf4jnsgd1na2vs0mg"},{"bike_id":"d0cc36ba-dea5-4301-b9bc-2db32098db5e","system_id":"levelo_inurba_marseille","lat":43.25083,"lon":5.39516,"is_reserved":false,"is_disabled":false,"rental_uris":{"android":"levelo://app?vid=d0cc36ba-dea5-4301-b9bc-2db32098db5e","ios":"levelo://app?vid=d0cc36ba-dea5-4301-b9bc-2db32098db5e"},"vehicle_type_id":"4","last_reported":1747544983,"current_range_meters":8000,"station_id":"ce4bhm12rcd13ifvqgkg","pricing_plan_id":"cebpf4jnsgd1na2vs0mg"},{"bike_id":"3a75c5f4-243e-4f18-b95d-8635947008bf","system_id":"levelo_inurba_marseille","lat":43.2512,"lon":5.40314,"is_reserved":false,"is_disabled":false,"rental_uris":{"android":"levelo://app?vid=3a75c5f4-243e-4f18-b95d-8635947008bf","ios":"levelo://app?vid=3a75c5f4-243e-4f18-b95d-8635947008bf"},"vehicle_type_id":"4","last_reported":1747544983,"current_range_meters":8000,"station_id":"ce4bhlh2rcd13ifvqgig","pricing_plan_id":"cebpf4jnsgd1na2vs0mg"},{"bike_id":"dd66c583-b2e5-4cd9-9895-0629d4af2cb2","system_id":"levelo_inurba_marseille","lat":43.288519,"lon":5.358619,"is_reserved":false,"is_disabled":false,"rental_uris":{"android":"levelo://app?vid=dd66c583-b2e5-4cd9-9895-0629d4af2cb2","ios":"levelo://app?vid=dd66c583-b2e5-4cd9-9895-0629d4af2cb2"},"vehicle_type_id":"4","last_reported":1747544983,"current_range_meters":8000,"station_id":"ce4bhb12rcd13ifvqem0","pricing_plan_id":"cebpf4jnsgd1na2vs0mg"},{"bike_id":"d796888f-19f7-44cb-b77a-5927886255b3","system_id":"levelo_inurba_marseille","lat":43.304654,"lon":5.379126,"is_reserved":false,"is_disabled":false,"rental_uris":{"android":"levelo://app?vid=d796888f-19f7-44cb-b77a-5927886255b3","ios":"levelo://app?vid=d796888f-19f7-44cb-b77a-5927886255b3"},"vehicle_type_id":"4","last_reported":1747544983,"current_range_meters":8000,"station_id":"ce4bgup2rcd13ifvqcn0","pricing_plan_id":"cebpf4jnsgd1na2vs0mg"},{"bike_id":"32322682-2395-470f-b5f5-a01e73b4ebbb","system_id":"levelo_inurba_marseille","lat":43.288412,"lon":5.393146,"is_reserved":false,"is_disabled":false,"rental_uris":{"android":"levelo://app?vid=32322682-2395-470f-b5f5-a01e73b4ebbb","ios":"levelo://app?vid=32322682-2395-470f-b5f5-a01e73b4ebbb"},"vehicle_type_id":"4","last_reported":1747544983,"current_range_meters":8000,"station_id":"ce4bh2p2rcd13ifvqdi0","pricing_plan_id":"cebpf4jnsgd1na2vs0mg"},{"bike_id":"82862649-485d-4988-aeb2-e287bb522774","system_id":"levelo_inurba_marseille","lat":43.289387,"lon":5.363987,"is_reserved":false,"is_disabled":false,"rental_uris":{"android":"levelo://app?vid=82862649-485d-4988-aeb2-e287bb522774","ios":"levelo://app?vid=82862649-485d-4988-aeb2-e287bb522774"},"vehicle_type_id":"4","last_reported":1747544983,"current_range_meters":8400,"station_id":"ce4bhc92rcd13ifvqetg","pricing_plan_id":"cebpf4jnsgd1na2vs0mg"},{"bike_id":"b8e6468b-87db-4ff6-8122-ef13bf5b7c8c","system_id":"levelo_inurba_marseille","lat":43.31379,"lon":5.37916,"is_reserved":false,"is_disabled":false,"rental_uris":{"android":"levelo://app?vid=b8e6468b-87db-4ff6-8122-ef13bf5b7c8c","ios":"levelo://app?vid=b8e6468b-87db-4ff6-8122-ef13bf5b7c8c"},"vehicle_type_id":"4","last_reported":1747544983,"current_range_meters":8400,"station_id":"","pricing_plan_id":"cebpf4jnsgd1na2vs0mg"},{"bike_id":"3ada38a9-c7bf-40bd-8e56-eedf1b279d42","system_id":"levelo_inurba_marseille","lat":43.23142,"lon":5.43708,"is_reserved":false,"is_disabled":false,"rental_uris":{"android":"levelo://app?vid=3ada38a9-c7bf-40bd-8e56-eedf1b279d42","ios":"levelo://app?vid=3ada38a9-c7bf-40bd-8e56-eedf1b279d42"},"vehicle_type_id":"4","last_reported":1747544983,"current_range_meters":8400,"station_id":"ce4bhmp2rcd13ifvqgog","pricing_plan_id":"cebpf4jnsgd1na2vs0mg"},{"bike_id":"822dd0b4-7412-48bb-99dc-94cac0c42c1e","system_id":"levelo_inurba_marseille","lat":43.29429,"lon":5.39775,"is_reserved":false,"is_disabled":false,"rental_uris":{"android":"levelo://app?vid=822dd0b4-7412-48bb-99dc-94cac0c42c1e","ios":"levelo://app?vid=822dd0b4-7412-48bb-99dc-94cac0c42c1e"},"vehicle_type_id":"4","last_reported":1747544983,"current_range_meters":8400,"station_id":"ce4bh3h2rcd13ifvqdo0","pricing_plan_id":"cebpf4jnsgd1na2vs0mg"},{"bike_id":"4fbb7b1b-7f23-47f7-80fe-a4e6f73e37a2","system_id":"levelo_inurba_marseille","lat":43.313577,"lon":5.384993,"is_reserved":false,"is_disabled":false,"rental_uris":{"android":"levelo://app?vid=4fbb7b1b-7f23-47f7-80fe-a4e6f73e37a2","ios":"levelo://app?vid=4fbb7b1b-7f23-47f7-80fe-a4e6f73e37a2"},"vehicle_type_id":"4","last_reported":1747544983,"current_range_meters":8400,"station_id":"ce4bgt92rcd13ifvqcf0","pricing_plan_id":"cebpf4jnsgd1na2vs0mg"},{"bike_id":"5ea6f467-857b-4ea7-a4b9-4a241fcc702a","system_id":"levelo_inurba_marseille","lat":43.24668,"lon":5.38143,"is_reserved":false,"is_disabled":false,"rental_uris":{"android":"levelo://app?vid=5ea6f467-857b-4ea7-a4b9-4a241fcc702a","ios":"levelo://app?vid=5ea6f467-857b-4ea7-a4b9-4a241fcc702a"},"vehicle_type_id":"4","last_reported":1747544983,"current_range_meters":8400,"station_id":"ce4bhih2rcd13ifvqfr0","pricing_plan_id":"cebpf4jnsgd1na2vs0mg"},{"bike_id":"af2f3908-848e-4879-9c80-b3ddea1b7f0a","system_id":"levelo_inurba_marseille","lat":43.31161,"lon":5.38784,"is_reserved":false,"is_disabled":true,"rental_uris":{"android":"levelo://app?vid=af2f3908-848e-4879-9c80-b3ddea1b7f0a","ios":"levelo://app?vid=af2f3908-848e-4879-9c80-b3ddea1b7f0a"},"vehicle_type_id":"4","last_reported":1747544983,"current_range_meters":8400,"station_id":"ce4bgv12rcd13ifvqcp0","pricing_plan_id":"cebpf4jnsgd1na2vs0mg"},{"bike_id":"9cad89f6-20ac-4a0d-8a49-e06f4ba590cf","system_id":"levelo_inurba_marseille","lat":43.32098,"lon":5.36805,"is_reserved":false,"is_disabled":false,"rental_uris":{"android":"levelo://app?vid=9cad89f6-20ac-4a0d-8a49-e06f4ba590cf","ios":"levelo://app?vid=9cad89f6-20ac-4a0d-8a49-e06f4ba590cf"},"vehicle_type_id":"4","last_reported":1747544983,"current_range_meters":8400,"station_id":"ce4bhrh2rcd13ifvqhug","pricing_plan_id":"cebpf4jnsgd1na2vs0mg"},{"bike_id":"29227aeb-9891-4081-a2fc-26d8f5b1e447","system_id":"levelo_inurba_marseille","lat":43.28923,"lon":5.38392,"is_reserved":false,"is_disabled":false,"rental_uris":{"android":"levelo://app?vid=29227aeb-9891-4081-a2fc-26d8f5b1e447","ios":"levelo://app?vid=29227aeb-9891-4081-a2fc-26d8f5b1e447"},"vehicle_type_id":"4","last_reported":1747544983,"current_range_meters":8000,"station_id":"ce4bh612rcd13ifvqe6g","pricing_plan_id":"cebpf4jnsgd1na2vs0mg"},{"bike_id":"0e643c49-55b7-4013-9035-8e29a4bbf97b","system_id":"levelo_inurba_marseille","lat":43.24666,"lon":5.38193,"is_reserved":false,"is_disabled":false,"rental_uris":{"android":"levelo://app?vid=0e643c49-55b7-4013-9035-8e29a4bbf97b","ios":"levelo://app?vid=0e643c49-55b7-4013-9035-8e29a4bbf97b"},"vehicle_type_id":"4","last_reported":1747544983,"current_range_meters":8400,"station_id":"ce4bhih2rcd13ifvqfr0","pricing_plan_id":"cebpf4jnsgd1na2vs0mg"},{"bike_id":"aa9446b4-e4c2-4e75-9648-971ccb772673","system_id":"levelo_inurba_marseille","lat":43.275,"lon":5.42466,"is_reserved":false,"is_disabled":false,"rental_uris":{"android":"levelo://app?vid=aa9446b4-e4c2-4e75-9648-971ccb772673","ios":"levelo://app?vid=aa9446b4-e4c2-4e75-9648-971ccb772673"},"vehicle_type_id":"4","last_reported":1747544983,"current_range_meters":8800,"station_id":"ce4bhn92rcd13ifvqgrg","pricing_plan_id":"cebpf4jnsgd1na2vs0mg"},{"bike_id":"84e64118-f0e9-4a0d-8b15-5f1a80b07abd","system_id":"levelo_inurba_marseille","lat":43.29798,"lon":5.39341,"is_reserved":false,"is_disabled":false,"rental_uris":{"android":"levelo://app?vid=84e64118-f0e9-4a0d-8b15-5f1a80b07abd","ios":"levelo://app?vid=84e64118-f0e9-4a0d-8b15-5f1a80b07abd"},"vehicle_type_id":"4","last_reported":1747544983,"current_range_meters":8800,"station_id":"chh1huq6cuj3fo74tm60","pricing_plan_id":"cebpf4jnsgd1na2vs0mg"},{"bike_id":"8f189487-f31d-4ca2-a926-e41f071bd7f5","system_id":"levelo_inurba_marseille","lat":43.24062,"lon":5.37757,"is_reserved":false,"is_disabled":false,"rental_uris":{"android":"levelo://app?vid=8f189487-f31d-4ca2-a926-e41f071bd7f5","ios":"levelo://app?vid=8f189487-f31d-4ca2-a926-e41f071bd7f5"},"vehicle_type_id":"4","last_reported":1747544983,"current_range_meters":8800,"station_id":"ce4bhnp2rcd13ifvqgvg","pricing_plan_id":"cebpf4jnsgd1na2vs0mg"},{"bike_id":"48aec151-f27a-48c6-a1d0-5f755752c784","system_id":"levelo_inurba_marseille","lat":43.28549,"lon":5.39545,"is_reserved":false,"is_disabled":false,"rental_uris":{"android":"levelo://app?vid=48aec151-f27a-48c6-a1d0-5f755752c784","ios":"levelo://app?vid=48aec151-f27a-48c6-a1d0-5f755752c784"},"vehicle_type_id":"4","last_reported":1747544983,"current_range_meters":8800,"station_id":"ce4bh292rcd13ifvqdg0","pricing_plan_id":"cebpf4jnsgd1na2vs0mg"},{"bike_id":"9edddd8d-d743-4631-997e-7bbefb54b44b","system_id":"levelo_inurba_marseille","lat":43.2845,"lon":5.35892,"is_reserved":false,"is_disabled":false,"rental_uris":{"android":"levelo://app?vid=9edddd8d-d743-4631-997e-7bbefb54b44b","ios":"levelo://app?vid=9edddd8d-d743-4631-997e-7bbefb54b44b"},"vehicle_type_id":"4","last_reported":1747544983,"current_range_meters":8800,"station_id":"ce4bhah2rcd13ifvqei0","pricing_plan_id":"cebpf4jnsgd1na2vs0mg"},{"bike_id":"81c659b6-3a02-46e7-a46f-d340746ad32e","system_id":"levelo_inurba_marseille","lat":43.27384,"lon":5.36254,"is_reserved":false,"is_disabled":true,"rental_uris":{"android":"levelo://app?vid=81c659b6-3a02-46e7-a46f-d340746ad32e","ios":"levelo://app?vid=81c659b6-3a02-46e7-a46f-d340746ad32e"},"vehicle_type_id":"4","last_reported":1747544983,"current_range_meters":8800,"station_id":"ce4bhbh2rcd13ifvqeo0","pricing_plan_id":"cebpf4jnsgd1na2vs0mg"},{"bike_id":"469b2637-3a55-4da5-8c17-69fb46d00262","system_id":"levelo_inurba_marseille","lat":43.28564,"lon":5.395,"is_reserved":false,"is_disabled":false,"rental_uris":{"android":"levelo://app?vid=469b2637-3a55-4da5-8c17-69fb46d00262","ios":"levelo://app?vid=469b2637-3a55-4da5-8c17-69fb46d00262"},"vehicle_type_id":"4","last_reported":1747544983,"current_range_meters":8800,"station_id":"ce4bh292rcd13ifvqdg0","pricing_plan_id":"cebpf4jnsgd1na2vs0mg"},{"bike_id":"25aa01fa-ce66-4b7e-b2d7-9990727e1a11","system_id":"levelo_inurba_marseille","lat":43.284491,"lon":5.359007,"is_reserved":false,"is_disabled":false,"rental_uris":{"android":"levelo://app?vid=25aa01fa-ce66-4b7e-b2d7-9990727e1a11","ios":"levelo://app?vid=25aa01fa-ce66-4b7e-b2d7-9990727e1a11"},"vehicle_type_id":"4","last_reported":1747544983,"current_range_meters":8800,"station_id":"ce4bhah2rcd13ifvqei0","pricing_plan_id":"cebpf4jnsgd1na2vs0mg"},{"bike_id":"7d080336-5a2d-419d-8d50-e49d93450255","system_id":"levelo_inurba_marseille","lat":43.291771,"lon":5.371421,"is_reserved":false,"is_disabled":true,"rental_uris":{"android":"levelo://app?vid=7d080336-5a2d-419d-8d50-e49d93450255","ios":"levelo://app?vid=7d080336-5a2d-419d-8d50-e49d93450255"},"vehicle_type_id":"4","last_reported":1747544983,"current_range_meters":9200,"station_id":"ce4bha92rcd13ifvqeh0","pricing_plan_id":"cebpf4jnsgd1na2vs0mg"},{"bike_id":"87b1d5a0-ca20-4099-8fc3-ab0909b77445","system_id":"levelo_inurba_marseille","lat":43.30927,"lon":5.40173,"is_reserved":false,"is_disabled":false,"rental_uris":{"android":"levelo://app?vid=87b1d5a0-ca20-4099-8fc3-ab0909b77445","ios":"levelo://app?vid=87b1d5a0-ca20-4099-8fc3-ab0909b77445"},"vehicle_type_id":"4","last_reported":1747544983,"current_range_meters":9200,"station_id":"ce4bgvp2rcd13ifvqct0","pricing_plan_id":"cebpf4jnsgd1na2vs0mg"},{"bike_id":"c0db4030-ef30-480b-a735-af5435a471ed","system_id":"levelo_inurba_marseille","lat":43.27718,"lon":5.42703,"is_reserved":false,"is_disabled":false,"rental_uris":{"android":"levelo://app?vid=c0db4030-ef30-480b-a735-af5435a471ed","ios":"levelo://app?vid=c0db4030-ef30-480b-a735-af5435a471ed"},"vehicle_type_id":"4","last_reported":1747544983,"current_range_meters":9200,"station_id":"","pricing_plan_id":"cebpf4jnsgd1na2vs0mg"},{"bike_id":"b37da9e7-5764-4e61-b684-e4984dd326d9","system_id":"levelo_inurba_marseille","lat":43.29046,"lon":5.39978,"is_reserved":false,"is_disabled":false,"rental_uris":{"android":"levelo://app?vid=b37da9e7-5764-4e61-b684-e4984dd326d9","ios":"levelo://app?vid=b37da9e7-5764-4e61-b684-e4984dd326d9"},"vehicle_type_id":"4","last_reported":1747544983,"current_range_meters":9200,"station_id":"ce4bh392rcd13ifvqdm0","pricing_plan_id":"cebpf4jnsgd1na2vs0mg"},{"bike_id":"9d205712-4faf-4521-a59b-52c8a122e1ca","system_id":"levelo_inurba_marseille","lat":43.308,"lon":5.38158,"is_reserved":false,"is_disabled":true,"rental_uris":{"android":"levelo://app?vid=9d205712-4faf-4521-a59b-52c8a122e1ca","ios":"levelo://app?vid=9d205712-4faf-4521-a59b-52c8a122e1ca"},"vehicle_type_id":"4","last_reported":1747544983,"current_range_meters":9200,"station_id":"ce4bgt12rcd13ifvqce0","pricing_plan_id":"cebpf4jnsgd1na2vs0mg"},{"bike_id":"337b08c3-9453-4585-b2d5-7cd494c9cc9f","system_id":"levelo_inurba_marseille","lat":43.28433,"lon":5.37536,"is_reserved":false,"is_disabled":false,"rental_uris":{"android":"levelo://app?vid=337b08c3-9453-4585-b2d5-7cd494c9cc9f","ios":"levelo://app?vid=337b08c3-9453-4585-b2d5-7cd494c9cc9f"},"vehicle_type_id":"4","last_reported":1747544983,"current_range_meters":9200,"station_id":"ce4bh412rcd13ifvqds0","pricing_plan_id":"cebpf4jnsgd1na2vs0mg"},{"bike_id":"89b6e378-45a4-453c-b44a-d8e3186991b9","system_id":"levelo_inurba_marseille","lat":43.26219,"lon":5.37452,"is_reserved":false,"is_disabled":true,"rental_uris":{"android":"levelo://app?vid=89b6e378-45a4-453c-b44a-d8e3186991b9","ios":"levelo://app?vid=89b6e378-45a4-453c-b44a-d8e3186991b9"},"vehicle_type_id":"4","last_reported":1747544983,"current_range_meters":9200,"station_id":"ce4bhgp2rcd13ifvqfc0","pricing_plan_id":"cebpf4jnsgd1na2vs0mg"},{"bike_id":"6658c1d1-adea-40d7-894a-4e11aacc9416","system_id":"levelo_inurba_marseille","lat":43.32371,"lon":5.38873,"is_reserved":false,"is_disabled":false,"rental_uris":{"android":"levelo://app?vid=6658c1d1-adea-40d7-894a-4e11aacc9416","ios":"levelo://app?vid=6658c1d1-adea-40d7-894a-4e11aacc9416"},"vehicle_type_id":"4","last_reported":1747544983,"current_range_meters":9200,"station_id":"ce4bhqp2rcd13ifvqhog","pricing_plan_id":"cebpf4jnsgd1na2vs0mg"},{"bike_id":"db22b70b-7de1-403c-85af-ebb538cde99e","system_id":"levelo_inurba_marseille","lat":43.298698,"lon":5.397357,"is_reserved":false,"is_disabled":false,"rental_uris":{"android":"levelo://app?vid=db22b70b-7de1-403c-85af-ebb538cde99e","ios":"levelo://app?vid=db22b70b-7de1-403c-85af-ebb538cde99e"},"vehicle_type_id":"4","last_reported":1747544983,"current_range_meters":9600,"station_id":"ce4bh0h2rcd13ifvqd50","pricing_plan_id":"cebpf4jnsgd1na2vs0mg"},{"bike_id":"0fb02880-5c6e-4026-9e4a-07529c572b44","system_id":"levelo_inurba_marseille","lat":43.25484,"lon":5.37384,"is_reserved":false,"is_disabled":false,"rental_uris":{"android":"levelo://app?vid=0fb02880-5c6e-4026-9e4a-07529c572b44","ios":"levelo://app?vid=0fb02880-5c6e-4026-9e4a-07529c572b44"},"vehicle_type_id":"4","last_reported":1747544983,"current_range_meters":9600,"station_id":"","pricing_plan_id":"cebpf4jnsgd1na2vs0mg"},{"bike_id":"9174d559-4e85-42b4-a063-f2d23adfad9b","system_id":"levelo_inurba_marseille","lat":43.25117,"lon":5.40327,"is_reserved":false,"is_disabled":false,"rental_uris":{"android":"levelo://app?vid=9174d559-4e85-42b4-a063-f2d23adfad9b","ios":"levelo://app?vid=9174d559-4e85-42b4-a063-f2d23adfad9b"},"vehicle_type_id":"4","last_reported":1747544983,"current_range_meters":9600,"station_id":"ce4bhlh2rcd13ifvqgig","pricing_plan_id":"cebpf4jnsgd1na2vs0mg"},{"bike_id":"792c9dbd-158e-4661-91d4-2c1ed379e655","system_id":"levelo_inurba_marseille","lat":43.24696,"lon":5.38129,"is_reserved":false,"is_disabled":false,"rental_uris":{"android":"levelo://app?vid=792c9dbd-158e-4661-91d4-2c1ed379e655","ios":"levelo://app?vid=792c9dbd-158e-4661-91d4-2c1ed379e655"},"vehicle_type_id":"4","last_reported":1747544983,"current_range_meters":9600,"station_id":"ce4bhih2rcd13ifvqfr0","pricing_plan_id":"cebpf4jnsgd1na2vs0mg"},{"bike_id":"b934e6da-efb5-4ac5-a51a-eb50220f6e1b","system_id":"levelo_inurba_marseille","lat":43.269785,"lon":5.40587,"is_reserved":false,"is_disabled":true,"rental_uris":{"android":"levelo://app?vid=b934e6da-efb5-4ac5-a51a-eb50220f6e1b","ios":"levelo://app?vid=b934e6da-efb5-4ac5-a51a-eb50220f6e1b"},"vehicle_type_id":"4","last_reported":1747544983,"current_range_meters":9600,"station_id":"","pricing_plan_id":"cebpf4jnsgd1na2vs0mg"},{"bike_id":"b9912345-62c9-48eb-929c-758e51178965","system_id":"levelo_inurba_marseille","lat":43.30906,"lon":5.39626,"is_reserved":false,"is_disabled":false,"rental_uris":{"android":"levelo://app?vid=b9912345-62c9-48eb-929c-758e51178965","ios":"levelo://app?vid=b9912345-62c9-48eb-929c-758e51178965"},"vehicle_type_id":"4","last_reported":1747544983,"current_range_meters":9600,"station_id":"ce4bh012rcd13ifvqcv0","pricing_plan_id":"cebpf4jnsgd1na2vs0mg"},{"bike_id":"9be12a09-efe5-495b-8ec3-e7e0d7473370","system_id":"levelo_inurba_marseille","lat":43.296017,"lon":5.380928,"is_reserved":false,"is_disabled":true,"rental_uris":{"android":"levelo://app?vid=9be12a09-efe5-495b-8ec3-e7e0d7473370","ios":"levelo://app?vid=9be12a09-efe5-495b-8ec3-e7e0d7473370"},"vehicle_type_id":"4","last_reported":1747544983,"current_range_meters":9600,"station_id":"ce4bgl12rcd13ifvqbo0","pricing_plan_id":"cebpf4jnsgd1na2vs0mg"},{"bike_id":"2013cd87-0d43-443c-a50a-2ae65b408add","system_id":"levelo_inurba_marseille","lat":43.323636,"lon":5.388923,"is_reserved":false,"is_disabled":false,"rental_uris":{"android":"levelo://app?vid=2013cd87-0d43-443c-a50a-2ae65b408add","ios":"levelo://app?vid=2013cd87-0d43-443c-a50a-2ae65b408add"},"vehicle_type_id":"4","last_reported":1747544983,"current_range_meters":9600,"station_id":"ce4bhqp2rcd13ifvqhog","pricing_plan_id":"cebpf4jnsgd1na2vs0mg"},{"bike_id":"8b1b9fc8-2f5f-49e8-b567-ad39dc989cb7","system_id":"levelo_inurba_marseille","lat":43.290226,"lon":5.375654,"is_reserved":false,"is_disabled":true,"rental_uris":{"android":"levelo://app?vid=8b1b9fc8-2f5f-49e8-b567-ad39dc989cb7","ios":"levelo://app?vid=8b1b9fc8-2f5f-49e8-b567-ad39dc989cb7"},"vehicle_type_id":"4","last_reported":1747544983,"current_range_meters":9600,"station_id":"ce4bh692rcd13ifvqe90","pricing_plan_id":"cebpf4jnsgd1na2vs0mg"},{"bike_id":"4c33e9a2-0e5c-427f-a7cc-632c63a61d9d","system_id":"levelo_inurba_marseille","lat":43.28345,"lon":5.38124,"is_reserved":false,"is_disabled":true,"rental_uris":{"android":"levelo://app?vid=4c33e9a2-0e5c-427f-a7cc-632c63a61d9d","ios":"levelo://app?vid=4c33e9a2-0e5c-427f-a7cc-632c63a61d9d"},"vehicle_type_id":"4","last_reported":1747544983,"current_range_meters":9600,"station_id":"ce4bh412rcd13ifvqdr0","pricing_plan_id":"cebpf4jnsgd1na2vs0mg"},{"bike_id":"1c9765b7-04eb-4781-bfc5-43e258b42685","system_id":"levelo_inurba_marseille","lat":43.297866,"lon":5.393529,"is_reserved":false,"is_disabled":false,"rental_uris":{"android":"levelo://app?vid=1c9765b7-04eb-4781-bfc5-43e258b42685","ios":"levelo://app?vid=1c9765b7-04eb-4781-bfc5-43e258b42685"},"vehicle_type_id":"4","last_reported":1747544983,"current_range_meters":9600,"station_id":"chh1huq6cuj3fo74tm60","pricing_plan_id":"cebpf4jnsgd1na2vs0mg"},{"bike_id":"fbb9dc35-fa9d-42e4-9fd8-bc3154190a90","system_id":"levelo_inurba_marseille","lat":43.30936,"lon":5.40172,"is_reserved":false,"is_disabled":false,"rental_uris":{"android":"levelo://app?vid=fbb9dc35-fa9d-42e4-9fd8-bc3154190a90","ios":"levelo://app?vid=fbb9dc35-fa9d-42e4-9fd8-bc3154190a90"},"vehicle_type_id":"4","last_reported":1747544983,"current_range_meters":9600,"station_id":"ce4bgvp2rcd13ifvqct0","pricing_plan_id":"cebpf4jnsgd1na2vs0mg"},{"bike_id":"17375fce-7bfc-4711-8359-aff96b26ac3f","system_id":"levelo_inurba_marseille","lat":43.24076,"lon":5.37743,"is_reserved":false,"is_disabled":false,"rental_uris":{"android":"levelo://app?vid=17375fce-7bfc-4711-8359-aff96b26ac3f","ios":"levelo://app?vid=17375fce-7bfc-4711-8359-aff96b26ac3f"},"vehicle_type_id":"4","last_reported":1747544983,"current_range_meters":10000,"station_id":"ce4bhnp2rcd13ifvqgvg","pricing_plan_id":"cebpf4jnsgd1na2vs0mg"},{"bike_id":"3812098f-f79e-4494-b092-9699fb507498","system_id":"levelo_inurba_marseille","lat":43.29039,"lon":5.37158,"is_reserved":false,"is_disabled":true,"rental_uris":{"android":"levelo://app?vid=3812098f-f79e-4494-b092-9699fb507498","ios":"levelo://app?vid=3812098f-f79e-4494-b092-9699fb507498"},"vehicle_type_id":"4","last_reported":1747544983,"current_range_meters":10000,"station_id":"ce4bh5p2rcd13ifvqe4g","pricing_plan_id":"cebpf4jnsgd1na2vs0mg"},{"bike_id":"7502aaf2-e0b6-4e59-86da-36975a13a9d8","system_id":"levelo_inurba_marseille","lat":43.29536,"lon":5.37494,"is_reserved":false,"is_disabled":true,"rental_uris":{"android":"levelo://app?vid=7502aaf2-e0b6-4e59-86da-36975a13a9d8","ios":"levelo://app?vid=7502aaf2-e0b6-4e59-86da-36975a13a9d8"},"vehicle_type_id":"4","last_reported":1747544983,"current_range_meters":10000,"station_id":"ce4bgkp2rcd13ifvqbmg","pricing_plan_id":"cebpf4jnsgd1na2vs0mg"},{"bike_id":"0f42c805-92e1-4274-b532-29e3edd02304","system_id":"levelo_inurba_marseille","lat":43.29287,"lon":5.40144,"is_reserved":false,"is_disabled":false,"rental_uris":{"android":"levelo://app?vid=0f42c805-92e1-4274-b532-29e3edd02304","ios":"levelo://app?vid=0f42c805-92e1-4274-b532-29e3edd02304"},"vehicle_type_id":"4","last_reported":1747544983,"current_range_meters":10000,"station_id":"ce4bh312rcd13ifvqdk0","pricing_plan_id":"cebpf4jnsgd1na2vs0mg"},{"bike_id":"94cde674-815e-4ad1-b514-1d539d66a268","system_id":"levelo_inurba_marseille","lat":43.28458,"lon":5.35897,"is_reserved":false,"is_disabled":false,"rental_uris":{"android":"levelo://app?vid=94cde674-815e-4ad1-b514-1d539d66a268","ios":"levelo://app?vid=94cde674-815e-4ad1-b514-1d539d66a268"},"vehicle_type_id":"4","last_reported":1747544983,"current_range_meters":10000,"station_id":"ce4bhah2rcd13ifvqei0","pricing_plan_id":"cebpf4jnsgd1na2vs0mg"},{"bike_id":"3980d76b-e904-45ba-9bbd-4ee10919b44c","system_id":"levelo_inurba_marseille","lat":43.31077,"lon":5.38202,"is_reserved":false,"is_disabled":false,"rental_uris":{"android":"levelo://app?vid=3980d76b-e904-45ba-9bbd-4ee10919b44c","ios":"levelo://app?vid=3980d76b-e904-45ba-9bbd-4ee10919b44c"},"vehicle_type_id":"4","last_reported":1747544983,"current_range_meters":10000,"station_id":"","pricing_plan_id":"cebpf4jnsgd1na2vs0mg"},{"bike_id":"0ca4de5a-0993-4801-ac55-3b5bfdb25137","system_id":"levelo_inurba_marseille","lat":43.279008,"lon":5.380064,"is_reserved":false,"is_disabled":false,"rental_uris":{"android":"levelo://app?vid=0ca4de5a-0993-4801-ac55-3b5bfdb25137","ios":"levelo://app?vid=0ca4de5a-0993-4801-ac55-3b5bfdb25137"},"vehicle_type_id":"4","last_reported":1747544983,"current_range_meters":10000,"station_id":"ce4bhf92rcd13ifvqf50","pricing_plan_id":"cebpf4jnsgd1na2vs0mg"},{"bike_id":"14603e41-b2dd-4757-a53c-2e366aa4f983","system_id":"levelo_inurba_marseille","lat":43.26994,"lon":5.428234,"is_reserved":false,"is_disabled":false,"rental_uris":{"android":"levelo://app?vid=14603e41-b2dd-4757-a53c-2e366aa4f983","ios":"levelo://app?vid=14603e41-b2dd-4757-a53c-2e366aa4f983"},"vehicle_type_id":"4","last_reported":1747544983,"current_range_meters":10000,"station_id":"","pricing_plan_id":"cebpf4jnsgd1na2vs0mg"},{"bike_id":"186cb8c9-aa4f-49f7-951c-8f6c2e716a3e","system_id":"levelo_inurba_marseille","lat":43.29295,"lon":5.37458,"is_reserved":false,"is_disabled":false,"rental_uris":{"android":"levelo://app?vid=186cb8c9-aa4f-49f7-951c-8f6c2e716a3e","ios":"levelo://app?vid=186cb8c9-aa4f-49f7-951c-8f6c2e716a3e"},"vehicle_type_id":"4","last_reported":1747544983,"current_range_meters":10800,"station_id":"ce4bgi12rcd13ifvqb70","pricing_plan_id":"cebpf4jnsgd1na2vs0mg"},{"bike_id":"0ed9aa78-44cd-4e0d-8cbf-403f16048f90","system_id":"levelo_inurba_marseille","lat":43.28479,"lon":5.35908,"is_reserved":false,"is_disabled":false,"rental_uris":{"android":"levelo://app?vid=0ed9aa78-44cd-4e0d-8cbf-403f16048f90","ios":"levelo://app?vid=0ed9aa78-44cd-4e0d-8cbf-403f16048f90"},"vehicle_type_id":"4","last_reported":1747544983,"current_range_meters":10800,"station_id":"ce4bhah2rcd13ifvqei0","pricing_plan_id":"cebpf4jnsgd1na2vs0mg"},{"bike_id":"3725928c-be3e-412e-a7ab-18d223db2dcb","system_id":"levelo_inurba_marseille","lat":43.285585,"lon":5.394993,"is_reserved":false,"is_disabled":false,"rental_uris":{"android":"levelo://app?vid=3725928c-be3e-412e-a7ab-18d223db2dcb","ios":"levelo://app?vid=3725928c-be3e-412e-a7ab-18d223db2dcb"},"vehicle_type_id":"4","last_reported":1747544983,"current_range_meters":10800,"station_id":"ce4bh292rcd13ifvqdg0","pricing_plan_id":"cebpf4jnsgd1na2vs0mg"},{"bike_id":"c6e9421a-fcb0-4b3e-9f1a-1fed1b35433a","system_id":"levelo_inurba_marseille","lat":43.23145,"lon":5.43733,"is_reserved":false,"is_disabled":false,"rental_uris":{"android":"levelo://app?vid=c6e9421a-fcb0-4b3e-9f1a-1fed1b35433a","ios":"levelo://app?vid=c6e9421a-fcb0-4b3e-9f1a-1fed1b35433a"},"vehicle_type_id":"4","last_reported":1747544983,"current_range_meters":10800,"station_id":"ce4bhmp2rcd13ifvqgog","pricing_plan_id":"cebpf4jnsgd1na2vs0mg"},{"bike_id":"04caccac-fac0-4257-8dfe-104b91321d87","system_id":"levelo_inurba_marseille","lat":43.28414,"lon":5.37505,"is_reserved":false,"is_disabled":false,"rental_uris":{"android":"levelo://app?vid=04caccac-fac0-4257-8dfe-104b91321d87","ios":"levelo://app?vid=04caccac-fac0-4257-8dfe-104b91321d87"},"vehicle_type_id":"4","last_reported":1747544983,"current_range_meters":10800,"station_id":"ce4bh412rcd13ifvqds0","pricing_plan_id":"cebpf4jnsgd1na2vs0mg"},{"bike_id":"ffc3ddf2-0082-4578-9e25-c91f5b4279bc","system_id":"levelo_inurba_marseille","lat":43.28313,"lon":5.41125,"is_reserved":false,"is_disabled":false,"rental_uris":{"android":"levelo://app?vid=ffc3ddf2-0082-4578-9e25-c91f5b4279bc","ios":"levelo://app?vid=ffc3ddf2-0082-4578-9e25-c91f5b4279bc"},"vehicle_type_id":"4","last_reported":1747544983,"current_range_meters":10800,"station_id":"","pricing_plan_id":"cebpf4jnsgd1na2vs0mg"},{"bike_id":"0c34b593-39af-4c0b-aef0-e25cd680f42b","system_id":"levelo_inurba_marseille","lat":43.23192,"lon":5.39991,"is_reserved":false,"is_disabled":false,"rental_uris":{"android":"levelo://app?vid=0c34b593-39af-4c0b-aef0-e25cd680f42b","ios":"levelo://app?vid=0c34b593-39af-4c0b-aef0-e25cd680f42b"},"vehicle_type_id":"4","last_reported":1747544983,"current_range_meters":10800,"station_id":"ce4bhn12rcd13ifvqgqg","pricing_plan_id":"cebpf4jnsgd1na2vs0mg"},{"bike_id":"caf4c81d-8b81-4d8d-a4f9-9d00bac7ad70","system_id":"levelo_inurba_marseille","lat":43.307768,"lon":5.428213,"is_reserved":false,"is_disabled":false,"rental_uris":{"android":"levelo://app?vid=caf4c81d-8b81-4d8d-a4f9-9d00bac7ad70","ios":"levelo://app?vid=caf4c81d-8b81-4d8d-a4f9-9d00bac7ad70"},"vehicle_type_id":"4","last_reported":1747544983,"current_range_meters":10800,"station_id":"","pricing_plan_id":"cebpf4jnsgd1na2vs0mg"},{"bike_id":"0a9831e7-3d7e-4f0f-8fd1-a2b7691d85e1","system_id":"levelo_inurba_marseille","lat":43.285782,"lon":5.394962,"is_reserved":false,"is_disabled":false,"rental_uris":{"android":"levelo://app?vid=0a9831e7-3d7e-4f0f-8fd1-a2b7691d85e1","ios":"levelo://app?vid=0a9831e7-3d7e-4f0f-8fd1-a2b7691d85e1"},"vehicle_type_id":"4","last_reported":1747544983,"current_range_meters":10800,"station_id":"ce4bh292rcd13ifvqdg0","pricing_plan_id":"cebpf4jnsgd1na2vs0mg"},{"bike_id":"c6011266-cf18-4dc3-9e87-d8aad41d11e9","system_id":"levelo_inurba_marseille","lat":43.28824,"lon":5.39339,"is_reserved":false,"is_disabled":false,"rental_uris":{"android":"levelo://app?vid=c6011266-cf18-4dc3-9e87-d8aad41d11e9","ios":"levelo://app?vid=c6011266-cf18-4dc3-9e87-d8aad41d11e9"},"vehicle_type_id":"4","last_reported":1747544983,"current_range_meters":10800,"station_id":"ce4bh2p2rcd13ifvqdi0","pricing_plan_id":"cebpf4jnsgd1na2vs0mg"},{"bike_id":"bbad5bf7-b54d-4284-aeee-744acb86bc7d","system_id":"levelo_inurba_marseille","lat":43.27809,"lon":5.407246,"is_reserved":false,"is_disabled":false,"rental_uris":{"android":"levelo://app?vid=bbad5bf7-b54d-4284-aeee-744acb86bc7d","ios":"levelo://app?vid=bbad5bf7-b54d-4284-aeee-744acb86bc7d"},"vehicle_type_id":"4","last_reported":1747544983,"current_range_meters":10800,"station_id":"ce4bhnh2rcd13ifvqgtg","pricing_plan_id":"cebpf4jnsgd1na2vs0mg"},{"bike_id":"7868986d-a54c-4a37-84be-fce32b4b1235","system_id":"levelo_inurba_marseille","lat":43.26496,"lon":5.39538,"is_reserved":false,"is_disabled":false,"rental_uris":{"android":"levelo://app?vid=7868986d-a54c-4a37-84be-fce32b4b1235","ios":"levelo://app?vid=7868986d-a54c-4a37-84be-fce32b4b1235"},"vehicle_type_id":"4","last_reported":1747544983,"current_range_meters":11200,"station_id":"ce4bhi12rcd13ifvqfq0","pricing_plan_id":"cebpf4jnsgd1na2vs0mg"},{"bike_id":"7d9dd8c1-69f5-4957-8992-21b219e4420c","system_id":"levelo_inurba_marseille","lat":43.246751,"lon":5.381636,"is_reserved":false,"is_disabled":false,"rental_uris":{"android":"levelo://app?vid=7d9dd8c1-69f5-4957-8992-21b219e4420c","ios":"levelo://app?vid=7d9dd8c1-69f5-4957-8992-21b219e4420c"},"vehicle_type_id":"4","last_reported":1747544983,"current_range_meters":11200,"station_id":"ce4bhih2rcd13ifvqfr0","pricing_plan_id":"cebpf4jnsgd1na2vs0mg"},{"bike_id":"99aab1ac-0e74-4853-a5d5-d682d1f9422c","system_id":"levelo_inurba_marseille","lat":43.30933,"lon":5.40141,"is_reserved":false,"is_disabled":false,"rental_uris":{"android":"levelo://app?vid=99aab1ac-0e74-4853-a5d5-d682d1f9422c","ios":"levelo://app?vid=99aab1ac-0e74-4853-a5d5-d682d1f9422c"},"vehicle_type_id":"4","last_reported":1747544983,"current_range_meters":11200,"station_id":"ce4bgvp2rcd13ifvqct0","pricing_plan_id":"cebpf4jnsgd1na2vs0mg"},{"bike_id":"8dfe3edc-82df-4b5a-a412-16963c595c57","system_id":"levelo_inurba_marseille","lat":43.30882,"lon":5.39664,"is_reserved":false,"is_disabled":false,"rental_uris":{"android":"levelo://app?vid=8dfe3edc-82df-4b5a-a412-16963c595c57","ios":"levelo://app?vid=8dfe3edc-82df-4b5a-a412-16963c595c57"},"vehicle_type_id":"4","last_reported":1747544983,"current_range_meters":11600,"station_id":"ce4bh012rcd13ifvqcv0","pricing_plan_id":"cebpf4jnsgd1na2vs0mg"},{"bike_id":"56de12ec-c2b3-4960-90ca-a3bf7841338a","system_id":"levelo_inurba_marseille","lat":43.24638,"lon":5.38924,"is_reserved":false,"is_disabled":false,"rental_uris":{"android":"levelo://app?vid=56de12ec-c2b3-4960-90ca-a3bf7841338a","ios":"levelo://app?vid=56de12ec-c2b3-4960-90ca-a3bf7841338a"},"vehicle_type_id":"4","last_reported":1747544983,"current_range_meters":11600,"station_id":"ce4bhg12rcd13ifvqf60","pricing_plan_id":"cebpf4jnsgd1na2vs0mg"},{"bike_id":"88c266e6-7038-494f-b358-90ca603fb435","system_id":"levelo_inurba_marseille","lat":43.295777,"lon":5.374984,"is_reserved":false,"is_disabled":true,"rental_uris":{"android":"levelo://app?vid=88c266e6-7038-494f-b358-90ca603fb435","ios":"levelo://app?vid=88c266e6-7038-494f-b358-90ca603fb435"},"vehicle_type_id":"4","last_reported":1747544983,"current_range_meters":11600,"station_id":"ce4bgh92rcd13ifvqb50","pricing_plan_id":"cebpf4jnsgd1na2vs0mg"},{"bike_id":"c608898e-58b6-42f7-903a-6008119c7a64","system_id":"levelo_inurba_marseille","lat":43.24045,"lon":5.37823,"is_reserved":false,"is_disabled":false,"rental_uris":{"android":"levelo://app?vid=c608898e-58b6-42f7-903a-6008119c7a64","ios":"levelo://app?vid=c608898e-58b6-42f7-903a-6008119c7a64"},"vehicle_type_id":"4","last_reported":1747544983,"current_range_meters":11600,"station_id":"ce4bhnp2rcd13ifvqgvg","pricing_plan_id":"cebpf4jnsgd1na2vs0mg"},{"bike_id":"e70364cf-e3cc-4f7d-bb72-53979b280fcc","system_id":"levelo_inurba_marseille","lat":43.30264,"lon":5.40047,"is_reserved":false,"is_disabled":false,"rental_uris":{"android":"levelo://app?vid=e70364cf-e3cc-4f7d-bb72-53979b280fcc","ios":"levelo://app?vid=e70364cf-e3cc-4f7d-bb72-53979b280fcc"},"vehicle_type_id":"4","last_reported":1747544983,"current_range_meters":12000,"station_id":"ce4bgvh2rcd13ifvqcs0","pricing_plan_id":"cebpf4jnsgd1na2vs0mg"},{"bike_id":"ac17f9c9-7ee6-41de-bb75-3f81ebd8c42e","system_id":"levelo_inurba_marseille","lat":43.30641,"lon":5.40071,"is_reserved":false,"is_disabled":false,"rental_uris":{"android":"levelo://app?vid=ac17f9c9-7ee6-41de-bb75-3f81ebd8c42e","ios":"levelo://app?vid=ac17f9c9-7ee6-41de-bb75-3f81ebd8c42e"},"vehicle_type_id":"4","last_reported":1747544983,"current_range_meters":12000,"station_id":"ce4bh112rcd13ifvqda0","pricing_plan_id":"cebpf4jnsgd1na2vs0mg"},{"bike_id":"27f05115-decc-4fbb-b226-cbb837efe701","system_id":"levelo_inurba_marseille","lat":43.302525,"lon":5.400684,"is_reserved":false,"is_disabled":false,"rental_uris":{"android":"levelo://app?vid=27f05115-decc-4fbb-b226-cbb837efe701","ios":"levelo://app?vid=27f05115-decc-4fbb-b226-cbb837efe701"},"vehicle_type_id":"4","last_reported":1747544983,"current_range_meters":12000,"station_id":"ce4bgvh2rcd13ifvqcs0","pricing_plan_id":"cebpf4jnsgd1na2vs0mg"},{"bike_id":"0708e9ad-5eff-47eb-b55a-0d0952a60be3","system_id":"levelo_inurba_marseille","lat":43.30228,"lon":5.39486,"is_reserved":false,"is_disabled":false,"rental_uris":{"android":"levelo://app?vid=0708e9ad-5eff-47eb-b55a-0d0952a60be3","ios":"levelo://app?vid=0708e9ad-5eff-47eb-b55a-0d0952a60be3"},"vehicle_type_id":"4","last_reported":1747544983,"current_range_meters":12000,"station_id":"ce4bh0p2rcd13ifvqd70","pricing_plan_id":"cebpf4jnsgd1na2vs0mg"},{"bike_id":"f4422497-4aad-4e8b-bd52-83c14c78c01b","system_id":"levelo_inurba_marseille","lat":43.25099,"lon":5.40335,"is_reserved":false,"is_disabled":false,"rental_uris":{"android":"levelo://app?vid=f4422497-4aad-4e8b-bd52-83c14c78c01b","ios":"levelo://app?vid=f4422497-4aad-4e8b-bd52-83c14c78c01b"},"vehicle_type_id":"4","last_reported":1747544983,"current_range_meters":12000,"station_id":"ce4bhlh2rcd13ifvqgig","pricing_plan_id":"cebpf4jnsgd1na2vs0mg"},{"bike_id":"4739d0ee-0dbc-4b41-a171-18fe3d7e3cc9","system_id":"levelo_inurba_marseille","lat":43.29856,"lon":5.39759,"is_reserved":false,"is_disabled":false,"rental_uris":{"android":"levelo://app?vid=4739d0ee-0dbc-4b41-a171-18fe3d7e3cc9","ios":"levelo://app?vid=4739d0ee-0dbc-4b41-a171-18fe3d7e3cc9"},"vehicle_type_id":"4","last_reported":1747544983,"current_range_meters":12000,"station_id":"ce4bh0h2rcd13ifvqd50","pricing_plan_id":"cebpf4jnsgd1na2vs0mg"},{"bike_id":"0fff26c1-ee5a-45bd-8576-8f20831a7bcd","system_id":"levelo_inurba_marseille","lat":43.3,"lon":5.38521,"is_reserved":false,"is_disabled":true,"rental_uris":{"android":"levelo://app?vid=0fff26c1-ee5a-45bd-8576-8f20831a7bcd","ios":"levelo://app?vid=0fff26c1-ee5a-45bd-8576-8f20831a7bcd"},"vehicle_type_id":"4","last_reported":1747544983,"current_range_meters":12000,"station_id":"ce4bgj92rcd13ifvqbd0","pricing_plan_id":"cebpf4jnsgd1na2vs0mg"},{"bike_id":"eee74f2d-ed85-40ff-83e9-09c3b1e90d56","system_id":"levelo_inurba_marseille","lat":43.25126,"lon":5.40327,"is_reserved":false,"is_disabled":false,"rental_uris":{"android":"levelo://app?vid=eee74f2d-ed85-40ff-83e9-09c3b1e90d56","ios":"levelo://app?vid=eee74f2d-ed85-40ff-83e9-09c3b1e90d56"},"vehicle_type_id":"4","last_reported":1747544983,"current_range_meters":12000,"station_id":"ce4bhlh2rcd13ifvqgig","pricing_plan_id":"cebpf4jnsgd1na2vs0mg"},{"bike_id":"1b2f0e19-c9dc-4000-8367-67c619535c14","system_id":"levelo_inurba_marseille","lat":43.299439,"lon":5.365403,"is_reserved":false,"is_disabled":true,"rental_uris":{"android":"levelo://app?vid=1b2f0e19-c9dc-4000-8367-67c619535c14","ios":"levelo://app?vid=1b2f0e19-c9dc-4000-8367-67c619535c14"},"vehicle_type_id":"4","last_reported":1747544983,"current_range_meters":12000,"station_id":"ce4bgm92rcd13ifvqbr0","pricing_plan_id":"cebpf4jnsgd1na2vs0mg"},{"bike_id":"6e1bd625-3ec1-43df-9657-36d71ae09f8d","system_id":"levelo_inurba_marseille","lat":43.3374,"lon":5.37474,"is_reserved":false,"is_disabled":false,"rental_uris":{"android":"levelo://app?vid=6e1bd625-3ec1-43df-9657-36d71ae09f8d","ios":"levelo://app?vid=6e1bd625-3ec1-43df-9657-36d71ae09f8d"},"vehicle_type_id":"4","last_reported":1747544983,"current_range_meters":12000,"station_id":"","pricing_plan_id":"cebpf4jnsgd1na2vs0mg"},{"bike_id":"4745dd8b-a0b2-49db-b417-8a28eecc51d4","system_id":"levelo_inurba_marseille","lat":43.243301,"lon":5.38001,"is_reserved":false,"is_disabled":false,"rental_uris":{"android":"levelo://app?vid=4745dd8b-a0b2-49db-b417-8a28eecc51d4","ios":"levelo://app?vid=4745dd8b-a0b2-49db-b417-8a28eecc51d4"},"vehicle_type_id":"4","last_reported":1747544983,"current_range_meters":12000,"station_id":"","pricing_plan_id":"cebpf4jnsgd1na2vs0mg"},{"bike_id":"7238b89e-2b97-4bc5-95ab-4759c70767ab","system_id":"levelo_inurba_marseille","lat":43.311118,"lon":5.377653,"is_reserved":false,"is_disabled":false,"rental_uris":{"android":"levelo://app?vid=7238b89e-2b97-4bc5-95ab-4759c70767ab","ios":"levelo://app?vid=7238b89e-2b97-4bc5-95ab-4759c70767ab"},"vehicle_type_id":"4","last_reported":1747544983,"current_range_meters":12400,"station_id":"ce4bgt92rcd13ifvqcg0","pricing_plan_id":"cebpf4jnsgd1na2vs0mg"},{"bike_id":"1b9f2875-da91-4071-8abd-8fabb19331c9","system_id":"levelo_inurba_marseille","lat":43.284388,"lon":5.391907,"is_reserved":false,"is_disabled":false,"rental_uris":{"android":"levelo://app?vid=1b9f2875-da91-4071-8abd-8fabb19331c9","ios":"levelo://app?vid=1b9f2875-da91-4071-8abd-8fabb19331c9"},"vehicle_type_id":"4","last_reported":1747544983,"current_range_meters":12400,"station_id":"ce4bhoh2rcd13ifvqh5g","pricing_plan_id":"cebpf4jnsgd1na2vs0mg"},{"bike_id":"0e689d43-c17d-4781-a4d7-f7a5ff3e0dbd","system_id":"levelo_inurba_marseille","lat":43.30334,"lon":5.40431,"is_reserved":false,"is_disabled":false,"rental_uris":{"android":"levelo://app?vid=0e689d43-c17d-4781-a4d7-f7a5ff3e0dbd","ios":"levelo://app?vid=0e689d43-c17d-4781-a4d7-f7a5ff3e0dbd"},"vehicle_type_id":"4","last_reported":1747544983,"current_range_meters":12400,"station_id":"ce4bh012rcd13ifvqd10","pricing_plan_id":"cebpf4jnsgd1na2vs0mg"},{"bike_id":"98e134ff-6cb2-419d-a085-e204e5cdf7db","system_id":"levelo_inurba_marseille","lat":43.305422,"lon":5.384273,"is_reserved":false,"is_disabled":false,"rental_uris":{"android":"levelo://app?vid=98e134ff-6cb2-419d-a085-e204e5cdf7db","ios":"levelo://app?vid=98e134ff-6cb2-419d-a085-e204e5cdf7db"},"vehicle_type_id":"4","last_reported":1747544983,"current_range_meters":12800,"station_id":"ce4bgg92rcd13ifvqb30","pricing_plan_id":"cebpf4jnsgd1na2vs0mg"},{"bike_id":"0d6bd5fa-51d7-4151-9de2-9db0d7b9364d","system_id":"levelo_inurba_marseille","lat":43.29036,"lon":5.39963,"is_reserved":false,"is_disabled":false,"rental_uris":{"android":"levelo://app?vid=0d6bd5fa-51d7-4151-9de2-9db0d7b9364d","ios":"levelo://app?vid=0d6bd5fa-51d7-4151-9de2-9db0d7b9364d"},"vehicle_type_id":"4","last_reported":1747544983,"current_range_meters":12800,"station_id":"ce4bh392rcd13ifvqdm0","pricing_plan_id":"cebpf4jnsgd1na2vs0mg"},{"bike_id":"3845b92b-2215-4a79-be64-fa2b0d45d0ba","system_id":"levelo_inurba_marseille","lat":43.30241,"lon":5.39994,"is_reserved":false,"is_disabled":false,"rental_uris":{"android":"levelo://app?vid=3845b92b-2215-4a79-be64-fa2b0d45d0ba","ios":"levelo://app?vid=3845b92b-2215-4a79-be64-fa2b0d45d0ba"},"vehicle_type_id":"4","last_reported":1747544983,"current_range_meters":12800,"station_id":"ce4bgvh2rcd13ifvqcs0","pricing_plan_id":"cebpf4jnsgd1na2vs0mg"},{"bike_id":"ac3834a9-965b-4a58-89b3-af339b7bb1c6","system_id":"levelo_inurba_marseille","lat":43.284059,"lon":5.375164,"is_reserved":false,"is_disabled":false,"rental_uris":{"android":"levelo://app?vid=ac3834a9-965b-4a58-89b3-af339b7bb1c6","ios":"levelo://app?vid=ac3834a9-965b-4a58-89b3-af339b7bb1c6"},"vehicle_type_id":"4","last_reported":1747544983,"current_range_meters":12800,"station_id":"ce4bh412rcd13ifvqds0","pricing_plan_id":"cebpf4jnsgd1na2vs0mg"},{"bike_id":"3ba7c2a7-41ec-4970-b2db-84b73b82b25a","system_id":"levelo_inurba_marseille","lat":43.30314,"lon":5.404475,"is_reserved":false,"is_disabled":false,"rental_uris":{"android":"levelo://app?vid=3ba7c2a7-41ec-4970-b2db-84b73b82b25a","ios":"levelo://app?vid=3ba7c2a7-41ec-4970-b2db-84b73b82b25a"},"vehicle_type_id":"4","last_reported":1747544983,"current_range_meters":13600,"station_id":"ce4bh012rcd13ifvqd10","pricing_plan_id":"cebpf4jnsgd1na2vs0mg"},{"bike_id":"262036fe-d80c-4d06-a49b-dfb02bc52ea7","system_id":"levelo_inurba_marseille","lat":43.30935,"lon":5.40167,"is_reserved":false,"is_disabled":false,"rental_uris":{"android":"levelo://app?vid=262036fe-d80c-4d06-a49b-dfb02bc52ea7","ios":"levelo://app?vid=262036fe-d80c-4d06-a49b-dfb02bc52ea7"},"vehicle_type_id":"4","last_reported":1747544983,"current_range_meters":13600,"station_id":"ce4bgvp2rcd13ifvqct0","pricing_plan_id":"cebpf4jnsgd1na2vs0mg"},{"bike_id":"6ee7001e-07ad-49d2-9902-4e2095457f59","system_id":"levelo_inurba_marseille","lat":43.27072,"lon":5.42278,"is_reserved":false,"is_disabled":true,"rental_uris":{"android":"levelo://app?vid=6ee7001e-07ad-49d2-9902-4e2095457f59","ios":"levelo://app?vid=6ee7001e-07ad-49d2-9902-4e2095457f59"},"vehicle_type_id":"4","last_reported":1747544983,"current_range_meters":13600,"station_id":"ce4bhk92rcd13ifvqgb0","pricing_plan_id":"cebpf4jnsgd1na2vs0mg"},{"bike_id":"d55f9225-e6ff-4e45-92e4-2cc2ba495a7c","system_id":"levelo_inurba_marseille","lat":43.30887,"lon":5.38283,"is_reserved":false,"is_disabled":false,"rental_uris":{"android":"levelo://app?vid=d55f9225-e6ff-4e45-92e4-2cc2ba495a7c","ios":"levelo://app?vid=d55f9225-e6ff-4e45-92e4-2cc2ba495a7c"},"vehicle_type_id":"4","last_reported":1747544983,"current_range_meters":13600,"station_id":"","pricing_plan_id":"cebpf4jnsgd1na2vs0mg"},{"bike_id":"584c70d0-0918-4aa0-b289-fcc6a9442003","system_id":"levelo_inurba_marseille","lat":43.25103,"lon":5.39544,"is_reserved":false,"is_disabled":false,"rental_uris":{"android":"levelo://app?vid=584c70d0-0918-4aa0-b289-fcc6a9442003","ios":"levelo://app?vid=584c70d0-0918-4aa0-b289-fcc6a9442003"},"vehicle_type_id":"4","last_reported":1747544983,"current_range_meters":13600,"station_id":"ce4bhm12rcd13ifvqgkg","pricing_plan_id":"cebpf4jnsgd1na2vs0mg"},{"bike_id":"a2e8ac07-c27d-4596-ac54-d8fb456abf0d","system_id":"levelo_inurba_marseille","lat":43.28251,"lon":5.4239,"is_reserved":false,"is_disabled":false,"rental_uris":{"android":"levelo://app?vid=a2e8ac07-c27d-4596-ac54-d8fb456abf0d","ios":"levelo://app?vid=a2e8ac07-c27d-4596-ac54-d8fb456abf0d"},"vehicle_type_id":"4","last_reported":1747544983,"current_range_meters":13600,"station_id":"","pricing_plan_id":"cebpf4jnsgd1na2vs0mg"},{"bike_id":"cc8e8fbb-9cc6-4e6a-9b69-bb0a5e98abad","system_id":"levelo_inurba_marseille","lat":43.297843,"lon":5.39346,"is_reserved":false,"is_disabled":false,"rental_uris":{"android":"levelo://app?vid=cc8e8fbb-9cc6-4e6a-9b69-bb0a5e98abad","ios":"levelo://app?vid=cc8e8fbb-9cc6-4e6a-9b69-bb0a5e98abad"},"vehicle_type_id":"4","last_reported":1747544983,"current_range_meters":13600,"station_id":"chh1huq6cuj3fo74tm60","pricing_plan_id":"cebpf4jnsgd1na2vs0mg"},{"bike_id":"06fb6274-c887-4ce8-9273-400ecb3aef67","system_id":"levelo_inurba_marseille","lat":43.28393,"lon":5.46036,"is_reserved":false,"is_disabled":false,"rental_uris":{"android":"levelo://app?vid=06fb6274-c887-4ce8-9273-400ecb3aef67","ios":"levelo://app?vid=06fb6274-c887-4ce8-9273-400ecb3aef67"},"vehicle_type_id":"4","last_reported":1747544983,"current_range_meters":13600,"station_id":"","pricing_plan_id":"cebpf4jnsgd1na2vs0mg"},{"bike_id":"d2e2c8dc-12a9-4d82-a79d-ae1717370632","system_id":"levelo_inurba_marseille","lat":43.311175,"lon":5.377682,"is_reserved":false,"is_disabled":false,"rental_uris":{"android":"levelo://app?vid=d2e2c8dc-12a9-4d82-a79d-ae1717370632","ios":"levelo://app?vid=d2e2c8dc-12a9-4d82-a79d-ae1717370632"},"vehicle_type_id":"4","last_reported":1747544983,"current_range_meters":14000,"station_id":"ce4bgt92rcd13ifvqcg0","pricing_plan_id":"cebpf4jnsgd1na2vs0mg"},{"bike_id":"07e76d55-d7b0-45c1-ba5a-51f83c06a785","system_id":"levelo_inurba_marseille","lat":43.29257,"lon":5.40908,"is_reserved":false,"is_disabled":false,"rental_uris":{"android":"levelo://app?vid=07e76d55-d7b0-45c1-ba5a-51f83c06a785","ios":"levelo://app?vid=07e76d55-d7b0-45c1-ba5a-51f83c06a785"},"vehicle_type_id":"4","last_reported":1747544983,"current_range_meters":14000,"station_id":"ce4bh192rcd13ifvqdc0","pricing_plan_id":"cebpf4jnsgd1na2vs0mg"},{"bike_id":"55982159-14b0-423d-a8c0-c157cf2770cd","system_id":"levelo_inurba_marseille","lat":43.27766,"lon":5.362394,"is_reserved":false,"is_disabled":false,"rental_uris":{"android":"levelo://app?vid=55982159-14b0-423d-a8c0-c157cf2770cd","ios":"levelo://app?vid=55982159-14b0-423d-a8c0-c157cf2770cd"},"vehicle_type_id":"4","last_reported":1747544983,"current_range_meters":14000,"station_id":"","pricing_plan_id":"cebpf4jnsgd1na2vs0mg"},{"bike_id":"b26a0dd7-cbdc-4ab7-8def-31c4b88b224a","system_id":"levelo_inurba_marseille","lat":43.3121,"lon":5.39228,"is_reserved":false,"is_disabled":false,"rental_uris":{"android":"levelo://app?vid=b26a0dd7-cbdc-4ab7-8def-31c4b88b224a","ios":"levelo://app?vid=b26a0dd7-cbdc-4ab7-8def-31c4b88b224a"},"vehicle_type_id":"4","last_reported":1747544983,"current_range_meters":14000,"station_id":"","pricing_plan_id":"cebpf4jnsgd1na2vs0mg"},{"bike_id":"e601ce08-8e8b-4e19-aba6-1226c7cf3db9","system_id":"levelo_inurba_marseille","lat":43.28441,"lon":5.39182,"is_reserved":false,"is_disabled":false,"rental_uris":{"android":"levelo://app?vid=e601ce08-8e8b-4e19-aba6-1226c7cf3db9","ios":"levelo://app?vid=e601ce08-8e8b-4e19-aba6-1226c7cf3db9"},"vehicle_type_id":"4","last_reported":1747544983,"current_range_meters":14000,"station_id":"ce4bhoh2rcd13ifvqh5g","pricing_plan_id":"cebpf4jnsgd1na2vs0mg"},{"bike_id":"19a61da9-a97e-4007-8732-605f996b7778","system_id":"levelo_inurba_marseille","lat":43.28413,"lon":5.37518,"is_reserved":false,"is_disabled":false,"rental_uris":{"android":"levelo://app?vid=19a61da9-a97e-4007-8732-605f996b7778","ios":"levelo://app?vid=19a61da9-a97e-4007-8732-605f996b7778"},"vehicle_type_id":"4","last_reported":1747544983,"current_range_meters":14000,"station_id":"ce4bh412rcd13ifvqds0","pricing_plan_id":"cebpf4jnsgd1na2vs0mg"},{"bike_id":"9a634cce-4d77-460e-99aa-ca1a94d23980","system_id":"levelo_inurba_marseille","lat":43.302474,"lon":5.400629,"is_reserved":false,"is_disabled":false,"rental_uris":{"android":"levelo://app?vid=9a634cce-4d77-460e-99aa-ca1a94d23980","ios":"levelo://app?vid=9a634cce-4d77-460e-99aa-ca1a94d23980"},"vehicle_type_id":"4","last_reported":1747544983,"current_range_meters":14000,"station_id":"ce4bgvh2rcd13ifvqcs0","pricing_plan_id":"cebpf4jnsgd1na2vs0mg"},{"bike_id":"413bef15-dfa5-4402-8f54-d43281332ab5","system_id":"levelo_inurba_marseille","lat":43.24053,"lon":5.37768,"is_reserved":false,"is_disabled":false,"rental_uris":{"android":"levelo://app?vid=413bef15-dfa5-4402-8f54-d43281332ab5","ios":"levelo://app?vid=413bef15-dfa5-4402-8f54-d43281332ab5"},"vehicle_type_id":"4","last_reported":1747544983,"current_range_meters":14000,"station_id":"ce4bhnp2rcd13ifvqgvg","pricing_plan_id":"cebpf4jnsgd1na2vs0mg"},{"bike_id":"1cb8de45-6a2e-4eb3-9101-6ff953a05b07","system_id":"levelo_inurba_marseille","lat":43.284615,"lon":5.358847,"is_reserved":false,"is_disabled":false,"rental_uris":{"android":"levelo://app?vid=1cb8de45-6a2e-4eb3-9101-6ff953a05b07","ios":"levelo://app?vid=1cb8de45-6a2e-4eb3-9101-6ff953a05b07"},"vehicle_type_id":"4","last_reported":1747544983,"current_range_meters":14000,"station_id":"ce4bhah2rcd13ifvqei0","pricing_plan_id":"cebpf4jnsgd1na2vs0mg"},{"bike_id":"5911af4c-0fec-4cf2-a307-b3bae3f3f5c8","system_id":"levelo_inurba_marseille","lat":43.31316,"lon":5.39764,"is_reserved":false,"is_disabled":false,"rental_uris":{"android":"levelo://app?vid=5911af4c-0fec-4cf2-a307-b3bae3f3f5c8","ios":"levelo://app?vid=5911af4c-0fec-4cf2-a307-b3bae3f3f5c8"},"vehicle_type_id":"4","last_reported":1747544983,"current_range_meters":14400,"station_id":"ce4bgvp2rcd13ifvqcu0","pricing_plan_id":"cebpf4jnsgd1na2vs0mg"},{"bike_id":"2f0cadb4-d32c-481d-b010-d7df56ff1e9c","system_id":"levelo_inurba_marseille","lat":43.292501,"lon":5.409146,"is_reserved":false,"is_disabled":false,"rental_uris":{"android":"levelo://app?vid=2f0cadb4-d32c-481d-b010-d7df56ff1e9c","ios":"levelo://app?vid=2f0cadb4-d32c-481d-b010-d7df56ff1e9c"},"vehicle_type_id":"4","last_reported":1747544983,"current_range_meters":14400,"station_id":"ce4bh192rcd13ifvqdc0","pricing_plan_id":"cebpf4jnsgd1na2vs0mg"},{"bike_id":"4462e83f-f9da-46b7-b369-5dd2dc83114c","system_id":"levelo_inurba_marseille","lat":43.323265,"lon":5.406245,"is_reserved":false,"is_disabled":false,"rental_uris":{"android":"levelo://app?vid=4462e83f-f9da-46b7-b369-5dd2dc83114c","ios":"levelo://app?vid=4462e83f-f9da-46b7-b369-5dd2dc83114c"},"vehicle_type_id":"4","last_reported":1747544983,"current_range_meters":14400,"station_id":"ce4bhq92rcd13ifvqhjg","pricing_plan_id":"cebpf4jnsgd1na2vs0mg"},{"bike_id":"1df77482-56ed-43f0-a80c-7f28eed744f8","system_id":"levelo_inurba_marseille","lat":43.25118,"lon":5.40336,"is_reserved":false,"is_disabled":false,"rental_uris":{"android":"levelo://app?vid=1df77482-56ed-43f0-a80c-7f28eed744f8","ios":"levelo://app?vid=1df77482-56ed-43f0-a80c-7f28eed744f8"},"vehicle_type_id":"4","last_reported":1747544983,"current_range_meters":14400,"station_id":"ce4bhlh2rcd13ifvqgig","pricing_plan_id":"cebpf4jnsgd1na2vs0mg"},{"bike_id":"51a33848-f0f0-40ec-b6c6-8948c992d932","system_id":"levelo_inurba_marseille","lat":43.25088,"lon":5.39516,"is_reserved":false,"is_disabled":false,"rental_uris":{"android":"levelo://app?vid=51a33848-f0f0-40ec-b6c6-8948c992d932","ios":"levelo://app?vid=51a33848-f0f0-40ec-b6c6-8948c992d932"},"vehicle_type_id":"4","last_reported":1747544983,"current_range_meters":14400,"station_id":"ce4bhm12rcd13ifvqgkg","pricing_plan_id":"cebpf4jnsgd1na2vs0mg"},{"bike_id":"0ae67a56-97a5-4634-9c6d-d0b84621d979","system_id":"levelo_inurba_marseille","lat":43.298751,"lon":5.397335,"is_reserved":false,"is_disabled":false,"rental_uris":{"android":"levelo://app?vid=0ae67a56-97a5-4634-9c6d-d0b84621d979","ios":"levelo://app?vid=0ae67a56-97a5-4634-9c6d-d0b84621d979"},"vehicle_type_id":"4","last_reported":1747544983,"current_range_meters":14400,"station_id":"ce4bh0h2rcd13ifvqd50","pricing_plan_id":"cebpf4jnsgd1na2vs0mg"},{"bike_id":"e8c092b6-ea1e-49b4-86f2-ae6140f06f6f","system_id":"levelo_inurba_marseille","lat":43.289192,"lon":5.383954,"is_reserved":false,"is_disabled":true,"rental_uris":{"android":"levelo://app?vid=e8c092b6-ea1e-49b4-86f2-ae6140f06f6f","ios":"levelo://app?vid=e8c092b6-ea1e-49b4-86f2-ae6140f06f6f"},"vehicle_type_id":"4","last_reported":1747544983,"current_range_meters":14400,"station_id":"","pricing_plan_id":"cebpf4jnsgd1na2vs0mg"},{"bike_id":"e674cae6-f0c9-4f2a-8917-746a5700b149","system_id":"levelo_inurba_marseille","lat":43.270587,"lon":5.402733,"is_reserved":false,"is_disabled":false,"rental_uris":{"android":"levelo://app?vid=e674cae6-f0c9-4f2a-8917-746a5700b149","ios":"levelo://app?vid=e674cae6-f0c9-4f2a-8917-746a5700b149"},"vehicle_type_id":"4","last_reported":1747544983,"current_range_meters":14400,"station_id":"ce4bhk92rcd13ifvqgc0","pricing_plan_id":"cebpf4jnsgd1na2vs0mg"},{"bike_id":"bd1589fc-912a-4341-8b2b-3e98f19f9576","system_id":"levelo_inurba_marseille","lat":43.25109,"lon":5.40322,"is_reserved":false,"is_disabled":false,"rental_uris":{"android":"levelo://app?vid=bd1589fc-912a-4341-8b2b-3e98f19f9576","ios":"levelo://app?vid=bd1589fc-912a-4341-8b2b-3e98f19f9576"},"vehicle_type_id":"4","last_reported":1747544983,"current_range_meters":14800,"station_id":"ce4bhlh2rcd13ifvqgig","pricing_plan_id":"cebpf4jnsgd1na2vs0mg"},{"bike_id":"7d24953f-02f5-4bab-90e0-a53990d7ca8d","system_id":"levelo_inurba_marseille","lat":43.31482,"lon":5.37308,"is_reserved":false,"is_disabled":false,"rental_uris":{"android":"levelo://app?vid=7d24953f-02f5-4bab-90e0-a53990d7ca8d","ios":"levelo://app?vid=7d24953f-02f5-4bab-90e0-a53990d7ca8d"},"vehicle_type_id":"4","last_reported":1747544983,"current_range_meters":14800,"station_id":"ce4bgt12rcd13ifvqcd0","pricing_plan_id":"cebpf4jnsgd1na2vs0mg"},{"bike_id":"3e0a681c-1573-49b0-8a9e-93741014464c","system_id":"levelo_inurba_marseille","lat":43.313549,"lon":5.385018,"is_reserved":false,"is_disabled":false,"rental_uris":{"android":"levelo://app?vid=3e0a681c-1573-49b0-8a9e-93741014464c","ios":"levelo://app?vid=3e0a681c-1573-49b0-8a9e-93741014464c"},"vehicle_type_id":"4","last_reported":1747544983,"current_range_meters":14800,"station_id":"ce4bgt92rcd13ifvqcf0","pricing_plan_id":"cebpf4jnsgd1na2vs0mg"},{"bike_id":"6bc97e27-c5a1-4b41-a53f-b39682e4c4d8","system_id":"levelo_inurba_marseille","lat":43.314811,"lon":5.373087,"is_reserved":false,"is_disabled":false,"rental_uris":{"android":"levelo://app?vid=6bc97e27-c5a1-4b41-a53f-b39682e4c4d8","ios":"levelo://app?vid=6bc97e27-c5a1-4b41-a53f-b39682e4c4d8"},"vehicle_type_id":"4","last_reported":1747544983,"current_range_meters":14800,"station_id":"ce4bgt12rcd13ifvqcd0","pricing_plan_id":"cebpf4jnsgd1na2vs0mg"},{"bike_id":"eebd567d-2f71-46f2-a54f-625b45fe1b61","system_id":"levelo_inurba_marseille","lat":43.27917,"lon":5.41032,"is_reserved":false,"is_disabled":false,"rental_uris":{"android":"levelo://app?vid=eebd567d-2f71-46f2-a54f-625b45fe1b61","ios":"levelo://app?vid=eebd567d-2f71-46f2-a54f-625b45fe1b61"},"vehicle_type_id":"4","last_reported":1747544983,"current_range_meters":14800,"station_id":"ce4bhnp2rcd13ifvqh0g","pricing_plan_id":"cebpf4jnsgd1na2vs0mg"},{"bike_id":"64b83d24-6479-4ee0-9806-380fb00f435f","system_id":"levelo_inurba_marseille","lat":43.306392,"lon":5.400731,"is_reserved":false,"is_disabled":false,"rental_uris":{"android":"levelo://app?vid=64b83d24-6479-4ee0-9806-380fb00f435f","ios":"levelo://app?vid=64b83d24-6479-4ee0-9806-380fb00f435f"},"vehicle_type_id":"4","last_reported":1747544983,"current_range_meters":14800,"station_id":"ce4bh112rcd13ifvqda0","pricing_plan_id":"cebpf4jnsgd1na2vs0mg"},{"bike_id":"9cfc62f6-3d6a-4f92-b6d1-581ff6b50e29","system_id":"levelo_inurba_marseille","lat":43.302944,"lon":5.392212,"is_reserved":false,"is_disabled":false,"rental_uris":{"android":"levelo://app?vid=9cfc62f6-3d6a-4f92-b6d1-581ff6b50e29","ios":"levelo://app?vid=9cfc62f6-3d6a-4f92-b6d1-581ff6b50e29"},"vehicle_type_id":"4","last_reported":1747544983,"current_range_meters":14800,"station_id":"ce4bgkh2rcd13ifvqbk0","pricing_plan_id":"cebpf4jnsgd1na2vs0mg"},{"bike_id":"8bed9aaa-52ac-4f5e-8bbb-515dc545319a","system_id":"levelo_inurba_marseille","lat":43.24679,"lon":5.38186,"is_reserved":false,"is_disabled":false,"rental_uris":{"android":"levelo://app?vid=8bed9aaa-52ac-4f5e-8bbb-515dc545319a","ios":"levelo://app?vid=8bed9aaa-52ac-4f5e-8bbb-515dc545319a"},"vehicle_type_id":"4","last_reported":1747544983,"current_range_meters":14800,"station_id":"ce4bhih2rcd13ifvqfr0","pricing_plan_id":"cebpf4jnsgd1na2vs0mg"},{"bike_id":"9cf9dfda-9ca5-42dc-8938-097eb2817c07","system_id":"levelo_inurba_marseille","lat":43.28846,"lon":5.35852,"is_reserved":false,"is_disabled":false,"rental_uris":{"android":"levelo://app?vid=9cf9dfda-9ca5-42dc-8938-097eb2817c07","ios":"levelo://app?vid=9cf9dfda-9ca5-42dc-8938-097eb2817c07"},"vehicle_type_id":"4","last_reported":1747544983,"current_range_meters":15200,"station_id":"ce4bhb12rcd13ifvqem0","pricing_plan_id":"cebpf4jnsgd1na2vs0mg"},{"bike_id":"cbff0bd8-ab69-455f-978e-8e044433b1ea","system_id":"levelo_inurba_marseille","lat":43.303142,"lon":5.404371,"is_reserved":false,"is_disabled":false,"rental_uris":{"android":"levelo://app?vid=cbff0bd8-ab69-455f-978e-8e044433b1ea","ios":"levelo://app?vid=cbff0bd8-ab69-455f-978e-8e044433b1ea"},"vehicle_type_id":"4","last_reported":1747544983,"current_range_meters":15200,"station_id":"ce4bh012rcd13ifvqd10","pricing_plan_id":"cebpf4jnsgd1na2vs0mg"},{"bike_id":"d8da70fb-a079-460a-9e23-65ed45fe0088","system_id":"levelo_inurba_marseille","lat":43.254874,"lon":5.376511,"is_reserved":false,"is_disabled":true,"rental_uris":{"android":"levelo://app?vid=d8da70fb-a079-460a-9e23-65ed45fe0088","ios":"levelo://app?vid=d8da70fb-a079-460a-9e23-65ed45fe0088"},"vehicle_type_id":"4","last_reported":1747544983,"current_range_meters":15200,"station_id":"ce4bhh12rcd13ifvqff0","pricing_plan_id":"cebpf4jnsgd1na2vs0mg"},{"bike_id":"942d70f0-6de3-463e-b885-a14fc7604da5","system_id":"levelo_inurba_marseille","lat":43.24676,"lon":5.381598,"is_reserved":false,"is_disabled":false,"rental_uris":{"android":"levelo://app?vid=942d70f0-6de3-463e-b885-a14fc7604da5","ios":"levelo://app?vid=942d70f0-6de3-463e-b885-a14fc7604da5"},"vehicle_type_id":"4","last_reported":1747544983,"current_range_meters":16000,"station_id":"ce4bhih2rcd13ifvqfr0","pricing_plan_id":"cebpf4jnsgd1na2vs0mg"},{"bike_id":"58887f66-7108-4294-a00e-551c17af804a","system_id":"levelo_inurba_marseille","lat":43.262276,"lon":5.404562,"is_reserved":false,"is_disabled":false,"rental_uris":{"android":"levelo://app?vid=58887f66-7108-4294-a00e-551c17af804a","ios":"levelo://app?vid=58887f66-7108-4294-a00e-551c17af804a"},"vehicle_type_id":"4","last_reported":1747544983,"current_range_meters":16000,"station_id":"ce4bhmh2rcd13ifvqgmg","pricing_plan_id":"cebpf4jnsgd1na2vs0mg"},{"bike_id":"cbf22af3-6c8f-4023-8971-3961263cafe8","system_id":"levelo_inurba_marseille","lat":43.286955,"lon":5.373929,"is_reserved":false,"is_disabled":true,"rental_uris":{"android":"levelo://app?vid=cbf22af3-6c8f-4023-8971-3961263cafe8","ios":"levelo://app?vid=cbf22af3-6c8f-4023-8971-3961263cafe8"},"vehicle_type_id":"4","last_reported":1747544983,"current_range_meters":16000,"station_id":"ce4bh3p2rcd13ifvqdq0","pricing_plan_id":"cebpf4jnsgd1na2vs0mg"},{"bike_id":"74fbea3f-8a18-4fc8-8f56-6b744c75f57a","system_id":"levelo_inurba_marseille","lat":43.298736,"lon":5.397378,"is_reserved":false,"is_disabled":false,"rental_uris":{"android":"levelo://app?vid=74fbea3f-8a18-4fc8-8f56-6b744c75f57a","ios":"levelo://app?vid=74fbea3f-8a18-4fc8-8f56-6b744c75f57a"},"vehicle_type_id":"4","last_reported":1747544983,"current_range_meters":16000,"station_id":"ce4bh0h2rcd13ifvqd50","pricing_plan_id":"cebpf4jnsgd1na2vs0mg"},{"bike_id":"0a672e4f-4d62-47b0-88d5-45b4c1c6a08c","system_id":"levelo_inurba_marseille","lat":43.295571,"lon":5.422906,"is_reserved":false,"is_disabled":false,"rental_uris":{"android":"levelo://app?vid=0a672e4f-4d62-47b0-88d5-45b4c1c6a08c","ios":"levelo://app?vid=0a672e4f-4d62-47b0-88d5-45b4c1c6a08c"},"vehicle_type_id":"4","last_reported":1747544983,"current_range_meters":16000,"station_id":"ce4bhph2rcd13ifvqhdg","pricing_plan_id":"cebpf4jnsgd1na2vs0mg"},{"bike_id":"c5ff94be-c2ea-413f-a053-ee20ee5d180d","system_id":"levelo_inurba_marseille","lat":43.311099,"lon":5.377686,"is_reserved":false,"is_disabled":false,"rental_uris":{"android":"levelo://app?vid=c5ff94be-c2ea-413f-a053-ee20ee5d180d","ios":"levelo://app?vid=c5ff94be-c2ea-413f-a053-ee20ee5d180d"},"vehicle_type_id":"4","last_reported":1747544983,"current_range_meters":16000,"station_id":"ce4bgt92rcd13ifvqcg0","pricing_plan_id":"cebpf4jnsgd1na2vs0mg"},{"bike_id":"7a31f435-63bc-4ff6-838b-d79912959956","system_id":"levelo_inurba_marseille","lat":43.26229,"lon":5.40442,"is_reserved":false,"is_disabled":false,"rental_uris":{"android":"levelo://app?vid=7a31f435-63bc-4ff6-838b-d79912959956","ios":"levelo://app?vid=7a31f435-63bc-4ff6-838b-d79912959956"},"vehicle_type_id":"4","last_reported":1747544983,"current_range_meters":16000,"station_id":"ce4bhmh2rcd13ifvqgmg","pricing_plan_id":"cebpf4jnsgd1na2vs0mg"},{"bike_id":"b947e013-2e44-4d3f-95bd-7fde4f81ce7e","system_id":"levelo_inurba_marseille","lat":43.323361,"lon":5.406201,"is_reserved":false,"is_disabled":false,"rental_uris":{"android":"levelo://app?vid=b947e013-2e44-4d3f-95bd-7fde4f81ce7e","ios":"levelo://app?vid=b947e013-2e44-4d3f-95bd-7fde4f81ce7e"},"vehicle_type_id":"4","last_reported":1747544983,"current_range_meters":16000,"station_id":"ce4bhq92rcd13ifvqhjg","pricing_plan_id":"cebpf4jnsgd1na2vs0mg"},{"bike_id":"3d2f1512-e22a-4d90-8139-b2ee1095bcd0","system_id":"levelo_inurba_marseille","lat":43.30169,"lon":5.3808,"is_reserved":false,"is_disabled":false,"rental_uris":{"android":"levelo://app?vid=3d2f1512-e22a-4d90-8139-b2ee1095bcd0","ios":"levelo://app?vid=3d2f1512-e22a-4d90-8139-b2ee1095bcd0"},"vehicle_type_id":"4","last_reported":1747544983,"current_range_meters":16000,"station_id":"ce4bgjp2rcd13ifvqbh0","pricing_plan_id":"cebpf4jnsgd1na2vs0mg"},{"bike_id":"2f22e502-93ed-458e-bf58-1819fda515f3","system_id":"levelo_inurba_marseille","lat":43.31101,"lon":5.37766,"is_reserved":false,"is_disabled":false,"rental_uris":{"android":"levelo://app?vid=2f22e502-93ed-458e-bf58-1819fda515f3","ios":"levelo://app?vid=2f22e502-93ed-458e-bf58-1819fda515f3"},"vehicle_type_id":"4","last_reported":1747544983,"current_range_meters":16000,"station_id":"ce4bgt92rcd13ifvqcg0","pricing_plan_id":"cebpf4jnsgd1na2vs0mg"},{"bike_id":"45a953fa-4b33-44a8-9ab1-561bf30f869f","system_id":"levelo_inurba_marseille","lat":43.30436,"lon":5.38886,"is_reserved":false,"is_disabled":false,"rental_uris":{"android":"levelo://app?vid=45a953fa-4b33-44a8-9ab1-561bf30f869f","ios":"levelo://app?vid=45a953fa-4b33-44a8-9ab1-561bf30f869f"},"vehicle_type_id":"4","last_reported":1747544983,"current_range_meters":16000,"station_id":"ce4bgk12rcd13ifvqbi0","pricing_plan_id":"cebpf4jnsgd1na2vs0mg"},{"bike_id":"7d2d7b5f-e811-498d-8f6b-400813d554e3","system_id":"levelo_inurba_marseille","lat":43.211935,"lon":5.350676,"is_reserved":false,"is_disabled":true,"rental_uris":{"android":"levelo://app?vid=7d2d7b5f-e811-498d-8f6b-400813d554e3","ios":"levelo://app?vid=7d2d7b5f-e811-498d-8f6b-400813d554e3"},"vehicle_type_id":"4","last_reported":1747544983,"current_range_meters":16000,"station_id":"st_cvj6sg6p6f1abm77japg","pricing_plan_id":"cebpf4jnsgd1na2vs0mg"},{"bike_id":"2d43dba1-6ff7-4289-91c8-c617d5aac932","system_id":"levelo_inurba_marseille","lat":43.29585,"lon":5.374953,"is_reserved":false,"is_disabled":true,"rental_uris":{"android":"levelo://app?vid=2d43dba1-6ff7-4289-91c8-c617d5aac932","ios":"levelo://app?vid=2d43dba1-6ff7-4289-91c8-c617d5aac932"},"vehicle_type_id":"4","last_reported":1747544983,"current_range_meters":16400,"station_id":"ce4bgh92rcd13ifvqb50","pricing_plan_id":"cebpf4jnsgd1na2vs0mg"},{"bike_id":"168ff632-117e-4c12-8961-89fb008f2faf","system_id":"levelo_inurba_marseille","lat":43.27216,"lon":5.39183,"is_reserved":false,"is_disabled":true,"rental_uris":{"android":"levelo://app?vid=168ff632-117e-4c12-8961-89fb008f2faf","ios":"levelo://app?vid=168ff632-117e-4c12-8961-89fb008f2faf"},"vehicle_type_id":"4","last_reported":1747544983,"current_range_meters":16400,"station_id":"ce4bhhp2rcd13ifvqfm0","pricing_plan_id":"cebpf4jnsgd1na2vs0mg"},{"bike_id":"b41619e3-6dbe-49d7-baca-02ff8f7f1d54","system_id":"levelo_inurba_marseille","lat":43.30929,"lon":5.40142,"is_reserved":false,"is_disabled":false,"rental_uris":{"android":"levelo://app?vid=b41619e3-6dbe-49d7-baca-02ff8f7f1d54","ios":"levelo://app?vid=b41619e3-6dbe-49d7-baca-02ff8f7f1d54"},"vehicle_type_id":"4","last_reported":1747544983,"current_range_meters":16400,"station_id":"ce4bgvp2rcd13ifvqct0","pricing_plan_id":"cebpf4jnsgd1na2vs0mg"},{"bike_id":"7e51c783-7282-47be-b939-67f3cf3f0703","system_id":"levelo_inurba_marseille","lat":43.251098,"lon":5.403283,"is_reserved":false,"is_disabled":false,"rental_uris":{"android":"levelo://app?vid=7e51c783-7282-47be-b939-67f3cf3f0703","ios":"levelo://app?vid=7e51c783-7282-47be-b939-67f3cf3f0703"},"vehicle_type_id":"4","last_reported":1747544983,"current_range_meters":16400,"station_id":"ce4bhlh2rcd13ifvqgig","pricing_plan_id":"cebpf4jnsgd1na2vs0mg"},{"bike_id":"1b586395-d7b7-480d-8921-ab9290352404","system_id":"levelo_inurba_marseille","lat":43.32362,"lon":5.36737,"is_reserved":false,"is_disabled":false,"rental_uris":{"android":"levelo://app?vid=1b586395-d7b7-480d-8921-ab9290352404","ios":"levelo://app?vid=1b586395-d7b7-480d-8921-ab9290352404"},"vehicle_type_id":"4","last_reported":1747544983,"current_range_meters":16400,"station_id":"ce4bhsh2rcd13ifvqi2g","pricing_plan_id":"cebpf4jnsgd1na2vs0mg"},{"bike_id":"c38c0434-7c0b-4918-a236-1841e549db1d","system_id":"levelo_inurba_marseille","lat":43.251089,"lon":5.403258,"is_reserved":false,"is_disabled":false,"rental_uris":{"android":"levelo://app?vid=c38c0434-7c0b-4918-a236-1841e549db1d","ios":"levelo://app?vid=c38c0434-7c0b-4918-a236-1841e549db1d"},"vehicle_type_id":"4","last_reported":1747544983,"current_range_meters":16400,"station_id":"ce4bhlh2rcd13ifvqgig","pricing_plan_id":"cebpf4jnsgd1na2vs0mg"},{"bike_id":"b4c3cd8f-0d7a-4e0b-a357-f36badf078b7","system_id":"levelo_inurba_marseille","lat":43.29907,"lon":5.36533,"is_reserved":false,"is_disabled":false,"rental_uris":{"android":"levelo://app?vid=b4c3cd8f-0d7a-4e0b-a357-f36badf078b7","ios":"levelo://app?vid=b4c3cd8f-0d7a-4e0b-a357-f36badf078b7"},"vehicle_type_id":"4","last_reported":1747544983,"current_range_meters":16400,"station_id":"ce4bgm92rcd13ifvqbr0","pricing_plan_id":"cebpf4jnsgd1na2vs0mg"},{"bike_id":"5dee036b-29cd-483a-bada-e312729a7e07","system_id":"levelo_inurba_marseille","lat":43.30799,"lon":5.38133,"is_reserved":false,"is_disabled":false,"rental_uris":{"android":"levelo://app?vid=5dee036b-29cd-483a-bada-e312729a7e07","ios":"levelo://app?vid=5dee036b-29cd-483a-bada-e312729a7e07"},"vehicle_type_id":"4","last_reported":1747544983,"current_range_meters":16400,"station_id":"ce4bgt12rcd13ifvqce0","pricing_plan_id":"cebpf4jnsgd1na2vs0mg"},{"bike_id":"63ee7651-d7fc-446f-b34b-5f1be0f0febd","system_id":"levelo_inurba_marseille","lat":43.32335,"lon":5.40619,"is_reserved":false,"is_disabled":false,"rental_uris":{"android":"levelo://app?vid=63ee7651-d7fc-446f-b34b-5f1be0f0febd","ios":"levelo://app?vid=63ee7651-d7fc-446f-b34b-5f1be0f0febd"},"vehicle_type_id":"4","last_reported":1747544983,"current_range_meters":16400,"station_id":"ce4bhq92rcd13ifvqhjg","pricing_plan_id":"cebpf4jnsgd1na2vs0mg"},{"bike_id":"bf2b2bfb-9733-4bda-908d-03391ae976cc","system_id":"levelo_inurba_marseille","lat":43.311869,"lon":5.416178,"is_reserved":false,"is_disabled":false,"rental_uris":{"android":"levelo://app?vid=bf2b2bfb-9733-4bda-908d-03391ae976cc","ios":"levelo://app?vid=bf2b2bfb-9733-4bda-908d-03391ae976cc"},"vehicle_type_id":"4","last_reported":1747544983,"current_range_meters":16400,"station_id":"","pricing_plan_id":"cebpf4jnsgd1na2vs0mg"},{"bike_id":"ed34fad4-c48e-4c1a-b9b1-8eb1cd77d573","system_id":"levelo_inurba_marseille","lat":43.30942,"lon":5.38636,"is_reserved":false,"is_disabled":false,"rental_uris":{"android":"levelo://app?vid=ed34fad4-c48e-4c1a-b9b1-8eb1cd77d573","ios":"levelo://app?vid=ed34fad4-c48e-4c1a-b9b1-8eb1cd77d573"},"vehicle_type_id":"4","last_reported":1747544983,"current_range_meters":16400,"station_id":"ce4bhqh2rcd13ifvqhmg","pricing_plan_id":"cebpf4jnsgd1na2vs0mg"},{"bike_id":"c591037e-9bdc-4128-b08a-269580cd419f","system_id":"levelo_inurba_marseille","lat":43.31991,"lon":5.38153,"is_reserved":false,"is_disabled":false,"rental_uris":{"android":"levelo://app?vid=c591037e-9bdc-4128-b08a-269580cd419f","ios":"levelo://app?vid=c591037e-9bdc-4128-b08a-269580cd419f"},"vehicle_type_id":"4","last_reported":1747544983,"current_range_meters":16400,"station_id":"ce4bhr12rcd13ifvqhpg","pricing_plan_id":"cebpf4jnsgd1na2vs0mg"},{"bike_id":"1af1b975-be80-4597-b06b-d0a18f063e64","system_id":"levelo_inurba_marseille","lat":43.29719,"lon":5.37683,"is_reserved":false,"is_disabled":false,"rental_uris":{"android":"levelo://app?vid=1af1b975-be80-4597-b06b-d0a18f063e64","ios":"levelo://app?vid=1af1b975-be80-4597-b06b-d0a18f063e64"},"vehicle_type_id":"4","last_reported":1747544983,"current_range_meters":16400,"station_id":"ce4bgkh2rcd13ifvqbl0","pricing_plan_id":"cebpf4jnsgd1na2vs0mg"},{"bike_id":"ac25e498-bb19-40a6-9b78-628d48d84d83","system_id":"levelo_inurba_marseille","lat":43.25102,"lon":5.40326,"is_reserved":false,"is_disabled":false,"rental_uris":{"android":"levelo://app?vid=ac25e498-bb19-40a6-9b78-628d48d84d83","ios":"levelo://app?vid=ac25e498-bb19-40a6-9b78-628d48d84d83"},"vehicle_type_id":"4","last_reported":1747544983,"current_range_meters":16400,"station_id":"ce4bhlh2rcd13ifvqgig","pricing_plan_id":"cebpf4jnsgd1na2vs0mg"},{"bike_id":"dcfc1075-09a3-4249-a3dc-22aa08ec40e5","system_id":"levelo_inurba_marseille","lat":43.2571,"lon":5.41111,"is_reserved":false,"is_disabled":false,"rental_uris":{"android":"levelo://app?vid=dcfc1075-09a3-4249-a3dc-22aa08ec40e5","ios":"levelo://app?vid=dcfc1075-09a3-4249-a3dc-22aa08ec40e5"},"vehicle_type_id":"4","last_reported":1747544983,"current_range_meters":16400,"station_id":"ce4bhkp2rcd13ifvqgd0","pricing_plan_id":"cebpf4jnsgd1na2vs0mg"},{"bike_id":"19456222-7d38-48cf-a950-06daadd07927","system_id":"levelo_inurba_marseille","lat":43.250219,"lon":5.375415,"is_reserved":false,"is_disabled":false,"rental_uris":{"android":"levelo://app?vid=19456222-7d38-48cf-a950-06daadd07927","ios":"levelo://app?vid=19456222-7d38-48cf-a950-06daadd07927"},"vehicle_type_id":"4","last_reported":1747544983,"current_range_meters":16800,"station_id":"","pricing_plan_id":"cebpf4jnsgd1na2vs0mg"},{"bike_id":"8d2d9f61-e608-4b0f-bb8a-b346f6f803f9","system_id":"levelo_inurba_marseille","lat":43.30104,"lon":5.39848,"is_reserved":false,"is_disabled":false,"rental_uris":{"android":"levelo://app?vid=8d2d9f61-e608-4b0f-bb8a-b346f6f803f9","ios":"levelo://app?vid=8d2d9f61-e608-4b0f-bb8a-b346f6f803f9"},"vehicle_type_id":"4","last_reported":1747544983,"current_range_meters":16800,"station_id":"ce4bh0h2rcd13ifvqd40","pricing_plan_id":"cebpf4jnsgd1na2vs0mg"},{"bike_id":"db647a88-7197-40ac-aeb0-6195ce252bd5","system_id":"levelo_inurba_marseille","lat":43.31082,"lon":5.424374,"is_reserved":false,"is_disabled":false,"rental_uris":{"android":"levelo://app?vid=db647a88-7197-40ac-aeb0-6195ce252bd5","ios":"levelo://app?vid=db647a88-7197-40ac-aeb0-6195ce252bd5"},"vehicle_type_id":"4","last_reported":1747544983,"current_range_meters":16800,"station_id":"ce4bhp92rcd13ifvqhag","pricing_plan_id":"cebpf4jnsgd1na2vs0mg"},{"bike_id":"563abd07-28c4-473c-a3bc-3f7fe27e1ba3","system_id":"levelo_inurba_marseille","lat":43.30261,"lon":5.38462,"is_reserved":false,"is_disabled":false,"rental_uris":{"android":"levelo://app?vid=563abd07-28c4-473c-a3bc-3f7fe27e1ba3","ios":"levelo://app?vid=563abd07-28c4-473c-a3bc-3f7fe27e1ba3"},"vehicle_type_id":"4","last_reported":1747544983,"current_range_meters":16800,"station_id":"","pricing_plan_id":"cebpf4jnsgd1na2vs0mg"},{"bike_id":"a675f4e5-fc13-43cf-92f6-6acfa57913c0","system_id":"levelo_inurba_marseille","lat":43.290184,"lon":5.381359,"is_reserved":false,"is_disabled":true,"rental_uris":{"android":"levelo://app?vid=a675f4e5-fc13-43cf-92f6-6acfa57913c0","ios":"levelo://app?vid=a675f4e5-fc13-43cf-92f6-6acfa57913c0"},"vehicle_type_id":"4","last_reported":1747544983,"current_range_meters":16800,"station_id":"ce4bh4p2rcd13ifvqe1g","pricing_plan_id":"cebpf4jnsgd1na2vs0mg"},{"bike_id":"ee75602a-f143-4ba1-b3de-330c8991247c","system_id":"levelo_inurba_marseille","lat":43.314866,"lon":5.373034,"is_reserved":false,"is_disabled":false,"rental_uris":{"android":"levelo://app?vid=ee75602a-f143-4ba1-b3de-330c8991247c","ios":"levelo://app?vid=ee75602a-f143-4ba1-b3de-330c8991247c"},"vehicle_type_id":"4","last_reported":1747544983,"current_range_meters":16800,"station_id":"ce4bgt12rcd13ifvqcd0","pricing_plan_id":"cebpf4jnsgd1na2vs0mg"},{"bike_id":"5ddd41df-5811-4b09-99f7-599fa0ee82b0","system_id":"levelo_inurba_marseille","lat":43.24552,"lon":5.39531,"is_reserved":false,"is_disabled":false,"rental_uris":{"android":"levelo://app?vid=5ddd41df-5811-4b09-99f7-599fa0ee82b0","ios":"levelo://app?vid=5ddd41df-5811-4b09-99f7-599fa0ee82b0"},"vehicle_type_id":"4","last_reported":1747544983,"current_range_meters":16800,"station_id":"ce4bhlp2rcd13ifvqgjg","pricing_plan_id":"cebpf4jnsgd1na2vs0mg"},{"bike_id":"a0869ad5-e57d-4757-9e0c-87b965585234","system_id":"levelo_inurba_marseille","lat":43.323383,"lon":5.4064,"is_reserved":false,"is_disabled":false,"rental_uris":{"android":"levelo://app?vid=a0869ad5-e57d-4757-9e0c-87b965585234","ios":"levelo://app?vid=a0869ad5-e57d-4757-9e0c-87b965585234"},"vehicle_type_id":"4","last_reported":1747544983,"current_range_meters":16800,"station_id":"ce4bhq92rcd13ifvqhjg","pricing_plan_id":"cebpf4jnsgd1na2vs0mg"},{"bike_id":"b99acb52-c4ed-4b13-b1af-f3021f273634","system_id":"levelo_inurba_marseille","lat":43.284562,"lon":5.358874,"is_reserved":false,"is_disabled":false,"rental_uris":{"android":"levelo://app?vid=b99acb52-c4ed-4b13-b1af-f3021f273634","ios":"levelo://app?vid=b99acb52-c4ed-4b13-b1af-f3021f273634"},"vehicle_type_id":"4","last_reported":1747544983,"current_range_meters":17200,"station_id":"ce4bhah2rcd13ifvqei0","pricing_plan_id":"cebpf4jnsgd1na2vs0mg"},{"bike_id":"bcbdbd69-7be8-42f8-a855-a4358565de8f","system_id":"levelo_inurba_marseille","lat":43.277363,"lon":5.414235,"is_reserved":false,"is_disabled":false,"rental_uris":{"android":"levelo://app?vid=bcbdbd69-7be8-42f8-a855-a4358565de8f","ios":"levelo://app?vid=bcbdbd69-7be8-42f8-a855-a4358565de8f"},"vehicle_type_id":"4","last_reported":1747544983,"current_range_meters":17200,"station_id":"","pricing_plan_id":"cebpf4jnsgd1na2vs0mg"},{"bike_id":"cf99a182-05bd-4cbc-b6a6-6a33541bdb08","system_id":"levelo_inurba_marseille","lat":43.25135,"lon":5.40388,"is_reserved":false,"is_disabled":false,"rental_uris":{"android":"levelo://app?vid=cf99a182-05bd-4cbc-b6a6-6a33541bdb08","ios":"levelo://app?vid=cf99a182-05bd-4cbc-b6a6-6a33541bdb08"},"vehicle_type_id":"4","last_reported":1747544983,"current_range_meters":17200,"station_id":"ce4bhlh2rcd13ifvqgig","pricing_plan_id":"cebpf4jnsgd1na2vs0mg"},{"bike_id":"aec52bc3-9728-40f0-98ec-43f09b1f4cc9","system_id":"levelo_inurba_marseille","lat":43.28652,"lon":5.36371,"is_reserved":false,"is_disabled":false,"rental_uris":{"android":"levelo://app?vid=aec52bc3-9728-40f0-98ec-43f09b1f4cc9","ios":"levelo://app?vid=aec52bc3-9728-40f0-98ec-43f09b1f4cc9"},"vehicle_type_id":"4","last_reported":1747544983,"current_range_meters":17200,"station_id":"ce4bhah2rcd13ifvqej0","pricing_plan_id":"cebpf4jnsgd1na2vs0mg"},{"bike_id":"86603db7-b462-4e72-8622-a2dee8bb2920","system_id":"levelo_inurba_marseille","lat":43.337444,"lon":5.374475,"is_reserved":false,"is_disabled":false,"rental_uris":{"android":"levelo://app?vid=86603db7-b462-4e72-8622-a2dee8bb2920","ios":"levelo://app?vid=86603db7-b462-4e72-8622-a2dee8bb2920"},"vehicle_type_id":"4","last_reported":1747544983,"current_range_meters":17200,"station_id":"","pricing_plan_id":"cebpf4jnsgd1na2vs0mg"},{"bike_id":"1e2f0c80-2ce7-417a-ae75-e6a168f4d00d","system_id":"levelo_inurba_marseille","lat":43.286097,"lon":5.386894,"is_reserved":false,"is_disabled":false,"rental_uris":{"android":"levelo://app?vid=1e2f0c80-2ce7-417a-ae75-e6a168f4d00d","ios":"levelo://app?vid=1e2f0c80-2ce7-417a-ae75-e6a168f4d00d"},"vehicle_type_id":"4","last_reported":1747544983,"current_range_meters":17600,"station_id":"","pricing_plan_id":"cebpf4jnsgd1na2vs0mg"},{"bike_id":"10c61589-e6eb-469d-8214-e4ff226596c8","system_id":"levelo_inurba_marseille","lat":43.28712,"lon":5.37381,"is_reserved":false,"is_disabled":false,"rental_uris":{"android":"levelo://app?vid=10c61589-e6eb-469d-8214-e4ff226596c8","ios":"levelo://app?vid=10c61589-e6eb-469d-8214-e4ff226596c8"},