{"last_updated":1733318463,"ttl":60,"version":"2.2","data":{"bikes":[{"bike_id":"ef5a9fe7-91e6-45f0-b721-cb401747aeb8","system_id":"levelo_inurba_marseille","lat":43.27919,"lon":5.39577,"is_reserved":false,"is_disabled":false,"rental_uris":{"android":"levelo://app?vid=ef5a9fe7-91e6-45f0-b721-cb401747aeb8","ios":"levelo://app?vid=ef5a9fe7-91e6-45f0-b721-cb401747aeb8"},"vehicle_type_id":"4","last_reported":1733318464,"current_range_meters":10800,"station_id":"ce4bhf92rcd13ifvqf40","pricing_plan_id":"cebpf4jnsgd1na2vs0mg"},{"bike_id":"a8c54cdd-59b5-425d-a6a5-7b45b1e88baa","system_id":"levelo_inurba_marseille","lat":43.30559,"lon":5.36532,"is_reserved":false,"is_disabled":false,"rental_uris":{"android":"levelo://app?vid=a8c54cdd-59b5-425d-a6a5-7b45b1e88baa","ios":"levelo://app?vid=a8c54cdd-59b5-425d-a6a5-7b45b1e88baa"},"vehicle_type_id":"4","last_reported":1733318464,"current_range_meters":21600,"station_id":"ce4bgs12rcd13ifvqcag","pricing_plan_id":"cebpf4jnsgd1na2vs0mg"},{"bike_id":"df479c2c-35ac-44ad-b9d6-81c89ed769ce","system_id":"levelo_inurba_marseille","lat":43.29699,"lon":5.37054,"is_reserved":false,"is_disabled":true,"rental_uris":{"android":"levelo://app?vid=df479c2c-35ac-44ad-b9d6-81c89ed769ce","ios":"levelo://app?vid=df479c2c-35ac-44ad-b9d6-81c89ed769ce"},"vehicle_type_id":"4","last_reported":1733318464,"current_range_meters":0,"station_id":"","pricing_plan_id":"cebpf4jnsgd1na2vs0mg"},{"bike_id":"8e029eaf-e104-4c5d-858d-6cd39de73d09","system_id":"levelo_inurba_marseille","lat":43.24167,"lon":5.36404,"is_reserved":false,"is_disabled":false,"rental_uris":{"android":"levelo://app?vid=8e029eaf-e104-4c5d-858d-6cd39de73d09","ios":"levelo://app?vid=8e029eaf-e104-4c5d-858d-6cd39de73d09"},"vehicle_type_id":"4","last_reported":1733318464,"current_range_meters":9600,"station_id":"cpo36qri1sfpv3e86is0","pricing_plan_id":"cebpf4jnsgd1na2vs0mg"},{"bike_id":"ec214fcc-1436-4e45-9e26-036b12657ba2","system_id":"levelo_inurba_marseille","lat":43.337444,"lon":5.374475,"is_reserved":false,"is_disabled":false,"rental_uris":{"android":"levelo://app?vid=ec214fcc-1436-4e45-9e26-036b12657ba2","ios":"levelo://app?vid=ec214fcc-1436-4e45-9e26-036b12657ba2"},"vehicle_type_id":"4","last_reported":1733318464,"current_range_meters":27200,"station_id":"","pricing_plan_id":"cebpf4jnsgd1na2vs0mg"},{"bike_id":"fd85f247-bc9f-4512-8957-89e7641ccdee","system_id":"levelo_inurba_marseille","lat":43.32476,"lon":5.36575,"is_reserved":false,"is_disabled":false,"rental_uris":{"android":"levelo://app?vid=fd85f247-bc9f-4512-8957-89e7641ccdee","ios":"levelo://app?vid=fd85f247-bc9f-4512-8957-89e7641ccdee"},"vehicle_type_id":"4","last_reported":1733318464,"current_range_meters":34000,"station_id":"ce4bhs12rcd13ifvqhvg","pricing_plan_id":"cebpf4jnsgd1na2vs0mg"},{"bike_id":"e592549c-dab6-4bd5-80a4-d470a8981923","system_id":"levelo_inurba_marseille","lat":43.23153,"lon":5.43703,"is_reserved":false,"is_disabled":false,"rental_uris":{"android":"levelo://app?vid=e592549c-dab6-4bd5-80a4-d470a8981923","ios":"levelo://app?vid=e592549c-dab6-4bd5-80a4-d470a8981923"},"vehicle_type_id":"4","last_reported":1733318464,"current_range_meters":22800,"station_id":"ce4bhmp2rcd13ifvqgog","pricing_plan_id":"cebpf4jnsgd1na2vs0mg"},{"bike_id":"9a089c12-ccfd-4673-be80-4d64337647d0","system_id":"levelo_inurba_marseille","lat":43.27812,"lon":5.40716,"is_reserved":false,"is_disabled":false,"rental_uris":{"android":"levelo://app?vid=9a089c12-ccfd-4673-be80-4d64337647d0","ios":"levelo://app?vid=9a089c12-ccfd-4673-be80-4d64337647d0"},"vehicle_type_id":"4","last_reported":1733318464,"current_range_meters":34800,"station_id":"ce4bhnh2rcd13ifvqgtg","pricing_plan_id":"cebpf4jnsgd1na2vs0mg"},{"bike_id":"8ee12099-d26b-4046-b0c1-628a74017b74","system_id":"levelo_inurba_marseille","lat":43.30793,"lon":5.43527,"is_reserved":false,"is_disabled":false,"rental_uris":{"android":"levelo://app?vid=8ee12099-d26b-4046-b0c1-628a74017b74","ios":"levelo://app?vid=8ee12099-d26b-4046-b0c1-628a74017b74"},"vehicle_type_id":"4","last_reported":1733318464,"current_range_meters":16400,"station_id":"ce4bhph2rcd13ifvqheg","pricing_plan_id":"cebpf4jnsgd1na2vs0mg"},{"bike_id":"be407bbe-d1ce-48de-8db2-09114af9efd7","system_id":"levelo_inurba_marseille","lat":43.32362,"lon":5.36761,"is_reserved":false,"is_disabled":false,"rental_uris":{"android":"levelo://app?vid=be407bbe-d1ce-48de-8db2-09114af9efd7","ios":"levelo://app?vid=be407bbe-d1ce-48de-8db2-09114af9efd7"},"vehicle_type_id":"4","last_reported":1733318464,"current_range_meters":34800,"station_id":"ce4bhsh2rcd13ifvqi2g","pricing_plan_id":"cebpf4jnsgd1na2vs0mg"},{"bike_id":"ffebb05f-cb9e-4a5e-8102-9eb5adb06ced","system_id":"levelo_inurba_marseille","lat":43.30251,"lon":5.40062,"is_reserved":false,"is_disabled":false,"rental_uris":{"android":"levelo://app?vid=ffebb05f-cb9e-4a5e-8102-9eb5adb06ced","ios":"levelo://app?vid=ffebb05f-cb9e-4a5e-8102-9eb5adb06ced"},"vehicle_type_id":"4","last_reported":1733318464,"current_range_meters":19200,"station_id":"ce4bgvh2rcd13ifvqcs0","pricing_plan_id":"cebpf4jnsgd1na2vs0mg"},{"bike_id":"1388ed75-f03e-434a-a161-27d413330f2b","system_id":"levelo_inurba_marseille","lat":43.26202,"lon":5.37442,"is_reserved":false,"is_disabled":false,"rental_uris":{"android":"levelo://app?vid=1388ed75-f03e-434a-a161-27d413330f2b","ios":"levelo://app?vid=1388ed75-f03e-434a-a161-27d413330f2b"},"vehicle_type_id":"4","last_reported":1733318464,"current_range_meters":36800,"station_id":"ce4bhgp2rcd13ifvqfc0","pricing_plan_id":"cebpf4jnsgd1na2vs0mg"},{"bike_id":"36a09621-313d-43b6-9448-5f868f03fc87","system_id":"levelo_inurba_marseille","lat":43.30117,"lon":5.3878,"is_reserved":false,"is_disabled":false,"rental_uris":{"android":"levelo://app?vid=36a09621-313d-43b6-9448-5f868f03fc87","ios":"levelo://app?vid=36a09621-313d-43b6-9448-5f868f03fc87"},"vehicle_type_id":"4","last_reported":1733318464,"current_range_meters":38800,"station_id":"ce4bghh2rcd13ifvqb60","pricing_plan_id":"cebpf4jnsgd1na2vs0mg"},{"bike_id":"8bd642b2-0279-44c7-9ee2-fc3b57332c83","system_id":"levelo_inurba_marseille","lat":43.27455,"lon":5.40073,"is_reserved":false,"is_disabled":true,"rental_uris":{"android":"levelo://app?vid=8bd642b2-0279-44c7-9ee2-fc3b57332c83","ios":"levelo://app?vid=8bd642b2-0279-44c7-9ee2-fc3b57332c83"},"vehicle_type_id":"4","last_reported":1733318464,"current_range_meters":0,"station_id":"","pricing_plan_id":"cebpf4jnsgd1na2vs0mg"},{"bike_id":"dd60b87f-2e36-4802-bef4-5f2d757a735e","system_id":"levelo_inurba_marseille","lat":43.28937,"lon":5.39633,"is_reserved":false,"is_disabled":false,"rental_uris":{"android":"levelo://app?vid=dd60b87f-2e36-4802-bef4-5f2d757a735e","ios":"levelo://app?vid=dd60b87f-2e36-4802-bef4-5f2d757a735e"},"vehicle_type_id":"4","last_reported":1733318464,"current_range_meters":3600,"station_id":"ce4bh3h2rcd13ifvqdn0","pricing_plan_id":"cebpf4jnsgd1na2vs0mg"},{"bike_id":"377cecde-5a62-4012-96f6-a6c6965bd36e","system_id":"levelo_inurba_marseille","lat":43.31425,"lon":5.37596,"is_reserved":false,"is_disabled":false,"rental_uris":{"android":"levelo://app?vid=377cecde-5a62-4012-96f6-a6c6965bd36e","ios":"levelo://app?vid=377cecde-5a62-4012-96f6-a6c6965bd36e"},"vehicle_type_id":"4","last_reported":1733318464,"current_range_meters":24400,"station_id":"","pricing_plan_id":"cebpf4jnsgd1na2vs0mg"},{"bike_id":"50390bb2-d9c6-4904-b329-a75d3a78445a","system_id":"levelo_inurba_marseille","lat":43.30433,"lon":5.38896,"is_reserved":false,"is_disabled":false,"rental_uris":{"android":"levelo://app?vid=50390bb2-d9c6-4904-b329-a75d3a78445a","ios":"levelo://app?vid=50390bb2-d9c6-4904-b329-a75d3a78445a"},"vehicle_type_id":"4","last_reported":1733318464,"current_range_meters":38800,"station_id":"ce4bgk12rcd13ifvqbi0","pricing_plan_id":"cebpf4jnsgd1na2vs0mg"},{"bike_id":"2a739639-f77c-4637-86d9-d24373404c0b","system_id":"levelo_inurba_marseille","lat":43.25085,"lon":5.39527,"is_reserved":false,"is_disabled":false,"rental_uris":{"android":"levelo://app?vid=2a739639-f77c-4637-86d9-d24373404c0b","ios":"levelo://app?vid=2a739639-f77c-4637-86d9-d24373404c0b"},"vehicle_type_id":"4","last_reported":1733318464,"current_range_meters":29600,"station_id":"ce4bhm12rcd13ifvqgkg","pricing_plan_id":"cebpf4jnsgd1na2vs0mg"},{"bike_id":"ab4ec4be-9f6e-4c60-97d8-25eb522e5410","system_id":"levelo_inurba_marseille","lat":43.25938,"lon":5.40901,"is_reserved":false,"is_disabled":false,"rental_uris":{"android":"levelo://app?vid=ab4ec4be-9f6e-4c60-97d8-25eb522e5410","ios":"levelo://app?vid=ab4ec4be-9f6e-4c60-97d8-25eb522e5410"},"vehicle_type_id":"4","last_reported":1733318464,"current_range_meters":32000,"station_id":"ce4bhm92rcd13ifvqglg","pricing_plan_id":"cebpf4jnsgd1na2vs0mg"},{"bike_id":"0a2e15d8-6e1d-4e6a-9959-25de02f8651f","system_id":"levelo_inurba_marseille","lat":43.26957,"lon":5.38647,"is_reserved":false,"is_disabled":false,"rental_uris":{"android":"levelo://app?vid=0a2e15d8-6e1d-4e6a-9959-25de02f8651f","ios":"levelo://app?vid=0a2e15d8-6e1d-4e6a-9959-25de02f8651f"},"vehicle_type_id":"4","last_reported":1733318464,"current_range_meters":38800,"station_id":"ce4bhhh2rcd13ifvqfl0","pricing_plan_id":"cebpf4jnsgd1na2vs0mg"},{"bike_id":"b52a5e05-09cc-4a3d-b78d-46c5f550debe","system_id":"levelo_inurba_marseille","lat":43.23182,"lon":5.39979,"is_reserved":false,"is_disabled":false,"rental_uris":{"android":"levelo://app?vid=b52a5e05-09cc-4a3d-b78d-46c5f550debe","ios":"levelo://app?vid=b52a5e05-09cc-4a3d-b78d-46c5f550debe"},"vehicle_type_id":"4","last_reported":1733318464,"current_range_meters":21600,"station_id":"ce4bhn12rcd13ifvqgqg","pricing_plan_id":"cebpf4jnsgd1na2vs0mg"},{"bike_id":"dac5e254-1536-4087-a738-b9cdc35c9c7f","system_id":"levelo_inurba_marseille","lat":43.30547,"lon":5.36545,"is_reserved":false,"is_disabled":false,"rental_uris":{"android":"levelo://app?vid=dac5e254-1536-4087-a738-b9cdc35c9c7f","ios":"levelo://app?vid=dac5e254-1536-4087-a738-b9cdc35c9c7f"},"vehicle_type_id":"4","last_reported":1733318464,"current_range_meters":16400,"station_id":"ce4bgs12rcd13ifvqcag","pricing_plan_id":"cebpf4jnsgd1na2vs0mg"},{"bike_id":"28b52837-d828-49e4-b4be-cfbac010c328","system_id":"levelo_inurba_marseille","lat":43.33731,"lon":5.39189,"is_reserved":false,"is_disabled":false,"rental_uris":{"android":"levelo://app?vid=28b52837-d828-49e4-b4be-cfbac010c328","ios":"levelo://app?vid=28b52837-d828-49e4-b4be-cfbac010c328"},"vehicle_type_id":"4","last_reported":1733318464,"current_range_meters":36400,"station_id":"ce4bhr92rcd13ifvqhsg","pricing_plan_id":"cebpf4jnsgd1na2vs0mg"},{"bike_id":"b3f478ac-3b05-4edf-bdbf-76399090f8e9","system_id":"levelo_inurba_marseille","lat":43.29994,"lon":5.37639,"is_reserved":false,"is_disabled":true,"rental_uris":{"android":"levelo://app?vid=b3f478ac-3b05-4edf-bdbf-76399090f8e9","ios":"levelo://app?vid=b3f478ac-3b05-4edf-bdbf-76399090f8e9"},"vehicle_type_id":"4","last_reported":1733318464,"current_range_meters":0,"station_id":"","pricing_plan_id":"cebpf4jnsgd1na2vs0mg"},{"bike_id":"c3587c28-5435-41c6-a9b7-aa468e6b19aa","system_id":"levelo_inurba_marseille","lat":43.29746,"lon":5.37916,"is_reserved":false,"is_disabled":true,"rental_uris":{"android":"levelo://app?vid=c3587c28-5435-41c6-a9b7-aa468e6b19aa","ios":"levelo://app?vid=c3587c28-5435-41c6-a9b7-aa468e6b19aa"},"vehicle_type_id":"4","last_reported":1733318464,"current_range_meters":0,"station_id":"","pricing_plan_id":"cebpf4jnsgd1na2vs0mg"},{"bike_id":"75c4f34a-89f4-4145-a2e2-7dafbc1cdf90","system_id":"levelo_inurba_marseille","lat":43.29006,"lon":5.37257,"is_reserved":false,"is_disabled":true,"rental_uris":{"android":"levelo://app?vid=75c4f34a-89f4-4145-a2e2-7dafbc1cdf90","ios":"levelo://app?vid=75c4f34a-89f4-4145-a2e2-7dafbc1cdf90"},"vehicle_type_id":"4","last_reported":1733318464,"current_range_meters":0,"station_id":"","pricing_plan_id":"cebpf4jnsgd1na2vs0mg"},{"bike_id":"e8d9fcd3-6c4c-4c2e-a87e-41c5e4dfa6d0","system_id":"levelo_inurba_marseille","lat":43.25438,"lon":5.38158,"is_reserved":false,"is_disabled":true,"rental_uris":{"android":"levelo://app?vid=e8d9fcd3-6c4c-4c2e-a87e-41c5e4dfa6d0","ios":"levelo://app?vid=e8d9fcd3-6c4c-4c2e-a87e-41c5e4dfa6d0"},"vehicle_type_id":"4","last_reported":1733318464,"current_range_meters":0,"station_id":"","pricing_plan_id":"cebpf4jnsgd1na2vs0mg"},{"bike_id":"e7c2b082-ef91-42b1-9ef0-9e4329cee9cb","system_id":"levelo_inurba_marseille","lat":43.2992,"lon":5.40347,"is_reserved":false,"is_disabled":true,"rental_uris":{"android":"levelo://app?vid=e7c2b082-ef91-42b1-9ef0-9e4329cee9cb","ios":"levelo://app?vid=e7c2b082-ef91-42b1-9ef0-9e4329cee9cb"},"vehicle_type_id":"4","last_reported":1733318464,"current_range_meters":0,"station_id":"","pricing_plan_id":"cebpf4jnsgd1na2vs0mg"},{"bike_id":"84ece510-88d3-4dfc-848a-67d696fa2455","system_id":"levelo_inurba_marseille","lat":43.30785,"lon":5.37636,"is_reserved":false,"is_disabled":false,"rental_uris":{"android":"levelo://app?vid=84ece510-88d3-4dfc-848a-67d696fa2455","ios":"levelo://app?vid=84ece510-88d3-4dfc-848a-67d696fa2455"},"vehicle_type_id":"4","last_reported":1733318464,"current_range_meters":27600,"station_id":"ce4bgv92rcd13ifvqcq0","pricing_plan_id":"cebpf4jnsgd1na2vs0mg"},{"bike_id":"562cd0e2-4b2d-4a6d-9191-e193a96fd625","system_id":"levelo_inurba_marseille","lat":43.25105,"lon":5.40343,"is_reserved":false,"is_disabled":false,"rental_uris":{"android":"levelo://app?vid=562cd0e2-4b2d-4a6d-9191-e193a96fd625","ios":"levelo://app?vid=562cd0e2-4b2d-4a6d-9191-e193a96fd625"},"vehicle_type_id":"4","last_reported":1733318464,"current_range_meters":38800,"station_id":"ce4bhlh2rcd13ifvqgig","pricing_plan_id":"cebpf4jnsgd1na2vs0mg"},{"bike_id":"c6b083b4-fa7e-462c-8ad0-abeffc85410a","system_id":"levelo_inurba_marseille","lat":43.26199,"lon":5.37933,"is_reserved":false,"is_disabled":false,"rental_uris":{"android":"levelo://app?vid=c6b083b4-fa7e-462c-8ad0-abeffc85410a","ios":"levelo://app?vid=c6b083b4-fa7e-462c-8ad0-abeffc85410a"},"vehicle_type_id":"4","last_reported":1733318464,"current_range_meters":35600,"station_id":"ce4bhjp2rcd13ifvqg90","pricing_plan_id":"cebpf4jnsgd1na2vs0mg"},{"bike_id":"714edcb7-338c-451a-a34c-6e1050fd8dae","system_id":"levelo_inurba_marseille","lat":43.28417,"lon":5.34983,"is_reserved":false,"is_disabled":false,"rental_uris":{"android":"levelo://app?vid=714edcb7-338c-451a-a34c-6e1050fd8dae","ios":"levelo://app?vid=714edcb7-338c-451a-a34c-6e1050fd8dae"},"vehicle_type_id":"4","last_reported":1733318464,"current_range_meters":38800,"station_id":"ce4bhbh2rcd13ifvqepg","pricing_plan_id":"cebpf4jnsgd1na2vs0mg"},{"bike_id":"0347845a-09f1-432a-9f94-9f0d94a9e464","system_id":"levelo_inurba_marseille","lat":43.30252,"lon":5.40066,"is_reserved":false,"is_disabled":false,"rental_uris":{"android":"levelo://app?vid=0347845a-09f1-432a-9f94-9f0d94a9e464","ios":"levelo://app?vid=0347845a-09f1-432a-9f94-9f0d94a9e464"},"vehicle_type_id":"4","last_reported":1733318464,"current_range_meters":38800,"station_id":"ce4bgvh2rcd13ifvqcs0","pricing_plan_id":"cebpf4jnsgd1na2vs0mg"},{"bike_id":"2743f6a6-cb38-4750-9568-c49c0fc33487","system_id":"levelo_inurba_marseille","lat":43.24802,"lon":5.37455,"is_reserved":false,"is_disabled":false,"rental_uris":{"android":"levelo://app?vid=2743f6a6-cb38-4750-9568-c49c0fc33487","ios":"levelo://app?vid=2743f6a6-cb38-4750-9568-c49c0fc33487"},"vehicle_type_id":"4","last_reported":1733318464,"current_range_meters":16400,"station_id":"ce4bhi12rcd13ifvqfq0","pricing_plan_id":"cebpf4jnsgd1na2vs0mg"},{"bike_id":"7703025b-d409-4e33-93b5-9e079823d587","system_id":"levelo_inurba_marseille","lat":43.31073,"lon":5.38341,"is_reserved":false,"is_disabled":true,"rental_uris":{"android":"levelo://app?vid=7703025b-d409-4e33-93b5-9e079823d587","ios":"levelo://app?vid=7703025b-d409-4e33-93b5-9e079823d587"},"vehicle_type_id":"4","last_reported":1733318464,"current_range_meters":27600,"station_id":"ce4bgv92rcd13ifvqcr0","pricing_plan_id":"cebpf4jnsgd1na2vs0mg"},{"bike_id":"cd22cf1e-c119-402b-8194-310de0687964","system_id":"levelo_inurba_marseille","lat":43.24652,"lon":5.38167,"is_reserved":false,"is_disabled":false,"rental_uris":{"android":"levelo://app?vid=cd22cf1e-c119-402b-8194-310de0687964","ios":"levelo://app?vid=cd22cf1e-c119-402b-8194-310de0687964"},"vehicle_type_id":"4","last_reported":1733318464,"current_range_meters":6800,"station_id":"ce4bhih2rcd13ifvqfr0","pricing_plan_id":"cebpf4jnsgd1na2vs0mg"},{"bike_id":"b25999c8-5982-4da2-b8e4-afc6ca7336dc","system_id":"levelo_inurba_marseille","lat":43.3148,"lon":5.37309,"is_reserved":false,"is_disabled":false,"rental_uris":{"android":"levelo://app?vid=b25999c8-5982-4da2-b8e4-afc6ca7336dc","ios":"levelo://app?vid=b25999c8-5982-4da2-b8e4-afc6ca7336dc"},"vehicle_type_id":"4","last_reported":1733318464,"current_range_meters":24800,"station_id":"ce4bgt12rcd13ifvqcd0","pricing_plan_id":"cebpf4jnsgd1na2vs0mg"},{"bike_id":"2f3968e7-9336-4ee4-ba78-8e92c0a818cc","system_id":"levelo_inurba_marseille","lat":43.31322,"lon":5.36647,"is_reserved":false,"is_disabled":true,"rental_uris":{"android":"levelo://app?vid=2f3968e7-9336-4ee4-ba78-8e92c0a818cc","ios":"levelo://app?vid=2f3968e7-9336-4ee4-ba78-8e92c0a818cc"},"vehicle_type_id":"4","last_reported":1733318464,"current_range_meters":2800,"station_id":"","pricing_plan_id":"cebpf4jnsgd1na2vs0mg"},{"bike_id":"16bea42d-3248-41fd-8b51-39fb3d7ec2c4","system_id":"levelo_inurba_marseille","lat":43.26471,"lon":5.38525,"is_reserved":false,"is_disabled":true,"rental_uris":{"android":"levelo://app?vid=16bea42d-3248-41fd-8b51-39fb3d7ec2c4","ios":"levelo://app?vid=16bea42d-3248-41fd-8b51-39fb3d7ec2c4"},"vehicle_type_id":"4","last_reported":1733318464,"current_range_meters":0,"station_id":"","pricing_plan_id":"cebpf4jnsgd1na2vs0mg"},{"bike_id":"54660884-8ef8-4b30-aaba-82ac6b4a18bd","system_id":"levelo_inurba_marseille","lat":43.32471,"lon":5.36575,"is_reserved":false,"is_disabled":false,"rental_uris":{"android":"levelo://app?vid=54660884-8ef8-4b30-aaba-82ac6b4a18bd","ios":"levelo://app?vid=54660884-8ef8-4b30-aaba-82ac6b4a18bd"},"vehicle_type_id":"4","last_reported":1733318464,"current_range_meters":39200,"station_id":"ce4bhs12rcd13ifvqhvg","pricing_plan_id":"cebpf4jnsgd1na2vs0mg"},{"bike_id":"fefed06f-f77c-4003-83aa-4b7097b9e66e","system_id":"levelo_inurba_marseille","lat":43.25084,"lon":5.40325,"is_reserved":false,"is_disabled":true,"rental_uris":{"android":"levelo://app?vid=fefed06f-f77c-4003-83aa-4b7097b9e66e","ios":"levelo://app?vid=fefed06f-f77c-4003-83aa-4b7097b9e66e"},"vehicle_type_id":"4","last_reported":1733318464,"current_range_meters":0,"station_id":"ce4bhlh2rcd13ifvqgig","pricing_plan_id":"cebpf4jnsgd1na2vs0mg"},{"bike_id":"e02d6c55-9b60-4709-9012-5fa038206c22","system_id":"levelo_inurba_marseille","lat":43.300903,"lon":5.437037,"is_reserved":false,"is_disabled":false,"rental_uris":{"android":"levelo://app?vid=e02d6c55-9b60-4709-9012-5fa038206c22","ios":"levelo://app?vid=e02d6c55-9b60-4709-9012-5fa038206c22"},"vehicle_type_id":"4","last_reported":1733318464,"current_range_meters":27600,"station_id":"ce4bhpp2rcd13ifvqhfg","pricing_plan_id":"cebpf4jnsgd1na2vs0mg"},{"bike_id":"821691cd-59d3-4afe-b792-90aa565a871f","system_id":"levelo_inurba_marseille","lat":43.27059,"lon":5.40266,"is_reserved":false,"is_disabled":false,"rental_uris":{"android":"levelo://app?vid=821691cd-59d3-4afe-b792-90aa565a871f","ios":"levelo://app?vid=821691cd-59d3-4afe-b792-90aa565a871f"},"vehicle_type_id":"4","last_reported":1733318464,"current_range_meters":24800,"station_id":"ce4bhk92rcd13ifvqgc0","pricing_plan_id":"cebpf4jnsgd1na2vs0mg"},{"bike_id":"11a023d4-4edc-4402-8005-f083a16c9b67","system_id":"levelo_inurba_marseille","lat":43.30552,"lon":5.36723,"is_reserved":false,"is_disabled":false,"rental_uris":{"android":"levelo://app?vid=11a023d4-4edc-4402-8005-f083a16c9b67","ios":"levelo://app?vid=11a023d4-4edc-4402-8005-f083a16c9b67"},"vehicle_type_id":"4","last_reported":1733318464,"current_range_meters":36800,"station_id":"ce4bgrp2rcd13ifvqc9g","pricing_plan_id":"cebpf4jnsgd1na2vs0mg"},{"bike_id":"e9559401-cd20-4b99-bbdf-f112f43a62fa","system_id":"levelo_inurba_marseille","lat":43.26499,"lon":5.39538,"is_reserved":false,"is_disabled":false,"rental_uris":{"android":"levelo://app?vid=e9559401-cd20-4b99-bbdf-f112f43a62fa","ios":"levelo://app?vid=e9559401-cd20-4b99-bbdf-f112f43a62fa"},"vehicle_type_id":"4","last_reported":1733318464,"current_range_meters":24400,"station_id":"ce4bhi12rcd13ifvqfq0","pricing_plan_id":"cebpf4jnsgd1na2vs0mg"},{"bike_id":"5372aba4-1ef9-47d5-bd09-1653ba121dc6","system_id":"levelo_inurba_marseille","lat":43.278071,"lon":5.407029,"is_reserved":false,"is_disabled":false,"rental_uris":{"android":"levelo://app?vid=5372aba4-1ef9-47d5-bd09-1653ba121dc6","ios":"levelo://app?vid=5372aba4-1ef9-47d5-bd09-1653ba121dc6"},"vehicle_type_id":"4","last_reported":1733318464,"current_range_meters":25600,"station_id":"ce4bhnh2rcd13ifvqgtg","pricing_plan_id":"cebpf4jnsgd1na2vs0mg"},{"bike_id":"5997b14f-1bfc-4b69-bf27-5203c80434a5","system_id":"levelo_inurba_marseille","lat":43.28354,"lon":5.3863,"is_reserved":false,"is_disabled":false,"rental_uris":{"android":"levelo://app?vid=5997b14f-1bfc-4b69-bf27-5203c80434a5","ios":"levelo://app?vid=5997b14f-1bfc-4b69-bf27-5203c80434a5"},"vehicle_type_id":"4","last_reported":1733318464,"current_range_meters":3200,"station_id":"ce4bh492rcd13ifvqdvg","pricing_plan_id":"cebpf4jnsgd1na2vs0mg"},{"bike_id":"75834c1e-9c5e-44ff-b2d9-3b23c8dc9523","system_id":"levelo_inurba_marseille","lat":43.27377,"lon":5.36259,"is_reserved":false,"is_disabled":false,"rental_uris":{"android":"levelo://app?vid=75834c1e-9c5e-44ff-b2d9-3b23c8dc9523","ios":"levelo://app?vid=75834c1e-9c5e-44ff-b2d9-3b23c8dc9523"},"vehicle_type_id":"4","last_reported":1733318464,"current_range_meters":36800,"station_id":"ce4bhbh2rcd13ifvqeo0","pricing_plan_id":"cebpf4jnsgd1na2vs0mg"},{"bike_id":"7a0b75c4-d43d-4938-8dcd-c77f8e25878e","system_id":"levelo_inurba_marseille","lat":43.27055,"lon":5.40273,"is_reserved":false,"is_disabled":false,"rental_uris":{"android":"levelo://app?vid=7a0b75c4-d43d-4938-8dcd-c77f8e25878e","ios":"levelo://app?vid=7a0b75c4-d43d-4938-8dcd-c77f8e25878e"},"vehicle_type_id":"4","last_reported":1733318464,"current_range_meters":28400,"station_id":"ce4bhk92rcd13ifvqgc0","pricing_plan_id":"cebpf4jnsgd1na2vs0mg"},{"bike_id":"5a50557a-331c-47f8-82cc-e12807c908db","system_id":"levelo_inurba_marseille","lat":43.33014,"lon":5.39036,"is_reserved":false,"is_disabled":false,"rental_uris":{"android":"levelo://app?vid=5a50557a-331c-47f8-82cc-e12807c908db","ios":"levelo://app?vid=5a50557a-331c-47f8-82cc-e12807c908db"},"vehicle_type_id":"4","last_reported":1733318464,"current_range_meters":24000,"station_id":"ce4bhr92rcd13ifvqhrg","pricing_plan_id":"cebpf4jnsgd1na2vs0mg"},{"bike_id":"47185a4c-7d7b-46e4-a46f-d8e6ec87723e","system_id":"levelo_inurba_marseille","lat":43.25926,"lon":5.40916,"is_reserved":false,"is_disabled":false,"rental_uris":{"android":"levelo://app?vid=47185a4c-7d7b-46e4-a46f-d8e6ec87723e","ios":"levelo://app?vid=47185a4c-7d7b-46e4-a46f-d8e6ec87723e"},"vehicle_type_id":"4","last_reported":1733318464,"current_range_meters":28800,"station_id":"ce4bhm92rcd13ifvqglg","pricing_plan_id":"cebpf4jnsgd1na2vs0mg"},{"bike_id":"98394d0a-ecb0-4f4c-9d65-dfeb565ec90f","system_id":"levelo_inurba_marseille","lat":43.30551,"lon":5.36537,"is_reserved":false,"is_disabled":false,"rental_uris":{"android":"levelo://app?vid=98394d0a-ecb0-4f4c-9d65-dfeb565ec90f","ios":"levelo://app?vid=98394d0a-ecb0-4f4c-9d65-dfeb565ec90f"},"vehicle_type_id":"4","last_reported":1733318464,"current_range_meters":8800,"station_id":"ce4bgs12rcd13ifvqcag","pricing_plan_id":"cebpf4jnsgd1na2vs0mg"},{"bike_id":"ff84d044-2e29-4209-a23d-3c5136bbdaaa","system_id":"levelo_inurba_marseille","lat":43.30946,"lon":5.39043,"is_reserved":false,"is_disabled":false,"rental_uris":{"android":"levelo://app?vid=ff84d044-2e29-4209-a23d-3c5136bbdaaa","ios":"levelo://app?vid=ff84d044-2e29-4209-a23d-3c5136bbdaaa"},"vehicle_type_id":"4","last_reported":1733318464,"current_range_meters":32800,"station_id":"ce4bgup2rcd13ifvqco0","pricing_plan_id":"cebpf4jnsgd1na2vs0mg"},{"bike_id":"941be7d8-b704-4310-832f-7da7cfa7d3de","system_id":"levelo_inurba_marseille","lat":43.27365,"lon":5.3625,"is_reserved":false,"is_disabled":false,"rental_uris":{"android":"levelo://app?vid=941be7d8-b704-4310-832f-7da7cfa7d3de","ios":"levelo://app?vid=941be7d8-b704-4310-832f-7da7cfa7d3de"},"vehicle_type_id":"4","last_reported":1733318464,"current_range_meters":36000,"station_id":"ce4bhbh2rcd13ifvqeo0","pricing_plan_id":"cebpf4jnsgd1na2vs0mg"},{"bike_id":"05b4ee7b-e7cc-4b15-b07f-0376835e860b","system_id":"levelo_inurba_marseille","lat":43.29515,"lon":5.39029,"is_reserved":false,"is_disabled":false,"rental_uris":{"android":"levelo://app?vid=05b4ee7b-e7cc-4b15-b07f-0376835e860b","ios":"levelo://app?vid=05b4ee7b-e7cc-4b15-b07f-0376835e860b"},"vehicle_type_id":"4","last_reported":1733318464,"current_range_meters":28800,"station_id":"ce4bh3p2rcd13ifvqdp0","pricing_plan_id":"cebpf4jnsgd1na2vs0mg"},{"bike_id":"ef8dccf7-5c02-4648-910c-2c64ce488a65","system_id":"levelo_inurba_marseille","lat":43.281443,"lon":5.427997,"is_reserved":false,"is_disabled":false,"rental_uris":{"android":"levelo://app?vid=ef8dccf7-5c02-4648-910c-2c64ce488a65","ios":"levelo://app?vid=ef8dccf7-5c02-4648-910c-2c64ce488a65"},"vehicle_type_id":"4","last_reported":1733318464,"current_range_meters":10800,"station_id":"","pricing_plan_id":"cebpf4jnsgd1na2vs0mg"},{"bike_id":"d5bdd387-13d9-403a-aa8f-7a47522e57da","system_id":"levelo_inurba_marseille","lat":43.2481,"lon":5.37458,"is_reserved":false,"is_disabled":false,"rental_uris":{"android":"levelo://app?vid=d5bdd387-13d9-403a-aa8f-7a47522e57da","ios":"levelo://app?vid=d5bdd387-13d9-403a-aa8f-7a47522e57da"},"vehicle_type_id":"4","last_reported":1733318464,"current_range_meters":10800,"station_id":"ce4bhgh2rcd13ifvqfb0","pricing_plan_id":"cebpf4jnsgd1na2vs0mg"},{"bike_id":"b73386f2-fa04-4fae-98be-ff0e17efea9c","system_id":"levelo_inurba_marseille","lat":43.32362,"lon":5.38882,"is_reserved":false,"is_disabled":false,"rental_uris":{"android":"levelo://app?vid=b73386f2-fa04-4fae-98be-ff0e17efea9c","ios":"levelo://app?vid=b73386f2-fa04-4fae-98be-ff0e17efea9c"},"vehicle_type_id":"4","last_reported":1733318464,"current_range_meters":8000,"station_id":"ce4bhqp2rcd13ifvqhog","pricing_plan_id":"cebpf4jnsgd1na2vs0mg"},{"bike_id":"9c42c0d7-f942-46ea-a887-c46f742baebb","system_id":"levelo_inurba_marseille","lat":43.29841,"lon":5.36267,"is_reserved":false,"is_disabled":true,"rental_uris":{"android":"levelo://app?vid=9c42c0d7-f942-46ea-a887-c46f742baebb","ios":"levelo://app?vid=9c42c0d7-f942-46ea-a887-c46f742baebb"},"vehicle_type_id":"4","last_reported":1733318464,"current_range_meters":0,"station_id":"ce4bgpp2rcd13ifvqc3g","pricing_plan_id":"cebpf4jnsgd1na2vs0mg"},{"bike_id":"5986a34f-9c4d-4bab-ab88-070157c13d38","system_id":"levelo_inurba_marseille","lat":43.2396,"lon":5.36642,"is_reserved":false,"is_disabled":false,"rental_uris":{"android":"levelo://app?vid=5986a34f-9c4d-4bab-ab88-070157c13d38","ios":"levelo://app?vid=5986a34f-9c4d-4bab-ab88-070157c13d38"},"vehicle_type_id":"4","last_reported":1733318464,"current_range_meters":26000,"station_id":"ce4bhi12rcd13ifvqfp0","pricing_plan_id":"cebpf4jnsgd1na2vs0mg"},{"bike_id":"e9f7efca-b2bc-4601-8bc8-c1cef8e61761","system_id":"levelo_inurba_marseille","lat":43.24387,"lon":5.37056,"is_reserved":false,"is_disabled":false,"rental_uris":{"android":"levelo://app?vid=e9f7efca-b2bc-4601-8bc8-c1cef8e61761","ios":"levelo://app?vid=e9f7efca-b2bc-4601-8bc8-c1cef8e61761"},"vehicle_type_id":"4","last_reported":1733318464,"current_range_meters":35200,"station_id":"ce4bhhh2rcd13ifvqfk0","pricing_plan_id":"cebpf4jnsgd1na2vs0mg"},{"bike_id":"8afb2c6b-2ac1-4bd9-bd4b-f614642b0e17","system_id":"levelo_inurba_marseille","lat":43.30527,"lon":5.367,"is_reserved":false,"is_disabled":false,"rental_uris":{"android":"levelo://app?vid=8afb2c6b-2ac1-4bd9-bd4b-f614642b0e17","ios":"levelo://app?vid=8afb2c6b-2ac1-4bd9-bd4b-f614642b0e17"},"vehicle_type_id":"4","last_reported":1733318464,"current_range_meters":38800,"station_id":"ce4bgrp2rcd13ifvqc9g","pricing_plan_id":"cebpf4jnsgd1na2vs0mg"},{"bike_id":"cdfe6590-4984-4014-86c8-6dd70747c27a","system_id":"levelo_inurba_marseille","lat":43.29737,"lon":5.37434,"is_reserved":false,"is_disabled":true,"rental_uris":{"android":"levelo://app?vid=cdfe6590-4984-4014-86c8-6dd70747c27a","ios":"levelo://app?vid=cdfe6590-4984-4014-86c8-6dd70747c27a"},"vehicle_type_id":"4","last_reported":1733318464,"current_range_meters":0,"station_id":"","pricing_plan_id":"cebpf4jnsgd1na2vs0mg"},{"bike_id":"e3ce015b-8256-4482-8102-dd089f29efd4","system_id":"levelo_inurba_marseille","lat":43.26802,"lon":5.40265,"is_reserved":false,"is_disabled":false,"rental_uris":{"android":"levelo://app?vid=e3ce015b-8256-4482-8102-dd089f29efd4","ios":"levelo://app?vid=e3ce015b-8256-4482-8102-dd089f29efd4"},"vehicle_type_id":"4","last_reported":1733318464,"current_range_meters":36800,"station_id":"ce501612rcd8frsf0b60","pricing_plan_id":"cebpf4jnsgd1na2vs0mg"},{"bike_id":"a597326f-3194-416f-870a-bb660333f9fc","system_id":"levelo_inurba_marseille","lat":43.33721,"lon":5.39183,"is_reserved":false,"is_disabled":false,"rental_uris":{"android":"levelo://app?vid=a597326f-3194-416f-870a-bb660333f9fc","ios":"levelo://app?vid=a597326f-3194-416f-870a-bb660333f9fc"},"vehicle_type_id":"4","last_reported":1733318464,"current_range_meters":38800,"station_id":"ce4bhr92rcd13ifvqhsg","pricing_plan_id":"cebpf4jnsgd1na2vs0mg"},{"bike_id":"3ed08871-5982-4071-8706-d9898de5a44f","system_id":"levelo_inurba_marseille","lat":43.27364,"lon":5.36266,"is_reserved":false,"is_disabled":false,"rental_uris":{"android":"levelo://app?vid=3ed08871-5982-4071-8706-d9898de5a44f","ios":"levelo://app?vid=3ed08871-5982-4071-8706-d9898de5a44f"},"vehicle_type_id":"4","last_reported":1733318464,"current_range_meters":36400,"station_id":"ce4bhbh2rcd13ifvqeo0","pricing_plan_id":"cebpf4jnsgd1na2vs0mg"},{"bike_id":"d4109818-53bc-4fed-b50a-7c42a9ee5d37","system_id":"levelo_inurba_marseille","lat":43.24802,"lon":5.37457,"is_reserved":false,"is_disabled":false,"rental_uris":{"android":"levelo://app?vid=d4109818-53bc-4fed-b50a-7c42a9ee5d37","ios":"levelo://app?vid=d4109818-53bc-4fed-b50a-7c42a9ee5d37"},"vehicle_type_id":"4","last_reported":1733318464,"current_range_meters":28000,"station_id":"ce4bhgh2rcd13ifvqfb0","pricing_plan_id":"cebpf4jnsgd1na2vs0mg"},{"bike_id":"987a5ab4-d60c-480c-94b6-7cab38975402","system_id":"levelo_inurba_marseille","lat":43.29748,"lon":5.37971,"is_reserved":false,"is_disabled":true,"rental_uris":{"android":"levelo://app?vid=987a5ab4-d60c-480c-94b6-7cab38975402","ios":"levelo://app?vid=987a5ab4-d60c-480c-94b6-7cab38975402"},"vehicle_type_id":"4","last_reported":1733318464,"current_range_meters":0,"station_id":"","pricing_plan_id":"cebpf4jnsgd1na2vs0mg"},{"bike_id":"2c4596ad-0ad9-4016-b92b-0093349de2b4","system_id":"levelo_inurba_marseille","lat":43.30755,"lon":5.38187,"is_reserved":false,"is_disabled":true,"rental_uris":{"android":"levelo://app?vid=2c4596ad-0ad9-4016-b92b-0093349de2b4","ios":"levelo://app?vid=2c4596ad-0ad9-4016-b92b-0093349de2b4"},"vehicle_type_id":"4","last_reported":1733318464,"current_range_meters":0,"station_id":"","pricing_plan_id":"cebpf4jnsgd1na2vs0mg"},{"bike_id":"4c50cfef-44f5-4acf-845e-6e627fcc246e","system_id":"levelo_inurba_marseille","lat":43.26685,"lon":5.38267,"is_reserved":false,"is_disabled":false,"rental_uris":{"android":"levelo://app?vid=4c50cfef-44f5-4acf-845e-6e627fcc246e","ios":"levelo://app?vid=4c50cfef-44f5-4acf-845e-6e627fcc246e"},"vehicle_type_id":"4","last_reported":1733318464,"current_range_meters":38800,"station_id":"ce4bhg92rcd13ifvqf90","pricing_plan_id":"cebpf4jnsgd1na2vs0mg"},{"bike_id":"4420f4b6-b6c2-4469-86f0-0d46e138dce9","system_id":"levelo_inurba_marseille","lat":43.270668,"lon":5.422798,"is_reserved":false,"is_disabled":false,"rental_uris":{"android":"levelo://app?vid=4420f4b6-b6c2-4469-86f0-0d46e138dce9","ios":"levelo://app?vid=4420f4b6-b6c2-4469-86f0-0d46e138dce9"},"vehicle_type_id":"4","last_reported":1733318464,"current_range_meters":10800,"station_id":"ce4bhk92rcd13ifvqgb0","pricing_plan_id":"cebpf4jnsgd1na2vs0mg"},{"bike_id":"b7ab8c01-033f-4395-8276-23c850ad3d02","system_id":"levelo_inurba_marseille","lat":43.30318,"lon":5.36597,"is_reserved":false,"is_disabled":true,"rental_uris":{"android":"levelo://app?vid=b7ab8c01-033f-4395-8276-23c850ad3d02","ios":"levelo://app?vid=b7ab8c01-033f-4395-8276-23c850ad3d02"},"vehicle_type_id":"4","last_reported":1733318464,"current_range_meters":0,"station_id":"","pricing_plan_id":"cebpf4jnsgd1na2vs0mg"},{"bike_id":"d0d1f4fa-5e43-4021-9999-e92fc05ca94b","system_id":"levelo_inurba_marseille","lat":43.27679,"lon":5.3887,"is_reserved":false,"is_disabled":false,"rental_uris":{"android":"levelo://app?vid=d0d1f4fa-5e43-4021-9999-e92fc05ca94b","ios":"levelo://app?vid=d0d1f4fa-5e43-4021-9999-e92fc05ca94b"},"vehicle_type_id":"4","last_reported":1733318464,"current_range_meters":36000,"station_id":"ce4bhi12rcd13ifvqfo0","pricing_plan_id":"cebpf4jnsgd1na2vs0mg"},{"bike_id":"6ebee729-5d71-4a1d-928d-0d1bb1d2e8a0","system_id":"levelo_inurba_marseille","lat":43.30432,"lon":5.3975,"is_reserved":false,"is_disabled":false,"rental_uris":{"android":"levelo://app?vid=6ebee729-5d71-4a1d-928d-0d1bb1d2e8a0","ios":"levelo://app?vid=6ebee729-5d71-4a1d-928d-0d1bb1d2e8a0"},"vehicle_type_id":"4","last_reported":1733318464,"current_range_meters":5600,"station_id":"ce4bh092rcd13ifvqd20","pricing_plan_id":"cebpf4jnsgd1na2vs0mg"},{"bike_id":"71f8aafb-bd63-44fa-8c0c-25176ca13ebf","system_id":"levelo_inurba_marseille","lat":43.28001,"lon":5.40016,"is_reserved":false,"is_disabled":false,"rental_uris":{"android":"levelo://app?vid=71f8aafb-bd63-44fa-8c0c-25176ca13ebf","ios":"levelo://app?vid=71f8aafb-bd63-44fa-8c0c-25176ca13ebf"},"vehicle_type_id":"4","last_reported":1733318464,"current_range_meters":12800,"station_id":"ce4bho92rcd13ifvqh4g","pricing_plan_id":"cebpf4jnsgd1na2vs0mg"},{"bike_id":"071ce7a4-69cb-4975-b68b-00ebf04131da","system_id":"levelo_inurba_marseille","lat":43.32365,"lon":5.38888,"is_reserved":false,"is_disabled":false,"rental_uris":{"android":"levelo://app?vid=071ce7a4-69cb-4975-b68b-00ebf04131da","ios":"levelo://app?vid=071ce7a4-69cb-4975-b68b-00ebf04131da"},"vehicle_type_id":"4","last_reported":1733318464,"current_range_meters":7200,"station_id":"ce4bhqp2rcd13ifvqhog","pricing_plan_id":"cebpf4jnsgd1na2vs0mg"},{"bike_id":"62039b2b-e25c-4eb7-a7b5-63675d853e8e","system_id":"levelo_inurba_marseille","lat":43.31703,"lon":5.37661,"is_reserved":false,"is_disabled":false,"rental_uris":{"android":"levelo://app?vid=62039b2b-e25c-4eb7-a7b5-63675d853e8e","ios":"levelo://app?vid=62039b2b-e25c-4eb7-a7b5-63675d853e8e"},"vehicle_type_id":"4","last_reported":1733318464,"current_range_meters":26000,"station_id":"","pricing_plan_id":"cebpf4jnsgd1na2vs0mg"},{"bike_id":"d47c99e5-ced2-4ac9-a3cc-6b350efbb4e6","system_id":"levelo_inurba_marseille","lat":43.27069,"lon":5.4228,"is_reserved":false,"is_disabled":false,"rental_uris":{"android":"levelo://app?vid=d47c99e5-ced2-4ac9-a3cc-6b350efbb4e6","ios":"levelo://app?vid=d47c99e5-ced2-4ac9-a3cc-6b350efbb4e6"},"vehicle_type_id":"4","last_reported":1733318464,"current_range_meters":13600,"station_id":"ce4bhk92rcd13ifvqgb0","pricing_plan_id":"cebpf4jnsgd1na2vs0mg"},{"bike_id":"a64a67cd-c04c-472c-84c7-cd1fadfb83a9","system_id":"levelo_inurba_marseille","lat":43.24545,"lon":5.39528,"is_reserved":false,"is_disabled":false,"rental_uris":{"android":"levelo://app?vid=a64a67cd-c04c-472c-84c7-cd1fadfb83a9","ios":"levelo://app?vid=a64a67cd-c04c-472c-84c7-cd1fadfb83a9"},"vehicle_type_id":"4","last_reported":1733318464,"current_range_meters":38000,"station_id":"ce4bhlp2rcd13ifvqgjg","pricing_plan_id":"cebpf4jnsgd1na2vs0mg"},{"bike_id":"766d6f23-808a-4065-94ff-90a59adfd356","system_id":"levelo_inurba_marseille","lat":43.27807,"lon":5.40725,"is_reserved":false,"is_disabled":false,"rental_uris":{"android":"levelo://app?vid=766d6f23-808a-4065-94ff-90a59adfd356","ios":"levelo://app?vid=766d6f23-808a-4065-94ff-90a59adfd356"},"vehicle_type_id":"4","last_reported":1733318464,"current_range_meters":16400,"station_id":"ce4bhnh2rcd13ifvqgtg","pricing_plan_id":"cebpf4jnsgd1na2vs0mg"},{"bike_id":"6cc6805f-c0ca-4585-bdf1-b5a0339762b0","system_id":"levelo_inurba_marseille","lat":43.29013,"lon":5.42786,"is_reserved":false,"is_disabled":true,"rental_uris":{"android":"levelo://app?vid=6cc6805f-c0ca-4585-bdf1-b5a0339762b0","ios":"levelo://app?vid=6cc6805f-c0ca-4585-bdf1-b5a0339762b0"},"vehicle_type_id":"4","last_reported":1733318464,"current_range_meters":0,"station_id":"","pricing_plan_id":"cebpf4jnsgd1na2vs0mg"},{"bike_id":"8d1c8b92-79bb-4181-b0d2-5e94db1a14d0","system_id":"levelo_inurba_marseille","lat":43.30005,"lon":5.38266,"is_reserved":false,"is_disabled":true,"rental_uris":{"android":"levelo://app?vid=8d1c8b92-79bb-4181-b0d2-5e94db1a14d0","ios":"levelo://app?vid=8d1c8b92-79bb-4181-b0d2-5e94db1a14d0"},"vehicle_type_id":"4","last_reported":1733318464,"current_range_meters":0,"station_id":"","pricing_plan_id":"cebpf4jnsgd1na2vs0mg"},{"bike_id":"9ce77ab6-d985-4c67-b0a5-56a892314fed","system_id":"levelo_inurba_marseille","lat":43.32478,"lon":5.36579,"is_reserved":false,"is_disabled":false,"rental_uris":{"android":"levelo://app?vid=9ce77ab6-d985-4c67-b0a5-56a892314fed","ios":"levelo://app?vid=9ce77ab6-d985-4c67-b0a5-56a892314fed"},"vehicle_type_id":"4","last_reported":1733318464,"current_range_meters":14400,"station_id":"ce4bhs12rcd13ifvqhvg","pricing_plan_id":"cebpf4jnsgd1na2vs0mg"},{"bike_id":"6905feab-20d3-477f-a2fd-dd545136aed4","system_id":"levelo_inurba_marseille","lat":43.30884,"lon":5.39647,"is_reserved":false,"is_disabled":false,"rental_uris":{"android":"levelo://app?vid=6905feab-20d3-477f-a2fd-dd545136aed4","ios":"levelo://app?vid=6905feab-20d3-477f-a2fd-dd545136aed4"},"vehicle_type_id":"4","last_reported":1733318464,"current_range_meters":38400,"station_id":"ce4bh012rcd13ifvqcv0","pricing_plan_id":"cebpf4jnsgd1na2vs0mg"},{"bike_id":"f2eff322-1ea5-4024-8997-ceca24d32891","system_id":"levelo_inurba_marseille","lat":43.2749,"lon":5.42457,"is_reserved":false,"is_disabled":false,"rental_uris":{"android":"levelo://app?vid=f2eff322-1ea5-4024-8997-ceca24d32891","ios":"levelo://app?vid=f2eff322-1ea5-4024-8997-ceca24d32891"},"vehicle_type_id":"4","last_reported":1733318464,"current_range_meters":4400,"station_id":"ce4bhn92rcd13ifvqgrg","pricing_plan_id":"cebpf4jnsgd1na2vs0mg"},{"bike_id":"fc5487e4-5ea2-4f86-9b4e-be3ec08dba94","system_id":"levelo_inurba_marseille","lat":43.26195,"lon":5.37933,"is_reserved":false,"is_disabled":false,"rental_uris":{"android":"levelo://app?vid=fc5487e4-5ea2-4f86-9b4e-be3ec08dba94","ios":"levelo://app?vid=fc5487e4-5ea2-4f86-9b4e-be3ec08dba94"},"vehicle_type_id":"4","last_reported":1733318464,"current_range_meters":33200,"station_id":"ce4bhjp2rcd13ifvqg90","pricing_plan_id":"cebpf4jnsgd1na2vs0mg"},{"bike_id":"2906c03a-f876-4351-ae64-d61c41bb7dc3","system_id":"levelo_inurba_marseille","lat":43.29783,"lon":5.37098,"is_reserved":false,"is_disabled":false,"rental_uris":{"android":"levelo://app?vid=2906c03a-f876-4351-ae64-d61c41bb7dc3","ios":"levelo://app?vid=2906c03a-f876-4351-ae64-d61c41bb7dc3"},"vehicle_type_id":"4","last_reported":1733318464,"current_range_meters":30000,"station_id":"ce4bgop2rcd13ifvqc1g","pricing_plan_id":"cebpf4jnsgd1na2vs0mg"},{"bike_id":"2558c4ad-fbbb-4b3a-beb1-e0ca87ccf296","system_id":"levelo_inurba_marseille","lat":43.25116,"lon":5.40332,"is_reserved":false,"is_disabled":false,"rental_uris":{"android":"levelo://app?vid=2558c4ad-fbbb-4b3a-beb1-e0ca87ccf296","ios":"levelo://app?vid=2558c4ad-fbbb-4b3a-beb1-e0ca87ccf296"},"vehicle_type_id":"4","last_reported":1733318464,"current_range_meters":34800,"station_id":"ce4bhlh2rcd13ifvqgig","pricing_plan_id":"cebpf4jnsgd1na2vs0mg"},{"bike_id":"1ca0aca0-4ca4-4bf8-9b1d-054345c3a341","system_id":"levelo_inurba_marseille","lat":43.28884,"lon":5.39997,"is_reserved":false,"is_disabled":false,"rental_uris":{"android":"levelo://app?vid=1ca0aca0-4ca4-4bf8-9b1d-054345c3a341","ios":"levelo://app?vid=1ca0aca0-4ca4-4bf8-9b1d-054345c3a341"},"vehicle_type_id":"4","last_reported":1733318464,"current_range_meters":28000,"station_id":"","pricing_plan_id":"cebpf4jnsgd1na2vs0mg"},{"bike_id":"8b84c07e-63b7-41a7-9f6f-9f57f60980fd","system_id":"levelo_inurba_marseille","lat":43.28607,"lon":5.37064,"is_reserved":false,"is_disabled":false,"rental_uris":{"android":"levelo://app?vid=8b84c07e-63b7-41a7-9f6f-9f57f60980fd","ios":"levelo://app?vid=8b84c07e-63b7-41a7-9f6f-9f57f60980fd"},"vehicle_type_id":"4","last_reported":1733318464,"current_range_meters":22400,"station_id":"ce4bht12rcd13ifvqi60","pricing_plan_id":"cebpf4jnsgd1na2vs0mg"},{"bike_id":"8b454a28-aa66-414f-b7f5-bc621bd5bf0e","system_id":"levelo_inurba_marseille","lat":43.27806,"lon":5.40723,"is_reserved":false,"is_disabled":false,"rental_uris":{"android":"levelo://app?vid=8b454a28-aa66-414f-b7f5-bc621bd5bf0e","ios":"levelo://app?vid=8b454a28-aa66-414f-b7f5-bc621bd5bf0e"},"vehicle_type_id":"4","last_reported":1733318464,"current_range_meters":32800,"station_id":"ce4bhnh2rcd13ifvqgtg","pricing_plan_id":"cebpf4jnsgd1na2vs0mg"},{"bike_id":"1a1835e4-d5d5-488d-8b05-634caea58fd1","system_id":"levelo_inurba_marseille","lat":43.26683,"lon":5.38267,"is_reserved":false,"is_disabled":true,"rental_uris":{"android":"levelo://app?vid=1a1835e4-d5d5-488d-8b05-634caea58fd1","ios":"levelo://app?vid=1a1835e4-d5d5-488d-8b05-634caea58fd1"},"vehicle_type_id":"4","last_reported":1733318464,"current_range_meters":32400,"station_id":"ce4bhg92rcd13ifvqf90","pricing_plan_id":"cebpf4jnsgd1na2vs0mg"},{"bike_id":"6d3a8a42-5044-43eb-ac76-5a069db92939","system_id":"levelo_inurba_marseille","lat":43.29737,"lon":5.37683,"is_reserved":false,"is_disabled":false,"rental_uris":{"android":"levelo://app?vid=6d3a8a42-5044-43eb-ac76-5a069db92939","ios":"levelo://app?vid=6d3a8a42-5044-43eb-ac76-5a069db92939"},"vehicle_type_id":"4","last_reported":1733318464,"current_range_meters":38800,"station_id":"ce4bgkh2rcd13ifvqbl0","pricing_plan_id":"cebpf4jnsgd1na2vs0mg"},{"bike_id":"4acc62af-ae8d-4cb6-a35a-c62630e71e6c","system_id":"levelo_inurba_marseille","lat":43.29627,"lon":5.37174,"is_reserved":false,"is_disabled":false,"rental_uris":{"android":"levelo://app?vid=4acc62af-ae8d-4cb6-a35a-c62630e71e6c","ios":"levelo://app?vid=4acc62af-ae8d-4cb6-a35a-c62630e71e6c"},"vehicle_type_id":"4","last_reported":1733318464,"current_range_meters":8000,"station_id":"ce4bgnh2rcd13ifvqc0g","pricing_plan_id":"cebpf4jnsgd1na2vs0mg"},{"bike_id":"2778d410-9642-4e72-9a0d-0694b81bf46a","system_id":"levelo_inurba_marseille","lat":43.27809,"lon":5.40723,"is_reserved":false,"is_disabled":false,"rental_uris":{"android":"levelo://app?vid=2778d410-9642-4e72-9a0d-0694b81bf46a","ios":"levelo://app?vid=2778d410-9642-4e72-9a0d-0694b81bf46a"},"vehicle_type_id":"4","last_reported":1733318464,"current_range_meters":3200,"station_id":"ce4bhnh2rcd13ifvqgtg","pricing_plan_id":"cebpf4jnsgd1na2vs0mg"},{"bike_id":"f97a7499-62cf-4968-93df-dddf550d4df2","system_id":"levelo_inurba_marseille","lat":43.25576,"lon":5.3823,"is_reserved":false,"is_disabled":false,"rental_uris":{"android":"levelo://app?vid=f97a7499-62cf-4968-93df-dddf550d4df2","ios":"levelo://app?vid=f97a7499-62cf-4968-93df-dddf550d4df2"},"vehicle_type_id":"4","last_reported":1733318464,"current_range_meters":38800,"station_id":"ce4bhih2rcd13ifvqfs0","pricing_plan_id":"cebpf4jnsgd1na2vs0mg"},{"bike_id":"9c77a68d-2e99-44e9-b903-950fb6644d35","system_id":"levelo_inurba_marseille","lat":43.25265,"lon":5.39465,"is_reserved":false,"is_disabled":true,"rental_uris":{"android":"levelo://app?vid=9c77a68d-2e99-44e9-b903-950fb6644d35","ios":"levelo://app?vid=9c77a68d-2e99-44e9-b903-950fb6644d35"},"vehicle_type_id":"4","last_reported":1733318464,"current_range_meters":0,"station_id":"","pricing_plan_id":"cebpf4jnsgd1na2vs0mg"},{"bike_id":"a4b6bd16-96d8-481b-b058-305ef6d7479f","system_id":"levelo_inurba_marseille","lat":43.27574,"lon":5.38418,"is_reserved":false,"is_disabled":false,"rental_uris":{"android":"levelo://app?vid=a4b6bd16-96d8-481b-b058-305ef6d7479f","ios":"levelo://app?vid=a4b6bd16-96d8-481b-b058-305ef6d7479f"},"vehicle_type_id":"4","last_reported":1733318464,"current_range_meters":5600,"station_id":"ce4bhh92rcd13ifvqfi0","pricing_plan_id":"cebpf4jnsgd1na2vs0mg"},{"bike_id":"dce3be87-90c1-4c6d-92e0-cf09314d921e","system_id":"levelo_inurba_marseille","lat":43.29783,"lon":5.38104,"is_reserved":false,"is_disabled":true,"rental_uris":{"android":"levelo://app?vid=dce3be87-90c1-4c6d-92e0-cf09314d921e","ios":"levelo://app?vid=dce3be87-90c1-4c6d-92e0-cf09314d921e"},"vehicle_type_id":"4","last_reported":1733318464,"current_range_meters":26000,"station_id":"ce4bgip2rcd13ifvqbb0","pricing_plan_id":"cebpf4jnsgd1na2vs0mg"},{"bike_id":"2ddf6edc-6c2f-41e5-9e8e-307fb357aca5","system_id":"levelo_inurba_marseille","lat":43.29703,"lon":5.36614,"is_reserved":false,"is_disabled":false,"rental_uris":{"android":"levelo://app?vid=2ddf6edc-6c2f-41e5-9e8e-307fb357aca5","ios":"levelo://app?vid=2ddf6edc-6c2f-41e5-9e8e-307fb357aca5"},"vehicle_type_id":"4","last_reported":1733318464,"current_range_meters":38800,"station_id":"ce4bgn12rcd13ifvqbt0","pricing_plan_id":"cebpf4jnsgd1na2vs0mg"},{"bike_id":"1e02f16d-4f66-4385-a698-d14b92c48490","system_id":"levelo_inurba_marseille","lat":43.2892,"lon":5.38411,"is_reserved":false,"is_disabled":false,"rental_uris":{"android":"levelo://app?vid=1e02f16d-4f66-4385-a698-d14b92c48490","ios":"levelo://app?vid=1e02f16d-4f66-4385-a698-d14b92c48490"},"vehicle_type_id":"4","last_reported":1733318464,"current_range_meters":7200,"station_id":"ce4bh612rcd13ifvqe6g","pricing_plan_id":"cebpf4jnsgd1na2vs0mg"},{"bike_id":"83985555-c848-4b28-808f-8a7e7cf8519e","system_id":"levelo_inurba_marseille","lat":43.28112,"lon":5.43982,"is_reserved":false,"is_disabled":true,"rental_uris":{"android":"levelo://app?vid=83985555-c848-4b28-808f-8a7e7cf8519e","ios":"levelo://app?vid=83985555-c848-4b28-808f-8a7e7cf8519e"},"vehicle_type_id":"4","last_reported":1733318464,"current_range_meters":0,"station_id":"","pricing_plan_id":"cebpf4jnsgd1na2vs0mg"},{"bike_id":"6ef81432-fd24-47f2-b60f-0ee688f2ebd0","system_id":"levelo_inurba_marseille","lat":43.30888,"lon":5.39632,"is_reserved":false,"is_disabled":false,"rental_uris":{"android":"levelo://app?vid=6ef81432-fd24-47f2-b60f-0ee688f2ebd0","ios":"levelo://app?vid=6ef81432-fd24-47f2-b60f-0ee688f2ebd0"},"vehicle_type_id":"4","last_reported":1733318464,"current_range_meters":8000,"station_id":"ce4bh012rcd13ifvqcv0","pricing_plan_id":"cebpf4jnsgd1na2vs0mg"},{"bike_id":"903ec8f1-f4c3-441f-a117-ff7454fcb959","system_id":"levelo_inurba_marseille","lat":43.29476,"lon":5.39421,"is_reserved":false,"is_disabled":true,"rental_uris":{"android":"levelo://app?vid=903ec8f1-f4c3-441f-a117-ff7454fcb959","ios":"levelo://app?vid=903ec8f1-f4c3-441f-a117-ff7454fcb959"},"vehicle_type_id":"4","last_reported":1733318464,"current_range_meters":0,"station_id":"","pricing_plan_id":"cebpf4jnsgd1na2vs0mg"},{"bike_id":"07a60b7f-80b7-470a-9515-22fa33d21dee","system_id":"levelo_inurba_marseille","lat":43.30265,"lon":5.39626,"is_reserved":false,"is_disabled":true,"rental_uris":{"android":"levelo://app?vid=07a60b7f-80b7-470a-9515-22fa33d21dee","ios":"levelo://app?vid=07a60b7f-80b7-470a-9515-22fa33d21dee"},"vehicle_type_id":"4","last_reported":1733318464,"current_range_meters":0,"station_id":"","pricing_plan_id":"cebpf4jnsgd1na2vs0mg"},{"bike_id":"ee5a84e2-d71f-45f6-b7b9-28219dd189ea","system_id":"levelo_inurba_marseille","lat":43.25569,"lon":5.38242,"is_reserved":false,"is_disabled":false,"rental_uris":{"android":"levelo://app?vid=ee5a84e2-d71f-45f6-b7b9-28219dd189ea","ios":"levelo://app?vid=ee5a84e2-d71f-45f6-b7b9-28219dd189ea"},"vehicle_type_id":"4","last_reported":1733318464,"current_range_meters":20400,"station_id":"ce4bhih2rcd13ifvqfs0","pricing_plan_id":"cebpf4jnsgd1na2vs0mg"},{"bike_id":"941eeae1-8936-4a86-b31a-ea87d84b2048","system_id":"levelo_inurba_marseille","lat":43.28045,"lon":5.3564,"is_reserved":false,"is_disabled":true,"rental_uris":{"android":"levelo://app?vid=941eeae1-8936-4a86-b31a-ea87d84b2048","ios":"levelo://app?vid=941eeae1-8936-4a86-b31a-ea87d84b2048"},"vehicle_type_id":"4","last_reported":1733318464,"current_range_meters":400,"station_id":"","pricing_plan_id":"cebpf4jnsgd1na2vs0mg"},{"bike_id":"cb405331-5424-4e39-a835-9a9e9242f34c","system_id":"levelo_inurba_marseille","lat":43.30527,"lon":5.36539,"is_reserved":false,"is_disabled":false,"rental_uris":{"android":"levelo://app?vid=cb405331-5424-4e39-a835-9a9e9242f34c","ios":"levelo://app?vid=cb405331-5424-4e39-a835-9a9e9242f34c"},"vehicle_type_id":"4","last_reported":1733318464,"current_range_meters":26000,"station_id":"ce4bgs12rcd13ifvqcag","pricing_plan_id":"cebpf4jnsgd1na2vs0mg"},{"bike_id":"736804a0-d604-4593-9605-60df46271ddd","system_id":"levelo_inurba_marseille","lat":43.31352,"lon":5.36708,"is_reserved":false,"is_disabled":false,"rental_uris":{"android":"levelo://app?vid=736804a0-d604-4593-9605-60df46271ddd","ios":"levelo://app?vid=736804a0-d604-4593-9605-60df46271ddd"},"vehicle_type_id":"4","last_reported":1733318464,"current_range_meters":14400,"station_id":"ce4bgr92rcd13ifvqc6g","pricing_plan_id":"cebpf4jnsgd1na2vs0mg"},{"bike_id":"5da6c746-dfcf-444c-a8e3-2255080329f5","system_id":"levelo_inurba_marseille","lat":43.27366,"lon":5.36265,"is_reserved":false,"is_disabled":false,"rental_uris":{"android":"levelo://app?vid=5da6c746-dfcf-444c-a8e3-2255080329f5","ios":"levelo://app?vid=5da6c746-dfcf-444c-a8e3-2255080329f5"},"vehicle_type_id":"4","last_reported":1733318464,"current_range_meters":38400,"station_id":"","pricing_plan_id":"cebpf4jnsgd1na2vs0mg"},{"bike_id":"7fa43daa-b8fe-4d92-9cee-91d275a528ac","system_id":"levelo_inurba_marseille","lat":43.292692,"lon":5.368146,"is_reserved":false,"is_disabled":false,"rental_uris":{"android":"levelo://app?vid=7fa43daa-b8fe-4d92-9cee-91d275a528ac","ios":"levelo://app?vid=7fa43daa-b8fe-4d92-9cee-91d275a528ac"},"vehicle_type_id":"4","last_reported":1733318464,"current_range_meters":38000,"station_id":"ce4bhbp2rcd13ifvqesg","pricing_plan_id":"cebpf4jnsgd1na2vs0mg"},{"bike_id":"37ca0ae0-95ee-4670-aa23-ba636dab9109","system_id":"levelo_inurba_marseille","lat":43.30128,"lon":5.39873,"is_reserved":false,"is_disabled":false,"rental_uris":{"android":"levelo://app?vid=37ca0ae0-95ee-4670-aa23-ba636dab9109","ios":"levelo://app?vid=37ca0ae0-95ee-4670-aa23-ba636dab9109"},"vehicle_type_id":"4","last_reported":1733318464,"current_range_meters":38000,"station_id":"ce4bh0h2rcd13ifvqd40","pricing_plan_id":"cebpf4jnsgd1na2vs0mg"},{"bike_id":"b7c63f35-218a-4eea-94a6-ebaaedb53b9d","system_id":"levelo_inurba_marseille","lat":43.26201,"lon":5.37931,"is_reserved":false,"is_disabled":false,"rental_uris":{"android":"levelo://app?vid=b7c63f35-218a-4eea-94a6-ebaaedb53b9d","ios":"levelo://app?vid=b7c63f35-218a-4eea-94a6-ebaaedb53b9d"},"vehicle_type_id":"4","last_reported":1733318464,"current_range_meters":32000,"station_id":"ce4bhjp2rcd13ifvqg90","pricing_plan_id":"cebpf4jnsgd1na2vs0mg"},{"bike_id":"84481cbe-bea2-46d1-8484-1aa3c5ad7d94","system_id":"levelo_inurba_marseille","lat":43.28472,"lon":5.38421,"is_reserved":false,"is_disabled":false,"rental_uris":{"android":"levelo://app?vid=84481cbe-bea2-46d1-8484-1aa3c5ad7d94","ios":"levelo://app?vid=84481cbe-bea2-46d1-8484-1aa3c5ad7d94"},"vehicle_type_id":"4","last_reported":1733318464,"current_range_meters":33200,"station_id":"ce4bh512rcd13ifvqe3g","pricing_plan_id":"cebpf4jnsgd1na2vs0mg"},{"bike_id":"d968385f-de2b-44eb-96a8-54efc707caa9","system_id":"levelo_inurba_marseille","lat":43.23198,"lon":5.35547,"is_reserved":false,"is_disabled":false,"rental_uris":{"android":"levelo://app?vid=d968385f-de2b-44eb-96a8-54efc707caa9","ios":"levelo://app?vid=d968385f-de2b-44eb-96a8-54efc707caa9"},"vehicle_type_id":"4","last_reported":1733318464,"current_range_meters":38800,"station_id":"ce4bhu92rcd13ifvqi70","pricing_plan_id":"cebpf4jnsgd1na2vs0mg"},{"bike_id":"081a8591-542e-49e8-9f34-aa4400ceacb3","system_id":"levelo_inurba_marseille","lat":43.29837,"lon":5.36264,"is_reserved":false,"is_disabled":false,"rental_uris":{"android":"levelo://app?vid=081a8591-542e-49e8-9f34-aa4400ceacb3","ios":"levelo://app?vid=081a8591-542e-49e8-9f34-aa4400ceacb3"},"vehicle_type_id":"4","last_reported":1733318464,"current_range_meters":38800,"station_id":"ce4bgpp2rcd13ifvqc3g","pricing_plan_id":"cebpf4jnsgd1na2vs0mg"},{"bike_id":"f7aceda2-c184-4e33-b7cf-bf447e97bdc0","system_id":"levelo_inurba_marseille","lat":43.26558,"lon":5.37283,"is_reserved":false,"is_disabled":false,"rental_uris":{"android":"levelo://app?vid=f7aceda2-c184-4e33-b7cf-bf447e97bdc0","ios":"levelo://app?vid=f7aceda2-c184-4e33-b7cf-bf447e97bdc0"},"vehicle_type_id":"4","last_reported":1733318464,"current_range_meters":33200,"station_id":"ce4bhg12rcd13ifvqf70","pricing_plan_id":"cebpf4jnsgd1na2vs0mg"},{"bike_id":"dc24279f-f126-4126-97d7-1ef0fe43b4e9","system_id":"levelo_inurba_marseille","lat":43.27362,"lon":5.36262,"is_reserved":false,"is_disabled":false,"rental_uris":{"android":"levelo://app?vid=dc24279f-f126-4126-97d7-1ef0fe43b4e9","ios":"levelo://app?vid=dc24279f-f126-4126-97d7-1ef0fe43b4e9"},"vehicle_type_id":"4","last_reported":1733318464,"current_range_meters":30000,"station_id":"ce4bhbh2rcd13ifvqeo0","pricing_plan_id":"cebpf4jnsgd1na2vs0mg"},{"bike_id":"f6acb780-45e4-4b7d-a06e-1648f4e03965","system_id":"levelo_inurba_marseille","lat":43.26193,"lon":5.3745,"is_reserved":false,"is_disabled":false,"rental_uris":{"android":"levelo://app?vid=f6acb780-45e4-4b7d-a06e-1648f4e03965","ios":"levelo://app?vid=f6acb780-45e4-4b7d-a06e-1648f4e03965"},"vehicle_type_id":"4","last_reported":1733318464,"current_range_meters":36400,"station_id":"ce4bhgp2rcd13ifvqfc0","pricing_plan_id":"cebpf4jnsgd1na2vs0mg"},{"bike_id":"506c09f4-6c9b-4fb3-996c-4c7f86dd75a8","system_id":"levelo_inurba_marseille","lat":43.25492,"lon":5.37652,"is_reserved":false,"is_disabled":true,"rental_uris":{"android":"levelo://app?vid=506c09f4-6c9b-4fb3-996c-4c7f86dd75a8","ios":"levelo://app?vid=506c09f4-6c9b-4fb3-996c-4c7f86dd75a8"},"vehicle_type_id":"4","last_reported":1733318464,"current_range_meters":0,"station_id":"","pricing_plan_id":"cebpf4jnsgd1na2vs0mg"},{"bike_id":"7f9a892b-d7d6-4fae-8310-b77a23ee7309","system_id":"levelo_inurba_marseille","lat":43.29893,"lon":5.43672,"is_reserved":false,"is_disabled":false,"rental_uris":{"android":"levelo://app?vid=7f9a892b-d7d6-4fae-8310-b77a23ee7309","ios":"levelo://app?vid=7f9a892b-d7d6-4fae-8310-b77a23ee7309"},"vehicle_type_id":"4","last_reported":1733318464,"current_range_meters":32400,"station_id":"ce4bhpp2rcd13ifvqhfg","pricing_plan_id":"cebpf4jnsgd1na2vs0mg"},{"bike_id":"fd0f5468-0b07-4fb4-a17c-422c3034ac71","system_id":"levelo_inurba_marseille","lat":43.32227,"lon":5.41274,"is_reserved":false,"is_disabled":false,"rental_uris":{"android":"levelo://app?vid=fd0f5468-0b07-4fb4-a17c-422c3034ac71","ios":"levelo://app?vid=fd0f5468-0b07-4fb4-a17c-422c3034ac71"},"vehicle_type_id":"4","last_reported":1733318464,"current_range_meters":38800,"station_id":"","pricing_plan_id":"cebpf4jnsgd1na2vs0mg"},{"bike_id":"9202c63e-372c-4469-a5c1-8e35757d1940","system_id":"levelo_inurba_marseille","lat":43.30053,"lon":5.38832,"is_reserved":false,"is_disabled":true,"rental_uris":{"android":"levelo://app?vid=9202c63e-372c-4469-a5c1-8e35757d1940","ios":"levelo://app?vid=9202c63e-372c-4469-a5c1-8e35757d1940"},"vehicle_type_id":"4","last_reported":1733318464,"current_range_meters":0,"station_id":"","pricing_plan_id":"cebpf4jnsgd1na2vs0mg"},{"bike_id":"0080f1de-f85b-403d-a51e-5b7dd102dec4","system_id":"levelo_inurba_marseille","lat":43.32533,"lon":5.41439,"is_reserved":false,"is_disabled":false,"rental_uris":{"android":"levelo://app?vid=0080f1de-f85b-403d-a51e-5b7dd102dec4","ios":"levelo://app?vid=0080f1de-f85b-403d-a51e-5b7dd102dec4"},"vehicle_type_id":"4","last_reported":1733318464,"current_range_meters":16000,"station_id":"ce4bhq12rcd13ifvqhhg","pricing_plan_id":"cebpf4jnsgd1na2vs0mg"},{"bike_id":"6e35a628-141c-4055-81a3-e64bed2ed5b9","system_id":"levelo_inurba_marseille","lat":43.30522,"lon":5.36746,"is_reserved":false,"is_disabled":false,"rental_uris":{"android":"levelo://app?vid=6e35a628-141c-4055-81a3-e64bed2ed5b9","ios":"levelo://app?vid=6e35a628-141c-4055-81a3-e64bed2ed5b9"},"vehicle_type_id":"4","last_reported":1733318464,"current_range_meters":38800,"station_id":"ce4bgrp2rcd13ifvqc9g","pricing_plan_id":"cebpf4jnsgd1na2vs0mg"},{"bike_id":"7f176b29-e718-41be-9a4c-3273df7f4efc","system_id":"levelo_inurba_marseille","lat":43.31719,"lon":5.40456,"is_reserved":false,"is_disabled":false,"rental_uris":{"android":"levelo://app?vid=7f176b29-e718-41be-9a4c-3273df7f4efc","ios":"levelo://app?vid=7f176b29-e718-41be-9a4c-3273df7f4efc"},"vehicle_type_id":"4","last_reported":1733318464,"current_range_meters":16400,"station_id":"ce4bh012rcd13ifvqd00","pricing_plan_id":"cebpf4jnsgd1na2vs0mg"},{"bike_id":"cf3e6ea0-09ff-406c-b357-28a6a6117f94","system_id":"levelo_inurba_marseille","lat":43.22932,"lon":5.35376,"is_reserved":false,"is_disabled":false,"rental_uris":{"android":"levelo://app?vid=cf3e6ea0-09ff-406c-b357-28a6a6117f94","ios":"levelo://app?vid=cf3e6ea0-09ff-406c-b357-28a6a6117f94"},"vehicle_type_id":"4","last_reported":1733318464,"current_range_meters":38800,"station_id":"cpo3532slgdg3j2ikp40","pricing_plan_id":"cebpf4jnsgd1na2vs0mg"},{"bike_id":"6e9df868-9494-465e-8030-80e4629c2392","system_id":"levelo_inurba_marseille","lat":43.29957,"lon":5.41324,"is_reserved":false,"is_disabled":false,"rental_uris":{"android":"levelo://app?vid=6e9df868-9494-465e-8030-80e4629c2392","ios":"levelo://app?vid=6e9df868-9494-465e-8030-80e4629c2392"},"vehicle_type_id":"4","last_reported":1733318464,"current_range_meters":38400,"station_id":"ce4bhp12rcd13ifvqh9g","pricing_plan_id":"cebpf4jnsgd1na2vs0mg"},{"bike_id":"33b6defc-0259-40c1-8c7c-b5f4200fa144","system_id":"levelo_inurba_marseille","lat":43.23959,"lon":5.36644,"is_reserved":false,"is_disabled":false,"rental_uris":{"android":"levelo://app?vid=33b6defc-0259-40c1-8c7c-b5f4200fa144","ios":"levelo://app?vid=33b6defc-0259-40c1-8c7c-b5f4200fa144"},"vehicle_type_id":"4","last_reported":1733318464,"current_range_meters":13600,"station_id":"ce4bhi12rcd13ifvqfp0","pricing_plan_id":"cebpf4jnsgd1na2vs0mg"},{"bike_id":"39b4e8dc-20ae-4019-b95a-dbca41a5ae97","system_id":"levelo_inurba_marseille","lat":43.25582,"lon":5.38228,"is_reserved":false,"is_disabled":false,"rental_uris":{"android":"levelo://app?vid=39b4e8dc-20ae-4019-b95a-dbca41a5ae97","ios":"levelo://app?vid=39b4e8dc-20ae-4019-b95a-dbca41a5ae97"},"vehicle_type_id":"4","last_reported":1733318464,"current_range_meters":35200,"station_id":"ce4bhih2rcd13ifvqfs0","pricing_plan_id":"cebpf4jnsgd1na2vs0mg"},{"bike_id":"719e509a-25e4-4b1b-9830-f708d85d7593","system_id":"levelo_inurba_marseille","lat":43.29283,"lon":5.37397,"is_reserved":false,"is_disabled":true,"rental_uris":{"android":"levelo://app?vid=719e509a-25e4-4b1b-9830-f708d85d7593","ios":"levelo://app?vid=719e509a-25e4-4b1b-9830-f708d85d7593"},"vehicle_type_id":"4","last_reported":1733318464,"current_range_meters":0,"station_id":"","pricing_plan_id":"cebpf4jnsgd1na2vs0mg"},{"bike_id":"943b27ad-102a-40b4-b93c-710e5c2e2544","system_id":"levelo_inurba_marseille","lat":43.25108,"lon":5.40326,"is_reserved":false,"is_disabled":false,"rental_uris":{"android":"levelo://app?vid=943b27ad-102a-40b4-b93c-710e5c2e2544","ios":"levelo://app?vid=943b27ad-102a-40b4-b93c-710e5c2e2544"},"vehicle_type_id":"4","last_reported":1733318464,"current_range_meters":30800,"station_id":"ce4bhlh2rcd13ifvqgig","pricing_plan_id":"cebpf4jnsgd1na2vs0mg"},{"bike_id":"6a22e4ab-5f09-4e4a-9e1e-7a3565af1e1f","system_id":"levelo_inurba_marseille","lat":43.31353,"lon":5.38491,"is_reserved":false,"is_disabled":false,"rental_uris":{"android":"levelo://app?vid=6a22e4ab-5f09-4e4a-9e1e-7a3565af1e1f","ios":"levelo://app?vid=6a22e4ab-5f09-4e4a-9e1e-7a3565af1e1f"},"vehicle_type_id":"4","last_reported":1733318464,"current_range_meters":10800,"station_id":"ce4bgt92rcd13ifvqcf0","pricing_plan_id":"cebpf4jnsgd1na2vs0mg"},{"bike_id":"c0b0668b-9f20-44f3-b7e1-3963df177deb","system_id":"levelo_inurba_marseille","lat":43.26029,"lon":5.3755,"is_reserved":false,"is_disabled":false,"rental_uris":{"android":"levelo://app?vid=c0b0668b-9f20-44f3-b7e1-3963df177deb","ios":"levelo://app?vid=c0b0668b-9f20-44f3-b7e1-3963df177deb"},"vehicle_type_id":"4","last_reported":1733318464,"current_range_meters":38800,"station_id":"ce4bhgh2rcd13ifvqfa0","pricing_plan_id":"cebpf4jnsgd1na2vs0mg"},{"bike_id":"e2313035-0a27-419c-b06b-36a49898f917","system_id":"levelo_inurba_marseille","lat":43.27992,"lon":5.41661,"is_reserved":false,"is_disabled":false,"rental_uris":{"android":"levelo://app?vid=e2313035-0a27-419c-b06b-36a49898f917","ios":"levelo://app?vid=e2313035-0a27-419c-b06b-36a49898f917"},"vehicle_type_id":"4","last_reported":1733318464,"current_range_meters":22400,"station_id":"ce4bho12rcd13ifvqh1g","pricing_plan_id":"cebpf4jnsgd1na2vs0mg"},{"bike_id":"48f7fad5-9736-4854-ad66-3ac0235f4d2f","system_id":"levelo_inurba_marseille","lat":43.2706,"lon":5.40265,"is_reserved":false,"is_disabled":false,"rental_uris":{"android":"levelo://app?vid=48f7fad5-9736-4854-ad66-3ac0235f4d2f","ios":"levelo://app?vid=48f7fad5-9736-4854-ad66-3ac0235f4d2f"},"vehicle_type_id":"4","last_reported":1733318464,"current_range_meters":18800,"station_id":"ce4bhk92rcd13ifvqgc0","pricing_plan_id":"cebpf4jnsgd1na2vs0mg"},{"bike_id":"e623e7dc-9b49-45c8-ad86-90432817ae38","system_id":"levelo_inurba_marseille","lat":43.25725,"lon":5.41107,"is_reserved":false,"is_disabled":false,"rental_uris":{"android":"levelo://app?vid=e623e7dc-9b49-45c8-ad86-90432817ae38","ios":"levelo://app?vid=e623e7dc-9b49-45c8-ad86-90432817ae38"},"vehicle_type_id":"4","last_reported":1733318464,"current_range_meters":29600,"station_id":"ce4bhkp2rcd13ifvqgd0","pricing_plan_id":"cebpf4jnsgd1na2vs0mg"},{"bike_id":"3d8b8cc0-bc86-4be5-b1b3-97410f835a6f","system_id":"levelo_inurba_marseille","lat":43.3055,"lon":5.36706,"is_reserved":false,"is_disabled":false,"rental_uris":{"android":"levelo://app?vid=3d8b8cc0-bc86-4be5-b1b3-97410f835a6f","ios":"levelo://app?vid=3d8b8cc0-bc86-4be5-b1b3-97410f835a6f"},"vehicle_type_id":"4","last_reported":1733318464,"current_range_meters":38000,"station_id":"ce4bgrp2rcd13ifvqc9g","pricing_plan_id":"cebpf4jnsgd1na2vs0mg"},{"bike_id":"959659c7-aa34-4b53-9e66-525748839be7","system_id":"levelo_inurba_marseille","lat":43.2886,"lon":5.35835,"is_reserved":false,"is_disabled":false,"rental_uris":{"android":"levelo://app?vid=959659c7-aa34-4b53-9e66-525748839be7","ios":"levelo://app?vid=959659c7-aa34-4b53-9e66-525748839be7"},"vehicle_type_id":"4","last_reported":1733318464,"current_range_meters":25600,"station_id":"ce4bhb12rcd13ifvqem0","pricing_plan_id":"cebpf4jnsgd1na2vs0mg"},{"bike_id":"38c9802a-44d4-43b4-a98f-381ac535f302","system_id":"levelo_inurba_marseille","lat":43.3248,"lon":5.36573,"is_reserved":false,"is_disabled":false,"rental_uris":{"android":"levelo://app?vid=38c9802a-44d4-43b4-a98f-381ac535f302","ios":"levelo://app?vid=38c9802a-44d4-43b4-a98f-381ac535f302"},"vehicle_type_id":"4","last_reported":1733318464,"current_range_meters":35200,"station_id":"ce4bhs12rcd13ifvqhvg","pricing_plan_id":"cebpf4jnsgd1na2vs0mg"},{"bike_id":"85738504-4b02-4b23-9e1a-606c13a5f776","system_id":"levelo_inurba_marseille","lat":43.30146,"lon":5.38109,"is_reserved":false,"is_disabled":false,"rental_uris":{"android":"levelo://app?vid=85738504-4b02-4b23-9e1a-606c13a5f776","ios":"levelo://app?vid=85738504-4b02-4b23-9e1a-606c13a5f776"},"vehicle_type_id":"4","last_reported":1733318464,"current_range_meters":26800,"station_id":"ce4bgjp2rcd13ifvqbh0","pricing_plan_id":"cebpf4jnsgd1na2vs0mg"},{"bike_id":"0b0ff45f-b0f5-43d3-944d-7ce6714713b4","system_id":"levelo_inurba_marseille","lat":43.26196,"lon":5.37455,"is_reserved":false,"is_disabled":false,"rental_uris":{"android":"levelo://app?vid=0b0ff45f-b0f5-43d3-944d-7ce6714713b4","ios":"levelo://app?vid=0b0ff45f-b0f5-43d3-944d-7ce6714713b4"},"vehicle_type_id":"4","last_reported":1733318464,"current_range_meters":34800,"station_id":"ce4bhgp2rcd13ifvqfc0","pricing_plan_id":"cebpf4jnsgd1na2vs0mg"},{"bike_id":"04acd6cf-39e7-4978-a379-93c734ba69f3","system_id":"levelo_inurba_marseille","lat":43.31673,"lon":5.38216,"is_reserved":false,"is_disabled":false,"rental_uris":{"android":"levelo://app?vid=04acd6cf-39e7-4978-a379-93c734ba69f3","ios":"levelo://app?vid=04acd6cf-39e7-4978-a379-93c734ba69f3"},"vehicle_type_id":"4","last_reported":1733318464,"current_range_meters":38000,"station_id":"","pricing_plan_id":"cebpf4jnsgd1na2vs0mg"},{"bike_id":"344a460e-fd59-48ba-b7ab-5c5101b6212c","system_id":"levelo_inurba_marseille","lat":43.25116,"lon":5.40325,"is_reserved":false,"is_disabled":false,"rental_uris":{"android":"levelo://app?vid=344a460e-fd59-48ba-b7ab-5c5101b6212c","ios":"levelo://app?vid=344a460e-fd59-48ba-b7ab-5c5101b6212c"},"vehicle_type_id":"4","last_reported":1733318464,"current_range_meters":39200,"station_id":"ce4bhlh2rcd13ifvqgig","pricing_plan_id":"cebpf4jnsgd1na2vs0mg"},{"bike_id":"010f1ddc-a5dd-4595-9905-ebf82317a65f","system_id":"levelo_inurba_marseille","lat":43.33023,"lon":5.39042,"is_reserved":false,"is_disabled":false,"rental_uris":{"android":"levelo://app?vid=010f1ddc-a5dd-4595-9905-ebf82317a65f","ios":"levelo://app?vid=010f1ddc-a5dd-4595-9905-ebf82317a65f"},"vehicle_type_id":"4","last_reported":1733318464,"current_range_meters":39200,"station_id":"ce4bhr92rcd13ifvqhrg","pricing_plan_id":"cebpf4jnsgd1na2vs0mg"},{"bike_id":"251fcd95-5d35-4d45-a7c4-2849aee0cc9b","system_id":"levelo_inurba_marseille","lat":43.23964,"lon":5.36632,"is_reserved":false,"is_disabled":false,"rental_uris":{"android":"levelo://app?vid=251fcd95-5d35-4d45-a7c4-2849aee0cc9b","ios":"levelo://app?vid=251fcd95-5d35-4d45-a7c4-2849aee0cc9b"},"vehicle_type_id":"4","last_reported":1733318464,"current_range_meters":26800,"station_id":"ce4bhi12rcd13ifvqfp0","pricing_plan_id":"cebpf4jnsgd1na2vs0mg"},{"bike_id":"4af42561-ae3d-4e0d-a041-9c23f17d54a4","system_id":"levelo_inurba_marseille","lat":43.31182,"lon":5.38715,"is_reserved":false,"is_disabled":false,"rental_uris":{"android":"levelo://app?vid=4af42561-ae3d-4e0d-a041-9c23f17d54a4","ios":"levelo://app?vid=4af42561-ae3d-4e0d-a041-9c23f17d54a4"},"vehicle_type_id":"4","last_reported":1733318464,"current_range_meters":34800,"station_id":"ce4bgv12rcd13ifvqcp0","pricing_plan_id":"cebpf4jnsgd1na2vs0mg"},{"bike_id":"49f6453e-d4c4-443c-87a4-c77d2e5ae5ef","system_id":"levelo_inurba_marseille","lat":43.27365,"lon":5.36266,"is_reserved":false,"is_disabled":false,"rental_uris":{"android":"levelo://app?vid=49f6453e-d4c4-443c-87a4-c77d2e5ae5ef","ios":"levelo://app?vid=49f6453e-d4c4-443c-87a4-c77d2e5ae5ef"},"vehicle_type_id":"4","last_reported":1733318464,"current_range_meters":36000,"station_id":"ce4bhbh2rcd13ifvqeo0","pricing_plan_id":"cebpf4jnsgd1na2vs0mg"},{"bike_id":"dbfa626e-c1c9-4d88-8bab-2606c9264a00","system_id":"levelo_inurba_marseille","lat":43.27208,"lon":5.391779,"is_reserved":false,"is_disabled":false,"rental_uris":{"android":"levelo://app?vid=dbfa626e-c1c9-4d88-8bab-2606c9264a00","ios":"levelo://app?vid=dbfa626e-c1c9-4d88-8bab-2606c9264a00"},"vehicle_type_id":"4","last_reported":1733318464,"current_range_meters":14800,"station_id":"ce4bhhp2rcd13ifvqfm0","pricing_plan_id":"cebpf4jnsgd1na2vs0mg"},{"bike_id":"79c8ea6d-5102-4a1e-b941-afdabc095945","system_id":"levelo_inurba_marseille","lat":43.29059,"lon":5.38339,"is_reserved":false,"is_disabled":true,"rental_uris":{"android":"levelo://app?vid=79c8ea6d-5102-4a1e-b941-afdabc095945","ios":"levelo://app?vid=79c8ea6d-5102-4a1e-b941-afdabc095945"},"vehicle_type_id":"4","last_reported":1733318464,"current_range_meters":20000,"station_id":"","pricing_plan_id":"cebpf4jnsgd1na2vs0mg"},{"bike_id":"84a2915d-c6ef-4af0-8c6d-2fcd615fa6c7","system_id":"levelo_inurba_marseille","lat":43.33334,"lon":5.42027,"is_reserved":false,"is_disabled":true,"rental_uris":{"android":"levelo://app?vid=84a2915d-c6ef-4af0-8c6d-2fcd615fa6c7","ios":"levelo://app?vid=84a2915d-c6ef-4af0-8c6d-2fcd615fa6c7"},"vehicle_type_id":"4","last_reported":1733318464,"current_range_meters":0,"station_id":"","pricing_plan_id":"cebpf4jnsgd1na2vs0mg"},{"bike_id":"eb6a790b-e56a-44cb-a91c-f3c0be3b808e","system_id":"levelo_inurba_marseille","lat":43.31481,"lon":5.37312,"is_reserved":false,"is_disabled":false,"rental_uris":{"android":"levelo://app?vid=eb6a790b-e56a-44cb-a91c-f3c0be3b808e","ios":"levelo://app?vid=eb6a790b-e56a-44cb-a91c-f3c0be3b808e"},"vehicle_type_id":"4","last_reported":1733318464,"current_range_meters":27600,"station_id":"ce4bgt12rcd13ifvqcd0","pricing_plan_id":"cebpf4jnsgd1na2vs0mg"},{"bike_id":"1f3491f0-7911-4ef6-949b-178332ea511b","system_id":"levelo_inurba_marseille","lat":43.27934,"lon":5.3879,"is_reserved":false,"is_disabled":false,"rental_uris":{"android":"levelo://app?vid=1f3491f0-7911-4ef6-949b-178332ea511b","ios":"levelo://app?vid=1f3491f0-7911-4ef6-949b-178332ea511b"},"vehicle_type_id":"4","last_reported":1733318464,"current_range_meters":19200,"station_id":"","pricing_plan_id":"cebpf4jnsgd1na2vs0mg"},{"bike_id":"c1bd2f3c-72a5-4288-9456-79b212a65b19","system_id":"levelo_inurba_marseille","lat":43.25932,"lon":5.40914,"is_reserved":false,"is_disabled":true,"rental_uris":{"android":"levelo://app?vid=c1bd2f3c-72a5-4288-9456-79b212a65b19","ios":"levelo://app?vid=c1bd2f3c-72a5-4288-9456-79b212a65b19"},"vehicle_type_id":"4","last_reported":1733318464,"current_range_meters":800,"station_id":"ce4bhm92rcd13ifvqglg","pricing_plan_id":"cebpf4jnsgd1na2vs0mg"},{"bike_id":"4364f563-d5ac-4797-b43e-4519ca8b19a8","system_id":"levelo_inurba_marseille","lat":43.30556,"lon":5.36721,"is_reserved":false,"is_disabled":false,"rental_uris":{"android":"levelo://app?vid=4364f563-d5ac-4797-b43e-4519ca8b19a8","ios":"levelo://app?vid=4364f563-d5ac-4797-b43e-4519ca8b19a8"},"vehicle_type_id":"4","last_reported":1733318464,"current_range_meters":30800,"station_id":"ce4bgrp2rcd13ifvqc9g","pricing_plan_id":"cebpf4jnsgd1na2vs0mg"},{"bike_id":"427d7497-fe79-4531-b7d6-69d2614ceec1","system_id":"levelo_inurba_marseille","lat":43.29164,"lon":5.38488,"is_reserved":false,"is_disabled":false,"rental_uris":{"android":"levelo://app?vid=427d7497-fe79-4531-b7d6-69d2614ceec1","ios":"levelo://app?vid=427d7497-fe79-4531-b7d6-69d2614ceec1"},"vehicle_type_id":"4","last_reported":1733318464,"current_range_meters":5600,"station_id":"","pricing_plan_id":"cebpf4jnsgd1na2vs0mg"},{"bike_id":"8d7488ff-003b-4d2a-b7b5-ae9ff0dfb623","system_id":"levelo_inurba_marseille","lat":43.31322,"lon":5.39693,"is_reserved":false,"is_disabled":false,"rental_uris":{"android":"levelo://app?vid=8d7488ff-003b-4d2a-b7b5-ae9ff0dfb623","ios":"levelo://app?vid=8d7488ff-003b-4d2a-b7b5-ae9ff0dfb623"},"vehicle_type_id":"4","last_reported":1733318464,"current_range_meters":6800,"station_id":"ce4bgvp2rcd13ifvqcu0","pricing_plan_id":"cebpf4jnsgd1na2vs0mg"},{"bike_id":"8ae86ced-26a4-4d48-b0fa-bad7e9d6346b","system_id":"levelo_inurba_marseille","lat":43.32543,"lon":5.41436,"is_reserved":false,"is_disabled":false,"rental_uris":{"android":"levelo://app?vid=8ae86ced-26a4-4d48-b0fa-bad7e9d6346b","ios":"levelo://app?vid=8ae86ced-26a4-4d48-b0fa-bad7e9d6346b"},"vehicle_type_id":"4","last_reported":1733318464,"current_range_meters":36000,"station_id":"ce4bhq12rcd13ifvqhhg","pricing_plan_id":"cebpf4jnsgd1na2vs0mg"},{"bike_id":"d08cbdef-fa5f-4eaa-9a1b-d4e2d436791f","system_id":"levelo_inurba_marseille","lat":43.32477,"lon":5.36566,"is_reserved":false,"is_disabled":false,"rental_uris":{"android":"levelo://app?vid=d08cbdef-fa5f-4eaa-9a1b-d4e2d436791f","ios":"levelo://app?vid=d08cbdef-fa5f-4eaa-9a1b-d4e2d436791f"},"vehicle_type_id":"4","last_reported":1733318464,"current_range_meters":38800,"station_id":"ce4bhs12rcd13ifvqhvg","pricing_plan_id":"cebpf4jnsgd1na2vs0mg"},{"bike_id":"2609ba3b-590b-44a8-9a3a-6fe4518a579f","system_id":"levelo_inurba_marseille","lat":43.24539,"lon":5.39526,"is_reserved":false,"is_disabled":true,"rental_uris":{"android":"levelo://app?vid=2609ba3b-590b-44a8-9a3a-6fe4518a579f","ios":"levelo://app?vid=2609ba3b-590b-44a8-9a3a-6fe4518a579f"},"vehicle_type_id":"4","last_reported":1733318464,"current_range_meters":0,"station_id":"ce4bhlp2rcd13ifvqgjg","pricing_plan_id":"cebpf4jnsgd1na2vs0mg"},{"bike_id":"a4b9e425-64b8-4ce2-a5ab-5fcc5d1230a4","system_id":"levelo_inurba_marseille","lat":43.32101,"lon":5.36778,"is_reserved":false,"is_disabled":false,"rental_uris":{"android":"levelo://app?vid=a4b9e425-64b8-4ce2-a5ab-5fcc5d1230a4","ios":"levelo://app?vid=a4b9e425-64b8-4ce2-a5ab-5fcc5d1230a4"},"vehicle_type_id":"4","last_reported":1733318464,"current_range_meters":38800,"station_id":"ce4bhrh2rcd13ifvqhug","pricing_plan_id":"cebpf4jnsgd1na2vs0mg"},{"bike_id":"3abebed7-0396-4197-8537-118f812c5e7e","system_id":"levelo_inurba_marseille","lat":43.28405,"lon":5.37516,"is_reserved":false,"is_disabled":true,"rental_uris":{"android":"levelo://app?vid=3abebed7-0396-4197-8537-118f812c5e7e","ios":"levelo://app?vid=3abebed7-0396-4197-8537-118f812c5e7e"},"vehicle_type_id":"4","last_reported":1733318464,"current_range_meters":0,"station_id":"ce4bh412rcd13ifvqds0","pricing_plan_id":"cebpf4jnsgd1na2vs0mg"},{"bike_id":"2f9c4155-21b0-46d3-9ebe-9163258b8581","system_id":"levelo_inurba_marseille","lat":43.24801,"lon":5.37457,"is_reserved":false,"is_disabled":false,"rental_uris":{"android":"levelo://app?vid=2f9c4155-21b0-46d3-9ebe-9163258b8581","ios":"levelo://app?vid=2f9c4155-21b0-46d3-9ebe-9163258b8581"},"vehicle_type_id":"4","last_reported":1733318464,"current_range_meters":38800,"station_id":"ce4bhgh2rcd13ifvqfb0","pricing_plan_id":"cebpf4jnsgd1na2vs0mg"},{"bike_id":"4b20ccd1-18e6-4186-9afb-d9d9475842ea","system_id":"levelo_inurba_marseille","lat":43.27807,"lon":5.40729,"is_reserved":false,"is_disabled":true,"rental_uris":{"android":"levelo://app?vid=4b20ccd1-18e6-4186-9afb-d9d9475842ea","ios":"levelo://app?vid=4b20ccd1-18e6-4186-9afb-d9d9475842ea"},"vehicle_type_id":"4","last_reported":1733318464,"current_range_meters":800,"station_id":"ce4bhnh2rcd13ifvqgtg","pricing_plan_id":"cebpf4jnsgd1na2vs0mg"},{"bike_id":"124e256b-6755-4adb-956b-3d5fbbcf671d","system_id":"levelo_inurba_marseille","lat":43.29783,"lon":5.39358,"is_reserved":false,"is_disabled":true,"rental_uris":{"android":"levelo://app?vid=124e256b-6755-4adb-956b-3d5fbbcf671d","ios":"levelo://app?vid=124e256b-6755-4adb-956b-3d5fbbcf671d"},"vehicle_type_id":"4","last_reported":1733318464,"current_range_meters":0,"station_id":"chh1huq6cuj3fo74tm60","pricing_plan_id":"cebpf4jnsgd1na2vs0mg"},{"bike_id":"8ed2017a-fe5b-4baf-983a-d26ec64898bc","system_id":"levelo_inurba_marseille","lat":43.28605,"lon":5.35108,"is_reserved":false,"is_disabled":true,"rental_uris":{"android":"levelo://app?vid=8ed2017a-fe5b-4baf-983a-d26ec64898bc","ios":"levelo://app?vid=8ed2017a-fe5b-4baf-983a-d26ec64898bc"},"vehicle_type_id":"4","last_reported":1733318464,"current_range_meters":0,"station_id":"ce4bhch2rcd13ifvqeug","pricing_plan_id":"cebpf4jnsgd1na2vs0mg"},{"bike_id":"1e3f14fe-5f23-4606-b1f8-5b888e53c8f6","system_id":"levelo_inurba_marseille","lat":43.33757,"lon":5.37428,"is_reserved":false,"is_disabled":false,"rental_uris":{"android":"levelo://app?vid=1e3f14fe-5f23-4606-b1f8-5b888e53c8f6","ios":"levelo://app?vid=1e3f14fe-5f23-4606-b1f8-5b888e53c8f6"},"vehicle_type_id":"4","last_reported":1733318464,"current_range_meters":38400,"station_id":"","pricing_plan_id":"cebpf4jnsgd1na2vs0mg"},{"bike_id":"fc02bf7c-fa30-4850-9eb4-c1c04eeef081","system_id":"levelo_inurba_marseille","lat":43.33026,"lon":5.39038,"is_reserved":false,"is_disabled":false,"rental_uris":{"android":"levelo://app?vid=fc02bf7c-fa30-4850-9eb4-c1c04eeef081","ios":"levelo://app?vid=fc02bf7c-fa30-4850-9eb4-c1c04eeef081"},"vehicle_type_id":"4","last_reported":1733318464,"current_range_meters":28000,"station_id":"ce4bhr92rcd13ifvqhrg","pricing_plan_id":"cebpf4jnsgd1na2vs0mg"},{"bike_id":"c2d8a1c2-d166-4a36-b32f-beec95c93bd5","system_id":"levelo_inurba_marseille","lat":43.33756,"lon":5.37459,"is_reserved":false,"is_disabled":false,"rental_uris":{"android":"levelo://app?vid=c2d8a1c2-d166-4a36-b32f-beec95c93bd5","ios":"levelo://app?vid=c2d8a1c2-d166-4a36-b32f-beec95c93bd5"},"vehicle_type_id":"4","last_reported":1733318464,"current_range_meters":13600,"station_id":"","pricing_plan_id":"cebpf4jnsgd1na2vs0mg"},{"bike_id":"da1b5719-7370-4f9b-9c96-24fd339d2089","system_id":"levelo_inurba_marseille","lat":43.29914,"lon":5.37478,"is_reserved":false,"is_disabled":false,"rental_uris":{"android":"levelo://app?vid=da1b5719-7370-4f9b-9c96-24fd339d2089","ios":"levelo://app?vid=da1b5719-7370-4f9b-9c96-24fd339d2089"},"vehicle_type_id":"4","last_reported":1733318464,"current_range_meters":33200,"station_id":"ce4bgjh2rcd13ifvqbg0","pricing_plan_id":"cebpf4jnsgd1na2vs0mg"},{"bike_id":"f60cd7eb-4c08-47cb-b7a6-71cc99eeeda7","system_id":"levelo_inurba_marseille","lat":43.2498,"lon":5.38932,"is_reserved":false,"is_disabled":false,"rental_uris":{"android":"levelo://app?vid=f60cd7eb-4c08-47cb-b7a6-71cc99eeeda7","ios":"levelo://app?vid=f60cd7eb-4c08-47cb-b7a6-71cc99eeeda7"},"vehicle_type_id":"4","last_reported":1733318464,"current_range_meters":38800,"station_id":"ce4bhgp2rcd13ifvqfd0","pricing_plan_id":"cebpf4jnsgd1na2vs0mg"},{"bike_id":"8830c08f-c268-499b-b7a5-e0504b24aab5","system_id":"levelo_inurba_marseille","lat":43.32474,"lon":5.36574,"is_reserved":false,"is_disabled":false,"rental_uris":{"android":"levelo://app?vid=8830c08f-c268-499b-b7a5-e0504b24aab5","ios":"levelo://app?vid=8830c08f-c268-499b-b7a5-e0504b24aab5"},"vehicle_type_id":"4","last_reported":1733318464,"current_range_meters":25200,"station_id":"ce4bhs12rcd13ifvqhvg","pricing_plan_id":"cebpf4jnsgd1na2vs0mg"},{"bike_id":"e65ad665-4a78-4f29-bd52-ac8b218e2f87","system_id":"levelo_inurba_marseille","lat":43.25721,"lon":5.41114,"is_reserved":false,"is_disabled":false,"rental_uris":{"android":"levelo://app?vid=e65ad665-4a78-4f29-bd52-ac8b218e2f87","ios":"levelo://app?vid=e65ad665-4a78-4f29-bd52-ac8b218e2f87"},"vehicle_type_id":"4","last_reported":1733318464,"current_range_meters":3600,"station_id":"ce4bhkp2rcd13ifvqgd0","pricing_plan_id":"cebpf4jnsgd1na2vs0mg"},{"bike_id":"df589a4b-fe9d-41c4-baeb-db4144cd67c5","system_id":"levelo_inurba_marseille","lat":43.29994,"lon":5.37356,"is_reserved":false,"is_disabled":false,"rental_uris":{"android":"levelo://app?vid=df589a4b-fe9d-41c4-baeb-db4144cd67c5","ios":"levelo://app?vid=df589a4b-fe9d-41c4-baeb-db4144cd67c5"},"vehicle_type_id":"4","last_reported":1733318464,"current_range_meters":36800,"station_id":"","pricing_plan_id":"cebpf4jnsgd1na2vs0mg"},{"bike_id":"96f032e7-29e8-42f4-8ba4-083b724a3bb5","system_id":"levelo_inurba_marseille","lat":43.269336,"lon":5.4026,"is_reserved":false,"is_disabled":false,"rental_uris":{"android":"levelo://app?vid=96f032e7-29e8-42f4-8ba4-083b724a3bb5","ios":"levelo://app?vid=96f032e7-29e8-42f4-8ba4-083b724a3bb5"},"vehicle_type_id":"4","last_reported":1733318464,"current_range_meters":27600,"station_id":"cjm6bp8fraef2m0cb0m0","pricing_plan_id":"cebpf4jnsgd1na2vs0mg"},{"bike_id":"7f81b158-4f9a-4e05-be2b-93f3cc3b7339","system_id":"levelo_inurba_marseille","lat":43.27825,"lon":5.39203,"is_reserved":false,"is_disabled":false,"rental_uris":{"android":"levelo://app?vid=7f81b158-4f9a-4e05-be2b-93f3cc3b7339","ios":"levelo://app?vid=7f81b158-4f9a-4e05-be2b-93f3cc3b7339"},"vehicle_type_id":"4","last_reported":1733318464,"current_range_meters":10000,"station_id":"ce4bhjp2rcd13ifvqga0","pricing_plan_id":"cebpf4jnsgd1na2vs0mg"},{"bike_id":"77a9ae3f-f49b-490e-bc0d-4fabf83debf7","system_id":"levelo_inurba_marseille","lat":43.30407,"lon":5.41275,"is_reserved":false,"is_disabled":false,"rental_uris":{"android":"levelo://app?vid=77a9ae3f-f49b-490e-bc0d-4fabf83debf7","ios":"levelo://app?vid=77a9ae3f-f49b-490e-bc0d-4fabf83debf7"},"vehicle_type_id":"4","last_reported":1733318464,"current_range_meters":38800,"station_id":"ce4bhop2rcd13ifvqh8g","pricing_plan_id":"cebpf4jnsgd1na2vs0mg"},{"bike_id":"57e0f190-7f16-4931-934d-384b1700b76f","system_id":"levelo_inurba_marseille","lat":43.33087,"lon":5.36237,"is_reserved":false,"is_disabled":true,"rental_uris":{"android":"levelo://app?vid=57e0f190-7f16-4931-934d-384b1700b76f","ios":"levelo://app?vid=57e0f190-7f16-4931-934d-384b1700b76f"},"vehicle_type_id":"4","last_reported":1733318464,"current_range_meters":0,"station_id":"","pricing_plan_id":"cebpf4jnsgd1na2vs0mg"},{"bike_id":"5e160b8e-5c83-4423-b051-bd2cf577003d","system_id":"levelo_inurba_marseille","lat":43.23192,"lon":5.35547,"is_reserved":false,"is_disabled":false,"rental_uris":{"android":"levelo://app?vid=5e160b8e-5c83-4423-b051-bd2cf577003d","ios":"levelo://app?vid=5e160b8e-5c83-4423-b051-bd2cf577003d"},"vehicle_type_id":"4","last_reported":1733318464,"current_range_meters":38800,"station_id":"ce4bhu92rcd13ifvqi70","pricing_plan_id":"cebpf4jnsgd1na2vs0mg"},{"bike_id":"4f1661ec-3cbf-4bd6-a84b-282a929e2bf1","system_id":"levelo_inurba_marseille","lat":43.290756,"lon":5.37177,"is_reserved":false,"is_disabled":false,"rental_uris":{"android":"levelo://app?vid=4f1661ec-3cbf-4bd6-a84b-282a929e2bf1","ios":"levelo://app?vid=4f1661ec-3cbf-4bd6-a84b-282a929e2bf1"},"vehicle_type_id":"4","last_reported":1733318464,"current_range_meters":12800,"station_id":"ce4bh5p2rcd13ifvqe4g","pricing_plan_id":"cebpf4jnsgd1na2vs0mg"},{"bike_id":"0b115fbc-2a1c-4284-9549-50ec6c5705b3","system_id":"levelo_inurba_marseille","lat":43.33023,"lon":5.39037,"is_reserved":false,"is_disabled":false,"rental_uris":{"android":"levelo://app?vid=0b115fbc-2a1c-4284-9549-50ec6c5705b3","ios":"levelo://app?vid=0b115fbc-2a1c-4284-9549-50ec6c5705b3"},"vehicle_type_id":"4","last_reported":1733318464,"current_range_meters":38800,"station_id":"ce4bhr92rcd13ifvqhrg","pricing_plan_id":"cebpf4jnsgd1na2vs0mg"},{"bike_id":"4dfc0a1d-ed93-4e03-ad44-f301ba19fc6c","system_id":"levelo_inurba_marseille","lat":43.30171,"lon":5.36615,"is_reserved":false,"is_disabled":false,"rental_uris":{"android":"levelo://app?vid=4dfc0a1d-ed93-4e03-ad44-f301ba19fc6c","ios":"levelo://app?vid=4dfc0a1d-ed93-4e03-ad44-f301ba19fc6c"},"vehicle_type_id":"4","last_reported":1733318464,"current_range_meters":14800,"station_id":"ce4bgrh2rcd13ifvqc8g","pricing_plan_id":"cebpf4jnsgd1na2vs0mg"},{"bike_id":"6adf327d-9f32-4f7b-82b4-34627f90c9f4","system_id":"levelo_inurba_marseille","lat":43.25857,"lon":5.39903,"is_reserved":false,"is_disabled":false,"rental_uris":{"android":"levelo://app?vid=6adf327d-9f32-4f7b-82b4-34627f90c9f4","ios":"levelo://app?vid=6adf327d-9f32-4f7b-82b4-34627f90c9f4"},"vehicle_type_id":"4","last_reported":1733318464,"current_range_meters":12800,"station_id":"ce4bhl92rcd13ifvqghg","pricing_plan_id":"cebpf4jnsgd1na2vs0mg"},{"bike_id":"40ccdb7c-f2aa-4789-ae08-2d416ef863c4","system_id":"levelo_inurba_marseille","lat":43.292645,"lon":5.368425,"is_reserved":false,"is_disabled":true,"rental_uris":{"android":"levelo://app?vid=40ccdb7c-f2aa-4789-ae08-2d416ef863c4","ios":"levelo://app?vid=40ccdb7c-f2aa-4789-ae08-2d416ef863c4"},"vehicle_type_id":"4","last_reported":1733318464,"current_range_meters":17200,"station_id":"ce4bhbp2rcd13ifvqesg","pricing_plan_id":"cebpf4jnsgd1na2vs0mg"},{"bike_id":"c631f86d-00f8-418e-8f36-7f3e51cd3815","system_id":"levelo_inurba_marseille","lat":43.28263,"lon":5.35071,"is_reserved":false,"is_disabled":false,"rental_uris":{"android":"levelo://app?vid=c631f86d-00f8-418e-8f36-7f3e51cd3815","ios":"levelo://app?vid=c631f86d-00f8-418e-8f36-7f3e51cd3815"},"vehicle_type_id":"4","last_reported":1733318464,"current_range_meters":2800,"station_id":"ce4bhbp2rcd13ifvqerg","pricing_plan_id":"cebpf4jnsgd1na2vs0mg"},{"bike_id":"a13e45b5-3d49-49bc-af49-fbd12d53a877","system_id":"levelo_inurba_marseille","lat":43.30527,"lon":5.36537,"is_reserved":false,"is_disabled":true,"rental_uris":{"android":"levelo://app?vid=a13e45b5-3d49-49bc-af49-fbd12d53a877","ios":"levelo://app?vid=a13e45b5-3d49-49bc-af49-fbd12d53a877"},"vehicle_type_id":"4","last_reported":1733318464,"current_range_meters":18800,"station_id":"ce4bgs12rcd13ifvqcag","pricing_plan_id":"cebpf4jnsgd1na2vs0mg"},{"bike_id":"d2cacea6-dc09-4bb5-9e24-b3f0026fab56","system_id":"levelo_inurba_marseille","lat":43.3053,"lon":5.36723,"is_reserved":false,"is_disabled":false,"rental_uris":{"android":"levelo://app?vid=d2cacea6-dc09-4bb5-9e24-b3f0026fab56","ios":"levelo://app?vid=d2cacea6-dc09-4bb5-9e24-b3f0026fab56"},"vehicle_type_id":"4","last_reported":1733318464,"current_range_meters":30000,"station_id":"ce4bgrp2rcd13ifvqc9g","pricing_plan_id":"cebpf4jnsgd1na2vs0mg"},{"bike_id":"99e4e26f-81b0-408f-b166-8879f1cb39e6","system_id":"levelo_inurba_marseille","lat":43.28933,"lon":5.36634,"is_reserved":false,"is_disabled":true,"rental_uris":{"android":"levelo://app?vid=99e4e26f-81b0-408f-b166-8879f1cb39e6","ios":"levelo://app?vid=99e4e26f-81b0-408f-b166-8879f1cb39e6"},"vehicle_type_id":"4","last_reported":1733318464,"current_range_meters":38800,"station_id":"ce4bhap2rcd13ifvqek0","pricing_plan_id":"cebpf4jnsgd1na2vs0mg"},{"bike_id":"07e80e95-9f5a-442d-a221-4aa5f82c9cd6","system_id":"levelo_inurba_marseille","lat":43.29036,"lon":5.39963,"is_reserved":false,"is_disabled":false,"rental_uris":{"android":"levelo://app?vid=07e80e95-9f5a-442d-a221-4aa5f82c9cd6","ios":"levelo://app?vid=07e80e95-9f5a-442d-a221-4aa5f82c9cd6"},"vehicle_type_id":"4","last_reported":1733318464,"current_range_meters":4800,"station_id":"ce4bh392rcd13ifvqdm0","pricing_plan_id":"cebpf4jnsgd1na2vs0mg"},{"bike_id":"5a755c41-1c75-486f-bd9e-e3f91efea334","system_id":"levelo_inurba_marseille","lat":43.264,"lon":5.39232,"is_reserved":false,"is_disabled":false,"rental_uris":{"android":"levelo://app?vid=5a755c41-1c75-486f-bd9e-e3f91efea334","ios":"levelo://app?vid=5a755c41-1c75-486f-bd9e-e3f91efea334"},"vehicle_type_id":"4","last_reported":1733318464,"current_range_meters":16000,"station_id":"ce4bhh92rcd13ifvqfj0","pricing_plan_id":"cebpf4jnsgd1na2vs0mg"},{"bike_id":"7e87d4f8-01df-4475-b68f-dae3809122d2","system_id":"levelo_inurba_marseille","lat":43.30896,"lon":5.37215,"is_reserved":false,"is_disabled":false,"rental_uris":{"android":"levelo://app?vid=7e87d4f8-01df-4475-b68f-dae3809122d2","ios":"levelo://app?vid=7e87d4f8-01df-4475-b68f-dae3809122d2"},"vehicle_type_id":"4","last_reported":1733318464,"current_range_meters":24400,"station_id":"ce4bguh2rcd13ifvqckg","pricing_plan_id":"cebpf4jnsgd1na2vs0mg"},{"bike_id":"3a9149f3-357c-4d0a-859b-18382ef024a5","system_id":"levelo_inurba_marseille","lat":43.3211,"lon":5.36769,"is_reserved":false,"is_disabled":false,"rental_uris":{"android":"levelo://app?vid=3a9149f3-357c-4d0a-859b-18382ef024a5","ios":"levelo://app?vid=3a9149f3-357c-4d0a-859b-18382ef024a5"},"vehicle_type_id":"4","last_reported":1733318464,"current_range_meters":28000,"station_id":"ce4bhrh2rcd13ifvqhug","pricing_plan_id":"cebpf4jnsgd1na2vs0mg"},{"bike_id":"cba4e405-5f98-4b9e-871f-cc4713f22644","system_id":"levelo_inurba_marseille","lat":43.27493,"lon":5.42459,"is_reserved":false,"is_disabled":false,"rental_uris":{"android":"levelo://app?vid=cba4e405-5f98-4b9e-871f-cc4713f22644","ios":"levelo://app?vid=cba4e405-5f98-4b9e-871f-cc4713f22644"},"vehicle_type_id":"4","last_reported":1733318464,"current_range_meters":38800,"station_id":"ce4bhn92rcd13ifvqgrg","pricing_plan_id":"cebpf4jnsgd1na2vs0mg"},{"bike_id":"460abdb9-0a92-4e5a-9604-9dee5a1c303e","system_id":"levelo_inurba_marseille","lat":43.29909,"lon":5.37477,"is_reserved":false,"is_disabled":false,"rental_uris":{"android":"levelo://app?vid=460abdb9-0a92-4e5a-9604-9dee5a1c303e","ios":"levelo://app?vid=460abdb9-0a92-4e5a-9604-9dee5a1c303e"},"vehicle_type_id":"4","last_reported":1733318464,"current_range_meters":38400,"station_id":"ce4bgjh2rcd13ifvqbg0","pricing_plan_id":"cebpf4jnsgd1na2vs0mg"},{"bike_id":"4b1425b3-d14e-4b37-978d-05ce07410545","system_id":"levelo_inurba_marseille","lat":43.26203,"lon":5.37442,"is_reserved":false,"is_disabled":false,"rental_uris":{"android":"levelo://app?vid=4b1425b3-d14e-4b37-978d-05ce07410545","ios":"levelo://app?vid=4b1425b3-d14e-4b37-978d-05ce07410545"},"vehicle_type_id":"4","last_reported":1733318464,"current_range_meters":36400,"station_id":"ce4bhgp2rcd13ifvqfc0","pricing_plan_id":"cebpf4jnsgd1na2vs0mg"},{"bike_id":"8ed65e6c-4bd7-425c-b3b6-6b20614b3f1a","system_id":"levelo_inurba_marseille","lat":43.32491,"lon":5.36569,"is_reserved":false,"is_disabled":false,"rental_uris":{"android":"levelo://app?vid=8ed65e6c-4bd7-425c-b3b6-6b20614b3f1a","ios":"levelo://app?vid=8ed65e6c-4bd7-425c-b3b6-6b20614b3f1a"},"vehicle_type_id":"4","last_reported":1733318464,"current_range_meters":36800,"station_id":"ce4bhs12rcd13ifvqhvg","pricing_plan_id":"cebpf4jnsgd1na2vs0mg"},{"bike_id":"d1990837-9157-460b-acd0-efac9b79d9bf","system_id":"levelo_inurba_marseille","lat":43.28405,"lon":5.34984,"is_reserved":false,"is_disabled":false,"rental_uris":{"android":"levelo://app?vid=d1990837-9157-460b-acd0-efac9b79d9bf","ios":"levelo://app?vid=d1990837-9157-460b-acd0-efac9b79d9bf"},"vehicle_type_id":"4","last_reported":1733318464,"current_range_meters":6400,"station_id":"ce4bhbh2rcd13ifvqepg","pricing_plan_id":"cebpf4jnsgd1na2vs0mg"},{"bike_id":"da6a7a1d-e653-4950-af8c-8137b06f7d40","system_id":"levelo_inurba_marseille","lat":43.3004,"lon":5.37551,"is_reserved":false,"is_disabled":true,"rental_uris":{"android":"levelo://app?vid=da6a7a1d-e653-4950-af8c-8137b06f7d40","ios":"levelo://app?vid=da6a7a1d-e653-4950-af8c-8137b06f7d40"},"vehicle_type_id":"4","last_reported":1733318464,"current_range_meters":0,"station_id":"","pricing_plan_id":"cebpf4jnsgd1na2vs0mg"},{"bike_id":"fd105c82-4171-4291-9f54-b4a492c8122c","system_id":"levelo_inurba_marseille","lat":43.25937,"lon":5.40901,"is_reserved":false,"is_disabled":false,"rental_uris":{"android":"levelo://app?vid=fd105c82-4171-4291-9f54-b4a492c8122c","ios":"levelo://app?vid=fd105c82-4171-4291-9f54-b4a492c8122c"},"vehicle_type_id":"4","last_reported":1733318464,"current_range_meters":23200,"station_id":"ce4bhm92rcd13ifvqglg","pricing_plan_id":"cebpf4jnsgd1na2vs0mg"},{"bike_id":"b314e948-2a77-40d4-be0f-5b067a6c2769","system_id":"levelo_inurba_marseille","lat":43.32494,"lon":5.36577,"is_reserved":false,"is_disabled":false,"rental_uris":{"android":"levelo://app?vid=b314e948-2a77-40d4-be0f-5b067a6c2769","ios":"levelo://app?vid=b314e948-2a77-40d4-be0f-5b067a6c2769"},"vehicle_type_id":"4","last_reported":1733318464,"current_range_meters":38800,"station_id":"ce4bhs12rcd13ifvqhvg","pricing_plan_id":"cebpf4jnsgd1na2vs0mg"},{"bike_id":"2c8d2315-19d2-4238-b092-c433752488b6","system_id":"levelo_inurba_marseille","lat":43.29372,"lon":5.37854,"is_reserved":false,"is_disabled":true,"rental_uris":{"android":"levelo://app?vid=2c8d2315-19d2-4238-b092-c433752488b6","ios":"levelo://app?vid=2c8d2315-19d2-4238-b092-c433752488b6"},"vehicle_type_id":"4","last_reported":1733318464,"current_range_meters":38800,"station_id":"ce4bgjh2rcd13ifvqbf0","pricing_plan_id":"cebpf4jnsgd1na2vs0mg"},{"bike_id":"40755ad9-f0b7-4739-b044-83209a33cc66","system_id":"levelo_inurba_marseille","lat":43.30428,"lon":5.38886,"is_reserved":false,"is_disabled":false,"rental_uris":{"android":"levelo://app?vid=40755ad9-f0b7-4739-b044-83209a33cc66","ios":"levelo://app?vid=40755ad9-f0b7-4739-b044-83209a33cc66"},"vehicle_type_id":"4","last_reported":1733318464,"current_range_meters":25600,"station_id":"ce4bgk12rcd13ifvqbi0","pricing_plan_id":"cebpf4jnsgd1na2vs0mg"},{"bike_id":"2774a781-bbc5-40d4-845a-4af26e3e9c27","system_id":"levelo_inurba_marseille","lat":43.29375,"lon":5.37851,"is_reserved":false,"is_disabled":true,"rental_uris":{"android":"levelo://app?vid=2774a781-bbc5-40d4-845a-4af26e3e9c27","ios":"levelo://app?vid=2774a781-bbc5-40d4-845a-4af26e3e9c27"},"vehicle_type_id":"4","last_reported":1733318464,"current_range_meters":34800,"station_id":"ce4bgjh2rcd13ifvqbf0","pricing_plan_id":"cebpf4jnsgd1na2vs0mg"},{"bike_id":"9e2fe092-ed64-4d1e-8526-f9643b62bad4","system_id":"levelo_inurba_marseille","lat":43.29005,"lon":5.38134,"is_reserved":false,"is_disabled":false,"rental_uris":{"android":"levelo://app?vid=9e2fe092-ed64-4d1e-8526-f9643b62bad4","ios":"levelo://app?vid=9e2fe092-ed64-4d1e-8526-f9643b62bad4"},"vehicle_type_id":"4","last_reported":1733318464,"current_range_meters":26800,"station_id":"ce4bh4p2rcd13ifvqe1g","pricing_plan_id":"cebpf4jnsgd1na2vs0mg"},{"bike_id":"5b71c0db-6f12-4cc5-975d-e69521a7b524","system_id":"levelo_inurba_marseille","lat":43.27812,"lon":5.40711,"is_reserved":false,"is_disabled":false,"rental_uris":{"android":"levelo://app?vid=5b71c0db-6f12-4cc5-975d-e69521a7b524","ios":"levelo://app?vid=5b71c0db-6f12-4cc5-975d-e69521a7b524"},"vehicle_type_id":"4","last_reported":1733318464,"current_range_meters":8800,"station_id":"ce4bhnh2rcd13ifvqgtg","pricing_plan_id":"cebpf4jnsgd1na2vs0mg"},{"bike_id":"a47d2b9c-e8c5-43f0-8d26-cadc55583e7e","system_id":"levelo_inurba_marseille","lat":43.28097,"lon":5.37846,"is_reserved":false,"is_disabled":false,"rental_uris":{"android":"levelo://app?vid=a47d2b9c-e8c5-43f0-8d26-cadc55583e7e","ios":"levelo://app?vid=a47d2b9c-e8c5-43f0-8d26-cadc55583e7e"},"vehicle_type_id":"4","last_reported":1733318464,"current_range_meters":10000,"station_id":"ce4bha12rcd13ifvqee0","pricing_plan_id":"cebpf4jnsgd1na2vs0mg"},{"bike_id":"9225b4d9-5dad-482f-8f51-b6696ed55e00","system_id":"levelo_inurba_marseille","lat":43.3248,"lon":5.36566,"is_reserved":false,"is_disabled":false,"rental_uris":{"android":"levelo://app?vid=9225b4d9-5dad-482f-8f51-b6696ed55e00","ios":"levelo://app?vid=9225b4d9-5dad-482f-8f51-b6696ed55e00"},"vehicle_type_id":"4","last_reported":1733318464,"current_range_meters":26800,"station_id":"ce4bhs12rcd13ifvqhvg","pricing_plan_id":"cebpf4jnsgd1na2vs0mg"},{"bike_id":"ce8f29df-2862-4576-bd8e-8139bb887fcd","system_id":"levelo_inurba_marseille","lat":43.30953,"lon":5.39032,"is_reserved":false,"is_disabled":false,"rental_uris":{"android":"levelo://app?vid=ce8f29df-2862-4576-bd8e-8139bb887fcd","ios":"levelo://app?vid=ce8f29df-2862-4576-bd8e-8139bb887fcd"},"vehicle_type_id":"4","last_reported":1733318464,"current_range_meters":4800,"station_id":"ce4bgup2rcd13ifvqco0","pricing_plan_id":"cebpf4jnsgd1na2vs0mg"},{"bike_id":"fe594fc4-83b4-4bec-8445-9ed4df0cad70","system_id":"levelo_inurba_marseille","lat":43.27175,"lon":5.40999,"is_reserved":false,"is_disabled":false,"rental_uris":{"android":"levelo://app?vid=fe594fc4-83b4-4bec-8445-9ed4df0cad70","ios":"levelo://app?vid=fe594fc4-83b4-4bec-8445-9ed4df0cad70"},"vehicle_type_id":"4","last_reported":1733318464,"current_range_meters":32000,"station_id":"ce4bhl12rcd13ifvqgf0","pricing_plan_id":"cebpf4jnsgd1na2vs0mg"},{"bike_id":"68e9cb98-f71a-4893-881e-4af97d9c4c58","system_id":"levelo_inurba_marseille","lat":43.28941,"lon":5.36642,"is_reserved":false,"is_disabled":false,"rental_uris":{"android":"levelo://app?vid=68e9cb98-f71a-4893-881e-4af97d9c4c58","ios":"levelo://app?vid=68e9cb98-f71a-4893-881e-4af97d9c4c58"},"vehicle_type_id":"4","last_reported":1733318464,"current_range_meters":16400,"station_id":"ce4bhap2rcd13ifvqek0","pricing_plan_id":"cebpf4jnsgd1na2vs0mg"},{"bike_id":"e03f6727-22b0-47ab-b0d7-c0b8ede4fe3f","system_id":"levelo_inurba_marseille","lat":43.29781,"lon":5.38111,"is_reserved":false,"is_disabled":true,"rental_uris":{"android":"levelo://app?vid=e03f6727-22b0-47ab-b0d7-c0b8ede4fe3f","ios":"levelo://app?vid=e03f6727-22b0-47ab-b0d7-c0b8ede4fe3f"},"vehicle_type_id":"4","last_reported":1733318464,"current_range_meters":24000,"station_id":"ce4bgip2rcd13ifvqbb0","pricing_plan_id":"cebpf4jnsgd1na2vs0mg"},{"bike_id":"01face3d-e23f-472c-b4c8-d20983dccffb","system_id":"levelo_inurba_marseille","lat":43.32538,"lon":5.4144,"is_reserved":false,"is_disabled":false,"rental_uris":{"android":"levelo://app?vid=01face3d-e23f-472c-b4c8-d20983dccffb","ios":"levelo://app?vid=01face3d-e23f-472c-b4c8-d20983dccffb"},"vehicle_type_id":"4","last_reported":1733318464,"current_range_meters":37600,"station_id":"ce4bhq12rcd13ifvqhhg","pricing_plan_id":"cebpf4jnsgd1na2vs0mg"},{"bike_id":"06930970-146b-4ddb-83ab-ce10db2173aa","system_id":"levelo_inurba_marseille","lat":43.29344,"lon":5.37844,"is_reserved":false,"is_disabled":false,"rental_uris":{"android":"levelo://app?vid=06930970-146b-4ddb-83ab-ce10db2173aa","ios":"levelo://app?vid=06930970-146b-4ddb-83ab-ce10db2173aa"},"vehicle_type_id":"4","last_reported":1733318464,"current_range_meters":30000,"station_id":"ce4bgjh2rcd13ifvqbf0","pricing_plan_id":"cebpf4jnsgd1na2vs0mg"},{"bike_id":"93918f50-673b-492c-b2a7-9c7628145664","system_id":"levelo_inurba_marseille","lat":43.29247,"lon":5.4091,"is_reserved":false,"is_disabled":false,"rental_uris":{"android":"levelo://app?vid=93918f50-673b-492c-b2a7-9c7628145664","ios":"levelo://app?vid=93918f50-673b-492c-b2a7-9c7628145664"},"vehicle_type_id":"4","last_reported":1733318464,"current_range_meters":30400,"station_id":"ce4bh192rcd13ifvqdc0","pricing_plan_id":"cebpf4jnsgd1na2vs0mg"},{"bike_id":"4d449c9e-d8ff-451a-8479-2c844d0db8a2","system_id":"levelo_inurba_marseille","lat":43.30552,"lon":5.36535,"is_reserved":false,"is_disabled":false,"rental_uris":{"android":"levelo://app?vid=4d449c9e-d8ff-451a-8479-2c844d0db8a2","ios":"levelo://app?vid=4d449c9e-d8ff-451a-8479-2c844d0db8a2"},"vehicle_type_id":"4","last_reported":1733318464,"current_range_meters":36000,"station_id":"ce4bgs12rcd13ifvqcag","pricing_plan_id":"cebpf4jnsgd1na2vs0mg"},{"bike_id":"afee990f-b1ca-4562-adf0-5c85af5d126c","system_id":"levelo_inurba_marseille","lat":43.2603,"lon":5.37548,"is_reserved":false,"is_disabled":false,"rental_uris":{"android":"levelo://app?vid=afee990f-b1ca-4562-adf0-5c85af5d126c","ios":"levelo://app?vid=afee990f-b1ca-4562-adf0-5c85af5d126c"},"vehicle_type_id":"4","last_reported":1733318464,"current_range_meters":38800,"station_id":"ce4bhgh2rcd13ifvqfa0","pricing_plan_id":"cebpf4jnsgd1na2vs0mg"},{"bike_id":"b0a49634-f231-4a68-bfdb-1bfe69c7e87e","system_id":"levelo_inurba_marseille","lat":43.32478,"lon":5.36567,"is_reserved":false,"is_disabled":false,"rental_uris":{"android":"levelo://app?vid=b0a49634-f231-4a68-bfdb-1bfe69c7e87e","ios":"levelo://app?vid=b0a49634-f231-4a68-bfdb-1bfe69c7e87e"},"vehicle_type_id":"4","last_reported":1733318464,"current_range_meters":14800,"station_id":"ce4bhs12rcd13ifvqhvg","pricing_plan_id":"cebpf4jnsgd1na2vs0mg"},{"bike_id":"2e95a2ed-6b33-4e92-a501-c072ecbb13a6","system_id":"levelo_inurba_marseille","lat":43.26203,"lon":5.37442,"is_reserved":false,"is_disabled":false,"rental_uris":{"android":"levelo://app?vid=2e95a2ed-6b33-4e92-a501-c072ecbb13a6","ios":"levelo://app?vid=2e95a2ed-6b33-4e92-a501-c072ecbb13a6"},"vehicle_type_id":"4","last_reported":1733318464,"current_range_meters":36800,"station_id":"ce4bhgp2rcd13ifvqfc0","pricing_plan_id":"cebpf4jnsgd1na2vs0mg"},{"bike_id":"9b6ff9a5-7084-4136-bb71-cda7ba22e5d5","system_id":"levelo_inurba_marseille","lat":43.26805,"lon":5.40271,"is_reserved":false,"is_disabled":false,"rental_uris":{"android":"levelo://app?vid=9b6ff9a5-7084-4136-bb71-cda7ba22e5d5","ios":"levelo://app?vid=9b6ff9a5-7084-4136-bb71-cda7ba22e5d5"},"vehicle_type_id":"4","last_reported":1733318464,"current_range_meters":28800,"station_id":"ce501612rcd8frsf0b60","pricing_plan_id":"cebpf4jnsgd1na2vs0mg"},{"bike_id":"224cced0-b239-47c0-8d34-df92756b1579","system_id":"levelo_inurba_marseille","lat":43.28431,"lon":5.39195,"is_reserved":false,"is_disabled":false,"rental_uris":{"android":"levelo://app?vid=224cced0-b239-47c0-8d34-df92756b1579","ios":"levelo://app?vid=224cced0-b239-47c0-8d34-df92756b1579"},"vehicle_type_id":"4","last_reported":1733318464,"current_range_meters":29600,"station_id":"ce4bhoh2rcd13ifvqh5g","pricing_plan_id":"cebpf4jnsgd1na2vs0mg"},{"bike_id":"6139b5b6-a823-40b5-97e2-4540030056f1","system_id":"levelo_inurba_marseille","lat":43.28095,"lon":5.37849,"is_reserved":false,"is_disabled":true,"rental_uris":{"android":"levelo://app?vid=6139b5b6-a823-40b5-97e2-4540030056f1","ios":"levelo://app?vid=6139b5b6-a823-40b5-97e2-4540030056f1"},