{"last_updated":1728735286,"ttl":60,"version":"2.2","data":{"bikes":[{"bike_id":"a90cfefd-ccd4-4d2f-906c-f11429f46878","system_id":"levelo_inurba_marseille","lat":43.30093,"lon":5.36382,"is_reserved":false,"is_disabled":false,"rental_uris":{"android":"levelo://app?vid=a90cfefd-ccd4-4d2f-906c-f11429f46878","ios":"levelo://app?vid=a90cfefd-ccd4-4d2f-906c-f11429f46878"},"vehicle_type_id":"4","last_reported":1728735286,"current_range_meters":14400,"station_id":"","pricing_plan_id":"cebpf4jnsgd1na2vs0mg"},{"bike_id":"a88cc3d5-4214-4799-a463-c01d33dbb23e","system_id":"levelo_inurba_marseille","lat":43.25008,"lon":5.38912,"is_reserved":false,"is_disabled":false,"rental_uris":{"android":"levelo://app?vid=a88cc3d5-4214-4799-a463-c01d33dbb23e","ios":"levelo://app?vid=a88cc3d5-4214-4799-a463-c01d33dbb23e"},"vehicle_type_id":"4","last_reported":1728735286,"current_range_meters":22800,"station_id":"ce4bhgp2rcd13ifvqfd0","pricing_plan_id":"cebpf4jnsgd1na2vs0mg"},{"bike_id":"b7f86cb7-a5df-44e1-90bd-5702421b09a4","system_id":"levelo_inurba_marseille","lat":43.29341,"lon":5.377384,"is_reserved":false,"is_disabled":false,"rental_uris":{"android":"levelo://app?vid=b7f86cb7-a5df-44e1-90bd-5702421b09a4","ios":"levelo://app?vid=b7f86cb7-a5df-44e1-90bd-5702421b09a4"},"vehicle_type_id":"4","last_reported":1728735286,"current_range_meters":5600,"station_id":"ce4bgjh2rcd13ifvqbf0","pricing_plan_id":"cebpf4jnsgd1na2vs0mg"},{"bike_id":"cad7e911-f64c-4462-86d4-3f95e2945c24","system_id":"levelo_inurba_marseille","lat":43.26494,"lon":5.3955,"is_reserved":false,"is_disabled":false,"rental_uris":{"android":"levelo://app?vid=cad7e911-f64c-4462-86d4-3f95e2945c24","ios":"levelo://app?vid=cad7e911-f64c-4462-86d4-3f95e2945c24"},"vehicle_type_id":"4","last_reported":1728735286,"current_range_meters":28000,"station_id":"ce4bhi12rcd13ifvqfq0","pricing_plan_id":"cebpf4jnsgd1na2vs0mg"},{"bike_id":"38eda0d1-5ce6-4010-9d58-af0c4b4806fc","system_id":"levelo_inurba_marseille","lat":43.27172,"lon":5.40995,"is_reserved":false,"is_disabled":false,"rental_uris":{"android":"levelo://app?vid=38eda0d1-5ce6-4010-9d58-af0c4b4806fc","ios":"levelo://app?vid=38eda0d1-5ce6-4010-9d58-af0c4b4806fc"},"vehicle_type_id":"4","last_reported":1728735286,"current_range_meters":38800,"station_id":"ce4bhl12rcd13ifvqgf0","pricing_plan_id":"cebpf4jnsgd1na2vs0mg"},{"bike_id":"2b82c714-65aa-4097-bac6-d28499b8848e","system_id":"levelo_inurba_marseille","lat":43.28941,"lon":5.36396,"is_reserved":false,"is_disabled":false,"rental_uris":{"android":"levelo://app?vid=2b82c714-65aa-4097-bac6-d28499b8848e","ios":"levelo://app?vid=2b82c714-65aa-4097-bac6-d28499b8848e"},"vehicle_type_id":"4","last_reported":1728735286,"current_range_meters":26800,"station_id":"ce4bhc92rcd13ifvqetg","pricing_plan_id":"cebpf4jnsgd1na2vs0mg"},{"bike_id":"51dd5005-a195-4642-bd5f-8cbea71cb3b3","system_id":"levelo_inurba_marseille","lat":43.22929,"lon":5.35376,"is_reserved":false,"is_disabled":false,"rental_uris":{"android":"levelo://app?vid=51dd5005-a195-4642-bd5f-8cbea71cb3b3","ios":"levelo://app?vid=51dd5005-a195-4642-bd5f-8cbea71cb3b3"},"vehicle_type_id":"4","last_reported":1728735286,"current_range_meters":36800,"station_id":"cpo3532slgdg3j2ikp40","pricing_plan_id":"cebpf4jnsgd1na2vs0mg"},{"bike_id":"dba5b517-ad55-41c2-9fae-acf687b97d9a","system_id":"levelo_inurba_marseille","lat":43.2872,"lon":5.36088,"is_reserved":false,"is_disabled":false,"rental_uris":{"android":"levelo://app?vid=dba5b517-ad55-41c2-9fae-acf687b97d9a","ios":"levelo://app?vid=dba5b517-ad55-41c2-9fae-acf687b97d9a"},"vehicle_type_id":"4","last_reported":1728735286,"current_range_meters":19200,"station_id":"ce4bh512rcd13ifvqe2g","pricing_plan_id":"cebpf4jnsgd1na2vs0mg"},{"bike_id":"d4148055-1c76-4019-a6f3-02cb9d8cb424","system_id":"levelo_inurba_marseille","lat":43.32113,"lon":5.36777,"is_reserved":false,"is_disabled":false,"rental_uris":{"android":"levelo://app?vid=d4148055-1c76-4019-a6f3-02cb9d8cb424","ios":"levelo://app?vid=d4148055-1c76-4019-a6f3-02cb9d8cb424"},"vehicle_type_id":"4","last_reported":1728735286,"current_range_meters":2800,"station_id":"ce4bhrh2rcd13ifvqhug","pricing_plan_id":"cebpf4jnsgd1na2vs0mg"},{"bike_id":"683e3e26-2253-42a1-9371-b110cdd0be8f","system_id":"levelo_inurba_marseille","lat":43.29623,"lon":5.37148,"is_reserved":false,"is_disabled":false,"rental_uris":{"android":"levelo://app?vid=683e3e26-2253-42a1-9371-b110cdd0be8f","ios":"levelo://app?vid=683e3e26-2253-42a1-9371-b110cdd0be8f"},"vehicle_type_id":"4","last_reported":1728735286,"current_range_meters":10000,"station_id":"ce4bgnh2rcd13ifvqc0g","pricing_plan_id":"cebpf4jnsgd1na2vs0mg"},{"bike_id":"b474cc28-429d-4bf6-a453-cfd8e447da8a","system_id":"levelo_inurba_marseille","lat":43.33725,"lon":5.39173,"is_reserved":false,"is_disabled":false,"rental_uris":{"android":"levelo://app?vid=b474cc28-429d-4bf6-a453-cfd8e447da8a","ios":"levelo://app?vid=b474cc28-429d-4bf6-a453-cfd8e447da8a"},"vehicle_type_id":"4","last_reported":1728735286,"current_range_meters":36800,"station_id":"ce4bhr92rcd13ifvqhsg","pricing_plan_id":"cebpf4jnsgd1na2vs0mg"},{"bike_id":"8a3ea5a6-b0cd-48da-acf8-ccf7be6f48c6","system_id":"levelo_inurba_marseille","lat":43.31072,"lon":5.40097,"is_reserved":false,"is_disabled":false,"rental_uris":{"android":"levelo://app?vid=8a3ea5a6-b0cd-48da-acf8-ccf7be6f48c6","ios":"levelo://app?vid=8a3ea5a6-b0cd-48da-acf8-ccf7be6f48c6"},"vehicle_type_id":"4","last_reported":1728735286,"current_range_meters":8800,"station_id":"","pricing_plan_id":"cebpf4jnsgd1na2vs0mg"},{"bike_id":"4f1ac9db-36fd-4126-b3cc-b859636a6a29","system_id":"levelo_inurba_marseille","lat":43.22929,"lon":5.35377,"is_reserved":false,"is_disabled":false,"rental_uris":{"android":"levelo://app?vid=4f1ac9db-36fd-4126-b3cc-b859636a6a29","ios":"levelo://app?vid=4f1ac9db-36fd-4126-b3cc-b859636a6a29"},"vehicle_type_id":"4","last_reported":1728735286,"current_range_meters":37600,"station_id":"cpo3532slgdg3j2ikp40","pricing_plan_id":"cebpf4jnsgd1na2vs0mg"},{"bike_id":"a45475cd-aa4f-4963-af06-9a3043ddfae5","system_id":"levelo_inurba_marseille","lat":43.29254,"lon":5.40906,"is_reserved":false,"is_disabled":false,"rental_uris":{"android":"levelo://app?vid=a45475cd-aa4f-4963-af06-9a3043ddfae5","ios":"levelo://app?vid=a45475cd-aa4f-4963-af06-9a3043ddfae5"},"vehicle_type_id":"4","last_reported":1728735286,"current_range_meters":36800,"station_id":"ce4bh192rcd13ifvqdc0","pricing_plan_id":"cebpf4jnsgd1na2vs0mg"},{"bike_id":"76a7aa55-6b43-4db3-be1d-f34667277aab","system_id":"levelo_inurba_marseille","lat":43.31994,"lon":5.38152,"is_reserved":false,"is_disabled":false,"rental_uris":{"android":"levelo://app?vid=76a7aa55-6b43-4db3-be1d-f34667277aab","ios":"levelo://app?vid=76a7aa55-6b43-4db3-be1d-f34667277aab"},"vehicle_type_id":"4","last_reported":1728735286,"current_range_meters":25200,"station_id":"ce4bhr12rcd13ifvqhpg","pricing_plan_id":"cebpf4jnsgd1na2vs0mg"},{"bike_id":"39297f3c-f2c5-4487-a6dc-8718a72edb83","system_id":"levelo_inurba_marseille","lat":43.31171,"lon":5.38723,"is_reserved":false,"is_disabled":false,"rental_uris":{"android":"levelo://app?vid=39297f3c-f2c5-4487-a6dc-8718a72edb83","ios":"levelo://app?vid=39297f3c-f2c5-4487-a6dc-8718a72edb83"},"vehicle_type_id":"4","last_reported":1728735286,"current_range_meters":30400,"station_id":"ce4bgv12rcd13ifvqcp0","pricing_plan_id":"cebpf4jnsgd1na2vs0mg"},{"bike_id":"5478a3d2-c2ee-4a89-aa83-e762ee9240f8","system_id":"levelo_inurba_marseille","lat":43.26944,"lon":5.40244,"is_reserved":false,"is_disabled":false,"rental_uris":{"android":"levelo://app?vid=5478a3d2-c2ee-4a89-aa83-e762ee9240f8","ios":"levelo://app?vid=5478a3d2-c2ee-4a89-aa83-e762ee9240f8"},"vehicle_type_id":"4","last_reported":1728735286,"current_range_meters":33200,"station_id":"cjm6bp8fraef2m0cb0m0","pricing_plan_id":"cebpf4jnsgd1na2vs0mg"},{"bike_id":"4f48289b-17e5-4365-b497-c3ee37f8ed6a","system_id":"levelo_inurba_marseille","lat":43.30333,"lon":5.40433,"is_reserved":false,"is_disabled":false,"rental_uris":{"android":"levelo://app?vid=4f48289b-17e5-4365-b497-c3ee37f8ed6a","ios":"levelo://app?vid=4f48289b-17e5-4365-b497-c3ee37f8ed6a"},"vehicle_type_id":"4","last_reported":1728735286,"current_range_meters":38800,"station_id":"ce4bh012rcd13ifvqd10","pricing_plan_id":"cebpf4jnsgd1na2vs0mg"},{"bike_id":"1919683d-f909-4c74-a485-5939ad84a3d3","system_id":"levelo_inurba_marseille","lat":43.24806,"lon":5.37455,"is_reserved":false,"is_disabled":false,"rental_uris":{"android":"levelo://app?vid=1919683d-f909-4c74-a485-5939ad84a3d3","ios":"levelo://app?vid=1919683d-f909-4c74-a485-5939ad84a3d3"},"vehicle_type_id":"4","last_reported":1728735286,"current_range_meters":18000,"station_id":"ce4bhgh2rcd13ifvqfb0","pricing_plan_id":"cebpf4jnsgd1na2vs0mg"},{"bike_id":"d522a82d-5638-4ca1-910b-2d42b991ee72","system_id":"levelo_inurba_marseille","lat":43.301382,"lon":5.37421,"is_reserved":false,"is_disabled":false,"rental_uris":{"android":"levelo://app?vid=d522a82d-5638-4ca1-910b-2d42b991ee72","ios":"levelo://app?vid=d522a82d-5638-4ca1-910b-2d42b991ee72"},"vehicle_type_id":"4","last_reported":1728735286,"current_range_meters":38800,"station_id":"ce4bgs92rcd13ifvqcc0","pricing_plan_id":"cebpf4jnsgd1na2vs0mg"},{"bike_id":"c5c33660-077d-4f97-b2f0-40691ac09116","system_id":"levelo_inurba_marseille","lat":43.24389,"lon":5.37053,"is_reserved":false,"is_disabled":false,"rental_uris":{"android":"levelo://app?vid=c5c33660-077d-4f97-b2f0-40691ac09116","ios":"levelo://app?vid=c5c33660-077d-4f97-b2f0-40691ac09116"},"vehicle_type_id":"4","last_reported":1728735286,"current_range_meters":38000,"station_id":"ce4bhhh2rcd13ifvqfk0","pricing_plan_id":"cebpf4jnsgd1na2vs0mg"},{"bike_id":"3bcf095f-f5c0-4296-b214-3d90be7a82fe","system_id":"levelo_inurba_marseille","lat":43.29597,"lon":5.38109,"is_reserved":false,"is_disabled":false,"rental_uris":{"android":"levelo://app?vid=3bcf095f-f5c0-4296-b214-3d90be7a82fe","ios":"levelo://app?vid=3bcf095f-f5c0-4296-b214-3d90be7a82fe"},"vehicle_type_id":"4","last_reported":1728735286,"current_range_meters":10800,"station_id":"ce4bgl12rcd13ifvqbo0","pricing_plan_id":"cebpf4jnsgd1na2vs0mg"},{"bike_id":"931d1f9c-4cb2-40a2-a856-914a1c55fcf3","system_id":"levelo_inurba_marseille","lat":43.24569,"lon":5.41659,"is_reserved":false,"is_disabled":false,"rental_uris":{"android":"levelo://app?vid=931d1f9c-4cb2-40a2-a856-914a1c55fcf3","ios":"levelo://app?vid=931d1f9c-4cb2-40a2-a856-914a1c55fcf3"},"vehicle_type_id":"4","last_reported":1728735286,"current_range_meters":11600,"station_id":"","pricing_plan_id":"cebpf4jnsgd1na2vs0mg"},{"bike_id":"5a86c784-356a-4dc3-ab27-bbea9ceaf281","system_id":"levelo_inurba_marseille","lat":43.285217,"lon":5.38481,"is_reserved":false,"is_disabled":false,"rental_uris":{"android":"levelo://app?vid=5a86c784-356a-4dc3-ab27-bbea9ceaf281","ios":"levelo://app?vid=5a86c784-356a-4dc3-ab27-bbea9ceaf281"},"vehicle_type_id":"4","last_reported":1728735286,"current_range_meters":15200,"station_id":"ce4bh512rcd13ifvqe3g","pricing_plan_id":"cebpf4jnsgd1na2vs0mg"},{"bike_id":"961febe9-0b5b-4688-a682-2b724d983d10","system_id":"levelo_inurba_marseille","lat":43.29964,"lon":5.38502,"is_reserved":false,"is_disabled":false,"rental_uris":{"android":"levelo://app?vid=961febe9-0b5b-4688-a682-2b724d983d10","ios":"levelo://app?vid=961febe9-0b5b-4688-a682-2b724d983d10"},"vehicle_type_id":"4","last_reported":1728735286,"current_range_meters":33600,"station_id":"ce4bgj92rcd13ifvqbd0","pricing_plan_id":"cebpf4jnsgd1na2vs0mg"},{"bike_id":"5a0daead-4b27-4455-ab06-a7ed457983e1","system_id":"levelo_inurba_marseille","lat":43.28104,"lon":5.37845,"is_reserved":false,"is_disabled":false,"rental_uris":{"android":"levelo://app?vid=5a0daead-4b27-4455-ab06-a7ed457983e1","ios":"levelo://app?vid=5a0daead-4b27-4455-ab06-a7ed457983e1"},"vehicle_type_id":"4","last_reported":1728735286,"current_range_meters":22800,"station_id":"ce4bha12rcd13ifvqee0","pricing_plan_id":"cebpf4jnsgd1na2vs0mg"},{"bike_id":"16451e5d-97d1-468f-b8f8-9f1bdd7b01c1","system_id":"levelo_inurba_marseille","lat":43.29833,"lon":5.36283,"is_reserved":false,"is_disabled":false,"rental_uris":{"android":"levelo://app?vid=16451e5d-97d1-468f-b8f8-9f1bdd7b01c1","ios":"levelo://app?vid=16451e5d-97d1-468f-b8f8-9f1bdd7b01c1"},"vehicle_type_id":"4","last_reported":1728735286,"current_range_meters":38800,"station_id":"ce4bgpp2rcd13ifvqc3g","pricing_plan_id":"cebpf4jnsgd1na2vs0mg"},{"bike_id":"67e2ca0d-f496-4249-8796-e3a4468d15ed","system_id":"levelo_inurba_marseille","lat":43.32334,"lon":5.40624,"is_reserved":false,"is_disabled":false,"rental_uris":{"android":"levelo://app?vid=67e2ca0d-f496-4249-8796-e3a4468d15ed","ios":"levelo://app?vid=67e2ca0d-f496-4249-8796-e3a4468d15ed"},"vehicle_type_id":"4","last_reported":1728735286,"current_range_meters":16000,"station_id":"ce4bhq92rcd13ifvqhjg","pricing_plan_id":"cebpf4jnsgd1na2vs0mg"},{"bike_id":"d8cdb82e-bb53-4cdd-80b3-3ba337018b15","system_id":"levelo_inurba_marseille","lat":43.30556,"lon":5.36549,"is_reserved":false,"is_disabled":false,"rental_uris":{"android":"levelo://app?vid=d8cdb82e-bb53-4cdd-80b3-3ba337018b15","ios":"levelo://app?vid=d8cdb82e-bb53-4cdd-80b3-3ba337018b15"},"vehicle_type_id":"4","last_reported":1728735286,"current_range_meters":10000,"station_id":"ce4bgs12rcd13ifvqcag","pricing_plan_id":"cebpf4jnsgd1na2vs0mg"},{"bike_id":"631afeb3-ff24-4869-b570-0bf0c9ce47b0","system_id":"levelo_inurba_marseille","lat":43.31651,"lon":5.38961,"is_reserved":false,"is_disabled":false,"rental_uris":{"android":"levelo://app?vid=631afeb3-ff24-4869-b570-0bf0c9ce47b0","ios":"levelo://app?vid=631afeb3-ff24-4869-b570-0bf0c9ce47b0"},"vehicle_type_id":"4","last_reported":1728735286,"current_range_meters":18800,"station_id":"","pricing_plan_id":"cebpf4jnsgd1na2vs0mg"},{"bike_id":"a343ef2a-9dab-4dfa-aae7-81033db70aac","system_id":"levelo_inurba_marseille","lat":43.23183,"lon":5.39971,"is_reserved":false,"is_disabled":false,"rental_uris":{"android":"levelo://app?vid=a343ef2a-9dab-4dfa-aae7-81033db70aac","ios":"levelo://app?vid=a343ef2a-9dab-4dfa-aae7-81033db70aac"},"vehicle_type_id":"4","last_reported":1728735286,"current_range_meters":16000,"station_id":"ce4bhn12rcd13ifvqgqg","pricing_plan_id":"cebpf4jnsgd1na2vs0mg"},{"bike_id":"49c41bb9-fcb9-4cba-a2b2-c49e201e8795","system_id":"levelo_inurba_marseille","lat":43.29607,"lon":5.37726,"is_reserved":false,"is_disabled":false,"rental_uris":{"android":"levelo://app?vid=49c41bb9-fcb9-4cba-a2b2-c49e201e8795","ios":"levelo://app?vid=49c41bb9-fcb9-4cba-a2b2-c49e201e8795"},"vehicle_type_id":"4","last_reported":1728735286,"current_range_meters":8400,"station_id":"ce4bgi92rcd13ifvqb90","pricing_plan_id":"cebpf4jnsgd1na2vs0mg"},{"bike_id":"c3fca869-ee1d-43b0-a803-81c9bb039a8f","system_id":"levelo_inurba_marseille","lat":43.28703,"lon":5.39992,"is_reserved":false,"is_disabled":false,"rental_uris":{"android":"levelo://app?vid=c3fca869-ee1d-43b0-a803-81c9bb039a8f","ios":"levelo://app?vid=c3fca869-ee1d-43b0-a803-81c9bb039a8f"},"vehicle_type_id":"4","last_reported":1728735286,"current_range_meters":19200,"station_id":"ce4bho92rcd13ifvqh3g","pricing_plan_id":"cebpf4jnsgd1na2vs0mg"},{"bike_id":"851d29bb-dfef-4b3b-b9e6-d79f9e5b9fc1","system_id":"levelo_inurba_marseille","lat":43.25583,"lon":5.38228,"is_reserved":false,"is_disabled":false,"rental_uris":{"android":"levelo://app?vid=851d29bb-dfef-4b3b-b9e6-d79f9e5b9fc1","ios":"levelo://app?vid=851d29bb-dfef-4b3b-b9e6-d79f9e5b9fc1"},"vehicle_type_id":"4","last_reported":1728735286,"current_range_meters":38400,"station_id":"ce4bhih2rcd13ifvqfs0","pricing_plan_id":"cebpf4jnsgd1na2vs0mg"},{"bike_id":"5af2fa85-65fc-4f68-8456-3c6a21582d91","system_id":"levelo_inurba_marseille","lat":43.31118,"lon":5.37764,"is_reserved":false,"is_disabled":false,"rental_uris":{"android":"levelo://app?vid=5af2fa85-65fc-4f68-8456-3c6a21582d91","ios":"levelo://app?vid=5af2fa85-65fc-4f68-8456-3c6a21582d91"},"vehicle_type_id":"4","last_reported":1728735286,"current_range_meters":26800,"station_id":"ce4bgt92rcd13ifvqcg0","pricing_plan_id":"cebpf4jnsgd1na2vs0mg"},{"bike_id":"35eb4c1c-05f0-4eb0-8f1c-9272d14abf2f","system_id":"levelo_inurba_marseille","lat":43.3054,"lon":5.3653,"is_reserved":false,"is_disabled":false,"rental_uris":{"android":"levelo://app?vid=35eb4c1c-05f0-4eb0-8f1c-9272d14abf2f","ios":"levelo://app?vid=35eb4c1c-05f0-4eb0-8f1c-9272d14abf2f"},"vehicle_type_id":"4","last_reported":1728735286,"current_range_meters":25200,"station_id":"ce4bgs12rcd13ifvqcag","pricing_plan_id":"cebpf4jnsgd1na2vs0mg"},{"bike_id":"71a433a2-826b-4250-9d82-eef1bab5d1e5","system_id":"levelo_inurba_marseille","lat":43.28462,"lon":5.38416,"is_reserved":false,"is_disabled":false,"rental_uris":{"android":"levelo://app?vid=71a433a2-826b-4250-9d82-eef1bab5d1e5","ios":"levelo://app?vid=71a433a2-826b-4250-9d82-eef1bab5d1e5"},"vehicle_type_id":"4","last_reported":1728735286,"current_range_meters":38800,"station_id":"ce4bh512rcd13ifvqe3g","pricing_plan_id":"cebpf4jnsgd1na2vs0mg"},{"bike_id":"86851483-6460-4f2a-8d92-b3b47e5c55aa","system_id":"levelo_inurba_marseille","lat":43.23963,"lon":5.36622,"is_reserved":false,"is_disabled":false,"rental_uris":{"android":"levelo://app?vid=86851483-6460-4f2a-8d92-b3b47e5c55aa","ios":"levelo://app?vid=86851483-6460-4f2a-8d92-b3b47e5c55aa"},"vehicle_type_id":"4","last_reported":1728735286,"current_range_meters":39200,"station_id":"ce4bhi12rcd13ifvqfp0","pricing_plan_id":"cebpf4jnsgd1na2vs0mg"},{"bike_id":"0ae7c140-ef12-40f0-8876-b8edc308f438","system_id":"levelo_inurba_marseille","lat":43.2997,"lon":5.38494,"is_reserved":false,"is_disabled":false,"rental_uris":{"android":"levelo://app?vid=0ae7c140-ef12-40f0-8876-b8edc308f438","ios":"levelo://app?vid=0ae7c140-ef12-40f0-8876-b8edc308f438"},"vehicle_type_id":"4","last_reported":1728735286,"current_range_meters":8000,"station_id":"ce4bgj92rcd13ifvqbd0","pricing_plan_id":"cebpf4jnsgd1na2vs0mg"},{"bike_id":"900d410e-a263-4441-80a1-af67345a66d2","system_id":"levelo_inurba_marseille","lat":43.24389,"lon":5.37062,"is_reserved":false,"is_disabled":false,"rental_uris":{"android":"levelo://app?vid=900d410e-a263-4441-80a1-af67345a66d2","ios":"levelo://app?vid=900d410e-a263-4441-80a1-af67345a66d2"},"vehicle_type_id":"4","last_reported":1728735286,"current_range_meters":24800,"station_id":"ce4bhhh2rcd13ifvqfk0","pricing_plan_id":"cebpf4jnsgd1na2vs0mg"},{"bike_id":"93cf6e6a-b59b-4d63-9a00-c25bf3ea1f05","system_id":"levelo_inurba_marseille","lat":43.29894,"lon":5.43656,"is_reserved":false,"is_disabled":false,"rental_uris":{"android":"levelo://app?vid=93cf6e6a-b59b-4d63-9a00-c25bf3ea1f05","ios":"levelo://app?vid=93cf6e6a-b59b-4d63-9a00-c25bf3ea1f05"},"vehicle_type_id":"4","last_reported":1728735286,"current_range_meters":39200,"station_id":"ce4bhpp2rcd13ifvqhfg","pricing_plan_id":"cebpf4jnsgd1na2vs0mg"},{"bike_id":"dfa77a52-00d6-44d0-8dc6-4249fa7cc1e5","system_id":"levelo_inurba_marseille","lat":43.31181,"lon":5.38703,"is_reserved":false,"is_disabled":false,"rental_uris":{"android":"levelo://app?vid=dfa77a52-00d6-44d0-8dc6-4249fa7cc1e5","ios":"levelo://app?vid=dfa77a52-00d6-44d0-8dc6-4249fa7cc1e5"},"vehicle_type_id":"4","last_reported":1728735286,"current_range_meters":24800,"station_id":"ce4bgv12rcd13ifvqcp0","pricing_plan_id":"cebpf4jnsgd1na2vs0mg"},{"bike_id":"98dca0ce-e9cb-4a6a-82ee-19798b468f41","system_id":"levelo_inurba_marseille","lat":43.29026,"lon":5.3755,"is_reserved":false,"is_disabled":false,"rental_uris":{"android":"levelo://app?vid=98dca0ce-e9cb-4a6a-82ee-19798b468f41","ios":"levelo://app?vid=98dca0ce-e9cb-4a6a-82ee-19798b468f41"},"vehicle_type_id":"4","last_reported":1728735286,"current_range_meters":25600,"station_id":"ce4bh692rcd13ifvqe90","pricing_plan_id":"cebpf4jnsgd1na2vs0mg"},{"bike_id":"7376e100-f99c-4994-b111-b71dd69a0542","system_id":"levelo_inurba_marseille","lat":43.24389,"lon":5.37063,"is_reserved":false,"is_disabled":false,"rental_uris":{"android":"levelo://app?vid=7376e100-f99c-4994-b111-b71dd69a0542","ios":"levelo://app?vid=7376e100-f99c-4994-b111-b71dd69a0542"},"vehicle_type_id":"4","last_reported":1728735286,"current_range_meters":19600,"station_id":"ce4bhhh2rcd13ifvqfk0","pricing_plan_id":"cebpf4jnsgd1na2vs0mg"},{"bike_id":"ee3d77b2-c4c3-417a-8170-d8edb7edeab8","system_id":"levelo_inurba_marseille","lat":43.243195,"lon":5.370091,"is_reserved":false,"is_disabled":false,"rental_uris":{"android":"levelo://app?vid=ee3d77b2-c4c3-417a-8170-d8edb7edeab8","ios":"levelo://app?vid=ee3d77b2-c4c3-417a-8170-d8edb7edeab8"},"vehicle_type_id":"4","last_reported":1728735286,"current_range_meters":9200,"station_id":"ce4bhhh2rcd13ifvqfk0","pricing_plan_id":"cebpf4jnsgd1na2vs0mg"},{"bike_id":"b27220ce-643c-4cda-b1cf-ddebfd37a8aa","system_id":"levelo_inurba_marseille","lat":43.23183,"lon":5.39975,"is_reserved":false,"is_disabled":false,"rental_uris":{"android":"levelo://app?vid=b27220ce-643c-4cda-b1cf-ddebfd37a8aa","ios":"levelo://app?vid=b27220ce-643c-4cda-b1cf-ddebfd37a8aa"},"vehicle_type_id":"4","last_reported":1728735286,"current_range_meters":38800,"station_id":"ce4bhn12rcd13ifvqgqg","pricing_plan_id":"cebpf4jnsgd1na2vs0mg"},{"bike_id":"59337b9f-8c74-4938-b5cf-c56f4c4b2077","system_id":"levelo_inurba_marseille","lat":43.24811,"lon":5.37453,"is_reserved":false,"is_disabled":false,"rental_uris":{"android":"levelo://app?vid=59337b9f-8c74-4938-b5cf-c56f4c4b2077","ios":"levelo://app?vid=59337b9f-8c74-4938-b5cf-c56f4c4b2077"},"vehicle_type_id":"4","last_reported":1728735286,"current_range_meters":22800,"station_id":"ce4bhgh2rcd13ifvqfb0","pricing_plan_id":"cebpf4jnsgd1na2vs0mg"},{"bike_id":"37ae701b-e4bf-4ea1-bc03-42756c7225e5","system_id":"levelo_inurba_marseille","lat":43.33026,"lon":5.39038,"is_reserved":false,"is_disabled":false,"rental_uris":{"android":"levelo://app?vid=37ae701b-e4bf-4ea1-bc03-42756c7225e5","ios":"levelo://app?vid=37ae701b-e4bf-4ea1-bc03-42756c7225e5"},"vehicle_type_id":"4","last_reported":1728735286,"current_range_meters":37600,"station_id":"ce4bhr92rcd13ifvqhrg","pricing_plan_id":"cebpf4jnsgd1na2vs0mg"},{"bike_id":"c4a4baf8-e465-4f75-84a3-178cbd57a164","system_id":"levelo_inurba_marseille","lat":43.30945,"lon":5.38634,"is_reserved":false,"is_disabled":false,"rental_uris":{"android":"levelo://app?vid=c4a4baf8-e465-4f75-84a3-178cbd57a164","ios":"levelo://app?vid=c4a4baf8-e465-4f75-84a3-178cbd57a164"},"vehicle_type_id":"4","last_reported":1728735286,"current_range_meters":5600,"station_id":"","pricing_plan_id":"cebpf4jnsgd1na2vs0mg"},{"bike_id":"d6d69a6a-e75c-411a-a2c7-cf3a2055f4ed","system_id":"levelo_inurba_marseille","lat":43.26062,"lon":5.39395,"is_reserved":false,"is_disabled":false,"rental_uris":{"android":"levelo://app?vid=d6d69a6a-e75c-411a-a2c7-cf3a2055f4ed","ios":"levelo://app?vid=d6d69a6a-e75c-411a-a2c7-cf3a2055f4ed"},"vehicle_type_id":"4","last_reported":1728735286,"current_range_meters":4000,"station_id":"ce4bhh92rcd13ifvqfj0","pricing_plan_id":"cebpf4jnsgd1na2vs0mg"},{"bike_id":"aed2777a-4f8a-4d24-802a-93026f052e7d","system_id":"levelo_inurba_marseille","lat":43.25578,"lon":5.38229,"is_reserved":false,"is_disabled":false,"rental_uris":{"android":"levelo://app?vid=aed2777a-4f8a-4d24-802a-93026f052e7d","ios":"levelo://app?vid=aed2777a-4f8a-4d24-802a-93026f052e7d"},"vehicle_type_id":"4","last_reported":1728735286,"current_range_meters":28800,"station_id":"ce4bhih2rcd13ifvqfs0","pricing_plan_id":"cebpf4jnsgd1na2vs0mg"},{"bike_id":"5dbc7dcc-9d48-4fd7-8ea7-69f4e7ca2466","system_id":"levelo_inurba_marseille","lat":43.26551,"lon":5.37286,"is_reserved":false,"is_disabled":false,"rental_uris":{"android":"levelo://app?vid=5dbc7dcc-9d48-4fd7-8ea7-69f4e7ca2466","ios":"levelo://app?vid=5dbc7dcc-9d48-4fd7-8ea7-69f4e7ca2466"},"vehicle_type_id":"4","last_reported":1728735286,"current_range_meters":39200,"station_id":"ce4bhg12rcd13ifvqf70","pricing_plan_id":"cebpf4jnsgd1na2vs0mg"},{"bike_id":"149e83d7-9dcc-4ede-9aee-f1b734bfc952","system_id":"levelo_inurba_marseille","lat":43.22928,"lon":5.35373,"is_reserved":false,"is_disabled":false,"rental_uris":{"android":"levelo://app?vid=149e83d7-9dcc-4ede-9aee-f1b734bfc952","ios":"levelo://app?vid=149e83d7-9dcc-4ede-9aee-f1b734bfc952"},"vehicle_type_id":"4","last_reported":1728735286,"current_range_meters":20400,"station_id":"cpo3532slgdg3j2ikp40","pricing_plan_id":"cebpf4jnsgd1na2vs0mg"},{"bike_id":"ca12bb5f-447d-4992-9636-965932f6e919","system_id":"levelo_inurba_marseille","lat":43.301156,"lon":5.373985,"is_reserved":false,"is_disabled":false,"rental_uris":{"android":"levelo://app?vid=ca12bb5f-447d-4992-9636-965932f6e919","ios":"levelo://app?vid=ca12bb5f-447d-4992-9636-965932f6e919"},"vehicle_type_id":"4","last_reported":1728735286,"current_range_meters":24400,"station_id":"ce4bgs92rcd13ifvqcc0","pricing_plan_id":"cebpf4jnsgd1na2vs0mg"},{"bike_id":"421d9698-7b4f-4b50-87a2-4584704eacae","system_id":"levelo_inurba_marseille","lat":43.30455,"lon":5.37899,"is_reserved":false,"is_disabled":false,"rental_uris":{"android":"levelo://app?vid=421d9698-7b4f-4b50-87a2-4584704eacae","ios":"levelo://app?vid=421d9698-7b4f-4b50-87a2-4584704eacae"},"vehicle_type_id":"4","last_reported":1728735286,"current_range_meters":16800,"station_id":"ce4bgup2rcd13ifvqcn0","pricing_plan_id":"cebpf4jnsgd1na2vs0mg"},{"bike_id":"f4f41d6d-99de-47f0-b951-fb50f9ec067d","system_id":"levelo_inurba_marseille","lat":43.29296,"lon":5.37466,"is_reserved":false,"is_disabled":false,"rental_uris":{"android":"levelo://app?vid=f4f41d6d-99de-47f0-b951-fb50f9ec067d","ios":"levelo://app?vid=f4f41d6d-99de-47f0-b951-fb50f9ec067d"},"vehicle_type_id":"4","last_reported":1728735286,"current_range_meters":18800,"station_id":"ce4bgi12rcd13ifvqb70","pricing_plan_id":"cebpf4jnsgd1na2vs0mg"},{"bike_id":"5e2e70bb-50f2-4df4-bca5-6ec65e4e48a1","system_id":"levelo_inurba_marseille","lat":43.29622,"lon":5.37151,"is_reserved":false,"is_disabled":false,"rental_uris":{"android":"levelo://app?vid=5e2e70bb-50f2-4df4-bca5-6ec65e4e48a1","ios":"levelo://app?vid=5e2e70bb-50f2-4df4-bca5-6ec65e4e48a1"},"vehicle_type_id":"4","last_reported":1728735286,"current_range_meters":18000,"station_id":"ce4bgnh2rcd13ifvqc0g","pricing_plan_id":"cebpf4jnsgd1na2vs0mg"},{"bike_id":"bb93fba8-4dca-4e9f-9c20-9fb41a7e0675","system_id":"levelo_inurba_marseille","lat":43.30542,"lon":5.36539,"is_reserved":false,"is_disabled":false,"rental_uris":{"android":"levelo://app?vid=bb93fba8-4dca-4e9f-9c20-9fb41a7e0675","ios":"levelo://app?vid=bb93fba8-4dca-4e9f-9c20-9fb41a7e0675"},"vehicle_type_id":"4","last_reported":1728735286,"current_range_meters":30800,"station_id":"ce4bgs12rcd13ifvqcag","pricing_plan_id":"cebpf4jnsgd1na2vs0mg"},{"bike_id":"e737a905-8f20-42fc-93e7-b45ecb95c043","system_id":"levelo_inurba_marseille","lat":43.2668,"lon":5.38264,"is_reserved":false,"is_disabled":false,"rental_uris":{"android":"levelo://app?vid=e737a905-8f20-42fc-93e7-b45ecb95c043","ios":"levelo://app?vid=e737a905-8f20-42fc-93e7-b45ecb95c043"},"vehicle_type_id":"4","last_reported":1728735286,"current_range_meters":38800,"station_id":"ce4bhg92rcd13ifvqf90","pricing_plan_id":"cebpf4jnsgd1na2vs0mg"},{"bike_id":"65ecdb47-6ce1-4b03-b02a-17a7a77482b1","system_id":"levelo_inurba_marseille","lat":43.23192,"lon":5.35552,"is_reserved":false,"is_disabled":false,"rental_uris":{"android":"levelo://app?vid=65ecdb47-6ce1-4b03-b02a-17a7a77482b1","ios":"levelo://app?vid=65ecdb47-6ce1-4b03-b02a-17a7a77482b1"},"vehicle_type_id":"4","last_reported":1728735286,"current_range_meters":18800,"station_id":"ce4bhu92rcd13ifvqi70","pricing_plan_id":"cebpf4jnsgd1na2vs0mg"},{"bike_id":"632168c6-59de-47f4-9b20-c41af582b56e","system_id":"levelo_inurba_marseille","lat":43.25018,"lon":5.38913,"is_reserved":false,"is_disabled":false,"rental_uris":{"android":"levelo://app?vid=632168c6-59de-47f4-9b20-c41af582b56e","ios":"levelo://app?vid=632168c6-59de-47f4-9b20-c41af582b56e"},"vehicle_type_id":"4","last_reported":1728735286,"current_range_meters":31200,"station_id":"ce4bhgp2rcd13ifvqfd0","pricing_plan_id":"cebpf4jnsgd1na2vs0mg"},{"bike_id":"76853adf-cdbf-4e9d-84a3-f07682752886","system_id":"levelo_inurba_marseille","lat":43.29028,"lon":5.38139,"is_reserved":false,"is_disabled":false,"rental_uris":{"android":"levelo://app?vid=76853adf-cdbf-4e9d-84a3-f07682752886","ios":"levelo://app?vid=76853adf-cdbf-4e9d-84a3-f07682752886"},"vehicle_type_id":"4","last_reported":1728735286,"current_range_meters":19600,"station_id":"","pricing_plan_id":"cebpf4jnsgd1na2vs0mg"},{"bike_id":"fe499ee7-6375-4ecd-b57e-a932fe0f65cf","system_id":"levelo_inurba_marseille","lat":43.33723,"lon":5.39184,"is_reserved":false,"is_disabled":false,"rental_uris":{"android":"levelo://app?vid=fe499ee7-6375-4ecd-b57e-a932fe0f65cf","ios":"levelo://app?vid=fe499ee7-6375-4ecd-b57e-a932fe0f65cf"},"vehicle_type_id":"4","last_reported":1728735286,"current_range_meters":8800,"station_id":"ce4bhr92rcd13ifvqhsg","pricing_plan_id":"cebpf4jnsgd1na2vs0mg"},{"bike_id":"864f82ea-ea90-451b-bdec-3a09898c1c10","system_id":"levelo_inurba_marseille","lat":43.28405,"lon":5.37517,"is_reserved":false,"is_disabled":false,"rental_uris":{"android":"levelo://app?vid=864f82ea-ea90-451b-bdec-3a09898c1c10","ios":"levelo://app?vid=864f82ea-ea90-451b-bdec-3a09898c1c10"},"vehicle_type_id":"4","last_reported":1728735286,"current_range_meters":38000,"station_id":"ce4bh412rcd13ifvqds0","pricing_plan_id":"cebpf4jnsgd1na2vs0mg"},{"bike_id":"411ca67e-2d2b-4638-a37b-bb7c1a0babfe","system_id":"levelo_inurba_marseille","lat":43.29296,"lon":5.37449,"is_reserved":false,"is_disabled":false,"rental_uris":{"android":"levelo://app?vid=411ca67e-2d2b-4638-a37b-bb7c1a0babfe","ios":"levelo://app?vid=411ca67e-2d2b-4638-a37b-bb7c1a0babfe"},"vehicle_type_id":"4","last_reported":1728735286,"current_range_meters":20400,"station_id":"ce4bgi12rcd13ifvqb70","pricing_plan_id":"cebpf4jnsgd1na2vs0mg"},{"bike_id":"0363c092-2c66-4d7c-ae9d-a76fbb24df72","system_id":"levelo_inurba_marseille","lat":43.242537,"lon":5.367948,"is_reserved":false,"is_disabled":false,"rental_uris":{"android":"levelo://app?vid=0363c092-2c66-4d7c-ae9d-a76fbb24df72","ios":"levelo://app?vid=0363c092-2c66-4d7c-ae9d-a76fbb24df72"},"vehicle_type_id":"4","last_reported":1728735286,"current_range_meters":28800,"station_id":"ce4bhhh2rcd13ifvqfk0","pricing_plan_id":"cebpf4jnsgd1na2vs0mg"},{"bike_id":"26ad2f98-28e7-4ba6-817b-53c0d1cfc4da","system_id":"levelo_inurba_marseille","lat":43.25716,"lon":5.41113,"is_reserved":false,"is_disabled":false,"rental_uris":{"android":"levelo://app?vid=26ad2f98-28e7-4ba6-817b-53c0d1cfc4da","ios":"levelo://app?vid=26ad2f98-28e7-4ba6-817b-53c0d1cfc4da"},"vehicle_type_id":"4","last_reported":1728735286,"current_range_meters":39200,"station_id":"ce4bhkp2rcd13ifvqgd0","pricing_plan_id":"cebpf4jnsgd1na2vs0mg"},{"bike_id":"ad9508a3-6339-4b15-ad7f-7867f29affe1","system_id":"levelo_inurba_marseille","lat":43.23967,"lon":5.36626,"is_reserved":false,"is_disabled":false,"rental_uris":{"android":"levelo://app?vid=ad9508a3-6339-4b15-ad7f-7867f29affe1","ios":"levelo://app?vid=ad9508a3-6339-4b15-ad7f-7867f29affe1"},"vehicle_type_id":"4","last_reported":1728735286,"current_range_meters":30000,"station_id":"ce4bhi12rcd13ifvqfp0","pricing_plan_id":"cebpf4jnsgd1na2vs0mg"},{"bike_id":"8f363252-7124-44d4-8c94-acc21a5cbdb9","system_id":"levelo_inurba_marseille","lat":43.23185,"lon":5.39981,"is_reserved":false,"is_disabled":false,"rental_uris":{"android":"levelo://app?vid=8f363252-7124-44d4-8c94-acc21a5cbdb9","ios":"levelo://app?vid=8f363252-7124-44d4-8c94-acc21a5cbdb9"},"vehicle_type_id":"4","last_reported":1728735286,"current_range_meters":5600,"station_id":"ce4bhn12rcd13ifvqgqg","pricing_plan_id":"cebpf4jnsgd1na2vs0mg"},{"bike_id":"759ce870-3bc5-4a2e-a8c9-bec4e8008e45","system_id":"levelo_inurba_marseille","lat":43.337444,"lon":5.374475,"is_reserved":false,"is_disabled":false,"rental_uris":{"android":"levelo://app?vid=759ce870-3bc5-4a2e-a8c9-bec4e8008e45","ios":"levelo://app?vid=759ce870-3bc5-4a2e-a8c9-bec4e8008e45"},"vehicle_type_id":"4","last_reported":1728735286,"current_range_meters":27600,"station_id":"","pricing_plan_id":"cebpf4jnsgd1na2vs0mg"},{"bike_id":"85a6762e-f262-429f-badd-3ed486cc3ab0","system_id":"levelo_inurba_marseille","lat":43.2761,"lon":5.36111,"is_reserved":false,"is_disabled":false,"rental_uris":{"android":"levelo://app?vid=85a6762e-f262-429f-badd-3ed486cc3ab0","ios":"levelo://app?vid=85a6762e-f262-429f-badd-3ed486cc3ab0"},"vehicle_type_id":"4","last_reported":1728735286,"current_range_meters":38000,"station_id":"ce4bgj92rcd13ifvqbe0","pricing_plan_id":"cebpf4jnsgd1na2vs0mg"},{"bike_id":"81116487-809d-4f42-a9f3-27b11eea1ba5","system_id":"levelo_inurba_marseille","lat":43.24068,"lon":5.37759,"is_reserved":false,"is_disabled":false,"rental_uris":{"android":"levelo://app?vid=81116487-809d-4f42-a9f3-27b11eea1ba5","ios":"levelo://app?vid=81116487-809d-4f42-a9f3-27b11eea1ba5"},"vehicle_type_id":"4","last_reported":1728735286,"current_range_meters":20400,"station_id":"ce4bhnp2rcd13ifvqgvg","pricing_plan_id":"cebpf4jnsgd1na2vs0mg"},{"bike_id":"9662c834-e814-444b-97f5-74cee922c4fd","system_id":"levelo_inurba_marseille","lat":43.23967,"lon":5.36608,"is_reserved":false,"is_disabled":false,"rental_uris":{"android":"levelo://app?vid=9662c834-e814-444b-97f5-74cee922c4fd","ios":"levelo://app?vid=9662c834-e814-444b-97f5-74cee922c4fd"},"vehicle_type_id":"4","last_reported":1728735286,"current_range_meters":38400,"station_id":"ce4bhi12rcd13ifvqfp0","pricing_plan_id":"cebpf4jnsgd1na2vs0mg"},{"bike_id":"e2b853a5-8b42-4ffe-8220-a2d85a881e19","system_id":"levelo_inurba_marseille","lat":43.2706,"lon":5.40259,"is_reserved":false,"is_disabled":false,"rental_uris":{"android":"levelo://app?vid=e2b853a5-8b42-4ffe-8220-a2d85a881e19","ios":"levelo://app?vid=e2b853a5-8b42-4ffe-8220-a2d85a881e19"},"vehicle_type_id":"4","last_reported":1728735286,"current_range_meters":27200,"station_id":"ce4bhk92rcd13ifvqgc0","pricing_plan_id":"cebpf4jnsgd1na2vs0mg"},{"bike_id":"5bc82fca-43af-4201-891c-b197527e32ad","system_id":"levelo_inurba_marseille","lat":43.23184,"lon":5.39985,"is_reserved":false,"is_disabled":false,"rental_uris":{"android":"levelo://app?vid=5bc82fca-43af-4201-891c-b197527e32ad","ios":"levelo://app?vid=5bc82fca-43af-4201-891c-b197527e32ad"},"vehicle_type_id":"4","last_reported":1728735286,"current_range_meters":8400,"station_id":"ce4bhn12rcd13ifvqgqg","pricing_plan_id":"cebpf4jnsgd1na2vs0mg"},{"bike_id":"cdb484d8-926b-4c0e-9709-acfa23230e4a","system_id":"levelo_inurba_marseille","lat":43.30142,"lon":5.38081,"is_reserved":false,"is_disabled":false,"rental_uris":{"android":"levelo://app?vid=cdb484d8-926b-4c0e-9709-acfa23230e4a","ios":"levelo://app?vid=cdb484d8-926b-4c0e-9709-acfa23230e4a"},"vehicle_type_id":"4","last_reported":1728735286,"current_range_meters":37600,"station_id":"ce4bgjp2rcd13ifvqbh0","pricing_plan_id":"cebpf4jnsgd1na2vs0mg"},{"bike_id":"628b70e0-70d2-4a50-bd81-f02589a5a65c","system_id":"levelo_inurba_marseille","lat":43.29216,"lon":5.37162,"is_reserved":false,"is_disabled":false,"rental_uris":{"android":"levelo://app?vid=628b70e0-70d2-4a50-bd81-f02589a5a65c","ios":"levelo://app?vid=628b70e0-70d2-4a50-bd81-f02589a5a65c"},"vehicle_type_id":"4","last_reported":1728735286,"current_range_meters":8800,"station_id":"","pricing_plan_id":"cebpf4jnsgd1na2vs0mg"},{"bike_id":"3286cf0f-004d-4fff-bb17-e7e3c88a38ba","system_id":"levelo_inurba_marseille","lat":43.27423,"lon":5.39417,"is_reserved":false,"is_disabled":false,"rental_uris":{"android":"levelo://app?vid=3286cf0f-004d-4fff-bb17-e7e3c88a38ba","ios":"levelo://app?vid=3286cf0f-004d-4fff-bb17-e7e3c88a38ba"},"vehicle_type_id":"4","last_reported":1728735286,"current_range_meters":13600,"station_id":"ce4bhdp2rcd13ifvqf20","pricing_plan_id":"cebpf4jnsgd1na2vs0mg"},{"bike_id":"a49f0919-36fa-4eb4-8b1e-4f56526b00f7","system_id":"levelo_inurba_marseille","lat":43.27177,"lon":5.40995,"is_reserved":false,"is_disabled":false,"rental_uris":{"android":"levelo://app?vid=a49f0919-36fa-4eb4-8b1e-4f56526b00f7","ios":"levelo://app?vid=a49f0919-36fa-4eb4-8b1e-4f56526b00f7"},"vehicle_type_id":"4","last_reported":1728735286,"current_range_meters":38800,"station_id":"ce4bhl12rcd13ifvqgf0","pricing_plan_id":"cebpf4jnsgd1na2vs0mg"},{"bike_id":"37260897-2869-4b67-b68b-17af335d61b4","system_id":"levelo_inurba_marseille","lat":43.31708,"lon":5.43709,"is_reserved":false,"is_disabled":false,"rental_uris":{"android":"levelo://app?vid=37260897-2869-4b67-b68b-17af335d61b4","ios":"levelo://app?vid=37260897-2869-4b67-b68b-17af335d61b4"},"vehicle_type_id":"4","last_reported":1728735286,"current_range_meters":24800,"station_id":"ce4bhp92rcd13ifvqhcg","pricing_plan_id":"cebpf4jnsgd1na2vs0mg"},{"bike_id":"95d042b4-a096-4d78-a317-08d2406c89b0","system_id":"levelo_inurba_marseille","lat":43.25863,"lon":5.39894,"is_reserved":false,"is_disabled":false,"rental_uris":{"android":"levelo://app?vid=95d042b4-a096-4d78-a317-08d2406c89b0","ios":"levelo://app?vid=95d042b4-a096-4d78-a317-08d2406c89b0"},"vehicle_type_id":"4","last_reported":1728735286,"current_range_meters":36400,"station_id":"ce4bhl92rcd13ifvqghg","pricing_plan_id":"cebpf4jnsgd1na2vs0mg"},{"bike_id":"4598e888-87fa-4e54-acbd-14c5eb235d4b","system_id":"levelo_inurba_marseille","lat":43.29971,"lon":5.38504,"is_reserved":false,"is_disabled":false,"rental_uris":{"android":"levelo://app?vid=4598e888-87fa-4e54-acbd-14c5eb235d4b","ios":"levelo://app?vid=4598e888-87fa-4e54-acbd-14c5eb235d4b"},"vehicle_type_id":"4","last_reported":1728735286,"current_range_meters":32800,"station_id":"ce4bgj92rcd13ifvqbd0","pricing_plan_id":"cebpf4jnsgd1na2vs0mg"},{"bike_id":"bc472d39-2ada-42a4-92c2-663260deaa02","system_id":"levelo_inurba_marseille","lat":43.302887,"lon":5.378222,"is_reserved":false,"is_disabled":false,"rental_uris":{"android":"levelo://app?vid=bc472d39-2ada-42a4-92c2-663260deaa02","ios":"levelo://app?vid=bc472d39-2ada-42a4-92c2-663260deaa02"},"vehicle_type_id":"4","last_reported":1728735286,"current_range_meters":14000,"station_id":"ce4bh3h2rcd13ifvqdo0","pricing_plan_id":"cebpf4jnsgd1na2vs0mg"},{"bike_id":"82de1d58-db4a-4dc1-9fdf-8477c2a655ef","system_id":"levelo_inurba_marseille","lat":43.28036,"lon":5.36931,"is_reserved":false,"is_disabled":false,"rental_uris":{"android":"levelo://app?vid=82de1d58-db4a-4dc1-9fdf-8477c2a655ef","ios":"levelo://app?vid=82de1d58-db4a-4dc1-9fdf-8477c2a655ef"},"vehicle_type_id":"4","last_reported":1728735286,"current_range_meters":36800,"station_id":"ce4bha12rcd13ifvqef0","pricing_plan_id":"cebpf4jnsgd1na2vs0mg"},{"bike_id":"5fca2804-1a1c-486a-a729-494bab116f7e","system_id":"levelo_inurba_marseille","lat":43.29907,"lon":5.37474,"is_reserved":false,"is_disabled":false,"rental_uris":{"android":"levelo://app?vid=5fca2804-1a1c-486a-a729-494bab116f7e","ios":"levelo://app?vid=5fca2804-1a1c-486a-a729-494bab116f7e"},"vehicle_type_id":"4","last_reported":1728735286,"current_range_meters":13600,"station_id":"ce4bgjh2rcd13ifvqbg0","pricing_plan_id":"cebpf4jnsgd1na2vs0mg"},{"bike_id":"4f3c8af1-fcd6-4403-89e5-c37e2333101d","system_id":"levelo_inurba_marseille","lat":43.30248,"lon":5.40059,"is_reserved":false,"is_disabled":false,"rental_uris":{"android":"levelo://app?vid=4f3c8af1-fcd6-4403-89e5-c37e2333101d","ios":"levelo://app?vid=4f3c8af1-fcd6-4403-89e5-c37e2333101d"},"vehicle_type_id":"4","last_reported":1728735286,"current_range_meters":24000,"station_id":"ce4bgvh2rcd13ifvqcs0","pricing_plan_id":"cebpf4jnsgd1na2vs0mg"},{"bike_id":"5c483790-257f-48e3-898d-85ded0cb6385","system_id":"levelo_inurba_marseille","lat":43.30148,"lon":5.38084,"is_reserved":false,"is_disabled":false,"rental_uris":{"android":"levelo://app?vid=5c483790-257f-48e3-898d-85ded0cb6385","ios":"levelo://app?vid=5c483790-257f-48e3-898d-85ded0cb6385"},"vehicle_type_id":"4","last_reported":1728735286,"current_range_meters":28800,"station_id":"ce4bgjp2rcd13ifvqbh0","pricing_plan_id":"cebpf4jnsgd1na2vs0mg"},{"bike_id":"58b2a04b-e458-46bd-91a0-1f29d7d59f33","system_id":"levelo_inurba_marseille","lat":43.30129,"lon":5.3878,"is_reserved":false,"is_disabled":false,"rental_uris":{"android":"levelo://app?vid=58b2a04b-e458-46bd-91a0-1f29d7d59f33","ios":"levelo://app?vid=58b2a04b-e458-46bd-91a0-1f29d7d59f33"},"vehicle_type_id":"4","last_reported":1728735286,"current_range_meters":29600,"station_id":"ce4bghh2rcd13ifvqb60","pricing_plan_id":"cebpf4jnsgd1na2vs0mg"},{"bike_id":"fd301c4f-88d0-470b-8444-02e732c4a052","system_id":"levelo_inurba_marseille","lat":43.24972,"lon":5.38099,"is_reserved":false,"is_disabled":false,"rental_uris":{"android":"levelo://app?vid=fd301c4f-88d0-470b-8444-02e732c4a052","ios":"levelo://app?vid=fd301c4f-88d0-470b-8444-02e732c4a052"},"vehicle_type_id":"4","last_reported":1728735286,"current_range_meters":28400,"station_id":"","pricing_plan_id":"cebpf4jnsgd1na2vs0mg"},{"bike_id":"edcc5898-35ae-4973-84c0-afbc9f6819b9","system_id":"levelo_inurba_marseille","lat":43.24801,"lon":5.3746,"is_reserved":false,"is_disabled":false,"rental_uris":{"android":"levelo://app?vid=edcc5898-35ae-4973-84c0-afbc9f6819b9","ios":"levelo://app?vid=edcc5898-35ae-4973-84c0-afbc9f6819b9"},"vehicle_type_id":"4","last_reported":1728735286,"current_range_meters":32000,"station_id":"ce4bhgh2rcd13ifvqfb0","pricing_plan_id":"cebpf4jnsgd1na2vs0mg"},{"bike_id":"69d10f8a-5097-4579-8fcc-92be69f54657","system_id":"levelo_inurba_marseille","lat":43.315486,"lon":5.379892,"is_reserved":false,"is_disabled":false,"rental_uris":{"android":"levelo://app?vid=69d10f8a-5097-4579-8fcc-92be69f54657","ios":"levelo://app?vid=69d10f8a-5097-4579-8fcc-92be69f54657"},"vehicle_type_id":"4","last_reported":1728735286,"current_range_meters":29600,"station_id":"ce4bgth2rcd13ifvqch0","pricing_plan_id":"cebpf4jnsgd1na2vs0mg"},{"bike_id":"ff68b789-7173-415f-860f-fb58c1b9d01d","system_id":"levelo_inurba_marseille","lat":43.22928,"lon":5.35375,"is_reserved":false,"is_disabled":false,"rental_uris":{"android":"levelo://app?vid=ff68b789-7173-415f-860f-fb58c1b9d01d","ios":"levelo://app?vid=ff68b789-7173-415f-860f-fb58c1b9d01d"},"vehicle_type_id":"4","last_reported":1728735286,"current_range_meters":26800,"station_id":"cpo3532slgdg3j2ikp40","pricing_plan_id":"cebpf4jnsgd1na2vs0mg"},{"bike_id":"f2ec553b-f583-4634-bf60-a39b93078fc1","system_id":"levelo_inurba_marseille","lat":43.24393,"lon":5.37063,"is_reserved":false,"is_disabled":false,"rental_uris":{"android":"levelo://app?vid=f2ec553b-f583-4634-bf60-a39b93078fc1","ios":"levelo://app?vid=f2ec553b-f583-4634-bf60-a39b93078fc1"},"vehicle_type_id":"4","last_reported":1728735286,"current_range_meters":28400,"station_id":"ce4bhhh2rcd13ifvqfk0","pricing_plan_id":"cebpf4jnsgd1na2vs0mg"},{"bike_id":"f666de07-1118-45a4-b21f-63ee97215349","system_id":"levelo_inurba_marseille","lat":43.31688,"lon":5.40478,"is_reserved":false,"is_disabled":false,"rental_uris":{"android":"levelo://app?vid=f666de07-1118-45a4-b21f-63ee97215349","ios":"levelo://app?vid=f666de07-1118-45a4-b21f-63ee97215349"},"vehicle_type_id":"4","last_reported":1728735286,"current_range_meters":30000,"station_id":"ce4bh012rcd13ifvqd00","pricing_plan_id":"cebpf4jnsgd1na2vs0mg"},{"bike_id":"27214a3f-e250-465b-9eae-52b52eef5e45","system_id":"levelo_inurba_marseille","lat":43.23148,"lon":5.43717,"is_reserved":false,"is_disabled":false,"rental_uris":{"android":"levelo://app?vid=27214a3f-e250-465b-9eae-52b52eef5e45","ios":"levelo://app?vid=27214a3f-e250-465b-9eae-52b52eef5e45"},"vehicle_type_id":"4","last_reported":1728735286,"current_range_meters":26800,"station_id":"ce4bhmp2rcd13ifvqgog","pricing_plan_id":"cebpf4jnsgd1na2vs0mg"},{"bike_id":"92c1af36-5649-40f5-84ed-a7b062884571","system_id":"levelo_inurba_marseille","lat":43.23968,"lon":5.36629,"is_reserved":false,"is_disabled":false,"rental_uris":{"android":"levelo://app?vid=92c1af36-5649-40f5-84ed-a7b062884571","ios":"levelo://app?vid=92c1af36-5649-40f5-84ed-a7b062884571"},"vehicle_type_id":"4","last_reported":1728735286,"current_range_meters":34800,"station_id":"ce4bhi12rcd13ifvqfp0","pricing_plan_id":"cebpf4jnsgd1na2vs0mg"},{"bike_id":"6cb5b02c-2401-484a-8b7d-b4d2106d6b08","system_id":"levelo_inurba_marseille","lat":43.23193,"lon":5.35554,"is_reserved":false,"is_disabled":false,"rental_uris":{"android":"levelo://app?vid=6cb5b02c-2401-484a-8b7d-b4d2106d6b08","ios":"levelo://app?vid=6cb5b02c-2401-484a-8b7d-b4d2106d6b08"},"vehicle_type_id":"4","last_reported":1728735286,"current_range_meters":31200,"station_id":"ce4bhu92rcd13ifvqi70","pricing_plan_id":"cebpf4jnsgd1na2vs0mg"},{"bike_id":"4494e39d-64b5-4300-8faf-88e6768d68c4","system_id":"levelo_inurba_marseille","lat":43.31758,"lon":5.39015,"is_reserved":false,"is_disabled":false,"rental_uris":{"android":"levelo://app?vid=4494e39d-64b5-4300-8faf-88e6768d68c4","ios":"levelo://app?vid=4494e39d-64b5-4300-8faf-88e6768d68c4"},"vehicle_type_id":"4","last_reported":1728735286,"current_range_meters":38000,"station_id":"ce4bhqp2rcd13ifvqhng","pricing_plan_id":"cebpf4jnsgd1na2vs0mg"},{"bike_id":"c88cdfb0-4bf9-4a8c-8ce2-b63c2598193b","system_id":"levelo_inurba_marseille","lat":43.29586,"lon":5.36737,"is_reserved":false,"is_disabled":false,"rental_uris":{"android":"levelo://app?vid=c88cdfb0-4bf9-4a8c-8ce2-b63c2598193b","ios":"levelo://app?vid=c88cdfb0-4bf9-4a8c-8ce2-b63c2598193b"},"vehicle_type_id":"4","last_reported":1728735286,"current_range_meters":37600,"station_id":"ce4bgph2rcd13ifvqc2g","pricing_plan_id":"cebpf4jnsgd1na2vs0mg"},{"bike_id":"4311aeb5-f19a-4d44-8352-c67306faa6e4","system_id":"levelo_inurba_marseille","lat":43.26553,"lon":5.37282,"is_reserved":false,"is_disabled":false,"rental_uris":{"android":"levelo://app?vid=4311aeb5-f19a-4d44-8352-c67306faa6e4","ios":"levelo://app?vid=4311aeb5-f19a-4d44-8352-c67306faa6e4"},"vehicle_type_id":"4","last_reported":1728735286,"current_range_meters":15200,"station_id":"ce4bhg12rcd13ifvqf70","pricing_plan_id":"cebpf4jnsgd1na2vs0mg"},{"bike_id":"224eb723-4790-4b26-822f-a796e0181cfe","system_id":"levelo_inurba_marseille","lat":43.29964,"lon":5.38493,"is_reserved":false,"is_disabled":false,"rental_uris":{"android":"levelo://app?vid=224eb723-4790-4b26-822f-a796e0181cfe","ios":"levelo://app?vid=224eb723-4790-4b26-822f-a796e0181cfe"},"vehicle_type_id":"4","last_reported":1728735286,"current_range_meters":24000,"station_id":"ce4bgj92rcd13ifvqbd0","pricing_plan_id":"cebpf4jnsgd1na2vs0mg"},{"bike_id":"a390a677-4d2a-4fe2-a008-e80d76af9e35","system_id":"levelo_inurba_marseille","lat":43.30097,"lon":5.39084,"is_reserved":false,"is_disabled":false,"rental_uris":{"android":"levelo://app?vid=a390a677-4d2a-4fe2-a008-e80d76af9e35","ios":"levelo://app?vid=a390a677-4d2a-4fe2-a008-e80d76af9e35"},"vehicle_type_id":"4","last_reported":1728735286,"current_range_meters":4400,"station_id":"ce4bh192rcd13ifvqdb0","pricing_plan_id":"cebpf4jnsgd1na2vs0mg"},{"bike_id":"eac4e8f1-ac84-4048-ad4c-5213afa836f2","system_id":"levelo_inurba_marseille","lat":43.27139,"lon":5.4002,"is_reserved":false,"is_disabled":false,"rental_uris":{"android":"levelo://app?vid=eac4e8f1-ac84-4048-ad4c-5213afa836f2","ios":"levelo://app?vid=eac4e8f1-ac84-4048-ad4c-5213afa836f2"},"vehicle_type_id":"4","last_reported":1728735286,"current_range_meters":25200,"station_id":"","pricing_plan_id":"cebpf4jnsgd1na2vs0mg"},{"bike_id":"9ed885eb-dedc-4ad7-b3e4-7e84a84acbaf","system_id":"levelo_inurba_marseille","lat":43.27053,"lon":5.40261,"is_reserved":false,"is_disabled":false,"rental_uris":{"android":"levelo://app?vid=9ed885eb-dedc-4ad7-b3e4-7e84a84acbaf","ios":"levelo://app?vid=9ed885eb-dedc-4ad7-b3e4-7e84a84acbaf"},"vehicle_type_id":"4","last_reported":1728735286,"current_range_meters":11200,"station_id":"ce4bhk92rcd13ifvqgc0","pricing_plan_id":"cebpf4jnsgd1na2vs0mg"},{"bike_id":"accb871e-a6d6-4416-b0e7-cca548384eeb","system_id":"levelo_inurba_marseille","lat":43.26552,"lon":5.37282,"is_reserved":false,"is_disabled":false,"rental_uris":{"android":"levelo://app?vid=accb871e-a6d6-4416-b0e7-cca548384eeb","ios":"levelo://app?vid=accb871e-a6d6-4416-b0e7-cca548384eeb"},"vehicle_type_id":"4","last_reported":1728735286,"current_range_meters":37600,"station_id":"ce4bhg12rcd13ifvqf70","pricing_plan_id":"cebpf4jnsgd1na2vs0mg"},{"bike_id":"b7a0265e-c8cb-4b30-8055-a863fc5c0b84","system_id":"levelo_inurba_marseille","lat":43.3169,"lon":5.40475,"is_reserved":false,"is_disabled":false,"rental_uris":{"android":"levelo://app?vid=b7a0265e-c8cb-4b30-8055-a863fc5c0b84","ios":"levelo://app?vid=b7a0265e-c8cb-4b30-8055-a863fc5c0b84"},"vehicle_type_id":"4","last_reported":1728735286,"current_range_meters":38800,"station_id":"ce4bh012rcd13ifvqd00","pricing_plan_id":"cebpf4jnsgd1na2vs0mg"},{"bike_id":"ed6f5853-c281-4213-8ebc-213791edfd0a","system_id":"levelo_inurba_marseille","lat":43.24387,"lon":5.37062,"is_reserved":false,"is_disabled":false,"rental_uris":{"android":"levelo://app?vid=ed6f5853-c281-4213-8ebc-213791edfd0a","ios":"levelo://app?vid=ed6f5853-c281-4213-8ebc-213791edfd0a"},"vehicle_type_id":"4","last_reported":1728735286,"current_range_meters":36800,"station_id":"ce4bhhh2rcd13ifvqfk0","pricing_plan_id":"cebpf4jnsgd1na2vs0mg"},{"bike_id":"39f263b3-6c7b-4f42-b68c-71b04a08b1c6","system_id":"levelo_inurba_marseille","lat":43.29278,"lon":5.36839,"is_reserved":false,"is_disabled":false,"rental_uris":{"android":"levelo://app?vid=39f263b3-6c7b-4f42-b68c-71b04a08b1c6","ios":"levelo://app?vid=39f263b3-6c7b-4f42-b68c-71b04a08b1c6"},"vehicle_type_id":"4","last_reported":1728735286,"current_range_meters":18000,"station_id":"ce4bhbp2rcd13ifvqesg","pricing_plan_id":"cebpf4jnsgd1na2vs0mg"},{"bike_id":"3733ed65-7a14-453c-8d42-12ec0025b25e","system_id":"levelo_inurba_marseille","lat":43.2586,"lon":5.39897,"is_reserved":false,"is_disabled":false,"rental_uris":{"android":"levelo://app?vid=3733ed65-7a14-453c-8d42-12ec0025b25e","ios":"levelo://app?vid=3733ed65-7a14-453c-8d42-12ec0025b25e"},"vehicle_type_id":"4","last_reported":1728735286,"current_range_meters":16800,"station_id":"ce4bhl92rcd13ifvqghg","pricing_plan_id":"cebpf4jnsgd1na2vs0mg"},{"bike_id":"4d504d2f-5bbb-4a19-9262-4821cd97d986","system_id":"levelo_inurba_marseille","lat":43.27814,"lon":5.40715,"is_reserved":false,"is_disabled":false,"rental_uris":{"android":"levelo://app?vid=4d504d2f-5bbb-4a19-9262-4821cd97d986","ios":"levelo://app?vid=4d504d2f-5bbb-4a19-9262-4821cd97d986"},"vehicle_type_id":"4","last_reported":1728735286,"current_range_meters":18000,"station_id":"ce4bhnh2rcd13ifvqgtg","pricing_plan_id":"cebpf4jnsgd1na2vs0mg"},{"bike_id":"d8202785-65e9-4811-bba0-34817e4ee253","system_id":"levelo_inurba_marseille","lat":43.30553,"lon":5.36525,"is_reserved":false,"is_disabled":false,"rental_uris":{"android":"levelo://app?vid=d8202785-65e9-4811-bba0-34817e4ee253","ios":"levelo://app?vid=d8202785-65e9-4811-bba0-34817e4ee253"},"vehicle_type_id":"4","last_reported":1728735286,"current_range_meters":26800,"station_id":"ce4bgs12rcd13ifvqcag","pricing_plan_id":"cebpf4jnsgd1na2vs0mg"},{"bike_id":"7f2680ae-fa53-4016-a3aa-72c16713a4a3","system_id":"levelo_inurba_marseille","lat":43.29567,"lon":5.37511,"is_reserved":false,"is_disabled":false,"rental_uris":{"android":"levelo://app?vid=7f2680ae-fa53-4016-a3aa-72c16713a4a3","ios":"levelo://app?vid=7f2680ae-fa53-4016-a3aa-72c16713a4a3"},"vehicle_type_id":"4","last_reported":1728735286,"current_range_meters":16800,"station_id":"ce4bgh92rcd13ifvqb50","pricing_plan_id":"cebpf4jnsgd1na2vs0mg"},{"bike_id":"b933402b-d1ca-49a8-bbf7-fb19281d941c","system_id":"levelo_inurba_marseille","lat":43.23198,"lon":5.35554,"is_reserved":false,"is_disabled":false,"rental_uris":{"android":"levelo://app?vid=b933402b-d1ca-49a8-bbf7-fb19281d941c","ios":"levelo://app?vid=b933402b-d1ca-49a8-bbf7-fb19281d941c"},"vehicle_type_id":"4","last_reported":1728735286,"current_range_meters":20800,"station_id":"ce4bhu92rcd13ifvqi70","pricing_plan_id":"cebpf4jnsgd1na2vs0mg"},{"bike_id":"68a48546-28ec-4218-a008-021a1ba46359","system_id":"levelo_inurba_marseille","lat":43.25585,"lon":5.38222,"is_reserved":false,"is_disabled":false,"rental_uris":{"android":"levelo://app?vid=68a48546-28ec-4218-a008-021a1ba46359","ios":"levelo://app?vid=68a48546-28ec-4218-a008-021a1ba46359"},"vehicle_type_id":"4","last_reported":1728735286,"current_range_meters":38000,"station_id":"ce4bhih2rcd13ifvqfs0","pricing_plan_id":"cebpf4jnsgd1na2vs0mg"},{"bike_id":"39f286be-3f50-43ce-b17a-389d4ec9191f","system_id":"levelo_inurba_marseille","lat":43.29585,"lon":5.36745,"is_reserved":false,"is_disabled":false,"rental_uris":{"android":"levelo://app?vid=39f286be-3f50-43ce-b17a-389d4ec9191f","ios":"levelo://app?vid=39f286be-3f50-43ce-b17a-389d4ec9191f"},"vehicle_type_id":"4","last_reported":1728735286,"current_range_meters":36000,"station_id":"ce4bgph2rcd13ifvqc2g","pricing_plan_id":"cebpf4jnsgd1na2vs0mg"},{"bike_id":"0db66df0-a352-45a7-b97a-79c2d6b8bb1d","system_id":"levelo_inurba_marseille","lat":43.27168,"lon":5.40992,"is_reserved":false,"is_disabled":false,"rental_uris":{"android":"levelo://app?vid=0db66df0-a352-45a7-b97a-79c2d6b8bb1d","ios":"levelo://app?vid=0db66df0-a352-45a7-b97a-79c2d6b8bb1d"},"vehicle_type_id":"4","last_reported":1728735286,"current_range_meters":38800,"station_id":"ce4bhl12rcd13ifvqgf0","pricing_plan_id":"cebpf4jnsgd1na2vs0mg"},{"bike_id":"deb5b84f-b7ea-4a3b-98eb-503b72a798ab","system_id":"levelo_inurba_marseille","lat":43.32294,"lon":5.38267,"is_reserved":false,"is_disabled":false,"rental_uris":{"android":"levelo://app?vid=deb5b84f-b7ea-4a3b-98eb-503b72a798ab","ios":"levelo://app?vid=deb5b84f-b7ea-4a3b-98eb-503b72a798ab"},"vehicle_type_id":"4","last_reported":1728735286,"current_range_meters":36800,"station_id":"ce4bhr12rcd13ifvqhqg","pricing_plan_id":"cebpf4jnsgd1na2vs0mg"},{"bike_id":"badc5f21-34da-4d87-9228-bb1cf8b6ab7d","system_id":"levelo_inurba_marseille","lat":43.298492,"lon":5.384098,"is_reserved":false,"is_disabled":false,"rental_uris":{"android":"levelo://app?vid=badc5f21-34da-4d87-9228-bb1cf8b6ab7d","ios":"levelo://app?vid=badc5f21-34da-4d87-9228-bb1cf8b6ab7d"},"vehicle_type_id":"4","last_reported":1728735286,"current_range_meters":33200,"station_id":"ce4bgj92rcd13ifvqbd0","pricing_plan_id":"cebpf4jnsgd1na2vs0mg"},{"bike_id":"8ab1940c-c2b4-4ac0-affc-7653522f6e0f","system_id":"levelo_inurba_marseille","lat":43.3014,"lon":5.37406,"is_reserved":false,"is_disabled":false,"rental_uris":{"android":"levelo://app?vid=8ab1940c-c2b4-4ac0-affc-7653522f6e0f","ios":"levelo://app?vid=8ab1940c-c2b4-4ac0-affc-7653522f6e0f"},"vehicle_type_id":"4","last_reported":1728735286,"current_range_meters":38000,"station_id":"ce4bgs92rcd13ifvqcc0","pricing_plan_id":"cebpf4jnsgd1na2vs0mg"},{"bike_id":"c87bcd33-dc9b-49f9-b383-874d291a4381","system_id":"levelo_inurba_marseille","lat":43.27968,"lon":5.38729,"is_reserved":false,"is_disabled":false,"rental_uris":{"android":"levelo://app?vid=c87bcd33-dc9b-49f9-b383-874d291a4381","ios":"levelo://app?vid=c87bcd33-dc9b-49f9-b383-874d291a4381"},"vehicle_type_id":"4","last_reported":1728735286,"current_range_meters":26000,"station_id":"ce4bhg12rcd13ifvqf80","pricing_plan_id":"cebpf4jnsgd1na2vs0mg"},{"bike_id":"65cffc2a-acd7-4d97-b051-d73044a83ff8","system_id":"levelo_inurba_marseille","lat":43.27926,"lon":5.38437,"is_reserved":false,"is_disabled":false,"rental_uris":{"android":"levelo://app?vid=65cffc2a-acd7-4d97-b051-d73044a83ff8","ios":"levelo://app?vid=65cffc2a-acd7-4d97-b051-d73044a83ff8"},"vehicle_type_id":"4","last_reported":1728735286,"current_range_meters":35600,"station_id":"ce4bhh92rcd13ifvqfi0","pricing_plan_id":"cebpf4jnsgd1na2vs0mg"},{"bike_id":"47064666-96e2-43de-bff1-bbadb913d85e","system_id":"levelo_inurba_marseille","lat":43.29032,"lon":5.39966,"is_reserved":false,"is_disabled":false,"rental_uris":{"android":"levelo://app?vid=47064666-96e2-43de-bff1-bbadb913d85e","ios":"levelo://app?vid=47064666-96e2-43de-bff1-bbadb913d85e"},"vehicle_type_id":"4","last_reported":1728735286,"current_range_meters":34000,"station_id":"ce4bh392rcd13ifvqdm0","pricing_plan_id":"cebpf4jnsgd1na2vs0mg"},{"bike_id":"f694f3d6-ce3c-4ab0-9a30-408801367201","system_id":"levelo_inurba_marseille","lat":43.29624,"lon":5.37167,"is_reserved":false,"is_disabled":false,"rental_uris":{"android":"levelo://app?vid=f694f3d6-ce3c-4ab0-9a30-408801367201","ios":"levelo://app?vid=f694f3d6-ce3c-4ab0-9a30-408801367201"},"vehicle_type_id":"4","last_reported":1728735286,"current_range_meters":20400,"station_id":"ce4bgnh2rcd13ifvqc0g","pricing_plan_id":"cebpf4jnsgd1na2vs0mg"},{"bike_id":"aeeef2c6-028b-47df-85a7-9b089f1db95c","system_id":"levelo_inurba_marseille","lat":43.29895,"lon":5.43672,"is_reserved":false,"is_disabled":false,"rental_uris":{"android":"levelo://app?vid=aeeef2c6-028b-47df-85a7-9b089f1db95c","ios":"levelo://app?vid=aeeef2c6-028b-47df-85a7-9b089f1db95c"},"vehicle_type_id":"4","last_reported":1728735286,"current_range_meters":27200,"station_id":"ce4bhpp2rcd13ifvqhfg","pricing_plan_id":"cebpf4jnsgd1na2vs0mg"},{"bike_id":"286baabf-b45b-4acd-805a-a7938257d24b","system_id":"levelo_inurba_marseille","lat":43.26488,"lon":5.39547,"is_reserved":false,"is_disabled":false,"rental_uris":{"android":"levelo://app?vid=286baabf-b45b-4acd-805a-a7938257d24b","ios":"levelo://app?vid=286baabf-b45b-4acd-805a-a7938257d24b"},"vehicle_type_id":"4","last_reported":1728735286,"current_range_meters":19200,"station_id":"ce4bhi12rcd13ifvqfq0","pricing_plan_id":"cebpf4jnsgd1na2vs0mg"},{"bike_id":"484a4c63-4ef1-4433-b27a-9a9ca5ad2f9a","system_id":"levelo_inurba_marseille","lat":43.22929,"lon":5.35378,"is_reserved":false,"is_disabled":false,"rental_uris":{"android":"levelo://app?vid=484a4c63-4ef1-4433-b27a-9a9ca5ad2f9a","ios":"levelo://app?vid=484a4c63-4ef1-4433-b27a-9a9ca5ad2f9a"},"vehicle_type_id":"4","last_reported":1728735286,"current_range_meters":10000,"station_id":"cpo3532slgdg3j2ikp40","pricing_plan_id":"cebpf4jnsgd1na2vs0mg"},{"bike_id":"d8644448-7698-4ba5-ba37-f6083176f920","system_id":"levelo_inurba_marseille","lat":43.25577,"lon":5.38236,"is_reserved":false,"is_disabled":false,"rental_uris":{"android":"levelo://app?vid=d8644448-7698-4ba5-ba37-f6083176f920","ios":"levelo://app?vid=d8644448-7698-4ba5-ba37-f6083176f920"},"vehicle_type_id":"4","last_reported":1728735286,"current_range_meters":26800,"station_id":"ce4bhih2rcd13ifvqfs0","pricing_plan_id":"cebpf4jnsgd1na2vs0mg"},{"bike_id":"b43a37ee-db0c-4e2e-bf8d-f18619c472c1","system_id":"levelo_inurba_marseille","lat":43.30284,"lon":5.37701,"is_reserved":false,"is_disabled":false,"rental_uris":{"android":"levelo://app?vid=b43a37ee-db0c-4e2e-bf8d-f18619c472c1","ios":"levelo://app?vid=b43a37ee-db0c-4e2e-bf8d-f18619c472c1"},"vehicle_type_id":"4","last_reported":1728735286,"current_range_meters":24000,"station_id":"ce4bguh2rcd13ifvqcj0","pricing_plan_id":"cebpf4jnsgd1na2vs0mg"},{"bike_id":"e6336660-e5d0-4336-aab6-9e2081b4b551","system_id":"levelo_inurba_marseille","lat":43.337195,"lon":5.39192,"is_reserved":false,"is_disabled":false,"rental_uris":{"android":"levelo://app?vid=e6336660-e5d0-4336-aab6-9e2081b4b551","ios":"levelo://app?vid=e6336660-e5d0-4336-aab6-9e2081b4b551"},"vehicle_type_id":"4","last_reported":1728735286,"current_range_meters":24400,"station_id":"ce4bhr92rcd13ifvqhsg","pricing_plan_id":"cebpf4jnsgd1na2vs0mg"},{"bike_id":"ab47664c-0450-4138-b005-9b8e1b8810bd","system_id":"levelo_inurba_marseille","lat":43.29578,"lon":5.36739,"is_reserved":false,"is_disabled":false,"rental_uris":{"android":"levelo://app?vid=ab47664c-0450-4138-b005-9b8e1b8810bd","ios":"levelo://app?vid=ab47664c-0450-4138-b005-9b8e1b8810bd"},"vehicle_type_id":"4","last_reported":1728735286,"current_range_meters":38800,"station_id":"ce4bgph2rcd13ifvqc2g","pricing_plan_id":"cebpf4jnsgd1na2vs0mg"},{"bike_id":"efe82192-bd85-47ef-8a17-25dad9ec5e82","system_id":"levelo_inurba_marseille","lat":43.262,"lon":5.37921,"is_reserved":false,"is_disabled":false,"rental_uris":{"android":"levelo://app?vid=efe82192-bd85-47ef-8a17-25dad9ec5e82","ios":"levelo://app?vid=efe82192-bd85-47ef-8a17-25dad9ec5e82"},"vehicle_type_id":"4","last_reported":1728735286,"current_range_meters":39200,"station_id":"ce4bhjp2rcd13ifvqg90","pricing_plan_id":"cebpf4jnsgd1na2vs0mg"},{"bike_id":"65173d1c-6a56-4492-9dae-595c92911ce4","system_id":"levelo_inurba_marseille","lat":43.25004,"lon":5.38914,"is_reserved":false,"is_disabled":false,"rental_uris":{"android":"levelo://app?vid=65173d1c-6a56-4492-9dae-595c92911ce4","ios":"levelo://app?vid=65173d1c-6a56-4492-9dae-595c92911ce4"},"vehicle_type_id":"4","last_reported":1728735286,"current_range_meters":10000,"station_id":"ce4bhgp2rcd13ifvqfd0","pricing_plan_id":"cebpf4jnsgd1na2vs0mg"},{"bike_id":"c7932ebc-40c2-41af-92e1-9d5f28b5738a","system_id":"levelo_inurba_marseille","lat":43.23188,"lon":5.39974,"is_reserved":false,"is_disabled":false,"rental_uris":{"android":"levelo://app?vid=c7932ebc-40c2-41af-92e1-9d5f28b5738a","ios":"levelo://app?vid=c7932ebc-40c2-41af-92e1-9d5f28b5738a"},"vehicle_type_id":"4","last_reported":1728735286,"current_range_meters":6800,"station_id":"ce4bhn12rcd13ifvqgqg","pricing_plan_id":"cebpf4jnsgd1na2vs0mg"},{"bike_id":"55582e1e-1cd8-4e96-933c-025471d1c473","system_id":"levelo_inurba_marseille","lat":43.26931,"lon":5.3892,"is_reserved":false,"is_disabled":false,"rental_uris":{"android":"levelo://app?vid=55582e1e-1cd8-4e96-933c-025471d1c473","ios":"levelo://app?vid=55582e1e-1cd8-4e96-933c-025471d1c473"},"vehicle_type_id":"4","last_reported":1728735286,"current_range_meters":11200,"station_id":"ce4bhhh2rcd13ifvqfl0","pricing_plan_id":"cebpf4jnsgd1na2vs0mg"},{"bike_id":"09b86c09-024b-44fc-b1f3-1c7706a7d64b","system_id":"levelo_inurba_marseille","lat":43.26555,"lon":5.37284,"is_reserved":false,"is_disabled":false,"rental_uris":{"android":"levelo://app?vid=09b86c09-024b-44fc-b1f3-1c7706a7d64b","ios":"levelo://app?vid=09b86c09-024b-44fc-b1f3-1c7706a7d64b"},"vehicle_type_id":"4","last_reported":1728735286,"current_range_meters":19200,"station_id":"ce4bhg12rcd13ifvqf70","pricing_plan_id":"cebpf4jnsgd1na2vs0mg"},{"bike_id":"5b9f2409-af94-4530-bdcb-ef3b7e257a37","system_id":"levelo_inurba_marseille","lat":43.31996,"lon":5.38155,"is_reserved":false,"is_disabled":false,"rental_uris":{"android":"levelo://app?vid=5b9f2409-af94-4530-bdcb-ef3b7e257a37","ios":"levelo://app?vid=5b9f2409-af94-4530-bdcb-ef3b7e257a37"},"vehicle_type_id":"4","last_reported":1728735286,"current_range_meters":37600,"station_id":"ce4bhr12rcd13ifvqhpg","pricing_plan_id":"cebpf4jnsgd1na2vs0mg"},{"bike_id":"b9673350-718c-453b-aa01-08b797151e2b","system_id":"levelo_inurba_marseille","lat":43.29623,"lon":5.37715,"is_reserved":false,"is_disabled":false,"rental_uris":{"android":"levelo://app?vid=b9673350-718c-453b-aa01-08b797151e2b","ios":"levelo://app?vid=b9673350-718c-453b-aa01-08b797151e2b"},"vehicle_type_id":"4","last_reported":1728735286,"current_range_meters":37600,"station_id":"ce4bgi92rcd13ifvqb90","pricing_plan_id":"cebpf4jnsgd1na2vs0mg"},{"bike_id":"fb5f5aa9-acd6-4fa6-b975-1e5e2e663e5f","system_id":"levelo_inurba_marseille","lat":43.29864,"lon":5.39745,"is_reserved":false,"is_disabled":false,"rental_uris":{"android":"levelo://app?vid=fb5f5aa9-acd6-4fa6-b975-1e5e2e663e5f","ios":"levelo://app?vid=fb5f5aa9-acd6-4fa6-b975-1e5e2e663e5f"},"vehicle_type_id":"4","last_reported":1728735286,"current_range_meters":36800,"station_id":"ce4bh0h2rcd13ifvqd50","pricing_plan_id":"cebpf4jnsgd1na2vs0mg"},{"bike_id":"9420c6dc-b19d-4421-8c0c-72e39b809c6b","system_id":"levelo_inurba_marseille","lat":43.22931,"lon":5.35369,"is_reserved":false,"is_disabled":false,"rental_uris":{"android":"levelo://app?vid=9420c6dc-b19d-4421-8c0c-72e39b809c6b","ios":"levelo://app?vid=9420c6dc-b19d-4421-8c0c-72e39b809c6b"},"vehicle_type_id":"4","last_reported":1728735286,"current_range_meters":36800,"station_id":"cpo3532slgdg3j2ikp40","pricing_plan_id":"cebpf4jnsgd1na2vs0mg"},{"bike_id":"ae810b3b-d65f-48bf-bb34-40c842f7dc45","system_id":"levelo_inurba_marseille","lat":43.29612,"lon":5.37719,"is_reserved":false,"is_disabled":false,"rental_uris":{"android":"levelo://app?vid=ae810b3b-d65f-48bf-bb34-40c842f7dc45","ios":"levelo://app?vid=ae810b3b-d65f-48bf-bb34-40c842f7dc45"},"vehicle_type_id":"4","last_reported":1728735286,"current_range_meters":24800,"station_id":"ce4bgi92rcd13ifvqb90","pricing_plan_id":"cebpf4jnsgd1na2vs0mg"},{"bike_id":"3e5a3962-c6be-4850-9d7f-9b5a4d5455ec","system_id":"levelo_inurba_marseille","lat":43.31994,"lon":5.38155,"is_reserved":false,"is_disabled":false,"rental_uris":{"android":"levelo://app?vid=3e5a3962-c6be-4850-9d7f-9b5a4d5455ec","ios":"levelo://app?vid=3e5a3962-c6be-4850-9d7f-9b5a4d5455ec"},"vehicle_type_id":"4","last_reported":1728735286,"current_range_meters":30000,"station_id":"ce4bhr12rcd13ifvqhpg","pricing_plan_id":"cebpf4jnsgd1na2vs0mg"},{"bike_id":"e7b92778-524e-4d5d-9c06-f72ffbfbfe71","system_id":"levelo_inurba_marseille","lat":43.26552,"lon":5.37281,"is_reserved":false,"is_disabled":false,"rental_uris":{"android":"levelo://app?vid=e7b92778-524e-4d5d-9c06-f72ffbfbfe71","ios":"levelo://app?vid=e7b92778-524e-4d5d-9c06-f72ffbfbfe71"},"vehicle_type_id":"4","last_reported":1728735286,"current_range_meters":8400,"station_id":"ce4bhg12rcd13ifvqf70","pricing_plan_id":"cebpf4jnsgd1na2vs0mg"},{"bike_id":"b25409bc-df4d-476a-893e-c6a5838692b2","system_id":"levelo_inurba_marseille","lat":43.23195,"lon":5.35553,"is_reserved":false,"is_disabled":false,"rental_uris":{"android":"levelo://app?vid=b25409bc-df4d-476a-893e-c6a5838692b2","ios":"levelo://app?vid=b25409bc-df4d-476a-893e-c6a5838692b2"},"vehicle_type_id":"4","last_reported":1728735286,"current_range_meters":33200,"station_id":"ce4bhu92rcd13ifvqi70","pricing_plan_id":"cebpf4jnsgd1na2vs0mg"},{"bike_id":"379d6363-9152-4e84-bd42-6ec02dd02b54","system_id":"levelo_inurba_marseille","lat":43.32,"lon":5.38153,"is_reserved":false,"is_disabled":false,"rental_uris":{"android":"levelo://app?vid=379d6363-9152-4e84-bd42-6ec02dd02b54","ios":"levelo://app?vid=379d6363-9152-4e84-bd42-6ec02dd02b54"},"vehicle_type_id":"4","last_reported":1728735286,"current_range_meters":37600,"station_id":"ce4bhr12rcd13ifvqhpg","pricing_plan_id":"cebpf4jnsgd1na2vs0mg"},{"bike_id":"8fb2b431-bcb9-46ba-80fb-e26e84592fc5","system_id":"levelo_inurba_marseille","lat":43.2319,"lon":5.35544,"is_reserved":false,"is_disabled":false,"rental_uris":{"android":"levelo://app?vid=8fb2b431-bcb9-46ba-80fb-e26e84592fc5","ios":"levelo://app?vid=8fb2b431-bcb9-46ba-80fb-e26e84592fc5"},"vehicle_type_id":"4","last_reported":1728735286,"current_range_meters":32000,"station_id":"ce4bhu92rcd13ifvqi70","pricing_plan_id":"cebpf4jnsgd1na2vs0mg"},{"bike_id":"285f7587-7f76-4179-953d-08e0bd330894","system_id":"levelo_inurba_marseille","lat":43.29785,"lon":5.40412,"is_reserved":false,"is_disabled":false,"rental_uris":{"android":"levelo://app?vid=285f7587-7f76-4179-953d-08e0bd330894","ios":"levelo://app?vid=285f7587-7f76-4179-953d-08e0bd330894"},"vehicle_type_id":"4","last_reported":1728735286,"current_range_meters":8000,"station_id":"ce4bh112rcd13ifvqd90","pricing_plan_id":"cebpf4jnsgd1na2vs0mg"},{"bike_id":"a1d70c5f-f4ba-475f-b1b0-bddf9ce1b86b","system_id":"levelo_inurba_marseille","lat":43.29621,"lon":5.37152,"is_reserved":false,"is_disabled":false,"rental_uris":{"android":"levelo://app?vid=a1d70c5f-f4ba-475f-b1b0-bddf9ce1b86b","ios":"levelo://app?vid=a1d70c5f-f4ba-475f-b1b0-bddf9ce1b86b"},"vehicle_type_id":"4","last_reported":1728735286,"current_range_meters":17200,"station_id":"ce4bgnh2rcd13ifvqc0g","pricing_plan_id":"cebpf4jnsgd1na2vs0mg"},{"bike_id":"fa2a3aac-54f6-4821-a272-44d9b44dc0eb","system_id":"levelo_inurba_marseille","lat":43.23152,"lon":5.43701,"is_reserved":false,"is_disabled":false,"rental_uris":{"android":"levelo://app?vid=fa2a3aac-54f6-4821-a272-44d9b44dc0eb","ios":"levelo://app?vid=fa2a3aac-54f6-4821-a272-44d9b44dc0eb"},"vehicle_type_id":"4","last_reported":1728735286,"current_range_meters":25600,"station_id":"ce4bhmp2rcd13ifvqgog","pricing_plan_id":"cebpf4jnsgd1na2vs0mg"},{"bike_id":"6b096793-6c2c-4b18-90c4-6ee52c67b243","system_id":"levelo_inurba_marseille","lat":43.29785,"lon":5.40414,"is_reserved":false,"is_disabled":false,"rental_uris":{"android":"levelo://app?vid=6b096793-6c2c-4b18-90c4-6ee52c67b243","ios":"levelo://app?vid=6b096793-6c2c-4b18-90c4-6ee52c67b243"},"vehicle_type_id":"4","last_reported":1728735286,"current_range_meters":36400,"station_id":"ce4bh112rcd13ifvqd90","pricing_plan_id":"cebpf4jnsgd1na2vs0mg"},{"bike_id":"e2f25126-29b7-4581-a4fe-9e458716fb1d","system_id":"levelo_inurba_marseille","lat":43.23967,"lon":5.36618,"is_reserved":false,"is_disabled":false,"rental_uris":{"android":"levelo://app?vid=e2f25126-29b7-4581-a4fe-9e458716fb1d","ios":"levelo://app?vid=e2f25126-29b7-4581-a4fe-9e458716fb1d"},"vehicle_type_id":"4","last_reported":1728735286,"current_range_meters":28400,"station_id":"ce4bhi12rcd13ifvqfp0","pricing_plan_id":"cebpf4jnsgd1na2vs0mg"},{"bike_id":"386afdab-5ca5-4bd2-984e-31a0a109f099","system_id":"levelo_inurba_marseille","lat":43.3014,"lon":5.37419,"is_reserved":false,"is_disabled":false,"rental_uris":{"android":"levelo://app?vid=386afdab-5ca5-4bd2-984e-31a0a109f099","ios":"levelo://app?vid=386afdab-5ca5-4bd2-984e-31a0a109f099"},"vehicle_type_id":"4","last_reported":1728735286,"current_range_meters":39200,"station_id":"ce4bgs92rcd13ifvqcc0","pricing_plan_id":"cebpf4jnsgd1na2vs0mg"},{"bike_id":"8dc8b5c8-f938-440d-b2c2-9a921dbd5488","system_id":"levelo_inurba_marseille","lat":43.26933,"lon":5.38911,"is_reserved":false,"is_disabled":false,"rental_uris":{"android":"levelo://app?vid=8dc8b5c8-f938-440d-b2c2-9a921dbd5488","ios":"levelo://app?vid=8dc8b5c8-f938-440d-b2c2-9a921dbd5488"},"vehicle_type_id":"4","last_reported":1728735286,"current_range_meters":34800,"station_id":"ce4bhhh2rcd13ifvqfl0","pricing_plan_id":"cebpf4jnsgd1na2vs0mg"},{"bike_id":"6979805b-1c08-41e5-9a9c-b24903570fab","system_id":"levelo_inurba_marseille","lat":43.24076,"lon":5.37749,"is_reserved":false,"is_disabled":false,"rental_uris":{"android":"levelo://app?vid=6979805b-1c08-41e5-9a9c-b24903570fab","ios":"levelo://app?vid=6979805b-1c08-41e5-9a9c-b24903570fab"},"vehicle_type_id":"4","last_reported":1728735286,"current_range_meters":38000,"station_id":"ce4bhnp2rcd13ifvqgvg","pricing_plan_id":"cebpf4jnsgd1na2vs0mg"},{"bike_id":"a2151e8a-f146-4711-96eb-5d40d1aa7d3c","system_id":"levelo_inurba_marseille","lat":43.27413,"lon":5.39405,"is_reserved":false,"is_disabled":false,"rental_uris":{"android":"levelo://app?vid=a2151e8a-f146-4711-96eb-5d40d1aa7d3c","ios":"levelo://app?vid=a2151e8a-f146-4711-96eb-5d40d1aa7d3c"},"vehicle_type_id":"4","last_reported":1728735286,"current_range_meters":38800,"station_id":"ce4bhdp2rcd13ifvqf20","pricing_plan_id":"cebpf4jnsgd1na2vs0mg"},{"bike_id":"b931fec3-fda6-42a9-b0ee-a6527e614164","system_id":"levelo_inurba_marseille","lat":43.303143,"lon":5.396874,"is_reserved":false,"is_disabled":false,"rental_uris":{"android":"levelo://app?vid=b931fec3-fda6-42a9-b0ee-a6527e614164","ios":"levelo://app?vid=b931fec3-fda6-42a9-b0ee-a6527e614164"},"vehicle_type_id":"4","last_reported":1728735286,"current_range_meters":32000,"station_id":"ce4bh092rcd13ifvqd20","pricing_plan_id":"cebpf4jnsgd1na2vs0mg"},{"bike_id":"212023d1-fc7c-44f4-baf0-ec17ee91abdc","system_id":"levelo_inurba_marseille","lat":43.29613,"lon":5.37728,"is_reserved":false,"is_disabled":false,"rental_uris":{"android":"levelo://app?vid=212023d1-fc7c-44f4-baf0-ec17ee91abdc","ios":"levelo://app?vid=212023d1-fc7c-44f4-baf0-ec17ee91abdc"},"vehicle_type_id":"4","last_reported":1728735286,"current_range_meters":38000,"station_id":"ce4bgi92rcd13ifvqb90","pricing_plan_id":"cebpf4jnsgd1na2vs0mg"},{"bike_id":"dc9f9cea-ad2f-4298-9e59-4f4eac07ed0d","system_id":"levelo_inurba_marseille","lat":43.287,"lon":5.37393,"is_reserved":false,"is_disabled":false,"rental_uris":{"android":"levelo://app?vid=dc9f9cea-ad2f-4298-9e59-4f4eac07ed0d","ios":"levelo://app?vid=dc9f9cea-ad2f-4298-9e59-4f4eac07ed0d"},"vehicle_type_id":"4","last_reported":1728735286,"current_range_meters":38400,"station_id":"ce4bh3p2rcd13ifvqdq0","pricing_plan_id":"cebpf4jnsgd1na2vs0mg"},{"bike_id":"3ed1b6e2-23b7-45a4-87d2-fd2d94d25bd5","system_id":"levelo_inurba_marseille","lat":43.31085,"lon":5.42426,"is_reserved":false,"is_disabled":false,"rental_uris":{"android":"levelo://app?vid=3ed1b6e2-23b7-45a4-87d2-fd2d94d25bd5","ios":"levelo://app?vid=3ed1b6e2-23b7-45a4-87d2-fd2d94d25bd5"},"vehicle_type_id":"4","last_reported":1728735286,"current_range_meters":34000,"station_id":"ce4bhp92rcd13ifvqhag","pricing_plan_id":"cebpf4jnsgd1na2vs0mg"},{"bike_id":"b3b2de45-6e13-4551-8667-b0149c47447a","system_id":"levelo_inurba_marseille","lat":43.23156,"lon":5.437,"is_reserved":false,"is_disabled":false,"rental_uris":{"android":"levelo://app?vid=b3b2de45-6e13-4551-8667-b0149c47447a","ios":"levelo://app?vid=b3b2de45-6e13-4551-8667-b0149c47447a"},"vehicle_type_id":"4","last_reported":1728735286,"current_range_meters":21600,"station_id":"ce4bhmp2rcd13ifvqgog","pricing_plan_id":"cebpf4jnsgd1na2vs0mg"},{"bike_id":"2eed9705-6ea2-4796-a2f1-0dec0daffe1c","system_id":"levelo_inurba_marseille","lat":43.29035,"lon":5.38641,"is_reserved":false,"is_disabled":false,"rental_uris":{"android":"levelo://app?vid=2eed9705-6ea2-4796-a2f1-0dec0daffe1c","ios":"levelo://app?vid=2eed9705-6ea2-4796-a2f1-0dec0daffe1c"},"vehicle_type_id":"4","last_reported":1728735286,"current_range_meters":38000,"station_id":"ce4bh4p2rcd13ifvqe0g","pricing_plan_id":"cebpf4jnsgd1na2vs0mg"},{"bike_id":"c3214ad5-6c98-4a44-931f-b79669a3af9e","system_id":"levelo_inurba_marseille","lat":43.23185,"lon":5.3999,"is_reserved":false,"is_disabled":false,"rental_uris":{"android":"levelo://app?vid=c3214ad5-6c98-4a44-931f-b79669a3af9e","ios":"levelo://app?vid=c3214ad5-6c98-4a44-931f-b79669a3af9e"},"vehicle_type_id":"4","last_reported":1728735286,"current_range_meters":27600,"station_id":"ce4bhn12rcd13ifvqgqg","pricing_plan_id":"cebpf4jnsgd1na2vs0mg"},{"bike_id":"6ab39520-0321-46cc-ad67-40aca4f17d51","system_id":"levelo_inurba_marseille","lat":43.25863,"lon":5.39904,"is_reserved":false,"is_disabled":false,"rental_uris":{"android":"levelo://app?vid=6ab39520-0321-46cc-ad67-40aca4f17d51","ios":"levelo://app?vid=6ab39520-0321-46cc-ad67-40aca4f17d51"},"vehicle_type_id":"4","last_reported":1728735286,"current_range_meters":19600,"station_id":"ce4bhl92rcd13ifvqghg","pricing_plan_id":"cebpf4jnsgd1na2vs0mg"},{"bike_id":"7e5dff7c-5c8d-4cf6-b259-8b15591f4207","system_id":"levelo_inurba_marseille","lat":43.29616,"lon":5.37719,"is_reserved":false,"is_disabled":false,"rental_uris":{"android":"levelo://app?vid=7e5dff7c-5c8d-4cf6-b259-8b15591f4207","ios":"levelo://app?vid=7e5dff7c-5c8d-4cf6-b259-8b15591f4207"},"vehicle_type_id":"4","last_reported":1728735286,"current_range_meters":28000,"station_id":"ce4bgi92rcd13ifvqb90","pricing_plan_id":"cebpf4jnsgd1na2vs0mg"},{"bike_id":"2b3725ed-ee17-410e-925e-701f99ecc7f0","system_id":"levelo_inurba_marseille","lat":43.29613,"lon":5.37155,"is_reserved":false,"is_disabled":false,"rental_uris":{"android":"levelo://app?vid=2b3725ed-ee17-410e-925e-701f99ecc7f0","ios":"levelo://app?vid=2b3725ed-ee17-410e-925e-701f99ecc7f0"},"vehicle_type_id":"4","last_reported":1728735286,"current_range_meters":24800,"station_id":"ce4bgnh2rcd13ifvqc0g","pricing_plan_id":"cebpf4jnsgd1na2vs0mg"},{"bike_id":"19e0e40e-63be-4804-b3b8-2787230e9bca","system_id":"levelo_inurba_marseille","lat":43.29626,"lon":5.37174,"is_reserved":false,"is_disabled":false,"rental_uris":{"android":"levelo://app?vid=19e0e40e-63be-4804-b3b8-2787230e9bca","ios":"levelo://app?vid=19e0e40e-63be-4804-b3b8-2787230e9bca"},"vehicle_type_id":"4","last_reported":1728735286,"current_range_meters":38800,"station_id":"ce4bgnh2rcd13ifvqc0g","pricing_plan_id":"cebpf4jnsgd1na2vs0mg"},{"bike_id":"32f38e17-8f39-4a4a-80bd-feac0bc7b127","system_id":"levelo_inurba_marseille","lat":43.2695,"lon":5.38629,"is_reserved":false,"is_disabled":false,"rental_uris":{"android":"levelo://app?vid=32f38e17-8f39-4a4a-80bd-feac0bc7b127","ios":"levelo://app?vid=32f38e17-8f39-4a4a-80bd-feac0bc7b127"},"vehicle_type_id":"4","last_reported":1728735286,"current_range_meters":39200,"station_id":"ce4bhh92rcd13ifvqfh0","pricing_plan_id":"cebpf4jnsgd1na2vs0mg"},{"bike_id":"a3b990e1-d55b-440c-9480-31946d2d9e8e","system_id":"levelo_inurba_marseille","lat":43.29782,"lon":5.37094,"is_reserved":false,"is_disabled":false,"rental_uris":{"android":"levelo://app?vid=a3b990e1-d55b-440c-9480-31946d2d9e8e","ios":"levelo://app?vid=a3b990e1-d55b-440c-9480-31946d2d9e8e"},"vehicle_type_id":"4","last_reported":1728735286,"current_range_meters":38400,"station_id":"ce4bgop2rcd13ifvqc1g","pricing_plan_id":"cebpf4jnsgd1na2vs0mg"},{"bike_id":"bd47e671-be76-4318-a0cc-d475509bc7f6","system_id":"levelo_inurba_marseille","lat":43.27944,"lon":5.41043,"is_reserved":false,"is_disabled":false,"rental_uris":{"android":"levelo://app?vid=bd47e671-be76-4318-a0cc-d475509bc7f6","ios":"levelo://app?vid=bd47e671-be76-4318-a0cc-d475509bc7f6"},"vehicle_type_id":"4","last_reported":1728735286,"current_range_meters":28000,"station_id":"ce4bhnp2rcd13ifvqh0g","pricing_plan_id":"cebpf4jnsgd1na2vs0mg"},{"bike_id":"c200c17d-7c78-4d6c-b25f-f691e2bd33c2","system_id":"levelo_inurba_marseille","lat":43.27807,"lon":5.40722,"is_reserved":false,"is_disabled":false,"rental_uris":{"android":"levelo://app?vid=c200c17d-7c78-4d6c-b25f-f691e2bd33c2","ios":"levelo://app?vid=c200c17d-7c78-4d6c-b25f-f691e2bd33c2"},"vehicle_type_id":"4","last_reported":1728735286,"current_range_meters":30000,"station_id":"ce4bhnh2rcd13ifvqgtg","pricing_plan_id":"cebpf4jnsgd1na2vs0mg"},{"bike_id":"c5161752-a4e2-454f-8fb8-26d44c035df3","system_id":"levelo_inurba_marseille","lat":43.26205,"lon":5.37921,"is_reserved":false,"is_disabled":false,"rental_uris":{"android":"levelo://app?vid=c5161752-a4e2-454f-8fb8-26d44c035df3","ios":"levelo://app?vid=c5161752-a4e2-454f-8fb8-26d44c035df3"},"vehicle_type_id":"4","last_reported":1728735286,"current_range_meters":28400,"station_id":"ce4bhjp2rcd13ifvqg90","pricing_plan_id":"cebpf4jnsgd1na2vs0mg"},{"bike_id":"092b0836-7fc6-4398-a8ce-013142346652","system_id":"levelo_inurba_marseille","lat":43.29549,"lon":5.42283,"is_reserved":false,"is_disabled":false,"rental_uris":{"android":"levelo://app?vid=092b0836-7fc6-4398-a8ce-013142346652","ios":"levelo://app?vid=092b0836-7fc6-4398-a8ce-013142346652"},"vehicle_type_id":"4","last_reported":1728735286,"current_range_meters":17200,"station_id":"ce4bhph2rcd13ifvqhdg","pricing_plan_id":"cebpf4jnsgd1na2vs0mg"},{"bike_id":"df5fdba9-521a-4fd3-8e79-b0ea11c297f6","system_id":"levelo_inurba_marseille","lat":43.25715,"lon":5.41116,"is_reserved":false,"is_disabled":false,"rental_uris":{"android":"levelo://app?vid=df5fdba9-521a-4fd3-8e79-b0ea11c297f6","ios":"levelo://app?vid=df5fdba9-521a-4fd3-8e79-b0ea11c297f6"},"vehicle_type_id":"4","last_reported":1728735286,"current_range_meters":37600,"station_id":"ce4bhkp2rcd13ifvqgd0","pricing_plan_id":"cebpf4jnsgd1na2vs0mg"},{"bike_id":"26a845b5-cfe6-4e37-b074-edb6bc175889","system_id":"levelo_inurba_marseille","lat":43.28932,"lon":5.36631,"is_reserved":false,"is_disabled":false,"rental_uris":{"android":"levelo://app?vid=26a845b5-cfe6-4e37-b074-edb6bc175889","ios":"levelo://app?vid=26a845b5-cfe6-4e37-b074-edb6bc175889"},"vehicle_type_id":"4","last_reported":1728735286,"current_range_meters":8800,"station_id":"ce4bhap2rcd13ifvqek0","pricing_plan_id":"cebpf4jnsgd1na2vs0mg"},{"bike_id":"6d9b905a-4715-4ad3-a082-161d5fcc64b2","system_id":"levelo_inurba_marseille","lat":43.30297,"lon":5.36896,"is_reserved":false,"is_disabled":false,"rental_uris":{"android":"levelo://app?vid=6d9b905a-4715-4ad3-a082-161d5fcc64b2","ios":"levelo://app?vid=6d9b905a-4715-4ad3-a082-161d5fcc64b2"},"vehicle_type_id":"4","last_reported":1728735286,"current_range_meters":29600,"station_id":"ce4bgqh2rcd13ifvqc5g","pricing_plan_id":"cebpf4jnsgd1na2vs0mg"},{"bike_id":"8a094d60-58b3-46d5-813b-9a9ebd068159","system_id":"levelo_inurba_marseille","lat":43.31999,"lon":5.38164,"is_reserved":false,"is_disabled":false,"rental_uris":{"android":"levelo://app?vid=8a094d60-58b3-46d5-813b-9a9ebd068159","ios":"levelo://app?vid=8a094d60-58b3-46d5-813b-9a9ebd068159"},"vehicle_type_id":"4","last_reported":1728735286,"current_range_meters":20000,"station_id":"ce4bhr12rcd13ifvqhpg","pricing_plan_id":"cebpf4jnsgd1na2vs0mg"},{"bike_id":"8f5ac828-8925-4526-9cfa-f8205da27bb2","system_id":"levelo_inurba_marseille","lat":43.23188,"lon":5.35547,"is_reserved":false,"is_disabled":false,"rental_uris":{"android":"levelo://app?vid=8f5ac828-8925-4526-9cfa-f8205da27bb2","ios":"levelo://app?vid=8f5ac828-8925-4526-9cfa-f8205da27bb2"},"vehicle_type_id":"4","last_reported":1728735286,"current_range_meters":33200,"station_id":"ce4bhu92rcd13ifvqi70","pricing_plan_id":"cebpf4jnsgd1na2vs0mg"},{"bike_id":"3f1b6789-37a7-4f55-98fe-aee8be4b8e81","system_id":"levelo_inurba_marseille","lat":43.26949,"lon":5.38622,"is_reserved":false,"is_disabled":false,"rental_uris":{"android":"levelo://app?vid=3f1b6789-37a7-4f55-98fe-aee8be4b8e81","ios":"levelo://app?vid=3f1b6789-37a7-4f55-98fe-aee8be4b8e81"},"vehicle_type_id":"4","last_reported":1728735286,"current_range_meters":6400,"station_id":"ce4bhh92rcd13ifvqfh0","pricing_plan_id":"cebpf4jnsgd1na2vs0mg"},{"bike_id":"c9ac7238-0b2c-40e0-a106-260f91f01c7e","system_id":"levelo_inurba_marseille","lat":43.30279,"lon":5.37698,"is_reserved":false,"is_disabled":false,"rental_uris":{"android":"levelo://app?vid=c9ac7238-0b2c-40e0-a106-260f91f01c7e","ios":"levelo://app?vid=c9ac7238-0b2c-40e0-a106-260f91f01c7e"},"vehicle_type_id":"4","last_reported":1728735286,"current_range_meters":28400,"station_id":"ce4bguh2rcd13ifvqcj0","pricing_plan_id":"cebpf4jnsgd1na2vs0mg"},{"bike_id":"ee83ab85-770e-4f6b-96e6-9bf35d9dac4a","system_id":"levelo_inurba_marseille","lat":43.30151,"lon":5.38079,"is_reserved":false,"is_disabled":false,"rental_uris":{"android":"levelo://app?vid=ee83ab85-770e-4f6b-96e6-9bf35d9dac4a","ios":"levelo://app?vid=ee83ab85-770e-4f6b-96e6-9bf35d9dac4a"},"vehicle_type_id":"4","last_reported":1728735286,"current_range_meters":30800,"station_id":"ce4bgjp2rcd13ifvqbh0","pricing_plan_id":"cebpf4jnsgd1na2vs0mg"},{"bike_id":"ba683a66-bc5f-42b6-85bb-0f00dad8b260","system_id":"levelo_inurba_marseille","lat":43.26926,"lon":5.38909,"is_reserved":false,"is_disabled":false,"rental_uris":{"android":"levelo://app?vid=ba683a66-bc5f-42b6-85bb-0f00dad8b260","ios":"levelo://app?vid=ba683a66-bc5f-42b6-85bb-0f00dad8b260"},"vehicle_type_id":"4","last_reported":1728735286,"current_range_meters":39200,"station_id":"ce4bhhh2rcd13ifvqfl0","pricing_plan_id":"cebpf4jnsgd1na2vs0mg"},{"bike_id":"247429e2-e54a-4e87-97f9-657267224371","system_id":"levelo_inurba_marseille","lat":43.25506,"lon":5.37651,"is_reserved":false,"is_disabled":false,"rental_uris":{"android":"levelo://app?vid=247429e2-e54a-4e87-97f9-657267224371","ios":"levelo://app?vid=247429e2-e54a-4e87-97f9-657267224371"},"vehicle_type_id":"4","last_reported":1728735286,"current_range_meters":36400,"station_id":"ce4bhh12rcd13ifvqff0","pricing_plan_id":"cebpf4jnsgd1na2vs0mg"},{"bike_id":"dc4ed48c-9948-411b-a552-5449f72726e1","system_id":"levelo_inurba_marseille","lat":43.27813,"lon":5.40711,"is_reserved":false,"is_disabled":false,"rental_uris":{"android":"levelo://app?vid=dc4ed48c-9948-411b-a552-5449f72726e1","ios":"levelo://app?vid=dc4ed48c-9948-411b-a552-5449f72726e1"},"vehicle_type_id":"4","last_reported":1728735286,"current_range_meters":24400,"station_id":"ce4bhnh2rcd13ifvqgtg","pricing_plan_id":"cebpf4jnsgd1na2vs0mg"},{"bike_id":"5aa308dc-64e8-4103-a6f8-775a1f8bdf35","system_id":"levelo_inurba_marseille","lat":43.2737,"lon":5.36259,"is_reserved":false,"is_disabled":false,"rental_uris":{"android":"levelo://app?vid=5aa308dc-64e8-4103-a6f8-775a1f8bdf35","ios":"levelo://app?vid=5aa308dc-64e8-4103-a6f8-775a1f8bdf35"},"vehicle_type_id":"4","last_reported":1728735286,"current_range_meters":7200,"station_id":"ce4bhbh2rcd13ifvqeo0","pricing_plan_id":"cebpf4jnsgd1na2vs0mg"},{"bike_id":"1ea6b396-9f88-4204-a5b2-d675e42b06a1","system_id":"levelo_inurba_marseille","lat":43.309686,"lon":5.401561,"is_reserved":false,"is_disabled":false,"rental_uris":{"android":"levelo://app?vid=1ea6b396-9f88-4204-a5b2-d675e42b06a1","ios":"levelo://app?vid=1ea6b396-9f88-4204-a5b2-d675e42b06a1"},"vehicle_type_id":"4","last_reported":1728735286,"current_range_meters":24000,"station_id":"ce4bhs12rcd13ifvqhvg","pricing_plan_id":"cebpf4jnsgd1na2vs0mg"},{"bike_id":"aad69708-28ac-43e6-945e-619f5a7c6bfd","system_id":"levelo_inurba_marseille","lat":43.33781,"lon":5.37443,"is_reserved":false,"is_disabled":false,"rental_uris":{"android":"levelo://app?vid=aad69708-28ac-43e6-945e-619f5a7c6bfd","ios":"levelo://app?vid=aad69708-28ac-43e6-945e-619f5a7c6bfd"},"vehicle_type_id":"4","last_reported":1728735286,"current_range_meters":38000,"station_id":"","pricing_plan_id":"cebpf4jnsgd1na2vs0mg"},{"bike_id":"5f16d64a-6e79-4871-83fb-dcbb9016756d","system_id":"levelo_inurba_marseille","lat":43.26026,"lon":5.37545,"is_reserved":false,"is_disabled":false,"rental_uris":{"android":"levelo://app?vid=5f16d64a-6e79-4871-83fb-dcbb9016756d","ios":"levelo://app?vid=5f16d64a-6e79-4871-83fb-dcbb9016756d"},"vehicle_type_id":"4","last_reported":1728735286,"current_range_meters":11600,"station_id":"ce4bhgh2rcd13ifvqfa0","pricing_plan_id":"cebpf4jnsgd1na2vs0mg"},{"bike_id":"d86cc907-c6ce-4044-b204-270be9656b02","system_id":"levelo_inurba_marseille","lat":43.28929,"lon":5.36633,"is_reserved":false,"is_disabled":false,"rental_uris":{"android":"levelo://app?vid=d86cc907-c6ce-4044-b204-270be9656b02","ios":"levelo://app?vid=d86cc907-c6ce-4044-b204-270be9656b02"},"vehicle_type_id":"4","last_reported":1728735286,"current_range_meters":37600,"station_id":"ce4bhap2rcd13ifvqek0","pricing_plan_id":"cebpf4jnsgd1na2vs0mg"},{"bike_id":"44fb10d5-87e1-4261-855d-f615078a62b2","system_id":"levelo_inurba_marseille","lat":43.28419,"lon":5.34989,"is_reserved":false,"is_disabled":false,"rental_uris":{"android":"levelo://app?vid=44fb10d5-87e1-4261-855d-f615078a62b2","ios":"levelo://app?vid=44fb10d5-87e1-4261-855d-f615078a62b2"},"vehicle_type_id":"4","last_reported":1728735286,"current_range_meters":8400,"station_id":"ce4bhbh2rcd13ifvqepg","pricing_plan_id":"cebpf4jnsgd1na2vs0mg"},{"bike_id":"51db7613-d741-4eee-9ab2-4b355384e9cc","system_id":"levelo_inurba_marseille","lat":43.287109,"lon":5.379277,"is_reserved":false,"is_disabled":false,"rental_uris":{"android":"levelo://app?vid=51db7613-d741-4eee-9ab2-4b355384e9cc","ios":"levelo://app?vid=51db7613-d741-4eee-9ab2-4b355384e9cc"},"vehicle_type_id":"4","last_reported":1728735286,"current_range_meters":21600,"station_id":"ce4bh9p2rcd13ifvqec0","pricing_plan_id":"cebpf4jnsgd1na2vs0mg"},{"bike_id":"fa788d65-ef44-407c-8d29-e3cbbca2e385","system_id":"levelo_inurba_marseille","lat":43.31071,"lon":5.40089,"is_reserved":false,"is_disabled":false,"rental_uris":{"android":"levelo://app?vid=fa788d65-ef44-407c-8d29-e3cbbca2e385","ios":"levelo://app?vid=fa788d65-ef44-407c-8d29-e3cbbca2e385"},"vehicle_type_id":"4","last_reported":1728735286,"current_range_meters":5600,"station_id":"ce4bgvp2rcd13ifvqct0","pricing_plan_id":"cebpf4jnsgd1na2vs0mg"},{"bike_id":"65e3f0e4-9564-464e-af9b-959f97352d44","system_id":"levelo_inurba_marseille","lat":43.2907,"lon":5.37173,"is_reserved":false,"is_disabled":false,"rental_uris":{"android":"levelo://app?vid=65e3f0e4-9564-464e-af9b-959f97352d44","ios":"levelo://app?vid=65e3f0e4-9564-464e-af9b-959f97352d44"},"vehicle_type_id":"4","last_reported":1728735286,"current_range_meters":36800,"station_id":"ce4bh5p2rcd13ifvqe4g","pricing_plan_id":"cebpf4jnsgd1na2vs0mg"},{"bike_id":"af07e446-e125-49f2-9bb0-48931aead22f","system_id":"levelo_inurba_marseille","lat":43.25124,"lon":5.40313,"is_reserved":false,"is_disabled":false,"rental_uris":{"android":"levelo://app?vid=af07e446-e125-49f2-9bb0-48931aead22f","ios":"levelo://app?vid=af07e446-e125-49f2-9bb0-48931aead22f"},"vehicle_type_id":"4","last_reported":1728735286,"current_range_meters":28000,"station_id":"ce4bhlh2rcd13ifvqgig","pricing_plan_id":"cebpf4jnsgd1na2vs0mg"},{"bike_id":"9788b8bb-f380-41cc-a95a-f7c89dd2c8c5","system_id":"levelo_inurba_marseille","lat":43.27438,"lon":5.39415,"is_reserved":false,"is_disabled":false,"rental_uris":{"android":"levelo://app?vid=9788b8bb-f380-41cc-a95a-f7c89dd2c8c5","ios":"levelo://app?vid=9788b8bb-f380-41cc-a95a-f7c89dd2c8c5"},"vehicle_type_id":"4","last_reported":1728735286,"current_range_meters":31200,"station_id":"ce4bhdp2rcd13ifvqf20","pricing_plan_id":"cebpf4jnsgd1na2vs0mg"},{"bike_id":"a4af2b0e-ff4b-48e8-8ddc-0ea214c7b493","system_id":"levelo_inurba_marseille","lat":43.26682,"lon":5.38268,"is_reserved":false,"is_disabled":false,"rental_uris":{"android":"levelo://app?vid=a4af2b0e-ff4b-48e8-8ddc-0ea214c7b493","ios":"levelo://app?vid=a4af2b0e-ff4b-48e8-8ddc-0ea214c7b493"},"vehicle_type_id":"4","last_reported":1728735286,"current_range_meters":38000,"station_id":"ce4bhg92rcd13ifvqf90","pricing_plan_id":"cebpf4jnsgd1na2vs0mg"},{"bike_id":"8509fa5d-c6d9-4cb2-b4b1-4f2065b2666e","system_id":"levelo_inurba_marseille","lat":43.2834,"lon":5.41056,"is_reserved":false,"is_disabled":false,"rental_uris":{"android":"levelo://app?vid=8509fa5d-c6d9-4cb2-b4b1-4f2065b2666e","ios":"levelo://app?vid=8509fa5d-c6d9-4cb2-b4b1-4f2065b2666e"},"vehicle_type_id":"4","last_reported":1728735286,"current_range_meters":4400,"station_id":"","pricing_plan_id":"cebpf4jnsgd1na2vs0mg"},{"bike_id":"c81fe518-cf00-4b26-a3a2-c118bd055894","system_id":"levelo_inurba_marseille","lat":43.24389,"lon":5.37055,"is_reserved":false,"is_disabled":false,"rental_uris":{"android":"levelo://app?vid=c81fe518-cf00-4b26-a3a2-c118bd055894","ios":"levelo://app?vid=c81fe518-cf00-4b26-a3a2-c118bd055894"},"vehicle_type_id":"4","last_reported":1728735286,"current_range_meters":23200,"station_id":"ce4bhhh2rcd13ifvqfk0","pricing_plan_id":"cebpf4jnsgd1na2vs0mg"},{"bike_id":"180d40df-d8c4-4c5f-adf9-3f112b734abc","system_id":"levelo_inurba_marseille","lat":43.33602,"lon":5.41034,"is_reserved":false,"is_disabled":false,"rental_uris":{"android":"levelo://app?vid=180d40df-d8c4-4c5f-adf9-3f112b734abc","ios":"levelo://app?vid=180d40df-d8c4-4c5f-adf9-3f112b734abc"},"vehicle_type_id":"4","last_reported":1728735286,"current_range_meters":6800,"station_id":"ce4bhqh2rcd13ifvqhmg","pricing_plan_id":"cebpf4jnsgd1na2vs0mg"},{"bike_id":"ec23b60f-d12b-450b-8d53-9d20e1c693cd","system_id":"levelo_inurba_marseille","lat":43.284241,"lon":5.349949,"is_reserved":false,"is_disabled":false,"rental_uris":{"android":"levelo://app?vid=ec23b60f-d12b-450b-8d53-9d20e1c693cd","ios":"levelo://app?vid=ec23b60f-d12b-450b-8d53-9d20e1c693cd"},"vehicle_type_id":"4","last_reported":1728735286,"current_range_meters":32000,"station_id":"ce4bhbh2rcd13ifvqepg","pricing_plan_id":"cebpf4jnsgd1na2vs0mg"},{"bike_id":"087f0942-c4f9-4849-84d2-f966e863446b","system_id":"levelo_inurba_marseille","lat":43.26805,"lon":5.40269,"is_reserved":false,"is_disabled":false,"rental_uris":{"android":"levelo://app?vid=087f0942-c4f9-4849-84d2-f966e863446b","ios":"levelo://app?vid=087f0942-c4f9-4849-84d2-f966e863446b"},"vehicle_type_id":"4","last_reported":1728735286,"current_range_meters":38800,"station_id":"ce501612rcd8frsf0b60","pricing_plan_id":"cebpf4jnsgd1na2vs0mg"},{"bike_id":"27311a75-ebb6-43d6-9fb5-f3ba72a10e0e","system_id":"levelo_inurba_marseille","lat":43.299,"lon":5.43662,"is_reserved":false,"is_disabled":false,"rental_uris":{"android":"levelo://app?vid=27311a75-ebb6-43d6-9fb5-f3ba72a10e0e","ios":"levelo://app?vid=27311a75-ebb6-43d6-9fb5-f3ba72a10e0e"},"vehicle_type_id":"4","last_reported":1728735286,"current_range_meters":24400,"station_id":"ce4bhpp2rcd13ifvqhfg","pricing_plan_id":"cebpf4jnsgd1na2vs0mg"},{"bike_id":"6d9df09d-d75b-4bd5-95b7-d1ac21001917","system_id":"levelo_inurba_marseille","lat":43.27813,"lon":5.4071,"is_reserved":false,"is_disabled":false,"rental_uris":{"android":"levelo://app?vid=6d9df09d-d75b-4bd5-95b7-d1ac21001917","ios":"levelo://app?vid=6d9df09d-d75b-4bd5-95b7-d1ac21001917"},"vehicle_type_id":"4","last_reported":1728735286,"current_range_meters":38800,"station_id":"ce4bhnh2rcd13ifvqgtg","pricing_plan_id":"cebpf4jnsgd1na2vs0mg"},{"bike_id":"4aa20ab4-28b5-40bb-8654-d675d6770a7e","system_id":"levelo_inurba_marseille","lat":43.26951,"lon":5.38628,"is_reserved":false,"is_disabled":false,"rental_uris":{"android":"levelo://app?vid=4aa20ab4-28b5-40bb-8654-d675d6770a7e","ios":"levelo://app?vid=4aa20ab4-28b5-40bb-8654-d675d6770a7e"},"vehicle_type_id":"4","last_reported":1728735286,"current_range_meters":12000,"station_id":"ce4bhh92rcd13ifvqfh0","pricing_plan_id":"cebpf4jnsgd1na2vs0mg"},{"bike_id":"2e981c6a-f9ae-47ee-9f68-f5e01ac79f66","system_id":"levelo_inurba_marseille","lat":43.29247,"lon":5.38443,"is_reserved":false,"is_disabled":false,"rental_uris":{"android":"levelo://app?vid=2e981c6a-f9ae-47ee-9f68-f5e01ac79f66","ios":"levelo://app?vid=2e981c6a-f9ae-47ee-9f68-f5e01ac79f66"},"vehicle_type_id":"4","last_reported":1728735286,"current_range_meters":36000,"station_id":"ce4bh2p2rcd13ifvqdi0","pricing_plan_id":"cebpf4jnsgd1na2vs0mg"},{"bike_id":"09e28976-4858-47dc-b230-bbb81f2affa0","system_id":"levelo_inurba_marseille","lat":43.25816,"lon":5.3943,"is_reserved":false,"is_disabled":false,"rental_uris":{"android":"levelo://app?vid=09e28976-4858-47dc-b230-bbb81f2affa0","ios":"levelo://app?vid=09e28976-4858-47dc-b230-bbb81f2affa0"},"vehicle_type_id":"4","last_reported":1728735286,"current_range_meters":38400,"station_id":"ce4bhip2rcd13ifvqft0","pricing_plan_id":"cebpf4jnsgd1na2vs0mg"},{"bike_id":"d4778b15-7841-4ee2-ad7f-5ac131c61656","system_id":"levelo_inurba_marseille","lat":43.302034,"lon":5.392959,"is_reserved":false,"is_disabled":false,"rental_uris":{"android":"levelo://app?vid=d4778b15-7841-4ee2-ad7f-5ac131c61656","ios":"levelo://app?vid=d4778b15-7841-4ee2-ad7f-5ac131c61656"},"vehicle_type_id":"4","last_reported":1728735286,"current_range_meters":38000,"station_id":"ce4bgkh2rcd13ifvqbk0","pricing_plan_id":"cebpf4jnsgd1na2vs0mg"},{"bike_id":"d1b2f025-c4b3-41c5-94ba-0993fc5164b0","system_id":"levelo_inurba_marseille","lat":43.257507,"lon":5.394338,"is_reserved":false,"is_disabled":false,"rental_uris":{"android":"levelo://app?vid=d1b2f025-c4b3-41c5-94ba-0993fc5164b0","ios":"levelo://app?vid=d1b2f025-c4b3-41c5-94ba-0993fc5164b0"},"vehicle_type_id":"4","last_reported":1728735286,"current_range_meters":22400,"station_id":"ce4bhip2rcd13ifvqft0","pricing_plan_id":"cebpf4jnsgd1na2vs0mg"},{"bike_id":"046b4021-8e5d-430a-a9ac-420e19eaab79","system_id":"levelo_inurba_marseille","lat":43.30535,"lon":5.36532,"is_reserved":false,"is_disabled":false,"rental_uris":{"android":"levelo://app?vid=046b4021-8e5d-430a-a9ac-420e19eaab79","ios":"levelo://app?vid=046b4021-8e5d-430a-a9ac-420e19eaab79"},"vehicle_type_id":"4","last_reported":1728735286,"current_range_meters":39200,"station_id":"ce4bgs12rcd13ifvqcag","pricing_plan_id":"cebpf4jnsgd1na2vs0mg"},{"bike_id":"f2bc7c72-07cd-495a-857d-31dd447367e2","system_id":"levelo_inurba_marseille","lat":43.31167,"lon":5.38719,"is_reserved":false,"is_disabled":false,"rental_uris":{"android":"levelo://app?vid=f2bc7c72-07cd-495a-857d-31dd447367e2","ios":"levelo://app?vid=f2bc7c72-07cd-495a-857d-31dd447367e2"},"vehicle_type_id":"4","last_reported":1728735286,"current_range_meters":6000,"station_id":"ce4bgv12rcd13ifvqcp0","pricing_plan_id":"cebpf4jnsgd1na2vs0mg"},{"bike_id":"f0aa32d8-4ddd-496a-9571-e8bae9de7c44","system_id":"levelo_inurba_marseille","lat":43.27147,"lon":5.386,"is_reserved":false,"is_disabled":false,"rental_uris":{"android":"levelo://app?vid=f0aa32d8-4ddd-496a-9571-e8bae9de7c44","ios":"levelo://app?vid=f0aa32d8-4ddd-496a-9571-e8bae9de7c44"},"vehicle_type_id":"4","last_reported":1728735286,"current_range_meters":15200,"station_id":"","pricing_plan_id":"cebpf4jnsgd1na2vs0mg"},{"bike_id":"592bbfa3-2171-4d99-8436-5aaceb567718","system_id":"levelo_inurba_marseille","lat":43.32805,"lon":5.38774,"is_reserved":false,"is_disabled":false,"rental_uris":{"android":"levelo://app?vid=592bbfa3-2171-4d99-8436-5aaceb567718","ios":"levelo://app?vid=592bbfa3-2171-4d99-8436-5aaceb567718"},"vehicle_type_id":"4","last_reported":1728735286,"current_range_meters":3600,"station_id":"","pricing_plan_id":"cebpf4jnsgd1na2vs0mg"},{"bike_id":"3b2e55c3-662a-40b8-9774-1a39486344eb","system_id":"levelo_inurba_marseille","lat":43.32535,"lon":5.41448,"is_reserved":false,"is_disabled":false,"rental_uris":{"android":"levelo://app?vid=3b2e55c3-662a-40b8-9774-1a39486344eb","ios":"levelo://app?vid=3b2e55c3-662a-40b8-9774-1a39486344eb"},"vehicle_type_id":"4","last_reported":1728735286,"current_range_meters":6000,"station_id":"ce4bhq12rcd13ifvqhhg","pricing_plan_id":"cebpf4jnsgd1na2vs0mg"},{"bike_id":"7b8b9ab6-4bfa-4231-b390-c586e03f722b","system_id":"levelo_inurba_marseille","lat":43.25869,"lon":5.39899,"is_reserved":false,"is_disabled":false,"rental_uris":{"android":"levelo://app?vid=7b8b9ab6-4bfa-4231-b390-c586e03f722b","ios":"levelo://app?vid=7b8b9ab6-4bfa-4231-b390-c586e03f722b"},"vehicle_type_id":"4","last_reported":1728735286,"current_range_meters":32400,"station_id":"ce4bhl92rcd13ifvqghg","pricing_plan_id":"cebpf4jnsgd1na2vs0mg"},{"bike_id":"3d99cfee-6423-4f9e-b86f-7e100a0262ee","system_id":"levelo_inurba_marseille","lat":43.303,"lon":5.36892,"is_reserved":false,"is_disabled":false,"rental_uris":{"android":"levelo://app?vid=3d99cfee-6423-4f9e-b86f-7e100a0262ee","ios":"levelo://app?vid=3d99cfee-6423-4f9e-b86f-7e100a0262ee"},"vehicle_type_id":"4","last_reported":1728735286,"current_range_meters":18800,"station_id":"ce4bgqh2rcd13ifvqc5g","pricing_plan_id":"cebpf4jnsgd1na2vs0mg"},{"bike_id":"72fa6445-d318-4eab-b98f-eb6a89d5c773","system_id":"levelo_inurba_marseille","lat":43.31707,"lon":5.43701,"is_reserved":false,"is_disabled":false,"rental_uris":{"android":"levelo://app?vid=72fa6445-d318-4eab-b98f-eb6a89d5c773","ios":"levelo://app?vid=72fa6445-d318-4eab-b98f-eb6a89d5c773"},"vehicle_type_id":"4","last_reported":1728735286,"current_range_meters":9600,"station_id":"ce4bhp92rcd13ifvqhcg","pricing_plan_id":"cebpf4jnsgd1na2vs0mg"},{"bike_id":"6595f54b-dac2-45c9-81e6-9f7a513dfd55","system_id":"levelo_inurba_marseille","lat":43.2962,"lon":5.37168,"is_reserved":false,"is_disabled":false,"rental_uris":{"android":"levelo://app?vid=6595f54b-dac2-45c9-81e6-9f7a513dfd55","ios":"levelo://app?vid=6595f54b-dac2-45c9-81e6-9f7a513dfd55"},"vehicle_type_id":"4","last_reported":1728735286,"current_range_meters":37600,"station_id":"ce4bgnh2rcd13ifvqc0g","pricing_plan_id":"cebpf4jnsgd1na2vs0mg"},{"bike_id":"ed3283e1-f33d-4064-9c21-30dfa73ca494","system_id":"levelo_inurba_marseille","lat":43.25505,"lon":5.3765,"is_reserved":false,"is_disabled":false,"rental_uris":{"android":"levelo://app?vid=ed3283e1-f33d-4064-9c21-30dfa73ca494","ios":"levelo://app?vid=ed3283e1-f33d-4064-9c21-30dfa73ca494"},"vehicle_type_id":"4","last_reported":1728735286,"current_range_meters":30800,"station_id":"ce4bhh12rcd13ifvqff0","pricing_plan_id":"cebpf4jnsgd1na2vs0mg"},{"bike_id":"f8d023de-be2b-4cde-a045-42d21fdf53e2","system_id":"levelo_inurba_marseille","lat":43.25008,"lon":5.38912,"is_reserved":false,"is_disabled":false,"rental_uris":{"android":"levelo://app?vid=f8d023de-be2b-4cde-a045-42d21fdf53e2","ios":"levelo://app?vid=f8d023de-be2b-4cde-a045-42d21fdf53e2"},"vehicle_type_id":"4","last_reported":1728735286,"current_range_meters":38400,"station_id":"ce4bhgp2rcd13ifvqfd0","pricing_plan_id":"cebpf4jnsgd1na2vs0mg"},{"bike_id":"b8ef33ff-382f-441c-9f52-5fb5f889b212","system_id":"levelo_inurba_marseille","lat":43.30149,"lon":5.38086,"is_reserved":false,"is_disabled":false,"rental_uris":{"android":"levelo://app?vid=b8ef33ff-382f-441c-9f52-5fb5f889b212","ios":"levelo://app?vid=b8ef33ff-382f-441c-9f52-5fb5f889b212"},"vehicle_type_id":"4","last_reported":1728735286,"current_range_meters":28800,"station_id":"ce4bgjp2rcd13ifvqbh0","pricing_plan_id":"cebpf4jnsgd1na2vs0mg"},{"bike_id":"0ef416da-4160-4857-82ea-382df4b3ab1b","system_id":"levelo_inurba_marseille","lat":43.25584,"lon":5.38227,"is_reserved":false,"is_disabled":false,"rental_uris":{"android":"levelo://app?vid=0ef416da-4160-4857-82ea-382df4b3ab1b","ios":"levelo://app?vid=0ef416da-4160-4857-82ea-382df4b3ab1b"},"vehicle_type_id":"4","last_reported":1728735286,"current_range_meters":24400,"station_id":"ce4bhih2rcd13ifvqfs0","pricing_plan_id":"cebpf4jnsgd1na2vs0mg"},