{"last_updated":1761588999,"ttl":60,"version":"2.2","data":{"bikes":[{"bike_id":"641ce5a1-a2af-42f5-86d3-02a2312cb1fe","system_id":"levelo_inurba_marseille","lat":43.29592,"lon":5.38108,"is_reserved":false,"is_disabled":false,"rental_uris":{"android":"levelo://app?vid=641ce5a1-a2af-42f5-86d3-02a2312cb1fe","ios":"levelo://app?vid=641ce5a1-a2af-42f5-86d3-02a2312cb1fe"},"vehicle_type_id":"4","last_reported":1761588999,"current_range_meters":2800,"station_id":"ce4bgl12rcd13ifvqbo0","pricing_plan_id":"cebpf4jnsgd1na2vs0mg"},{"bike_id":"26077e2e-7758-4207-8102-d76362714584","system_id":"levelo_inurba_marseille","lat":43.28661,"lon":5.38657,"is_reserved":false,"is_disabled":false,"rental_uris":{"android":"levelo://app?vid=26077e2e-7758-4207-8102-d76362714584","ios":"levelo://app?vid=26077e2e-7758-4207-8102-d76362714584"},"vehicle_type_id":"4","last_reported":1761588999,"current_range_meters":2800,"station_id":"ce4bh492rcd13ifvqdug","pricing_plan_id":"cebpf4jnsgd1na2vs0mg"},{"bike_id":"b5654d56-6414-4bef-ac7f-e51db0ecfce7","system_id":"levelo_inurba_marseille","lat":43.270553,"lon":5.402592,"is_reserved":false,"is_disabled":false,"rental_uris":{"android":"levelo://app?vid=b5654d56-6414-4bef-ac7f-e51db0ecfce7","ios":"levelo://app?vid=b5654d56-6414-4bef-ac7f-e51db0ecfce7"},"vehicle_type_id":"4","last_reported":1761588999,"current_range_meters":2800,"station_id":"ce4bhh12rcd13ifvqff0","pricing_plan_id":"cebpf4jnsgd1na2vs0mg"},{"bike_id":"1b43fb88-d017-4c7b-b898-8109abe8fe91","system_id":"levelo_inurba_marseille","lat":43.31712,"lon":5.43708,"is_reserved":false,"is_disabled":false,"rental_uris":{"android":"levelo://app?vid=1b43fb88-d017-4c7b-b898-8109abe8fe91","ios":"levelo://app?vid=1b43fb88-d017-4c7b-b898-8109abe8fe91"},"vehicle_type_id":"4","last_reported":1761588999,"current_range_meters":2800,"station_id":"ce4bhp92rcd13ifvqhcg","pricing_plan_id":"cebpf4jnsgd1na2vs0mg"},{"bike_id":"7d9fe472-87b5-45e4-bea1-31eb467f9827","system_id":"levelo_inurba_marseille","lat":43.30424,"lon":5.38898,"is_reserved":false,"is_disabled":false,"rental_uris":{"android":"levelo://app?vid=7d9fe472-87b5-45e4-bea1-31eb467f9827","ios":"levelo://app?vid=7d9fe472-87b5-45e4-bea1-31eb467f9827"},"vehicle_type_id":"4","last_reported":1761588999,"current_range_meters":2800,"station_id":"ce4bgk12rcd13ifvqbi0","pricing_plan_id":"cebpf4jnsgd1na2vs0mg"},{"bike_id":"8076875f-1f2e-4461-8286-c3598365b078","system_id":"levelo_inurba_marseille","lat":43.29528,"lon":5.385412,"is_reserved":false,"is_disabled":false,"rental_uris":{"android":"levelo://app?vid=8076875f-1f2e-4461-8286-c3598365b078","ios":"levelo://app?vid=8076875f-1f2e-4461-8286-c3598365b078"},"vehicle_type_id":"4","last_reported":1761588999,"current_range_meters":2800,"station_id":"ce4bgih2rcd13ifvqba0","pricing_plan_id":"cebpf4jnsgd1na2vs0mg"},{"bike_id":"44aff561-0aa7-4ed3-8394-3d4eb76aadfb","system_id":"levelo_inurba_marseille","lat":43.311627,"lon":5.387254,"is_reserved":false,"is_disabled":false,"rental_uris":{"android":"levelo://app?vid=44aff561-0aa7-4ed3-8394-3d4eb76aadfb","ios":"levelo://app?vid=44aff561-0aa7-4ed3-8394-3d4eb76aadfb"},"vehicle_type_id":"4","last_reported":1761588999,"current_range_meters":3200,"station_id":"ce4bgv12rcd13ifvqcp0","pricing_plan_id":"cebpf4jnsgd1na2vs0mg"},{"bike_id":"e65ad582-942c-4eeb-8eb3-c2975b91e640","system_id":"levelo_inurba_marseille","lat":43.29314,"lon":5.37168,"is_reserved":false,"is_disabled":false,"rental_uris":{"android":"levelo://app?vid=e65ad582-942c-4eeb-8eb3-c2975b91e640","ios":"levelo://app?vid=e65ad582-942c-4eeb-8eb3-c2975b91e640"},"vehicle_type_id":"4","last_reported":1761588999,"current_range_meters":3200,"station_id":"ce4bgh92rcd13ifvqb40","pricing_plan_id":"cebpf4jnsgd1na2vs0mg"},{"bike_id":"e8a883c1-ae58-45f0-97a7-d9368c4b611d","system_id":"levelo_inurba_marseille","lat":43.28537,"lon":5.44095,"is_reserved":false,"is_disabled":false,"rental_uris":{"android":"levelo://app?vid=e8a883c1-ae58-45f0-97a7-d9368c4b611d","ios":"levelo://app?vid=e8a883c1-ae58-45f0-97a7-d9368c4b611d"},"vehicle_type_id":"4","last_reported":1761588999,"current_range_meters":3200,"station_id":"st_d3j3df2ikq2c7380ej80","pricing_plan_id":"cebpf4jnsgd1na2vs0mg"},{"bike_id":"5d149a70-7e34-4f10-aa42-9c63fd53c25a","system_id":"levelo_inurba_marseille","lat":43.3054,"lon":5.36721,"is_reserved":false,"is_disabled":false,"rental_uris":{"android":"levelo://app?vid=5d149a70-7e34-4f10-aa42-9c63fd53c25a","ios":"levelo://app?vid=5d149a70-7e34-4f10-aa42-9c63fd53c25a"},"vehicle_type_id":"4","last_reported":1761588999,"current_range_meters":3200,"station_id":"ce4bgrp2rcd13ifvqc9g","pricing_plan_id":"cebpf4jnsgd1na2vs0mg"},{"bike_id":"69880247-38f2-48e7-ab49-326f3d5eca30","system_id":"levelo_inurba_marseille","lat":43.21203,"lon":5.35075,"is_reserved":false,"is_disabled":false,"rental_uris":{"android":"levelo://app?vid=69880247-38f2-48e7-ab49-326f3d5eca30","ios":"levelo://app?vid=69880247-38f2-48e7-ab49-326f3d5eca30"},"vehicle_type_id":"4","last_reported":1761588999,"current_range_meters":3200,"station_id":"st_cvj6sg6p6f1abm77japg","pricing_plan_id":"cebpf4jnsgd1na2vs0mg"},{"bike_id":"87bf237d-7f90-40a6-aa6e-586049f46f40","system_id":"levelo_inurba_marseille","lat":43.29526,"lon":5.38544,"is_reserved":false,"is_disabled":false,"rental_uris":{"android":"levelo://app?vid=87bf237d-7f90-40a6-aa6e-586049f46f40","ios":"levelo://app?vid=87bf237d-7f90-40a6-aa6e-586049f46f40"},"vehicle_type_id":"4","last_reported":1761588999,"current_range_meters":3200,"station_id":"ce4bgih2rcd13ifvqba0","pricing_plan_id":"cebpf4jnsgd1na2vs0mg"},{"bike_id":"7c5b204d-b4dd-40eb-a727-4911644bfcb0","system_id":"levelo_inurba_marseille","lat":43.27949,"lon":5.41056,"is_reserved":false,"is_disabled":false,"rental_uris":{"android":"levelo://app?vid=7c5b204d-b4dd-40eb-a727-4911644bfcb0","ios":"levelo://app?vid=7c5b204d-b4dd-40eb-a727-4911644bfcb0"},"vehicle_type_id":"4","last_reported":1761588999,"current_range_meters":3200,"station_id":"ce4bhnp2rcd13ifvqh0g","pricing_plan_id":"cebpf4jnsgd1na2vs0mg"},{"bike_id":"5bf7198e-d7a7-41bd-a421-57671722c783","system_id":"levelo_inurba_marseille","lat":43.28579,"lon":5.39488,"is_reserved":false,"is_disabled":false,"rental_uris":{"android":"levelo://app?vid=5bf7198e-d7a7-41bd-a421-57671722c783","ios":"levelo://app?vid=5bf7198e-d7a7-41bd-a421-57671722c783"},"vehicle_type_id":"4","last_reported":1761588999,"current_range_meters":3600,"station_id":"ce4bh292rcd13ifvqdg0","pricing_plan_id":"cebpf4jnsgd1na2vs0mg"},{"bike_id":"8ef3f728-5299-4f96-8078-a5694ac4399d","system_id":"levelo_inurba_marseille","lat":43.24661,"lon":5.38162,"is_reserved":false,"is_disabled":false,"rental_uris":{"android":"levelo://app?vid=8ef3f728-5299-4f96-8078-a5694ac4399d","ios":"levelo://app?vid=8ef3f728-5299-4f96-8078-a5694ac4399d"},"vehicle_type_id":"4","last_reported":1761588999,"current_range_meters":3600,"station_id":"ce4bhih2rcd13ifvqfr0","pricing_plan_id":"cebpf4jnsgd1na2vs0mg"},{"bike_id":"29af3674-8be2-4308-83fc-b2306e3e07a2","system_id":"levelo_inurba_marseille","lat":43.30461,"lon":5.37904,"is_reserved":false,"is_disabled":false,"rental_uris":{"android":"levelo://app?vid=29af3674-8be2-4308-83fc-b2306e3e07a2","ios":"levelo://app?vid=29af3674-8be2-4308-83fc-b2306e3e07a2"},"vehicle_type_id":"4","last_reported":1761588999,"current_range_meters":3600,"station_id":"ce4bgup2rcd13ifvqcn0","pricing_plan_id":"cebpf4jnsgd1na2vs0mg"},{"bike_id":"27497e9e-a315-4973-a119-b689267fd71e","system_id":"levelo_inurba_marseille","lat":43.29534,"lon":5.36514,"is_reserved":false,"is_disabled":false,"rental_uris":{"android":"levelo://app?vid=27497e9e-a315-4973-a119-b689267fd71e","ios":"levelo://app?vid=27497e9e-a315-4973-a119-b689267fd71e"},"vehicle_type_id":"4","last_reported":1761588999,"current_range_meters":4000,"station_id":"","pricing_plan_id":"cebpf4jnsgd1na2vs0mg"},{"bike_id":"43f205a2-e983-4614-8736-553bf1acc168","system_id":"levelo_inurba_marseille","lat":43.23777,"lon":5.36634,"is_reserved":false,"is_disabled":false,"rental_uris":{"android":"levelo://app?vid=43f205a2-e983-4614-8736-553bf1acc168","ios":"levelo://app?vid=43f205a2-e983-4614-8736-553bf1acc168"},"vehicle_type_id":"4","last_reported":1761588999,"current_range_meters":4000,"station_id":"st_d3nk18o9ro0c73en2l3g","pricing_plan_id":"cebpf4jnsgd1na2vs0mg"},{"bike_id":"b4a9b87c-0bd1-4fc7-8587-23a4101f3605","system_id":"levelo_inurba_marseille","lat":43.29018,"lon":5.3813,"is_reserved":false,"is_disabled":false,"rental_uris":{"android":"levelo://app?vid=b4a9b87c-0bd1-4fc7-8587-23a4101f3605","ios":"levelo://app?vid=b4a9b87c-0bd1-4fc7-8587-23a4101f3605"},"vehicle_type_id":"4","last_reported":1761588999,"current_range_meters":4400,"station_id":"ce4bh4p2rcd13ifvqe1g","pricing_plan_id":"cebpf4jnsgd1na2vs0mg"},{"bike_id":"2bdd6600-7918-46a9-bb40-46448f56a53d","system_id":"levelo_inurba_marseille","lat":43.27621,"lon":5.36104,"is_reserved":false,"is_disabled":false,"rental_uris":{"android":"levelo://app?vid=2bdd6600-7918-46a9-bb40-46448f56a53d","ios":"levelo://app?vid=2bdd6600-7918-46a9-bb40-46448f56a53d"},"vehicle_type_id":"4","last_reported":1761588999,"current_range_meters":4400,"station_id":"ce4bgj92rcd13ifvqbe0","pricing_plan_id":"cebpf4jnsgd1na2vs0mg"},{"bike_id":"584918a4-7cf6-4ceb-a7ab-5316895051b2","system_id":"levelo_inurba_marseille","lat":43.26059,"lon":5.394014,"is_reserved":false,"is_disabled":false,"rental_uris":{"android":"levelo://app?vid=584918a4-7cf6-4ceb-a7ab-5316895051b2","ios":"levelo://app?vid=584918a4-7cf6-4ceb-a7ab-5316895051b2"},"vehicle_type_id":"4","last_reported":1761588999,"current_range_meters":4400,"station_id":"ce4bhh92rcd13ifvqfj0","pricing_plan_id":"cebpf4jnsgd1na2vs0mg"},{"bike_id":"8f25a4f4-1d54-4223-8451-e52e2519bf5e","system_id":"levelo_inurba_marseille","lat":43.28844,"lon":5.3586,"is_reserved":false,"is_disabled":false,"rental_uris":{"android":"levelo://app?vid=8f25a4f4-1d54-4223-8451-e52e2519bf5e","ios":"levelo://app?vid=8f25a4f4-1d54-4223-8451-e52e2519bf5e"},"vehicle_type_id":"4","last_reported":1761588999,"current_range_meters":4400,"station_id":"ce4bhb12rcd13ifvqem0","pricing_plan_id":"cebpf4jnsgd1na2vs0mg"},{"bike_id":"3de3a4e4-73ff-4340-b808-45147ebfc1f2","system_id":"levelo_inurba_marseille","lat":43.29573,"lon":5.39981,"is_reserved":false,"is_disabled":false,"rental_uris":{"android":"levelo://app?vid=3de3a4e4-73ff-4340-b808-45147ebfc1f2","ios":"levelo://app?vid=3de3a4e4-73ff-4340-b808-45147ebfc1f2"},"vehicle_type_id":"4","last_reported":1761588999,"current_range_meters":4400,"station_id":"ce4bh312rcd13ifvqdj0","pricing_plan_id":"cebpf4jnsgd1na2vs0mg"},{"bike_id":"042a2bf9-3287-4200-b358-f4cd33c4515f","system_id":"levelo_inurba_marseille","lat":43.279982,"lon":5.416645,"is_reserved":false,"is_disabled":false,"rental_uris":{"android":"levelo://app?vid=042a2bf9-3287-4200-b358-f4cd33c4515f","ios":"levelo://app?vid=042a2bf9-3287-4200-b358-f4cd33c4515f"},"vehicle_type_id":"4","last_reported":1761588999,"current_range_meters":4400,"station_id":"ce4bho12rcd13ifvqh1g","pricing_plan_id":"cebpf4jnsgd1na2vs0mg"},{"bike_id":"92939e88-41eb-4aa4-9a69-245e2a923deb","system_id":"levelo_inurba_marseille","lat":43.30152,"lon":5.39874,"is_reserved":false,"is_disabled":false,"rental_uris":{"android":"levelo://app?vid=92939e88-41eb-4aa4-9a69-245e2a923deb","ios":"levelo://app?vid=92939e88-41eb-4aa4-9a69-245e2a923deb"},"vehicle_type_id":"4","last_reported":1761588999,"current_range_meters":4800,"station_id":"ce4bh0h2rcd13ifvqd40","pricing_plan_id":"cebpf4jnsgd1na2vs0mg"},{"bike_id":"6ee611b3-bf13-495e-a0dc-dfd1a8718271","system_id":"levelo_inurba_marseille","lat":43.29811,"lon":5.44055,"is_reserved":false,"is_disabled":false,"rental_uris":{"android":"levelo://app?vid=6ee611b3-bf13-495e-a0dc-dfd1a8718271","ios":"levelo://app?vid=6ee611b3-bf13-495e-a0dc-dfd1a8718271"},"vehicle_type_id":"4","last_reported":1761588999,"current_range_meters":4800,"station_id":"st_d3jp68qikq2c7381ktn0","pricing_plan_id":"cebpf4jnsgd1na2vs0mg"},{"bike_id":"19bae683-4b3f-46b0-b81d-3e7a4914c442","system_id":"levelo_inurba_marseille","lat":43.31344,"lon":5.36717,"is_reserved":false,"is_disabled":false,"rental_uris":{"android":"levelo://app?vid=19bae683-4b3f-46b0-b81d-3e7a4914c442","ios":"levelo://app?vid=19bae683-4b3f-46b0-b81d-3e7a4914c442"},"vehicle_type_id":"4","last_reported":1761588999,"current_range_meters":4800,"station_id":"ce4bgr92rcd13ifvqc6g","pricing_plan_id":"cebpf4jnsgd1na2vs0mg"},{"bike_id":"8fd4887f-e993-4ada-9d92-35ccfb12463a","system_id":"levelo_inurba_marseille","lat":43.28842,"lon":5.35861,"is_reserved":false,"is_disabled":false,"rental_uris":{"android":"levelo://app?vid=8fd4887f-e993-4ada-9d92-35ccfb12463a","ios":"levelo://app?vid=8fd4887f-e993-4ada-9d92-35ccfb12463a"},"vehicle_type_id":"4","last_reported":1761588999,"current_range_meters":4800,"station_id":"ce4bhb12rcd13ifvqem0","pricing_plan_id":"cebpf4jnsgd1na2vs0mg"},{"bike_id":"514ee03d-bca4-4321-b36f-0cb2e8d0879a","system_id":"levelo_inurba_marseille","lat":43.275566,"lon":5.423869,"is_reserved":false,"is_disabled":false,"rental_uris":{"android":"levelo://app?vid=514ee03d-bca4-4321-b36f-0cb2e8d0879a","ios":"levelo://app?vid=514ee03d-bca4-4321-b36f-0cb2e8d0879a"},"vehicle_type_id":"4","last_reported":1761588999,"current_range_meters":4800,"station_id":"ce4bhn92rcd13ifvqgrg","pricing_plan_id":"cebpf4jnsgd1na2vs0mg"},{"bike_id":"a9e59176-67ec-4c06-9c99-83f576b3eff7","system_id":"levelo_inurba_marseille","lat":43.28854,"lon":5.35854,"is_reserved":false,"is_disabled":false,"rental_uris":{"android":"levelo://app?vid=a9e59176-67ec-4c06-9c99-83f576b3eff7","ios":"levelo://app?vid=a9e59176-67ec-4c06-9c99-83f576b3eff7"},"vehicle_type_id":"4","last_reported":1761588999,"current_range_meters":4800,"station_id":"ce4bhb12rcd13ifvqem0","pricing_plan_id":"cebpf4jnsgd1na2vs0mg"},{"bike_id":"4e8835de-4315-4124-837a-84ba32c78dfe","system_id":"levelo_inurba_marseille","lat":43.29517,"lon":5.39402,"is_reserved":false,"is_disabled":false,"rental_uris":{"android":"levelo://app?vid=4e8835de-4315-4124-837a-84ba32c78dfe","ios":"levelo://app?vid=4e8835de-4315-4124-837a-84ba32c78dfe"},"vehicle_type_id":"4","last_reported":1761588999,"current_range_meters":4800,"station_id":"ce4bh292rcd13ifvqdf0","pricing_plan_id":"cebpf4jnsgd1na2vs0mg"},{"bike_id":"b46bdf52-4cdb-4a90-a88d-d6930918d633","system_id":"levelo_inurba_marseille","lat":43.294081,"lon":5.386701,"is_reserved":false,"is_disabled":false,"rental_uris":{"android":"levelo://app?vid=b46bdf52-4cdb-4a90-a88d-d6930918d633","ios":"levelo://app?vid=b46bdf52-4cdb-4a90-a88d-d6930918d633"},"vehicle_type_id":"4","last_reported":1761588999,"current_range_meters":4800,"station_id":"ce4bhr12rcd13ifvqhpg","pricing_plan_id":"cebpf4jnsgd1na2vs0mg"},{"bike_id":"2111fa69-8f2d-4b0b-b878-3e2100139745","system_id":"levelo_inurba_marseille","lat":43.3236,"lon":5.36748,"is_reserved":false,"is_disabled":false,"rental_uris":{"android":"levelo://app?vid=2111fa69-8f2d-4b0b-b878-3e2100139745","ios":"levelo://app?vid=2111fa69-8f2d-4b0b-b878-3e2100139745"},"vehicle_type_id":"4","last_reported":1761588999,"current_range_meters":4800,"station_id":"ce4bhsh2rcd13ifvqi2g","pricing_plan_id":"cebpf4jnsgd1na2vs0mg"},{"bike_id":"66b618f2-c827-4ee2-9fc4-35a470dcbc40","system_id":"levelo_inurba_marseille","lat":43.2828,"lon":5.3507,"is_reserved":false,"is_disabled":false,"rental_uris":{"android":"levelo://app?vid=66b618f2-c827-4ee2-9fc4-35a470dcbc40","ios":"levelo://app?vid=66b618f2-c827-4ee2-9fc4-35a470dcbc40"},"vehicle_type_id":"4","last_reported":1761588999,"current_range_meters":5600,"station_id":"ce4bhbp2rcd13ifvqerg","pricing_plan_id":"cebpf4jnsgd1na2vs0mg"},{"bike_id":"b5b62287-d3ee-447e-9fe2-9f2b8112a684","system_id":"levelo_inurba_marseille","lat":43.21193,"lon":5.35078,"is_reserved":false,"is_disabled":true,"rental_uris":{"android":"levelo://app?vid=b5b62287-d3ee-447e-9fe2-9f2b8112a684","ios":"levelo://app?vid=b5b62287-d3ee-447e-9fe2-9f2b8112a684"},"vehicle_type_id":"4","last_reported":1761588999,"current_range_meters":5600,"station_id":"","pricing_plan_id":"cebpf4jnsgd1na2vs0mg"},{"bike_id":"ebdab989-ac94-4643-839e-ff5f559f0305","system_id":"levelo_inurba_marseille","lat":43.30926,"lon":5.36866,"is_reserved":false,"is_disabled":false,"rental_uris":{"android":"levelo://app?vid=ebdab989-ac94-4643-839e-ff5f559f0305","ios":"levelo://app?vid=ebdab989-ac94-4643-839e-ff5f559f0305"},"vehicle_type_id":"4","last_reported":1761588999,"current_range_meters":5600,"station_id":"ce4bgn92rcd13ifvqbvg","pricing_plan_id":"cebpf4jnsgd1na2vs0mg"},{"bike_id":"2b52aa8e-5f19-4208-b6ec-abb91fca0f03","system_id":"levelo_inurba_marseille","lat":43.30145,"lon":5.39864,"is_reserved":false,"is_disabled":false,"rental_uris":{"android":"levelo://app?vid=2b52aa8e-5f19-4208-b6ec-abb91fca0f03","ios":"levelo://app?vid=2b52aa8e-5f19-4208-b6ec-abb91fca0f03"},"vehicle_type_id":"4","last_reported":1761588999,"current_range_meters":5600,"station_id":"ce4bh0h2rcd13ifvqd40","pricing_plan_id":"cebpf4jnsgd1na2vs0mg"},{"bike_id":"75af5eea-5da2-420b-b1d7-f9e5d9b82f6f","system_id":"levelo_inurba_marseille","lat":43.2868,"lon":5.38674,"is_reserved":false,"is_disabled":false,"rental_uris":{"android":"levelo://app?vid=75af5eea-5da2-420b-b1d7-f9e5d9b82f6f","ios":"levelo://app?vid=75af5eea-5da2-420b-b1d7-f9e5d9b82f6f"},"vehicle_type_id":"4","last_reported":1761588999,"current_range_meters":5600,"station_id":"ce4bh492rcd13ifvqdug","pricing_plan_id":"cebpf4jnsgd1na2vs0mg"},{"bike_id":"efb371e6-3aaf-4b4b-9b19-e2eae8fe7cd2","system_id":"levelo_inurba_marseille","lat":43.29105,"lon":5.38119,"is_reserved":false,"is_disabled":false,"rental_uris":{"android":"levelo://app?vid=efb371e6-3aaf-4b4b-9b19-e2eae8fe7cd2","ios":"levelo://app?vid=efb371e6-3aaf-4b4b-9b19-e2eae8fe7cd2"},"vehicle_type_id":"4","last_reported":1761588999,"current_range_meters":5600,"station_id":"ce4bh512rcd13ifvqe2g","pricing_plan_id":"cebpf4jnsgd1na2vs0mg"},{"bike_id":"bf539de7-d264-4ad9-8de5-1a82ba82cb1b","system_id":"levelo_inurba_marseille","lat":43.290001,"lon":5.355937,"is_reserved":false,"is_disabled":false,"rental_uris":{"android":"levelo://app?vid=bf539de7-d264-4ad9-8de5-1a82ba82cb1b","ios":"levelo://app?vid=bf539de7-d264-4ad9-8de5-1a82ba82cb1b"},"vehicle_type_id":"4","last_reported":1761588999,"current_range_meters":5600,"station_id":"ce4bhb92rcd13ifvqen0","pricing_plan_id":"cebpf4jnsgd1na2vs0mg"},{"bike_id":"acad08fd-5b9f-44c8-aab2-fa1378c423a0","system_id":"levelo_inurba_marseille","lat":43.27206,"lon":5.39184,"is_reserved":false,"is_disabled":false,"rental_uris":{"android":"levelo://app?vid=acad08fd-5b9f-44c8-aab2-fa1378c423a0","ios":"levelo://app?vid=acad08fd-5b9f-44c8-aab2-fa1378c423a0"},"vehicle_type_id":"4","last_reported":1761588999,"current_range_meters":6000,"station_id":"ce4bhhp2rcd13ifvqfm0","pricing_plan_id":"cebpf4jnsgd1na2vs0mg"},{"bike_id":"713f950f-ce1e-44b7-babd-d9fc5c06d72b","system_id":"levelo_inurba_marseille","lat":43.29925,"lon":5.37471,"is_reserved":false,"is_disabled":false,"rental_uris":{"android":"levelo://app?vid=713f950f-ce1e-44b7-babd-d9fc5c06d72b","ios":"levelo://app?vid=713f950f-ce1e-44b7-babd-d9fc5c06d72b"},"vehicle_type_id":"4","last_reported":1761588999,"current_range_meters":6000,"station_id":"ce4bgjh2rcd13ifvqbg0","pricing_plan_id":"cebpf4jnsgd1na2vs0mg"},{"bike_id":"7a77100f-cabe-448d-b837-93c47fcb3079","system_id":"levelo_inurba_marseille","lat":43.28723,"lon":5.37941,"is_reserved":false,"is_disabled":false,"rental_uris":{"android":"levelo://app?vid=7a77100f-cabe-448d-b837-93c47fcb3079","ios":"levelo://app?vid=7a77100f-cabe-448d-b837-93c47fcb3079"},"vehicle_type_id":"4","last_reported":1761588999,"current_range_meters":6000,"station_id":"ce4bh9p2rcd13ifvqec0","pricing_plan_id":"cebpf4jnsgd1na2vs0mg"},{"bike_id":"26d57427-b2ea-4811-baf7-21e356d49b53","system_id":"levelo_inurba_marseille","lat":43.30261,"lon":5.40072,"is_reserved":false,"is_disabled":false,"rental_uris":{"android":"levelo://app?vid=26d57427-b2ea-4811-baf7-21e356d49b53","ios":"levelo://app?vid=26d57427-b2ea-4811-baf7-21e356d49b53"},"vehicle_type_id":"4","last_reported":1761588999,"current_range_meters":6000,"station_id":"ce4bgvh2rcd13ifvqcs0","pricing_plan_id":"cebpf4jnsgd1na2vs0mg"},{"bike_id":"fcb38855-e0f3-4fdb-a3c1-482be82b95b2","system_id":"levelo_inurba_marseille","lat":43.27944,"lon":5.41051,"is_reserved":false,"is_disabled":false,"rental_uris":{"android":"levelo://app?vid=fcb38855-e0f3-4fdb-a3c1-482be82b95b2","ios":"levelo://app?vid=fcb38855-e0f3-4fdb-a3c1-482be82b95b2"},"vehicle_type_id":"4","last_reported":1761588999,"current_range_meters":6000,"station_id":"ce4bhnp2rcd13ifvqh0g","pricing_plan_id":"cebpf4jnsgd1na2vs0mg"},{"bike_id":"4ade9d83-f2d5-4d19-a54e-74fbd9ec2b53","system_id":"levelo_inurba_marseille","lat":43.32195,"lon":5.38665,"is_reserved":false,"is_disabled":false,"rental_uris":{"android":"levelo://app?vid=4ade9d83-f2d5-4d19-a54e-74fbd9ec2b53","ios":"levelo://app?vid=4ade9d83-f2d5-4d19-a54e-74fbd9ec2b53"},"vehicle_type_id":"4","last_reported":1761588999,"current_range_meters":6000,"station_id":"","pricing_plan_id":"cebpf4jnsgd1na2vs0mg"},{"bike_id":"b56a9c00-0d6d-4865-ba67-5590f383d038","system_id":"levelo_inurba_marseille","lat":43.29958,"lon":5.41317,"is_reserved":false,"is_disabled":false,"rental_uris":{"android":"levelo://app?vid=b56a9c00-0d6d-4865-ba67-5590f383d038","ios":"levelo://app?vid=b56a9c00-0d6d-4865-ba67-5590f383d038"},"vehicle_type_id":"4","last_reported":1761588999,"current_range_meters":6000,"station_id":"ce4bhp12rcd13ifvqh9g","pricing_plan_id":"cebpf4jnsgd1na2vs0mg"},{"bike_id":"4ccff53a-38fa-408f-8ce5-ffd97c2cec07","system_id":"levelo_inurba_marseille","lat":43.30137,"lon":5.39868,"is_reserved":false,"is_disabled":false,"rental_uris":{"android":"levelo://app?vid=4ccff53a-38fa-408f-8ce5-ffd97c2cec07","ios":"levelo://app?vid=4ccff53a-38fa-408f-8ce5-ffd97c2cec07"},"vehicle_type_id":"4","last_reported":1761588999,"current_range_meters":6000,"station_id":"ce4bh0h2rcd13ifvqd40","pricing_plan_id":"cebpf4jnsgd1na2vs0mg"},{"bike_id":"5a7973cc-0c89-4a59-a154-e34cb9c4028f","system_id":"levelo_inurba_marseille","lat":43.29532,"lon":5.38552,"is_reserved":false,"is_disabled":false,"rental_uris":{"android":"levelo://app?vid=5a7973cc-0c89-4a59-a154-e34cb9c4028f","ios":"levelo://app?vid=5a7973cc-0c89-4a59-a154-e34cb9c4028f"},"vehicle_type_id":"4","last_reported":1761588999,"current_range_meters":6400,"station_id":"ce4bgih2rcd13ifvqba0","pricing_plan_id":"cebpf4jnsgd1na2vs0mg"},{"bike_id":"7cefd309-dc25-4720-8f6e-677c629972f8","system_id":"levelo_inurba_marseille","lat":43.31231,"lon":5.36861,"is_reserved":false,"is_disabled":false,"rental_uris":{"android":"levelo://app?vid=7cefd309-dc25-4720-8f6e-677c629972f8","ios":"levelo://app?vid=7cefd309-dc25-4720-8f6e-677c629972f8"},"vehicle_type_id":"4","last_reported":1761588999,"current_range_meters":6400,"station_id":"ce4bgl92rcd13ifvqbq0","pricing_plan_id":"cebpf4jnsgd1na2vs0mg"},{"bike_id":"e1aa20f8-799a-4567-bfd0-31e71eee617f","system_id":"levelo_inurba_marseille","lat":43.31437,"lon":5.38885,"is_reserved":false,"is_disabled":false,"rental_uris":{"android":"levelo://app?vid=e1aa20f8-799a-4567-bfd0-31e71eee617f","ios":"levelo://app?vid=e1aa20f8-799a-4567-bfd0-31e71eee617f"},"vehicle_type_id":"4","last_reported":1761588999,"current_range_meters":6400,"station_id":"","pricing_plan_id":"cebpf4jnsgd1na2vs0mg"},{"bike_id":"572eb4ec-46c0-47b1-87ed-d025b0e97e15","system_id":"levelo_inurba_marseille","lat":43.27428,"lon":5.39408,"is_reserved":false,"is_disabled":false,"rental_uris":{"android":"levelo://app?vid=572eb4ec-46c0-47b1-87ed-d025b0e97e15","ios":"levelo://app?vid=572eb4ec-46c0-47b1-87ed-d025b0e97e15"},"vehicle_type_id":"4","last_reported":1761588999,"current_range_meters":6400,"station_id":"ce4bhdp2rcd13ifvqf20","pricing_plan_id":"cebpf4jnsgd1na2vs0mg"},{"bike_id":"150577ce-4319-4f92-8802-a416a0c55557","system_id":"levelo_inurba_marseille","lat":43.27073,"lon":5.42277,"is_reserved":false,"is_disabled":false,"rental_uris":{"android":"levelo://app?vid=150577ce-4319-4f92-8802-a416a0c55557","ios":"levelo://app?vid=150577ce-4319-4f92-8802-a416a0c55557"},"vehicle_type_id":"4","last_reported":1761588999,"current_range_meters":6400,"station_id":"ce4bhk92rcd13ifvqgb0","pricing_plan_id":"cebpf4jnsgd1na2vs0mg"},{"bike_id":"c2bec26d-7b21-494e-a044-5235831a1b19","system_id":"levelo_inurba_marseille","lat":43.25729,"lon":5.41107,"is_reserved":false,"is_disabled":false,"rental_uris":{"android":"levelo://app?vid=c2bec26d-7b21-494e-a044-5235831a1b19","ios":"levelo://app?vid=c2bec26d-7b21-494e-a044-5235831a1b19"},"vehicle_type_id":"4","last_reported":1761588999,"current_range_meters":6800,"station_id":"ce4bhkp2rcd13ifvqgd0","pricing_plan_id":"cebpf4jnsgd1na2vs0mg"},{"bike_id":"3deab2f6-586a-4085-a4c2-311bc4cb169f","system_id":"levelo_inurba_marseille","lat":43.28348,"lon":5.3811,"is_reserved":false,"is_disabled":false,"rental_uris":{"android":"levelo://app?vid=3deab2f6-586a-4085-a4c2-311bc4cb169f","ios":"levelo://app?vid=3deab2f6-586a-4085-a4c2-311bc4cb169f"},"vehicle_type_id":"4","last_reported":1761588999,"current_range_meters":6800,"station_id":"ce4bh412rcd13ifvqdr0","pricing_plan_id":"cebpf4jnsgd1na2vs0mg"},{"bike_id":"a0965cb6-6375-4b0a-bfeb-6bd1ea29ebe1","system_id":"levelo_inurba_marseille","lat":43.29592,"lon":5.37723,"is_reserved":false,"is_disabled":false,"rental_uris":{"android":"levelo://app?vid=a0965cb6-6375-4b0a-bfeb-6bd1ea29ebe1","ios":"levelo://app?vid=a0965cb6-6375-4b0a-bfeb-6bd1ea29ebe1"},"vehicle_type_id":"4","last_reported":1761588999,"current_range_meters":6800,"station_id":"ce4bgi92rcd13ifvqb90","pricing_plan_id":"cebpf4jnsgd1na2vs0mg"},{"bike_id":"b92a3040-6e86-4eab-9c89-b2f3ec64c600","system_id":"levelo_inurba_marseille","lat":43.28665,"lon":5.3866,"is_reserved":false,"is_disabled":true,"rental_uris":{"android":"levelo://app?vid=b92a3040-6e86-4eab-9c89-b2f3ec64c600","ios":"levelo://app?vid=b92a3040-6e86-4eab-9c89-b2f3ec64c600"},"vehicle_type_id":"4","last_reported":1761588999,"current_range_meters":6800,"station_id":"ce4bh492rcd13ifvqdug","pricing_plan_id":"cebpf4jnsgd1na2vs0mg"},{"bike_id":"48b998b2-5f8e-49b1-8e82-c7df28d01f42","system_id":"levelo_inurba_marseille","lat":43.29259,"lon":5.40906,"is_reserved":false,"is_disabled":false,"rental_uris":{"android":"levelo://app?vid=48b998b2-5f8e-49b1-8e82-c7df28d01f42","ios":"levelo://app?vid=48b998b2-5f8e-49b1-8e82-c7df28d01f42"},"vehicle_type_id":"4","last_reported":1761588999,"current_range_meters":7200,"station_id":"ce4bh192rcd13ifvqdc0","pricing_plan_id":"cebpf4jnsgd1na2vs0mg"},{"bike_id":"14dbe9dc-f842-4bfa-9cd5-66e00f383744","system_id":"levelo_inurba_marseille","lat":43.28162,"lon":5.42642,"is_reserved":false,"is_disabled":false,"rental_uris":{"android":"levelo://app?vid=14dbe9dc-f842-4bfa-9cd5-66e00f383744","ios":"levelo://app?vid=14dbe9dc-f842-4bfa-9cd5-66e00f383744"},"vehicle_type_id":"4","last_reported":1761588999,"current_range_meters":7200,"station_id":"ce4bhnh2rcd13ifvqgug","pricing_plan_id":"cebpf4jnsgd1na2vs0mg"},{"bike_id":"410973a5-f0bc-43ff-817f-690c8c1ca159","system_id":"levelo_inurba_marseille","lat":43.31328,"lon":5.3969,"is_reserved":false,"is_disabled":false,"rental_uris":{"android":"levelo://app?vid=410973a5-f0bc-43ff-817f-690c8c1ca159","ios":"levelo://app?vid=410973a5-f0bc-43ff-817f-690c8c1ca159"},"vehicle_type_id":"4","last_reported":1761588999,"current_range_meters":7200,"station_id":"ce4bgvp2rcd13ifvqcu0","pricing_plan_id":"cebpf4jnsgd1na2vs0mg"},{"bike_id":"520ee9f1-c705-4af7-822a-41a3d5a4f031","system_id":"levelo_inurba_marseille","lat":43.27933,"lon":5.41044,"is_reserved":false,"is_disabled":false,"rental_uris":{"android":"levelo://app?vid=520ee9f1-c705-4af7-822a-41a3d5a4f031","ios":"levelo://app?vid=520ee9f1-c705-4af7-822a-41a3d5a4f031"},"vehicle_type_id":"4","last_reported":1761588999,"current_range_meters":7200,"station_id":"ce4bhnp2rcd13ifvqh0g","pricing_plan_id":"cebpf4jnsgd1na2vs0mg"},{"bike_id":"fa628541-f741-4e31-be7b-1d4af29d996c","system_id":"levelo_inurba_marseille","lat":43.27832,"lon":5.39202,"is_reserved":false,"is_disabled":false,"rental_uris":{"android":"levelo://app?vid=fa628541-f741-4e31-be7b-1d4af29d996c","ios":"levelo://app?vid=fa628541-f741-4e31-be7b-1d4af29d996c"},"vehicle_type_id":"4","last_reported":1761588999,"current_range_meters":7200,"station_id":"ce4bhjp2rcd13ifvqga0","pricing_plan_id":"cebpf4jnsgd1na2vs0mg"},{"bike_id":"c0b81f28-bbba-4247-a74b-c55a34b31846","system_id":"levelo_inurba_marseille","lat":43.33258,"lon":5.41086,"is_reserved":false,"is_disabled":false,"rental_uris":{"android":"levelo://app?vid=c0b81f28-bbba-4247-a74b-c55a34b31846","ios":"levelo://app?vid=c0b81f28-bbba-4247-a74b-c55a34b31846"},"vehicle_type_id":"4","last_reported":1761588999,"current_range_meters":8000,"station_id":"","pricing_plan_id":"cebpf4jnsgd1na2vs0mg"},{"bike_id":"84378517-fb38-401d-8e2f-d11fa4662780","system_id":"levelo_inurba_marseille","lat":43.31156,"lon":5.38714,"is_reserved":false,"is_disabled":false,"rental_uris":{"android":"levelo://app?vid=84378517-fb38-401d-8e2f-d11fa4662780","ios":"levelo://app?vid=84378517-fb38-401d-8e2f-d11fa4662780"},"vehicle_type_id":"4","last_reported":1761588999,"current_range_meters":8000,"station_id":"ce4bgv12rcd13ifvqcp0","pricing_plan_id":"cebpf4jnsgd1na2vs0mg"},{"bike_id":"41d45b45-3a52-4b5a-b2b3-1e62d5490ada","system_id":"levelo_inurba_marseille","lat":43.28527,"lon":5.44089,"is_reserved":false,"is_disabled":false,"rental_uris":{"android":"levelo://app?vid=41d45b45-3a52-4b5a-b2b3-1e62d5490ada","ios":"levelo://app?vid=41d45b45-3a52-4b5a-b2b3-1e62d5490ada"},"vehicle_type_id":"4","last_reported":1761588999,"current_range_meters":8000,"station_id":"st_d3j3df2ikq2c7380ej80","pricing_plan_id":"cebpf4jnsgd1na2vs0mg"},{"bike_id":"eac512be-a55d-4d94-a513-a1f45ac8471e","system_id":"levelo_inurba_marseille","lat":43.29029,"lon":5.3998,"is_reserved":false,"is_disabled":false,"rental_uris":{"android":"levelo://app?vid=eac512be-a55d-4d94-a513-a1f45ac8471e","ios":"levelo://app?vid=eac512be-a55d-4d94-a513-a1f45ac8471e"},"vehicle_type_id":"4","last_reported":1761588999,"current_range_meters":8000,"station_id":"ce4bh392rcd13ifvqdm0","pricing_plan_id":"cebpf4jnsgd1na2vs0mg"},{"bike_id":"20510332-e978-4a6f-a274-d83dbe88b937","system_id":"levelo_inurba_marseille","lat":43.28215,"lon":5.39033,"is_reserved":false,"is_disabled":false,"rental_uris":{"android":"levelo://app?vid=20510332-e978-4a6f-a274-d83dbe88b937","ios":"levelo://app?vid=20510332-e978-4a6f-a274-d83dbe88b937"},"vehicle_type_id":"4","last_reported":1761588999,"current_range_meters":8400,"station_id":"ce4bhn92rcd13ifvqgsg","pricing_plan_id":"cebpf4jnsgd1na2vs0mg"},{"bike_id":"525b5be4-41dd-4fc5-b1fc-3f0f12cccdc6","system_id":"levelo_inurba_marseille","lat":43.31117,"lon":5.37774,"is_reserved":false,"is_disabled":false,"rental_uris":{"android":"levelo://app?vid=525b5be4-41dd-4fc5-b1fc-3f0f12cccdc6","ios":"levelo://app?vid=525b5be4-41dd-4fc5-b1fc-3f0f12cccdc6"},"vehicle_type_id":"4","last_reported":1761588999,"current_range_meters":8400,"station_id":"ce4bgt92rcd13ifvqcg0","pricing_plan_id":"cebpf4jnsgd1na2vs0mg"},{"bike_id":"b31f2307-293c-4df9-be56-294e192ab7ed","system_id":"levelo_inurba_marseille","lat":43.28975,"lon":5.37817,"is_reserved":false,"is_disabled":false,"rental_uris":{"android":"levelo://app?vid=b31f2307-293c-4df9-be56-294e192ab7ed","ios":"levelo://app?vid=b31f2307-293c-4df9-be56-294e192ab7ed"},"vehicle_type_id":"4","last_reported":1761588999,"current_range_meters":8400,"station_id":"ce4bh9p2rcd13ifvqed0","pricing_plan_id":"cebpf4jnsgd1na2vs0mg"},{"bike_id":"6e6e864a-e3eb-4efd-8ff3-91f534fb99da","system_id":"levelo_inurba_marseille","lat":43.301483,"lon":5.396416,"is_reserved":false,"is_disabled":false,"rental_uris":{"android":"levelo://app?vid=6e6e864a-e3eb-4efd-8ff3-91f534fb99da","ios":"levelo://app?vid=6e6e864a-e3eb-4efd-8ff3-91f534fb99da"},"vehicle_type_id":"4","last_reported":1761588999,"current_range_meters":8400,"station_id":"ce4bh0h2rcd13ifvqd40","pricing_plan_id":"cebpf4jnsgd1na2vs0mg"},{"bike_id":"4317e0c3-a3d0-4d46-a178-5178ec49c4ba","system_id":"levelo_inurba_marseille","lat":43.2922,"lon":5.36059,"is_reserved":false,"is_disabled":false,"rental_uris":{"android":"levelo://app?vid=4317e0c3-a3d0-4d46-a178-5178ec49c4ba","ios":"levelo://app?vid=4317e0c3-a3d0-4d46-a178-5178ec49c4ba"},"vehicle_type_id":"4","last_reported":1761588999,"current_range_meters":8400,"station_id":"ce4bhbh2rcd13ifvqeqg","pricing_plan_id":"cebpf4jnsgd1na2vs0mg"},{"bike_id":"e4ccce50-4824-4895-aa8c-033835526f23","system_id":"levelo_inurba_marseille","lat":43.31926,"lon":5.39967,"is_reserved":false,"is_disabled":false,"rental_uris":{"android":"levelo://app?vid=e4ccce50-4824-4895-aa8c-033835526f23","ios":"levelo://app?vid=e4ccce50-4824-4895-aa8c-033835526f23"},"vehicle_type_id":"4","last_reported":1761588999,"current_range_meters":8400,"station_id":"","pricing_plan_id":"cebpf4jnsgd1na2vs0mg"},{"bike_id":"b4161da3-6410-487c-842a-c71723a5ee6e","system_id":"levelo_inurba_marseille","lat":43.23476,"lon":5.35978,"is_reserved":false,"is_disabled":false,"rental_uris":{"android":"levelo://app?vid=b4161da3-6410-487c-842a-c71723a5ee6e","ios":"levelo://app?vid=b4161da3-6410-487c-842a-c71723a5ee6e"},"vehicle_type_id":"4","last_reported":1761588999,"current_range_meters":8400,"station_id":"","pricing_plan_id":"cebpf4jnsgd1na2vs0mg"},{"bike_id":"7cca7f21-9826-4685-925e-0b065109d688","system_id":"levelo_inurba_marseille","lat":43.292658,"lon":5.384452,"is_reserved":false,"is_disabled":false,"rental_uris":{"android":"levelo://app?vid=7cca7f21-9826-4685-925e-0b065109d688","ios":"levelo://app?vid=7cca7f21-9826-4685-925e-0b065109d688"},"vehicle_type_id":"4","last_reported":1761588999,"current_range_meters":8400,"station_id":"ce4bh692rcd13ifvqea0","pricing_plan_id":"cebpf4jnsgd1na2vs0mg"},{"bike_id":"de5cece4-6186-4ccb-b70e-a25e8bd3fc86","system_id":"levelo_inurba_marseille","lat":43.337444,"lon":5.374475,"is_reserved":false,"is_disabled":false,"rental_uris":{"android":"levelo://app?vid=de5cece4-6186-4ccb-b70e-a25e8bd3fc86","ios":"levelo://app?vid=de5cece4-6186-4ccb-b70e-a25e8bd3fc86"},"vehicle_type_id":"4","last_reported":1761588999,"current_range_meters":8400,"station_id":"","pricing_plan_id":"cebpf4jnsgd1na2vs0mg"},{"bike_id":"cd6a6ec2-5f75-48c3-a200-63e63de6d061","system_id":"levelo_inurba_marseille","lat":43.29787,"lon":5.38113,"is_reserved":false,"is_disabled":false,"rental_uris":{"android":"levelo://app?vid=cd6a6ec2-5f75-48c3-a200-63e63de6d061","ios":"levelo://app?vid=cd6a6ec2-5f75-48c3-a200-63e63de6d061"},"vehicle_type_id":"4","last_reported":1761588999,"current_range_meters":8800,"station_id":"ce4bgip2rcd13ifvqbb0","pricing_plan_id":"cebpf4jnsgd1na2vs0mg"},{"bike_id":"4138d7f9-1746-48a7-a043-b88e6a819d33","system_id":"levelo_inurba_marseille","lat":43.29253,"lon":5.40911,"is_reserved":false,"is_disabled":false,"rental_uris":{"android":"levelo://app?vid=4138d7f9-1746-48a7-a043-b88e6a819d33","ios":"levelo://app?vid=4138d7f9-1746-48a7-a043-b88e6a819d33"},"vehicle_type_id":"4","last_reported":1761588999,"current_range_meters":8800,"station_id":"ce4bh192rcd13ifvqdc0","pricing_plan_id":"cebpf4jnsgd1na2vs0mg"},{"bike_id":"0066be3a-9a32-4fe7-aec3-818acab1ea2f","system_id":"levelo_inurba_marseille","lat":43.279754,"lon":5.418126,"is_reserved":false,"is_disabled":false,"rental_uris":{"android":"levelo://app?vid=0066be3a-9a32-4fe7-aec3-818acab1ea2f","ios":"levelo://app?vid=0066be3a-9a32-4fe7-aec3-818acab1ea2f"},"vehicle_type_id":"4","last_reported":1761588999,"current_range_meters":8800,"station_id":"ce4bhnh2rcd13ifvqgug","pricing_plan_id":"cebpf4jnsgd1na2vs0mg"},{"bike_id":"baf217a9-c443-4d4d-871b-d72a60456e03","system_id":"levelo_inurba_marseille","lat":43.286987,"lon":5.373884,"is_reserved":false,"is_disabled":false,"rental_uris":{"android":"levelo://app?vid=baf217a9-c443-4d4d-871b-d72a60456e03","ios":"levelo://app?vid=baf217a9-c443-4d4d-871b-d72a60456e03"},"vehicle_type_id":"4","last_reported":1761588999,"current_range_meters":8800,"station_id":"ce4bh3p2rcd13ifvqdq0","pricing_plan_id":"cebpf4jnsgd1na2vs0mg"},{"bike_id":"8847af5d-c1ad-4d8d-a5c1-273c3b41c105","system_id":"levelo_inurba_marseille","lat":43.322438,"lon":5.419613,"is_reserved":false,"is_disabled":false,"rental_uris":{"android":"levelo://app?vid=8847af5d-c1ad-4d8d-a5c1-273c3b41c105","ios":"levelo://app?vid=8847af5d-c1ad-4d8d-a5c1-273c3b41c105"},"vehicle_type_id":"4","last_reported":1761588999,"current_range_meters":8800,"station_id":"","pricing_plan_id":"cebpf4jnsgd1na2vs0mg"},{"bike_id":"34d94af8-59a5-45e1-a071-eee50ce4de11","system_id":"levelo_inurba_marseille","lat":43.29263,"lon":5.38442,"is_reserved":false,"is_disabled":false,"rental_uris":{"android":"levelo://app?vid=34d94af8-59a5-45e1-a071-eee50ce4de11","ios":"levelo://app?vid=34d94af8-59a5-45e1-a071-eee50ce4de11"},"vehicle_type_id":"4","last_reported":1761588999,"current_range_meters":8800,"station_id":"ce4bh692rcd13ifvqea0","pricing_plan_id":"cebpf4jnsgd1na2vs0mg"},{"bike_id":"da1a1a19-47c8-4378-9b38-83172181e247","system_id":"levelo_inurba_marseille","lat":43.31711,"lon":5.37753,"is_reserved":false,"is_disabled":false,"rental_uris":{"android":"levelo://app?vid=da1a1a19-47c8-4378-9b38-83172181e247","ios":"levelo://app?vid=da1a1a19-47c8-4378-9b38-83172181e247"},"vehicle_type_id":"4","last_reported":1761588999,"current_range_meters":8800,"station_id":"ce4bgth2rcd13ifvqch0","pricing_plan_id":"cebpf4jnsgd1na2vs0mg"},{"bike_id":"5c4cb641-1e54-4c27-9d52-a9221a19e2d2","system_id":"levelo_inurba_marseille","lat":43.29754,"lon":5.427801,"is_reserved":false,"is_disabled":false,"rental_uris":{"android":"levelo://app?vid=5c4cb641-1e54-4c27-9d52-a9221a19e2d2","ios":"levelo://app?vid=5c4cb641-1e54-4c27-9d52-a9221a19e2d2"},"vehicle_type_id":"4","last_reported":1761588999,"current_range_meters":8800,"station_id":"st_d3md5207bmas73dh9klg","pricing_plan_id":"cebpf4jnsgd1na2vs0mg"},{"bike_id":"64b75b4a-3497-4861-8cc2-90dd62cd9f5e","system_id":"levelo_inurba_marseille","lat":43.29304,"lon":5.43454,"is_reserved":false,"is_disabled":false,"rental_uris":{"android":"levelo://app?vid=64b75b4a-3497-4861-8cc2-90dd62cd9f5e","ios":"levelo://app?vid=64b75b4a-3497-4861-8cc2-90dd62cd9f5e"},"vehicle_type_id":"4","last_reported":1761588999,"current_range_meters":8800,"station_id":"","pricing_plan_id":"cebpf4jnsgd1na2vs0mg"},{"bike_id":"8fd41579-5eb5-4659-bec8-91a435ef135d","system_id":"levelo_inurba_marseille","lat":43.29223,"lon":5.36063,"is_reserved":false,"is_disabled":false,"rental_uris":{"android":"levelo://app?vid=8fd41579-5eb5-4659-bec8-91a435ef135d","ios":"levelo://app?vid=8fd41579-5eb5-4659-bec8-91a435ef135d"},"vehicle_type_id":"4","last_reported":1761588999,"current_range_meters":8800,"station_id":"ce4bhbh2rcd13ifvqeqg","pricing_plan_id":"cebpf4jnsgd1na2vs0mg"},{"bike_id":"0406d1d1-1f20-461c-9c28-8ab107a13dc4","system_id":"levelo_inurba_marseille","lat":43.2792,"lon":5.39579,"is_reserved":false,"is_disabled":false,"rental_uris":{"android":"levelo://app?vid=0406d1d1-1f20-461c-9c28-8ab107a13dc4","ios":"levelo://app?vid=0406d1d1-1f20-461c-9c28-8ab107a13dc4"},"vehicle_type_id":"4","last_reported":1761588999,"current_range_meters":8800,"station_id":"ce4bhf92rcd13ifvqf40","pricing_plan_id":"cebpf4jnsgd1na2vs0mg"},{"bike_id":"b7f62e76-180e-4a0a-97ef-53c4d1cc4ffc","system_id":"levelo_inurba_marseille","lat":43.27938,"lon":5.41051,"is_reserved":false,"is_disabled":false,"rental_uris":{"android":"levelo://app?vid=b7f62e76-180e-4a0a-97ef-53c4d1cc4ffc","ios":"levelo://app?vid=b7f62e76-180e-4a0a-97ef-53c4d1cc4ffc"},"vehicle_type_id":"4","last_reported":1761588999,"current_range_meters":8800,"station_id":"ce4bhnp2rcd13ifvqh0g","pricing_plan_id":"cebpf4jnsgd1na2vs0mg"},{"bike_id":"72bc7063-a0af-4f1a-9ddb-2c6946b4739f","system_id":"levelo_inurba_marseille","lat":43.28452,"lon":5.35902,"is_reserved":false,"is_disabled":false,"rental_uris":{"android":"levelo://app?vid=72bc7063-a0af-4f1a-9ddb-2c6946b4739f","ios":"levelo://app?vid=72bc7063-a0af-4f1a-9ddb-2c6946b4739f"},"vehicle_type_id":"4","last_reported":1761588999,"current_range_meters":8800,"station_id":"ce4bhah2rcd13ifvqei0","pricing_plan_id":"cebpf4jnsgd1na2vs0mg"},{"bike_id":"7103688d-3544-4032-943e-f2e7cb8203a7","system_id":"levelo_inurba_marseille","lat":43.28362,"lon":5.38636,"is_reserved":false,"is_disabled":false,"rental_uris":{"android":"levelo://app?vid=7103688d-3544-4032-943e-f2e7cb8203a7","ios":"levelo://app?vid=7103688d-3544-4032-943e-f2e7cb8203a7"},"vehicle_type_id":"4","last_reported":1761588999,"current_range_meters":8800,"station_id":"ce4bh492rcd13ifvqdvg","pricing_plan_id":"cebpf4jnsgd1na2vs0mg"},{"bike_id":"99f71ea2-5580-4c1d-b149-5fed2b68821c","system_id":"levelo_inurba_marseille","lat":43.28155,"lon":5.42638,"is_reserved":false,"is_disabled":false,"rental_uris":{"android":"levelo://app?vid=99f71ea2-5580-4c1d-b149-5fed2b68821c","ios":"levelo://app?vid=99f71ea2-5580-4c1d-b149-5fed2b68821c"},"vehicle_type_id":"4","last_reported":1761588999,"current_range_meters":9200,"station_id":"ce4bhnh2rcd13ifvqgug","pricing_plan_id":"cebpf4jnsgd1na2vs0mg"},{"bike_id":"6c1d28b8-fb0c-48ae-aa68-97deaf6b2a4d","system_id":"levelo_inurba_marseille","lat":43.29317,"lon":5.3715,"is_reserved":false,"is_disabled":false,"rental_uris":{"android":"levelo://app?vid=6c1d28b8-fb0c-48ae-aa68-97deaf6b2a4d","ios":"levelo://app?vid=6c1d28b8-fb0c-48ae-aa68-97deaf6b2a4d"},"vehicle_type_id":"4","last_reported":1761588999,"current_range_meters":9200,"station_id":"ce4bgh92rcd13ifvqb40","pricing_plan_id":"cebpf4jnsgd1na2vs0mg"},{"bike_id":"de0ca7a8-116a-46c8-8c50-6b445a473423","system_id":"levelo_inurba_marseille","lat":43.28872,"lon":5.42519,"is_reserved":false,"is_disabled":false,"rental_uris":{"android":"levelo://app?vid=de0ca7a8-116a-46c8-8c50-6b445a473423","ios":"levelo://app?vid=de0ca7a8-116a-46c8-8c50-6b445a473423"},"vehicle_type_id":"4","last_reported":1761588999,"current_range_meters":9200,"station_id":"st_d3b462108ojc7389ooeg","pricing_plan_id":"cebpf4jnsgd1na2vs0mg"},{"bike_id":"d9bb607d-1ecc-49cc-9f82-e52383a3bc84","system_id":"levelo_inurba_marseille","lat":43.29326,"lon":5.41153,"is_reserved":false,"is_disabled":false,"rental_uris":{"android":"levelo://app?vid=d9bb607d-1ecc-49cc-9f82-e52383a3bc84","ios":"levelo://app?vid=d9bb607d-1ecc-49cc-9f82-e52383a3bc84"},"vehicle_type_id":"4","last_reported":1761588999,"current_range_meters":9200,"station_id":"","pricing_plan_id":"cebpf4jnsgd1na2vs0mg"},{"bike_id":"47929b65-8b34-4b11-8cb8-d497904201de","system_id":"levelo_inurba_marseille","lat":43.266717,"lon":5.395104,"is_reserved":false,"is_disabled":false,"rental_uris":{"android":"levelo://app?vid=47929b65-8b34-4b11-8cb8-d497904201de","ios":"levelo://app?vid=47929b65-8b34-4b11-8cb8-d497904201de"},"vehicle_type_id":"4","last_reported":1761588999,"current_range_meters":9200,"station_id":"ce4bhh12rcd13ifvqfg0","pricing_plan_id":"cebpf4jnsgd1na2vs0mg"},{"bike_id":"aec0f6cf-989c-4406-b744-1e317e6d0b3b","system_id":"levelo_inurba_marseille","lat":43.28567,"lon":5.39497,"is_reserved":false,"is_disabled":false,"rental_uris":{"android":"levelo://app?vid=aec0f6cf-989c-4406-b744-1e317e6d0b3b","ios":"levelo://app?vid=aec0f6cf-989c-4406-b744-1e317e6d0b3b"},"vehicle_type_id":"4","last_reported":1761588999,"current_range_meters":9200,"station_id":"ce4bh292rcd13ifvqdg0","pricing_plan_id":"cebpf4jnsgd1na2vs0mg"},{"bike_id":"d9bce6a1-9728-4ef7-b15e-19272095b23e","system_id":"levelo_inurba_marseille","lat":43.29442,"lon":5.39749,"is_reserved":false,"is_disabled":false,"rental_uris":{"android":"levelo://app?vid=d9bce6a1-9728-4ef7-b15e-19272095b23e","ios":"levelo://app?vid=d9bce6a1-9728-4ef7-b15e-19272095b23e"},"vehicle_type_id":"4","last_reported":1761588999,"current_range_meters":9200,"station_id":"ce4bh3h2rcd13ifvqdo0","pricing_plan_id":"cebpf4jnsgd1na2vs0mg"},{"bike_id":"2bb16522-77d9-47d4-bccf-0cd7ff56b83b","system_id":"levelo_inurba_marseille","lat":43.24168,"lon":5.364,"is_reserved":false,"is_disabled":false,"rental_uris":{"android":"levelo://app?vid=2bb16522-77d9-47d4-bccf-0cd7ff56b83b","ios":"levelo://app?vid=2bb16522-77d9-47d4-bccf-0cd7ff56b83b"},"vehicle_type_id":"4","last_reported":1761588999,"current_range_meters":9200,"station_id":"cpo36qri1sfpv3e86is0","pricing_plan_id":"cebpf4jnsgd1na2vs0mg"},{"bike_id":"6d4e1528-0066-478d-a22b-9c7ca8183cd6","system_id":"levelo_inurba_marseille","lat":43.29014,"lon":5.38139,"is_reserved":false,"is_disabled":false,"rental_uris":{"android":"levelo://app?vid=6d4e1528-0066-478d-a22b-9c7ca8183cd6","ios":"levelo://app?vid=6d4e1528-0066-478d-a22b-9c7ca8183cd6"},"vehicle_type_id":"4","last_reported":1761588999,"current_range_meters":9600,"station_id":"ce4bh4p2rcd13ifvqe1g","pricing_plan_id":"cebpf4jnsgd1na2vs0mg"},{"bike_id":"2f9052af-3d8d-4232-8900-ec445969cf07","system_id":"levelo_inurba_marseille","lat":43.30318,"lon":5.40442,"is_reserved":false,"is_disabled":false,"rental_uris":{"android":"levelo://app?vid=2f9052af-3d8d-4232-8900-ec445969cf07","ios":"levelo://app?vid=2f9052af-3d8d-4232-8900-ec445969cf07"},"vehicle_type_id":"4","last_reported":1761588999,"current_range_meters":9600,"station_id":"ce4bh012rcd13ifvqd10","pricing_plan_id":"cebpf4jnsgd1na2vs0mg"},{"bike_id":"ac42aa14-9a61-4b1c-a2ea-44b5ac9b5c37","system_id":"levelo_inurba_marseille","lat":43.286987,"lon":5.37386,"is_reserved":false,"is_disabled":false,"rental_uris":{"android":"levelo://app?vid=ac42aa14-9a61-4b1c-a2ea-44b5ac9b5c37","ios":"levelo://app?vid=ac42aa14-9a61-4b1c-a2ea-44b5ac9b5c37"},"vehicle_type_id":"4","last_reported":1761588999,"current_range_meters":9600,"station_id":"ce4bh3p2rcd13ifvqdq0","pricing_plan_id":"cebpf4jnsgd1na2vs0mg"},{"bike_id":"7348219f-62a2-4f61-9dc3-4c6ae6e126f0","system_id":"levelo_inurba_marseille","lat":43.33742,"lon":5.37469,"is_reserved":false,"is_disabled":false,"rental_uris":{"android":"levelo://app?vid=7348219f-62a2-4f61-9dc3-4c6ae6e126f0","ios":"levelo://app?vid=7348219f-62a2-4f61-9dc3-4c6ae6e126f0"},"vehicle_type_id":"4","last_reported":1761588999,"current_range_meters":10000,"station_id":"","pricing_plan_id":"cebpf4jnsgd1na2vs0mg"},{"bike_id":"e18d5454-41be-42f0-93d8-50b22e2bef5b","system_id":"levelo_inurba_marseille","lat":43.30124,"lon":5.43114,"is_reserved":false,"is_disabled":false,"rental_uris":{"android":"levelo://app?vid=e18d5454-41be-42f0-93d8-50b22e2bef5b","ios":"levelo://app?vid=e18d5454-41be-42f0-93d8-50b22e2bef5b"},"vehicle_type_id":"4","last_reported":1761588999,"current_range_meters":10000,"station_id":"st_d3js3co5814s73ftftug","pricing_plan_id":"cebpf4jnsgd1na2vs0mg"},{"bike_id":"5d562557-8751-4112-97f4-68adb13851f8","system_id":"levelo_inurba_marseille","lat":43.279546,"lon":5.410592,"is_reserved":false,"is_disabled":false,"rental_uris":{"android":"levelo://app?vid=5d562557-8751-4112-97f4-68adb13851f8","ios":"levelo://app?vid=5d562557-8751-4112-97f4-68adb13851f8"},"vehicle_type_id":"4","last_reported":1761588999,"current_range_meters":10000,"station_id":"ce4bhnp2rcd13ifvqh0g","pricing_plan_id":"cebpf4jnsgd1na2vs0mg"},{"bike_id":"8e00a04f-8cb5-48c7-be3b-fd95ff6d4515","system_id":"levelo_inurba_marseille","lat":43.29308,"lon":5.3718,"is_reserved":false,"is_disabled":false,"rental_uris":{"android":"levelo://app?vid=8e00a04f-8cb5-48c7-be3b-fd95ff6d4515","ios":"levelo://app?vid=8e00a04f-8cb5-48c7-be3b-fd95ff6d4515"},"vehicle_type_id":"4","last_reported":1761588999,"current_range_meters":10000,"station_id":"ce4bgh92rcd13ifvqb40","pricing_plan_id":"cebpf4jnsgd1na2vs0mg"},{"bike_id":"bf6f43c6-220f-4576-a9ae-b787636f109c","system_id":"levelo_inurba_marseille","lat":43.29051,"lon":5.3997,"is_reserved":false,"is_disabled":false,"rental_uris":{"android":"levelo://app?vid=bf6f43c6-220f-4576-a9ae-b787636f109c","ios":"levelo://app?vid=bf6f43c6-220f-4576-a9ae-b787636f109c"},"vehicle_type_id":"4","last_reported":1761588999,"current_range_meters":10000,"station_id":"ce4bh392rcd13ifvqdm0","pricing_plan_id":"cebpf4jnsgd1na2vs0mg"},{"bike_id":"137c6ab7-1a58-443e-ae2c-b54a3afe77df","system_id":"levelo_inurba_marseille","lat":43.29257,"lon":5.40903,"is_reserved":false,"is_disabled":false,"rental_uris":{"android":"levelo://app?vid=137c6ab7-1a58-443e-ae2c-b54a3afe77df","ios":"levelo://app?vid=137c6ab7-1a58-443e-ae2c-b54a3afe77df"},"vehicle_type_id":"4","last_reported":1761588999,"current_range_meters":10000,"station_id":"ce4bh192rcd13ifvqdc0","pricing_plan_id":"cebpf4jnsgd1na2vs0mg"},{"bike_id":"74ad1e51-e842-41b7-aab9-70c940e25f55","system_id":"levelo_inurba_marseille","lat":43.21744,"lon":5.34616,"is_reserved":false,"is_disabled":true,"rental_uris":{"android":"levelo://app?vid=74ad1e51-e842-41b7-aab9-70c940e25f55","ios":"levelo://app?vid=74ad1e51-e842-41b7-aab9-70c940e25f55"},"vehicle_type_id":"4","last_reported":1761588999,"current_range_meters":10000,"station_id":"st_cvj6r9ubvosntc0bgbag","pricing_plan_id":"cebpf4jnsgd1na2vs0mg"},{"bike_id":"520a923d-8393-46c2-9fe4-754780c4305a","system_id":"levelo_inurba_marseille","lat":43.29481,"lon":5.43301,"is_reserved":false,"is_disabled":false,"rental_uris":{"android":"levelo://app?vid=520a923d-8393-46c2-9fe4-754780c4305a","ios":"levelo://app?vid=520a923d-8393-46c2-9fe4-754780c4305a"},"vehicle_type_id":"4","last_reported":1761588999,"current_range_meters":10000,"station_id":"st_d3j5ugp08ojc73fj9d10","pricing_plan_id":"cebpf4jnsgd1na2vs0mg"},{"bike_id":"13e416b0-1824-4e43-b78f-55e46e4f709f","system_id":"levelo_inurba_marseille","lat":43.27833,"lon":5.39207,"is_reserved":false,"is_disabled":false,"rental_uris":{"android":"levelo://app?vid=13e416b0-1824-4e43-b78f-55e46e4f709f","ios":"levelo://app?vid=13e416b0-1824-4e43-b78f-55e46e4f709f"},"vehicle_type_id":"4","last_reported":1761588999,"current_range_meters":10000,"station_id":"ce4bhjp2rcd13ifvqga0","pricing_plan_id":"cebpf4jnsgd1na2vs0mg"},{"bike_id":"f5ce99ab-012b-4ec9-8d5b-9a8adc57da56","system_id":"levelo_inurba_marseille","lat":43.28698,"lon":5.39982,"is_reserved":false,"is_disabled":false,"rental_uris":{"android":"levelo://app?vid=f5ce99ab-012b-4ec9-8d5b-9a8adc57da56","ios":"levelo://app?vid=f5ce99ab-012b-4ec9-8d5b-9a8adc57da56"},"vehicle_type_id":"4","last_reported":1761588999,"current_range_meters":10800,"station_id":"ce4bho92rcd13ifvqh3g","pricing_plan_id":"cebpf4jnsgd1na2vs0mg"},{"bike_id":"c2ba2153-1aa5-400a-a2d8-f243d355caf5","system_id":"levelo_inurba_marseille","lat":43.243986,"lon":5.37062,"is_reserved":false,"is_disabled":false,"rental_uris":{"android":"levelo://app?vid=c2ba2153-1aa5-400a-a2d8-f243d355caf5","ios":"levelo://app?vid=c2ba2153-1aa5-400a-a2d8-f243d355caf5"},"vehicle_type_id":"4","last_reported":1761588999,"current_range_meters":10800,"station_id":"ce4bhhh2rcd13ifvqfk0","pricing_plan_id":"cebpf4jnsgd1na2vs0mg"},{"bike_id":"34c394a6-84e4-4122-94a2-f760495f6194","system_id":"levelo_inurba_marseille","lat":43.295145,"lon":5.389727,"is_reserved":false,"is_disabled":false,"rental_uris":{"android":"levelo://app?vid=34c394a6-84e4-4122-94a2-f760495f6194","ios":"levelo://app?vid=34c394a6-84e4-4122-94a2-f760495f6194"},"vehicle_type_id":"4","last_reported":1761588999,"current_range_meters":10800,"station_id":"ce4bh3p2rcd13ifvqdp0","pricing_plan_id":"cebpf4jnsgd1na2vs0mg"},{"bike_id":"ac8b7b2d-6b7a-4d54-9d40-e2a426c544a8","system_id":"levelo_inurba_marseille","lat":43.24073,"lon":5.3776,"is_reserved":false,"is_disabled":false,"rental_uris":{"android":"levelo://app?vid=ac8b7b2d-6b7a-4d54-9d40-e2a426c544a8","ios":"levelo://app?vid=ac8b7b2d-6b7a-4d54-9d40-e2a426c544a8"},"vehicle_type_id":"4","last_reported":1761588999,"current_range_meters":10800,"station_id":"ce4bhnp2rcd13ifvqgvg","pricing_plan_id":"cebpf4jnsgd1na2vs0mg"},{"bike_id":"9e766c0e-118a-4b7d-8f04-112f1f817cd3","system_id":"levelo_inurba_marseille","lat":43.28974,"lon":5.37842,"is_reserved":false,"is_disabled":true,"rental_uris":{"android":"levelo://app?vid=9e766c0e-118a-4b7d-8f04-112f1f817cd3","ios":"levelo://app?vid=9e766c0e-118a-4b7d-8f04-112f1f817cd3"},"vehicle_type_id":"4","last_reported":1761588999,"current_range_meters":10800,"station_id":"ce4bh9p2rcd13ifvqed0","pricing_plan_id":"cebpf4jnsgd1na2vs0mg"},{"bike_id":"b18dd565-da0c-4acf-a88d-bdd7a51ed452","system_id":"levelo_inurba_marseille","lat":43.32292,"lon":5.38269,"is_reserved":false,"is_disabled":false,"rental_uris":{"android":"levelo://app?vid=b18dd565-da0c-4acf-a88d-bdd7a51ed452","ios":"levelo://app?vid=b18dd565-da0c-4acf-a88d-bdd7a51ed452"},"vehicle_type_id":"4","last_reported":1761588999,"current_range_meters":10800,"station_id":"ce4bhr12rcd13ifvqhqg","pricing_plan_id":"cebpf4jnsgd1na2vs0mg"},{"bike_id":"b1793e36-9d98-4a61-9e3e-6aa647ce7ba8","system_id":"levelo_inurba_marseille","lat":43.292292,"lon":5.360695,"is_reserved":false,"is_disabled":false,"rental_uris":{"android":"levelo://app?vid=b1793e36-9d98-4a61-9e3e-6aa647ce7ba8","ios":"levelo://app?vid=b1793e36-9d98-4a61-9e3e-6aa647ce7ba8"},"vehicle_type_id":"4","last_reported":1761588999,"current_range_meters":10800,"station_id":"ce4bhbh2rcd13ifvqeqg","pricing_plan_id":"cebpf4jnsgd1na2vs0mg"},{"bike_id":"8650e9d4-ccb3-414b-af9b-b0a06c9d2e21","system_id":"levelo_inurba_marseille","lat":43.28716,"lon":5.37381,"is_reserved":false,"is_disabled":false,"rental_uris":{"android":"levelo://app?vid=8650e9d4-ccb3-414b-af9b-b0a06c9d2e21","ios":"levelo://app?vid=8650e9d4-ccb3-414b-af9b-b0a06c9d2e21"},"vehicle_type_id":"4","last_reported":1761588999,"current_range_meters":11200,"station_id":"ce4bh3p2rcd13ifvqdq0","pricing_plan_id":"cebpf4jnsgd1na2vs0mg"},{"bike_id":"97dc2186-336e-4dff-90e3-939704352f1a","system_id":"levelo_inurba_marseille","lat":43.27174,"lon":5.40993,"is_reserved":false,"is_disabled":false,"rental_uris":{"android":"levelo://app?vid=97dc2186-336e-4dff-90e3-939704352f1a","ios":"levelo://app?vid=97dc2186-336e-4dff-90e3-939704352f1a"},"vehicle_type_id":"4","last_reported":1761588999,"current_range_meters":11200,"station_id":"ce4bhl12rcd13ifvqgf0","pricing_plan_id":"cebpf4jnsgd1na2vs0mg"},{"bike_id":"d9ef5462-f283-4c70-90db-fdb906b67df3","system_id":"levelo_inurba_marseille","lat":43.2798,"lon":5.41701,"is_reserved":false,"is_disabled":false,"rental_uris":{"android":"levelo://app?vid=d9ef5462-f283-4c70-90db-fdb906b67df3","ios":"levelo://app?vid=d9ef5462-f283-4c70-90db-fdb906b67df3"},"vehicle_type_id":"4","last_reported":1761588999,"current_range_meters":11200,"station_id":"ce4bho12rcd13ifvqh1g","pricing_plan_id":"cebpf4jnsgd1na2vs0mg"},{"bike_id":"207f3e1b-6ed3-435b-ab8a-2228c0f61742","system_id":"levelo_inurba_marseille","lat":43.31763,"lon":5.39023,"is_reserved":false,"is_disabled":false,"rental_uris":{"android":"levelo://app?vid=207f3e1b-6ed3-435b-ab8a-2228c0f61742","ios":"levelo://app?vid=207f3e1b-6ed3-435b-ab8a-2228c0f61742"},"vehicle_type_id":"4","last_reported":1761588999,"current_range_meters":11200,"station_id":"ce4bhqp2rcd13ifvqhng","pricing_plan_id":"cebpf4jnsgd1na2vs0mg"},{"bike_id":"2fc3ed54-512f-4dd4-bbc3-4a58719c048a","system_id":"levelo_inurba_marseille","lat":43.29324,"lon":5.37176,"is_reserved":false,"is_disabled":false,"rental_uris":{"android":"levelo://app?vid=2fc3ed54-512f-4dd4-bbc3-4a58719c048a","ios":"levelo://app?vid=2fc3ed54-512f-4dd4-bbc3-4a58719c048a"},"vehicle_type_id":"4","last_reported":1761588999,"current_range_meters":11200,"station_id":"ce4bgh92rcd13ifvqb40","pricing_plan_id":"cebpf4jnsgd1na2vs0mg"},{"bike_id":"67029994-729c-447c-9e5d-7c8bd4554116","system_id":"levelo_inurba_marseille","lat":43.319868,"lon":5.413161,"is_reserved":false,"is_disabled":false,"rental_uris":{"android":"levelo://app?vid=67029994-729c-447c-9e5d-7c8bd4554116","ios":"levelo://app?vid=67029994-729c-447c-9e5d-7c8bd4554116"},"vehicle_type_id":"4","last_reported":1761588999,"current_range_meters":11600,"station_id":"ce4bhq92rcd13ifvqhkg","pricing_plan_id":"cebpf4jnsgd1na2vs0mg"},{"bike_id":"a5e97cf5-21a8-40b7-8e91-21aa332d6351","system_id":"levelo_inurba_marseille","lat":43.30164,"lon":5.43091,"is_reserved":false,"is_disabled":false,"rental_uris":{"android":"levelo://app?vid=a5e97cf5-21a8-40b7-8e91-21aa332d6351","ios":"levelo://app?vid=a5e97cf5-21a8-40b7-8e91-21aa332d6351"},"vehicle_type_id":"4","last_reported":1761588999,"current_range_meters":11600,"station_id":"st_d3js3co5814s73ftftug","pricing_plan_id":"cebpf4jnsgd1na2vs0mg"},{"bike_id":"da21e634-fd52-4d1f-839f-5b8b0f418dc7","system_id":"levelo_inurba_marseille","lat":43.258255,"lon":5.394354,"is_reserved":false,"is_disabled":false,"rental_uris":{"android":"levelo://app?vid=da21e634-fd52-4d1f-839f-5b8b0f418dc7","ios":"levelo://app?vid=da21e634-fd52-4d1f-839f-5b8b0f418dc7"},"vehicle_type_id":"4","last_reported":1761588999,"current_range_meters":11600,"station_id":"ce4bhip2rcd13ifvqft0","pricing_plan_id":"cebpf4jnsgd1na2vs0mg"},{"bike_id":"f08d3b2d-8d95-4d03-8216-987ea23cc405","system_id":"levelo_inurba_marseille","lat":43.305265,"lon":5.367203,"is_reserved":false,"is_disabled":false,"rental_uris":{"android":"levelo://app?vid=f08d3b2d-8d95-4d03-8216-987ea23cc405","ios":"levelo://app?vid=f08d3b2d-8d95-4d03-8216-987ea23cc405"},"vehicle_type_id":"4","last_reported":1761588999,"current_range_meters":11600,"station_id":"ce4bgrp2rcd13ifvqc9g","pricing_plan_id":"cebpf4jnsgd1na2vs0mg"},{"bike_id":"97d4ce55-e0f1-43ae-843a-117dc12883bc","system_id":"levelo_inurba_marseille","lat":43.30292,"lon":5.36746,"is_reserved":false,"is_disabled":false,"rental_uris":{"android":"levelo://app?vid=97d4ce55-e0f1-43ae-843a-117dc12883bc","ios":"levelo://app?vid=97d4ce55-e0f1-43ae-843a-117dc12883bc"},"vehicle_type_id":"4","last_reported":1761588999,"current_range_meters":11600,"station_id":"","pricing_plan_id":"cebpf4jnsgd1na2vs0mg"},{"bike_id":"71fe0d6a-f99e-45a0-9c75-e294b78524b2","system_id":"levelo_inurba_marseille","lat":43.21668,"lon":5.34628,"is_reserved":false,"is_disabled":false,"rental_uris":{"android":"levelo://app?vid=71fe0d6a-f99e-45a0-9c75-e294b78524b2","ios":"levelo://app?vid=71fe0d6a-f99e-45a0-9c75-e294b78524b2"},"vehicle_type_id":"4","last_reported":1761588999,"current_range_meters":12000,"station_id":"","pricing_plan_id":"cebpf4jnsgd1na2vs0mg"},{"bike_id":"63a6c32b-56e6-473a-bc67-700dac2d0d46","system_id":"levelo_inurba_marseille","lat":43.28662,"lon":5.36345,"is_reserved":false,"is_disabled":false,"rental_uris":{"android":"levelo://app?vid=63a6c32b-56e6-473a-bc67-700dac2d0d46","ios":"levelo://app?vid=63a6c32b-56e6-473a-bc67-700dac2d0d46"},"vehicle_type_id":"4","last_reported":1761588999,"current_range_meters":12000,"station_id":"ce4bhah2rcd13ifvqej0","pricing_plan_id":"cebpf4jnsgd1na2vs0mg"},{"bike_id":"f6f41915-49e3-4fb8-8c5c-96d42e084e15","system_id":"levelo_inurba_marseille","lat":43.32089,"lon":5.37115,"is_reserved":false,"is_disabled":false,"rental_uris":{"android":"levelo://app?vid=f6f41915-49e3-4fb8-8c5c-96d42e084e15","ios":"levelo://app?vid=f6f41915-49e3-4fb8-8c5c-96d42e084e15"},"vehicle_type_id":"4","last_reported":1761588999,"current_range_meters":12000,"station_id":"","pricing_plan_id":"cebpf4jnsgd1na2vs0mg"},{"bike_id":"2750492c-2b2a-461b-b4d4-accb4cb60a3a","system_id":"levelo_inurba_marseille","lat":43.25505,"lon":5.37663,"is_reserved":false,"is_disabled":false,"rental_uris":{"android":"levelo://app?vid=2750492c-2b2a-461b-b4d4-accb4cb60a3a","ios":"levelo://app?vid=2750492c-2b2a-461b-b4d4-accb4cb60a3a"},"vehicle_type_id":"4","last_reported":1761588999,"current_range_meters":12000,"station_id":"ce4bhh12rcd13ifvqff0","pricing_plan_id":"cebpf4jnsgd1na2vs0mg"},{"bike_id":"579eb60b-2ac2-4acd-b5ca-1d50dbde7fd1","system_id":"levelo_inurba_marseille","lat":43.302532,"lon":5.390887,"is_reserved":false,"is_disabled":false,"rental_uris":{"android":"levelo://app?vid=579eb60b-2ac2-4acd-b5ca-1d50dbde7fd1","ios":"levelo://app?vid=579eb60b-2ac2-4acd-b5ca-1d50dbde7fd1"},"vehicle_type_id":"4","last_reported":1761588999,"current_range_meters":12000,"station_id":"ce4bgkh2rcd13ifvqbk0","pricing_plan_id":"cebpf4jnsgd1na2vs0mg"},{"bike_id":"f5adc0f6-8f78-420c-a3cc-2381696afa4a","system_id":"levelo_inurba_marseille","lat":43.28874,"lon":5.42529,"is_reserved":false,"is_disabled":false,"rental_uris":{"android":"levelo://app?vid=f5adc0f6-8f78-420c-a3cc-2381696afa4a","ios":"levelo://app?vid=f5adc0f6-8f78-420c-a3cc-2381696afa4a"},"vehicle_type_id":"4","last_reported":1761588999,"current_range_meters":12000,"station_id":"st_d3b462108ojc7389ooeg","pricing_plan_id":"cebpf4jnsgd1na2vs0mg"},{"bike_id":"8dc0b848-73b0-4494-81a1-caa7c785225c","system_id":"levelo_inurba_marseille","lat":43.30297,"lon":5.39209,"is_reserved":false,"is_disabled":false,"rental_uris":{"android":"levelo://app?vid=8dc0b848-73b0-4494-81a1-caa7c785225c","ios":"levelo://app?vid=8dc0b848-73b0-4494-81a1-caa7c785225c"},"vehicle_type_id":"4","last_reported":1761588999,"current_range_meters":12400,"station_id":"ce4bgkh2rcd13ifvqbk0","pricing_plan_id":"cebpf4jnsgd1na2vs0mg"},{"bike_id":"b83891d3-7971-45ae-9af3-651a6e6209e2","system_id":"levelo_inurba_marseille","lat":43.231904,"lon":5.355534,"is_reserved":false,"is_disabled":true,"rental_uris":{"android":"levelo://app?vid=b83891d3-7971-45ae-9af3-651a6e6209e2","ios":"levelo://app?vid=b83891d3-7971-45ae-9af3-651a6e6209e2"},"vehicle_type_id":"4","last_reported":1761588999,"current_range_meters":12400,"station_id":"ce4bhu92rcd13ifvqi70","pricing_plan_id":"cebpf4jnsgd1na2vs0mg"},{"bike_id":"33536d63-32c5-4dda-b600-be1d3fbb9bcc","system_id":"levelo_inurba_marseille","lat":43.21196,"lon":5.35076,"is_reserved":false,"is_disabled":true,"rental_uris":{"android":"levelo://app?vid=33536d63-32c5-4dda-b600-be1d3fbb9bcc","ios":"levelo://app?vid=33536d63-32c5-4dda-b600-be1d3fbb9bcc"},"vehicle_type_id":"4","last_reported":1761588999,"current_range_meters":12400,"station_id":"","pricing_plan_id":"cebpf4jnsgd1na2vs0mg"},{"bike_id":"bbbf3dbb-fbe2-4b7e-bfad-c027ca4e1c25","system_id":"levelo_inurba_marseille","lat":43.28474,"lon":5.48395,"is_reserved":false,"is_disabled":false,"rental_uris":{"android":"levelo://app?vid=bbbf3dbb-fbe2-4b7e-bfad-c027ca4e1c25","ios":"levelo://app?vid=bbbf3dbb-fbe2-4b7e-bfad-c027ca4e1c25"},"vehicle_type_id":"4","last_reported":1761588999,"current_range_meters":12400,"station_id":"st_d3svhcjqgbts73a3dn0g","pricing_plan_id":"cebpf4jnsgd1na2vs0mg"},{"bike_id":"f3673a60-efd2-465f-aa18-cb0baaf105f7","system_id":"levelo_inurba_marseille","lat":43.3224,"lon":5.38636,"is_reserved":false,"is_disabled":false,"rental_uris":{"android":"levelo://app?vid=f3673a60-efd2-465f-aa18-cb0baaf105f7","ios":"levelo://app?vid=f3673a60-efd2-465f-aa18-cb0baaf105f7"},"vehicle_type_id":"4","last_reported":1761588999,"current_range_meters":12400,"station_id":"","pricing_plan_id":"cebpf4jnsgd1na2vs0mg"},{"bike_id":"bd926a8f-c796-41d8-89c6-5bba2e4c6520","system_id":"levelo_inurba_marseille","lat":43.23182,"lon":5.39986,"is_reserved":false,"is_disabled":false,"rental_uris":{"android":"levelo://app?vid=bd926a8f-c796-41d8-89c6-5bba2e4c6520","ios":"levelo://app?vid=bd926a8f-c796-41d8-89c6-5bba2e4c6520"},"vehicle_type_id":"4","last_reported":1761588999,"current_range_meters":12400,"station_id":"ce4bhn12rcd13ifvqgqg","pricing_plan_id":"cebpf4jnsgd1na2vs0mg"},{"bike_id":"272bed41-be2b-463f-a43b-2ee51b9d2d31","system_id":"levelo_inurba_marseille","lat":43.31075,"lon":5.38363,"is_reserved":false,"is_disabled":false,"rental_uris":{"android":"levelo://app?vid=272bed41-be2b-463f-a43b-2ee51b9d2d31","ios":"levelo://app?vid=272bed41-be2b-463f-a43b-2ee51b9d2d31"},"vehicle_type_id":"4","last_reported":1761588999,"current_range_meters":12400,"station_id":"ce4bgv92rcd13ifvqcr0","pricing_plan_id":"cebpf4jnsgd1na2vs0mg"},{"bike_id":"6e71b972-d279-435f-b20d-ed8a5fd1de21","system_id":"levelo_inurba_marseille","lat":43.29527,"lon":5.38539,"is_reserved":false,"is_disabled":false,"rental_uris":{"android":"levelo://app?vid=6e71b972-d279-435f-b20d-ed8a5fd1de21","ios":"levelo://app?vid=6e71b972-d279-435f-b20d-ed8a5fd1de21"},"vehicle_type_id":"4","last_reported":1761588999,"current_range_meters":12400,"station_id":"ce4bgih2rcd13ifvqba0","pricing_plan_id":"cebpf4jnsgd1na2vs0mg"},{"bike_id":"02dd205b-e97c-4104-9683-066d2523fd3f","system_id":"levelo_inurba_marseille","lat":43.2196,"lon":5.34548,"is_reserved":false,"is_disabled":false,"rental_uris":{"android":"levelo://app?vid=02dd205b-e97c-4104-9683-066d2523fd3f","ios":"levelo://app?vid=02dd205b-e97c-4104-9683-066d2523fd3f"},"vehicle_type_id":"4","last_reported":1761588999,"current_range_meters":12400,"station_id":"","pricing_plan_id":"cebpf4jnsgd1na2vs0mg"},{"bike_id":"303b1117-b58b-4d7f-be67-2161ed08ebe7","system_id":"levelo_inurba_marseille","lat":43.28936,"lon":5.36636,"is_reserved":false,"is_disabled":false,"rental_uris":{"android":"levelo://app?vid=303b1117-b58b-4d7f-be67-2161ed08ebe7","ios":"levelo://app?vid=303b1117-b58b-4d7f-be67-2161ed08ebe7"},"vehicle_type_id":"4","last_reported":1761588999,"current_range_meters":12800,"station_id":"ce4bhap2rcd13ifvqek0","pricing_plan_id":"cebpf4jnsgd1na2vs0mg"},{"bike_id":"d0c081ad-3486-48c9-8966-70405df77a5b","system_id":"levelo_inurba_marseille","lat":43.22934,"lon":5.353772,"is_reserved":false,"is_disabled":false,"rental_uris":{"android":"levelo://app?vid=d0c081ad-3486-48c9-8966-70405df77a5b","ios":"levelo://app?vid=d0c081ad-3486-48c9-8966-70405df77a5b"},"vehicle_type_id":"4","last_reported":1761588999,"current_range_meters":12800,"station_id":"cpo3532slgdg3j2ikp40","pricing_plan_id":"cebpf4jnsgd1na2vs0mg"},{"bike_id":"2319520a-fc10-4ea5-a5ca-d3a4702f6c7b","system_id":"levelo_inurba_marseille","lat":43.2989,"lon":5.43632,"is_reserved":false,"is_disabled":true,"rental_uris":{"android":"levelo://app?vid=2319520a-fc10-4ea5-a5ca-d3a4702f6c7b","ios":"levelo://app?vid=2319520a-fc10-4ea5-a5ca-d3a4702f6c7b"},"vehicle_type_id":"4","last_reported":1761588999,"current_range_meters":12800,"station_id":"ce4bhpp2rcd13ifvqhfg","pricing_plan_id":"cebpf4jnsgd1na2vs0mg"},{"bike_id":"e92a5181-3093-4535-adde-2230374de0aa","system_id":"levelo_inurba_marseille","lat":43.31327,"lon":5.37667,"is_reserved":false,"is_disabled":false,"rental_uris":{"android":"levelo://app?vid=e92a5181-3093-4535-adde-2230374de0aa","ios":"levelo://app?vid=e92a5181-3093-4535-adde-2230374de0aa"},"vehicle_type_id":"4","last_reported":1761588999,"current_range_meters":12800,"station_id":"","pricing_plan_id":"cebpf4jnsgd1na2vs0mg"},{"bike_id":"0d53c306-0af4-4d7b-a797-c5061635a4f3","system_id":"levelo_inurba_marseille","lat":43.29776,"lon":5.37142,"is_reserved":false,"is_disabled":false,"rental_uris":{"android":"levelo://app?vid=0d53c306-0af4-4d7b-a797-c5061635a4f3","ios":"levelo://app?vid=0d53c306-0af4-4d7b-a797-c5061635a4f3"},"vehicle_type_id":"4","last_reported":1761588999,"current_range_meters":12800,"station_id":"","pricing_plan_id":"cebpf4jnsgd1na2vs0mg"},{"bike_id":"96e135e9-3840-4218-9e65-152a5c604a6f","system_id":"levelo_inurba_marseille","lat":43.28864,"lon":5.42517,"is_reserved":false,"is_disabled":false,"rental_uris":{"android":"levelo://app?vid=96e135e9-3840-4218-9e65-152a5c604a6f","ios":"levelo://app?vid=96e135e9-3840-4218-9e65-152a5c604a6f"},"vehicle_type_id":"4","last_reported":1761588999,"current_range_meters":12800,"station_id":"st_d3b462108ojc7389ooeg","pricing_plan_id":"cebpf4jnsgd1na2vs0mg"},{"bike_id":"1b7829fd-c993-41fc-94f6-0cddf3da8a25","system_id":"levelo_inurba_marseille","lat":43.248109,"lon":5.374652,"is_reserved":false,"is_disabled":false,"rental_uris":{"android":"levelo://app?vid=1b7829fd-c993-41fc-94f6-0cddf3da8a25","ios":"levelo://app?vid=1b7829fd-c993-41fc-94f6-0cddf3da8a25"},"vehicle_type_id":"4","last_reported":1761588999,"current_range_meters":12800,"station_id":"ce4bhgh2rcd13ifvqfb0","pricing_plan_id":"cebpf4jnsgd1na2vs0mg"},{"bike_id":"6b27b53b-ade4-4e59-9555-b40b30fb2fb2","system_id":"levelo_inurba_marseille","lat":43.25336,"lon":5.42173,"is_reserved":false,"is_disabled":false,"rental_uris":{"android":"levelo://app?vid=6b27b53b-ade4-4e59-9555-b40b30fb2fb2","ios":"levelo://app?vid=6b27b53b-ade4-4e59-9555-b40b30fb2fb2"},"vehicle_type_id":"4","last_reported":1761588999,"current_range_meters":12800,"station_id":"st_d2m65c5bi1j21697t3ng","pricing_plan_id":"cebpf4jnsgd1na2vs0mg"},{"bike_id":"0760a68f-fa94-46c5-9239-65e008646c1b","system_id":"levelo_inurba_marseille","lat":43.28938,"lon":5.364,"is_reserved":false,"is_disabled":false,"rental_uris":{"android":"levelo://app?vid=0760a68f-fa94-46c5-9239-65e008646c1b","ios":"levelo://app?vid=0760a68f-fa94-46c5-9239-65e008646c1b"},"vehicle_type_id":"4","last_reported":1761588999,"current_range_meters":13600,"station_id":"ce4bhc92rcd13ifvqetg","pricing_plan_id":"cebpf4jnsgd1na2vs0mg"},{"bike_id":"cf312dfb-ecf9-4a06-9221-998d248583ef","system_id":"levelo_inurba_marseille","lat":43.25724,"lon":5.41111,"is_reserved":false,"is_disabled":false,"rental_uris":{"android":"levelo://app?vid=cf312dfb-ecf9-4a06-9221-998d248583ef","ios":"levelo://app?vid=cf312dfb-ecf9-4a06-9221-998d248583ef"},"vehicle_type_id":"4","last_reported":1761588999,"current_range_meters":13600,"station_id":"ce4bhkp2rcd13ifvqgd0","pricing_plan_id":"cebpf4jnsgd1na2vs0mg"},{"bike_id":"72692e77-b537-477c-ba7d-fdff69794bfb","system_id":"levelo_inurba_marseille","lat":43.25343,"lon":5.42203,"is_reserved":false,"is_disabled":false,"rental_uris":{"android":"levelo://app?vid=72692e77-b537-477c-ba7d-fdff69794bfb","ios":"levelo://app?vid=72692e77-b537-477c-ba7d-fdff69794bfb"},"vehicle_type_id":"4","last_reported":1761588999,"current_range_meters":13600,"station_id":"st_d2m65c5bi1j21697t3ng","pricing_plan_id":"cebpf4jnsgd1na2vs0mg"},{"bike_id":"3518d957-f0e6-4d4b-861d-2f06db4e4d3f","system_id":"levelo_inurba_marseille","lat":43.28679,"lon":5.4003,"is_reserved":false,"is_disabled":false,"rental_uris":{"android":"levelo://app?vid=3518d957-f0e6-4d4b-861d-2f06db4e4d3f","ios":"levelo://app?vid=3518d957-f0e6-4d4b-861d-2f06db4e4d3f"},"vehicle_type_id":"4","last_reported":1761588999,"current_range_meters":13600,"station_id":"ce4bho92rcd13ifvqh3g","pricing_plan_id":"cebpf4jnsgd1na2vs0mg"},{"bike_id":"e3be03e4-9404-492f-b681-7d0ef6653724","system_id":"levelo_inurba_marseille","lat":43.298842,"lon":5.389062,"is_reserved":false,"is_disabled":false,"rental_uris":{"android":"levelo://app?vid=e3be03e4-9404-492f-b681-7d0ef6653724","ios":"levelo://app?vid=e3be03e4-9404-492f-b681-7d0ef6653724"},"vehicle_type_id":"4","last_reported":1761588999,"current_range_meters":13600,"station_id":"ce4bh392rcd13ifvqdl0","pricing_plan_id":"cebpf4jnsgd1na2vs0mg"},{"bike_id":"14260ed0-6eff-4f59-b6d5-6cfc0f003604","system_id":"levelo_inurba_marseille","lat":43.26063,"lon":5.39399,"is_reserved":false,"is_disabled":false,"rental_uris":{"android":"levelo://app?vid=14260ed0-6eff-4f59-b6d5-6cfc0f003604","ios":"levelo://app?vid=14260ed0-6eff-4f59-b6d5-6cfc0f003604"},"vehicle_type_id":"4","last_reported":1761588999,"current_range_meters":13600,"station_id":"ce4bhh92rcd13ifvqfj0","pricing_plan_id":"cebpf4jnsgd1na2vs0mg"},{"bike_id":"763dedad-f3f7-4198-bc42-a8f8d4bc1d9e","system_id":"levelo_inurba_marseille","lat":43.22935,"lon":5.35385,"is_reserved":false,"is_disabled":false,"rental_uris":{"android":"levelo://app?vid=763dedad-f3f7-4198-bc42-a8f8d4bc1d9e","ios":"levelo://app?vid=763dedad-f3f7-4198-bc42-a8f8d4bc1d9e"},"vehicle_type_id":"4","last_reported":1761588999,"current_range_meters":13600,"station_id":"cpo3532slgdg3j2ikp40","pricing_plan_id":"cebpf4jnsgd1na2vs0mg"},{"bike_id":"fdc43030-5704-454e-ad42-cd94061c06a1","system_id":"levelo_inurba_marseille","lat":43.32091,"lon":5.36779,"is_reserved":false,"is_disabled":false,"rental_uris":{"android":"levelo://app?vid=fdc43030-5704-454e-ad42-cd94061c06a1","ios":"levelo://app?vid=fdc43030-5704-454e-ad42-cd94061c06a1"},"vehicle_type_id":"4","last_reported":1761588999,"current_range_meters":13600,"station_id":"ce4bhrh2rcd13ifvqhug","pricing_plan_id":"cebpf4jnsgd1na2vs0mg"},{"bike_id":"1880ebb9-7edb-463e-976b-226e958b9ebe","system_id":"levelo_inurba_marseille","lat":43.31097,"lon":5.37487,"is_reserved":false,"is_disabled":false,"rental_uris":{"android":"levelo://app?vid=1880ebb9-7edb-463e-976b-226e958b9ebe","ios":"levelo://app?vid=1880ebb9-7edb-463e-976b-226e958b9ebe"},"vehicle_type_id":"4","last_reported":1761588999,"current_range_meters":14000,"station_id":"ce4bgt12rcd13ifvqce0","pricing_plan_id":"cebpf4jnsgd1na2vs0mg"},{"bike_id":"569bc549-be69-43dd-980a-c0df23c0523d","system_id":"levelo_inurba_marseille","lat":43.28941,"lon":5.36637,"is_reserved":false,"is_disabled":false,"rental_uris":{"android":"levelo://app?vid=569bc549-be69-43dd-980a-c0df23c0523d","ios":"levelo://app?vid=569bc549-be69-43dd-980a-c0df23c0523d"},"vehicle_type_id":"4","last_reported":1761588999,"current_range_meters":14000,"station_id":"ce4bhap2rcd13ifvqek0","pricing_plan_id":"cebpf4jnsgd1na2vs0mg"},{"bike_id":"104123f1-2c2b-41cb-aef3-38ac4aaeb3ba","system_id":"levelo_inurba_marseille","lat":43.27564,"lon":5.38434,"is_reserved":false,"is_disabled":false,"rental_uris":{"android":"levelo://app?vid=104123f1-2c2b-41cb-aef3-38ac4aaeb3ba","ios":"levelo://app?vid=104123f1-2c2b-41cb-aef3-38ac4aaeb3ba"},"vehicle_type_id":"4","last_reported":1761588999,"current_range_meters":14000,"station_id":"ce4bhh92rcd13ifvqfi0","pricing_plan_id":"cebpf4jnsgd1na2vs0mg"},{"bike_id":"29283b19-8cb7-4629-bfcd-37dcb369e8b8","system_id":"levelo_inurba_marseille","lat":43.289433,"lon":5.366355,"is_reserved":false,"is_disabled":false,"rental_uris":{"android":"levelo://app?vid=29283b19-8cb7-4629-bfcd-37dcb369e8b8","ios":"levelo://app?vid=29283b19-8cb7-4629-bfcd-37dcb369e8b8"},"vehicle_type_id":"4","last_reported":1761588999,"current_range_meters":14000,"station_id":"ce4bhap2rcd13ifvqek0","pricing_plan_id":"cebpf4jnsgd1na2vs0mg"},{"bike_id":"1dc9ba42-c81c-4960-a8c6-a1d1249c6591","system_id":"levelo_inurba_marseille","lat":43.30733,"lon":5.4244,"is_reserved":false,"is_disabled":false,"rental_uris":{"android":"levelo://app?vid=1dc9ba42-c81c-4960-a8c6-a1d1249c6591","ios":"levelo://app?vid=1dc9ba42-c81c-4960-a8c6-a1d1249c6591"},"vehicle_type_id":"4","last_reported":1761588999,"current_range_meters":14000,"station_id":"st_cvj6ca6bvosntc0bfgr0","pricing_plan_id":"cebpf4jnsgd1na2vs0mg"},{"bike_id":"64c2a4ee-63b3-4dc7-8637-4635192094f5","system_id":"levelo_inurba_marseille","lat":43.25709,"lon":5.41095,"is_reserved":false,"is_disabled":false,"rental_uris":{"android":"levelo://app?vid=64c2a4ee-63b3-4dc7-8637-4635192094f5","ios":"levelo://app?vid=64c2a4ee-63b3-4dc7-8637-4635192094f5"},"vehicle_type_id":"4","last_reported":1761588999,"current_range_meters":14000,"station_id":"ce4bhkp2rcd13ifvqgd0","pricing_plan_id":"cebpf4jnsgd1na2vs0mg"},{"bike_id":"de6961a8-5d19-4fa5-9a6b-0885b0760ef9","system_id":"levelo_inurba_marseille","lat":43.27904,"lon":5.38007,"is_reserved":false,"is_disabled":false,"rental_uris":{"android":"levelo://app?vid=de6961a8-5d19-4fa5-9a6b-0885b0760ef9","ios":"levelo://app?vid=de6961a8-5d19-4fa5-9a6b-0885b0760ef9"},"vehicle_type_id":"4","last_reported":1761588999,"current_range_meters":14000,"station_id":"ce4bhf92rcd13ifvqf50","pricing_plan_id":"cebpf4jnsgd1na2vs0mg"},{"bike_id":"0b4cc5f4-c6b9-4e81-8ba9-74cdecab57fb","system_id":"levelo_inurba_marseille","lat":43.26275,"lon":5.41638,"is_reserved":false,"is_disabled":false,"rental_uris":{"android":"levelo://app?vid=0b4cc5f4-c6b9-4e81-8ba9-74cdecab57fb","ios":"levelo://app?vid=0b4cc5f4-c6b9-4e81-8ba9-74cdecab57fb"},"vehicle_type_id":"4","last_reported":1761588999,"current_range_meters":14000,"station_id":"","pricing_plan_id":"cebpf4jnsgd1na2vs0mg"},{"bike_id":"855a9850-b666-4880-98c3-92693e81a5aa","system_id":"levelo_inurba_marseille","lat":43.27498,"lon":5.42454,"is_reserved":false,"is_disabled":false,"rental_uris":{"android":"levelo://app?vid=855a9850-b666-4880-98c3-92693e81a5aa","ios":"levelo://app?vid=855a9850-b666-4880-98c3-92693e81a5aa"},"vehicle_type_id":"4","last_reported":1761588999,"current_range_meters":14000,"station_id":"ce4bhn92rcd13ifvqgrg","pricing_plan_id":"cebpf4jnsgd1na2vs0mg"},{"bike_id":"26ff10bf-eb5d-4d68-b199-fbc054e70574","system_id":"levelo_inurba_marseille","lat":43.23177,"lon":5.39987,"is_reserved":false,"is_disabled":false,"rental_uris":{"android":"levelo://app?vid=26ff10bf-eb5d-4d68-b199-fbc054e70574","ios":"levelo://app?vid=26ff10bf-eb5d-4d68-b199-fbc054e70574"},"vehicle_type_id":"4","last_reported":1761588999,"current_range_meters":14000,"station_id":"ce4bhn12rcd13ifvqgqg","pricing_plan_id":"cebpf4jnsgd1na2vs0mg"},{"bike_id":"8c71c05b-dd29-470b-8b05-4159f459865a","system_id":"levelo_inurba_marseille","lat":43.27692,"lon":5.38884,"is_reserved":false,"is_disabled":false,"rental_uris":{"android":"levelo://app?vid=8c71c05b-dd29-470b-8b05-4159f459865a","ios":"levelo://app?vid=8c71c05b-dd29-470b-8b05-4159f459865a"},"vehicle_type_id":"4","last_reported":1761588999,"current_range_meters":14000,"station_id":"ce4bhi12rcd13ifvqfo0","pricing_plan_id":"cebpf4jnsgd1na2vs0mg"},{"bike_id":"4c888f7a-a3cd-4aff-ab0b-fe318b78464b","system_id":"levelo_inurba_marseille","lat":43.21734,"lon":5.34625,"is_reserved":false,"is_disabled":false,"rental_uris":{"android":"levelo://app?vid=4c888f7a-a3cd-4aff-ab0b-fe318b78464b","ios":"levelo://app?vid=4c888f7a-a3cd-4aff-ab0b-fe318b78464b"},"vehicle_type_id":"4","last_reported":1761588999,"current_range_meters":14000,"station_id":"st_cvj6r9ubvosntc0bgbag","pricing_plan_id":"cebpf4jnsgd1na2vs0mg"},{"bike_id":"0d30d321-a5c1-4df9-bb01-58285c66b73b","system_id":"levelo_inurba_marseille","lat":43.29187,"lon":5.35798,"is_reserved":false,"is_disabled":true,"rental_uris":{"android":"levelo://app?vid=0d30d321-a5c1-4df9-bb01-58285c66b73b","ios":"levelo://app?vid=0d30d321-a5c1-4df9-bb01-58285c66b73b"},"vehicle_type_id":"4","last_reported":1761588999,"current_range_meters":14000,"station_id":"ce4bhb12rcd13ifvqel0","pricing_plan_id":"cebpf4jnsgd1na2vs0mg"},{"bike_id":"49576505-f76e-40c1-b7df-3b7cf36cc622","system_id":"levelo_inurba_marseille","lat":43.24999,"lon":5.38933,"is_reserved":false,"is_disabled":false,"rental_uris":{"android":"levelo://app?vid=49576505-f76e-40c1-b7df-3b7cf36cc622","ios":"levelo://app?vid=49576505-f76e-40c1-b7df-3b7cf36cc622"},"vehicle_type_id":"4","last_reported":1761588999,"current_range_meters":14400,"station_id":"ce4bhgp2rcd13ifvqfd0","pricing_plan_id":"cebpf4jnsgd1na2vs0mg"},{"bike_id":"eea3c3c3-734f-4fd3-8061-ed84cfe47b38","system_id":"levelo_inurba_marseille","lat":43.32567,"lon":5.39147,"is_reserved":false,"is_disabled":false,"rental_uris":{"android":"levelo://app?vid=eea3c3c3-734f-4fd3-8061-ed84cfe47b38","ios":"levelo://app?vid=eea3c3c3-734f-4fd3-8061-ed84cfe47b38"},"vehicle_type_id":"4","last_reported":1761588999,"current_range_meters":14400,"station_id":"","pricing_plan_id":"cebpf4jnsgd1na2vs0mg"},{"bike_id":"c2890f75-0e13-440f-aa2c-a3491002685c","system_id":"levelo_inurba_marseille","lat":43.29582,"lon":5.36743,"is_reserved":false,"is_disabled":false,"rental_uris":{"android":"levelo://app?vid=c2890f75-0e13-440f-aa2c-a3491002685c","ios":"levelo://app?vid=c2890f75-0e13-440f-aa2c-a3491002685c"},"vehicle_type_id":"4","last_reported":1761588999,"current_range_meters":14400,"station_id":"ce4bgph2rcd13ifvqc2g","pricing_plan_id":"cebpf4jnsgd1na2vs0mg"},{"bike_id":"a3100ff0-76ab-498b-bebf-b9c52f3d2538","system_id":"levelo_inurba_marseille","lat":43.28567,"lon":5.48367,"is_reserved":false,"is_disabled":false,"rental_uris":{"android":"levelo://app?vid=a3100ff0-76ab-498b-bebf-b9c52f3d2538","ios":"levelo://app?vid=a3100ff0-76ab-498b-bebf-b9c52f3d2538"},"vehicle_type_id":"4","last_reported":1761588999,"current_range_meters":14400,"station_id":"","pricing_plan_id":"cebpf4jnsgd1na2vs0mg"},{"bike_id":"6c585561-4c2e-41e3-a06c-bbe123b248dd","system_id":"levelo_inurba_marseille","lat":43.307861,"lon":5.376541,"is_reserved":false,"is_disabled":false,"rental_uris":{"android":"levelo://app?vid=6c585561-4c2e-41e3-a06c-bbe123b248dd","ios":"levelo://app?vid=6c585561-4c2e-41e3-a06c-bbe123b248dd"},"vehicle_type_id":"4","last_reported":1761588999,"current_range_meters":14800,"station_id":"ce4bhp12rcd13ifvqh9g","pricing_plan_id":"cebpf4jnsgd1na2vs0mg"},{"bike_id":"a507e789-f440-40a8-85cf-09841d81676c","system_id":"levelo_inurba_marseille","lat":43.22509,"lon":5.34861,"is_reserved":false,"is_disabled":false,"rental_uris":{"android":"levelo://app?vid=a507e789-f440-40a8-85cf-09841d81676c","ios":"levelo://app?vid=a507e789-f440-40a8-85cf-09841d81676c"},"vehicle_type_id":"4","last_reported":1761588999,"current_range_meters":14800,"station_id":"","pricing_plan_id":"cebpf4jnsgd1na2vs0mg"},{"bike_id":"276fce45-4f2f-48bf-bb09-c7ddc6806551","system_id":"levelo_inurba_marseille","lat":43.303144,"lon":5.367477,"is_reserved":false,"is_disabled":false,"rental_uris":{"android":"levelo://app?vid=276fce45-4f2f-48bf-bb09-c7ddc6806551","ios":"levelo://app?vid=276fce45-4f2f-48bf-bb09-c7ddc6806551"},"vehicle_type_id":"4","last_reported":1761588999,"current_range_meters":14800,"station_id":"","pricing_plan_id":"cebpf4jnsgd1na2vs0mg"},{"bike_id":"30fb2cde-d9fd-40ac-bedf-d73a6980ec0f","system_id":"levelo_inurba_marseille","lat":43.302969,"lon":5.368839,"is_reserved":false,"is_disabled":false,"rental_uris":{"android":"levelo://app?vid=30fb2cde-d9fd-40ac-bedf-d73a6980ec0f","ios":"levelo://app?vid=30fb2cde-d9fd-40ac-bedf-d73a6980ec0f"},"vehicle_type_id":"4","last_reported":1761588999,"current_range_meters":14800,"station_id":"","pricing_plan_id":"cebpf4jnsgd1na2vs0mg"},{"bike_id":"7ef1c635-05bd-452a-889d-91b6aef98c6f","system_id":"levelo_inurba_marseille","lat":43.28935,"lon":5.3641,"is_reserved":false,"is_disabled":false,"rental_uris":{"android":"levelo://app?vid=7ef1c635-05bd-452a-889d-91b6aef98c6f","ios":"levelo://app?vid=7ef1c635-05bd-452a-889d-91b6aef98c6f"},"vehicle_type_id":"4","last_reported":1761588999,"current_range_meters":15200,"station_id":"ce4bhc92rcd13ifvqetg","pricing_plan_id":"cebpf4jnsgd1na2vs0mg"},{"bike_id":"a74b3dcc-32b0-4aff-b4c6-0a80884c7c6c","system_id":"levelo_inurba_marseille","lat":43.25587,"lon":5.38258,"is_reserved":false,"is_disabled":false,"rental_uris":{"android":"levelo://app?vid=a74b3dcc-32b0-4aff-b4c6-0a80884c7c6c","ios":"levelo://app?vid=a74b3dcc-32b0-4aff-b4c6-0a80884c7c6c"},"vehicle_type_id":"4","last_reported":1761588999,"current_range_meters":15200,"station_id":"ce4bhih2rcd13ifvqfs0","pricing_plan_id":"cebpf4jnsgd1na2vs0mg"},{"bike_id":"21dbf7f2-eb19-4663-b1c0-879822879492","system_id":"levelo_inurba_marseille","lat":43.337631,"lon":5.374577,"is_reserved":false,"is_disabled":false,"rental_uris":{"android":"levelo://app?vid=21dbf7f2-eb19-4663-b1c0-879822879492","ios":"levelo://app?vid=21dbf7f2-eb19-4663-b1c0-879822879492"},"vehicle_type_id":"4","last_reported":1761588999,"current_range_meters":15200,"station_id":"","pricing_plan_id":"cebpf4jnsgd1na2vs0mg"},{"bike_id":"01d566b3-b9e8-4c6a-8295-fa1b2dab6da5","system_id":"levelo_inurba_marseille","lat":43.3138,"lon":5.38588,"is_reserved":false,"is_disabled":false,"rental_uris":{"android":"levelo://app?vid=01d566b3-b9e8-4c6a-8295-fa1b2dab6da5","ios":"levelo://app?vid=01d566b3-b9e8-4c6a-8295-fa1b2dab6da5"},"vehicle_type_id":"4","last_reported":1761588999,"current_range_meters":16000,"station_id":"ce4bgt92rcd13ifvqcf0","pricing_plan_id":"cebpf4jnsgd1na2vs0mg"},{"bike_id":"b1aa0dac-0be6-4b0a-ab7f-7b3dbb9d27b6","system_id":"levelo_inurba_marseille","lat":43.29708,"lon":5.36605,"is_reserved":false,"is_disabled":false,"rental_uris":{"android":"levelo://app?vid=b1aa0dac-0be6-4b0a-ab7f-7b3dbb9d27b6","ios":"levelo://app?vid=b1aa0dac-0be6-4b0a-ab7f-7b3dbb9d27b6"},"vehicle_type_id":"4","last_reported":1761588999,"current_range_meters":16000,"station_id":"ce4bgn12rcd13ifvqbt0","pricing_plan_id":"cebpf4jnsgd1na2vs0mg"},{"bike_id":"f0eb90ee-1135-4753-8042-a8905f5cd276","system_id":"levelo_inurba_marseille","lat":43.2657,"lon":5.39004,"is_reserved":false,"is_disabled":false,"rental_uris":{"android":"levelo://app?vid=f0eb90ee-1135-4753-8042-a8905f5cd276","ios":"levelo://app?vid=f0eb90ee-1135-4753-8042-a8905f5cd276"},"vehicle_type_id":"4","last_reported":1761588999,"current_range_meters":16000,"station_id":"ce4bhe12rcd13ifvqf30","pricing_plan_id":"cebpf4jnsgd1na2vs0mg"},{"bike_id":"0045d293-fc25-4f9a-9434-47036bd87e67","system_id":"levelo_inurba_marseille","lat":43.229289,"lon":5.35376,"is_reserved":false,"is_disabled":false,"rental_uris":{"android":"levelo://app?vid=0045d293-fc25-4f9a-9434-47036bd87e67","ios":"levelo://app?vid=0045d293-fc25-4f9a-9434-47036bd87e67"},"vehicle_type_id":"4","last_reported":1761588999,"current_range_meters":16000,"station_id":"cpo3532slgdg3j2ikp40","pricing_plan_id":"cebpf4jnsgd1na2vs0mg"},{"bike_id":"d9c89d14-ffce-46f4-8ae6-64b1c7d2adfc","system_id":"levelo_inurba_marseille","lat":43.29545,"lon":5.38542,"is_reserved":false,"is_disabled":false,"rental_uris":{"android":"levelo://app?vid=d9c89d14-ffce-46f4-8ae6-64b1c7d2adfc","ios":"levelo://app?vid=d9c89d14-ffce-46f4-8ae6-64b1c7d2adfc"},"vehicle_type_id":"4","last_reported":1761588999,"current_range_meters":16000,"station_id":"ce4bgih2rcd13ifvqba0","pricing_plan_id":"cebpf4jnsgd1na2vs0mg"},{"bike_id":"d962fb9a-4f39-4899-8933-9e6dd4158eaa","system_id":"levelo_inurba_marseille","lat":43.297557,"lon":5.427837,"is_reserved":false,"is_disabled":false,"rental_uris":{"android":"levelo://app?vid=d962fb9a-4f39-4899-8933-9e6dd4158eaa","ios":"levelo://app?vid=d962fb9a-4f39-4899-8933-9e6dd4158eaa"},"vehicle_type_id":"4","last_reported":1761588999,"current_range_meters":16400,"station_id":"st_d3md5207bmas73dh9klg","pricing_plan_id":"cebpf4jnsgd1na2vs0mg"},{"bike_id":"c67ae694-23a2-454f-927a-f51983af8d58","system_id":"levelo_inurba_marseille","lat":43.2894,"lon":5.36637,"is_reserved":false,"is_disabled":false,"rental_uris":{"android":"levelo://app?vid=c67ae694-23a2-454f-927a-f51983af8d58","ios":"levelo://app?vid=c67ae694-23a2-454f-927a-f51983af8d58"},"vehicle_type_id":"4","last_reported":1761588999,"current_range_meters":16400,"station_id":"ce4bhap2rcd13ifvqek0","pricing_plan_id":"cebpf4jnsgd1na2vs0mg"},{"bike_id":"32a2f02a-acb1-4043-ba59-8dd6416e52ea","system_id":"levelo_inurba_marseille","lat":43.295795,"lon":5.375115,"is_reserved":false,"is_disabled":false,"rental_uris":{"android":"levelo://app?vid=32a2f02a-acb1-4043-ba59-8dd6416e52ea","ios":"levelo://app?vid=32a2f02a-acb1-4043-ba59-8dd6416e52ea"},"vehicle_type_id":"4","last_reported":1761588999,"current_range_meters":16400,"station_id":"ce4bgh92rcd13ifvqb50","pricing_plan_id":"cebpf4jnsgd1na2vs0mg"},{"bike_id":"95ee5247-cf12-4955-a50d-0e39fe0db50f","system_id":"levelo_inurba_marseille","lat":43.31171,"lon":5.38726,"is_reserved":false,"is_disabled":false,"rental_uris":{"android":"levelo://app?vid=95ee5247-cf12-4955-a50d-0e39fe0db50f","ios":"levelo://app?vid=95ee5247-cf12-4955-a50d-0e39fe0db50f"},"vehicle_type_id":"4","last_reported":1761588999,"current_range_meters":16400,"station_id":"ce4bgv12rcd13ifvqcp0","pricing_plan_id":"cebpf4jnsgd1na2vs0mg"},{"bike_id":"bfb2bda0-721b-4863-aed8-ab890ecb35b4","system_id":"levelo_inurba_marseille","lat":43.28623,"lon":5.35106,"is_reserved":false,"is_disabled":false,"rental_uris":{"android":"levelo://app?vid=bfb2bda0-721b-4863-aed8-ab890ecb35b4","ios":"levelo://app?vid=bfb2bda0-721b-4863-aed8-ab890ecb35b4"},"vehicle_type_id":"4","last_reported":1761588999,"current_range_meters":16400,"station_id":"ce4bhch2rcd13ifvqeug","pricing_plan_id":"cebpf4jnsgd1na2vs0mg"},{"bike_id":"595b9055-888d-4a8b-89e8-b8a1d6f98ff7","system_id":"levelo_inurba_marseille","lat":43.2953,"lon":5.3855,"is_reserved":false,"is_disabled":false,"rental_uris":{"android":"levelo://app?vid=595b9055-888d-4a8b-89e8-b8a1d6f98ff7","ios":"levelo://app?vid=595b9055-888d-4a8b-89e8-b8a1d6f98ff7"},"vehicle_type_id":"4","last_reported":1761588999,"current_range_meters":16400,"station_id":"ce4bgih2rcd13ifvqba0","pricing_plan_id":"cebpf4jnsgd1na2vs0mg"},{"bike_id":"c902a12b-f990-4bee-b781-417c2414143d","system_id":"levelo_inurba_marseille","lat":43.317009,"lon":5.376483,"is_reserved":false,"is_disabled":false,"rental_uris":{"android":"levelo://app?vid=c902a12b-f990-4bee-b781-417c2414143d","ios":"levelo://app?vid=c902a12b-f990-4bee-b781-417c2414143d"},"vehicle_type_id":"4","last_reported":1761588999,"current_range_meters":16400,"station_id":"ce4bgth2rcd13ifvqch0","pricing_plan_id":"cebpf4jnsgd1na2vs0mg"},{"bike_id":"9fbd96ee-563a-43f7-87fd-6fffaeedac55","system_id":"levelo_inurba_marseille","lat":43.25847,"lon":5.39918,"is_reserved":false,"is_disabled":true,"rental_uris":{"android":"levelo://app?vid=9fbd96ee-563a-43f7-87fd-6fffaeedac55","ios":"levelo://app?vid=9fbd96ee-563a-43f7-87fd-6fffaeedac55"},"vehicle_type_id":"4","last_reported":1761588999,"current_range_meters":16400,"station_id":"ce4bhl92rcd13ifvqghg","pricing_plan_id":"cebpf4jnsgd1na2vs0mg"},{"bike_id":"b1a13ed2-a977-4f71-b206-ab34a7f83b41","system_id":"levelo_inurba_marseille","lat":43.32361,"lon":5.38891,"is_reserved":false,"is_disabled":false,"rental_uris":{"android":"levelo://app?vid=b1a13ed2-a977-4f71-b206-ab34a7f83b41","ios":"levelo://app?vid=b1a13ed2-a977-4f71-b206-ab34a7f83b41"},"vehicle_type_id":"4","last_reported":1761588999,"current_range_meters":16400,"station_id":"ce4bhqp2rcd13ifvqhog","pricing_plan_id":"cebpf4jnsgd1na2vs0mg"},{"bike_id":"507a6194-3500-47da-bba0-ad801aa7b875","system_id":"levelo_inurba_marseille","lat":43.24398,"lon":5.37043,"is_reserved":false,"is_disabled":false,"rental_uris":{"android":"levelo://app?vid=507a6194-3500-47da-bba0-ad801aa7b875","ios":"levelo://app?vid=507a6194-3500-47da-bba0-ad801aa7b875"},"vehicle_type_id":"4","last_reported":1761588999,"current_range_meters":16400,"station_id":"ce4bhhh2rcd13ifvqfk0","pricing_plan_id":"cebpf4jnsgd1na2vs0mg"},{"bike_id":"8f48dd16-ebea-4d8c-a9e1-dffb1f311a2a","system_id":"levelo_inurba_marseille","lat":43.29307,"lon":5.37176,"is_reserved":false,"is_disabled":false,"rental_uris":{"android":"levelo://app?vid=8f48dd16-ebea-4d8c-a9e1-dffb1f311a2a","ios":"levelo://app?vid=8f48dd16-ebea-4d8c-a9e1-dffb1f311a2a"},"vehicle_type_id":"4","last_reported":1761588999,"current_range_meters":16400,"station_id":"ce4bgh92rcd13ifvqb40","pricing_plan_id":"cebpf4jnsgd1na2vs0mg"},{"bike_id":"ea233b5d-5301-4705-999a-2932def85833","system_id":"levelo_inurba_marseille","lat":43.28216,"lon":5.39066,"is_reserved":false,"is_disabled":false,"rental_uris":{"android":"levelo://app?vid=ea233b5d-5301-4705-999a-2932def85833","ios":"levelo://app?vid=ea233b5d-5301-4705-999a-2932def85833"},"vehicle_type_id":"4","last_reported":1761588999,"current_range_meters":16400,"station_id":"ce4bhn92rcd13ifvqgsg","pricing_plan_id":"cebpf4jnsgd1na2vs0mg"},{"bike_id":"b1ad8432-4d89-45ac-bb7c-60194adfd7f9","system_id":"levelo_inurba_marseille","lat":43.29479,"lon":5.43306,"is_reserved":false,"is_disabled":false,"rental_uris":{"android":"levelo://app?vid=b1ad8432-4d89-45ac-bb7c-60194adfd7f9","ios":"levelo://app?vid=b1ad8432-4d89-45ac-bb7c-60194adfd7f9"},"vehicle_type_id":"4","last_reported":1761588999,"current_range_meters":16400,"station_id":"st_d3j5ugp08ojc73fj9d10","pricing_plan_id":"cebpf4jnsgd1na2vs0mg"},{"bike_id":"7c462215-cdba-4190-aa0a-0a436a3cfb4a","system_id":"levelo_inurba_marseille","lat":43.28437,"lon":5.3591,"is_reserved":false,"is_disabled":false,"rental_uris":{"android":"levelo://app?vid=7c462215-cdba-4190-aa0a-0a436a3cfb4a","ios":"levelo://app?vid=7c462215-cdba-4190-aa0a-0a436a3cfb4a"},"vehicle_type_id":"4","last_reported":1761588999,"current_range_meters":16400,"station_id":"ce4bhah2rcd13ifvqei0","pricing_plan_id":"cebpf4jnsgd1na2vs0mg"},{"bike_id":"7b1b6fda-acbf-4bcc-9c4e-eb02a7bb672a","system_id":"levelo_inurba_marseille","lat":43.24171,"lon":5.36395,"is_reserved":false,"is_disabled":false,"rental_uris":{"android":"levelo://app?vid=7b1b6fda-acbf-4bcc-9c4e-eb02a7bb672a","ios":"levelo://app?vid=7b1b6fda-acbf-4bcc-9c4e-eb02a7bb672a"},"vehicle_type_id":"4","last_reported":1761588999,"current_range_meters":16800,"station_id":"cpo36qri1sfpv3e86is0","pricing_plan_id":"cebpf4jnsgd1na2vs0mg"},{"bike_id":"61582872-d791-4b1e-b140-850838a7e879","system_id":"levelo_inurba_marseille","lat":43.24171,"lon":5.36401,"is_reserved":false,"is_disabled":false,"rental_uris":{"android":"levelo://app?vid=61582872-d791-4b1e-b140-850838a7e879","ios":"levelo://app?vid=61582872-d791-4b1e-b140-850838a7e879"},"vehicle_type_id":"4","last_reported":1761588999,"current_range_meters":16800,"station_id":"cpo36qri1sfpv3e86is0","pricing_plan_id":"cebpf4jnsgd1na2vs0mg"},{"bike_id":"20f1d5e3-a66e-4a7f-8dec-54a0f9ae8191","system_id":"levelo_inurba_marseille","lat":43.31117,"lon":5.37767,"is_reserved":false,"is_disabled":false,"rental_uris":{"android":"levelo://app?vid=20f1d5e3-a66e-4a7f-8dec-54a0f9ae8191","ios":"levelo://app?vid=20f1d5e3-a66e-4a7f-8dec-54a0f9ae8191"},"vehicle_type_id":"4","last_reported":1761588999,"current_range_meters":16800,"station_id":"ce4bgt92rcd13ifvqcg0","pricing_plan_id":"cebpf4jnsgd1na2vs0mg"},{"bike_id":"d7b556e6-ac3d-4fe4-b136-c7cd05c756e3","system_id":"levelo_inurba_marseille","lat":43.23059,"lon":5.35504,"is_reserved":false,"is_disabled":false,"rental_uris":{"android":"levelo://app?vid=d7b556e6-ac3d-4fe4-b136-c7cd05c756e3","ios":"levelo://app?vid=d7b556e6-ac3d-4fe4-b136-c7cd05c756e3"},"vehicle_type_id":"4","last_reported":1761588999,"current_range_meters":16800,"station_id":"cpo3342slgdg3j2ifvpg","pricing_plan_id":"cebpf4jnsgd1na2vs0mg"},{"bike_id":"744984dd-0ad5-4f2a-84c2-b72706f0ee2a","system_id":"levelo_inurba_marseille","lat":43.31754,"lon":5.3902,"is_reserved":false,"is_disabled":false,"rental_uris":{"android":"levelo://app?vid=744984dd-0ad5-4f2a-84c2-b72706f0ee2a","ios":"levelo://app?vid=744984dd-0ad5-4f2a-84c2-b72706f0ee2a"},"vehicle_type_id":"4","last_reported":1761588999,"current_range_meters":16800,"station_id":"ce4bhqp2rcd13ifvqhng","pricing_plan_id":"cebpf4jnsgd1na2vs0mg"},{"bike_id":"13b6a6b6-4997-40a0-861f-460de0cd5056","system_id":"levelo_inurba_marseille","lat":43.25581,"lon":5.38246,"is_reserved":false,"is_disabled":false,"rental_uris":{"android":"levelo://app?vid=13b6a6b6-4997-40a0-861f-460de0cd5056","ios":"levelo://app?vid=13b6a6b6-4997-40a0-861f-460de0cd5056"},"vehicle_type_id":"4","last_reported":1761588999,"current_range_meters":16800,"station_id":"ce4bhih2rcd13ifvqfs0","pricing_plan_id":"cebpf4jnsgd1na2vs0mg"},{"bike_id":"b0547b29-ebbb-4a2f-9050-9346c06dcd7d","system_id":"levelo_inurba_marseille","lat":43.27578,"lon":5.3842,"is_reserved":false,"is_disabled":false,"rental_uris":{"android":"levelo://app?vid=b0547b29-ebbb-4a2f-9050-9346c06dcd7d","ios":"levelo://app?vid=b0547b29-ebbb-4a2f-9050-9346c06dcd7d"},"vehicle_type_id":"4","last_reported":1761588999,"current_range_meters":16800,"station_id":"ce4bhh92rcd13ifvqfi0","pricing_plan_id":"cebpf4jnsgd1na2vs0mg"},{"bike_id":"266488d3-4677-4b2c-b163-8d1ad61d8414","system_id":"levelo_inurba_marseille","lat":43.28472,"lon":5.38426,"is_reserved":false,"is_disabled":true,"rental_uris":{"android":"levelo://app?vid=266488d3-4677-4b2c-b163-8d1ad61d8414","ios":"levelo://app?vid=266488d3-4677-4b2c-b163-8d1ad61d8414"},"vehicle_type_id":"4","last_reported":1761588999,"current_range_meters":16800,"station_id":"ce4bh512rcd13ifvqe3g","pricing_plan_id":"cebpf4jnsgd1na2vs0mg"},{"bike_id":"d5ca831f-8041-403e-ada8-7b4196c3d5be","system_id":"levelo_inurba_marseille","lat":43.293714,"lon":5.379385,"is_reserved":false,"is_disabled":false,"rental_uris":{"android":"levelo://app?vid=d5ca831f-8041-403e-ada8-7b4196c3d5be","ios":"levelo://app?vid=d5ca831f-8041-403e-ada8-7b4196c3d5be"},"vehicle_type_id":"4","last_reported":1761588999,"current_range_meters":16800,"station_id":"","pricing_plan_id":"cebpf4jnsgd1na2vs0mg"},{"bike_id":"874591d8-e407-49af-b2d3-95e72c4a2de2","system_id":"levelo_inurba_marseille","lat":43.26482,"lon":5.39552,"is_reserved":false,"is_disabled":false,"rental_uris":{"android":"levelo://app?vid=874591d8-e407-49af-b2d3-95e72c4a2de2","ios":"levelo://app?vid=874591d8-e407-49af-b2d3-95e72c4a2de2"},"vehicle_type_id":"4","last_reported":1761588999,"current_range_meters":16800,"station_id":"ce4bhi12rcd13ifvqfq0","pricing_plan_id":"cebpf4jnsgd1na2vs0mg"},{"bike_id":"aa46d607-5ca9-42d5-a54f-886f9a9d2b0f","system_id":"levelo_inurba_marseille","lat":43.30786,"lon":5.37656,"is_reserved":false,"is_disabled":false,"rental_uris":{"android":"levelo://app?vid=aa46d607-5ca9-42d5-a54f-886f9a9d2b0f","ios":"levelo://app?vid=aa46d607-5ca9-42d5-a54f-886f9a9d2b0f"},"vehicle_type_id":"4","last_reported":1761588999,"current_range_meters":17200,"station_id":"ce4bgv92rcd13ifvqcq0","pricing_plan_id":"cebpf4jnsgd1na2vs0mg"},{"bike_id":"2c83f786-c94e-4856-a2f8-42335d8c05da","system_id":"levelo_inurba_marseille","lat":43.2587,"lon":5.39895,"is_reserved":false,"is_disabled":false,"rental_uris":{"android":"levelo://app?vid=2c83f786-c94e-4856-a2f8-42335d8c05da","ios":"levelo://app?vid=2c83f786-c94e-4856-a2f8-42335d8c05da"},"vehicle_type_id":"4","last_reported":1761588999,"current_range_meters":17200,"station_id":"ce4bhl92rcd13ifvqghg","pricing_plan_id":"cebpf4jnsgd1na2vs0mg"},{"bike_id":"cb1edfac-a33c-414f-978e-d6b7c302c312","system_id":"levelo_inurba_marseille","lat":43.29517,"lon":5.39401,"is_reserved":false,"is_disabled":false,"rental_uris":{"android":"levelo://app?vid=cb1edfac-a33c-414f-978e-d6b7c302c312","ios":"levelo://app?vid=cb1edfac-a33c-414f-978e-d6b7c302c312"},"vehicle_type_id":"4","last_reported":1761588999,"current_range_meters":17200,"station_id":"ce4bh292rcd13ifvqdf0","pricing_plan_id":"cebpf4jnsgd1na2vs0mg"},{"bike_id":"a630ed88-3f05-4926-bbab-8387ab6b6a28","system_id":"levelo_inurba_marseille","lat":43.23146,"lon":5.43701,"is_reserved":false,"is_disabled":true,"rental_uris":{"android":"levelo://app?vid=a630ed88-3f05-4926-bbab-8387ab6b6a28","ios":"levelo://app?vid=a630ed88-3f05-4926-bbab-8387ab6b6a28"},"vehicle_type_id":"4","last_reported":1761588999,"current_range_meters":17200,"station_id":"ce4bhmp2rcd13ifvqgog","pricing_plan_id":"cebpf4jnsgd1na2vs0mg"},{"bike_id":"d96e6d0c-8ca4-47f8-8d33-ff5e07b4f852","system_id":"levelo_inurba_marseille","lat":43.29217,"lon":5.39318,"is_reserved":false,"is_disabled":false,"rental_uris":{"android":"levelo://app?vid=d96e6d0c-8ca4-47f8-8d33-ff5e07b4f852","ios":"levelo://app?vid=d96e6d0c-8ca4-47f8-8d33-ff5e07b4f852"},"vehicle_type_id":"4","last_reported":1761588999,"current_range_meters":17200,"station_id":"ce4bh192rcd13ifvqdd0","pricing_plan_id":"cebpf4jnsgd1na2vs0mg"},{"bike_id":"eb8e708e-efeb-4a9e-84f5-25ba537d2e32","system_id":"levelo_inurba_marseille","lat":43.29909,"lon":5.37475,"is_reserved":false,"is_disabled":false,"rental_uris":{"android":"levelo://app?vid=eb8e708e-efeb-4a9e-84f5-25ba537d2e32","ios":"levelo://app?vid=eb8e708e-efeb-4a9e-84f5-25ba537d2e32"},"vehicle_type_id":"4","last_reported":1761588999,"current_range_meters":17600,"station_id":"ce4bgjh2rcd13ifvqbg0","pricing_plan_id":"cebpf4jnsgd1na2vs0mg"},{"bike_id":"32a444c0-ff8d-4a61-8c24-5fa13742cb61","system_id":"levelo_inurba_marseille","lat":43.28677,"lon":5.38676,"is_reserved":false,"is_disabled":false,"rental_uris":{"android":"levelo://app?vid=32a444c0-ff8d-4a61-8c24-5fa13742cb61","ios":"levelo://app?vid=32a444c0-ff8d-4a61-8c24-5fa13742cb61"},"vehicle_type_id":"4","last_reported":1761588999,"current_range_meters":17600,"station_id":"ce4bh492rcd13ifvqdug","pricing_plan_id":"cebpf4jnsgd1na2vs0mg"},{"bike_id":"74cd8338-a4b2-42fe-9981-9f2d2909db46","system_id":"levelo_inurba_marseille","lat":43.2954,"lon":5.39041,"is_reserved":false,"is_disabled":false,"rental_uris":{"android":"levelo://app?vid=74cd8338-a4b2-42fe-9981-9f2d2909db46","ios":"levelo://app?vid=74cd8338-a4b2-42fe-9981-9f2d2909db46"},"vehicle_type_id":"4","last_reported":1761588999,"current_range_meters":17600,"station_id":"ce4bh3p2rcd13ifvqdp0","pricing_plan_id":"cebpf4jnsgd1na2vs0mg"},{"bike_id":"a72ba818-7371-4726-9234-a81be08b4f21","system_id":"levelo_inurba_marseille","lat":43.290979,"lon":5.381506,"is_reserved":false,"is_disabled":true,"rental_uris":{"android":"levelo://app?vid=a72ba818-7371-4726-9234-a81be08b4f21","ios":"levelo://app?vid=a72ba818-7371-4726-9234-a81be08b4f21"},"vehicle_type_id":"4","last_reported":1761588999,"current_range_meters":17600,"station_id":"ce4bh512rcd13ifvqe2g","pricing_plan_id":"cebpf4jnsgd1na2vs0mg"},{"bike_id":"86a56083-153d-4dd1-9b87-360996232394","system_id":"levelo_inurba_marseille","lat":43.28577,"lon":5.39491,"is_reserved":false,"is_disabled":false,"rental_uris":{"android":"levelo://app?vid=86a56083-153d-4dd1-9b87-360996232394","ios":"levelo://app?vid=86a56083-153d-4dd1-9b87-360996232394"},