{"last_updated":1742544782,"ttl":60,"version":"2.2","data":{"bikes":[{"bike_id":"a91a41c8-148f-4518-99dc-a8bfb0366dfb","system_id":"levelo_inurba_marseille","lat":43.29839,"lon":5.36269,"is_reserved":false,"is_disabled":false,"rental_uris":{"android":"levelo://app?vid=a91a41c8-148f-4518-99dc-a8bfb0366dfb","ios":"levelo://app?vid=a91a41c8-148f-4518-99dc-a8bfb0366dfb"},"vehicle_type_id":"4","last_reported":1742544782,"current_range_meters":2800,"station_id":"ce4bgpp2rcd13ifvqc3g","pricing_plan_id":"cebpf4jnsgd1na2vs0mg"},{"bike_id":"172e8777-9cc6-4070-ade3-d6c7e0960775","system_id":"levelo_inurba_marseille","lat":43.309597,"lon":5.390383,"is_reserved":false,"is_disabled":false,"rental_uris":{"android":"levelo://app?vid=172e8777-9cc6-4070-ade3-d6c7e0960775","ios":"levelo://app?vid=172e8777-9cc6-4070-ade3-d6c7e0960775"},"vehicle_type_id":"4","last_reported":1742544782,"current_range_meters":2800,"station_id":"ce4bgup2rcd13ifvqcn0","pricing_plan_id":"cebpf4jnsgd1na2vs0mg"},{"bike_id":"6ad236bc-a2d1-4643-abe7-47295a697ba3","system_id":"levelo_inurba_marseille","lat":43.28848,"lon":5.37916,"is_reserved":false,"is_disabled":false,"rental_uris":{"android":"levelo://app?vid=6ad236bc-a2d1-4643-abe7-47295a697ba3","ios":"levelo://app?vid=6ad236bc-a2d1-4643-abe7-47295a697ba3"},"vehicle_type_id":"4","last_reported":1742544782,"current_range_meters":2800,"station_id":"","pricing_plan_id":"cebpf4jnsgd1na2vs0mg"},{"bike_id":"3455258b-4135-46b9-9a26-10bf95160e40","system_id":"levelo_inurba_marseille","lat":43.231909,"lon":5.355531,"is_reserved":false,"is_disabled":false,"rental_uris":{"android":"levelo://app?vid=3455258b-4135-46b9-9a26-10bf95160e40","ios":"levelo://app?vid=3455258b-4135-46b9-9a26-10bf95160e40"},"vehicle_type_id":"4","last_reported":1742544782,"current_range_meters":2800,"station_id":"ce4bhu92rcd13ifvqi70","pricing_plan_id":"cebpf4jnsgd1na2vs0mg"},{"bike_id":"985d65b0-8b55-4c00-a948-fc935f0e5e77","system_id":"levelo_inurba_marseille","lat":43.29309,"lon":5.37175,"is_reserved":false,"is_disabled":false,"rental_uris":{"android":"levelo://app?vid=985d65b0-8b55-4c00-a948-fc935f0e5e77","ios":"levelo://app?vid=985d65b0-8b55-4c00-a948-fc935f0e5e77"},"vehicle_type_id":"4","last_reported":1742544782,"current_range_meters":2800,"station_id":"ce4bgh92rcd13ifvqb40","pricing_plan_id":"cebpf4jnsgd1na2vs0mg"},{"bike_id":"02f43b01-3b74-45fa-a40e-2df823c84cda","system_id":"levelo_inurba_marseille","lat":43.24163,"lon":5.39717,"is_reserved":false,"is_disabled":false,"rental_uris":{"android":"levelo://app?vid=02f43b01-3b74-45fa-a40e-2df823c84cda","ios":"levelo://app?vid=02f43b01-3b74-45fa-a40e-2df823c84cda"},"vehicle_type_id":"4","last_reported":1742544782,"current_range_meters":2800,"station_id":"ce4bhn12rcd13ifvqgpg","pricing_plan_id":"cebpf4jnsgd1na2vs0mg"},{"bike_id":"d0c4e717-c6f7-4888-9da5-bb8a02c08936","system_id":"levelo_inurba_marseille","lat":43.30957,"lon":5.39032,"is_reserved":false,"is_disabled":false,"rental_uris":{"android":"levelo://app?vid=d0c4e717-c6f7-4888-9da5-bb8a02c08936","ios":"levelo://app?vid=d0c4e717-c6f7-4888-9da5-bb8a02c08936"},"vehicle_type_id":"4","last_reported":1742544782,"current_range_meters":2800,"station_id":"ce4bgup2rcd13ifvqco0","pricing_plan_id":"cebpf4jnsgd1na2vs0mg"},{"bike_id":"062354ea-7cb3-4261-980e-f48d5085c9e2","system_id":"levelo_inurba_marseille","lat":43.30365,"lon":5.389264,"is_reserved":false,"is_disabled":false,"rental_uris":{"android":"levelo://app?vid=062354ea-7cb3-4261-980e-f48d5085c9e2","ios":"levelo://app?vid=062354ea-7cb3-4261-980e-f48d5085c9e2"},"vehicle_type_id":"4","last_reported":1742544782,"current_range_meters":2800,"station_id":"ce4bh2h2rcd13ifvqdh0","pricing_plan_id":"cebpf4jnsgd1na2vs0mg"},{"bike_id":"3b276e99-234c-4646-acfe-1384ad70d051","system_id":"levelo_inurba_marseille","lat":43.25083,"lon":5.39527,"is_reserved":false,"is_disabled":false,"rental_uris":{"android":"levelo://app?vid=3b276e99-234c-4646-acfe-1384ad70d051","ios":"levelo://app?vid=3b276e99-234c-4646-acfe-1384ad70d051"},"vehicle_type_id":"4","last_reported":1742544782,"current_range_meters":3200,"station_id":"ce4bhm12rcd13ifvqgkg","pricing_plan_id":"cebpf4jnsgd1na2vs0mg"},{"bike_id":"649fac6d-bd00-4c0f-b826-65403cb90b36","system_id":"levelo_inurba_marseille","lat":43.29803,"lon":5.38085,"is_reserved":false,"is_disabled":false,"rental_uris":{"android":"levelo://app?vid=649fac6d-bd00-4c0f-b826-65403cb90b36","ios":"levelo://app?vid=649fac6d-bd00-4c0f-b826-65403cb90b36"},"vehicle_type_id":"4","last_reported":1742544782,"current_range_meters":3200,"station_id":"ce4bgip2rcd13ifvqbb0","pricing_plan_id":"cebpf4jnsgd1na2vs0mg"},{"bike_id":"1eaa199c-13bc-437e-ba7c-2c5d6d33e3d8","system_id":"levelo_inurba_marseille","lat":43.27213,"lon":5.39183,"is_reserved":false,"is_disabled":false,"rental_uris":{"android":"levelo://app?vid=1eaa199c-13bc-437e-ba7c-2c5d6d33e3d8","ios":"levelo://app?vid=1eaa199c-13bc-437e-ba7c-2c5d6d33e3d8"},"vehicle_type_id":"4","last_reported":1742544782,"current_range_meters":3200,"station_id":"ce4bhhp2rcd13ifvqfm0","pricing_plan_id":"cebpf4jnsgd1na2vs0mg"},{"bike_id":"18523264-1ae5-400c-a2f9-a766f8368502","system_id":"levelo_inurba_marseille","lat":43.30964,"lon":5.39034,"is_reserved":false,"is_disabled":false,"rental_uris":{"android":"levelo://app?vid=18523264-1ae5-400c-a2f9-a766f8368502","ios":"levelo://app?vid=18523264-1ae5-400c-a2f9-a766f8368502"},"vehicle_type_id":"4","last_reported":1742544782,"current_range_meters":3200,"station_id":"ce4bgup2rcd13ifvqco0","pricing_plan_id":"cebpf4jnsgd1na2vs0mg"},{"bike_id":"03559b68-f53b-4377-ba54-41f67f9d3d6b","system_id":"levelo_inurba_marseille","lat":43.315,"lon":5.37312,"is_reserved":false,"is_disabled":false,"rental_uris":{"android":"levelo://app?vid=03559b68-f53b-4377-ba54-41f67f9d3d6b","ios":"levelo://app?vid=03559b68-f53b-4377-ba54-41f67f9d3d6b"},"vehicle_type_id":"4","last_reported":1742544782,"current_range_meters":3200,"station_id":"ce4bgt12rcd13ifvqcd0","pricing_plan_id":"cebpf4jnsgd1na2vs0mg"},{"bike_id":"fb50ef91-0d58-4036-879e-c165353b7e80","system_id":"levelo_inurba_marseille","lat":43.286957,"lon":5.373829,"is_reserved":false,"is_disabled":false,"rental_uris":{"android":"levelo://app?vid=fb50ef91-0d58-4036-879e-c165353b7e80","ios":"levelo://app?vid=fb50ef91-0d58-4036-879e-c165353b7e80"},"vehicle_type_id":"4","last_reported":1742544782,"current_range_meters":3200,"station_id":"ce4bh3p2rcd13ifvqdq0","pricing_plan_id":"cebpf4jnsgd1na2vs0mg"},{"bike_id":"4e9a8159-a55b-43e9-a082-f07b3d4b1495","system_id":"levelo_inurba_marseille","lat":43.30897,"lon":5.36863,"is_reserved":false,"is_disabled":false,"rental_uris":{"android":"levelo://app?vid=4e9a8159-a55b-43e9-a082-f07b3d4b1495","ios":"levelo://app?vid=4e9a8159-a55b-43e9-a082-f07b3d4b1495"},"vehicle_type_id":"4","last_reported":1742544782,"current_range_meters":3200,"station_id":"ce4bgn92rcd13ifvqbvg","pricing_plan_id":"cebpf4jnsgd1na2vs0mg"},{"bike_id":"c2833b87-c07a-4ecf-9052-e932cd239f16","system_id":"levelo_inurba_marseille","lat":43.28132,"lon":5.4264,"is_reserved":false,"is_disabled":false,"rental_uris":{"android":"levelo://app?vid=c2833b87-c07a-4ecf-9052-e932cd239f16","ios":"levelo://app?vid=c2833b87-c07a-4ecf-9052-e932cd239f16"},"vehicle_type_id":"4","last_reported":1742544782,"current_range_meters":3200,"station_id":"ce4bhnh2rcd13ifvqgug","pricing_plan_id":"cebpf4jnsgd1na2vs0mg"},{"bike_id":"5188b82b-8c44-42ff-93c4-bf85de5ec3b7","system_id":"levelo_inurba_marseille","lat":43.3208,"lon":5.36782,"is_reserved":false,"is_disabled":false,"rental_uris":{"android":"levelo://app?vid=5188b82b-8c44-42ff-93c4-bf85de5ec3b7","ios":"levelo://app?vid=5188b82b-8c44-42ff-93c4-bf85de5ec3b7"},"vehicle_type_id":"4","last_reported":1742544782,"current_range_meters":3200,"station_id":"ce4bhrh2rcd13ifvqhug","pricing_plan_id":"cebpf4jnsgd1na2vs0mg"},{"bike_id":"010cab51-be23-4735-babf-19c9eb5c8e43","system_id":"levelo_inurba_marseille","lat":43.24078,"lon":5.37755,"is_reserved":false,"is_disabled":false,"rental_uris":{"android":"levelo://app?vid=010cab51-be23-4735-babf-19c9eb5c8e43","ios":"levelo://app?vid=010cab51-be23-4735-babf-19c9eb5c8e43"},"vehicle_type_id":"4","last_reported":1742544782,"current_range_meters":3200,"station_id":"ce4bhnp2rcd13ifvqgvg","pricing_plan_id":"cebpf4jnsgd1na2vs0mg"},{"bike_id":"9ce8bb93-9b24-4f04-9b0f-4227076b74e7","system_id":"levelo_inurba_marseille","lat":43.26188,"lon":5.37448,"is_reserved":false,"is_disabled":false,"rental_uris":{"android":"levelo://app?vid=9ce8bb93-9b24-4f04-9b0f-4227076b74e7","ios":"levelo://app?vid=9ce8bb93-9b24-4f04-9b0f-4227076b74e7"},"vehicle_type_id":"4","last_reported":1742544782,"current_range_meters":3200,"station_id":"ce4bhgp2rcd13ifvqfc0","pricing_plan_id":"cebpf4jnsgd1na2vs0mg"},{"bike_id":"3b5fa3b5-07bd-4749-b932-1e2cacb1f8f2","system_id":"levelo_inurba_marseille","lat":43.26195,"lon":5.37934,"is_reserved":false,"is_disabled":false,"rental_uris":{"android":"levelo://app?vid=3b5fa3b5-07bd-4749-b932-1e2cacb1f8f2","ios":"levelo://app?vid=3b5fa3b5-07bd-4749-b932-1e2cacb1f8f2"},"vehicle_type_id":"4","last_reported":1742544782,"current_range_meters":3200,"station_id":"ce4bhjp2rcd13ifvqg90","pricing_plan_id":"cebpf4jnsgd1na2vs0mg"},{"bike_id":"9204d3db-2d8a-4866-8c94-1d9521eebf17","system_id":"levelo_inurba_marseille","lat":43.24079,"lon":5.37753,"is_reserved":false,"is_disabled":false,"rental_uris":{"android":"levelo://app?vid=9204d3db-2d8a-4866-8c94-1d9521eebf17","ios":"levelo://app?vid=9204d3db-2d8a-4866-8c94-1d9521eebf17"},"vehicle_type_id":"4","last_reported":1742544782,"current_range_meters":3600,"station_id":"ce4bhnp2rcd13ifvqgvg","pricing_plan_id":"cebpf4jnsgd1na2vs0mg"},{"bike_id":"a9cf5ff7-36bc-4131-a26a-d2a5701e8f33","system_id":"levelo_inurba_marseille","lat":43.26569,"lon":5.39023,"is_reserved":false,"is_disabled":false,"rental_uris":{"android":"levelo://app?vid=a9cf5ff7-36bc-4131-a26a-d2a5701e8f33","ios":"levelo://app?vid=a9cf5ff7-36bc-4131-a26a-d2a5701e8f33"},"vehicle_type_id":"4","last_reported":1742544782,"current_range_meters":3600,"station_id":"ce4bhe12rcd13ifvqf30","pricing_plan_id":"cebpf4jnsgd1na2vs0mg"},{"bike_id":"7661730a-e11b-431a-9786-e9413570571f","system_id":"levelo_inurba_marseille","lat":43.32544,"lon":5.41469,"is_reserved":false,"is_disabled":false,"rental_uris":{"android":"levelo://app?vid=7661730a-e11b-431a-9786-e9413570571f","ios":"levelo://app?vid=7661730a-e11b-431a-9786-e9413570571f"},"vehicle_type_id":"4","last_reported":1742544782,"current_range_meters":3600,"station_id":"ce4bhq12rcd13ifvqhhg","pricing_plan_id":"cebpf4jnsgd1na2vs0mg"},{"bike_id":"f8b40585-73a3-42bd-9788-050321632b19","system_id":"levelo_inurba_marseille","lat":43.29838,"lon":5.36271,"is_reserved":false,"is_disabled":false,"rental_uris":{"android":"levelo://app?vid=f8b40585-73a3-42bd-9788-050321632b19","ios":"levelo://app?vid=f8b40585-73a3-42bd-9788-050321632b19"},"vehicle_type_id":"4","last_reported":1742544782,"current_range_meters":3600,"station_id":"ce4bgpp2rcd13ifvqc3g","pricing_plan_id":"cebpf4jnsgd1na2vs0mg"},{"bike_id":"9d26c008-8ec1-4269-9cd2-f45774f03ccb","system_id":"levelo_inurba_marseille","lat":43.27931,"lon":5.37926,"is_reserved":false,"is_disabled":true,"rental_uris":{"android":"levelo://app?vid=9d26c008-8ec1-4269-9cd2-f45774f03ccb","ios":"levelo://app?vid=9d26c008-8ec1-4269-9cd2-f45774f03ccb"},"vehicle_type_id":"4","last_reported":1742544782,"current_range_meters":3600,"station_id":"","pricing_plan_id":"cebpf4jnsgd1na2vs0mg"},{"bike_id":"28f34723-7aef-4dd9-ba81-7d6deba682cf","system_id":"levelo_inurba_marseille","lat":43.281589,"lon":5.426478,"is_reserved":false,"is_disabled":false,"rental_uris":{"android":"levelo://app?vid=28f34723-7aef-4dd9-ba81-7d6deba682cf","ios":"levelo://app?vid=28f34723-7aef-4dd9-ba81-7d6deba682cf"},"vehicle_type_id":"4","last_reported":1742544782,"current_range_meters":4000,"station_id":"ce4bhnh2rcd13ifvqgug","pricing_plan_id":"cebpf4jnsgd1na2vs0mg"},{"bike_id":"2bc6c5c1-8369-44a9-9625-7037738d35a2","system_id":"levelo_inurba_marseille","lat":43.30319,"lon":5.36904,"is_reserved":false,"is_disabled":false,"rental_uris":{"android":"levelo://app?vid=2bc6c5c1-8369-44a9-9625-7037738d35a2","ios":"levelo://app?vid=2bc6c5c1-8369-44a9-9625-7037738d35a2"},"vehicle_type_id":"4","last_reported":1742544782,"current_range_meters":4000,"station_id":"ce4bgqh2rcd13ifvqc5g","pricing_plan_id":"cebpf4jnsgd1na2vs0mg"},{"bike_id":"17fc5c19-1e0b-48ec-b4a1-2511a760d436","system_id":"levelo_inurba_marseille","lat":43.24391,"lon":5.3707,"is_reserved":false,"is_disabled":true,"rental_uris":{"android":"levelo://app?vid=17fc5c19-1e0b-48ec-b4a1-2511a760d436","ios":"levelo://app?vid=17fc5c19-1e0b-48ec-b4a1-2511a760d436"},"vehicle_type_id":"4","last_reported":1742544782,"current_range_meters":4000,"station_id":"ce4bhhh2rcd13ifvqfk0","pricing_plan_id":"cebpf4jnsgd1na2vs0mg"},{"bike_id":"d526b6e2-b103-4339-baa5-b85128efba8c","system_id":"levelo_inurba_marseille","lat":43.2308,"lon":5.35489,"is_reserved":false,"is_disabled":false,"rental_uris":{"android":"levelo://app?vid=d526b6e2-b103-4339-baa5-b85128efba8c","ios":"levelo://app?vid=d526b6e2-b103-4339-baa5-b85128efba8c"},"vehicle_type_id":"4","last_reported":1742544782,"current_range_meters":4000,"station_id":"cpo3342slgdg3j2ifvpg","pricing_plan_id":"cebpf4jnsgd1na2vs0mg"},{"bike_id":"100359ed-f4d5-4109-ba08-73e83bbca939","system_id":"levelo_inurba_marseille","lat":43.30927,"lon":5.40144,"is_reserved":false,"is_disabled":false,"rental_uris":{"android":"levelo://app?vid=100359ed-f4d5-4109-ba08-73e83bbca939","ios":"levelo://app?vid=100359ed-f4d5-4109-ba08-73e83bbca939"},"vehicle_type_id":"4","last_reported":1742544782,"current_range_meters":4400,"station_id":"ce4bgvp2rcd13ifvqct0","pricing_plan_id":"cebpf4jnsgd1na2vs0mg"},{"bike_id":"3ae4f3bd-c485-4c98-8e8e-3c9bb312423a","system_id":"levelo_inurba_marseille","lat":43.24812,"lon":5.37464,"is_reserved":false,"is_disabled":false,"rental_uris":{"android":"levelo://app?vid=3ae4f3bd-c485-4c98-8e8e-3c9bb312423a","ios":"levelo://app?vid=3ae4f3bd-c485-4c98-8e8e-3c9bb312423a"},"vehicle_type_id":"4","last_reported":1742544782,"current_range_meters":4400,"station_id":"ce4bhgh2rcd13ifvqfb0","pricing_plan_id":"cebpf4jnsgd1na2vs0mg"},{"bike_id":"a8b8dae1-87ef-4f8a-a2c8-fe9fd9bf0f77","system_id":"levelo_inurba_marseille","lat":43.23533,"lon":5.37749,"is_reserved":false,"is_disabled":false,"rental_uris":{"android":"levelo://app?vid=a8b8dae1-87ef-4f8a-a2c8-fe9fd9bf0f77","ios":"levelo://app?vid=a8b8dae1-87ef-4f8a-a2c8-fe9fd9bf0f77"},"vehicle_type_id":"4","last_reported":1742544782,"current_range_meters":4400,"station_id":"","pricing_plan_id":"cebpf4jnsgd1na2vs0mg"},{"bike_id":"150f2dc8-c2e8-4291-8bde-a9d507a42b5b","system_id":"levelo_inurba_marseille","lat":43.2396,"lon":5.36631,"is_reserved":false,"is_disabled":false,"rental_uris":{"android":"levelo://app?vid=150f2dc8-c2e8-4291-8bde-a9d507a42b5b","ios":"levelo://app?vid=150f2dc8-c2e8-4291-8bde-a9d507a42b5b"},"vehicle_type_id":"4","last_reported":1742544782,"current_range_meters":4000,"station_id":"ce4bhi12rcd13ifvqfp0","pricing_plan_id":"cebpf4jnsgd1na2vs0mg"},{"bike_id":"b8f4523c-3366-482b-baf2-393d59535e1f","system_id":"levelo_inurba_marseille","lat":43.29272,"lon":5.40118,"is_reserved":false,"is_disabled":false,"rental_uris":{"android":"levelo://app?vid=b8f4523c-3366-482b-baf2-393d59535e1f","ios":"levelo://app?vid=b8f4523c-3366-482b-baf2-393d59535e1f"},"vehicle_type_id":"4","last_reported":1742544782,"current_range_meters":4400,"station_id":"ce4bh312rcd13ifvqdk0","pricing_plan_id":"cebpf4jnsgd1na2vs0mg"},{"bike_id":"16818fb2-0115-4091-856c-6e0109271f6c","system_id":"levelo_inurba_marseille","lat":43.26947,"lon":5.38642,"is_reserved":false,"is_disabled":false,"rental_uris":{"android":"levelo://app?vid=16818fb2-0115-4091-856c-6e0109271f6c","ios":"levelo://app?vid=16818fb2-0115-4091-856c-6e0109271f6c"},"vehicle_type_id":"4","last_reported":1742544782,"current_range_meters":4400,"station_id":"ce4bhh92rcd13ifvqfh0","pricing_plan_id":"cebpf4jnsgd1na2vs0mg"},{"bike_id":"176d2e0b-da43-4b98-b92e-b45d4ab12b2f","system_id":"levelo_inurba_marseille","lat":43.30212,"lon":5.3849,"is_reserved":false,"is_disabled":false,"rental_uris":{"android":"levelo://app?vid=176d2e0b-da43-4b98-b92e-b45d4ab12b2f","ios":"levelo://app?vid=176d2e0b-da43-4b98-b92e-b45d4ab12b2f"},"vehicle_type_id":"4","last_reported":1742544782,"current_range_meters":4400,"station_id":"","pricing_plan_id":"cebpf4jnsgd1na2vs0mg"},{"bike_id":"f424b302-6895-4729-b10c-bf8ab3946718","system_id":"levelo_inurba_marseille","lat":43.29366,"lon":5.37871,"is_reserved":false,"is_disabled":false,"rental_uris":{"android":"levelo://app?vid=f424b302-6895-4729-b10c-bf8ab3946718","ios":"levelo://app?vid=f424b302-6895-4729-b10c-bf8ab3946718"},"vehicle_type_id":"4","last_reported":1742544782,"current_range_meters":4800,"station_id":"ce4bgjh2rcd13ifvqbf0","pricing_plan_id":"cebpf4jnsgd1na2vs0mg"},{"bike_id":"e00ef480-6f7b-4c55-b894-c202ce30e615","system_id":"levelo_inurba_marseille","lat":43.301307,"lon":5.387786,"is_reserved":false,"is_disabled":false,"rental_uris":{"android":"levelo://app?vid=e00ef480-6f7b-4c55-b894-c202ce30e615","ios":"levelo://app?vid=e00ef480-6f7b-4c55-b894-c202ce30e615"},"vehicle_type_id":"4","last_reported":1742544782,"current_range_meters":4400,"station_id":"ce4bghh2rcd13ifvqb60","pricing_plan_id":"cebpf4jnsgd1na2vs0mg"},{"bike_id":"18d78221-bb6c-4b60-b4e0-e606a8e4f847","system_id":"levelo_inurba_marseille","lat":43.32656,"lon":5.40993,"is_reserved":false,"is_disabled":false,"rental_uris":{"android":"levelo://app?vid=18d78221-bb6c-4b60-b4e0-e606a8e4f847","ios":"levelo://app?vid=18d78221-bb6c-4b60-b4e0-e606a8e4f847"},"vehicle_type_id":"4","last_reported":1742544782,"current_range_meters":4800,"station_id":"ce4bhpp2rcd13ifvqhgg","pricing_plan_id":"cebpf4jnsgd1na2vs0mg"},{"bike_id":"bcc7b4a7-f4a3-4025-9988-76e20a994b3c","system_id":"levelo_inurba_marseille","lat":43.30876,"lon":5.39652,"is_reserved":false,"is_disabled":false,"rental_uris":{"android":"levelo://app?vid=bcc7b4a7-f4a3-4025-9988-76e20a994b3c","ios":"levelo://app?vid=bcc7b4a7-f4a3-4025-9988-76e20a994b3c"},"vehicle_type_id":"4","last_reported":1742544782,"current_range_meters":4800,"station_id":"ce4bh012rcd13ifvqcv0","pricing_plan_id":"cebpf4jnsgd1na2vs0mg"},{"bike_id":"83943421-5d80-40aa-81ef-a3934e023337","system_id":"levelo_inurba_marseille","lat":43.30129,"lon":5.37421,"is_reserved":false,"is_disabled":false,"rental_uris":{"android":"levelo://app?vid=83943421-5d80-40aa-81ef-a3934e023337","ios":"levelo://app?vid=83943421-5d80-40aa-81ef-a3934e023337"},"vehicle_type_id":"4","last_reported":1742544782,"current_range_meters":4800,"station_id":"ce4bgs92rcd13ifvqcc0","pricing_plan_id":"cebpf4jnsgd1na2vs0mg"},{"bike_id":"79624f14-78a9-4cc9-b27e-42fad1b5bff8","system_id":"levelo_inurba_marseille","lat":43.2817,"lon":5.4267,"is_reserved":false,"is_disabled":false,"rental_uris":{"android":"levelo://app?vid=79624f14-78a9-4cc9-b27e-42fad1b5bff8","ios":"levelo://app?vid=79624f14-78a9-4cc9-b27e-42fad1b5bff8"},"vehicle_type_id":"4","last_reported":1742544782,"current_range_meters":5600,"station_id":"ce4bhnh2rcd13ifvqgug","pricing_plan_id":"cebpf4jnsgd1na2vs0mg"},{"bike_id":"53c5b129-1721-41e4-94aa-85be45cb24d8","system_id":"levelo_inurba_marseille","lat":43.27824,"lon":5.4073,"is_reserved":false,"is_disabled":false,"rental_uris":{"android":"levelo://app?vid=53c5b129-1721-41e4-94aa-85be45cb24d8","ios":"levelo://app?vid=53c5b129-1721-41e4-94aa-85be45cb24d8"},"vehicle_type_id":"4","last_reported":1742544782,"current_range_meters":5600,"station_id":"ce4bhnh2rcd13ifvqgtg","pricing_plan_id":"cebpf4jnsgd1na2vs0mg"},{"bike_id":"638f13ab-a38f-4c4a-8c66-a28697d4ab4b","system_id":"levelo_inurba_marseille","lat":43.29259,"lon":5.38459,"is_reserved":false,"is_disabled":false,"rental_uris":{"android":"levelo://app?vid=638f13ab-a38f-4c4a-8c66-a28697d4ab4b","ios":"levelo://app?vid=638f13ab-a38f-4c4a-8c66-a28697d4ab4b"},"vehicle_type_id":"4","last_reported":1742544782,"current_range_meters":6000,"station_id":"ce4bh692rcd13ifvqea0","pricing_plan_id":"cebpf4jnsgd1na2vs0mg"},{"bike_id":"e5c14285-2e1d-41d9-bab9-ae38b8ffec63","system_id":"levelo_inurba_marseille","lat":43.33602,"lon":5.41031,"is_reserved":false,"is_disabled":false,"rental_uris":{"android":"levelo://app?vid=e5c14285-2e1d-41d9-bab9-ae38b8ffec63","ios":"levelo://app?vid=e5c14285-2e1d-41d9-bab9-ae38b8ffec63"},"vehicle_type_id":"4","last_reported":1742544782,"current_range_meters":6000,"station_id":"ce4bhqh2rcd13ifvqhmg","pricing_plan_id":"cebpf4jnsgd1na2vs0mg"},{"bike_id":"2bb8e53f-e07e-4fee-98d8-3e9aa9b35cdd","system_id":"levelo_inurba_marseille","lat":43.29161,"lon":5.37169,"is_reserved":false,"is_disabled":false,"rental_uris":{"android":"levelo://app?vid=2bb8e53f-e07e-4fee-98d8-3e9aa9b35cdd","ios":"levelo://app?vid=2bb8e53f-e07e-4fee-98d8-3e9aa9b35cdd"},"vehicle_type_id":"4","last_reported":1742544782,"current_range_meters":6000,"station_id":"ce4bha92rcd13ifvqeh0","pricing_plan_id":"cebpf4jnsgd1na2vs0mg"},{"bike_id":"b2738e00-ae34-4e19-8ba1-500f4ed973ae","system_id":"levelo_inurba_marseille","lat":43.30238,"lon":5.40053,"is_reserved":false,"is_disabled":false,"rental_uris":{"android":"levelo://app?vid=b2738e00-ae34-4e19-8ba1-500f4ed973ae","ios":"levelo://app?vid=b2738e00-ae34-4e19-8ba1-500f4ed973ae"},"vehicle_type_id":"4","last_reported":1742544782,"current_range_meters":6000,"station_id":"ce4bgvh2rcd13ifvqcs0","pricing_plan_id":"cebpf4jnsgd1na2vs0mg"},{"bike_id":"471b8c1a-1a85-4080-b533-fb41f3dbfd81","system_id":"levelo_inurba_marseille","lat":43.23212,"lon":5.35559,"is_reserved":false,"is_disabled":false,"rental_uris":{"android":"levelo://app?vid=471b8c1a-1a85-4080-b533-fb41f3dbfd81","ios":"levelo://app?vid=471b8c1a-1a85-4080-b533-fb41f3dbfd81"},"vehicle_type_id":"4","last_reported":1742544782,"current_range_meters":6000,"station_id":"ce4bhu92rcd13ifvqi70","pricing_plan_id":"cebpf4jnsgd1na2vs0mg"},{"bike_id":"671210b1-9e8f-4893-953f-985ab8b97e34","system_id":"levelo_inurba_marseille","lat":43.32071,"lon":5.36749,"is_reserved":false,"is_disabled":false,"rental_uris":{"android":"levelo://app?vid=671210b1-9e8f-4893-953f-985ab8b97e34","ios":"levelo://app?vid=671210b1-9e8f-4893-953f-985ab8b97e34"},"vehicle_type_id":"4","last_reported":1742544782,"current_range_meters":6000,"station_id":"ce4bhrh2rcd13ifvqhug","pricing_plan_id":"cebpf4jnsgd1na2vs0mg"},{"bike_id":"5470f354-6c63-4b2a-aa64-15d493db327c","system_id":"levelo_inurba_marseille","lat":43.28945,"lon":5.36385,"is_reserved":false,"is_disabled":false,"rental_uris":{"android":"levelo://app?vid=5470f354-6c63-4b2a-aa64-15d493db327c","ios":"levelo://app?vid=5470f354-6c63-4b2a-aa64-15d493db327c"},"vehicle_type_id":"4","last_reported":1742544782,"current_range_meters":6000,"station_id":"ce4bhc92rcd13ifvqetg","pricing_plan_id":"cebpf4jnsgd1na2vs0mg"},{"bike_id":"dd3884dc-0b6b-4a2b-8af5-b0f72ae3a61b","system_id":"levelo_inurba_marseille","lat":43.23195,"lon":5.35548,"is_reserved":false,"is_disabled":false,"rental_uris":{"android":"levelo://app?vid=dd3884dc-0b6b-4a2b-8af5-b0f72ae3a61b","ios":"levelo://app?vid=dd3884dc-0b6b-4a2b-8af5-b0f72ae3a61b"},"vehicle_type_id":"4","last_reported":1742544782,"current_range_meters":6000,"station_id":"ce4bhu92rcd13ifvqi70","pricing_plan_id":"cebpf4jnsgd1na2vs0mg"},{"bike_id":"9d348164-74cb-4d89-b295-b81085fda8a6","system_id":"levelo_inurba_marseille","lat":43.24079,"lon":5.37755,"is_reserved":false,"is_disabled":false,"rental_uris":{"android":"levelo://app?vid=9d348164-74cb-4d89-b295-b81085fda8a6","ios":"levelo://app?vid=9d348164-74cb-4d89-b295-b81085fda8a6"},"vehicle_type_id":"4","last_reported":1742544782,"current_range_meters":6400,"station_id":"ce4bhnp2rcd13ifvqgvg","pricing_plan_id":"cebpf4jnsgd1na2vs0mg"},{"bike_id":"6fc4d402-a718-4441-82e4-db60aa4fa880","system_id":"levelo_inurba_marseille","lat":43.30521,"lon":5.3671,"is_reserved":false,"is_disabled":false,"rental_uris":{"android":"levelo://app?vid=6fc4d402-a718-4441-82e4-db60aa4fa880","ios":"levelo://app?vid=6fc4d402-a718-4441-82e4-db60aa4fa880"},"vehicle_type_id":"4","last_reported":1742544782,"current_range_meters":6400,"station_id":"ce4bgrp2rcd13ifvqc9g","pricing_plan_id":"cebpf4jnsgd1na2vs0mg"},{"bike_id":"747f52f6-e172-4a6b-8605-5af32b1e948a","system_id":"levelo_inurba_marseille","lat":43.32544,"lon":5.41432,"is_reserved":false,"is_disabled":false,"rental_uris":{"android":"levelo://app?vid=747f52f6-e172-4a6b-8605-5af32b1e948a","ios":"levelo://app?vid=747f52f6-e172-4a6b-8605-5af32b1e948a"},"vehicle_type_id":"4","last_reported":1742544782,"current_range_meters":6400,"station_id":"ce4bhq12rcd13ifvqhhg","pricing_plan_id":"cebpf4jnsgd1na2vs0mg"},{"bike_id":"c2e5f77d-7def-477a-88be-4e7832c31727","system_id":"levelo_inurba_marseille","lat":43.25939,"lon":5.40897,"is_reserved":false,"is_disabled":false,"rental_uris":{"android":"levelo://app?vid=c2e5f77d-7def-477a-88be-4e7832c31727","ios":"levelo://app?vid=c2e5f77d-7def-477a-88be-4e7832c31727"},"vehicle_type_id":"4","last_reported":1742544782,"current_range_meters":6400,"station_id":"ce4bhm92rcd13ifvqglg","pricing_plan_id":"cebpf4jnsgd1na2vs0mg"},{"bike_id":"4f3fae75-1507-44ea-b182-5931043b4935","system_id":"levelo_inurba_marseille","lat":43.26571,"lon":5.39006,"is_reserved":false,"is_disabled":false,"rental_uris":{"android":"levelo://app?vid=4f3fae75-1507-44ea-b182-5931043b4935","ios":"levelo://app?vid=4f3fae75-1507-44ea-b182-5931043b4935"},"vehicle_type_id":"4","last_reported":1742544782,"current_range_meters":6400,"station_id":"ce4bhe12rcd13ifvqf30","pricing_plan_id":"cebpf4jnsgd1na2vs0mg"},{"bike_id":"ef283bc9-2b01-4484-9b26-b28df994a450","system_id":"levelo_inurba_marseille","lat":43.27489,"lon":5.4245,"is_reserved":false,"is_disabled":false,"rental_uris":{"android":"levelo://app?vid=ef283bc9-2b01-4484-9b26-b28df994a450","ios":"levelo://app?vid=ef283bc9-2b01-4484-9b26-b28df994a450"},"vehicle_type_id":"4","last_reported":1742544782,"current_range_meters":6400,"station_id":"ce4bhn92rcd13ifvqgrg","pricing_plan_id":"cebpf4jnsgd1na2vs0mg"},{"bike_id":"88235f40-31c6-4a2f-8946-34e3a8b8f4b1","system_id":"levelo_inurba_marseille","lat":43.29898,"lon":5.39769,"is_reserved":false,"is_disabled":false,"rental_uris":{"android":"levelo://app?vid=88235f40-31c6-4a2f-8946-34e3a8b8f4b1","ios":"levelo://app?vid=88235f40-31c6-4a2f-8946-34e3a8b8f4b1"},"vehicle_type_id":"4","last_reported":1742544782,"current_range_meters":6400,"station_id":"","pricing_plan_id":"cebpf4jnsgd1na2vs0mg"},{"bike_id":"1983241e-dcf4-412a-b965-b9e661a9d6d5","system_id":"levelo_inurba_marseille","lat":43.2982,"lon":5.40154,"is_reserved":false,"is_disabled":false,"rental_uris":{"android":"levelo://app?vid=1983241e-dcf4-412a-b965-b9e661a9d6d5","ios":"levelo://app?vid=1983241e-dcf4-412a-b965-b9e661a9d6d5"},"vehicle_type_id":"4","last_reported":1742544782,"current_range_meters":6400,"station_id":"","pricing_plan_id":"cebpf4jnsgd1na2vs0mg"},{"bike_id":"825ee441-bae2-442f-9126-9ee40c6406b2","system_id":"levelo_inurba_marseille","lat":43.30943,"lon":5.39025,"is_reserved":false,"is_disabled":false,"rental_uris":{"android":"levelo://app?vid=825ee441-bae2-442f-9126-9ee40c6406b2","ios":"levelo://app?vid=825ee441-bae2-442f-9126-9ee40c6406b2"},"vehicle_type_id":"4","last_reported":1742544782,"current_range_meters":6800,"station_id":"ce4bgup2rcd13ifvqco0","pricing_plan_id":"cebpf4jnsgd1na2vs0mg"},{"bike_id":"cb6062cd-3cfa-4917-b79b-5707b99e3c03","system_id":"levelo_inurba_marseille","lat":43.321185,"lon":5.367534,"is_reserved":false,"is_disabled":false,"rental_uris":{"android":"levelo://app?vid=cb6062cd-3cfa-4917-b79b-5707b99e3c03","ios":"levelo://app?vid=cb6062cd-3cfa-4917-b79b-5707b99e3c03"},"vehicle_type_id":"4","last_reported":1742544782,"current_range_meters":6800,"station_id":"ce4bho92rcd13ifvqh3g","pricing_plan_id":"cebpf4jnsgd1na2vs0mg"},{"bike_id":"9b2a4ae1-45d2-42a7-b1d8-970226b193d0","system_id":"levelo_inurba_marseille","lat":43.241789,"lon":5.397187,"is_reserved":false,"is_disabled":false,"rental_uris":{"android":"levelo://app?vid=9b2a4ae1-45d2-42a7-b1d8-970226b193d0","ios":"levelo://app?vid=9b2a4ae1-45d2-42a7-b1d8-970226b193d0"},"vehicle_type_id":"4","last_reported":1742544782,"current_range_meters":6800,"station_id":"ce4bhn12rcd13ifvqgpg","pricing_plan_id":"cebpf4jnsgd1na2vs0mg"},{"bike_id":"3de2406a-ac3d-462f-b119-f2f92e9b0930","system_id":"levelo_inurba_marseille","lat":43.31388,"lon":5.3891,"is_reserved":false,"is_disabled":false,"rental_uris":{"android":"levelo://app?vid=3de2406a-ac3d-462f-b119-f2f92e9b0930","ios":"levelo://app?vid=3de2406a-ac3d-462f-b119-f2f92e9b0930"},"vehicle_type_id":"4","last_reported":1742544782,"current_range_meters":6800,"station_id":"","pricing_plan_id":"cebpf4jnsgd1na2vs0mg"},{"bike_id":"dfc7ef74-27e8-4777-baa7-8eaf73d41c8c","system_id":"levelo_inurba_marseille","lat":43.30307,"lon":5.369214,"is_reserved":false,"is_disabled":false,"rental_uris":{"android":"levelo://app?vid=dfc7ef74-27e8-4777-baa7-8eaf73d41c8c","ios":"levelo://app?vid=dfc7ef74-27e8-4777-baa7-8eaf73d41c8c"},"vehicle_type_id":"4","last_reported":1742544782,"current_range_meters":6800,"station_id":"ce4bgqh2rcd13ifvqc5g","pricing_plan_id":"cebpf4jnsgd1na2vs0mg"},{"bike_id":"3ad88472-a492-4fd9-a624-36b84c8c6f43","system_id":"levelo_inurba_marseille","lat":43.30528,"lon":5.36554,"is_reserved":false,"is_disabled":false,"rental_uris":{"android":"levelo://app?vid=3ad88472-a492-4fd9-a624-36b84c8c6f43","ios":"levelo://app?vid=3ad88472-a492-4fd9-a624-36b84c8c6f43"},"vehicle_type_id":"4","last_reported":1742544782,"current_range_meters":6800,"station_id":"ce4bgs12rcd13ifvqcag","pricing_plan_id":"cebpf4jnsgd1na2vs0mg"},{"bike_id":"d7645557-54c5-44ed-8c44-41e433a350da","system_id":"levelo_inurba_marseille","lat":43.294741,"lon":5.355553,"is_reserved":false,"is_disabled":false,"rental_uris":{"android":"levelo://app?vid=d7645557-54c5-44ed-8c44-41e433a350da","ios":"levelo://app?vid=d7645557-54c5-44ed-8c44-41e433a350da"},"vehicle_type_id":"4","last_reported":1742544782,"current_range_meters":6800,"station_id":"","pricing_plan_id":"cebpf4jnsgd1na2vs0mg"},{"bike_id":"fcd898b3-2783-4270-af47-f8733a1b2e10","system_id":"levelo_inurba_marseille","lat":43.255845,"lon":5.382439,"is_reserved":false,"is_disabled":false,"rental_uris":{"android":"levelo://app?vid=fcd898b3-2783-4270-af47-f8733a1b2e10","ios":"levelo://app?vid=fcd898b3-2783-4270-af47-f8733a1b2e10"},"vehicle_type_id":"4","last_reported":1742544782,"current_range_meters":7200,"station_id":"ce4bhih2rcd13ifvqfs0","pricing_plan_id":"cebpf4jnsgd1na2vs0mg"},{"bike_id":"df446069-6124-47b5-871e-1e0922d42d2c","system_id":"levelo_inurba_marseille","lat":43.24176,"lon":5.39721,"is_reserved":false,"is_disabled":false,"rental_uris":{"android":"levelo://app?vid=df446069-6124-47b5-871e-1e0922d42d2c","ios":"levelo://app?vid=df446069-6124-47b5-871e-1e0922d42d2c"},"vehicle_type_id":"4","last_reported":1742544782,"current_range_meters":7200,"station_id":"ce4bhn12rcd13ifvqgpg","pricing_plan_id":"cebpf4jnsgd1na2vs0mg"},{"bike_id":"c2afb194-57d9-4d9f-a228-49797c94f004","system_id":"levelo_inurba_marseille","lat":43.24071,"lon":5.37759,"is_reserved":false,"is_disabled":false,"rental_uris":{"android":"levelo://app?vid=c2afb194-57d9-4d9f-a228-49797c94f004","ios":"levelo://app?vid=c2afb194-57d9-4d9f-a228-49797c94f004"},"vehicle_type_id":"4","last_reported":1742544782,"current_range_meters":7200,"station_id":"ce4bhnp2rcd13ifvqgvg","pricing_plan_id":"cebpf4jnsgd1na2vs0mg"},{"bike_id":"5bb886e0-8e74-411b-a78b-a6f9cb8a2426","system_id":"levelo_inurba_marseille","lat":43.26574,"lon":5.39006,"is_reserved":false,"is_disabled":false,"rental_uris":{"android":"levelo://app?vid=5bb886e0-8e74-411b-a78b-a6f9cb8a2426","ios":"levelo://app?vid=5bb886e0-8e74-411b-a78b-a6f9cb8a2426"},"vehicle_type_id":"4","last_reported":1742544782,"current_range_meters":7200,"station_id":"ce4bhe12rcd13ifvqf30","pricing_plan_id":"cebpf4jnsgd1na2vs0mg"},{"bike_id":"be3bf2b3-df97-4a4a-9fd7-5df37aa8e5c3","system_id":"levelo_inurba_marseille","lat":43.31481,"lon":5.37312,"is_reserved":false,"is_disabled":false,"rental_uris":{"android":"levelo://app?vid=be3bf2b3-df97-4a4a-9fd7-5df37aa8e5c3","ios":"levelo://app?vid=be3bf2b3-df97-4a4a-9fd7-5df37aa8e5c3"},"vehicle_type_id":"4","last_reported":1742544782,"current_range_meters":7200,"station_id":"ce4bgt12rcd13ifvqcd0","pricing_plan_id":"cebpf4jnsgd1na2vs0mg"},{"bike_id":"d1ce9774-7902-4072-95cb-78eac26532b0","system_id":"levelo_inurba_marseille","lat":43.33747,"lon":5.37478,"is_reserved":false,"is_disabled":false,"rental_uris":{"android":"levelo://app?vid=d1ce9774-7902-4072-95cb-78eac26532b0","ios":"levelo://app?vid=d1ce9774-7902-4072-95cb-78eac26532b0"},"vehicle_type_id":"4","last_reported":1742544782,"current_range_meters":7200,"station_id":"","pricing_plan_id":"cebpf4jnsgd1na2vs0mg"},{"bike_id":"a13f1106-b8bc-4c83-9123-4aadf3217294","system_id":"levelo_inurba_marseille","lat":43.29551,"lon":5.4229,"is_reserved":false,"is_disabled":false,"rental_uris":{"android":"levelo://app?vid=a13f1106-b8bc-4c83-9123-4aadf3217294","ios":"levelo://app?vid=a13f1106-b8bc-4c83-9123-4aadf3217294"},"vehicle_type_id":"4","last_reported":1742544782,"current_range_meters":6800,"station_id":"ce4bhph2rcd13ifvqhdg","pricing_plan_id":"cebpf4jnsgd1na2vs0mg"},{"bike_id":"4eeba87d-a094-4719-be9a-f447b0ada175","system_id":"levelo_inurba_marseille","lat":43.29035,"lon":5.39983,"is_reserved":false,"is_disabled":false,"rental_uris":{"android":"levelo://app?vid=4eeba87d-a094-4719-be9a-f447b0ada175","ios":"levelo://app?vid=4eeba87d-a094-4719-be9a-f447b0ada175"},"vehicle_type_id":"4","last_reported":1742544782,"current_range_meters":7200,"station_id":"ce4bh392rcd13ifvqdm0","pricing_plan_id":"cebpf4jnsgd1na2vs0mg"},{"bike_id":"bb55ab9d-3223-4c62-9ba4-1c929d3f7ca3","system_id":"levelo_inurba_marseille","lat":43.29889,"lon":5.43673,"is_reserved":false,"is_disabled":false,"rental_uris":{"android":"levelo://app?vid=bb55ab9d-3223-4c62-9ba4-1c929d3f7ca3","ios":"levelo://app?vid=bb55ab9d-3223-4c62-9ba4-1c929d3f7ca3"},"vehicle_type_id":"4","last_reported":1742544782,"current_range_meters":7200,"station_id":"ce4bhpp2rcd13ifvqhfg","pricing_plan_id":"cebpf4jnsgd1na2vs0mg"},{"bike_id":"975e7131-f7d0-4b84-9294-f61c22c6fc1e","system_id":"levelo_inurba_marseille","lat":43.29904,"lon":5.38141,"is_reserved":false,"is_disabled":false,"rental_uris":{"android":"levelo://app?vid=975e7131-f7d0-4b84-9294-f61c22c6fc1e","ios":"levelo://app?vid=975e7131-f7d0-4b84-9294-f61c22c6fc1e"},"vehicle_type_id":"4","last_reported":1742544782,"current_range_meters":7200,"station_id":"ce4bgj12rcd13ifvqbc0","pricing_plan_id":"cebpf4jnsgd1na2vs0mg"},{"bike_id":"4da38abe-63fe-44a7-abd3-4bad6629a678","system_id":"levelo_inurba_marseille","lat":43.29711,"lon":5.37331,"is_reserved":false,"is_disabled":false,"rental_uris":{"android":"levelo://app?vid=4da38abe-63fe-44a7-abd3-4bad6629a678","ios":"levelo://app?vid=4da38abe-63fe-44a7-abd3-4bad6629a678"},"vehicle_type_id":"4","last_reported":1742544782,"current_range_meters":7200,"station_id":"ce4bgk12rcd13ifvqbj0","pricing_plan_id":"cebpf4jnsgd1na2vs0mg"},{"bike_id":"b9a2bcea-fae2-40d2-8e46-6080ebd504ff","system_id":"levelo_inurba_marseille","lat":43.24175,"lon":5.39729,"is_reserved":false,"is_disabled":false,"rental_uris":{"android":"levelo://app?vid=b9a2bcea-fae2-40d2-8e46-6080ebd504ff","ios":"levelo://app?vid=b9a2bcea-fae2-40d2-8e46-6080ebd504ff"},"vehicle_type_id":"4","last_reported":1742544782,"current_range_meters":7200,"station_id":"ce4bhn12rcd13ifvqgpg","pricing_plan_id":"cebpf4jnsgd1na2vs0mg"},{"bike_id":"a1d4474e-dc54-4e96-8359-81b099ba1a93","system_id":"levelo_inurba_marseille","lat":43.23195,"lon":5.39988,"is_reserved":false,"is_disabled":false,"rental_uris":{"android":"levelo://app?vid=a1d4474e-dc54-4e96-8359-81b099ba1a93","ios":"levelo://app?vid=a1d4474e-dc54-4e96-8359-81b099ba1a93"},"vehicle_type_id":"4","last_reported":1742544782,"current_range_meters":8000,"station_id":"ce4bhn12rcd13ifvqgqg","pricing_plan_id":"cebpf4jnsgd1na2vs0mg"},{"bike_id":"294818fe-f961-4f2d-85c2-45f9b2579a29","system_id":"levelo_inurba_marseille","lat":43.27695,"lon":5.390541,"is_reserved":false,"is_disabled":false,"rental_uris":{"android":"levelo://app?vid=294818fe-f961-4f2d-85c2-45f9b2579a29","ios":"levelo://app?vid=294818fe-f961-4f2d-85c2-45f9b2579a29"},"vehicle_type_id":"4","last_reported":1742544782,"current_range_meters":8000,"station_id":"","pricing_plan_id":"cebpf4jnsgd1na2vs0mg"},{"bike_id":"fe1925f0-859d-4776-a544-3f5684237fd5","system_id":"levelo_inurba_marseille","lat":43.337444,"lon":5.374475,"is_reserved":false,"is_disabled":false,"rental_uris":{"android":"levelo://app?vid=fe1925f0-859d-4776-a544-3f5684237fd5","ios":"levelo://app?vid=fe1925f0-859d-4776-a544-3f5684237fd5"},"vehicle_type_id":"4","last_reported":1742544782,"current_range_meters":8000,"station_id":"","pricing_plan_id":"cebpf4jnsgd1na2vs0mg"},{"bike_id":"a0deeb6c-62a7-4efb-834c-1bec837aaba6","system_id":"levelo_inurba_marseille","lat":43.33678,"lon":5.37836,"is_reserved":false,"is_disabled":false,"rental_uris":{"android":"levelo://app?vid=a0deeb6c-62a7-4efb-834c-1bec837aaba6","ios":"levelo://app?vid=a0deeb6c-62a7-4efb-834c-1bec837aaba6"},"vehicle_type_id":"4","last_reported":1742544782,"current_range_meters":8000,"station_id":"","pricing_plan_id":"cebpf4jnsgd1na2vs0mg"},{"bike_id":"ffbee1c9-ab8d-45ee-b606-c546ab78c5f2","system_id":"levelo_inurba_marseille","lat":43.2973,"lon":5.37806,"is_reserved":false,"is_disabled":false,"rental_uris":{"android":"levelo://app?vid=ffbee1c9-ab8d-45ee-b606-c546ab78c5f2","ios":"levelo://app?vid=ffbee1c9-ab8d-45ee-b606-c546ab78c5f2"},"vehicle_type_id":"4","last_reported":1742544782,"current_range_meters":8000,"station_id":"","pricing_plan_id":"cebpf4jnsgd1na2vs0mg"},{"bike_id":"9044461e-62db-4d23-b825-ab9c7ed1b440","system_id":"levelo_inurba_marseille","lat":43.27498,"lon":5.42469,"is_reserved":false,"is_disabled":false,"rental_uris":{"android":"levelo://app?vid=9044461e-62db-4d23-b825-ab9c7ed1b440","ios":"levelo://app?vid=9044461e-62db-4d23-b825-ab9c7ed1b440"},"vehicle_type_id":"4","last_reported":1742544782,"current_range_meters":8000,"station_id":"ce4bho12rcd13ifvqh1g","pricing_plan_id":"cebpf4jnsgd1na2vs0mg"},{"bike_id":"76a129e6-b305-42b8-a863-5a99730d4d66","system_id":"levelo_inurba_marseille","lat":43.30424,"lon":5.41316,"is_reserved":false,"is_disabled":false,"rental_uris":{"android":"levelo://app?vid=76a129e6-b305-42b8-a863-5a99730d4d66","ios":"levelo://app?vid=76a129e6-b305-42b8-a863-5a99730d4d66"},"vehicle_type_id":"4","last_reported":1742544782,"current_range_meters":8000,"station_id":"ce4bhop2rcd13ifvqh8g","pricing_plan_id":"cebpf4jnsgd1na2vs0mg"},{"bike_id":"7442246c-2798-431d-84d3-acec834915be","system_id":"levelo_inurba_marseille","lat":43.30892,"lon":5.3686,"is_reserved":false,"is_disabled":false,"rental_uris":{"android":"levelo://app?vid=7442246c-2798-431d-84d3-acec834915be","ios":"levelo://app?vid=7442246c-2798-431d-84d3-acec834915be"},"vehicle_type_id":"4","last_reported":1742544782,"current_range_meters":8000,"station_id":"ce4bgn92rcd13ifvqbvg","pricing_plan_id":"cebpf4jnsgd1na2vs0mg"},{"bike_id":"87fc0535-a83d-43a6-b769-72549de4a628","system_id":"levelo_inurba_marseille","lat":43.30418,"lon":5.42526,"is_reserved":false,"is_disabled":false,"rental_uris":{"android":"levelo://app?vid=87fc0535-a83d-43a6-b769-72549de4a628","ios":"levelo://app?vid=87fc0535-a83d-43a6-b769-72549de4a628"},"vehicle_type_id":"4","last_reported":1742544782,"current_range_meters":8000,"station_id":"ce4bhoh2rcd13ifvqh6g","pricing_plan_id":"cebpf4jnsgd1na2vs0mg"},{"bike_id":"b9e4bdd0-024c-4547-9a94-39d0c7923642","system_id":"levelo_inurba_marseille","lat":43.24179,"lon":5.36401,"is_reserved":false,"is_disabled":false,"rental_uris":{"android":"levelo://app?vid=b9e4bdd0-024c-4547-9a94-39d0c7923642","ios":"levelo://app?vid=b9e4bdd0-024c-4547-9a94-39d0c7923642"},"vehicle_type_id":"4","last_reported":1742544782,"current_range_meters":8000,"station_id":"cpo36qri1sfpv3e86is0","pricing_plan_id":"cebpf4jnsgd1na2vs0mg"},{"bike_id":"c5bb5dca-1dc9-450e-9a3d-9fa737cf345d","system_id":"levelo_inurba_marseille","lat":43.24653,"lon":5.3889,"is_reserved":false,"is_disabled":false,"rental_uris":{"android":"levelo://app?vid=c5bb5dca-1dc9-450e-9a3d-9fa737cf345d","ios":"levelo://app?vid=c5bb5dca-1dc9-450e-9a3d-9fa737cf345d"},"vehicle_type_id":"4","last_reported":1742544782,"current_range_meters":8000,"station_id":"ce4bhg12rcd13ifvqf60","pricing_plan_id":"cebpf4jnsgd1na2vs0mg"},{"bike_id":"74ca8f8e-770f-4c39-9bcc-04d356dfc1fe","system_id":"levelo_inurba_marseille","lat":43.32476,"lon":5.36583,"is_reserved":false,"is_disabled":false,"rental_uris":{"android":"levelo://app?vid=74ca8f8e-770f-4c39-9bcc-04d356dfc1fe","ios":"levelo://app?vid=74ca8f8e-770f-4c39-9bcc-04d356dfc1fe"},"vehicle_type_id":"4","last_reported":1742544782,"current_range_meters":8400,"station_id":"ce4bhs12rcd13ifvqhvg","pricing_plan_id":"cebpf4jnsgd1na2vs0mg"},{"bike_id":"32e3927b-12d0-4b1a-9923-ea2f64ded6c1","system_id":"levelo_inurba_marseille","lat":43.28161,"lon":5.42662,"is_reserved":false,"is_disabled":false,"rental_uris":{"android":"levelo://app?vid=32e3927b-12d0-4b1a-9923-ea2f64ded6c1","ios":"levelo://app?vid=32e3927b-12d0-4b1a-9923-ea2f64ded6c1"},"vehicle_type_id":"4","last_reported":1742544782,"current_range_meters":8400,"station_id":"ce4bhnh2rcd13ifvqgug","pricing_plan_id":"cebpf4jnsgd1na2vs0mg"},{"bike_id":"311f3d6e-f9db-4cb3-9683-608f9dcd7aad","system_id":"levelo_inurba_marseille","lat":43.30311,"lon":5.36892,"is_reserved":false,"is_disabled":false,"rental_uris":{"android":"levelo://app?vid=311f3d6e-f9db-4cb3-9683-608f9dcd7aad","ios":"levelo://app?vid=311f3d6e-f9db-4cb3-9683-608f9dcd7aad"},"vehicle_type_id":"4","last_reported":1742544782,"current_range_meters":8400,"station_id":"ce4bgqh2rcd13ifvqc5g","pricing_plan_id":"cebpf4jnsgd1na2vs0mg"},{"bike_id":"4fdfb7d6-8ab3-43f7-8bc5-8c9a50e46a96","system_id":"levelo_inurba_marseille","lat":43.26553,"lon":5.37289,"is_reserved":false,"is_disabled":true,"rental_uris":{"android":"levelo://app?vid=4fdfb7d6-8ab3-43f7-8bc5-8c9a50e46a96","ios":"levelo://app?vid=4fdfb7d6-8ab3-43f7-8bc5-8c9a50e46a96"},"vehicle_type_id":"4","last_reported":1742544782,"current_range_meters":8400,"station_id":"ce4bhg12rcd13ifvqf70","pricing_plan_id":"cebpf4jnsgd1na2vs0mg"},{"bike_id":"298094ff-1b8f-403e-b315-5326030acb86","system_id":"levelo_inurba_marseille","lat":43.28146,"lon":5.42674,"is_reserved":false,"is_disabled":false,"rental_uris":{"android":"levelo://app?vid=298094ff-1b8f-403e-b315-5326030acb86","ios":"levelo://app?vid=298094ff-1b8f-403e-b315-5326030acb86"},"vehicle_type_id":"4","last_reported":1742544782,"current_range_meters":8400,"station_id":"ce4bhnh2rcd13ifvqgug","pricing_plan_id":"cebpf4jnsgd1na2vs0mg"},{"bike_id":"6c7f6a65-3f6d-43f3-b59a-7370b2183fbd","system_id":"levelo_inurba_marseille","lat":43.30888,"lon":5.36868,"is_reserved":false,"is_disabled":false,"rental_uris":{"android":"levelo://app?vid=6c7f6a65-3f6d-43f3-b59a-7370b2183fbd","ios":"levelo://app?vid=6c7f6a65-3f6d-43f3-b59a-7370b2183fbd"},"vehicle_type_id":"4","last_reported":1742544782,"current_range_meters":8000,"station_id":"ce4bgn92rcd13ifvqbvg","pricing_plan_id":"cebpf4jnsgd1na2vs0mg"},{"bike_id":"1650c152-e083-415c-b118-5516ca869cbf","system_id":"levelo_inurba_marseille","lat":43.26955,"lon":5.38645,"is_reserved":false,"is_disabled":false,"rental_uris":{"android":"levelo://app?vid=1650c152-e083-415c-b118-5516ca869cbf","ios":"levelo://app?vid=1650c152-e083-415c-b118-5516ca869cbf"},"vehicle_type_id":"4","last_reported":1742544782,"current_range_meters":8400,"station_id":"ce4bhh92rcd13ifvqfh0","pricing_plan_id":"cebpf4jnsgd1na2vs0mg"},{"bike_id":"818ae6df-02ef-4c8f-b179-6e9280e22888","system_id":"levelo_inurba_marseille","lat":43.27824,"lon":5.39206,"is_reserved":false,"is_disabled":false,"rental_uris":{"android":"levelo://app?vid=818ae6df-02ef-4c8f-b179-6e9280e22888","ios":"levelo://app?vid=818ae6df-02ef-4c8f-b179-6e9280e22888"},"vehicle_type_id":"4","last_reported":1742544782,"current_range_meters":8400,"station_id":"ce4bhjp2rcd13ifvqga0","pricing_plan_id":"cebpf4jnsgd1na2vs0mg"},{"bike_id":"15dd2415-808e-4142-8f05-d0f08ddfa8fe","system_id":"levelo_inurba_marseille","lat":43.31502,"lon":5.37598,"is_reserved":false,"is_disabled":false,"rental_uris":{"android":"levelo://app?vid=15dd2415-808e-4142-8f05-d0f08ddfa8fe","ios":"levelo://app?vid=15dd2415-808e-4142-8f05-d0f08ddfa8fe"},"vehicle_type_id":"4","last_reported":1742544782,"current_range_meters":8800,"station_id":"","pricing_plan_id":"cebpf4jnsgd1na2vs0mg"},{"bike_id":"c0196702-1a48-466c-ba11-6749e93050f1","system_id":"levelo_inurba_marseille","lat":43.28409,"lon":5.3752,"is_reserved":false,"is_disabled":true,"rental_uris":{"android":"levelo://app?vid=c0196702-1a48-466c-ba11-6749e93050f1","ios":"levelo://app?vid=c0196702-1a48-466c-ba11-6749e93050f1"},"vehicle_type_id":"4","last_reported":1742544782,"current_range_meters":8800,"station_id":"ce4bh412rcd13ifvqds0","pricing_plan_id":"cebpf4jnsgd1na2vs0mg"},{"bike_id":"6b1f13e0-d36d-46dc-a543-f4a2c333ca10","system_id":"levelo_inurba_marseille","lat":43.24068,"lon":5.37756,"is_reserved":false,"is_disabled":false,"rental_uris":{"android":"levelo://app?vid=6b1f13e0-d36d-46dc-a543-f4a2c333ca10","ios":"levelo://app?vid=6b1f13e0-d36d-46dc-a543-f4a2c333ca10"},"vehicle_type_id":"4","last_reported":1742544782,"current_range_meters":9200,"station_id":"ce4bhnp2rcd13ifvqgvg","pricing_plan_id":"cebpf4jnsgd1na2vs0mg"},{"bike_id":"0a83cc13-1a3f-485e-af9b-939155a309dc","system_id":"levelo_inurba_marseille","lat":43.290222,"lon":5.381261,"is_reserved":false,"is_disabled":false,"rental_uris":{"android":"levelo://app?vid=0a83cc13-1a3f-485e-af9b-939155a309dc","ios":"levelo://app?vid=0a83cc13-1a3f-485e-af9b-939155a309dc"},"vehicle_type_id":"4","last_reported":1742544782,"current_range_meters":8800,"station_id":"ce4bgt92rcd13ifvqcg0","pricing_plan_id":"cebpf4jnsgd1na2vs0mg"},{"bike_id":"a2ece08e-5a0a-4ecb-a8bb-4b5c24cd4f12","system_id":"levelo_inurba_marseille","lat":43.29806,"lon":5.38103,"is_reserved":false,"is_disabled":false,"rental_uris":{"android":"levelo://app?vid=a2ece08e-5a0a-4ecb-a8bb-4b5c24cd4f12","ios":"levelo://app?vid=a2ece08e-5a0a-4ecb-a8bb-4b5c24cd4f12"},"vehicle_type_id":"4","last_reported":1742544782,"current_range_meters":8800,"station_id":"ce4bgip2rcd13ifvqbb0","pricing_plan_id":"cebpf4jnsgd1na2vs0mg"},{"bike_id":"a3251066-4c40-4122-a906-99c3befc3d95","system_id":"levelo_inurba_marseille","lat":43.31343,"lon":5.36724,"is_reserved":false,"is_disabled":false,"rental_uris":{"android":"levelo://app?vid=a3251066-4c40-4122-a906-99c3befc3d95","ios":"levelo://app?vid=a3251066-4c40-4122-a906-99c3befc3d95"},"vehicle_type_id":"4","last_reported":1742544782,"current_range_meters":9200,"station_id":"ce4bgr92rcd13ifvqc6g","pricing_plan_id":"cebpf4jnsgd1na2vs0mg"},{"bike_id":"86dd3df1-c90d-404c-8360-d8d198a5195e","system_id":"levelo_inurba_marseille","lat":43.2621,"lon":5.3793,"is_reserved":false,"is_disabled":false,"rental_uris":{"android":"levelo://app?vid=86dd3df1-c90d-404c-8360-d8d198a5195e","ios":"levelo://app?vid=86dd3df1-c90d-404c-8360-d8d198a5195e"},"vehicle_type_id":"4","last_reported":1742544782,"current_range_meters":9200,"station_id":"ce4bhjp2rcd13ifvqg90","pricing_plan_id":"cebpf4jnsgd1na2vs0mg"},{"bike_id":"4ac8d093-2a07-4a38-bf73-829335d22cc6","system_id":"levelo_inurba_marseille","lat":43.29805,"lon":5.38112,"is_reserved":false,"is_disabled":false,"rental_uris":{"android":"levelo://app?vid=4ac8d093-2a07-4a38-bf73-829335d22cc6","ios":"levelo://app?vid=4ac8d093-2a07-4a38-bf73-829335d22cc6"},"vehicle_type_id":"4","last_reported":1742544782,"current_range_meters":9200,"station_id":"ce4bgip2rcd13ifvqbb0","pricing_plan_id":"cebpf4jnsgd1na2vs0mg"},{"bike_id":"9e829b61-bb07-4953-b3a4-b3e8e3e13897","system_id":"levelo_inurba_marseille","lat":43.303,"lon":5.36879,"is_reserved":false,"is_disabled":false,"rental_uris":{"android":"levelo://app?vid=9e829b61-bb07-4953-b3a4-b3e8e3e13897","ios":"levelo://app?vid=9e829b61-bb07-4953-b3a4-b3e8e3e13897"},"vehicle_type_id":"4","last_reported":1742544782,"current_range_meters":9200,"station_id":"ce4bgqh2rcd13ifvqc5g","pricing_plan_id":"cebpf4jnsgd1na2vs0mg"},{"bike_id":"62bf2f5c-9819-4816-afad-4a268d7a76b8","system_id":"levelo_inurba_marseille","lat":43.2416,"lon":5.36411,"is_reserved":false,"is_disabled":false,"rental_uris":{"android":"levelo://app?vid=62bf2f5c-9819-4816-afad-4a268d7a76b8","ios":"levelo://app?vid=62bf2f5c-9819-4816-afad-4a268d7a76b8"},"vehicle_type_id":"4","last_reported":1742544782,"current_range_meters":9200,"station_id":"cpo36qri1sfpv3e86is0","pricing_plan_id":"cebpf4jnsgd1na2vs0mg"},{"bike_id":"b5acc6c1-f2ed-46ae-ac6d-f87b22ac88b5","system_id":"levelo_inurba_marseille","lat":43.30322,"lon":5.36897,"is_reserved":false,"is_disabled":false,"rental_uris":{"android":"levelo://app?vid=b5acc6c1-f2ed-46ae-ac6d-f87b22ac88b5","ios":"levelo://app?vid=b5acc6c1-f2ed-46ae-ac6d-f87b22ac88b5"},"vehicle_type_id":"4","last_reported":1742544782,"current_range_meters":9200,"station_id":"ce4bgqh2rcd13ifvqc5g","pricing_plan_id":"cebpf4jnsgd1na2vs0mg"},{"bike_id":"83c01fa3-3ea9-414c-82d3-b36e2d08986f","system_id":"levelo_inurba_marseille","lat":43.27823,"lon":5.38806,"is_reserved":false,"is_disabled":false,"rental_uris":{"android":"levelo://app?vid=83c01fa3-3ea9-414c-82d3-b36e2d08986f","ios":"levelo://app?vid=83c01fa3-3ea9-414c-82d3-b36e2d08986f"},"vehicle_type_id":"4","last_reported":1742544782,"current_range_meters":9200,"station_id":"ce4bhh12rcd13ifvqfg0","pricing_plan_id":"cebpf4jnsgd1na2vs0mg"},{"bike_id":"10e5bc43-bc5c-4e8c-8369-99805b1e4ce8","system_id":"levelo_inurba_marseille","lat":43.272,"lon":5.39165,"is_reserved":false,"is_disabled":false,"rental_uris":{"android":"levelo://app?vid=10e5bc43-bc5c-4e8c-8369-99805b1e4ce8","ios":"levelo://app?vid=10e5bc43-bc5c-4e8c-8369-99805b1e4ce8"},"vehicle_type_id":"4","last_reported":1742544782,"current_range_meters":9200,"station_id":"ce4bhhp2rcd13ifvqfm0","pricing_plan_id":"cebpf4jnsgd1na2vs0mg"},{"bike_id":"1c3b5361-695c-4ccc-94f9-aca7f37b6d45","system_id":"levelo_inurba_marseille","lat":43.23203,"lon":5.35569,"is_reserved":false,"is_disabled":false,"rental_uris":{"android":"levelo://app?vid=1c3b5361-695c-4ccc-94f9-aca7f37b6d45","ios":"levelo://app?vid=1c3b5361-695c-4ccc-94f9-aca7f37b6d45"},"vehicle_type_id":"4","last_reported":1742544782,"current_range_meters":9600,"station_id":"ce4bhu92rcd13ifvqi70","pricing_plan_id":"cebpf4jnsgd1na2vs0mg"},{"bike_id":"f54ca8c9-1f19-48d7-8d0e-71f9257573ea","system_id":"levelo_inurba_marseille","lat":43.28161,"lon":5.42641,"is_reserved":false,"is_disabled":false,"rental_uris":{"android":"levelo://app?vid=f54ca8c9-1f19-48d7-8d0e-71f9257573ea","ios":"levelo://app?vid=f54ca8c9-1f19-48d7-8d0e-71f9257573ea"},"vehicle_type_id":"4","last_reported":1742544782,"current_range_meters":9600,"station_id":"ce4bhnh2rcd13ifvqgug","pricing_plan_id":"cebpf4jnsgd1na2vs0mg"},{"bike_id":"2678929a-312d-4089-b116-1e816de7db90","system_id":"levelo_inurba_marseille","lat":43.32114,"lon":5.36808,"is_reserved":false,"is_disabled":false,"rental_uris":{"android":"levelo://app?vid=2678929a-312d-4089-b116-1e816de7db90","ios":"levelo://app?vid=2678929a-312d-4089-b116-1e816de7db90"},"vehicle_type_id":"4","last_reported":1742544782,"current_range_meters":9600,"station_id":"ce4bhrh2rcd13ifvqhug","pricing_plan_id":"cebpf4jnsgd1na2vs0mg"},{"bike_id":"a8e54271-f43e-4238-be61-5a0d0f7d1259","system_id":"levelo_inurba_marseille","lat":43.24676,"lon":5.38157,"is_reserved":false,"is_disabled":false,"rental_uris":{"android":"levelo://app?vid=a8e54271-f43e-4238-be61-5a0d0f7d1259","ios":"levelo://app?vid=a8e54271-f43e-4238-be61-5a0d0f7d1259"},"vehicle_type_id":"4","last_reported":1742544782,"current_range_meters":9600,"station_id":"ce4bhih2rcd13ifvqfr0","pricing_plan_id":"cebpf4jnsgd1na2vs0mg"},{"bike_id":"1295e912-beee-47fe-a5c8-2ae149d6d129","system_id":"levelo_inurba_marseille","lat":43.31713,"lon":5.37758,"is_reserved":false,"is_disabled":false,"rental_uris":{"android":"levelo://app?vid=1295e912-beee-47fe-a5c8-2ae149d6d129","ios":"levelo://app?vid=1295e912-beee-47fe-a5c8-2ae149d6d129"},"vehicle_type_id":"4","last_reported":1742544782,"current_range_meters":9600,"station_id":"ce4bgth2rcd13ifvqch0","pricing_plan_id":"cebpf4jnsgd1na2vs0mg"},{"bike_id":"24016567-79c9-417a-ad0a-921105cb0978","system_id":"levelo_inurba_marseille","lat":43.32385,"lon":5.38934,"is_reserved":false,"is_disabled":false,"rental_uris":{"android":"levelo://app?vid=24016567-79c9-417a-ad0a-921105cb0978","ios":"levelo://app?vid=24016567-79c9-417a-ad0a-921105cb0978"},"vehicle_type_id":"4","last_reported":1742544782,"current_range_meters":9600,"station_id":"ce4bhqp2rcd13ifvqhog","pricing_plan_id":"cebpf4jnsgd1na2vs0mg"},{"bike_id":"3cc4eba1-679e-4819-9758-6596ac31f0d4","system_id":"levelo_inurba_marseille","lat":43.29781,"lon":5.393449,"is_reserved":false,"is_disabled":false,"rental_uris":{"android":"levelo://app?vid=3cc4eba1-679e-4819-9758-6596ac31f0d4","ios":"levelo://app?vid=3cc4eba1-679e-4819-9758-6596ac31f0d4"},"vehicle_type_id":"4","last_reported":1742544782,"current_range_meters":9600,"station_id":"ce4bh012rcd13ifvqd10","pricing_plan_id":"cebpf4jnsgd1na2vs0mg"},{"bike_id":"31ba5937-48f4-487d-85b0-bd6c0014621f","system_id":"levelo_inurba_marseille","lat":43.31505,"lon":5.37315,"is_reserved":false,"is_disabled":false,"rental_uris":{"android":"levelo://app?vid=31ba5937-48f4-487d-85b0-bd6c0014621f","ios":"levelo://app?vid=31ba5937-48f4-487d-85b0-bd6c0014621f"},"vehicle_type_id":"4","last_reported":1742544782,"current_range_meters":9600,"station_id":"ce4bgt12rcd13ifvqcd0","pricing_plan_id":"cebpf4jnsgd1na2vs0mg"},{"bike_id":"86859bc8-cdf3-4c55-a231-e1ff87943727","system_id":"levelo_inurba_marseille","lat":43.31485,"lon":5.37296,"is_reserved":false,"is_disabled":false,"rental_uris":{"android":"levelo://app?vid=86859bc8-cdf3-4c55-a231-e1ff87943727","ios":"levelo://app?vid=86859bc8-cdf3-4c55-a231-e1ff87943727"},"vehicle_type_id":"4","last_reported":1742544782,"current_range_meters":10000,"station_id":"ce4bgt12rcd13ifvqcd0","pricing_plan_id":"cebpf4jnsgd1na2vs0mg"},{"bike_id":"f2387910-c486-4275-a7ab-dbeb87afdc12","system_id":"levelo_inurba_marseille","lat":43.33746,"lon":5.39189,"is_reserved":false,"is_disabled":false,"rental_uris":{"android":"levelo://app?vid=f2387910-c486-4275-a7ab-dbeb87afdc12","ios":"levelo://app?vid=f2387910-c486-4275-a7ab-dbeb87afdc12"},"vehicle_type_id":"4","last_reported":1742544782,"current_range_meters":10000,"station_id":"ce4bhr92rcd13ifvqhsg","pricing_plan_id":"cebpf4jnsgd1na2vs0mg"},{"bike_id":"ca38fcd6-3c68-4041-b15a-86267bca2e49","system_id":"levelo_inurba_marseille","lat":43.32476,"lon":5.36567,"is_reserved":false,"is_disabled":false,"rental_uris":{"android":"levelo://app?vid=ca38fcd6-3c68-4041-b15a-86267bca2e49","ios":"levelo://app?vid=ca38fcd6-3c68-4041-b15a-86267bca2e49"},"vehicle_type_id":"4","last_reported":1742544782,"current_range_meters":10000,"station_id":"ce4bhs12rcd13ifvqhvg","pricing_plan_id":"cebpf4jnsgd1na2vs0mg"},{"bike_id":"6a34c9f6-3100-4596-9129-a987aab9431b","system_id":"levelo_inurba_marseille","lat":43.30601,"lon":5.39362,"is_reserved":false,"is_disabled":false,"rental_uris":{"android":"levelo://app?vid=6a34c9f6-3100-4596-9129-a987aab9431b","ios":"levelo://app?vid=6a34c9f6-3100-4596-9129-a987aab9431b"},"vehicle_type_id":"4","last_reported":1742544782,"current_range_meters":10000,"station_id":"ce4bh0p2rcd13ifvqd80","pricing_plan_id":"cebpf4jnsgd1na2vs0mg"},{"bike_id":"a67c54b6-5ce9-4632-8070-5ca7d5b7fc9e","system_id":"levelo_inurba_marseille","lat":43.23068,"lon":5.35515,"is_reserved":false,"is_disabled":false,"rental_uris":{"android":"levelo://app?vid=a67c54b6-5ce9-4632-8070-5ca7d5b7fc9e","ios":"levelo://app?vid=a67c54b6-5ce9-4632-8070-5ca7d5b7fc9e"},"vehicle_type_id":"4","last_reported":1742544782,"current_range_meters":10000,"station_id":"cpo3342slgdg3j2ifvpg","pricing_plan_id":"cebpf4jnsgd1na2vs0mg"},{"bike_id":"d5a33943-f897-4524-a7fa-cd13ee66439c","system_id":"levelo_inurba_marseille","lat":43.2749,"lon":5.42453,"is_reserved":false,"is_disabled":false,"rental_uris":{"android":"levelo://app?vid=d5a33943-f897-4524-a7fa-cd13ee66439c","ios":"levelo://app?vid=d5a33943-f897-4524-a7fa-cd13ee66439c"},"vehicle_type_id":"4","last_reported":1742544782,"current_range_meters":10000,"station_id":"ce4bhn92rcd13ifvqgrg","pricing_plan_id":"cebpf4jnsgd1na2vs0mg"},{"bike_id":"6d71c6b4-0ae1-44cc-8b02-7ae0ed469266","system_id":"levelo_inurba_marseille","lat":43.29015,"lon":5.35615,"is_reserved":false,"is_disabled":false,"rental_uris":{"android":"levelo://app?vid=6d71c6b4-0ae1-44cc-8b02-7ae0ed469266","ios":"levelo://app?vid=6d71c6b4-0ae1-44cc-8b02-7ae0ed469266"},"vehicle_type_id":"4","last_reported":1742544782,"current_range_meters":10000,"station_id":"ce4bhb92rcd13ifvqen0","pricing_plan_id":"cebpf4jnsgd1na2vs0mg"},{"bike_id":"9f236160-0874-408a-bbd8-8246dc52830b","system_id":"levelo_inurba_marseille","lat":43.28472,"lon":5.38562,"is_reserved":false,"is_disabled":false,"rental_uris":{"android":"levelo://app?vid=9f236160-0874-408a-bbd8-8246dc52830b","ios":"levelo://app?vid=9f236160-0874-408a-bbd8-8246dc52830b"},"vehicle_type_id":"4","last_reported":1742544782,"current_range_meters":10000,"station_id":"ce4bh8p2rcd13ifvqeb0","pricing_plan_id":"cebpf4jnsgd1na2vs0mg"},{"bike_id":"5ef2432c-8b14-42cf-8e2a-1af923562f84","system_id":"levelo_inurba_marseille","lat":43.31488,"lon":5.37296,"is_reserved":false,"is_disabled":false,"rental_uris":{"android":"levelo://app?vid=5ef2432c-8b14-42cf-8e2a-1af923562f84","ios":"levelo://app?vid=5ef2432c-8b14-42cf-8e2a-1af923562f84"},"vehicle_type_id":"4","last_reported":1742544782,"current_range_meters":10000,"station_id":"ce4bgt12rcd13ifvqcd0","pricing_plan_id":"cebpf4jnsgd1na2vs0mg"},{"bike_id":"e7099a91-f011-4f51-8f8e-c8f0d1018eb5","system_id":"levelo_inurba_marseille","lat":43.2318,"lon":5.4,"is_reserved":false,"is_disabled":false,"rental_uris":{"android":"levelo://app?vid=e7099a91-f011-4f51-8f8e-c8f0d1018eb5","ios":"levelo://app?vid=e7099a91-f011-4f51-8f8e-c8f0d1018eb5"},"vehicle_type_id":"4","last_reported":1742544782,"current_range_meters":10000,"station_id":"ce4bhn12rcd13ifvqgqg","pricing_plan_id":"cebpf4jnsgd1na2vs0mg"},{"bike_id":"dd713a48-3025-4704-84ce-aa7f1d00305f","system_id":"levelo_inurba_marseille","lat":43.29837,"lon":5.36271,"is_reserved":false,"is_disabled":false,"rental_uris":{"android":"levelo://app?vid=dd713a48-3025-4704-84ce-aa7f1d00305f","ios":"levelo://app?vid=dd713a48-3025-4704-84ce-aa7f1d00305f"},"vehicle_type_id":"4","last_reported":1742544782,"current_range_meters":10000,"station_id":"ce4bgpp2rcd13ifvqc3g","pricing_plan_id":"cebpf4jnsgd1na2vs0mg"},{"bike_id":"5c2bc116-d340-45f0-8110-e9774aa2c6a1","system_id":"levelo_inurba_marseille","lat":43.30606,"lon":5.39329,"is_reserved":false,"is_disabled":false,"rental_uris":{"android":"levelo://app?vid=5c2bc116-d340-45f0-8110-e9774aa2c6a1","ios":"levelo://app?vid=5c2bc116-d340-45f0-8110-e9774aa2c6a1"},"vehicle_type_id":"4","last_reported":1742544782,"current_range_meters":10000,"station_id":"ce4bh0p2rcd13ifvqd80","pricing_plan_id":"cebpf4jnsgd1na2vs0mg"},{"bike_id":"899ab87e-4ea4-40e5-9304-e09f83aad3d0","system_id":"levelo_inurba_marseille","lat":43.23949,"lon":5.36673,"is_reserved":false,"is_disabled":false,"rental_uris":{"android":"levelo://app?vid=899ab87e-4ea4-40e5-9304-e09f83aad3d0","ios":"levelo://app?vid=899ab87e-4ea4-40e5-9304-e09f83aad3d0"},"vehicle_type_id":"4","last_reported":1742544782,"current_range_meters":10800,"station_id":"ce4bhi12rcd13ifvqfp0","pricing_plan_id":"cebpf4jnsgd1na2vs0mg"},{"bike_id":"92d540b9-6bc5-4263-933a-6ade2d6be28e","system_id":"levelo_inurba_marseille","lat":43.27492,"lon":5.42462,"is_reserved":false,"is_disabled":false,"rental_uris":{"android":"levelo://app?vid=92d540b9-6bc5-4263-933a-6ade2d6be28e","ios":"levelo://app?vid=92d540b9-6bc5-4263-933a-6ade2d6be28e"},"vehicle_type_id":"4","last_reported":1742544782,"current_range_meters":10800,"station_id":"ce4bhn92rcd13ifvqgrg","pricing_plan_id":"cebpf4jnsgd1na2vs0mg"},{"bike_id":"845a9092-e4d6-4a36-bc94-34057775bed6","system_id":"levelo_inurba_marseille","lat":43.29553,"lon":5.42291,"is_reserved":false,"is_disabled":false,"rental_uris":{"android":"levelo://app?vid=845a9092-e4d6-4a36-bc94-34057775bed6","ios":"levelo://app?vid=845a9092-e4d6-4a36-bc94-34057775bed6"},"vehicle_type_id":"4","last_reported":1742544782,"current_range_meters":10800,"station_id":"ce4bhph2rcd13ifvqhdg","pricing_plan_id":"cebpf4jnsgd1na2vs0mg"},{"bike_id":"fd63a192-a2ae-4c1d-aa3f-4b573664d6e9","system_id":"levelo_inurba_marseille","lat":43.31353,"lon":5.3671,"is_reserved":false,"is_disabled":false,"rental_uris":{"android":"levelo://app?vid=fd63a192-a2ae-4c1d-aa3f-4b573664d6e9","ios":"levelo://app?vid=fd63a192-a2ae-4c1d-aa3f-4b573664d6e9"},"vehicle_type_id":"4","last_reported":1742544782,"current_range_meters":10800,"station_id":"ce4bgr92rcd13ifvqc6g","pricing_plan_id":"cebpf4jnsgd1na2vs0mg"},{"bike_id":"bf5d7bdb-65a8-4310-b955-6a76e2cbd7fe","system_id":"levelo_inurba_marseille","lat":43.33733,"lon":5.39211,"is_reserved":false,"is_disabled":false,"rental_uris":{"android":"levelo://app?vid=bf5d7bdb-65a8-4310-b955-6a76e2cbd7fe","ios":"levelo://app?vid=bf5d7bdb-65a8-4310-b955-6a76e2cbd7fe"},"vehicle_type_id":"4","last_reported":1742544782,"current_range_meters":10800,"station_id":"ce4bhr92rcd13ifvqhsg","pricing_plan_id":"cebpf4jnsgd1na2vs0mg"},{"bike_id":"ef16e6fd-d954-4df1-911a-4d78b575162e","system_id":"levelo_inurba_marseille","lat":43.32538,"lon":5.41439,"is_reserved":false,"is_disabled":false,"rental_uris":{"android":"levelo://app?vid=ef16e6fd-d954-4df1-911a-4d78b575162e","ios":"levelo://app?vid=ef16e6fd-d954-4df1-911a-4d78b575162e"},"vehicle_type_id":"4","last_reported":1742544782,"current_range_meters":10800,"station_id":"ce4bhq12rcd13ifvqhhg","pricing_plan_id":"cebpf4jnsgd1na2vs0mg"},{"bike_id":"ef760efa-1a76-4bb1-8cd8-068113ba4c42","system_id":"levelo_inurba_marseille","lat":43.25934,"lon":5.40901,"is_reserved":false,"is_disabled":false,"rental_uris":{"android":"levelo://app?vid=ef760efa-1a76-4bb1-8cd8-068113ba4c42","ios":"levelo://app?vid=ef760efa-1a76-4bb1-8cd8-068113ba4c42"},"vehicle_type_id":"4","last_reported":1742544782,"current_range_meters":10800,"station_id":"ce4bhm92rcd13ifvqglg","pricing_plan_id":"cebpf4jnsgd1na2vs0mg"},{"bike_id":"977d434b-f498-4766-adac-22ba6fd3a8aa","system_id":"levelo_inurba_marseille","lat":43.2752,"lon":5.4248,"is_reserved":false,"is_disabled":false,"rental_uris":{"android":"levelo://app?vid=977d434b-f498-4766-adac-22ba6fd3a8aa","ios":"levelo://app?vid=977d434b-f498-4766-adac-22ba6fd3a8aa"},"vehicle_type_id":"4","last_reported":1742544782,"current_range_meters":10800,"station_id":"ce4bhn92rcd13ifvqgrg","pricing_plan_id":"cebpf4jnsgd1na2vs0mg"},{"bike_id":"da25a481-ec45-460d-8fd6-0e400f91c966","system_id":"levelo_inurba_marseille","lat":43.31343,"lon":5.36714,"is_reserved":false,"is_disabled":false,"rental_uris":{"android":"levelo://app?vid=da25a481-ec45-460d-8fd6-0e400f91c966","ios":"levelo://app?vid=da25a481-ec45-460d-8fd6-0e400f91c966"},"vehicle_type_id":"4","last_reported":1742544782,"current_range_meters":10800,"station_id":"ce4bgr92rcd13ifvqc6g","pricing_plan_id":"cebpf4jnsgd1na2vs0mg"},{"bike_id":"64f3f160-3d41-4047-a7c4-5d9924ce80c7","system_id":"levelo_inurba_marseille","lat":43.25806,"lon":5.39443,"is_reserved":false,"is_disabled":false,"rental_uris":{"android":"levelo://app?vid=64f3f160-3d41-4047-a7c4-5d9924ce80c7","ios":"levelo://app?vid=64f3f160-3d41-4047-a7c4-5d9924ce80c7"},"vehicle_type_id":"4","last_reported":1742544782,"current_range_meters":10800,"station_id":"ce4bhip2rcd13ifvqft0","pricing_plan_id":"cebpf4jnsgd1na2vs0mg"},{"bike_id":"d4d3aa33-7f82-4c5f-a6a1-2c645da45f2a","system_id":"levelo_inurba_marseille","lat":43.29264,"lon":5.40925,"is_reserved":false,"is_disabled":false,"rental_uris":{"android":"levelo://app?vid=d4d3aa33-7f82-4c5f-a6a1-2c645da45f2a","ios":"levelo://app?vid=d4d3aa33-7f82-4c5f-a6a1-2c645da45f2a"},"vehicle_type_id":"4","last_reported":1742544782,"current_range_meters":10800,"station_id":"ce4bh192rcd13ifvqdc0","pricing_plan_id":"cebpf4jnsgd1na2vs0mg"},{"bike_id":"68658dbb-17a0-42dc-9e1a-0bbb7b174165","system_id":"levelo_inurba_marseille","lat":43.30157,"lon":5.38889,"is_reserved":false,"is_disabled":false,"rental_uris":{"android":"levelo://app?vid=68658dbb-17a0-42dc-9e1a-0bbb7b174165","ios":"levelo://app?vid=68658dbb-17a0-42dc-9e1a-0bbb7b174165"},"vehicle_type_id":"4","last_reported":1742544782,"current_range_meters":11200,"station_id":"","pricing_plan_id":"cebpf4jnsgd1na2vs0mg"},{"bike_id":"66085d0e-be86-4e48-b663-d4437553449d","system_id":"levelo_inurba_marseille","lat":43.28355,"lon":5.38105,"is_reserved":false,"is_disabled":false,"rental_uris":{"android":"levelo://app?vid=66085d0e-be86-4e48-b663-d4437553449d","ios":"levelo://app?vid=66085d0e-be86-4e48-b663-d4437553449d"},"vehicle_type_id":"4","last_reported":1742544782,"current_range_meters":11200,"station_id":"ce4bh412rcd13ifvqdr0","pricing_plan_id":"cebpf4jnsgd1na2vs0mg"},{"bike_id":"32c136b5-47bb-4db2-974c-debde23c849b","system_id":"levelo_inurba_marseille","lat":43.29267,"lon":5.37629,"is_reserved":false,"is_disabled":false,"rental_uris":{"android":"levelo://app?vid=32c136b5-47bb-4db2-974c-debde23c849b","ios":"levelo://app?vid=32c136b5-47bb-4db2-974c-debde23c849b"},"vehicle_type_id":"4","last_reported":1742544782,"current_range_meters":11200,"station_id":"ce4bgi12rcd13ifvqb80","pricing_plan_id":"cebpf4jnsgd1na2vs0mg"},{"bike_id":"aba7a31c-d1db-4bb4-ba56-e84838fed699","system_id":"levelo_inurba_marseille","lat":43.24628,"lon":5.38909,"is_reserved":false,"is_disabled":false,"rental_uris":{"android":"levelo://app?vid=aba7a31c-d1db-4bb4-ba56-e84838fed699","ios":"levelo://app?vid=aba7a31c-d1db-4bb4-ba56-e84838fed699"},"vehicle_type_id":"4","last_reported":1742544782,"current_range_meters":11200,"station_id":"ce4bhg12rcd13ifvqf60","pricing_plan_id":"cebpf4jnsgd1na2vs0mg"},{"bike_id":"5aeacfd2-4e35-478e-9045-ef4df69a4b90","system_id":"levelo_inurba_marseille","lat":43.27237,"lon":5.4229,"is_reserved":false,"is_disabled":false,"rental_uris":{"android":"levelo://app?vid=5aeacfd2-4e35-478e-9045-ef4df69a4b90","ios":"levelo://app?vid=5aeacfd2-4e35-478e-9045-ef4df69a4b90"},"vehicle_type_id":"4","last_reported":1742544782,"current_range_meters":11200,"station_id":"ce4bhnp2rcd13ifvqgvg","pricing_plan_id":"cebpf4jnsgd1na2vs0mg"},{"bike_id":"57e057ea-fb99-4f7e-81aa-52b9a870f0dc","system_id":"levelo_inurba_marseille","lat":43.24066,"lon":5.37763,"is_reserved":false,"is_disabled":false,"rental_uris":{"android":"levelo://app?vid=57e057ea-fb99-4f7e-81aa-52b9a870f0dc","ios":"levelo://app?vid=57e057ea-fb99-4f7e-81aa-52b9a870f0dc"},"vehicle_type_id":"4","last_reported":1742544782,"current_range_meters":11200,"station_id":"ce4bhnp2rcd13ifvqgvg","pricing_plan_id":"cebpf4jnsgd1na2vs0mg"},{"bike_id":"9b513519-6571-4512-9426-8178711eafb7","system_id":"levelo_inurba_marseille","lat":43.29434,"lon":5.39752,"is_reserved":false,"is_disabled":true,"rental_uris":{"android":"levelo://app?vid=9b513519-6571-4512-9426-8178711eafb7","ios":"levelo://app?vid=9b513519-6571-4512-9426-8178711eafb7"},"vehicle_type_id":"4","last_reported":1742544782,"current_range_meters":11200,"station_id":"","pricing_plan_id":"cebpf4jnsgd1na2vs0mg"},{"bike_id":"b290a832-9566-47d3-ba61-076568387192","system_id":"levelo_inurba_marseille","lat":43.25708,"lon":5.41127,"is_reserved":false,"is_disabled":false,"rental_uris":{"android":"levelo://app?vid=b290a832-9566-47d3-ba61-076568387192","ios":"levelo://app?vid=b290a832-9566-47d3-ba61-076568387192"},"vehicle_type_id":"4","last_reported":1742544782,"current_range_meters":10800,"station_id":"ce4bhkp2rcd13ifvqgd0","pricing_plan_id":"cebpf4jnsgd1na2vs0mg"},{"bike_id":"3f31b5df-efbd-455d-92a7-4980b0ec4f93","system_id":"levelo_inurba_marseille","lat":43.26201,"lon":5.37927,"is_reserved":false,"is_disabled":true,"rental_uris":{"android":"levelo://app?vid=3f31b5df-efbd-455d-92a7-4980b0ec4f93","ios":"levelo://app?vid=3f31b5df-efbd-455d-92a7-4980b0ec4f93"},"vehicle_type_id":"4","last_reported":1742544782,"current_range_meters":11200,"station_id":"ce4bhjp2rcd13ifvqg90","pricing_plan_id":"cebpf4jnsgd1na2vs0mg"},{"bike_id":"611cf6a7-c612-4e85-9234-539bfc7b6df7","system_id":"levelo_inurba_marseille","lat":43.34168,"lon":5.40894,"is_reserved":false,"is_disabled":false,"rental_uris":{"android":"levelo://app?vid=611cf6a7-c612-4e85-9234-539bfc7b6df7","ios":"levelo://app?vid=611cf6a7-c612-4e85-9234-539bfc7b6df7"},"vehicle_type_id":"4","last_reported":1742544782,"current_range_meters":11600,"station_id":"ce4bhqh2rcd13ifvqhlg","pricing_plan_id":"cebpf4jnsgd1na2vs0mg"},{"bike_id":"563086a8-8515-4d07-a2d8-6c7fc246f529","system_id":"levelo_inurba_marseille","lat":43.25835,"lon":5.39434,"is_reserved":false,"is_disabled":false,"rental_uris":{"android":"levelo://app?vid=563086a8-8515-4d07-a2d8-6c7fc246f529","ios":"levelo://app?vid=563086a8-8515-4d07-a2d8-6c7fc246f529"},"vehicle_type_id":"4","last_reported":1742544782,"current_range_meters":11600,"station_id":"ce4bhip2rcd13ifvqft0","pricing_plan_id":"cebpf4jnsgd1na2vs0mg"},{"bike_id":"cfd69d0c-780d-4b40-abbc-c1e3f0f8b67c","system_id":"levelo_inurba_marseille","lat":43.24073,"lon":5.37763,"is_reserved":false,"is_disabled":false,"rental_uris":{"android":"levelo://app?vid=cfd69d0c-780d-4b40-abbc-c1e3f0f8b67c","ios":"levelo://app?vid=cfd69d0c-780d-4b40-abbc-c1e3f0f8b67c"},"vehicle_type_id":"4","last_reported":1742544782,"current_range_meters":11600,"station_id":"ce4bhnp2rcd13ifvqgvg","pricing_plan_id":"cebpf4jnsgd1na2vs0mg"},{"bike_id":"cff5c5d7-b2c2-4661-bcba-b7a09aa5def1","system_id":"levelo_inurba_marseille","lat":43.30293,"lon":5.36931,"is_reserved":false,"is_disabled":false,"rental_uris":{"android":"levelo://app?vid=cff5c5d7-b2c2-4661-bcba-b7a09aa5def1","ios":"levelo://app?vid=cff5c5d7-b2c2-4661-bcba-b7a09aa5def1"},"vehicle_type_id":"4","last_reported":1742544782,"current_range_meters":11600,"station_id":"ce4bgqh2rcd13ifvqc5g","pricing_plan_id":"cebpf4jnsgd1na2vs0mg"},{"bike_id":"fb15ee11-b2b6-4fb7-9d7d-b32657ee284c","system_id":"levelo_inurba_marseille","lat":43.3029,"lon":5.36881,"is_reserved":false,"is_disabled":false,"rental_uris":{"android":"levelo://app?vid=fb15ee11-b2b6-4fb7-9d7d-b32657ee284c","ios":"levelo://app?vid=fb15ee11-b2b6-4fb7-9d7d-b32657ee284c"},"vehicle_type_id":"4","last_reported":1742544782,"current_range_meters":11600,"station_id":"ce4bgqh2rcd13ifvqc5g","pricing_plan_id":"cebpf4jnsgd1na2vs0mg"},{"bike_id":"290140a6-cea0-4f51-a6bb-446ab300a0b2","system_id":"levelo_inurba_marseille","lat":43.27209,"lon":5.39187,"is_reserved":false,"is_disabled":false,"rental_uris":{"android":"levelo://app?vid=290140a6-cea0-4f51-a6bb-446ab300a0b2","ios":"levelo://app?vid=290140a6-cea0-4f51-a6bb-446ab300a0b2"},"vehicle_type_id":"4","last_reported":1742544782,"current_range_meters":11600,"station_id":"ce4bhhp2rcd13ifvqfm0","pricing_plan_id":"cebpf4jnsgd1na2vs0mg"},{"bike_id":"71694148-1226-4e9e-b9c2-51c458c9329c","system_id":"levelo_inurba_marseille","lat":43.29299,"lon":5.37466,"is_reserved":false,"is_disabled":false,"rental_uris":{"android":"levelo://app?vid=71694148-1226-4e9e-b9c2-51c458c9329c","ios":"levelo://app?vid=71694148-1226-4e9e-b9c2-51c458c9329c"},"vehicle_type_id":"4","last_reported":1742544782,"current_range_meters":11600,"station_id":"ce4bgi12rcd13ifvqb70","pricing_plan_id":"cebpf4jnsgd1na2vs0mg"},{"bike_id":"1f4b5356-d265-454a-aa48-2f7dec9d4d2a","system_id":"levelo_inurba_marseille","lat":43.3372,"lon":5.39194,"is_reserved":false,"is_disabled":false,"rental_uris":{"android":"levelo://app?vid=1f4b5356-d265-454a-aa48-2f7dec9d4d2a","ios":"levelo://app?vid=1f4b5356-d265-454a-aa48-2f7dec9d4d2a"},"vehicle_type_id":"4","last_reported":1742544782,"current_range_meters":11600,"station_id":"ce4bhr92rcd13ifvqhsg","pricing_plan_id":"cebpf4jnsgd1na2vs0mg"},{"bike_id":"e48ba760-728b-4162-9008-d13fb87128b5","system_id":"levelo_inurba_marseille","lat":43.28853,"lon":5.35853,"is_reserved":false,"is_disabled":false,"rental_uris":{"android":"levelo://app?vid=e48ba760-728b-4162-9008-d13fb87128b5","ios":"levelo://app?vid=e48ba760-728b-4162-9008-d13fb87128b5"},"vehicle_type_id":"4","last_reported":1742544782,"current_range_meters":11600,"station_id":"ce4bhb12rcd13ifvqem0","pricing_plan_id":"cebpf4jnsgd1na2vs0mg"},{"bike_id":"4267841d-5d94-44c6-8617-f314080e9a83","system_id":"levelo_inurba_marseille","lat":43.32473,"lon":5.36569,"is_reserved":false,"is_disabled":false,"rental_uris":{"android":"levelo://app?vid=4267841d-5d94-44c6-8617-f314080e9a83","ios":"levelo://app?vid=4267841d-5d94-44c6-8617-f314080e9a83"},"vehicle_type_id":"4","last_reported":1742544782,"current_range_meters":12000,"station_id":"ce4bhs12rcd13ifvqhvg","pricing_plan_id":"cebpf4jnsgd1na2vs0mg"},{"bike_id":"e4fb5ea4-7047-4ed2-b894-231fa292c026","system_id":"levelo_inurba_marseille","lat":43.28723,"lon":5.37942,"is_reserved":false,"is_disabled":false,"rental_uris":{"android":"levelo://app?vid=e4fb5ea4-7047-4ed2-b894-231fa292c026","ios":"levelo://app?vid=e4fb5ea4-7047-4ed2-b894-231fa292c026"},"vehicle_type_id":"4","last_reported":1742544782,"current_range_meters":12000,"station_id":"ce4bhnp2rcd13ifvqgvg","pricing_plan_id":"cebpf4jnsgd1na2vs0mg"},{"bike_id":"e62dac40-44c1-4bd0-960d-9e1c5df60e4a","system_id":"levelo_inurba_marseille","lat":43.30287,"lon":5.36897,"is_reserved":false,"is_disabled":false,"rental_uris":{"android":"levelo://app?vid=e62dac40-44c1-4bd0-960d-9e1c5df60e4a","ios":"levelo://app?vid=e62dac40-44c1-4bd0-960d-9e1c5df60e4a"},"vehicle_type_id":"4","last_reported":1742544782,"current_range_meters":12000,"station_id":"ce4bgqh2rcd13ifvqc5g","pricing_plan_id":"cebpf4jnsgd1na2vs0mg"},{"bike_id":"a06df953-ee24-4eee-acd9-cfb685fc1c62","system_id":"levelo_inurba_marseille","lat":43.31422,"lon":5.37456,"is_reserved":false,"is_disabled":false,"rental_uris":{"android":"levelo://app?vid=a06df953-ee24-4eee-acd9-cfb685fc1c62","ios":"levelo://app?vid=a06df953-ee24-4eee-acd9-cfb685fc1c62"},"vehicle_type_id":"4","last_reported":1742544782,"current_range_meters":12400,"station_id":"","pricing_plan_id":"cebpf4jnsgd1na2vs0mg"},{"bike_id":"52c16ac5-3447-4053-956c-78fc8bf0dc7c","system_id":"levelo_inurba_marseille","lat":43.32361,"lon":5.36763,"is_reserved":false,"is_disabled":false,"rental_uris":{"android":"levelo://app?vid=52c16ac5-3447-4053-956c-78fc8bf0dc7c","ios":"levelo://app?vid=52c16ac5-3447-4053-956c-78fc8bf0dc7c"},"vehicle_type_id":"4","last_reported":1742544782,"current_range_meters":12400,"station_id":"ce4bhsh2rcd13ifvqi2g","pricing_plan_id":"cebpf4jnsgd1na2vs0mg"},{"bike_id":"9f1c3e5c-869d-4869-b7c6-0c926f2da6bf","system_id":"levelo_inurba_marseille","lat":43.28366,"lon":5.39805,"is_reserved":false,"is_disabled":false,"rental_uris":{"android":"levelo://app?vid=9f1c3e5c-869d-4869-b7c6-0c926f2da6bf","ios":"levelo://app?vid=9f1c3e5c-869d-4869-b7c6-0c926f2da6bf"},"vehicle_type_id":"4","last_reported":1742544782,"current_range_meters":12400,"station_id":"","pricing_plan_id":"cebpf4jnsgd1na2vs0mg"},{"bike_id":"4df6df21-0705-424c-b600-9251d91dba1a","system_id":"levelo_inurba_marseille","lat":43.29835,"lon":5.36268,"is_reserved":false,"is_disabled":false,"rental_uris":{"android":"levelo://app?vid=4df6df21-0705-424c-b600-9251d91dba1a","ios":"levelo://app?vid=4df6df21-0705-424c-b600-9251d91dba1a"},"vehicle_type_id":"4","last_reported":1742544782,"current_range_meters":12400,"station_id":"ce4bgpp2rcd13ifvqc3g","pricing_plan_id":"cebpf4jnsgd1na2vs0mg"},{"bike_id":"a2adffae-47d8-4e48-83ea-f5e22f3a2143","system_id":"levelo_inurba_marseille","lat":43.3414,"lon":5.40902,"is_reserved":false,"is_disabled":false,"rental_uris":{"android":"levelo://app?vid=a2adffae-47d8-4e48-83ea-f5e22f3a2143","ios":"levelo://app?vid=a2adffae-47d8-4e48-83ea-f5e22f3a2143"},"vehicle_type_id":"4","last_reported":1742544782,"current_range_meters":12400,"station_id":"ce4bhqh2rcd13ifvqhlg","pricing_plan_id":"cebpf4jnsgd1na2vs0mg"},{"bike_id":"39aa5a0f-de75-4b1a-9b3f-dca270de89d2","system_id":"levelo_inurba_marseille","lat":43.29577,"lon":5.36735,"is_reserved":false,"is_disabled":false,"rental_uris":{"android":"levelo://app?vid=39aa5a0f-de75-4b1a-9b3f-dca270de89d2","ios":"levelo://app?vid=39aa5a0f-de75-4b1a-9b3f-dca270de89d2"},"vehicle_type_id":"4","last_reported":1742544782,"current_range_meters":12400,"station_id":"ce4bgph2rcd13ifvqc2g","pricing_plan_id":"cebpf4jnsgd1na2vs0mg"},{"bike_id":"ec5476e0-5c24-439c-8fc2-2b9b7bedc68c","system_id":"levelo_inurba_marseille","lat":43.28726,"lon":5.37936,"is_reserved":false,"is_disabled":false,"rental_uris":{"android":"levelo://app?vid=ec5476e0-5c24-439c-8fc2-2b9b7bedc68c","ios":"levelo://app?vid=ec5476e0-5c24-439c-8fc2-2b9b7bedc68c"},"vehicle_type_id":"4","last_reported":1742544782,"current_range_meters":12400,"station_id":"ce4bh9p2rcd13ifvqec0","pricing_plan_id":"cebpf4jnsgd1na2vs0mg"},{"bike_id":"31aa72d7-a1bd-4c94-8612-595df4b52e59","system_id":"levelo_inurba_marseille","lat":43.24652,"lon":5.38899,"is_reserved":false,"is_disabled":false,"rental_uris":{"android":"levelo://app?vid=31aa72d7-a1bd-4c94-8612-595df4b52e59","ios":"levelo://app?vid=31aa72d7-a1bd-4c94-8612-595df4b52e59"},"vehicle_type_id":"4","last_reported":1742544782,"current_range_meters":12400,"station_id":"","pricing_plan_id":"cebpf4jnsgd1na2vs0mg"},{"bike_id":"52f3d37f-2543-4286-964a-00fe2533a706","system_id":"levelo_inurba_marseille","lat":43.30152,"lon":5.37392,"is_reserved":false,"is_disabled":false,"rental_uris":{"android":"levelo://app?vid=52f3d37f-2543-4286-964a-00fe2533a706","ios":"levelo://app?vid=52f3d37f-2543-4286-964a-00fe2533a706"},"vehicle_type_id":"4","last_reported":1742544782,"current_range_meters":12800,"station_id":"ce4bgs92rcd13ifvqcc0","pricing_plan_id":"cebpf4jnsgd1na2vs0mg"},{"bike_id":"eca27a81-a303-407b-9584-1b4a67bf83d4","system_id":"levelo_inurba_marseille","lat":43.24075,"lon":5.37774,"is_reserved":false,"is_disabled":false,"rental_uris":{"android":"levelo://app?vid=eca27a81-a303-407b-9584-1b4a67bf83d4","ios":"levelo://app?vid=eca27a81-a303-407b-9584-1b4a67bf83d4"},"vehicle_type_id":"4","last_reported":1742544782,"current_range_meters":12800,"station_id":"ce4bhnp2rcd13ifvqgvg","pricing_plan_id":"cebpf4jnsgd1na2vs0mg"},{"bike_id":"efe37adc-d48c-4f29-9feb-64ec320e7884","system_id":"levelo_inurba_marseille","lat":43.27817,"lon":5.39215,"is_reserved":false,"is_disabled":false,"rental_uris":{"android":"levelo://app?vid=efe37adc-d48c-4f29-9feb-64ec320e7884","ios":"levelo://app?vid=efe37adc-d48c-4f29-9feb-64ec320e7884"},"vehicle_type_id":"4","last_reported":1742544782,"current_range_meters":12800,"station_id":"ce4bhjp2rcd13ifvqga0","pricing_plan_id":"cebpf4jnsgd1na2vs0mg"},{"bike_id":"fbbb3028-b15b-4750-98dc-ac90972ecc9b","system_id":"levelo_inurba_marseille","lat":43.32102,"lon":5.36785,"is_reserved":false,"is_disabled":false,"rental_uris":{"android":"levelo://app?vid=fbbb3028-b15b-4750-98dc-ac90972ecc9b","ios":"levelo://app?vid=fbbb3028-b15b-4750-98dc-ac90972ecc9b"},"vehicle_type_id":"4","last_reported":1742544782,"current_range_meters":12800,"station_id":"ce4bhrh2rcd13ifvqhug","pricing_plan_id":"cebpf4jnsgd1na2vs0mg"},{"bike_id":"0aa68655-c4b4-4c89-aa10-2ed9de7e612c","system_id":"levelo_inurba_marseille","lat":43.3247,"lon":5.36563,"is_reserved":false,"is_disabled":true,"rental_uris":{"android":"levelo://app?vid=0aa68655-c4b4-4c89-aa10-2ed9de7e612c","ios":"levelo://app?vid=0aa68655-c4b4-4c89-aa10-2ed9de7e612c"},"vehicle_type_id":"4","last_reported":1742544782,"current_range_meters":12800,"station_id":"ce4bhs12rcd13ifvqhvg","pricing_plan_id":"cebpf4jnsgd1na2vs0mg"},{"bike_id":"3f7d6cde-7911-4e85-a37f-700b24691ccd","system_id":"levelo_inurba_marseille","lat":43.24158,"lon":5.36402,"is_reserved":false,"is_disabled":false,"rental_uris":{"android":"levelo://app?vid=3f7d6cde-7911-4e85-a37f-700b24691ccd","ios":"levelo://app?vid=3f7d6cde-7911-4e85-a37f-700b24691ccd"},"vehicle_type_id":"4","last_reported":1742544782,"current_range_meters":12800,"station_id":"cpo36qri1sfpv3e86is0","pricing_plan_id":"cebpf4jnsgd1na2vs0mg"},{"bike_id":"9f71b25d-9206-481d-ac8c-220bc4ce65d9","system_id":"levelo_inurba_marseille","lat":43.24162,"lon":5.364,"is_reserved":false,"is_disabled":false,"rental_uris":{"android":"levelo://app?vid=9f71b25d-9206-481d-ac8c-220bc4ce65d9","ios":"levelo://app?vid=9f71b25d-9206-481d-ac8c-220bc4ce65d9"},"vehicle_type_id":"4","last_reported":1742544782,"current_range_meters":12800,"station_id":"cpo36qri1sfpv3e86is0","pricing_plan_id":"cebpf4jnsgd1na2vs0mg"},{"bike_id":"f677540f-eef4-436a-9c06-f87ad9529725","system_id":"levelo_inurba_marseille","lat":43.26212,"lon":5.37441,"is_reserved":false,"is_disabled":false,"rental_uris":{"android":"levelo://app?vid=f677540f-eef4-436a-9c06-f87ad9529725","ios":"levelo://app?vid=f677540f-eef4-436a-9c06-f87ad9529725"},"vehicle_type_id":"4","last_reported":1742544782,"current_range_meters":12800,"station_id":"ce4bhgp2rcd13ifvqfc0","pricing_plan_id":"cebpf4jnsgd1na2vs0mg"},{"bike_id":"92e52d20-42c2-4b85-a450-113db659a4ec","system_id":"levelo_inurba_marseille","lat":43.26789,"lon":5.39419,"is_reserved":false,"is_disabled":false,"rental_uris":{"android":"levelo://app?vid=92e52d20-42c2-4b85-a450-113db659a4ec","ios":"levelo://app?vid=92e52d20-42c2-4b85-a450-113db659a4ec"},"vehicle_type_id":"4","last_reported":1742544782,"current_range_meters":12800,"station_id":"ce4bhh12rcd13ifvqfg0","pricing_plan_id":"cebpf4jnsgd1na2vs0mg"},{"bike_id":"dc537980-6042-493d-8080-0667efb1d6ad","system_id":"levelo_inurba_marseille","lat":43.245455,"lon":5.395215,"is_reserved":false,"is_disabled":false,"rental_uris":{"android":"levelo://app?vid=dc537980-6042-493d-8080-0667efb1d6ad","ios":"levelo://app?vid=dc537980-6042-493d-8080-0667efb1d6ad"},"vehicle_type_id":"4","last_reported":1742544782,"current_range_meters":13600,"station_id":"ce4bhlp2rcd13ifvqgjg","pricing_plan_id":"cebpf4jnsgd1na2vs0mg"},{"bike_id":"8e0733eb-d95e-4399-8409-f6057f52d1e3","system_id":"levelo_inurba_marseille","lat":43.30146,"lon":5.37408,"is_reserved":false,"is_disabled":false,"rental_uris":{"android":"levelo://app?vid=8e0733eb-d95e-4399-8409-f6057f52d1e3","ios":"levelo://app?vid=8e0733eb-d95e-4399-8409-f6057f52d1e3"},"vehicle_type_id":"4","last_reported":1742544782,"current_range_meters":13600,"station_id":"ce4bgs92rcd13ifvqcc0","pricing_plan_id":"cebpf4jnsgd1na2vs0mg"},{"bike_id":"2535061d-1129-484e-b804-a52f5c4b623c","system_id":"levelo_inurba_marseille","lat":43.29273,"lon":5.36849,"is_reserved":false,"is_disabled":false,"rental_uris":{"android":"levelo://app?vid=2535061d-1129-484e-b804-a52f5c4b623c","ios":"levelo://app?vid=2535061d-1129-484e-b804-a52f5c4b623c"},"vehicle_type_id":"4","last_reported":1742544782,"current_range_meters":13600,"station_id":"ce4bhbp2rcd13ifvqesg","pricing_plan_id":"cebpf4jnsgd1na2vs0mg"},{"bike_id":"2e4e2aed-6422-47b2-9250-443b98924ce9","system_id":"levelo_inurba_marseille","lat":43.32661,"lon":5.40988,"is_reserved":false,"is_disabled":false,"rental_uris":{"android":"levelo://app?vid=2e4e2aed-6422-47b2-9250-443b98924ce9","ios":"levelo://app?vid=2e4e2aed-6422-47b2-9250-443b98924ce9"},"vehicle_type_id":"4","last_reported":1742544782,"current_range_meters":12800,"station_id":"ce4bhpp2rcd13ifvqhgg","pricing_plan_id":"cebpf4jnsgd1na2vs0mg"},{"bike_id":"b3424025-c59a-4292-8ab2-ccd147cbd42f","system_id":"levelo_inurba_marseille","lat":43.32361,"lon":5.38893,"is_reserved":false,"is_disabled":false,"rental_uris":{"android":"levelo://app?vid=b3424025-c59a-4292-8ab2-ccd147cbd42f","ios":"levelo://app?vid=b3424025-c59a-4292-8ab2-ccd147cbd42f"},"vehicle_type_id":"4","last_reported":1742544782,"current_range_meters":13600,"station_id":"ce4bhqp2rcd13ifvqhog","pricing_plan_id":"cebpf4jnsgd1na2vs0mg"},{"bike_id":"60489768-70a1-4f3b-a334-8d7bb79d79eb","system_id":"levelo_inurba_marseille","lat":43.29257,"lon":5.40924,"is_reserved":false,"is_disabled":false,"rental_uris":{"android":"levelo://app?vid=60489768-70a1-4f3b-a334-8d7bb79d79eb","ios":"levelo://app?vid=60489768-70a1-4f3b-a334-8d7bb79d79eb"},"vehicle_type_id":"4","last_reported":1742544782,"current_range_meters":13600,"station_id":"ce4bh192rcd13ifvqdc0","pricing_plan_id":"cebpf4jnsgd1na2vs0mg"},{"bike_id":"c5c72dbc-bdee-478c-8ffc-2a91e1c31a40","system_id":"levelo_inurba_marseille","lat":43.30148,"lon":5.38589,"is_reserved":false,"is_disabled":false,"rental_uris":{"android":"levelo://app?vid=c5c72dbc-bdee-478c-8ffc-2a91e1c31a40","ios":"levelo://app?vid=c5c72dbc-bdee-478c-8ffc-2a91e1c31a40"},"vehicle_type_id":"4","last_reported":1742544782,"current_range_meters":14000,"station_id":"","pricing_plan_id":"cebpf4jnsgd1na2vs0mg"},{"bike_id":"556b5e08-97ea-4f47-9aee-0ddb89816c84","system_id":"levelo_inurba_marseille","lat":43.30532,"lon":5.36704,"is_reserved":false,"is_disabled":false,"rental_uris":{"android":"levelo://app?vid=556b5e08-97ea-4f47-9aee-0ddb89816c84","ios":"levelo://app?vid=556b5e08-97ea-4f47-9aee-0ddb89816c84"},"vehicle_type_id":"4","last_reported":1742544782,"current_range_meters":14000,"station_id":"ce4bgrp2rcd13ifvqc9g","pricing_plan_id":"cebpf4jnsgd1na2vs0mg"},{"bike_id":"e66793e3-2da6-4d2f-ba3e-dad4dec04a88","system_id":"levelo_inurba_marseille","lat":43.29816,"lon":5.38102,"is_reserved":false,"is_disabled":false,"rental_uris":{"android":"levelo://app?vid=e66793e3-2da6-4d2f-ba3e-dad4dec04a88","ios":"levelo://app?vid=e66793e3-2da6-4d2f-ba3e-dad4dec04a88"},"vehicle_type_id":"4","last_reported":1742544782,"current_range_meters":14000,"station_id":"ce4bgip2rcd13ifvqbb0","pricing_plan_id":"cebpf4jnsgd1na2vs0mg"},{"bike_id":"4da31b6a-f3aa-4ec7-a81a-164659308165","system_id":"levelo_inurba_marseille","lat":43.3254,"lon":5.41456,"is_reserved":false,"is_disabled":false,"rental_uris":{"android":"levelo://app?vid=4da31b6a-f3aa-4ec7-a81a-164659308165","ios":"levelo://app?vid=4da31b6a-f3aa-4ec7-a81a-164659308165"},"vehicle_type_id":"4","last_reported":1742544782,"current_range_meters":14000,"station_id":"ce4bhq12rcd13ifvqhhg","pricing_plan_id":"cebpf4jnsgd1na2vs0mg"},{"bike_id":"f7b19721-c68b-4280-b653-43eff6dbb1fd","system_id":"levelo_inurba_marseille","lat":43.32098,"lon":5.36786,"is_reserved":false,"is_disabled":false,"rental_uris":{"android":"levelo://app?vid=f7b19721-c68b-4280-b653-43eff6dbb1fd","ios":"levelo://app?vid=f7b19721-c68b-4280-b653-43eff6dbb1fd"},"vehicle_type_id":"4","last_reported":1742544782,"current_range_meters":14000,"station_id":"ce4bhrh2rcd13ifvqhug","pricing_plan_id":"cebpf4jnsgd1na2vs0mg"},{"bike_id":"733bd92c-559b-40b7-a7b1-8d0cba94ac58","system_id":"levelo_inurba_marseille","lat":43.30538,"lon":5.36559,"is_reserved":false,"is_disabled":false,"rental_uris":{"android":"levelo://app?vid=733bd92c-559b-40b7-a7b1-8d0cba94ac58","ios":"levelo://app?vid=733bd92c-559b-40b7-a7b1-8d0cba94ac58"},"vehicle_type_id":"4","last_reported":1742544782,"current_range_meters":13600,"station_id":"ce4bgs12rcd13ifvqcag","pricing_plan_id":"cebpf4jnsgd1na2vs0mg"},{"bike_id":"15ecf1da-a7e5-4f8a-a83b-5761a6e31ae3","system_id":"levelo_inurba_marseille","lat":43.23196,"lon":5.35553,"is_reserved":false,"is_disabled":false,"rental_uris":{"android":"levelo://app?vid=15ecf1da-a7e5-4f8a-a83b-5761a6e31ae3","ios":"levelo://app?vid=15ecf1da-a7e5-4f8a-a83b-5761a6e31ae3"},"vehicle_type_id":"4","last_reported":1742544782,"current_range_meters":14000,"station_id":"ce4bhu92rcd13ifvqi70","pricing_plan_id":"cebpf4jnsgd1na2vs0mg"},{"bike_id":"495d67fb-311c-4157-a54d-b808f182608e","system_id":"levelo_inurba_marseille","lat":43.32536,"lon":5.41441,"is_reserved":false,"is_disabled":false,"rental_uris":{"android":"levelo://app?vid=495d67fb-311c-4157-a54d-b808f182608e","ios":"levelo://app?vid=495d67fb-311c-4157-a54d-b808f182608e"},"vehicle_type_id":"4","last_reported":1742544782,"current_range_meters":14000,"station_id":"ce4bhq12rcd13ifvqhhg","pricing_plan_id":"cebpf4jnsgd1na2vs0mg"},{"bike_id":"2f608053-a475-4cd0-9217-fb6dc09de981","system_id":"levelo_inurba_marseille","lat":43.24651,"lon":5.38917,"is_reserved":false,"is_disabled":false,"rental_uris":{"android":"levelo://app?vid=2f608053-a475-4cd0-9217-fb6dc09de981","ios":"levelo://app?vid=2f608053-a475-4cd0-9217-fb6dc09de981"},"vehicle_type_id":"4","last_reported":1742544782,"current_range_meters":14400,"station_id":"ce4bhg12rcd13ifvqf60","pricing_plan_id":"cebpf4jnsgd1na2vs0mg"},{"bike_id":"f857e3ee-7b86-4ccd-8116-6a58a1cacb60","system_id":"levelo_inurba_marseille","lat":43.33069,"lon":5.40841,"is_reserved":false,"is_disabled":false,"rental_uris":{"android":"levelo://app?vid=f857e3ee-7b86-4ccd-8116-6a58a1cacb60","ios":"levelo://app?vid=f857e3ee-7b86-4ccd-8116-6a58a1cacb60"},"vehicle_type_id":"4","last_reported":1742544782,"current_range_meters":14400,"station_id":"","pricing_plan_id":"cebpf4jnsgd1na2vs0mg"},{"bike_id":"ca41818c-58d3-484e-95cc-a4b39981f23a","system_id":"levelo_inurba_marseille","lat":43.3116,"lon":5.38726,"is_reserved":false,"is_disabled":false,"rental_uris":{"android":"levelo://app?vid=ca41818c-58d3-484e-95cc-a4b39981f23a","ios":"levelo://app?vid=ca41818c-58d3-484e-95cc-a4b39981f23a"},"vehicle_type_id":"4","last_reported":1742544782,"current_range_meters":14000,"station_id":"ce4bgv12rcd13ifvqcp0","pricing_plan_id":"cebpf4jnsgd1na2vs0mg"},{"bike_id":"0a9959de-3f54-4454-919e-81912479d9ca","system_id":"levelo_inurba_marseille","lat":43.3134,"lon":5.36724,"is_reserved":false,"is_disabled":false,"rental_uris":{"android":"levelo://app?vid=0a9959de-3f54-4454-919e-81912479d9ca","ios":"levelo://app?vid=0a9959de-3f54-4454-919e-81912479d9ca"},"vehicle_type_id":"4","last_reported":1742544782,"current_range_meters":14400,"station_id":"ce4bgr92rcd13ifvqc6g","pricing_plan_id":"cebpf4jnsgd1na2vs0mg"},{"bike_id":"44cbaf2e-b2bf-436d-8670-8795e7665cf3","system_id":"levelo_inurba_marseille","lat":43.29203,"lon":5.35816,"is_reserved":false,"is_disabled":false,"rental_uris":{"android":"levelo://app?vid=44cbaf2e-b2bf-436d-8670-8795e7665cf3","ios":"levelo://app?vid=44cbaf2e-b2bf-436d-8670-8795e7665cf3"},"vehicle_type_id":"4","last_reported":1742544782,"current_range_meters":14000,"station_id":"ce4bhb12rcd13ifvqel0","pricing_plan_id":"cebpf4jnsgd1na2vs0mg"},{"bike_id":"acc3f6e6-1628-4be6-a9a4-7aa7d79293e4","system_id":"levelo_inurba_marseille","lat":43.28705,"lon":5.39992,"is_reserved":false,"is_disabled":true,"rental_uris":{"android":"levelo://app?vid=acc3f6e6-1628-4be6-a9a4-7aa7d79293e4","ios":"levelo://app?vid=acc3f6e6-1628-4be6-a9a4-7aa7d79293e4"},"vehicle_type_id":"4","last_reported":1742544782,"current_range_meters":14800,"station_id":"ce4bho92rcd13ifvqh3g","pricing_plan_id":"cebpf4jnsgd1na2vs0mg"},{"bike_id":"e7d47b95-4a93-4a6d-9d1f-c465d97cfd5c","system_id":"levelo_inurba_marseille","lat":43.26224,"lon":5.40456,"is_reserved":false,"is_disabled":false,"rental_uris":{"android":"levelo://app?vid=e7d47b95-4a93-4a6d-9d1f-c465d97cfd5c","ios":"levelo://app?vid=e7d47b95-4a93-4a6d-9d1f-c465d97cfd5c"},"vehicle_type_id":"4","last_reported":1742544782,"current_range_meters":14800,"station_id":"ce4bhmh2rcd13ifvqgmg","pricing_plan_id":"cebpf4jnsgd1na2vs0mg"},{"bike_id":"aa38de45-471a-40c6-9431-1f537c7b1dbb","system_id":"levelo_inurba_marseille","lat":43.29036,"lon":5.39978,"is_reserved":false,"is_disabled":false,"rental_uris":{"android":"levelo://app?vid=aa38de45-471a-40c6-9431-1f537c7b1dbb","ios":"levelo://app?vid=aa38de45-471a-40c6-9431-1f537c7b1dbb"},"vehicle_type_id":"4","last_reported":1742544782,"current_range_meters":14800,"station_id":"ce4bh392rcd13ifvqdm0","pricing_plan_id":"cebpf4jnsgd1na2vs0mg"},{"bike_id":"42c0cc46-f12a-49e7-ab17-19a0d33e2d30","system_id":"levelo_inurba_marseille","lat":43.26567,"lon":5.39011,"is_reserved":false,"is_disabled":false,"rental_uris":{"android":"levelo://app?vid=42c0cc46-f12a-49e7-ab17-19a0d33e2d30","ios":"levelo://app?vid=42c0cc46-f12a-49e7-ab17-19a0d33e2d30"},"vehicle_type_id":"4","last_reported":1742544782,"current_range_meters":14800,"station_id":"ce4bhe12rcd13ifvqf30","pricing_plan_id":"cebpf4jnsgd1na2vs0mg"},{"bike_id":"7f3b9a53-7f99-4987-a372-ce7661601647","system_id":"levelo_inurba_marseille","lat":43.31487,"lon":5.37311,"is_reserved":false,"is_disabled":false,"rental_uris":{"android":"levelo://app?vid=7f3b9a53-7f99-4987-a372-ce7661601647","ios":"levelo://app?vid=7f3b9a53-7f99-4987-a372-ce7661601647"},"vehicle_type_id":"4","last_reported":1742544782,"current_range_meters":14800,"station_id":"ce4bgt12rcd13ifvqcd0","pricing_plan_id":"cebpf4jnsgd1na2vs0mg"},{"bike_id":"317d6b69-7893-4d6a-bcf4-3a5c81de488e","system_id":"levelo_inurba_marseille","lat":43.27491,"lon":5.42435,"is_reserved":false,"is_disabled":false,"rental_uris":{"android":"levelo://app?vid=317d6b69-7893-4d6a-bcf4-3a5c81de488e","ios":"levelo://app?vid=317d6b69-7893-4d6a-bcf4-3a5c81de488e"},"vehicle_type_id":"4","last_reported":1742544782,"current_range_meters":14800,"station_id":"ce4bhn92rcd13ifvqgrg","pricing_plan_id":"cebpf4jnsgd1na2vs0mg"},{"bike_id":"e4f2f8ad-8749-4d60-b280-c8f51982511f","system_id":"levelo_inurba_marseille","lat":43.26567,"lon":5.39009,"is_reserved":false,"is_disabled":false,"rental_uris":{"android":"levelo://app?vid=e4f2f8ad-8749-4d60-b280-c8f51982511f","ios":"levelo://app?vid=e4f2f8ad-8749-4d60-b280-c8f51982511f"},"vehicle_type_id":"4","last_reported":1742544782,"current_range_meters":14800,"station_id":"ce4bhe12rcd13ifvqf30","pricing_plan_id":"cebpf4jnsgd1na2vs0mg"},{"bike_id":"ba379482-a6a3-4ce5-95af-8ba73cb3fd3f","system_id":"levelo_inurba_marseille","lat":43.24077,"lon":5.37756,"is_reserved":false,"is_disabled":false,"rental_uris":{"android":"levelo://app?vid=ba379482-a6a3-4ce5-95af-8ba73cb3fd3f","ios":"levelo://app?vid=ba379482-a6a3-4ce5-95af-8ba73cb3fd3f"},"vehicle_type_id":"4","last_reported":1742544782,"current_range_meters":14400,"station_id":"ce4bhnp2rcd13ifvqgvg","pricing_plan_id":"cebpf4jnsgd1na2vs0mg"},{"bike_id":"ded12a22-e982-4830-b595-7005088a6863","system_id":"levelo_inurba_marseille","lat":43.28455,"lon":5.35892,"is_reserved":false,"is_disabled":false,"rental_uris":{"android":"levelo://app?vid=ded12a22-e982-4830-b595-7005088a6863","ios":"levelo://app?vid=ded12a22-e982-4830-b595-7005088a6863"},"vehicle_type_id":"4","last_reported":1742544782,"current_range_meters":14400,"station_id":"ce4bhah2rcd13ifvqei0","pricing_plan_id":"cebpf4jnsgd1na2vs0mg"},{"bike_id":"b27c565b-0798-4129-b9a7-1c2eac3fa281","system_id":"levelo_inurba_marseille","lat":43.27493,"lon":5.42456,"is_reserved":false,"is_disabled":false,"rental_uris":{"android":"levelo://app?vid=b27c565b-0798-4129-b9a7-1c2eac3fa281","ios":"levelo://app?vid=b27c565b-0798-4129-b9a7-1c2eac3fa281"},"vehicle_type_id":"4","last_reported":1742544782,"current_range_meters":15200,"station_id":"ce4bhn92rcd13ifvqgrg","pricing_plan_id":"cebpf4jnsgd1na2vs0mg"},{"bike_id":"758d6121-2739-47f8-baa5-39507cb03d50","system_id":"levelo_inurba_marseille","lat":43.3147,"lon":5.37285,"is_reserved":false,"is_disabled":false,"rental_uris":{"android":"levelo://app?vid=758d6121-2739-47f8-baa5-39507cb03d50","ios":"levelo://app?vid=758d6121-2739-47f8-baa5-39507cb03d50"},"vehicle_type_id":"4","last_reported":1742544782,"current_range_meters":15200,"station_id":"ce4bgt12rcd13ifvqcd0","pricing_plan_id":"cebpf4jnsgd1na2vs0mg"},{"bike_id":"6c2d259d-cc39-462c-94d1-46efd2f019c7","system_id":"levelo_inurba_marseille","lat":43.29026,"lon":5.38137,"is_reserved":false,"is_disabled":false,"rental_uris":{"android":"levelo://app?vid=6c2d259d-cc39-462c-94d1-46efd2f019c7","ios":"levelo://app?vid=6c2d259d-cc39-462c-94d1-46efd2f019c7"},"vehicle_type_id":"4","last_reported":1742544782,"current_range_meters":15200,"station_id":"ce4bh4p2rcd13ifvqe1g","pricing_plan_id":"cebpf4jnsgd1na2vs0mg"},{"bike_id":"c28b70a6-4944-46dd-b986-791c037aeaa5","system_id":"levelo_inurba_marseille","lat":43.23149,"lon":5.43726,"is_reserved":false,"is_disabled":false,"rental_uris":{"android":"levelo://app?vid=c28b70a6-4944-46dd-b986-791c037aeaa5","ios":"levelo://app?vid=c28b70a6-4944-46dd-b986-791c037aeaa5"},"vehicle_type_id":"4","last_reported":1742544782,"current_range_meters":15200,"station_id":"ce4bhmp2rcd13ifvqgog","pricing_plan_id":"cebpf4jnsgd1na2vs0mg"},{"bike_id":"2f955009-ea20-4974-b578-eae4a2f57d76","system_id":"levelo_inurba_marseille","lat":43.272077,"lon":5.391447,"is_reserved":false,"is_disabled":false,"rental_uris":{"android":"levelo://app?vid=2f955009-ea20-4974-b578-eae4a2f57d76","ios":"levelo://app?vid=2f955009-ea20-4974-b578-eae4a2f57d76"},"vehicle_type_id":"4","last_reported":1742544782,"current_range_meters":14800,"station_id":"ce4bhhp2rcd13ifvqfm0","pricing_plan_id":"cebpf4jnsgd1na2vs0mg"},{"bike_id":"f6bddec0-567d-4524-9c55-bf8f4d06a548","system_id":"levelo_inurba_marseille","lat":43.303,"lon":5.36887,"is_reserved":false,"is_disabled":false,"rental_uris":{"android":"levelo://app?vid=f6bddec0-567d-4524-9c55-bf8f4d06a548","ios":"levelo://app?vid=f6bddec0-567d-4524-9c55-bf8f4d06a548"},"vehicle_type_id":"4","last_reported":1742544782,"current_range_meters":15200,"station_id":"ce4bgqh2rcd13ifvqc5g","pricing_plan_id":"cebpf4jnsgd1na2vs0mg"},{"bike_id":"295b2b96-8a22-4b6f-a45b-df5a7ed58969","system_id":"levelo_inurba_marseille","lat":43.33734,"lon":5.3919,"is_reserved":false,"is_disabled":false,"rental_uris":{"android":"levelo://app?vid=295b2b96-8a22-4b6f-a45b-df5a7ed58969","ios":"levelo://app?vid=295b2b96-8a22-4b6f-a45b-df5a7ed58969"},"vehicle_type_id":"4","last_reported":1742544782,"current_range_meters":16000,"station_id":"ce4bhr92rcd13ifvqhsg","pricing_plan_id":"cebpf4jnsgd1na2vs0mg"},{"bike_id":"27d13143-5ca0-4eaf-910a-791fb0f99ce4","system_id":"levelo_inurba_marseille","lat":43.23197,"lon":5.35558,"is_reserved":false,"is_disabled":false,"rental_uris":{"android":"levelo://app?vid=27d13143-5ca0-4eaf-910a-791fb0f99ce4","ios":"levelo://app?vid=27d13143-5ca0-4eaf-910a-791fb0f99ce4"},"vehicle_type_id":"4","last_reported":1742544782,"current_range_meters":16000,"station_id":"ce4bhu92rcd13ifvqi70","pricing_plan_id":"cebpf4jnsgd1na2vs0mg"},{"bike_id":"83ee902e-ca1a-4e47-a8af-2a0865a4d384","system_id":"levelo_inurba_marseille","lat":43.30927,"lon":5.36856,"is_reserved":false,"is_disabled":false,"rental_uris":{"android":"levelo://app?vid=83ee902e-ca1a-4e47-a8af-2a0865a4d384","ios":"levelo://app?vid=83ee902e-ca1a-4e47-a8af-2a0865a4d384"},"vehicle_type_id":"4","last_reported":1742544782,"current_range_meters":16000,"station_id":"ce4bgn92rcd13ifvqbvg","pricing_plan_id":"cebpf4jnsgd1na2vs0mg"},{"bike_id":"2ee11e51-242f-4eec-9134-dcb809b6ea12","system_id":"levelo_inurba_marseille","lat":43.2594,"lon":5.40902,"is_reserved":false,"is_disabled":false,"rental_uris":{"android":"levelo://app?vid=2ee11e51-242f-4eec-9134-dcb809b6ea12","ios":"levelo://app?vid=2ee11e51-242f-4eec-9134-dcb809b6ea12"},"vehicle_type_id":"4","last_reported":1742544782,"current_range_meters":16000,"station_id":"ce4bhm92rcd13ifvqglg","pricing_plan_id":"cebpf4jnsgd1na2vs0mg"},{"bike_id":"92b615c1-3ae2-4f01-9f74-f51b0a7bb36e","system_id":"levelo_inurba_marseille","lat":43.24544,"lon":5.39527,"is_reserved":false,"is_disabled":false,"rental_uris":{"android":"levelo://app?vid=92b615c1-3ae2-4f01-9f74-f51b0a7bb36e","ios":"levelo://app?vid=92b615c1-3ae2-4f01-9f74-f51b0a7bb36e"},"vehicle_type_id":"4","last_reported":1742544782,"current_range_meters":15200,"station_id":"ce4bhlp2rcd13ifvqgjg","pricing_plan_id":"cebpf4jnsgd1na2vs0mg"},{"bike_id":"e53819f3-f56d-4383-aab9-182a6b4eb49f","system_id":"levelo_inurba_marseille","lat":43.24075,"lon":5.37761,"is_reserved":false,"is_disabled":false,"rental_uris":{"android":"levelo://app?vid=e53819f3-f56d-4383-aab9-182a6b4eb49f","ios":"levelo://app?vid=e53819f3-f56d-4383-aab9-182a6b4eb49f"},"vehicle_type_id":"4","last_reported":1742544782,"current_range_meters":16000,"station_id":"ce4bhnp2rcd13ifvqgvg","pricing_plan_id":"cebpf4jnsgd1na2vs0mg"},{"bike_id":"c2e83226-9eac-42ab-a096-f2b99303ffdf","system_id":"levelo_inurba_marseille","lat":43.26789,"lon":5.39463,"is_reserved":false,"is_disabled":true,"rental_uris":{"android":"levelo://app?vid=c2e83226-9eac-42ab-a096-f2b99303ffdf","ios":"levelo://app?vid=c2e83226-9eac-42ab-a096-f2b99303ffdf"},