{"last_updated":1703765553,"ttl":30,"version":"2.2","data":{"bikes":[{"bike_id":"fd718e64-be48-4544-989d-0bea6dfd9864","system_id":"levelo_inurba_marseille","lat":43.31341,"lon":5.367098,"is_reserved":false,"is_disabled":false,"rental_uris":{"android":"levelo://app?vid=fd718e64-be48-4544-989d-0bea6dfd9864","ios":"levelo://app?vid=fd718e64-be48-4544-989d-0bea6dfd9864"},"vehicle_type_id":"4","last_reported":1703765553,"current_range_meters":29600,"station_id":"ce4bgr92rcd13ifvqc6g","pricing_plan_id":"free"},{"bike_id":"8d0aa6b3-acfc-4de3-94ac-62c967788013","system_id":"levelo_inurba_marseille","lat":43.31341,"lon":5.367098,"is_reserved":false,"is_disabled":false,"rental_uris":{"android":"levelo://app?vid=8d0aa6b3-acfc-4de3-94ac-62c967788013","ios":"levelo://app?vid=8d0aa6b3-acfc-4de3-94ac-62c967788013"},"vehicle_type_id":"4","last_reported":1703765553,"current_range_meters":8800,"station_id":"ce4bgr92rcd13ifvqc6g","pricing_plan_id":"free"},{"bike_id":"f2ec027f-a284-4750-8422-bfcebb8b2b9c","system_id":"levelo_inurba_marseille","lat":43.313391,"lon":5.36706,"is_reserved":false,"is_disabled":false,"rental_uris":{"android":"levelo://app?vid=f2ec027f-a284-4750-8422-bfcebb8b2b9c","ios":"levelo://app?vid=f2ec027f-a284-4750-8422-bfcebb8b2b9c"},"vehicle_type_id":"4","last_reported":1703765553,"current_range_meters":31600,"station_id":"ce4bgr92rcd13ifvqc6g","pricing_plan_id":"free"},{"bike_id":"7f03bb82-3d8c-4897-b6bf-05bb5fa8a57c","system_id":"levelo_inurba_marseille","lat":43.31341,"lon":5.367098,"is_reserved":false,"is_disabled":false,"rental_uris":{"android":"levelo://app?vid=7f03bb82-3d8c-4897-b6bf-05bb5fa8a57c","ios":"levelo://app?vid=7f03bb82-3d8c-4897-b6bf-05bb5fa8a57c"},"vehicle_type_id":"4","last_reported":1703765553,"current_range_meters":31600,"station_id":"ce4bgr92rcd13ifvqc6g","pricing_plan_id":"free"},{"bike_id":"b78eae04-7803-4ea2-8985-bb1f77354e0f","system_id":"levelo_inurba_marseille","lat":43.313472,"lon":5.367273,"is_reserved":false,"is_disabled":false,"rental_uris":{"android":"levelo://app?vid=b78eae04-7803-4ea2-8985-bb1f77354e0f","ios":"levelo://app?vid=b78eae04-7803-4ea2-8985-bb1f77354e0f"},"vehicle_type_id":"4","last_reported":1703765553,"current_range_meters":29600,"station_id":"ce4bgr92rcd13ifvqc6g","pricing_plan_id":"free"},{"bike_id":"d5982094-0c0a-4d8d-8dd0-d27ab3a034f5","system_id":"levelo_inurba_marseille","lat":43.31341,"lon":5.367098,"is_reserved":false,"is_disabled":false,"rental_uris":{"android":"levelo://app?vid=d5982094-0c0a-4d8d-8dd0-d27ab3a034f5","ios":"levelo://app?vid=d5982094-0c0a-4d8d-8dd0-d27ab3a034f5"},"vehicle_type_id":"4","last_reported":1703765553,"current_range_meters":22400,"station_id":"ce4bgr92rcd13ifvqc6g","pricing_plan_id":"free"},{"bike_id":"92d4f817-0078-49c2-a633-ec1dee59c53d","system_id":"levelo_inurba_marseille","lat":43.31341,"lon":5.367098,"is_reserved":false,"is_disabled":false,"rental_uris":{"android":"levelo://app?vid=92d4f817-0078-49c2-a633-ec1dee59c53d","ios":"levelo://app?vid=92d4f817-0078-49c2-a633-ec1dee59c53d"},"vehicle_type_id":"4","last_reported":1703765553,"current_range_meters":8800,"station_id":"ce4bgr92rcd13ifvqc6g","pricing_plan_id":"free"},{"bike_id":"ff86432e-77ed-4bbf-befb-17abe695d4e9","system_id":"levelo_inurba_marseille","lat":43.312239,"lon":5.368562,"is_reserved":false,"is_disabled":false,"rental_uris":{"android":"levelo://app?vid=ff86432e-77ed-4bbf-befb-17abe695d4e9","ios":"levelo://app?vid=ff86432e-77ed-4bbf-befb-17abe695d4e9"},"vehicle_type_id":"4","last_reported":1703765553,"current_range_meters":27600,"station_id":"ce4bgl92rcd13ifvqbq0","pricing_plan_id":"free"},{"bike_id":"71413311-6ad0-4f44-a6ac-a2b6c7e1916c","system_id":"levelo_inurba_marseille","lat":43.309076,"lon":5.368465,"is_reserved":false,"is_disabled":false,"rental_uris":{"android":"levelo://app?vid=71413311-6ad0-4f44-a6ac-a2b6c7e1916c","ios":"levelo://app?vid=71413311-6ad0-4f44-a6ac-a2b6c7e1916c"},"vehicle_type_id":"4","last_reported":1703765553,"current_range_meters":28000,"station_id":"ce4bgn92rcd13ifvqbvg","pricing_plan_id":"free"},{"bike_id":"8bc3c047-836f-4235-b3c0-0c81ea54eccb","system_id":"levelo_inurba_marseille","lat":43.309076,"lon":5.368465,"is_reserved":false,"is_disabled":false,"rental_uris":{"android":"levelo://app?vid=8bc3c047-836f-4235-b3c0-0c81ea54eccb","ios":"levelo://app?vid=8bc3c047-836f-4235-b3c0-0c81ea54eccb"},"vehicle_type_id":"4","last_reported":1703765553,"current_range_meters":9600,"station_id":"ce4bgn92rcd13ifvqbvg","pricing_plan_id":"free"},{"bike_id":"92911933-4cc2-4e0d-a7c2-93431715e26a","system_id":"levelo_inurba_marseille","lat":43.309076,"lon":5.368465,"is_reserved":false,"is_disabled":false,"rental_uris":{"android":"levelo://app?vid=92911933-4cc2-4e0d-a7c2-93431715e26a","ios":"levelo://app?vid=92911933-4cc2-4e0d-a7c2-93431715e26a"},"vehicle_type_id":"4","last_reported":1703765553,"current_range_meters":28400,"station_id":"ce4bgn92rcd13ifvqbvg","pricing_plan_id":"free"},{"bike_id":"e53a9163-4e5b-47fe-9556-01a0a159d6b4","system_id":"levelo_inurba_marseille","lat":43.318964,"lon":5.36877,"is_reserved":false,"is_disabled":false,"rental_uris":{"android":"levelo://app?vid=e53a9163-4e5b-47fe-9556-01a0a159d6b4","ios":"levelo://app?vid=e53a9163-4e5b-47fe-9556-01a0a159d6b4"},"vehicle_type_id":"4","last_reported":1703765553,"current_range_meters":4400,"station_id":"","pricing_plan_id":"free"},{"bike_id":"17af9c4c-58a5-4349-a780-08777f256ad1","system_id":"levelo_inurba_marseille","lat":43.289184,"lon":5.366408,"is_reserved":false,"is_disabled":false,"rental_uris":{"android":"levelo://app?vid=17af9c4c-58a5-4349-a780-08777f256ad1","ios":"levelo://app?vid=17af9c4c-58a5-4349-a780-08777f256ad1"},"vehicle_type_id":"4","last_reported":1703765553,"current_range_meters":11600,"station_id":"ce4bhap2rcd13ifvqek0","pricing_plan_id":"free"},{"bike_id":"294daea1-dfb7-429d-8796-4bb97a5afdbf","system_id":"levelo_inurba_marseille","lat":43.30537,"lon":5.367345,"is_reserved":false,"is_disabled":false,"rental_uris":{"android":"levelo://app?vid=294daea1-dfb7-429d-8796-4bb97a5afdbf","ios":"levelo://app?vid=294daea1-dfb7-429d-8796-4bb97a5afdbf"},"vehicle_type_id":"4","last_reported":1703765553,"current_range_meters":14400,"station_id":"ce4bgrp2rcd13ifvqc9g","pricing_plan_id":"free"},{"bike_id":"6b34a06f-ae89-4b39-886a-6056a876b889","system_id":"levelo_inurba_marseille","lat":43.30537,"lon":5.367345,"is_reserved":false,"is_disabled":false,"rental_uris":{"android":"levelo://app?vid=6b34a06f-ae89-4b39-886a-6056a876b889","ios":"levelo://app?vid=6b34a06f-ae89-4b39-886a-6056a876b889"},"vehicle_type_id":"4","last_reported":1703765553,"current_range_meters":17200,"station_id":"ce4bgrp2rcd13ifvqc9g","pricing_plan_id":"free"},{"bike_id":"ae142779-b131-49b2-bd89-4923944822d2","system_id":"levelo_inurba_marseille","lat":43.305368,"lon":5.367343,"is_reserved":false,"is_disabled":false,"rental_uris":{"android":"levelo://app?vid=ae142779-b131-49b2-bd89-4923944822d2","ios":"levelo://app?vid=ae142779-b131-49b2-bd89-4923944822d2"},"vehicle_type_id":"4","last_reported":1703765553,"current_range_meters":24000,"station_id":"ce4bgrp2rcd13ifvqc9g","pricing_plan_id":"free"},{"bike_id":"f16e10f8-b94e-4bda-b17e-003a27b85f06","system_id":"levelo_inurba_marseille","lat":43.305368,"lon":5.367343,"is_reserved":false,"is_disabled":false,"rental_uris":{"android":"levelo://app?vid=f16e10f8-b94e-4bda-b17e-003a27b85f06","ios":"levelo://app?vid=f16e10f8-b94e-4bda-b17e-003a27b85f06"},"vehicle_type_id":"4","last_reported":1703765553,"current_range_meters":6400,"station_id":"ce4bgrp2rcd13ifvqc9g","pricing_plan_id":"free"},{"bike_id":"813c817a-6b16-4318-8e31-d4a963202bdf","system_id":"levelo_inurba_marseille","lat":43.305714,"lon":5.365633,"is_reserved":false,"is_disabled":false,"rental_uris":{"android":"levelo://app?vid=813c817a-6b16-4318-8e31-d4a963202bdf","ios":"levelo://app?vid=813c817a-6b16-4318-8e31-d4a963202bdf"},"vehicle_type_id":"4","last_reported":1703765553,"current_range_meters":18400,"station_id":"ce4bgs12rcd13ifvqcag","pricing_plan_id":"free"},{"bike_id":"92744dbc-3343-4c6c-8efb-57185e9712f4","system_id":"levelo_inurba_marseille","lat":43.305714,"lon":5.365633,"is_reserved":false,"is_disabled":false,"rental_uris":{"android":"levelo://app?vid=92744dbc-3343-4c6c-8efb-57185e9712f4","ios":"levelo://app?vid=92744dbc-3343-4c6c-8efb-57185e9712f4"},"vehicle_type_id":"4","last_reported":1703765553,"current_range_meters":17600,"station_id":"ce4bgs12rcd13ifvqcag","pricing_plan_id":"free"},{"bike_id":"50e7ae88-debc-4396-887a-aa6a1106b20a","system_id":"levelo_inurba_marseille","lat":43.305368,"lon":5.367343,"is_reserved":false,"is_disabled":false,"rental_uris":{"android":"levelo://app?vid=50e7ae88-debc-4396-887a-aa6a1106b20a","ios":"levelo://app?vid=50e7ae88-debc-4396-887a-aa6a1106b20a"},"vehicle_type_id":"4","last_reported":1703765553,"current_range_meters":20400,"station_id":"ce4bgrp2rcd13ifvqc9g","pricing_plan_id":"free"},{"bike_id":"4531036c-47e6-4452-8124-16ab2a54f3ad","system_id":"levelo_inurba_marseille","lat":43.305714,"lon":5.365633,"is_reserved":false,"is_disabled":false,"rental_uris":{"android":"levelo://app?vid=4531036c-47e6-4452-8124-16ab2a54f3ad","ios":"levelo://app?vid=4531036c-47e6-4452-8124-16ab2a54f3ad"},"vehicle_type_id":"4","last_reported":1703765553,"current_range_meters":31600,"station_id":"ce4bgs12rcd13ifvqcag","pricing_plan_id":"free"},{"bike_id":"0cbffb1f-cad0-4903-8235-6ece12fb0071","system_id":"levelo_inurba_marseille","lat":43.305714,"lon":5.365633,"is_reserved":false,"is_disabled":false,"rental_uris":{"android":"levelo://app?vid=0cbffb1f-cad0-4903-8235-6ece12fb0071","ios":"levelo://app?vid=0cbffb1f-cad0-4903-8235-6ece12fb0071"},"vehicle_type_id":"4","last_reported":1703765553,"current_range_meters":28400,"station_id":"ce4bgs12rcd13ifvqcag","pricing_plan_id":"free"},{"bike_id":"675c39b1-12e1-4e8e-9b7c-28061f1dcf30","system_id":"levelo_inurba_marseille","lat":43.305714,"lon":5.365633,"is_reserved":false,"is_disabled":false,"rental_uris":{"android":"levelo://app?vid=675c39b1-12e1-4e8e-9b7c-28061f1dcf30","ios":"levelo://app?vid=675c39b1-12e1-4e8e-9b7c-28061f1dcf30"},"vehicle_type_id":"4","last_reported":1703765553,"current_range_meters":31600,"station_id":"ce4bgs12rcd13ifvqcag","pricing_plan_id":"free"},{"bike_id":"c07a61ec-4458-4e1e-89cf-fd90dc824bd2","system_id":"levelo_inurba_marseille","lat":43.30534,"lon":5.36551,"is_reserved":false,"is_disabled":false,"rental_uris":{"android":"levelo://app?vid=c07a61ec-4458-4e1e-89cf-fd90dc824bd2","ios":"levelo://app?vid=c07a61ec-4458-4e1e-89cf-fd90dc824bd2"},"vehicle_type_id":"4","last_reported":1703765553,"current_range_meters":26800,"station_id":"ce4bgs12rcd13ifvqcag","pricing_plan_id":"free"},{"bike_id":"8ff6552c-9333-4d2b-92a2-c4e0be3786ba","system_id":"levelo_inurba_marseille","lat":43.305706,"lon":5.365654,"is_reserved":false,"is_disabled":false,"rental_uris":{"android":"levelo://app?vid=8ff6552c-9333-4d2b-92a2-c4e0be3786ba","ios":"levelo://app?vid=8ff6552c-9333-4d2b-92a2-c4e0be3786ba"},"vehicle_type_id":"4","last_reported":1703765553,"current_range_meters":31600,"station_id":"ce4bgs12rcd13ifvqcag","pricing_plan_id":"free"},{"bike_id":"eabe471c-1a00-4ce0-bfc5-1a09c6b65dd5","system_id":"levelo_inurba_marseille","lat":43.307945,"lon":5.376487,"is_reserved":false,"is_disabled":false,"rental_uris":{"android":"levelo://app?vid=eabe471c-1a00-4ce0-bfc5-1a09c6b65dd5","ios":"levelo://app?vid=eabe471c-1a00-4ce0-bfc5-1a09c6b65dd5"},"vehicle_type_id":"4","last_reported":1703765553,"current_range_meters":19600,"station_id":"ce4bgv92rcd13ifvqcq0","pricing_plan_id":"free"},{"bike_id":"783e107d-bde9-4b64-b5fd-1e101093eaa6","system_id":"levelo_inurba_marseille","lat":43.317075,"lon":5.377367,"is_reserved":false,"is_disabled":false,"rental_uris":{"android":"levelo://app?vid=783e107d-bde9-4b64-b5fd-1e101093eaa6","ios":"levelo://app?vid=783e107d-bde9-4b64-b5fd-1e101093eaa6"},"vehicle_type_id":"4","last_reported":1703765553,"current_range_meters":23200,"station_id":"ce4bgth2rcd13ifvqch0","pricing_plan_id":"free"},{"bike_id":"257af720-ca92-45d1-9d13-a1e5e778042b","system_id":"levelo_inurba_marseille","lat":43.303046,"lon":5.368981,"is_reserved":false,"is_disabled":false,"rental_uris":{"android":"levelo://app?vid=257af720-ca92-45d1-9d13-a1e5e778042b","ios":"levelo://app?vid=257af720-ca92-45d1-9d13-a1e5e778042b"},"vehicle_type_id":"4","last_reported":1703765553,"current_range_meters":27600,"station_id":"ce4bgqh2rcd13ifvqc5g","pricing_plan_id":"free"},{"bike_id":"141f9ecc-831b-4e68-91bb-80c1e7a8785c","system_id":"levelo_inurba_marseille","lat":43.303046,"lon":5.368981,"is_reserved":false,"is_disabled":false,"rental_uris":{"android":"levelo://app?vid=141f9ecc-831b-4e68-91bb-80c1e7a8785c","ios":"levelo://app?vid=141f9ecc-831b-4e68-91bb-80c1e7a8785c"},"vehicle_type_id":"4","last_reported":1703765553,"current_range_meters":26800,"station_id":"ce4bgqh2rcd13ifvqc5g","pricing_plan_id":"free"},{"bike_id":"67c3ec81-67c2-4da9-82d6-98c14b4e580a","system_id":"levelo_inurba_marseille","lat":43.30304,"lon":5.368987,"is_reserved":false,"is_disabled":false,"rental_uris":{"android":"levelo://app?vid=67c3ec81-67c2-4da9-82d6-98c14b4e580a","ios":"levelo://app?vid=67c3ec81-67c2-4da9-82d6-98c14b4e580a"},"vehicle_type_id":"4","last_reported":1703765553,"current_range_meters":26400,"station_id":"ce4bgqh2rcd13ifvqc5g","pricing_plan_id":"free"},{"bike_id":"c3ef7a6b-700c-4fca-b9d4-9721b7c3ecbe","system_id":"levelo_inurba_marseille","lat":43.30293,"lon":5.36909,"is_reserved":false,"is_disabled":false,"rental_uris":{"android":"levelo://app?vid=c3ef7a6b-700c-4fca-b9d4-9721b7c3ecbe","ios":"levelo://app?vid=c3ef7a6b-700c-4fca-b9d4-9721b7c3ecbe"},"vehicle_type_id":"4","last_reported":1703765553,"current_range_meters":30800,"station_id":"ce4bgqh2rcd13ifvqc5g","pricing_plan_id":"free"},{"bike_id":"d550bcc2-e88e-42b1-b047-4303086f3b10","system_id":"levelo_inurba_marseille","lat":43.301939,"lon":5.366286,"is_reserved":false,"is_disabled":false,"rental_uris":{"android":"levelo://app?vid=d550bcc2-e88e-42b1-b047-4303086f3b10","ios":"levelo://app?vid=d550bcc2-e88e-42b1-b047-4303086f3b10"},"vehicle_type_id":"4","last_reported":1703765553,"current_range_meters":16800,"station_id":"ce4bgrh2rcd13ifvqc8g","pricing_plan_id":"free"},{"bike_id":"a8a0b2da-90fe-45ae-9e55-99ab66d61c8c","system_id":"levelo_inurba_marseille","lat":43.301939,"lon":5.366286,"is_reserved":false,"is_disabled":false,"rental_uris":{"android":"levelo://app?vid=a8a0b2da-90fe-45ae-9e55-99ab66d61c8c","ios":"levelo://app?vid=a8a0b2da-90fe-45ae-9e55-99ab66d61c8c"},"vehicle_type_id":"4","last_reported":1703765553,"current_range_meters":24000,"station_id":"ce4bgrh2rcd13ifvqc8g","pricing_plan_id":"free"},{"bike_id":"5810a51d-900e-4f21-b011-504985336ccb","system_id":"levelo_inurba_marseille","lat":43.324771,"lon":5.36557,"is_reserved":false,"is_disabled":false,"rental_uris":{"android":"levelo://app?vid=5810a51d-900e-4f21-b011-504985336ccb","ios":"levelo://app?vid=5810a51d-900e-4f21-b011-504985336ccb"},"vehicle_type_id":"4","last_reported":1703765553,"current_range_meters":22800,"station_id":"ce4bhs12rcd13ifvqhvg","pricing_plan_id":"free"},{"bike_id":"65a5bc48-fdb7-4909-98ac-a83f0d971e40","system_id":"levelo_inurba_marseille","lat":43.324771,"lon":5.36557,"is_reserved":false,"is_disabled":false,"rental_uris":{"android":"levelo://app?vid=65a5bc48-fdb7-4909-98ac-a83f0d971e40","ios":"levelo://app?vid=65a5bc48-fdb7-4909-98ac-a83f0d971e40"},"vehicle_type_id":"4","last_reported":1703765553,"current_range_meters":16400,"station_id":"ce4bhs12rcd13ifvqhvg","pricing_plan_id":"free"},{"bike_id":"b142e925-c295-43ac-bd4d-906b4f93788a","system_id":"levelo_inurba_marseille","lat":43.301617,"lon":5.374236,"is_reserved":false,"is_disabled":false,"rental_uris":{"android":"levelo://app?vid=b142e925-c295-43ac-bd4d-906b4f93788a","ios":"levelo://app?vid=b142e925-c295-43ac-bd4d-906b4f93788a"},"vehicle_type_id":"4","last_reported":1703765553,"current_range_meters":27600,"station_id":"ce4bgs92rcd13ifvqcc0","pricing_plan_id":"free"},{"bike_id":"8b2415c6-fbb4-4507-b756-5044ee1ffa8f","system_id":"levelo_inurba_marseille","lat":43.302784,"lon":5.377158,"is_reserved":false,"is_disabled":false,"rental_uris":{"android":"levelo://app?vid=8b2415c6-fbb4-4507-b756-5044ee1ffa8f","ios":"levelo://app?vid=8b2415c6-fbb4-4507-b756-5044ee1ffa8f"},"vehicle_type_id":"4","last_reported":1703765553,"current_range_meters":20800,"station_id":"ce4bguh2rcd13ifvqcj0","pricing_plan_id":"free"},{"bike_id":"eb75f652-373e-4726-9e33-c05a085e4a2d","system_id":"levelo_inurba_marseille","lat":43.301453,"lon":5.37416,"is_reserved":false,"is_disabled":false,"rental_uris":{"android":"levelo://app?vid=eb75f652-373e-4726-9e33-c05a085e4a2d","ios":"levelo://app?vid=eb75f652-373e-4726-9e33-c05a085e4a2d"},"vehicle_type_id":"4","last_reported":1703765553,"current_range_meters":6000,"station_id":"","pricing_plan_id":"free"},{"bike_id":"88f16620-5cc0-44a5-9f0b-4f40cad1b43b","system_id":"levelo_inurba_marseille","lat":43.301429,"lon":5.37413,"is_reserved":false,"is_disabled":false,"rental_uris":{"android":"levelo://app?vid=88f16620-5cc0-44a5-9f0b-4f40cad1b43b","ios":"levelo://app?vid=88f16620-5cc0-44a5-9f0b-4f40cad1b43b"},"vehicle_type_id":"4","last_reported":1703765553,"current_range_meters":28800,"station_id":"ce4bgs92rcd13ifvqcc0","pricing_plan_id":"free"},{"bike_id":"a94ae358-d8e9-44a4-8ecb-635ade214bcd","system_id":"levelo_inurba_marseille","lat":43.311722,"lon":5.387247,"is_reserved":false,"is_disabled":false,"rental_uris":{"android":"levelo://app?vid=a94ae358-d8e9-44a4-8ecb-635ade214bcd","ios":"levelo://app?vid=a94ae358-d8e9-44a4-8ecb-635ade214bcd"},"vehicle_type_id":"4","last_reported":1703765553,"current_range_meters":26400,"station_id":"ce4bgv12rcd13ifvqcp0","pricing_plan_id":"free"},{"bike_id":"d798eee3-c9cd-4e09-a137-162e27e1625e","system_id":"levelo_inurba_marseille","lat":43.320041,"lon":5.381611,"is_reserved":false,"is_disabled":false,"rental_uris":{"android":"levelo://app?vid=d798eee3-c9cd-4e09-a137-162e27e1625e","ios":"levelo://app?vid=d798eee3-c9cd-4e09-a137-162e27e1625e"},"vehicle_type_id":"4","last_reported":1703765553,"current_range_meters":26400,"station_id":"ce4bhr12rcd13ifvqhpg","pricing_plan_id":"free"},{"bike_id":"e6260bf7-dd32-43f7-b6af-86a7ccdb95f1","system_id":"levelo_inurba_marseille","lat":43.313571,"lon":5.384829,"is_reserved":false,"is_disabled":false,"rental_uris":{"android":"levelo://app?vid=e6260bf7-dd32-43f7-b6af-86a7ccdb95f1","ios":"levelo://app?vid=e6260bf7-dd32-43f7-b6af-86a7ccdb95f1"},"vehicle_type_id":"4","last_reported":1703765553,"current_range_meters":9600,"station_id":"ce4bgt92rcd13ifvqcf0","pricing_plan_id":"free"},{"bike_id":"a181946e-c673-4f09-9783-637e4f9b2b64","system_id":"levelo_inurba_marseille","lat":43.313571,"lon":5.384829,"is_reserved":false,"is_disabled":false,"rental_uris":{"android":"levelo://app?vid=a181946e-c673-4f09-9783-637e4f9b2b64","ios":"levelo://app?vid=a181946e-c673-4f09-9783-637e4f9b2b64"},"vehicle_type_id":"4","last_reported":1703765553,"current_range_meters":23600,"station_id":"ce4bgt92rcd13ifvqcf0","pricing_plan_id":"free"},{"bike_id":"ef0b2b78-b9cc-47e5-98ab-f630cf55c574","system_id":"levelo_inurba_marseille","lat":43.313571,"lon":5.384829,"is_reserved":false,"is_disabled":false,"rental_uris":{"android":"levelo://app?vid=ef0b2b78-b9cc-47e5-98ab-f630cf55c574","ios":"levelo://app?vid=ef0b2b78-b9cc-47e5-98ab-f630cf55c574"},"vehicle_type_id":"4","last_reported":1703765553,"current_range_meters":31600,"station_id":"ce4bgt92rcd13ifvqcf0","pricing_plan_id":"free"},{"bike_id":"cb2a3117-62b8-4999-8cb0-fa2fb9984aa1","system_id":"levelo_inurba_marseille","lat":43.299222,"lon":5.365554,"is_reserved":false,"is_disabled":false,"rental_uris":{"android":"levelo://app?vid=cb2a3117-62b8-4999-8cb0-fa2fb9984aa1","ios":"levelo://app?vid=cb2a3117-62b8-4999-8cb0-fa2fb9984aa1"},"vehicle_type_id":"4","last_reported":1703765553,"current_range_meters":26800,"station_id":"ce4bgm92rcd13ifvqbr0","pricing_plan_id":"free"},{"bike_id":"ce4bcbf0-51cc-4ade-8cd7-e29f58c5cbe5","system_id":"levelo_inurba_marseille","lat":43.299724,"lon":5.371829,"is_reserved":false,"is_disabled":false,"rental_uris":{"android":"levelo://app?vid=ce4bcbf0-51cc-4ade-8cd7-e29f58c5cbe5","ios":"levelo://app?vid=ce4bcbf0-51cc-4ade-8cd7-e29f58c5cbe5"},"vehicle_type_id":"4","last_reported":1703765553,"current_range_meters":27200,"station_id":"ce4bgr92rcd13ifvqc7g","pricing_plan_id":"free"},{"bike_id":"92992bb6-d5c3-4b8e-8439-711388763210","system_id":"levelo_inurba_marseille","lat":43.298433,"lon":5.362774,"is_reserved":false,"is_disabled":false,"rental_uris":{"android":"levelo://app?vid=92992bb6-d5c3-4b8e-8439-711388763210","ios":"levelo://app?vid=92992bb6-d5c3-4b8e-8439-711388763210"},"vehicle_type_id":"4","last_reported":1703765553,"current_range_meters":28000,"station_id":"ce4bgpp2rcd13ifvqc3g","pricing_plan_id":"free"},{"bike_id":"ec92cc99-4328-4d02-a99d-38d1310566de","system_id":"levelo_inurba_marseille","lat":43.298433,"lon":5.362774,"is_reserved":false,"is_disabled":false,"rental_uris":{"android":"levelo://app?vid=ec92cc99-4328-4d02-a99d-38d1310566de","ios":"levelo://app?vid=ec92cc99-4328-4d02-a99d-38d1310566de"},"vehicle_type_id":"4","last_reported":1703765553,"current_range_meters":27600,"station_id":"ce4bgpp2rcd13ifvqc3g","pricing_plan_id":"free"},{"bike_id":"21e1be6d-9aa9-4908-8428-359e00528255","system_id":"levelo_inurba_marseille","lat":43.298433,"lon":5.362774,"is_reserved":false,"is_disabled":false,"rental_uris":{"android":"levelo://app?vid=21e1be6d-9aa9-4908-8428-359e00528255","ios":"levelo://app?vid=21e1be6d-9aa9-4908-8428-359e00528255"},"vehicle_type_id":"4","last_reported":1703765553,"current_range_meters":30400,"station_id":"ce4bgpp2rcd13ifvqc3g","pricing_plan_id":"free"},{"bike_id":"6b8f72aa-66ba-419d-be3a-a4718a21c5d1","system_id":"levelo_inurba_marseille","lat":43.298433,"lon":5.362774,"is_reserved":false,"is_disabled":false,"rental_uris":{"android":"levelo://app?vid=6b8f72aa-66ba-419d-be3a-a4718a21c5d1","ios":"levelo://app?vid=6b8f72aa-66ba-419d-be3a-a4718a21c5d1"},"vehicle_type_id":"4","last_reported":1703765553,"current_range_meters":16400,"station_id":"ce4bgpp2rcd13ifvqc3g","pricing_plan_id":"free"},{"bike_id":"efe44b84-aa74-49b6-88b0-d6fdf704a8f4","system_id":"levelo_inurba_marseille","lat":43.298433,"lon":5.362774,"is_reserved":false,"is_disabled":false,"rental_uris":{"android":"levelo://app?vid=efe44b84-aa74-49b6-88b0-d6fdf704a8f4","ios":"levelo://app?vid=efe44b84-aa74-49b6-88b0-d6fdf704a8f4"},"vehicle_type_id":"4","last_reported":1703765553,"current_range_meters":30000,"station_id":"ce4bgpp2rcd13ifvqc3g","pricing_plan_id":"free"},{"bike_id":"c31335bb-e788-456c-b509-26d876db14c4","system_id":"levelo_inurba_marseille","lat":43.299243,"lon":5.37481,"is_reserved":false,"is_disabled":false,"rental_uris":{"android":"levelo://app?vid=c31335bb-e788-456c-b509-26d876db14c4","ios":"levelo://app?vid=c31335bb-e788-456c-b509-26d876db14c4"},"vehicle_type_id":"4","last_reported":1703765553,"current_range_meters":16800,"station_id":"ce4bgjh2rcd13ifvqbg0","pricing_plan_id":"free"},{"bike_id":"7119845d-00aa-4d9f-be8c-fc97d41f1380","system_id":"levelo_inurba_marseille","lat":43.325776,"lon":5.37714,"is_reserved":false,"is_disabled":false,"rental_uris":{"android":"levelo://app?vid=7119845d-00aa-4d9f-be8c-fc97d41f1380","ios":"levelo://app?vid=7119845d-00aa-4d9f-be8c-fc97d41f1380"},"vehicle_type_id":"4","last_reported":1703765553,"current_range_meters":21200,"station_id":"","pricing_plan_id":"free"},{"bike_id":"2bf1159c-4b34-4bc3-a8b5-156be571c011","system_id":"levelo_inurba_marseille","lat":43.298584,"lon":5.374463,"is_reserved":false,"is_disabled":false,"rental_uris":{"android":"levelo://app?vid=2bf1159c-4b34-4bc3-a8b5-156be571c011","ios":"levelo://app?vid=2bf1159c-4b34-4bc3-a8b5-156be571c011"},"vehicle_type_id":"4","last_reported":1703765553,"current_range_meters":28400,"station_id":"","pricing_plan_id":"free"},{"bike_id":"ba739e7a-963b-4871-8659-4ea8fc63b087","system_id":"levelo_inurba_marseille","lat":43.297774,"lon":5.370875,"is_reserved":false,"is_disabled":false,"rental_uris":{"android":"levelo://app?vid=ba739e7a-963b-4871-8659-4ea8fc63b087","ios":"levelo://app?vid=ba739e7a-963b-4871-8659-4ea8fc63b087"},"vehicle_type_id":"4","last_reported":1703765553,"current_range_meters":12000,"station_id":"ce4bgop2rcd13ifvqc1g","pricing_plan_id":"free"},{"bike_id":"b80d7642-fe96-4085-a572-f27716682acd","system_id":"levelo_inurba_marseille","lat":43.322872,"lon":5.382756,"is_reserved":false,"is_disabled":false,"rental_uris":{"android":"levelo://app?vid=b80d7642-fe96-4085-a572-f27716682acd","ios":"levelo://app?vid=b80d7642-fe96-4085-a572-f27716682acd"},"vehicle_type_id":"4","last_reported":1703765553,"current_range_meters":15600,"station_id":"ce4bhr12rcd13ifvqhqg","pricing_plan_id":"free"},{"bike_id":"6d1471f8-bce9-466e-a589-4a37d3811250","system_id":"levelo_inurba_marseille","lat":43.322872,"lon":5.382756,"is_reserved":false,"is_disabled":false,"rental_uris":{"android":"levelo://app?vid=6d1471f8-bce9-466e-a589-4a37d3811250","ios":"levelo://app?vid=6d1471f8-bce9-466e-a589-4a37d3811250"},"vehicle_type_id":"4","last_reported":1703765553,"current_range_meters":31600,"station_id":"ce4bhr12rcd13ifvqhqg","pricing_plan_id":"free"},{"bike_id":"cada3c22-f541-4194-9be2-fadc3fe9e187","system_id":"levelo_inurba_marseille","lat":43.322872,"lon":5.382756,"is_reserved":false,"is_disabled":false,"rental_uris":{"android":"levelo://app?vid=cada3c22-f541-4194-9be2-fadc3fe9e187","ios":"levelo://app?vid=cada3c22-f541-4194-9be2-fadc3fe9e187"},"vehicle_type_id":"4","last_reported":1703765553,"current_range_meters":18000,"station_id":"ce4bhr12rcd13ifvqhqg","pricing_plan_id":"free"},{"bike_id":"0a0a41d2-3c00-48f6-882d-b27afb73fe78","system_id":"levelo_inurba_marseille","lat":43.322872,"lon":5.382756,"is_reserved":false,"is_disabled":false,"rental_uris":{"android":"levelo://app?vid=0a0a41d2-3c00-48f6-882d-b27afb73fe78","ios":"levelo://app?vid=0a0a41d2-3c00-48f6-882d-b27afb73fe78"},"vehicle_type_id":"4","last_reported":1703765553,"current_range_meters":29600,"station_id":"ce4bhr12rcd13ifvqhqg","pricing_plan_id":"free"},{"bike_id":"63961824-470b-4769-af8f-257f972165a7","system_id":"levelo_inurba_marseille","lat":43.32291,"lon":5.38274,"is_reserved":false,"is_disabled":false,"rental_uris":{"android":"levelo://app?vid=63961824-470b-4769-af8f-257f972165a7","ios":"levelo://app?vid=63961824-470b-4769-af8f-257f972165a7"},"vehicle_type_id":"4","last_reported":1703765553,"current_range_meters":7600,"station_id":"ce4bhr12rcd13ifvqhqg","pricing_plan_id":"free"},{"bike_id":"3270f28d-7b09-46cb-ba43-f40752fc3385","system_id":"levelo_inurba_marseille","lat":43.322872,"lon":5.382756,"is_reserved":false,"is_disabled":false,"rental_uris":{"android":"levelo://app?vid=3270f28d-7b09-46cb-ba43-f40752fc3385","ios":"levelo://app?vid=3270f28d-7b09-46cb-ba43-f40752fc3385"},"vehicle_type_id":"4","last_reported":1703765553,"current_range_meters":31200,"station_id":"ce4bhr12rcd13ifvqhqg","pricing_plan_id":"free"},{"bike_id":"b30b3d1b-ef61-4776-bd7b-61c34fd8cc81","system_id":"levelo_inurba_marseille","lat":43.328229,"lon":5.366762,"is_reserved":false,"is_disabled":false,"rental_uris":{"android":"levelo://app?vid=b30b3d1b-ef61-4776-bd7b-61c34fd8cc81","ios":"levelo://app?vid=b30b3d1b-ef61-4776-bd7b-61c34fd8cc81"},"vehicle_type_id":"4","last_reported":1703765553,"current_range_meters":18800,"station_id":"ce4bhs92rcd13ifvqi0g","pricing_plan_id":"free"},{"bike_id":"6516e11b-ff9a-4979-b85a-a42584b5c933","system_id":"levelo_inurba_marseille","lat":43.32825,"lon":5.36682,"is_reserved":false,"is_disabled":false,"rental_uris":{"android":"levelo://app?vid=6516e11b-ff9a-4979-b85a-a42584b5c933","ios":"levelo://app?vid=6516e11b-ff9a-4979-b85a-a42584b5c933"},"vehicle_type_id":"4","last_reported":1703765553,"current_range_meters":24400,"station_id":"ce4bhs92rcd13ifvqi0g","pricing_plan_id":"free"},{"bike_id":"5c89eee7-6e83-42b4-bd81-efdcf68f6666","system_id":"levelo_inurba_marseille","lat":43.328251,"lon":5.366829,"is_reserved":false,"is_disabled":false,"rental_uris":{"android":"levelo://app?vid=5c89eee7-6e83-42b4-bd81-efdcf68f6666","ios":"levelo://app?vid=5c89eee7-6e83-42b4-bd81-efdcf68f6666"},"vehicle_type_id":"4","last_reported":1703765553,"current_range_meters":28000,"station_id":"ce4bhs92rcd13ifvqi0g","pricing_plan_id":"free"},{"bike_id":"639980c6-9f73-401a-b944-961e7482aee9","system_id":"levelo_inurba_marseille","lat":43.328258,"lon":5.366817,"is_reserved":false,"is_disabled":false,"rental_uris":{"android":"levelo://app?vid=639980c6-9f73-401a-b944-961e7482aee9","ios":"levelo://app?vid=639980c6-9f73-401a-b944-961e7482aee9"},"vehicle_type_id":"4","last_reported":1703765553,"current_range_meters":6800,"station_id":"ce4bhs92rcd13ifvqi0g","pricing_plan_id":"free"},{"bike_id":"eb5d14f1-3ff6-466a-b73b-4ba7e2174d3d","system_id":"levelo_inurba_marseille","lat":43.32826,"lon":5.36693,"is_reserved":false,"is_disabled":false,"rental_uris":{"android":"levelo://app?vid=eb5d14f1-3ff6-466a-b73b-4ba7e2174d3d","ios":"levelo://app?vid=eb5d14f1-3ff6-466a-b73b-4ba7e2174d3d"},"vehicle_type_id":"4","last_reported":1703765553,"current_range_meters":12000,"station_id":"ce4bhs92rcd13ifvqi0g","pricing_plan_id":"free"},{"bike_id":"1ea82e61-37ea-4b15-a6ef-01d29683b9fd","system_id":"levelo_inurba_marseille","lat":43.32827,"lon":5.36674,"is_reserved":false,"is_disabled":false,"rental_uris":{"android":"levelo://app?vid=1ea82e61-37ea-4b15-a6ef-01d29683b9fd","ios":"levelo://app?vid=1ea82e61-37ea-4b15-a6ef-01d29683b9fd"},"vehicle_type_id":"4","last_reported":1703765553,"current_range_meters":21200,"station_id":"ce4bhs92rcd13ifvqi0g","pricing_plan_id":"free"},{"bike_id":"ddee1e46-a8ad-4997-9dc5-136753741280","system_id":"levelo_inurba_marseille","lat":43.32828,"lon":5.36684,"is_reserved":false,"is_disabled":false,"rental_uris":{"android":"levelo://app?vid=ddee1e46-a8ad-4997-9dc5-136753741280","ios":"levelo://app?vid=ddee1e46-a8ad-4997-9dc5-136753741280"},"vehicle_type_id":"4","last_reported":1703765553,"current_range_meters":26400,"station_id":"ce4bhs92rcd13ifvqi0g","pricing_plan_id":"free"},{"bike_id":"a677cd10-a09b-4b2e-bffd-45b05d2c9229","system_id":"levelo_inurba_marseille","lat":43.32828,"lon":5.36679,"is_reserved":false,"is_disabled":false,"rental_uris":{"android":"levelo://app?vid=a677cd10-a09b-4b2e-bffd-45b05d2c9229","ios":"levelo://app?vid=a677cd10-a09b-4b2e-bffd-45b05d2c9229"},"vehicle_type_id":"4","last_reported":1703765553,"current_range_meters":26000,"station_id":"ce4bhs92rcd13ifvqi0g","pricing_plan_id":"free"},{"bike_id":"51714c4a-3132-4951-88ec-80e85fa125e8","system_id":"levelo_inurba_marseille","lat":43.328281,"lon":5.366836,"is_reserved":false,"is_disabled":false,"rental_uris":{"android":"levelo://app?vid=51714c4a-3132-4951-88ec-80e85fa125e8","ios":"levelo://app?vid=51714c4a-3132-4951-88ec-80e85fa125e8"},"vehicle_type_id":"4","last_reported":1703765553,"current_range_meters":19200,"station_id":"ce4bhs92rcd13ifvqi0g","pricing_plan_id":"free"},{"bike_id":"de708f00-7118-4d7c-9021-d7dcbd798473","system_id":"levelo_inurba_marseille","lat":43.328371,"lon":5.366909,"is_reserved":false,"is_disabled":false,"rental_uris":{"android":"levelo://app?vid=de708f00-7118-4d7c-9021-d7dcbd798473","ios":"levelo://app?vid=de708f00-7118-4d7c-9021-d7dcbd798473"},"vehicle_type_id":"4","last_reported":1703765553,"current_range_meters":16400,"station_id":"ce4bhs92rcd13ifvqi0g","pricing_plan_id":"free"},{"bike_id":"b33e79d7-85bd-413c-801b-bcd1df69d847","system_id":"levelo_inurba_marseille","lat":43.32831,"lon":5.36678,"is_reserved":false,"is_disabled":false,"rental_uris":{"android":"levelo://app?vid=b33e79d7-85bd-413c-801b-bcd1df69d847","ios":"levelo://app?vid=b33e79d7-85bd-413c-801b-bcd1df69d847"},"vehicle_type_id":"4","last_reported":1703765553,"current_range_meters":17600,"station_id":"ce4bhs92rcd13ifvqi0g","pricing_plan_id":"free"},{"bike_id":"ea7074d7-b7c9-4941-82c2-dff391bae9cb","system_id":"levelo_inurba_marseille","lat":43.32831,"lon":5.36675,"is_reserved":false,"is_disabled":false,"rental_uris":{"android":"levelo://app?vid=ea7074d7-b7c9-4941-82c2-dff391bae9cb","ios":"levelo://app?vid=ea7074d7-b7c9-4941-82c2-dff391bae9cb"},"vehicle_type_id":"4","last_reported":1703765553,"current_range_meters":15600,"station_id":"ce4bhs92rcd13ifvqi0g","pricing_plan_id":"free"},{"bike_id":"904f83aa-e9ab-401d-84c1-9edfed82b884","system_id":"levelo_inurba_marseille","lat":43.328371,"lon":5.366912,"is_reserved":false,"is_disabled":false,"rental_uris":{"android":"levelo://app?vid=904f83aa-e9ab-401d-84c1-9edfed82b884","ios":"levelo://app?vid=904f83aa-e9ab-401d-84c1-9edfed82b884"},"vehicle_type_id":"4","last_reported":1703765553,"current_range_meters":10000,"station_id":"ce4bhs92rcd13ifvqi0g","pricing_plan_id":"free"},{"bike_id":"a448ca86-2b35-41e1-89c4-32a99bab0563","system_id":"levelo_inurba_marseille","lat":43.328371,"lon":5.366912,"is_reserved":false,"is_disabled":false,"rental_uris":{"android":"levelo://app?vid=a448ca86-2b35-41e1-89c4-32a99bab0563","ios":"levelo://app?vid=a448ca86-2b35-41e1-89c4-32a99bab0563"},"vehicle_type_id":"4","last_reported":1703765553,"current_range_meters":24000,"station_id":"ce4bhs92rcd13ifvqi0g","pricing_plan_id":"free"},{"bike_id":"6f67326a-1664-406f-9978-902e013e2357","system_id":"levelo_inurba_marseille","lat":43.32832,"lon":5.36679,"is_reserved":false,"is_disabled":false,"rental_uris":{"android":"levelo://app?vid=6f67326a-1664-406f-9978-902e013e2357","ios":"levelo://app?vid=6f67326a-1664-406f-9978-902e013e2357"},"vehicle_type_id":"4","last_reported":1703765553,"current_range_meters":23600,"station_id":"ce4bhs92rcd13ifvqi0g","pricing_plan_id":"free"},{"bike_id":"ad11591d-c2ee-43a0-bc3e-d54a53122fe7","system_id":"levelo_inurba_marseille","lat":43.2968,"lon":5.37291,"is_reserved":false,"is_disabled":false,"rental_uris":{"android":"levelo://app?vid=ad11591d-c2ee-43a0-bc3e-d54a53122fe7","ios":"levelo://app?vid=ad11591d-c2ee-43a0-bc3e-d54a53122fe7"},"vehicle_type_id":"4","last_reported":1703765553,"current_range_meters":30000,"station_id":"ce4bgk12rcd13ifvqbj0","pricing_plan_id":"free"},{"bike_id":"59f2c11b-a230-4925-839e-bdb370c75a48","system_id":"levelo_inurba_marseille","lat":43.2968,"lon":5.37291,"is_reserved":false,"is_disabled":false,"rental_uris":{"android":"levelo://app?vid=59f2c11b-a230-4925-839e-bdb370c75a48","ios":"levelo://app?vid=59f2c11b-a230-4925-839e-bdb370c75a48"},"vehicle_type_id":"4","last_reported":1703765553,"current_range_meters":30400,"station_id":"ce4bgk12rcd13ifvqbj0","pricing_plan_id":"free"},{"bike_id":"921b424d-ad0d-4c7a-9d74-66e3a49bfa19","system_id":"levelo_inurba_marseille","lat":43.32934,"lon":5.36612,"is_reserved":false,"is_disabled":false,"rental_uris":{"android":"levelo://app?vid=921b424d-ad0d-4c7a-9d74-66e3a49bfa19","ios":"levelo://app?vid=921b424d-ad0d-4c7a-9d74-66e3a49bfa19"},"vehicle_type_id":"4","last_reported":1703765553,"current_range_meters":13600,"station_id":"","pricing_plan_id":"free"},{"bike_id":"3e5a2a2b-2ee5-4de5-8e61-35198a6e4521","system_id":"levelo_inurba_marseille","lat":43.29573,"lon":5.367355,"is_reserved":false,"is_disabled":false,"rental_uris":{"android":"levelo://app?vid=3e5a2a2b-2ee5-4de5-8e61-35198a6e4521","ios":"levelo://app?vid=3e5a2a2b-2ee5-4de5-8e61-35198a6e4521"},"vehicle_type_id":"4","last_reported":1703765553,"current_range_meters":31600,"station_id":"ce4bgph2rcd13ifvqc2g","pricing_plan_id":"free"},{"bike_id":"5134ee40-299b-4a69-82d8-6ba0e51cc493","system_id":"levelo_inurba_marseille","lat":43.296131,"lon":5.370791,"is_reserved":false,"is_disabled":false,"rental_uris":{"android":"levelo://app?vid=5134ee40-299b-4a69-82d8-6ba0e51cc493","ios":"levelo://app?vid=5134ee40-299b-4a69-82d8-6ba0e51cc493"},"vehicle_type_id":"4","last_reported":1703765553,"current_range_meters":29600,"station_id":"ce4bgnh2rcd13ifvqc0g","pricing_plan_id":"free"},{"bike_id":"4394c1bb-dd17-48a3-9f23-64b06876ff55","system_id":"levelo_inurba_marseille","lat":43.29573,"lon":5.367355,"is_reserved":false,"is_disabled":false,"rental_uris":{"android":"levelo://app?vid=4394c1bb-dd17-48a3-9f23-64b06876ff55","ios":"levelo://app?vid=4394c1bb-dd17-48a3-9f23-64b06876ff55"},"vehicle_type_id":"4","last_reported":1703765553,"current_range_meters":30800,"station_id":"ce4bgph2rcd13ifvqc2g","pricing_plan_id":"free"},{"bike_id":"2990a816-0ea9-4412-a464-ce4206738271","system_id":"levelo_inurba_marseille","lat":43.29573,"lon":5.367355,"is_reserved":false,"is_disabled":false,"rental_uris":{"android":"levelo://app?vid=2990a816-0ea9-4412-a464-ce4206738271","ios":"levelo://app?vid=2990a816-0ea9-4412-a464-ce4206738271"},"vehicle_type_id":"4","last_reported":1703765553,"current_range_meters":19600,"station_id":"ce4bgph2rcd13ifvqc2g","pricing_plan_id":"free"},{"bike_id":"54aa8127-0b91-41d5-939f-930b604fe8e9","system_id":"levelo_inurba_marseille","lat":43.299028,"lon":5.381509,"is_reserved":false,"is_disabled":false,"rental_uris":{"android":"levelo://app?vid=54aa8127-0b91-41d5-939f-930b604fe8e9","ios":"levelo://app?vid=54aa8127-0b91-41d5-939f-930b604fe8e9"},"vehicle_type_id":"4","last_reported":1703765553,"current_range_meters":21600,"station_id":"ce4bgj12rcd13ifvqbc0","pricing_plan_id":"free"},{"bike_id":"50f29856-87b4-44fc-9472-484e162082b3","system_id":"levelo_inurba_marseille","lat":43.29576,"lon":5.37515,"is_reserved":false,"is_disabled":false,"rental_uris":{"android":"levelo://app?vid=50f29856-87b4-44fc-9472-484e162082b3","ios":"levelo://app?vid=50f29856-87b4-44fc-9472-484e162082b3"},"vehicle_type_id":"4","last_reported":1703765553,"current_range_meters":5600,"station_id":"ce4bgh92rcd13ifvqb50","pricing_plan_id":"free"},{"bike_id":"a5648590-7f67-4abf-a548-b0d3a6c27c51","system_id":"levelo_inurba_marseille","lat":43.295748,"lon":5.37522,"is_reserved":false,"is_disabled":false,"rental_uris":{"android":"levelo://app?vid=a5648590-7f67-4abf-a548-b0d3a6c27c51","ios":"levelo://app?vid=a5648590-7f67-4abf-a548-b0d3a6c27c51"},"vehicle_type_id":"4","last_reported":1703765553,"current_range_meters":29200,"station_id":"ce4bgh92rcd13ifvqb50","pricing_plan_id":"free"},{"bike_id":"e367bbd8-adbb-4dd9-9da2-809afecf3fe9","system_id":"levelo_inurba_marseille","lat":43.304278,"lon":5.388868,"is_reserved":false,"is_disabled":false,"rental_uris":{"android":"levelo://app?vid=e367bbd8-adbb-4dd9-9da2-809afecf3fe9","ios":"levelo://app?vid=e367bbd8-adbb-4dd9-9da2-809afecf3fe9"},"vehicle_type_id":"4","last_reported":1703765553,"current_range_meters":30400,"station_id":"ce4bgk12rcd13ifvqbi0","pricing_plan_id":"free"},{"bike_id":"4071f4c2-2392-4eac-a47d-cbb0ef463e00","system_id":"levelo_inurba_marseille","lat":43.295748,"lon":5.37522,"is_reserved":false,"is_disabled":false,"rental_uris":{"android":"levelo://app?vid=4071f4c2-2392-4eac-a47d-cbb0ef463e00","ios":"levelo://app?vid=4071f4c2-2392-4eac-a47d-cbb0ef463e00"},"vehicle_type_id":"4","last_reported":1703765553,"current_range_meters":29200,"station_id":"ce4bgh92rcd13ifvqb50","pricing_plan_id":"free"},{"bike_id":"35306b1a-ad8e-4125-9c25-ea12574c3625","system_id":"levelo_inurba_marseille","lat":43.295748,"lon":5.37522,"is_reserved":false,"is_disabled":false,"rental_uris":{"android":"levelo://app?vid=35306b1a-ad8e-4125-9c25-ea12574c3625","ios":"levelo://app?vid=35306b1a-ad8e-4125-9c25-ea12574c3625"},"vehicle_type_id":"4","last_reported":1703765553,"current_range_meters":16800,"station_id":"ce4bgh92rcd13ifvqb50","pricing_plan_id":"free"},{"bike_id":"6f276d82-9bf1-48cf-863a-4f4e69c7be22","system_id":"levelo_inurba_marseille","lat":43.296263,"lon":5.377094,"is_reserved":false,"is_disabled":false,"rental_uris":{"android":"levelo://app?vid=6f276d82-9bf1-48cf-863a-4f4e69c7be22","ios":"levelo://app?vid=6f276d82-9bf1-48cf-863a-4f4e69c7be22"},"vehicle_type_id":"4","last_reported":1703765553,"current_range_meters":14800,"station_id":"ce4bgi92rcd13ifvqb90","pricing_plan_id":"free"},{"bike_id":"c152b89b-d77c-49d5-b618-f5dab0f67c3a","system_id":"levelo_inurba_marseille","lat":43.299688,"lon":5.384937,"is_reserved":false,"is_disabled":false,"rental_uris":{"android":"levelo://app?vid=c152b89b-d77c-49d5-b618-f5dab0f67c3a","ios":"levelo://app?vid=c152b89b-d77c-49d5-b618-f5dab0f67c3a"},"vehicle_type_id":"4","last_reported":1703765553,"current_range_meters":19200,"station_id":"ce4bgj92rcd13ifvqbd0","pricing_plan_id":"free"},{"bike_id":"500c7be8-caff-4ecb-9200-d0b507d3ac46","system_id":"levelo_inurba_marseille","lat":43.29515,"lon":5.37506,"is_reserved":false,"is_disabled":false,"rental_uris":{"android":"levelo://app?vid=500c7be8-caff-4ecb-9200-d0b507d3ac46","ios":"levelo://app?vid=500c7be8-caff-4ecb-9200-d0b507d3ac46"},"vehicle_type_id":"4","last_reported":1703765553,"current_range_meters":16800,"station_id":"ce4bgkp2rcd13ifvqbmg","pricing_plan_id":"free"},{"bike_id":"2378d184-7cb1-48c0-ac48-53eef7906a0b","system_id":"levelo_inurba_marseille","lat":43.295279,"lon":5.375048,"is_reserved":false,"is_disabled":false,"rental_uris":{"android":"levelo://app?vid=2378d184-7cb1-48c0-ac48-53eef7906a0b","ios":"levelo://app?vid=2378d184-7cb1-48c0-ac48-53eef7906a0b"},"vehicle_type_id":"4","last_reported":1703765553,"current_range_meters":16800,"station_id":"ce4bgkp2rcd13ifvqbmg","pricing_plan_id":"free"},{"bike_id":"1f926e65-c0b4-4d94-b3b8-42428974babd","system_id":"levelo_inurba_marseille","lat":43.29409,"lon":5.37477,"is_reserved":false,"is_disabled":false,"rental_uris":{"android":"levelo://app?vid=1f926e65-c0b4-4d94-b3b8-42428974babd","ios":"levelo://app?vid=1f926e65-c0b4-4d94-b3b8-42428974babd"},"vehicle_type_id":"4","last_reported":1703765553,"current_range_meters":18000,"station_id":"","pricing_plan_id":"free"},{"bike_id":"edc571ac-79f5-429a-89f8-86fa7ab8f6ba","system_id":"levelo_inurba_marseille","lat":43.323709,"lon":5.389284,"is_reserved":false,"is_disabled":false,"rental_uris":{"android":"levelo://app?vid=edc571ac-79f5-429a-89f8-86fa7ab8f6ba","ios":"levelo://app?vid=edc571ac-79f5-429a-89f8-86fa7ab8f6ba"},"vehicle_type_id":"4","last_reported":1703765553,"current_range_meters":18400,"station_id":"ce4bhqp2rcd13ifvqhog","pricing_plan_id":"free"},{"bike_id":"13ef50c8-004e-4927-8431-0c1456870632","system_id":"levelo_inurba_marseille","lat":43.29601,"lon":5.381084,"is_reserved":false,"is_disabled":false,"rental_uris":{"android":"levelo://app?vid=13ef50c8-004e-4927-8431-0c1456870632","ios":"levelo://app?vid=13ef50c8-004e-4927-8431-0c1456870632"},"vehicle_type_id":"4","last_reported":1703765553,"current_range_meters":23600,"station_id":"ce4bgl12rcd13ifvqbo0","pricing_plan_id":"free"},{"bike_id":"9d30113f-584f-4b16-9bcb-0c99e8b4abb7","system_id":"levelo_inurba_marseille","lat":43.293259,"lon":5.371586,"is_reserved":false,"is_disabled":false,"rental_uris":{"android":"levelo://app?vid=9d30113f-584f-4b16-9bcb-0c99e8b4abb7","ios":"levelo://app?vid=9d30113f-584f-4b16-9bcb-0c99e8b4abb7"},"vehicle_type_id":"4","last_reported":1703765553,"current_range_meters":22800,"station_id":"ce4bgh92rcd13ifvqb40","pricing_plan_id":"free"},{"bike_id":"e2d85f20-e372-4bd6-b3e1-5da8fe2b05ef","system_id":"levelo_inurba_marseille","lat":43.293259,"lon":5.371586,"is_reserved":false,"is_disabled":false,"rental_uris":{"android":"levelo://app?vid=e2d85f20-e372-4bd6-b3e1-5da8fe2b05ef","ios":"levelo://app?vid=e2d85f20-e372-4bd6-b3e1-5da8fe2b05ef"},"vehicle_type_id":"4","last_reported":1703765553,"current_range_meters":30800,"station_id":"ce4bgh92rcd13ifvqb40","pricing_plan_id":"free"},{"bike_id":"b506df2b-9f74-438e-9775-960ef3a0c085","system_id":"levelo_inurba_marseille","lat":43.292749,"lon":5.368402,"is_reserved":false,"is_disabled":false,"rental_uris":{"android":"levelo://app?vid=b506df2b-9f74-438e-9775-960ef3a0c085","ios":"levelo://app?vid=b506df2b-9f74-438e-9775-960ef3a0c085"},"vehicle_type_id":"4","last_reported":1703765553,"current_range_meters":16000,"station_id":"ce4bhbp2rcd13ifvqesg","pricing_plan_id":"free"},{"bike_id":"64f3fb52-664e-4a2c-ad5d-cdf51442a1a2","system_id":"levelo_inurba_marseille","lat":43.29264,"lon":5.3684,"is_reserved":false,"is_disabled":false,"rental_uris":{"android":"levelo://app?vid=64f3fb52-664e-4a2c-ad5d-cdf51442a1a2","ios":"levelo://app?vid=64f3fb52-664e-4a2c-ad5d-cdf51442a1a2"},"vehicle_type_id":"4","last_reported":1703765553,"current_range_meters":18400,"station_id":"ce4bhbp2rcd13ifvqesg","pricing_plan_id":"free"},{"bike_id":"50f49395-2059-4c71-ae6b-8b821098f128","system_id":"levelo_inurba_marseille","lat":43.293009,"lon":5.374584,"is_reserved":false,"is_disabled":false,"rental_uris":{"android":"levelo://app?vid=50f49395-2059-4c71-ae6b-8b821098f128","ios":"levelo://app?vid=50f49395-2059-4c71-ae6b-8b821098f128"},"vehicle_type_id":"4","last_reported":1703765553,"current_range_meters":21600,"station_id":"ce4bgi12rcd13ifvqb70","pricing_plan_id":"free"},{"bike_id":"e7219b23-c370-4ba0-a231-20ec6e1b33be","system_id":"levelo_inurba_marseille","lat":43.29298,"lon":5.37468,"is_reserved":false,"is_disabled":false,"rental_uris":{"android":"levelo://app?vid=e7219b23-c370-4ba0-a231-20ec6e1b33be","ios":"levelo://app?vid=e7219b23-c370-4ba0-a231-20ec6e1b33be"},"vehicle_type_id":"4","last_reported":1703765553,"current_range_meters":27200,"station_id":"ce4bgi12rcd13ifvqb70","pricing_plan_id":"free"},{"bike_id":"19cd0451-f6fd-4bd9-b9fa-856822ca9a29","system_id":"levelo_inurba_marseille","lat":43.305994,"lon":5.393687,"is_reserved":false,"is_disabled":false,"rental_uris":{"android":"levelo://app?vid=19cd0451-f6fd-4bd9-b9fa-856822ca9a29","ios":"levelo://app?vid=19cd0451-f6fd-4bd9-b9fa-856822ca9a29"},"vehicle_type_id":"4","last_reported":1703765553,"current_range_meters":29600,"station_id":"ce4bh0p2rcd13ifvqd80","pricing_plan_id":"free"},{"bike_id":"3f3cbf6e-b816-442f-b047-5d7adb39ccfd","system_id":"levelo_inurba_marseille","lat":43.303002,"lon":5.392142,"is_reserved":false,"is_disabled":false,"rental_uris":{"android":"levelo://app?vid=3f3cbf6e-b816-442f-b047-5d7adb39ccfd","ios":"levelo://app?vid=3f3cbf6e-b816-442f-b047-5d7adb39ccfd"},"vehicle_type_id":"4","last_reported":1703765553,"current_range_meters":30400,"station_id":"ce4bgkh2rcd13ifvqbk0","pricing_plan_id":"free"},{"bike_id":"23ba71f5-6a7a-46bf-9c9e-65cbd7dc9480","system_id":"levelo_inurba_marseille","lat":43.2936,"lon":5.37835,"is_reserved":false,"is_disabled":false,"rental_uris":{"android":"levelo://app?vid=23ba71f5-6a7a-46bf-9c9e-65cbd7dc9480","ios":"levelo://app?vid=23ba71f5-6a7a-46bf-9c9e-65cbd7dc9480"},"vehicle_type_id":"4","last_reported":1703765553,"current_range_meters":29600,"station_id":"ce4bgjh2rcd13ifvqbf0","pricing_plan_id":"free"},{"bike_id":"1e9867a2-0639-4c71-aa28-01c94f815bfa","system_id":"levelo_inurba_marseille","lat":43.292311,"lon":5.360731,"is_reserved":false,"is_disabled":false,"rental_uris":{"android":"levelo://app?vid=1e9867a2-0639-4c71-aa28-01c94f815bfa","ios":"levelo://app?vid=1e9867a2-0639-4c71-aa28-01c94f815bfa"},"vehicle_type_id":"4","last_reported":1703765553,"current_range_meters":18000,"station_id":"ce4bhbh2rcd13ifvqeqg","pricing_plan_id":"free"},{"bike_id":"c1db25f5-5d61-4b4c-92f6-80715b1de172","system_id":"levelo_inurba_marseille","lat":43.292679,"lon":5.376122,"is_reserved":false,"is_disabled":false,"rental_uris":{"android":"levelo://app?vid=c1db25f5-5d61-4b4c-92f6-80715b1de172","ios":"levelo://app?vid=c1db25f5-5d61-4b4c-92f6-80715b1de172"},"vehicle_type_id":"4","last_reported":1703765553,"current_range_meters":24400,"station_id":"","pricing_plan_id":"free"},{"bike_id":"743ae948-9016-4915-a693-e4388d89be48","system_id":"levelo_inurba_marseille","lat":43.291675,"lon":5.371583,"is_reserved":false,"is_disabled":false,"rental_uris":{"android":"levelo://app?vid=743ae948-9016-4915-a693-e4388d89be48","ios":"levelo://app?vid=743ae948-9016-4915-a693-e4388d89be48"},"vehicle_type_id":"4","last_reported":1703765553,"current_range_meters":31600,"station_id":"ce4bha92rcd13ifvqeh0","pricing_plan_id":"free"},{"bike_id":"f256d401-b220-4f7c-a233-f20fcd9b1c34","system_id":"levelo_inurba_marseille","lat":43.291671,"lon":5.371575,"is_reserved":false,"is_disabled":false,"rental_uris":{"android":"levelo://app?vid=f256d401-b220-4f7c-a233-f20fcd9b1c34","ios":"levelo://app?vid=f256d401-b220-4f7c-a233-f20fcd9b1c34"},"vehicle_type_id":"4","last_reported":1703765553,"current_range_meters":29200,"station_id":"ce4bha92rcd13ifvqeh0","pricing_plan_id":"free"},{"bike_id":"26f71cd7-f5e8-4c2a-9f8b-962ef80ad1bc","system_id":"levelo_inurba_marseille","lat":43.291675,"lon":5.371583,"is_reserved":false,"is_disabled":false,"rental_uris":{"android":"levelo://app?vid=26f71cd7-f5e8-4c2a-9f8b-962ef80ad1bc","ios":"levelo://app?vid=26f71cd7-f5e8-4c2a-9f8b-962ef80ad1bc"},"vehicle_type_id":"4","last_reported":1703765553,"current_range_meters":17600,"station_id":"ce4bha92rcd13ifvqeh0","pricing_plan_id":"free"},{"bike_id":"94d2eb92-0e95-4bff-8e08-d5e1aa9eb091","system_id":"levelo_inurba_marseille","lat":43.291675,"lon":5.371583,"is_reserved":false,"is_disabled":false,"rental_uris":{"android":"levelo://app?vid=94d2eb92-0e95-4bff-8e08-d5e1aa9eb091","ios":"levelo://app?vid=94d2eb92-0e95-4bff-8e08-d5e1aa9eb091"},"vehicle_type_id":"4","last_reported":1703765553,"current_range_meters":18000,"station_id":"ce4bha92rcd13ifvqeh0","pricing_plan_id":"free"},{"bike_id":"da0eed94-9481-425f-983b-d7dcd05e44d7","system_id":"levelo_inurba_marseille","lat":43.29869,"lon":5.38906,"is_reserved":false,"is_disabled":false,"rental_uris":{"android":"levelo://app?vid=da0eed94-9481-425f-983b-d7dcd05e44d7","ios":"levelo://app?vid=da0eed94-9481-425f-983b-d7dcd05e44d7"},"vehicle_type_id":"4","last_reported":1703765553,"current_range_meters":13200,"station_id":"","pricing_plan_id":"free"},{"bike_id":"e69d023b-bf1f-4b59-823b-da7cd173d462","system_id":"levelo_inurba_marseille","lat":43.291994,"lon":5.357886,"is_reserved":false,"is_disabled":false,"rental_uris":{"android":"levelo://app?vid=e69d023b-bf1f-4b59-823b-da7cd173d462","ios":"levelo://app?vid=e69d023b-bf1f-4b59-823b-da7cd173d462"},"vehicle_type_id":"4","last_reported":1703765553,"current_range_meters":26400,"station_id":"ce4bhb12rcd13ifvqel0","pricing_plan_id":"free"},{"bike_id":"87414d27-bfcc-407d-aca6-16d401cc3ab7","system_id":"levelo_inurba_marseille","lat":43.291994,"lon":5.357886,"is_reserved":false,"is_disabled":false,"rental_uris":{"android":"levelo://app?vid=87414d27-bfcc-407d-aca6-16d401cc3ab7","ios":"levelo://app?vid=87414d27-bfcc-407d-aca6-16d401cc3ab7"},"vehicle_type_id":"4","last_reported":1703765553,"current_range_meters":22800,"station_id":"ce4bhb12rcd13ifvqel0","pricing_plan_id":"free"},{"bike_id":"967e44ba-ff8f-41f7-a2fb-ff3a4f3c2de6","system_id":"levelo_inurba_marseille","lat":43.309038,"lon":5.396546,"is_reserved":false,"is_disabled":false,"rental_uris":{"android":"levelo://app?vid=967e44ba-ff8f-41f7-a2fb-ff3a4f3c2de6","ios":"levelo://app?vid=967e44ba-ff8f-41f7-a2fb-ff3a4f3c2de6"},"vehicle_type_id":"4","last_reported":1703765553,"current_range_meters":27200,"station_id":"ce4bh012rcd13ifvqcv0","pricing_plan_id":"free"},{"bike_id":"16c42068-d9c9-4469-8af8-63fa2281e372","system_id":"levelo_inurba_marseille","lat":43.29529,"lon":5.385581,"is_reserved":false,"is_disabled":false,"rental_uris":{"android":"levelo://app?vid=16c42068-d9c9-4469-8af8-63fa2281e372","ios":"levelo://app?vid=16c42068-d9c9-4469-8af8-63fa2281e372"},"vehicle_type_id":"4","last_reported":1703765553,"current_range_meters":24800,"station_id":"ce4bgih2rcd13ifvqba0","pricing_plan_id":"free"},{"bike_id":"a833bb1a-bf06-4e67-b960-344464a890ca","system_id":"levelo_inurba_marseille","lat":43.29529,"lon":5.385581,"is_reserved":false,"is_disabled":false,"rental_uris":{"android":"levelo://app?vid=a833bb1a-bf06-4e67-b960-344464a890ca","ios":"levelo://app?vid=a833bb1a-bf06-4e67-b960-344464a890ca"},"vehicle_type_id":"4","last_reported":1703765553,"current_range_meters":28800,"station_id":"ce4bgih2rcd13ifvqba0","pricing_plan_id":"free"},{"bike_id":"93bdfc24-b35c-4944-9ca2-89930491af9d","system_id":"levelo_inurba_marseille","lat":43.29529,"lon":5.385581,"is_reserved":false,"is_disabled":false,"rental_uris":{"android":"levelo://app?vid=93bdfc24-b35c-4944-9ca2-89930491af9d","ios":"levelo://app?vid=93bdfc24-b35c-4944-9ca2-89930491af9d"},"vehicle_type_id":"4","last_reported":1703765553,"current_range_meters":20000,"station_id":"ce4bgih2rcd13ifvqba0","pricing_plan_id":"free"},{"bike_id":"c3edd39f-df4a-4a13-8f56-01e0ce98e3fc","system_id":"levelo_inurba_marseille","lat":43.290779,"lon":5.371482,"is_reserved":false,"is_disabled":false,"rental_uris":{"android":"levelo://app?vid=c3edd39f-df4a-4a13-8f56-01e0ce98e3fc","ios":"levelo://app?vid=c3edd39f-df4a-4a13-8f56-01e0ce98e3fc"},"vehicle_type_id":"4","last_reported":1703765553,"current_range_meters":17200,"station_id":"ce4bh5p2rcd13ifvqe4g","pricing_plan_id":"free"},{"bike_id":"7ae2e869-c19d-4898-8584-64052c702162","system_id":"levelo_inurba_marseille","lat":43.30213,"lon":5.39472,"is_reserved":false,"is_disabled":false,"rental_uris":{"android":"levelo://app?vid=7ae2e869-c19d-4898-8584-64052c702162","ios":"levelo://app?vid=7ae2e869-c19d-4898-8584-64052c702162"},"vehicle_type_id":"4","last_reported":1703765553,"current_range_meters":23200,"station_id":"ce4bh0p2rcd13ifvqd70","pricing_plan_id":"free"},{"bike_id":"6bc88084-946c-4eeb-933d-09f0296b7d34","system_id":"levelo_inurba_marseille","lat":43.302008,"lon":5.394694,"is_reserved":false,"is_disabled":false,"rental_uris":{"android":"levelo://app?vid=6bc88084-946c-4eeb-933d-09f0296b7d34","ios":"levelo://app?vid=6bc88084-946c-4eeb-933d-09f0296b7d34"},"vehicle_type_id":"4","last_reported":1703765553,"current_range_meters":18800,"station_id":"ce4bh0p2rcd13ifvqd70","pricing_plan_id":"free"},{"bike_id":"deb6a5ec-c047-4e79-94dc-ff9d3c8ef71f","system_id":"levelo_inurba_marseille","lat":43.290631,"lon":5.359244,"is_reserved":false,"is_disabled":false,"rental_uris":{"android":"levelo://app?vid=deb6a5ec-c047-4e79-94dc-ff9d3c8ef71f","ios":"levelo://app?vid=deb6a5ec-c047-4e79-94dc-ff9d3c8ef71f"},"vehicle_type_id":"4","last_reported":1703765553,"current_range_meters":30800,"station_id":"ce4bha92rcd13ifvqeg0","pricing_plan_id":"free"},{"bike_id":"2377edd0-f5ff-4da8-a0c3-e1e58678f0e6","system_id":"levelo_inurba_marseille","lat":43.290624,"lon":5.359245,"is_reserved":false,"is_disabled":false,"rental_uris":{"android":"levelo://app?vid=2377edd0-f5ff-4da8-a0c3-e1e58678f0e6","ios":"levelo://app?vid=2377edd0-f5ff-4da8-a0c3-e1e58678f0e6"},"vehicle_type_id":"4","last_reported":1703765553,"current_range_meters":23600,"station_id":"ce4bha92rcd13ifvqeg0","pricing_plan_id":"free"},{"bike_id":"24fd383a-7000-44eb-ae8b-3b141f0c1d58","system_id":"levelo_inurba_marseille","lat":43.290327,"lon":5.375711,"is_reserved":false,"is_disabled":false,"rental_uris":{"android":"levelo://app?vid=24fd383a-7000-44eb-ae8b-3b141f0c1d58","ios":"levelo://app?vid=24fd383a-7000-44eb-ae8b-3b141f0c1d58"},"vehicle_type_id":"4","last_reported":1703765553,"current_range_meters":27600,"station_id":"ce4bh692rcd13ifvqe90","pricing_plan_id":"free"},{"bike_id":"40cf315a-3bd7-4e33-98db-67bf519e6fc0","system_id":"levelo_inurba_marseille","lat":43.294162,"lon":5.386292,"is_reserved":false,"is_disabled":false,"rental_uris":{"android":"levelo://app?vid=40cf315a-3bd7-4e33-98db-67bf519e6fc0","ios":"levelo://app?vid=40cf315a-3bd7-4e33-98db-67bf519e6fc0"},"vehicle_type_id":"4","last_reported":1703765553,"current_range_meters":20400,"station_id":"ce4bh2h2rcd13ifvqdh0","pricing_plan_id":"free"},{"bike_id":"c81463f8-72fa-49ec-a01f-03ec39c46b8d","system_id":"levelo_inurba_marseille","lat":43.294153,"lon":5.386305,"is_reserved":false,"is_disabled":false,"rental_uris":{"android":"levelo://app?vid=c81463f8-72fa-49ec-a01f-03ec39c46b8d","ios":"levelo://app?vid=c81463f8-72fa-49ec-a01f-03ec39c46b8d"},"vehicle_type_id":"4","last_reported":1703765553,"current_range_meters":30800,"station_id":"ce4bh2h2rcd13ifvqdh0","pricing_plan_id":"free"},{"bike_id":"980b65c8-1746-481a-b973-418ebc01a426","system_id":"levelo_inurba_marseille","lat":43.289184,"lon":5.366408,"is_reserved":false,"is_disabled":false,"rental_uris":{"android":"levelo://app?vid=980b65c8-1746-481a-b973-418ebc01a426","ios":"levelo://app?vid=980b65c8-1746-481a-b973-418ebc01a426"},"vehicle_type_id":"4","last_reported":1703765553,"current_range_meters":31200,"station_id":"ce4bhap2rcd13ifvqek0","pricing_plan_id":"free"},{"bike_id":"0672f6b5-f5df-401d-a76e-76b77e0338d5","system_id":"levelo_inurba_marseille","lat":43.304296,"lon":5.397513,"is_reserved":false,"is_disabled":false,"rental_uris":{"android":"levelo://app?vid=0672f6b5-f5df-401d-a76e-76b77e0338d5","ios":"levelo://app?vid=0672f6b5-f5df-401d-a76e-76b77e0338d5"},"vehicle_type_id":"4","last_reported":1703765553,"current_range_meters":23200,"station_id":"ce4bh092rcd13ifvqd20","pricing_plan_id":"free"},{"bike_id":"0e08e7ba-c697-46ef-a3fc-638835deb241","system_id":"levelo_inurba_marseille","lat":43.290995,"lon":5.381361,"is_reserved":false,"is_disabled":false,"rental_uris":{"android":"levelo://app?vid=0e08e7ba-c697-46ef-a3fc-638835deb241","ios":"levelo://app?vid=0e08e7ba-c697-46ef-a3fc-638835deb241"},"vehicle_type_id":"4","last_reported":1703765553,"current_range_meters":25600,"station_id":"ce4bh512rcd13ifvqe2g","pricing_plan_id":"free"},{"bike_id":"51466ba7-a928-43a2-ae7d-6b0784ec14ab","system_id":"levelo_inurba_marseille","lat":43.33017,"lon":5.39042,"is_reserved":false,"is_disabled":false,"rental_uris":{"android":"levelo://app?vid=51466ba7-a928-43a2-ae7d-6b0784ec14ab","ios":"levelo://app?vid=51466ba7-a928-43a2-ae7d-6b0784ec14ab"},"vehicle_type_id":"4","last_reported":1703765553,"current_range_meters":3600,"station_id":"","pricing_plan_id":"free"},{"bike_id":"495faf64-a935-4c6e-b77f-2b296d14493a","system_id":"levelo_inurba_marseille","lat":43.331017,"lon":5.389194,"is_reserved":false,"is_disabled":false,"rental_uris":{"android":"levelo://app?vid=495faf64-a935-4c6e-b77f-2b296d14493a","ios":"levelo://app?vid=495faf64-a935-4c6e-b77f-2b296d14493a"},"vehicle_type_id":"4","last_reported":1703765553,"current_range_meters":12000,"station_id":"","pricing_plan_id":"free"},{"bike_id":"e7e5b367-b928-4b3e-b05f-87b6b3716e8c","system_id":"levelo_inurba_marseille","lat":43.33019,"lon":5.39044,"is_reserved":false,"is_disabled":false,"rental_uris":{"android":"levelo://app?vid=e7e5b367-b928-4b3e-b05f-87b6b3716e8c","ios":"levelo://app?vid=e7e5b367-b928-4b3e-b05f-87b6b3716e8c"},"vehicle_type_id":"4","last_reported":1703765553,"current_range_meters":28800,"station_id":"","pricing_plan_id":"free"},{"bike_id":"da82727f-5090-4dcc-9a39-e49701b0afae","system_id":"levelo_inurba_marseille","lat":43.330442,"lon":5.389148,"is_reserved":false,"is_disabled":false,"rental_uris":{"android":"levelo://app?vid=da82727f-5090-4dcc-9a39-e49701b0afae","ios":"levelo://app?vid=da82727f-5090-4dcc-9a39-e49701b0afae"},"vehicle_type_id":"4","last_reported":1703765553,"current_range_meters":11600,"station_id":"ce4bhr92rcd13ifvqhrg","pricing_plan_id":"free"},{"bike_id":"c34939e6-3810-4375-bc2d-0a340b4abf5b","system_id":"levelo_inurba_marseille","lat":43.28989,"lon":5.37907,"is_reserved":false,"is_disabled":false,"rental_uris":{"android":"levelo://app?vid=c34939e6-3810-4375-bc2d-0a340b4abf5b","ios":"levelo://app?vid=c34939e6-3810-4375-bc2d-0a340b4abf5b"},"vehicle_type_id":"4","last_reported":1703765553,"current_range_meters":30800,"station_id":"","pricing_plan_id":"free"},{"bike_id":"370cccf7-c9ba-46c2-819b-c8e8cacc4c21","system_id":"levelo_inurba_marseille","lat":43.33145,"lon":5.3893,"is_reserved":false,"is_disabled":false,"rental_uris":{"android":"levelo://app?vid=370cccf7-c9ba-46c2-819b-c8e8cacc4c21","ios":"levelo://app?vid=370cccf7-c9ba-46c2-819b-c8e8cacc4c21"},"vehicle_type_id":"4","last_reported":1703765553,"current_range_meters":16400,"station_id":"","pricing_plan_id":"free"},{"bike_id":"0d3fca04-0715-47be-8556-4d097e7f115a","system_id":"levelo_inurba_marseille","lat":43.28856,"lon":5.358371,"is_reserved":false,"is_disabled":false,"rental_uris":{"android":"levelo://app?vid=0d3fca04-0715-47be-8556-4d097e7f115a","ios":"levelo://app?vid=0d3fca04-0715-47be-8556-4d097e7f115a"},"vehicle_type_id":"4","last_reported":1703765553,"current_range_meters":18400,"station_id":"ce4bhb12rcd13ifvqem0","pricing_plan_id":"free"},{"bike_id":"6527c7f7-6149-48e7-abca-3858b30dde19","system_id":"levelo_inurba_marseille","lat":43.28856,"lon":5.358371,"is_reserved":false,"is_disabled":false,"rental_uris":{"android":"levelo://app?vid=6527c7f7-6149-48e7-abca-3858b30dde19","ios":"levelo://app?vid=6527c7f7-6149-48e7-abca-3858b30dde19"},"vehicle_type_id":"4","last_reported":1703765553,"current_range_meters":25600,"station_id":"ce4bhb12rcd13ifvqem0","pricing_plan_id":"free"},{"bike_id":"45e9d267-5c57-452e-993a-c6c7fa826b87","system_id":"levelo_inurba_marseille","lat":43.337518,"lon":5.374408,"is_reserved":false,"is_disabled":false,"rental_uris":{"android":"levelo://app?vid=45e9d267-5c57-452e-993a-c6c7fa826b87","ios":"levelo://app?vid=45e9d267-5c57-452e-993a-c6c7fa826b87"},"vehicle_type_id":"4","last_reported":1703765553,"current_range_meters":23600,"station_id":"","pricing_plan_id":"free"},{"bike_id":"981f9dbf-5820-453e-beb6-8bbddd90c1d2","system_id":"levelo_inurba_marseille","lat":43.337715,"lon":5.374464,"is_reserved":false,"is_disabled":false,"rental_uris":{"android":"levelo://app?vid=981f9dbf-5820-453e-beb6-8bbddd90c1d2","ios":"levelo://app?vid=981f9dbf-5820-453e-beb6-8bbddd90c1d2"},"vehicle_type_id":"4","last_reported":1703765553,"current_range_meters":25200,"station_id":"","pricing_plan_id":"free"},{"bike_id":"7a174c65-aaf3-423d-8308-f60d0660432a","system_id":"levelo_inurba_marseille","lat":43.301117,"lon":5.398795,"is_reserved":false,"is_disabled":false,"rental_uris":{"android":"levelo://app?vid=7a174c65-aaf3-423d-8308-f60d0660432a","ios":"levelo://app?vid=7a174c65-aaf3-423d-8308-f60d0660432a"},"vehicle_type_id":"4","last_reported":1703765553,"current_range_meters":26400,"station_id":"ce4bh0h2rcd13ifvqd40","pricing_plan_id":"free"},{"bike_id":"fd7e0579-d874-4535-a4e5-883ecac48a3b","system_id":"levelo_inurba_marseille","lat":43.30132,"lon":5.39871,"is_reserved":false,"is_disabled":false,"rental_uris":{"android":"levelo://app?vid=fd7e0579-d874-4535-a4e5-883ecac48a3b","ios":"levelo://app?vid=fd7e0579-d874-4535-a4e5-883ecac48a3b"},"vehicle_type_id":"4","last_reported":1703765553,"current_range_meters":10800,"station_id":"ce4bh0h2rcd13ifvqd40","pricing_plan_id":"free"},{"bike_id":"395b4c6b-2846-48f8-adf3-a7b6e4defa20","system_id":"levelo_inurba_marseille","lat":43.28727,"lon":5.36078,"is_reserved":false,"is_disabled":false,"rental_uris":{"android":"levelo://app?vid=395b4c6b-2846-48f8-adf3-a7b6e4defa20","ios":"levelo://app?vid=395b4c6b-2846-48f8-adf3-a7b6e4defa20"},"vehicle_type_id":"4","last_reported":1703765553,"current_range_meters":31600,"station_id":"cki0cbj6b192h4jlfktg","pricing_plan_id":"free"},{"bike_id":"b75e4198-b7db-43b7-87c3-9a4a7849ef41","system_id":"levelo_inurba_marseille","lat":43.295196,"lon":5.39397,"is_reserved":false,"is_disabled":false,"rental_uris":{"android":"levelo://app?vid=b75e4198-b7db-43b7-87c3-9a4a7849ef41","ios":"levelo://app?vid=b75e4198-b7db-43b7-87c3-9a4a7849ef41"},"vehicle_type_id":"4","last_reported":1703765553,"current_range_meters":24400,"station_id":"ce4bh292rcd13ifvqdf0","pricing_plan_id":"free"},{"bike_id":"908cdcf3-0b57-4d62-93bc-a0520031d11a","system_id":"levelo_inurba_marseille","lat":43.289307,"lon":5.38406,"is_reserved":false,"is_disabled":false,"rental_uris":{"android":"levelo://app?vid=908cdcf3-0b57-4d62-93bc-a0520031d11a","ios":"levelo://app?vid=908cdcf3-0b57-4d62-93bc-a0520031d11a"},"vehicle_type_id":"4","last_reported":1703765553,"current_range_meters":8000,"station_id":"ce4bh612rcd13ifvqe6g","pricing_plan_id":"free"},{"bike_id":"850585be-e654-4880-be19-26ef265f65da","system_id":"levelo_inurba_marseille","lat":43.290336,"lon":5.386425,"is_reserved":false,"is_disabled":false,"rental_uris":{"android":"levelo://app?vid=850585be-e654-4880-be19-26ef265f65da","ios":"levelo://app?vid=850585be-e654-4880-be19-26ef265f65da"},"vehicle_type_id":"4","last_reported":1703765553,"current_range_meters":23200,"station_id":"ce4bh4p2rcd13ifvqe0g","pricing_plan_id":"free"},{"bike_id":"e4b32aa9-4748-45e3-8440-e9f2246f3b09","system_id":"levelo_inurba_marseille","lat":43.289307,"lon":5.38406,"is_reserved":false,"is_disabled":false,"rental_uris":{"android":"levelo://app?vid=e4b32aa9-4748-45e3-8440-e9f2246f3b09","ios":"levelo://app?vid=e4b32aa9-4748-45e3-8440-e9f2246f3b09"},"vehicle_type_id":"4","last_reported":1703765553,"current_range_meters":30000,"station_id":"ce4bh612rcd13ifvqe6g","pricing_plan_id":"free"},{"bike_id":"700314e9-731d-4f7e-829b-acbec09b8469","system_id":"levelo_inurba_marseille","lat":43.289307,"lon":5.38406,"is_reserved":false,"is_disabled":false,"rental_uris":{"android":"levelo://app?vid=700314e9-731d-4f7e-829b-acbec09b8469","ios":"levelo://app?vid=700314e9-731d-4f7e-829b-acbec09b8469"},"vehicle_type_id":"4","last_reported":1703765553,"current_range_meters":23600,"station_id":"ce4bh612rcd13ifvqe6g","pricing_plan_id":"free"},{"bike_id":"ca50650b-105e-4057-97d9-35c4343abe55","system_id":"levelo_inurba_marseille","lat":43.290345,"lon":5.38646,"is_reserved":false,"is_disabled":false,"rental_uris":{"android":"levelo://app?vid=ca50650b-105e-4057-97d9-35c4343abe55","ios":"levelo://app?vid=ca50650b-105e-4057-97d9-35c4343abe55"},"vehicle_type_id":"4","last_reported":1703765553,"current_range_meters":26800,"station_id":"ce4bh4p2rcd13ifvqe0g","pricing_plan_id":"free"},{"bike_id":"e480ee7f-a7fe-4f92-880c-6ee1da41ca03","system_id":"levelo_inurba_marseille","lat":43.286039,"lon":5.370681,"is_reserved":false,"is_disabled":false,"rental_uris":{"android":"levelo://app?vid=e480ee7f-a7fe-4f92-880c-6ee1da41ca03","ios":"levelo://app?vid=e480ee7f-a7fe-4f92-880c-6ee1da41ca03"},"vehicle_type_id":"4","last_reported":1703765553,"current_range_meters":21200,"station_id":"ce4bht12rcd13ifvqi60","pricing_plan_id":"free"},{"bike_id":"8e5846d3-9037-48fa-9ee2-cdfb769121b9","system_id":"levelo_inurba_marseille","lat":43.292644,"lon":5.384257,"is_reserved":false,"is_disabled":false,"rental_uris":{"android":"levelo://app?vid=8e5846d3-9037-48fa-9ee2-cdfb769121b9","ios":"levelo://app?vid=8e5846d3-9037-48fa-9ee2-cdfb769121b9"},"vehicle_type_id":"4","last_reported":1703765553,"current_range_meters":23200,"station_id":"ce4bh692rcd13ifvqea0","pricing_plan_id":"free"},{"bike_id":"33e0b2b9-08b5-498d-bf2e-75a05b0f5800","system_id":"levelo_inurba_marseille","lat":43.289307,"lon":5.38406,"is_reserved":false,"is_disabled":false,"rental_uris":{"android":"levelo://app?vid=33e0b2b9-08b5-498d-bf2e-75a05b0f5800","ios":"levelo://app?vid=33e0b2b9-08b5-498d-bf2e-75a05b0f5800"},"vehicle_type_id":"4","last_reported":1703765553,"current_range_meters":30800,"station_id":"ce4bh612rcd13ifvqe6g","pricing_plan_id":"free"},{"bike_id":"aac00441-5e5c-4474-92e6-e699a3867bae","system_id":"levelo_inurba_marseille","lat":43.285826,"lon":5.360228,"is_reserved":false,"is_disabled":false,"rental_uris":{"android":"levelo://app?vid=aac00441-5e5c-4474-92e6-e699a3867bae","ios":"levelo://app?vid=aac00441-5e5c-4474-92e6-e699a3867bae"},"vehicle_type_id":"4","last_reported":1703765553,"current_range_meters":30800,"station_id":"","pricing_plan_id":"free"},{"bike_id":"9657a810-1465-4411-b54c-8d08414d9d6c","system_id":"levelo_inurba_marseille","lat":43.291994,"lon":5.392907,"is_reserved":false,"is_disabled":false,"rental_uris":{"android":"levelo://app?vid=9657a810-1465-4411-b54c-8d08414d9d6c","ios":"levelo://app?vid=9657a810-1465-4411-b54c-8d08414d9d6c"},"vehicle_type_id":"4","last_reported":1703765553,"current_range_meters":20000,"station_id":"ce4bh192rcd13ifvqdd0","pricing_plan_id":"free"},{"bike_id":"0256bb70-c1ff-4124-bf1c-5ef8846c6e12","system_id":"levelo_inurba_marseille","lat":43.287154,"lon":5.399979,"is_reserved":false,"is_disabled":false,"rental_uris":{"android":"levelo://app?vid=0256bb70-c1ff-4124-bf1c-5ef8846c6e12","ios":"levelo://app?vid=0256bb70-c1ff-4124-bf1c-5ef8846c6e12"},"vehicle_type_id":"4","last_reported":1703765553,"current_range_meters":27600,"station_id":"ce4bho92rcd13ifvqh3g","pricing_plan_id":"free"},{"bike_id":"5f553f8c-5858-4589-8022-0bfc6fee3785","system_id":"levelo_inurba_marseille","lat":43.284538,"lon":5.358657,"is_reserved":false,"is_disabled":false,"rental_uris":{"android":"levelo://app?vid=5f553f8c-5858-4589-8022-0bfc6fee3785","ios":"levelo://app?vid=5f553f8c-5858-4589-8022-0bfc6fee3785"},"vehicle_type_id":"4","last_reported":1703765553,"current_range_meters":18800,"station_id":"ce4bhah2rcd13ifvqei0","pricing_plan_id":"free"},{"bike_id":"0c83c30a-5edb-4267-a375-5b3dcef28624","system_id":"levelo_inurba_marseille","lat":43.294314,"lon":5.397498,"is_reserved":false,"is_disabled":false,"rental_uris":{"android":"levelo://app?vid=0c83c30a-5edb-4267-a375-5b3dcef28624","ios":"levelo://app?vid=0c83c30a-5edb-4267-a375-5b3dcef28624"},"vehicle_type_id":"4","last_reported":1703765553,"current_range_meters":18400,"station_id":"ce4bh3h2rcd13ifvqdo0","pricing_plan_id":"free"},{"bike_id":"aea6882a-18fd-4ddf-9158-752cbfbb3f9d","system_id":"levelo_inurba_marseille","lat":43.285848,"lon":5.350787,"is_reserved":false,"is_disabled":false,"rental_uris":{"android":"levelo://app?vid=aea6882a-18fd-4ddf-9158-752cbfbb3f9d","ios":"levelo://app?vid=aea6882a-18fd-4ddf-9158-752cbfbb3f9d"},"vehicle_type_id":"4","last_reported":1703765553,"current_range_meters":23200,"station_id":"ce4bhch2rcd13ifvqeug","pricing_plan_id":"free"},{"bike_id":"cd1c23c7-fdb6-4ec1-a939-b21ee14750a7","system_id":"levelo_inurba_marseille","lat":43.286595,"lon":5.386795,"is_reserved":false,"is_disabled":false,"rental_uris":{"android":"levelo://app?vid=cd1c23c7-fdb6-4ec1-a939-b21ee14750a7","ios":"levelo://app?vid=cd1c23c7-fdb6-4ec1-a939-b21ee14750a7"},"vehicle_type_id":"4","last_reported":1703765553,"current_range_meters":29200,"station_id":"ce4bh492rcd13ifvqdug","pricing_plan_id":"free"},{"bike_id":"56eac566-c2f2-42b4-971b-f675e605a84b","system_id":"levelo_inurba_marseille","lat":43.286595,"lon":5.386795,"is_reserved":false,"is_disabled":false,"rental_uris":{"android":"levelo://app?vid=56eac566-c2f2-42b4-971b-f675e605a84b","ios":"levelo://app?vid=56eac566-c2f2-42b4-971b-f675e605a84b"},"vehicle_type_id":"4","last_reported":1703765553,"current_range_meters":30400,"station_id":"ce4bh492rcd13ifvqdug","pricing_plan_id":"free"},{"bike_id":"7510080d-af49-4281-80b0-457720854c57","system_id":"levelo_inurba_marseille","lat":43.28741,"lon":5.38986,"is_reserved":false,"is_disabled":false,"rental_uris":{"android":"levelo://app?vid=7510080d-af49-4281-80b0-457720854c57","ios":"levelo://app?vid=7510080d-af49-4281-80b0-457720854c57"},"vehicle_type_id":"4","last_reported":1703765553,"current_range_meters":0,"station_id":"","pricing_plan_id":"free"},{"bike_id":"88a90eb6-df1d-4c20-8e42-f03f5a6f3a0d","system_id":"levelo_inurba_marseille","lat":43.337225,"lon":5.391771,"is_reserved":false,"is_disabled":false,"rental_uris":{"android":"levelo://app?vid=88a90eb6-df1d-4c20-8e42-f03f5a6f3a0d","ios":"levelo://app?vid=88a90eb6-df1d-4c20-8e42-f03f5a6f3a0d"},"vehicle_type_id":"4","last_reported":1703765553,"current_range_meters":12000,"station_id":"ce4bhr92rcd13ifvqhsg","pricing_plan_id":"free"},{"bike_id":"381844c3-e025-4ad4-8b5b-45e3143ae1c8","system_id":"levelo_inurba_marseille","lat":43.323464,"lon":5.406297,"is_reserved":false,"is_disabled":false,"rental_uris":{"android":"levelo://app?vid=381844c3-e025-4ad4-8b5b-45e3143ae1c8","ios":"levelo://app?vid=381844c3-e025-4ad4-8b5b-45e3143ae1c8"},"vehicle_type_id":"4","last_reported":1703765553,"current_range_meters":20000,"station_id":"ce4bhq92rcd13ifvqhjg","pricing_plan_id":"free"},{"bike_id":"4982c8c4-23bc-476f-9042-7ca49d1ac40a","system_id":"levelo_inurba_marseille","lat":43.323464,"lon":5.406297,"is_reserved":false,"is_disabled":false,"rental_uris":{"android":"levelo://app?vid=4982c8c4-23bc-476f-9042-7ca49d1ac40a","ios":"levelo://app?vid=4982c8c4-23bc-476f-9042-7ca49d1ac40a"},"vehicle_type_id":"4","last_reported":1703765553,"current_range_meters":30400,"station_id":"ce4bhq92rcd13ifvqhjg","pricing_plan_id":"free"},{"bike_id":"f35273e1-491a-4fe3-8ec9-0138553acebe","system_id":"levelo_inurba_marseille","lat":43.284793,"lon":5.384113,"is_reserved":false,"is_disabled":false,"rental_uris":{"android":"levelo://app?vid=f35273e1-491a-4fe3-8ec9-0138553acebe","ios":"levelo://app?vid=f35273e1-491a-4fe3-8ec9-0138553acebe"},"vehicle_type_id":"4","last_reported":1703765553,"current_range_meters":10800,"station_id":"ce4bh512rcd13ifvqe3g","pricing_plan_id":"free"},{"bike_id":"868edb36-8f3c-4579-8ea4-48dcb60cb694","system_id":"levelo_inurba_marseille","lat":43.284793,"lon":5.384113,"is_reserved":false,"is_disabled":false,"rental_uris":{"android":"levelo://app?vid=868edb36-8f3c-4579-8ea4-48dcb60cb694","ios":"levelo://app?vid=868edb36-8f3c-4579-8ea4-48dcb60cb694"},"vehicle_type_id":"4","last_reported":1703765553,"current_range_meters":16400,"station_id":"ce4bh512rcd13ifvqe3g","pricing_plan_id":"free"},{"bike_id":"d2fd7dc8-9566-4ba1-881e-d08271192d38","system_id":"levelo_inurba_marseille","lat":43.297946,"lon":5.404063,"is_reserved":false,"is_disabled":false,"rental_uris":{"android":"levelo://app?vid=d2fd7dc8-9566-4ba1-881e-d08271192d38","ios":"levelo://app?vid=d2fd7dc8-9566-4ba1-881e-d08271192d38"},"vehicle_type_id":"4","last_reported":1703765553,"current_range_meters":30000,"station_id":"ce4bh112rcd13ifvqd90","pricing_plan_id":"free"},{"bike_id":"e485450b-2736-4f4c-b94b-0da5a69b88aa","system_id":"levelo_inurba_marseille","lat":43.33385,"lon":5.39822,"is_reserved":false,"is_disabled":false,"rental_uris":{"android":"levelo://app?vid=e485450b-2736-4f4c-b94b-0da5a69b88aa","ios":"levelo://app?vid=e485450b-2736-4f4c-b94b-0da5a69b88aa"},"vehicle_type_id":"4","last_reported":1703765553,"current_range_meters":14800,"station_id":"","pricing_plan_id":"free"},{"bike_id":"d60802d6-4f47-444a-b234-883690eec05b","system_id":"levelo_inurba_marseille","lat":43.33432,"lon":5.39786,"is_reserved":false,"is_disabled":false,"rental_uris":{"android":"levelo://app?vid=d60802d6-4f47-444a-b234-883690eec05b","ios":"levelo://app?vid=d60802d6-4f47-444a-b234-883690eec05b"},"vehicle_type_id":"4","last_reported":1703765553,"current_range_meters":30000,"station_id":"","pricing_plan_id":"free"},{"bike_id":"a9f87e4b-eb55-4868-bd1b-26772c86abf3","system_id":"levelo_inurba_marseille","lat":43.292724,"lon":5.401131,"is_reserved":false,"is_disabled":false,"rental_uris":{"android":"levelo://app?vid=a9f87e4b-eb55-4868-bd1b-26772c86abf3","ios":"levelo://app?vid=a9f87e4b-eb55-4868-bd1b-26772c86abf3"},"vehicle_type_id":"4","last_reported":1703765553,"current_range_meters":28000,"station_id":"ce4bh312rcd13ifvqdk0","pricing_plan_id":"free"},{"bike_id":"2b5bf73f-21e0-4398-bfdc-d4b3e07fd2e2","system_id":"levelo_inurba_marseille","lat":43.292724,"lon":5.401131,"is_reserved":false,"is_disabled":false,"rental_uris":{"android":"levelo://app?vid=2b5bf73f-21e0-4398-bfdc-d4b3e07fd2e2","ios":"levelo://app?vid=2b5bf73f-21e0-4398-bfdc-d4b3e07fd2e2"},"vehicle_type_id":"4","last_reported":1703765553,"current_range_meters":10800,"station_id":"ce4bh312rcd13ifvqdk0","pricing_plan_id":"free"},{"bike_id":"b60b40e3-0fc6-47f4-8a0f-39cf06bb05d0","system_id":"levelo_inurba_marseille","lat":43.283502,"lon":5.386471,"is_reserved":false,"is_disabled":false,"rental_uris":{"android":"levelo://app?vid=b60b40e3-0fc6-47f4-8a0f-39cf06bb05d0","ios":"levelo://app?vid=b60b40e3-0fc6-47f4-8a0f-39cf06bb05d0"},"vehicle_type_id":"4","last_reported":1703765553,"current_range_meters":5600,"station_id":"ce4bh492rcd13ifvqdvg","pricing_plan_id":"free"},{"bike_id":"331aa8c6-011b-47d6-9484-a6a76611fc0e","system_id":"levelo_inurba_marseille","lat":43.283502,"lon":5.386471,"is_reserved":false,"is_disabled":false,"rental_uris":{"android":"levelo://app?vid=331aa8c6-011b-47d6-9484-a6a76611fc0e","ios":"levelo://app?vid=331aa8c6-011b-47d6-9484-a6a76611fc0e"},"vehicle_type_id":"4","last_reported":1703765553,"current_range_meters":25600,"station_id":"ce4bh492rcd13ifvqdvg","pricing_plan_id":"free"},{"bike_id":"b1a95e8b-5ba2-4cd0-a675-aae9543f0551","system_id":"levelo_inurba_marseille","lat":43.283502,"lon":5.386471,"is_reserved":false,"is_disabled":false,"rental_uris":{"android":"levelo://app?vid=b1a95e8b-5ba2-4cd0-a675-aae9543f0551","ios":"levelo://app?vid=b1a95e8b-5ba2-4cd0-a675-aae9543f0551"},"vehicle_type_id":"4","last_reported":1703765553,"current_range_meters":19600,"station_id":"ce4bh492rcd13ifvqdvg","pricing_plan_id":"free"},{"bike_id":"4091593c-283c-4812-9919-0bd175a1bffb","system_id":"levelo_inurba_marseille","lat":43.280382,"lon":5.369291,"is_reserved":false,"is_disabled":false,"rental_uris":{"android":"levelo://app?vid=4091593c-283c-4812-9919-0bd175a1bffb","ios":"levelo://app?vid=4091593c-283c-4812-9919-0bd175a1bffb"},"vehicle_type_id":"4","last_reported":1703765553,"current_range_meters":31600,"station_id":"ce4bha12rcd13ifvqef0","pricing_plan_id":"free"},{"bike_id":"8f0c165c-aafe-4756-983a-81f662a576c2","system_id":"levelo_inurba_marseille","lat":43.281044,"lon":5.378308,"is_reserved":false,"is_disabled":false,"rental_uris":{"android":"levelo://app?vid=8f0c165c-aafe-4756-983a-81f662a576c2","ios":"levelo://app?vid=8f0c165c-aafe-4756-983a-81f662a576c2"},"vehicle_type_id":"4","last_reported":1703765553,"current_range_meters":28400,"station_id":"ce4bha12rcd13ifvqee0","pricing_plan_id":"free"},{"bike_id":"d84f4cc0-0e49-4c00-b5ed-013c1bfad6d8","system_id":"levelo_inurba_marseille","lat":43.281044,"lon":5.378308,"is_reserved":false,"is_disabled":false,"rental_uris":{"android":"levelo://app?vid=d84f4cc0-0e49-4c00-b5ed-013c1bfad6d8","ios":"levelo://app?vid=d84f4cc0-0e49-4c00-b5ed-013c1bfad6d8"},"vehicle_type_id":"4","last_reported":1703765553,"current_range_meters":25600,"station_id":"ce4bha12rcd13ifvqee0","pricing_plan_id":"free"},{"bike_id":"d978e552-d01e-446e-a6c6-1d3d87b4c55a","system_id":"levelo_inurba_marseille","lat":43.296263,"lon":5.40601,"is_reserved":false,"is_disabled":false,"rental_uris":{"android":"levelo://app?vid=d978e552-d01e-446e-a6c6-1d3d87b4c55a","ios":"levelo://app?vid=d978e552-d01e-446e-a6c6-1d3d87b4c55a"},"vehicle_type_id":"4","last_reported":1703765553,"current_range_meters":22000,"station_id":"ce4bh0h2rcd13ifvqd60","pricing_plan_id":"free"},{"bike_id":"6e5a96e7-864c-4dd9-9b18-c703477660cd","system_id":"levelo_inurba_marseille","lat":43.284462,"lon":5.392121,"is_reserved":false,"is_disabled":false,"rental_uris":{"android":"levelo://app?vid=6e5a96e7-864c-4dd9-9b18-c703477660cd","ios":"levelo://app?vid=6e5a96e7-864c-4dd9-9b18-c703477660cd"},"vehicle_type_id":"4","last_reported":1703765553,"current_range_meters":25200,"station_id":"ce4bhoh2rcd13ifvqh5g","pricing_plan_id":"free"},{"bike_id":"687d49f6-c503-4b1d-a16e-7587a50a51f3","system_id":"levelo_inurba_marseille","lat":43.28573,"lon":5.394992,"is_reserved":false,"is_disabled":false,"rental_uris":{"android":"levelo://app?vid=687d49f6-c503-4b1d-a16e-7587a50a51f3","ios":"levelo://app?vid=687d49f6-c503-4b1d-a16e-7587a50a51f3"},"vehicle_type_id":"4","last_reported":1703765553,"current_range_meters":30000,"station_id":"ce4bh292rcd13ifvqdg0","pricing_plan_id":"free"},{"bike_id":"bfc1f4c5-a47e-497b-9b0e-0e0905bcd04f","system_id":"levelo_inurba_marseille","lat":43.285742,"lon":5.395004,"is_reserved":false,"is_disabled":false,"rental_uris":{"android":"levelo://app?vid=bfc1f4c5-a47e-497b-9b0e-0e0905bcd04f","ios":"levelo://app?vid=bfc1f4c5-a47e-497b-9b0e-0e0905bcd04f"},"vehicle_type_id":"4","last_reported":1703765553,"current_range_meters":23200,"station_id":"ce4bh292rcd13ifvqdg0","pricing_plan_id":"free"},{"bike_id":"34a0d6e8-236f-4f4d-ab5e-e45a1fb6a153","system_id":"levelo_inurba_marseille","lat":43.326605,"lon":5.409903,"is_reserved":false,"is_disabled":false,"rental_uris":{"android":"levelo://app?vid=34a0d6e8-236f-4f4d-ab5e-e45a1fb6a153","ios":"levelo://app?vid=34a0d6e8-236f-4f4d-ab5e-e45a1fb6a153"},"vehicle_type_id":"4","last_reported":1703765553,"current_range_meters":28800,"station_id":"ce4bhpp2rcd13ifvqhgg","pricing_plan_id":"free"},{"bike_id":"c9d73eed-5888-4e39-be0e-da9a3b48d0b3","system_id":"levelo_inurba_marseille","lat":43.283633,"lon":5.392028,"is_reserved":false,"is_disabled":false,"rental_uris":{"android":"levelo://app?vid=c9d73eed-5888-4e39-be0e-da9a3b48d0b3","ios":"levelo://app?vid=c9d73eed-5888-4e39-be0e-da9a3b48d0b3"},"vehicle_type_id":"4","last_reported":1703765553,"current_range_meters":19200,"station_id":"","pricing_plan_id":"free"},{"bike_id":"da6049ec-8673-4273-b2fc-20efaa880ee2","system_id":"levelo_inurba_marseille","lat":43.30413,"lon":5.41282,"is_reserved":false,"is_disabled":false,"rental_uris":{"android":"levelo://app?vid=da6049ec-8673-4273-b2fc-20efaa880ee2","ios":"levelo://app?vid=da6049ec-8673-4273-b2fc-20efaa880ee2"},"vehicle_type_id":"4","last_reported":1703765553,"current_range_meters":30000,"station_id":"ce4bhop2rcd13ifvqh8g","pricing_plan_id":"free"},{"bike_id":"694ad407-7238-4062-89a8-4125ccd97cc0","system_id":"levelo_inurba_marseille","lat":43.304113,"lon":5.412816,"is_reserved":false,"is_disabled":false,"rental_uris":{"android":"levelo://app?vid=694ad407-7238-4062-89a8-4125ccd97cc0","ios":"levelo://app?vid=694ad407-7238-4062-89a8-4125ccd97cc0"},"vehicle_type_id":"4","last_reported":1703765553,"current_range_meters":30000,"station_id":"ce4bhop2rcd13ifvqh8g","pricing_plan_id":"free"},{"bike_id":"19035fd2-4552-46c6-b932-e107c071d9fb","system_id":"levelo_inurba_marseille","lat":43.304188,"lon":5.412904,"is_reserved":false,"is_disabled":false,"rental_uris":{"android":"levelo://app?vid=19035fd2-4552-46c6-b932-e107c071d9fb","ios":"levelo://app?vid=19035fd2-4552-46c6-b932-e107c071d9fb"},"vehicle_type_id":"4","last_reported":1703765553,"current_range_meters":29600,"station_id":"ce4bhop2rcd13ifvqh8g","pricing_plan_id":"free"},{"bike_id":"add929be-8f57-4ef0-8f4e-69fe31a41307","system_id":"levelo_inurba_marseille","lat":43.279087,"lon":5.380114,"is_reserved":false,"is_disabled":false,"rental_uris":{"android":"levelo://app?vid=add929be-8f57-4ef0-8f4e-69fe31a41307","ios":"levelo://app?vid=add929be-8f57-4ef0-8f4e-69fe31a41307"},"vehicle_type_id":"4","last_reported":1703765553,"current_range_meters":22800,"station_id":"ce4bhf92rcd13ifvqf50","pricing_plan_id":"free"},{"bike_id":"6dc0be55-9cb6-4902-813b-4d91432fd0bf","system_id":"levelo_inurba_marseille","lat":43.287154,"lon":5.399979,"is_reserved":false,"is_disabled":false,"rental_uris":{"android":"levelo://app?vid=6dc0be55-9cb6-4902-813b-4d91432fd0bf","ios":"levelo://app?vid=6dc0be55-9cb6-4902-813b-4d91432fd0bf"},"vehicle_type_id":"4","last_reported":1703765553,"current_range_meters":5600,"station_id":"ce4bho92rcd13ifvqh3g","pricing_plan_id":"free"},{"bike_id":"bf16c117-d788-449d-9785-2d9427c4588b","system_id":"levelo_inurba_marseille","lat":43.292571,"lon":5.409107,"is_reserved":false,"is_disabled":false,"rental_uris":{"android":"levelo://app?vid=bf16c117-d788-449d-9785-2d9427c4588b","ios":"levelo://app?vid=bf16c117-d788-449d-9785-2d9427c4588b"},"vehicle_type_id":"4","last_reported":1703765553,"current_range_meters":28400,"station_id":"ce4bh192rcd13ifvqdc0","pricing_plan_id":"free"},{"bike_id":"f02eebdf-8a63-42e3-8884-2ab43371ba7e","system_id":"levelo_inurba_marseille","lat":43.292569,"lon":5.409107,"is_reserved":false,"is_disabled":false,"rental_uris":{"android":"levelo://app?vid=f02eebdf-8a63-42e3-8884-2ab43371ba7e","ios":"levelo://app?vid=f02eebdf-8a63-42e3-8884-2ab43371ba7e"},"vehicle_type_id":"4","last_reported":1703765553,"current_range_meters":30000,"station_id":"ce4bh192rcd13ifvqdc0","pricing_plan_id":"free"},{"bike_id":"e984c370-80a5-4a6a-903a-386ed26f06ca","system_id":"levelo_inurba_marseille","lat":43.325233,"lon":5.414318,"is_reserved":false,"is_disabled":false,"rental_uris":{"android":"levelo://app?vid=e984c370-80a5-4a6a-903a-386ed26f06ca","ios":"levelo://app?vid=e984c370-80a5-4a6a-903a-386ed26f06ca"},"vehicle_type_id":"4","last_reported":1703765553,"current_range_meters":15200,"station_id":"ce4bhq12rcd13ifvqhhg","pricing_plan_id":"free"},{"bike_id":"f5c6e5c0-30a4-4147-95a6-6c61538fe047","system_id":"levelo_inurba_marseille","lat":43.292569,"lon":5.409107,"is_reserved":false,"is_disabled":false,"rental_uris":{"android":"levelo://app?vid=f5c6e5c0-30a4-4147-95a6-6c61538fe047","ios":"levelo://app?vid=f5c6e5c0-30a4-4147-95a6-6c61538fe047"},"vehicle_type_id":"4","last_reported":1703765553,"current_range_meters":13200,"station_id":"ce4bh192rcd13ifvqdc0","pricing_plan_id":"free"},{"bike_id":"91832cf9-f83e-4d42-9301-b0b79dc75429","system_id":"levelo_inurba_marseille","lat":43.278399,"lon":5.392139,"is_reserved":false,"is_disabled":false,"rental_uris":{"android":"levelo://app?vid=91832cf9-f83e-4d42-9301-b0b79dc75429","ios":"levelo://app?vid=91832cf9-f83e-4d42-9301-b0b79dc75429"},"vehicle_type_id":"4","last_reported":1703765553,"current_range_meters":7200,"station_id":"ce4bhjp2rcd13ifvqga0","pricing_plan_id":"free"},{"bike_id":"fbd54234-6abf-4cb9-8df8-0beeb82122ac","system_id":"levelo_inurba_marseille","lat":43.273613,"lon":5.362705,"is_reserved":false,"is_disabled":false,"rental_uris":{"android":"levelo://app?vid=fbd54234-6abf-4cb9-8df8-0beeb82122ac","ios":"levelo://app?vid=fbd54234-6abf-4cb9-8df8-0beeb82122ac"},"vehicle_type_id":"4","last_reported":1703765553,"current_range_meters":27600,"station_id":"ce4bhbh2rcd13ifvqeo0","pricing_plan_id":"free"},{"bike_id":"36f8c0dc-d6e5-4583-9c9d-2c50ad21ef00","system_id":"levelo_inurba_marseille","lat":43.273609,"lon":5.362708,"is_reserved":false,"is_disabled":false,"rental_uris":{"android":"levelo://app?vid=36f8c0dc-d6e5-4583-9c9d-2c50ad21ef00","ios":"levelo://app?vid=36f8c0dc-d6e5-4583-9c9d-2c50ad21ef00"},"vehicle_type_id":"4","last_reported":1703765553,"current_range_meters":28400,"station_id":"ce4bhbh2rcd13ifvqeo0","pricing_plan_id":"free"},{"bike_id":"128460c8-a580-4c04-bf7f-2160cdc6547d","system_id":"levelo_inurba_marseille","lat":43.336148,"lon":5.410349,"is_reserved":false,"is_disabled":false,"rental_uris":{"android":"levelo://app?vid=128460c8-a580-4c04-bf7f-2160cdc6547d","ios":"levelo://app?vid=128460c8-a580-4c04-bf7f-2160cdc6547d"},"vehicle_type_id":"4","last_reported":1703765553,"current_range_meters":10800,"station_id":"ce4bhqh2rcd13ifvqhmg","pricing_plan_id":"free"},{"bike_id":"96a28984-4c3e-47e0-88f0-9c67139f4c60","system_id":"levelo_inurba_marseille","lat":43.275625,"lon":5.384392,"is_reserved":false,"is_disabled":false,"rental_uris":{"android":"levelo://app?vid=96a28984-4c3e-47e0-88f0-9c67139f4c60","ios":"levelo://app?vid=96a28984-4c3e-47e0-88f0-9c67139f4c60"},"vehicle_type_id":"4","last_reported":1703765553,"current_range_meters":20400,"station_id":"ce4bhh92rcd13ifvqfi0","pricing_plan_id":"free"},{"bike_id":"793b98d4-6f9a-4e8d-93b6-96556e19b068","system_id":"levelo_inurba_marseille","lat":43.275625,"lon":5.384392,"is_reserved":false,"is_disabled":false,"rental_uris":{"android":"levelo://app?vid=793b98d4-6f9a-4e8d-93b6-96556e19b068","ios":"levelo://app?vid=793b98d4-6f9a-4e8d-93b6-96556e19b068"},"vehicle_type_id":"4","last_reported":1703765553,"current_range_meters":30800,"station_id":"ce4bhh92rcd13ifvqfi0","pricing_plan_id":"free"},{"bike_id":"2fd4f203-14b6-43f2-9b52-ce087c389b77","system_id":"levelo_inurba_marseille","lat":43.276771,"lon":5.388799,"is_reserved":false,"is_disabled":false,"rental_uris":{"android":"levelo://app?vid=2fd4f203-14b6-43f2-9b52-ce087c389b77","ios":"levelo://app?vid=2fd4f203-14b6-43f2-9b52-ce087c389b77"},"vehicle_type_id":"4","last_reported":1703765553,"current_range_meters":28800,"station_id":"ce4bhi12rcd13ifvqfo0","pricing_plan_id":"free"},{"bike_id":"3f302edb-3ace-4ffa-86b1-41d833c4ed69","system_id":"levelo_inurba_marseille","lat":43.276771,"lon":5.388799,"is_reserved":false,"is_disabled":false,"rental_uris":{"android":"levelo://app?vid=3f302edb-3ace-4ffa-86b1-41d833c4ed69","ios":"levelo://app?vid=3f302edb-3ace-4ffa-86b1-41d833c4ed69"},"vehicle_type_id":"4","last_reported":1703765553,"current_range_meters":26800,"station_id":"ce4bhi12rcd13ifvqfo0","pricing_plan_id":"free"},{"bike_id":"47c4a75a-9589-431f-9913-07cae62c1708","system_id":"levelo_inurba_marseille","lat":43.276348,"lon":5.389433,"is_reserved":false,"is_disabled":false,"rental_uris":{"android":"levelo://app?vid=47c4a75a-9589-431f-9913-07cae62c1708","ios":"levelo://app?vid=47c4a75a-9589-431f-9913-07cae62c1708"},"vehicle_type_id":"4","last_reported":1703765553,"current_range_meters":14000,"station_id":"","pricing_plan_id":"free"},{"bike_id":"8c260070-3888-46e0-9c82-233ab07c1fef","system_id":"levelo_inurba_marseille","lat":43.279975,"lon":5.40009,"is_reserved":false,"is_disabled":false,"rental_uris":{"android":"levelo://app?vid=8c260070-3888-46e0-9c82-233ab07c1fef","ios":"levelo://app?vid=8c260070-3888-46e0-9c82-233ab07c1fef"},"vehicle_type_id":"4","last_reported":1703765553,"current_range_meters":30400,"station_id":"ce4bho92rcd13ifvqh4g","pricing_plan_id":"free"},{"bike_id":"93a48291-1459-44a0-8431-543a44830d5f","system_id":"levelo_inurba_marseille","lat":43.279975,"lon":5.40009,"is_reserved":false,"is_disabled":false,"rental_uris":{"android":"levelo://app?vid=93a48291-1459-44a0-8431-543a44830d5f","ios":"levelo://app?vid=93a48291-1459-44a0-8431-543a44830d5f"},"vehicle_type_id":"4","last_reported":1703765553,"current_range_meters":6400,"station_id":"ce4bho92rcd13ifvqh4g","pricing_plan_id":"free"},{"bike_id":"12915678-f2ca-4866-a195-a1e5afe0d7bf","system_id":"levelo_inurba_marseille","lat":43.279975,"lon":5.40009,"is_reserved":false,"is_disabled":false,"rental_uris":{"android":"levelo://app?vid=12915678-f2ca-4866-a195-a1e5afe0d7bf","ios":"levelo://app?vid=12915678-f2ca-4866-a195-a1e5afe0d7bf"},"vehicle_type_id":"4","last_reported":1703765553,"current_range_meters":14800,"station_id":"ce4bho92rcd13ifvqh4g","pricing_plan_id":"free"},{"bike_id":"f882c7a5-35a4-48ee-8041-43f976c14bb5","system_id":"levelo_inurba_marseille","lat":43.27993,"lon":5.40021,"is_reserved":false,"is_disabled":false,"rental_uris":{"android":"levelo://app?vid=f882c7a5-35a4-48ee-8041-43f976c14bb5","ios":"levelo://app?vid=f882c7a5-35a4-48ee-8041-43f976c14bb5"},"vehicle_type_id":"4","last_reported":1703765553,"current_range_meters":16800,"station_id":"ce4bho92rcd13ifvqh4g","pricing_plan_id":"free"},{"bike_id":"aa3252fe-2099-49f7-aeac-2efd806db45f","system_id":"levelo_inurba_marseille","lat":43.279931,"lon":5.400218,"is_reserved":false,"is_disabled":false,"rental_uris":{"android":"levelo://app?vid=aa3252fe-2099-49f7-aeac-2efd806db45f","ios":"levelo://app?vid=aa3252fe-2099-49f7-aeac-2efd806db45f"},"vehicle_type_id":"4","last_reported":1703765553,"current_range_meters":6800,"station_id":"ce4bho92rcd13ifvqh4g","pricing_plan_id":"free"},{"bike_id":"bf8fe645-2d7a-4f90-bf07-01fe32acfb29","system_id":"levelo_inurba_marseille","lat":43.279934,"lon":5.400241,"is_reserved":false,"is_disabled":false,"rental_uris":{"android":"levelo://app?vid=bf8fe645-2d7a-4f90-bf07-01fe32acfb29","ios":"levelo://app?vid=bf8fe645-2d7a-4f90-bf07-01fe32acfb29"},"vehicle_type_id":"4","last_reported":1703765553,"current_range_meters":0,"station_id":"ce4bho92rcd13ifvqh4g","pricing_plan_id":"free"},{"bike_id":"93701563-8eb2-4ac2-94e5-d33e3d4e586a","system_id":"levelo_inurba_marseille","lat":43.317121,"lon":5.423936,"is_reserved":false,"is_disabled":false,"rental_uris":{"android":"levelo://app?vid=93701563-8eb2-4ac2-94e5-d33e3d4e586a","ios":"levelo://app?vid=93701563-8eb2-4ac2-94e5-d33e3d4e586a"},"vehicle_type_id":"4","last_reported":1703765553,"current_range_meters":15600,"station_id":"ce4bhp92rcd13ifvqhbg","pricing_plan_id":"free"},{"bike_id":"6bee08e5-780c-476e-a929-383a3efdd1eb","system_id":"levelo_inurba_marseille","lat":43.274099,"lon":5.394019,"is_reserved":false,"is_disabled":false,"rental_uris":{"android":"levelo://app?vid=6bee08e5-780c-476e-a929-383a3efdd1eb","ios":"levelo://app?vid=6bee08e5-780c-476e-a929-383a3efdd1eb"},"vehicle_type_id":"4","last_reported":1703765553,"current_range_meters":31600,"station_id":"ce4bhdp2rcd13ifvqf20","pricing_plan_id":"free"},{"bike_id":"5881a3af-66d0-4192-876b-01aa1e3b8587","system_id":"levelo_inurba_marseille","lat":43.274103,"lon":5.394016,"is_reserved":false,"is_disabled":false,"rental_uris":{"android":"levelo://app?vid=5881a3af-66d0-4192-876b-01aa1e3b8587","ios":"levelo://app?vid=5881a3af-66d0-4192-876b-01aa1e3b8587"},"vehicle_type_id":"4","last_reported":1703765553,"current_range_meters":28000,"station_id":"ce4bhdp2rcd13ifvqf20","pricing_plan_id":"free"},{"bike_id":"f6a2ab9e-c3c8-434c-8dd0-fe1fec2f7661","system_id":"levelo_inurba_marseille","lat":43.274103,"lon":5.394016,"is_reserved":false,"is_disabled":false,"rental_uris":{"android":"levelo://app?vid=f6a2ab9e-c3c8-434c-8dd0-fe1fec2f7661","ios":"levelo://app?vid=f6a2ab9e-c3c8-434c-8dd0-fe1fec2f7661"},"vehicle_type_id":"4","last_reported":1703765553,"current_range_meters":21200,"station_id":"ce4bhdp2rcd13ifvqf20","pricing_plan_id":"free"},{"bike_id":"ad2e4612-31be-4b6c-9b98-a51b51f931ec","system_id":"levelo_inurba_marseille","lat":43.274099,"lon":5.394019,"is_reserved":false,"is_disabled":false,"rental_uris":{"android":"levelo://app?vid=ad2e4612-31be-4b6c-9b98-a51b51f931ec","ios":"levelo://app?vid=ad2e4612-31be-4b6c-9b98-a51b51f931ec"},"vehicle_type_id":"4","last_reported":1703765553,"current_range_meters":14800,"station_id":"ce4bhdp2rcd13ifvqf20","pricing_plan_id":"free"},{"bike_id":"192d14a9-2a45-4774-aa3a-b122462e99a1","system_id":"levelo_inurba_marseille","lat":43.304096,"lon":5.425385,"is_reserved":false,"is_disabled":false,"rental_uris":{"android":"levelo://app?vid=192d14a9-2a45-4774-aa3a-b122462e99a1","ios":"levelo://app?vid=192d14a9-2a45-4774-aa3a-b122462e99a1"},"vehicle_type_id":"4","last_reported":1703765553,"current_range_meters":8000,"station_id":"ce4bhoh2rcd13ifvqh6g","pricing_plan_id":"free"},{"bike_id":"6a48db3f-9fc3-4404-b973-f4cc675c01c7","system_id":"levelo_inurba_marseille","lat":43.295523,"lon":5.422926,"is_reserved":false,"is_disabled":false,"rental_uris":{"android":"levelo://app?vid=6a48db3f-9fc3-4404-b973-f4cc675c01c7","ios":"levelo://app?vid=6a48db3f-9fc3-4404-b973-f4cc675c01c7"},"vehicle_type_id":"4","last_reported":1703765553,"current_range_meters":29600,"station_id":"ce4bhph2rcd13ifvqhdg","pricing_plan_id":"free"},{"bike_id":"bc660e5c-f7cd-4460-935e-226ad1eba4eb","system_id":"levelo_inurba_marseille","lat":43.295523,"lon":5.422926,"is_reserved":false,"is_disabled":false,"rental_uris":{"android":"levelo://app?vid=bc660e5c-f7cd-4460-935e-226ad1eba4eb","ios":"levelo://app?vid=bc660e5c-f7cd-4460-935e-226ad1eba4eb"},"vehicle_type_id":"4","last_reported":1703765553,"current_range_meters":30000,"station_id":"ce4bhph2rcd13ifvqhdg","pricing_plan_id":"free"},{"bike_id":"623e5527-a121-4ec1-8cc0-17b5fddea11b","system_id":"levelo_inurba_marseille","lat":43.295523,"lon":5.422926,"is_reserved":false,"is_disabled":false,"rental_uris":{"android":"levelo://app?vid=623e5527-a121-4ec1-8cc0-17b5fddea11b","ios":"levelo://app?vid=623e5527-a121-4ec1-8cc0-17b5fddea11b"},"vehicle_type_id":"4","last_reported":1703765553,"current_range_meters":27200,"station_id":"ce4bhph2rcd13ifvqhdg","pricing_plan_id":"free"},{"bike_id":"adf5111d-6f9b-4db5-a250-275ab771e390","system_id":"levelo_inurba_marseille","lat":43.295523,"lon":5.422926,"is_reserved":false,"is_disabled":false,"rental_uris":{"android":"levelo://app?vid=adf5111d-6f9b-4db5-a250-275ab771e390","ios":"levelo://app?vid=adf5111d-6f9b-4db5-a250-275ab771e390"},"vehicle_type_id":"4","last_reported":1703765553,"current_range_meters":25200,"station_id":"ce4bhph2rcd13ifvqhdg","pricing_plan_id":"free"},{"bike_id":"8748f0f6-f6da-400d-9caa-9a0f1740277b","system_id":"levelo_inurba_marseille","lat":43.295511,"lon":5.422926,"is_reserved":false,"is_disabled":false,"rental_uris":{"android":"levelo://app?vid=8748f0f6-f6da-400d-9caa-9a0f1740277b","ios":"levelo://app?vid=8748f0f6-f6da-400d-9caa-9a0f1740277b"},"vehicle_type_id":"4","last_reported":1703765553,"current_range_meters":28400,"station_id":"ce4bhph2rcd13ifvqhdg","pricing_plan_id":"free"},{"bike_id":"acec87c8-498e-46a9-a572-8de891a24d3a","system_id":"levelo_inurba_marseille","lat":43.295523,"lon":5.422926,"is_reserved":false,"is_disabled":false,"rental_uris":{"android":"levelo://app?vid=acec87c8-498e-46a9-a572-8de891a24d3a","ios":"levelo://app?vid=acec87c8-498e-46a9-a572-8de891a24d3a"},"vehicle_type_id":"4","last_reported":1703765553,"current_range_meters":25200,"station_id":"ce4bhph2rcd13ifvqhdg","pricing_plan_id":"free"},{"bike_id":"6d735bdc-6834-49ef-ad58-2a1b73a15a49","system_id":"levelo_inurba_marseille","lat":43.295523,"lon":5.422926,"is_reserved":false,"is_disabled":false,"rental_uris":{"android":"levelo://app?vid=6d735bdc-6834-49ef-ad58-2a1b73a15a49","ios":"levelo://app?vid=6d735bdc-6834-49ef-ad58-2a1b73a15a49"},"vehicle_type_id":"4","last_reported":1703765553,"current_range_meters":31600,"station_id":"ce4bhph2rcd13ifvqhdg","pricing_plan_id":"free"},{"bike_id":"e192df68-2c2b-482d-b6fd-3b8920434290","system_id":"levelo_inurba_marseille","lat":43.29548,"lon":5.42281,"is_reserved":false,"is_disabled":false,"rental_uris":{"android":"levelo://app?vid=e192df68-2c2b-482d-b6fd-3b8920434290","ios":"levelo://app?vid=e192df68-2c2b-482d-b6fd-3b8920434290"},"vehicle_type_id":"4","last_reported":1703765553,"current_range_meters":23200,"station_id":"ce4bhph2rcd13ifvqhdg","pricing_plan_id":"free"},{"bike_id":"23dbbee6-d4a1-4819-8d81-04184524b313","system_id":"levelo_inurba_marseille","lat":43.295511,"lon":5.422926,"is_reserved":false,"is_disabled":false,"rental_uris":{"android":"levelo://app?vid=23dbbee6-d4a1-4819-8d81-04184524b313","ios":"levelo://app?vid=23dbbee6-d4a1-4819-8d81-04184524b313"},"vehicle_type_id":"4","last_reported":1703765553,"current_range_meters":28800,"station_id":"ce4bhph2rcd13ifvqhdg","pricing_plan_id":"free"},{"bike_id":"1c34232c-bac7-41df-b2fe-4d8d053e0f7a","system_id":"levelo_inurba_marseille","lat":43.272118,"lon":5.391758,"is_reserved":false,"is_disabled":false,"rental_uris":{"android":"levelo://app?vid=1c34232c-bac7-41df-b2fe-4d8d053e0f7a","ios":"levelo://app?vid=1c34232c-bac7-41df-b2fe-4d8d053e0f7a"},"vehicle_type_id":"4","last_reported":1703765553,"current_range_meters":31600,"station_id":"ce4bhhp2rcd13ifvqfm0","pricing_plan_id":"free"},{"bike_id":"f3481ee6-e4b8-43d4-8ac2-7b4affdc4747","system_id":"levelo_inurba_marseille","lat":43.272116,"lon":5.391763,"is_reserved":false,"is_disabled":false,"rental_uris":{"android":"levelo://app?vid=f3481ee6-e4b8-43d4-8ac2-7b4affdc4747","ios":"levelo://app?vid=f3481ee6-e4b8-43d4-8ac2-7b4affdc4747"},"vehicle_type_id":"4","last_reported":1703765553,"current_range_meters":24400,"station_id":"ce4bhhp2rcd13ifvqfm0","pricing_plan_id":"free"},{"bike_id":"dcb34f7e-4bb0-4f50-a0bd-5ae8e961c5f1","system_id":"levelo_inurba_marseille","lat":43.27216,"lon":5.39239,"is_reserved":false,"is_disabled":false,"rental_uris":{"android":"levelo://app?vid=dcb34f7e-4bb0-4f50-a0bd-5ae8e961c5f1","ios":"levelo://app?vid=dcb34f7e-4bb0-4f50-a0bd-5ae8e961c5f1"},"vehicle_type_id":"4","last_reported":1703765553,"current_range_meters":1600,"station_id":"","pricing_plan_id":"free"},{"bike_id":"48c3fa18-68b0-454d-935a-9b47d2aa0246","system_id":"levelo_inurba_marseille","lat":43.278128,"lon":5.407195,"is_reserved":false,"is_disabled":false,"rental_uris":{"android":"levelo://app?vid=48c3fa18-68b0-454d-935a-9b47d2aa0246","ios":"levelo://app?vid=48c3fa18-68b0-454d-935a-9b47d2aa0246"},"vehicle_type_id":"4","last_reported":1703765553,"current_range_meters":31600,"station_id":"ce4bhnh2rcd13ifvqgtg","pricing_plan_id":"free"},{"bike_id":"cec10831-9a88-4b30-a846-a4cbdbb358fa","system_id":"levelo_inurba_marseille","lat":43.278128,"lon":5.407195,"is_reserved":false,"is_disabled":false,"rental_uris":{"android":"levelo://app?vid=cec10831-9a88-4b30-a846-a4cbdbb358fa","ios":"levelo://app?vid=cec10831-9a88-4b30-a846-a4cbdbb358fa"},"vehicle_type_id":"4","last_reported":1703765553,"current_range_meters":15200,"station_id":"ce4bhnh2rcd13ifvqgtg","pricing_plan_id":"free"},{"bike_id":"18aff736-2ba3-4cd8-af4c-312b0c01c675","system_id":"levelo_inurba_marseille","lat":43.278128,"lon":5.407195,"is_reserved":false,"is_disabled":false,"rental_uris":{"android":"levelo://app?vid=18aff736-2ba3-4cd8-af4c-312b0c01c675","ios":"levelo://app?vid=18aff736-2ba3-4cd8-af4c-312b0c01c675"},