{"last_updated":1738174314,"ttl":60,"version":"2.2","data":{"bikes":[{"bike_id":"92ba88fc-6a27-4e78-a287-d25cc4e5811a","system_id":"levelo_inurba_marseille","lat":43.29423,"lon":5.38629,"is_reserved":false,"is_disabled":false,"rental_uris":{"android":"levelo://app?vid=92ba88fc-6a27-4e78-a287-d25cc4e5811a","ios":"levelo://app?vid=92ba88fc-6a27-4e78-a287-d25cc4e5811a"},"vehicle_type_id":"4","last_reported":1738174314,"current_range_meters":12000,"station_id":"ce4bh2h2rcd13ifvqdh0","pricing_plan_id":"cebpf4jnsgd1na2vs0mg"},{"bike_id":"bb645bb6-1ffd-4d52-b874-a82d359e4752","system_id":"levelo_inurba_marseille","lat":43.29501,"lon":5.39029,"is_reserved":false,"is_disabled":false,"rental_uris":{"android":"levelo://app?vid=bb645bb6-1ffd-4d52-b874-a82d359e4752","ios":"levelo://app?vid=bb645bb6-1ffd-4d52-b874-a82d359e4752"},"vehicle_type_id":"4","last_reported":1738174314,"current_range_meters":35600,"station_id":"ce4bh3p2rcd13ifvqdp0","pricing_plan_id":"cebpf4jnsgd1na2vs0mg"},{"bike_id":"9fd73913-dbae-4c44-9a9b-e393df78b1e9","system_id":"levelo_inurba_marseille","lat":43.25586,"lon":5.3824,"is_reserved":false,"is_disabled":false,"rental_uris":{"android":"levelo://app?vid=9fd73913-dbae-4c44-9a9b-e393df78b1e9","ios":"levelo://app?vid=9fd73913-dbae-4c44-9a9b-e393df78b1e9"},"vehicle_type_id":"4","last_reported":1738174314,"current_range_meters":2800,"station_id":"ce4bhih2rcd13ifvqfs0","pricing_plan_id":"cebpf4jnsgd1na2vs0mg"},{"bike_id":"04fa7335-7a36-4bc3-af77-2d4a7d481f02","system_id":"levelo_inurba_marseille","lat":43.26213,"lon":5.37441,"is_reserved":false,"is_disabled":false,"rental_uris":{"android":"levelo://app?vid=04fa7335-7a36-4bc3-af77-2d4a7d481f02","ios":"levelo://app?vid=04fa7335-7a36-4bc3-af77-2d4a7d481f02"},"vehicle_type_id":"4","last_reported":1738174314,"current_range_meters":36800,"station_id":"ce4bhgp2rcd13ifvqfc0","pricing_plan_id":"cebpf4jnsgd1na2vs0mg"},{"bike_id":"650ca468-d7e9-4c63-8b86-d0848be503a7","system_id":"levelo_inurba_marseille","lat":43.28147,"lon":5.42636,"is_reserved":false,"is_disabled":false,"rental_uris":{"android":"levelo://app?vid=650ca468-d7e9-4c63-8b86-d0848be503a7","ios":"levelo://app?vid=650ca468-d7e9-4c63-8b86-d0848be503a7"},"vehicle_type_id":"4","last_reported":1738174314,"current_range_meters":24800,"station_id":"ce4bhnh2rcd13ifvqgug","pricing_plan_id":"cebpf4jnsgd1na2vs0mg"},{"bike_id":"0d971986-7123-44b3-af63-ad59143ea624","system_id":"levelo_inurba_marseille","lat":43.29902,"lon":5.38141,"is_reserved":false,"is_disabled":false,"rental_uris":{"android":"levelo://app?vid=0d971986-7123-44b3-af63-ad59143ea624","ios":"levelo://app?vid=0d971986-7123-44b3-af63-ad59143ea624"},"vehicle_type_id":"4","last_reported":1738174314,"current_range_meters":36000,"station_id":"ce4bgj12rcd13ifvqbc0","pricing_plan_id":"cebpf4jnsgd1na2vs0mg"},{"bike_id":"4adad3b6-e869-41dd-b253-1d8e9ebbc59a","system_id":"levelo_inurba_marseille","lat":43.29191,"lon":5.39335,"is_reserved":false,"is_disabled":false,"rental_uris":{"android":"levelo://app?vid=4adad3b6-e869-41dd-b253-1d8e9ebbc59a","ios":"levelo://app?vid=4adad3b6-e869-41dd-b253-1d8e9ebbc59a"},"vehicle_type_id":"4","last_reported":1738174314,"current_range_meters":11600,"station_id":"ce4bh192rcd13ifvqdd0","pricing_plan_id":"cebpf4jnsgd1na2vs0mg"},{"bike_id":"f7f8117f-03ef-415e-85c6-2eeaf165e4f2","system_id":"levelo_inurba_marseille","lat":43.26204,"lon":5.4042,"is_reserved":false,"is_disabled":true,"rental_uris":{"android":"levelo://app?vid=f7f8117f-03ef-415e-85c6-2eeaf165e4f2","ios":"levelo://app?vid=f7f8117f-03ef-415e-85c6-2eeaf165e4f2"},"vehicle_type_id":"4","last_reported":1738174314,"current_range_meters":28400,"station_id":"ce4bhmh2rcd13ifvqgmg","pricing_plan_id":"cebpf4jnsgd1na2vs0mg"},{"bike_id":"57d45e97-d0ca-444a-9cf8-08675d4aa3e3","system_id":"levelo_inurba_marseille","lat":43.29033,"lon":5.3592,"is_reserved":false,"is_disabled":false,"rental_uris":{"android":"levelo://app?vid=57d45e97-d0ca-444a-9cf8-08675d4aa3e3","ios":"levelo://app?vid=57d45e97-d0ca-444a-9cf8-08675d4aa3e3"},"vehicle_type_id":"4","last_reported":1738174314,"current_range_meters":37600,"station_id":"ce4bha92rcd13ifvqeg0","pricing_plan_id":"cebpf4jnsgd1na2vs0mg"},{"bike_id":"41dd62a4-9c6c-4f22-8522-a74901e6ccce","system_id":"levelo_inurba_marseille","lat":43.29267,"lon":5.38455,"is_reserved":false,"is_disabled":false,"rental_uris":{"android":"levelo://app?vid=41dd62a4-9c6c-4f22-8522-a74901e6ccce","ios":"levelo://app?vid=41dd62a4-9c6c-4f22-8522-a74901e6ccce"},"vehicle_type_id":"4","last_reported":1738174314,"current_range_meters":23200,"station_id":"ce4bh692rcd13ifvqea0","pricing_plan_id":"cebpf4jnsgd1na2vs0mg"},{"bike_id":"de1b162f-edfa-4b86-b016-f125f78b5cd4","system_id":"levelo_inurba_marseille","lat":43.31276,"lon":5.40172,"is_reserved":false,"is_disabled":false,"rental_uris":{"android":"levelo://app?vid=de1b162f-edfa-4b86-b016-f125f78b5cd4","ios":"levelo://app?vid=de1b162f-edfa-4b86-b016-f125f78b5cd4"},"vehicle_type_id":"4","last_reported":1738174314,"current_range_meters":27200,"station_id":"ce4bh092rcd13ifvqd30","pricing_plan_id":"cebpf4jnsgd1na2vs0mg"},{"bike_id":"f93041b9-b8e0-42d2-8838-ad70483b616d","system_id":"levelo_inurba_marseille","lat":43.26788,"lon":5.39415,"is_reserved":false,"is_disabled":false,"rental_uris":{"android":"levelo://app?vid=f93041b9-b8e0-42d2-8838-ad70483b616d","ios":"levelo://app?vid=f93041b9-b8e0-42d2-8838-ad70483b616d"},"vehicle_type_id":"4","last_reported":1738174314,"current_range_meters":16400,"station_id":"ce4bhh12rcd13ifvqfg0","pricing_plan_id":"cebpf4jnsgd1na2vs0mg"},{"bike_id":"adc2855c-ce96-4ab1-9132-d4c82e18f627","system_id":"levelo_inurba_marseille","lat":43.26503,"lon":5.39549,"is_reserved":false,"is_disabled":false,"rental_uris":{"android":"levelo://app?vid=adc2855c-ce96-4ab1-9132-d4c82e18f627","ios":"levelo://app?vid=adc2855c-ce96-4ab1-9132-d4c82e18f627"},"vehicle_type_id":"4","last_reported":1738174314,"current_range_meters":32000,"station_id":"ce4bhi12rcd13ifvqfq0","pricing_plan_id":"cebpf4jnsgd1na2vs0mg"},{"bike_id":"fdf5593f-0dea-43e1-b6a2-4bb19a8af950","system_id":"levelo_inurba_marseille","lat":43.28667,"lon":5.36356,"is_reserved":false,"is_disabled":false,"rental_uris":{"android":"levelo://app?vid=fdf5593f-0dea-43e1-b6a2-4bb19a8af950","ios":"levelo://app?vid=fdf5593f-0dea-43e1-b6a2-4bb19a8af950"},"vehicle_type_id":"4","last_reported":1738174314,"current_range_meters":20000,"station_id":"ce4bhah2rcd13ifvqej0","pricing_plan_id":"cebpf4jnsgd1na2vs0mg"},{"bike_id":"df517269-7978-40e7-92b9-aba0b6440d0d","system_id":"levelo_inurba_marseille","lat":43.27368,"lon":5.36246,"is_reserved":false,"is_disabled":false,"rental_uris":{"android":"levelo://app?vid=df517269-7978-40e7-92b9-aba0b6440d0d","ios":"levelo://app?vid=df517269-7978-40e7-92b9-aba0b6440d0d"},"vehicle_type_id":"4","last_reported":1738174314,"current_range_meters":26800,"station_id":"ce4bhbh2rcd13ifvqeo0","pricing_plan_id":"cebpf4jnsgd1na2vs0mg"},{"bike_id":"8c03f280-854f-4c8a-bcde-c7e733b88599","system_id":"levelo_inurba_marseille","lat":43.29224,"lon":5.36052,"is_reserved":false,"is_disabled":true,"rental_uris":{"android":"levelo://app?vid=8c03f280-854f-4c8a-bcde-c7e733b88599","ios":"levelo://app?vid=8c03f280-854f-4c8a-bcde-c7e733b88599"},"vehicle_type_id":"4","last_reported":1738174314,"current_range_meters":0,"station_id":"ce4bhbh2rcd13ifvqeqg","pricing_plan_id":"cebpf4jnsgd1na2vs0mg"},{"bike_id":"f229f300-57ee-4773-929a-5a7a8c6ccb07","system_id":"levelo_inurba_marseille","lat":43.29195,"lon":5.39321,"is_reserved":false,"is_disabled":false,"rental_uris":{"android":"levelo://app?vid=f229f300-57ee-4773-929a-5a7a8c6ccb07","ios":"levelo://app?vid=f229f300-57ee-4773-929a-5a7a8c6ccb07"},"vehicle_type_id":"4","last_reported":1738174314,"current_range_meters":25600,"station_id":"ce4bh192rcd13ifvqdd0","pricing_plan_id":"cebpf4jnsgd1na2vs0mg"},{"bike_id":"79b7a714-6899-43f0-a0e6-1e9b5234e282","system_id":"levelo_inurba_marseille","lat":43.29547,"lon":5.42266,"is_reserved":false,"is_disabled":true,"rental_uris":{"android":"levelo://app?vid=79b7a714-6899-43f0-a0e6-1e9b5234e282","ios":"levelo://app?vid=79b7a714-6899-43f0-a0e6-1e9b5234e282"},"vehicle_type_id":"4","last_reported":1738174314,"current_range_meters":400,"station_id":"ce4bhph2rcd13ifvqhdg","pricing_plan_id":"cebpf4jnsgd1na2vs0mg"},{"bike_id":"fef603c9-e2f8-4f17-9592-e93f77412abb","system_id":"levelo_inurba_marseille","lat":43.300964,"lon":5.390873,"is_reserved":false,"is_disabled":false,"rental_uris":{"android":"levelo://app?vid=fef603c9-e2f8-4f17-9592-e93f77412abb","ios":"levelo://app?vid=fef603c9-e2f8-4f17-9592-e93f77412abb"},"vehicle_type_id":"4","last_reported":1738174314,"current_range_meters":36400,"station_id":"ce4bh192rcd13ifvqdb0","pricing_plan_id":"cebpf4jnsgd1na2vs0mg"},{"bike_id":"e05d3339-457c-46fa-9827-97d4d0e79dfd","system_id":"levelo_inurba_marseille","lat":43.25866,"lon":5.39906,"is_reserved":false,"is_disabled":false,"rental_uris":{"android":"levelo://app?vid=e05d3339-457c-46fa-9827-97d4d0e79dfd","ios":"levelo://app?vid=e05d3339-457c-46fa-9827-97d4d0e79dfd"},"vehicle_type_id":"4","last_reported":1738174314,"current_range_meters":38800,"station_id":"ce4bhl92rcd13ifvqghg","pricing_plan_id":"cebpf4jnsgd1na2vs0mg"},{"bike_id":"22482a35-69ff-42d4-a21b-a060b714172d","system_id":"levelo_inurba_marseille","lat":43.28846,"lon":5.35851,"is_reserved":false,"is_disabled":false,"rental_uris":{"android":"levelo://app?vid=22482a35-69ff-42d4-a21b-a060b714172d","ios":"levelo://app?vid=22482a35-69ff-42d4-a21b-a060b714172d"},"vehicle_type_id":"4","last_reported":1738174314,"current_range_meters":9600,"station_id":"ce4bhb12rcd13ifvqem0","pricing_plan_id":"cebpf4jnsgd1na2vs0mg"},{"bike_id":"9bd21267-26f6-4122-9567-2f0b5d4f790f","system_id":"levelo_inurba_marseille","lat":43.32359,"lon":5.38904,"is_reserved":false,"is_disabled":false,"rental_uris":{"android":"levelo://app?vid=9bd21267-26f6-4122-9567-2f0b5d4f790f","ios":"levelo://app?vid=9bd21267-26f6-4122-9567-2f0b5d4f790f"},"vehicle_type_id":"4","last_reported":1738174314,"current_range_meters":8000,"station_id":"ce4bhqp2rcd13ifvqhog","pricing_plan_id":"cebpf4jnsgd1na2vs0mg"},{"bike_id":"d6c12d6b-c163-4b1a-8d55-a70a65814051","system_id":"levelo_inurba_marseille","lat":43.29227,"lon":5.40889,"is_reserved":false,"is_disabled":false,"rental_uris":{"android":"levelo://app?vid=d6c12d6b-c163-4b1a-8d55-a70a65814051","ios":"levelo://app?vid=d6c12d6b-c163-4b1a-8d55-a70a65814051"},"vehicle_type_id":"4","last_reported":1738174314,"current_range_meters":24000,"station_id":"ce4bh192rcd13ifvqdc0","pricing_plan_id":"cebpf4jnsgd1na2vs0mg"},{"bike_id":"48b991e5-c2b0-4820-b389-98767cd47f00","system_id":"levelo_inurba_marseille","lat":43.29296,"lon":5.37469,"is_reserved":false,"is_disabled":true,"rental_uris":{"android":"levelo://app?vid=48b991e5-c2b0-4820-b389-98767cd47f00","ios":"levelo://app?vid=48b991e5-c2b0-4820-b389-98767cd47f00"},"vehicle_type_id":"4","last_reported":1738174314,"current_range_meters":800,"station_id":"ce4bgi12rcd13ifvqb70","pricing_plan_id":"cebpf4jnsgd1na2vs0mg"},{"bike_id":"8bde1ebe-5abf-474a-84a7-7794fe44c931","system_id":"levelo_inurba_marseille","lat":43.33011,"lon":5.39047,"is_reserved":false,"is_disabled":false,"rental_uris":{"android":"levelo://app?vid=8bde1ebe-5abf-474a-84a7-7794fe44c931","ios":"levelo://app?vid=8bde1ebe-5abf-474a-84a7-7794fe44c931"},"vehicle_type_id":"4","last_reported":1738174314,"current_range_meters":39200,"station_id":"ce4bhr92rcd13ifvqhrg","pricing_plan_id":"cebpf4jnsgd1na2vs0mg"},{"bike_id":"5e650df1-4b1d-4478-a54a-83705417ce03","system_id":"levelo_inurba_marseille","lat":43.28157,"lon":5.42638,"is_reserved":false,"is_disabled":false,"rental_uris":{"android":"levelo://app?vid=5e650df1-4b1d-4478-a54a-83705417ce03","ios":"levelo://app?vid=5e650df1-4b1d-4478-a54a-83705417ce03"},"vehicle_type_id":"4","last_reported":1738174314,"current_range_meters":19600,"station_id":"ce4bhnh2rcd13ifvqgug","pricing_plan_id":"cebpf4jnsgd1na2vs0mg"},{"bike_id":"1c63fa7b-8bb3-4da5-8267-9c40ab75cc0b","system_id":"levelo_inurba_marseille","lat":43.33746,"lon":5.39191,"is_reserved":false,"is_disabled":false,"rental_uris":{"android":"levelo://app?vid=1c63fa7b-8bb3-4da5-8267-9c40ab75cc0b","ios":"levelo://app?vid=1c63fa7b-8bb3-4da5-8267-9c40ab75cc0b"},"vehicle_type_id":"4","last_reported":1738174314,"current_range_meters":38800,"station_id":"ce4bhr92rcd13ifvqhsg","pricing_plan_id":"cebpf4jnsgd1na2vs0mg"},{"bike_id":"fb57aee5-301b-407c-a9d0-c23dec2dfbec","system_id":"levelo_inurba_marseille","lat":43.27368,"lon":5.36254,"is_reserved":false,"is_disabled":false,"rental_uris":{"android":"levelo://app?vid=fb57aee5-301b-407c-a9d0-c23dec2dfbec","ios":"levelo://app?vid=fb57aee5-301b-407c-a9d0-c23dec2dfbec"},"vehicle_type_id":"4","last_reported":1738174314,"current_range_meters":29600,"station_id":"ce4bhbh2rcd13ifvqeo0","pricing_plan_id":"cebpf4jnsgd1na2vs0mg"},{"bike_id":"5d4915e0-4a9f-4c36-821a-8bde58abc3cd","system_id":"levelo_inurba_marseille","lat":43.25121,"lon":5.40305,"is_reserved":false,"is_disabled":true,"rental_uris":{"android":"levelo://app?vid=5d4915e0-4a9f-4c36-821a-8bde58abc3cd","ios":"levelo://app?vid=5d4915e0-4a9f-4c36-821a-8bde58abc3cd"},"vehicle_type_id":"4","last_reported":1738174314,"current_range_meters":38800,"station_id":"ce4bhlh2rcd13ifvqgig","pricing_plan_id":"cebpf4jnsgd1na2vs0mg"},{"bike_id":"71fe1c26-5853-405a-bd0a-7fc15a5f97c1","system_id":"levelo_inurba_marseille","lat":43.31375,"lon":5.36746,"is_reserved":false,"is_disabled":true,"rental_uris":{"android":"levelo://app?vid=71fe1c26-5853-405a-bd0a-7fc15a5f97c1","ios":"levelo://app?vid=71fe1c26-5853-405a-bd0a-7fc15a5f97c1"},"vehicle_type_id":"4","last_reported":1738174314,"current_range_meters":36800,"station_id":"ce4bgr92rcd13ifvqc6g","pricing_plan_id":"cebpf4jnsgd1na2vs0mg"},{"bike_id":"e13b7a82-8d03-471f-ac70-6a6d40fcbd32","system_id":"levelo_inurba_marseille","lat":43.28695,"lon":5.38313,"is_reserved":false,"is_disabled":true,"rental_uris":{"android":"levelo://app?vid=e13b7a82-8d03-471f-ac70-6a6d40fcbd32","ios":"levelo://app?vid=e13b7a82-8d03-471f-ac70-6a6d40fcbd32"},"vehicle_type_id":"4","last_reported":1738174314,"current_range_meters":1600,"station_id":"","pricing_plan_id":"cebpf4jnsgd1na2vs0mg"},{"bike_id":"bb209255-c185-49d8-95d0-5674b8a842f7","system_id":"levelo_inurba_marseille","lat":43.29005,"lon":5.3562,"is_reserved":false,"is_disabled":false,"rental_uris":{"android":"levelo://app?vid=bb209255-c185-49d8-95d0-5674b8a842f7","ios":"levelo://app?vid=bb209255-c185-49d8-95d0-5674b8a842f7"},"vehicle_type_id":"4","last_reported":1738174314,"current_range_meters":26800,"station_id":"ce4bhb92rcd13ifvqen0","pricing_plan_id":"cebpf4jnsgd1na2vs0mg"},{"bike_id":"25647466-7652-47d5-b6e5-cd5cddbd3031","system_id":"levelo_inurba_marseille","lat":43.29787,"lon":5.38099,"is_reserved":false,"is_disabled":false,"rental_uris":{"android":"levelo://app?vid=25647466-7652-47d5-b6e5-cd5cddbd3031","ios":"levelo://app?vid=25647466-7652-47d5-b6e5-cd5cddbd3031"},"vehicle_type_id":"4","last_reported":1738174314,"current_range_meters":33600,"station_id":"ce4bgip2rcd13ifvqbb0","pricing_plan_id":"cebpf4jnsgd1na2vs0mg"},{"bike_id":"10d8361f-7304-4b98-a7da-1e8470473995","system_id":"levelo_inurba_marseille","lat":43.31727,"lon":5.42399,"is_reserved":false,"is_disabled":false,"rental_uris":{"android":"levelo://app?vid=10d8361f-7304-4b98-a7da-1e8470473995","ios":"levelo://app?vid=10d8361f-7304-4b98-a7da-1e8470473995"},"vehicle_type_id":"4","last_reported":1738174314,"current_range_meters":22800,"station_id":"ce4bhp92rcd13ifvqhbg","pricing_plan_id":"cebpf4jnsgd1na2vs0mg"},{"bike_id":"726bcb46-e9b6-4da3-8b76-bba3f7627889","system_id":"levelo_inurba_marseille","lat":43.31525,"lon":5.38028,"is_reserved":false,"is_disabled":false,"rental_uris":{"android":"levelo://app?vid=726bcb46-e9b6-4da3-8b76-bba3f7627889","ios":"levelo://app?vid=726bcb46-e9b6-4da3-8b76-bba3f7627889"},"vehicle_type_id":"4","last_reported":1738174314,"current_range_meters":30800,"station_id":"ce4bhsp2rcd13ifvqi50","pricing_plan_id":"cebpf4jnsgd1na2vs0mg"},{"bike_id":"b6610678-796c-4d93-8c1c-156f9b1a7c43","system_id":"levelo_inurba_marseille","lat":43.2963,"lon":5.40598,"is_reserved":false,"is_disabled":false,"rental_uris":{"android":"levelo://app?vid=b6610678-796c-4d93-8c1c-156f9b1a7c43","ios":"levelo://app?vid=b6610678-796c-4d93-8c1c-156f9b1a7c43"},"vehicle_type_id":"4","last_reported":1738174314,"current_range_meters":24400,"station_id":"ce4bh0h2rcd13ifvqd60","pricing_plan_id":"cebpf4jnsgd1na2vs0mg"},{"bike_id":"cd6b76b1-5041-4a85-957d-ae81df735153","system_id":"levelo_inurba_marseille","lat":43.29286,"lon":5.36858,"is_reserved":false,"is_disabled":false,"rental_uris":{"android":"levelo://app?vid=cd6b76b1-5041-4a85-957d-ae81df735153","ios":"levelo://app?vid=cd6b76b1-5041-4a85-957d-ae81df735153"},"vehicle_type_id":"4","last_reported":1738174314,"current_range_meters":38400,"station_id":"ce4bhbp2rcd13ifvqesg","pricing_plan_id":"cebpf4jnsgd1na2vs0mg"},{"bike_id":"e24b0b00-1780-4162-aac0-9bb6ee5464a6","system_id":"levelo_inurba_marseille","lat":43.2904,"lon":5.3758,"is_reserved":false,"is_disabled":true,"rental_uris":{"android":"levelo://app?vid=e24b0b00-1780-4162-aac0-9bb6ee5464a6","ios":"levelo://app?vid=e24b0b00-1780-4162-aac0-9bb6ee5464a6"},"vehicle_type_id":"4","last_reported":1738174314,"current_range_meters":3200,"station_id":"ce4bh692rcd13ifvqe90","pricing_plan_id":"cebpf4jnsgd1na2vs0mg"},{"bike_id":"d6a3b64e-2610-4e3c-87bb-b17282c413d8","system_id":"levelo_inurba_marseille","lat":43.30334,"lon":5.40446,"is_reserved":false,"is_disabled":false,"rental_uris":{"android":"levelo://app?vid=d6a3b64e-2610-4e3c-87bb-b17282c413d8","ios":"levelo://app?vid=d6a3b64e-2610-4e3c-87bb-b17282c413d8"},"vehicle_type_id":"4","last_reported":1738174314,"current_range_meters":14000,"station_id":"ce4bh012rcd13ifvqd10","pricing_plan_id":"cebpf4jnsgd1na2vs0mg"},{"bike_id":"dd5c5c45-05d7-435f-b329-97ebdf5c921f","system_id":"levelo_inurba_marseille","lat":43.251,"lon":5.40343,"is_reserved":false,"is_disabled":true,"rental_uris":{"android":"levelo://app?vid=dd5c5c45-05d7-435f-b329-97ebdf5c921f","ios":"levelo://app?vid=dd5c5c45-05d7-435f-b329-97ebdf5c921f"},"vehicle_type_id":"4","last_reported":1738174314,"current_range_meters":0,"station_id":"ce4bhlh2rcd13ifvqgig","pricing_plan_id":"cebpf4jnsgd1na2vs0mg"},{"bike_id":"c7bdc074-3c4f-4d2d-8b38-3436f976868d","system_id":"levelo_inurba_marseille","lat":43.30416,"lon":5.41281,"is_reserved":false,"is_disabled":true,"rental_uris":{"android":"levelo://app?vid=c7bdc074-3c4f-4d2d-8b38-3436f976868d","ios":"levelo://app?vid=c7bdc074-3c4f-4d2d-8b38-3436f976868d"},"vehicle_type_id":"4","last_reported":1738174314,"current_range_meters":400,"station_id":"ce4bhop2rcd13ifvqh8g","pricing_plan_id":"cebpf4jnsgd1na2vs0mg"},{"bike_id":"a8c3ca53-f84c-41cb-aeb1-abd26fabdea9","system_id":"levelo_inurba_marseille","lat":43.29709,"lon":5.37689,"is_reserved":false,"is_disabled":false,"rental_uris":{"android":"levelo://app?vid=a8c3ca53-f84c-41cb-aeb1-abd26fabdea9","ios":"levelo://app?vid=a8c3ca53-f84c-41cb-aeb1-abd26fabdea9"},"vehicle_type_id":"4","last_reported":1738174314,"current_range_meters":8400,"station_id":"ce4bgkh2rcd13ifvqbl0","pricing_plan_id":"cebpf4jnsgd1na2vs0mg"},{"bike_id":"bf94b5cf-6e0a-4706-b635-1d348d1ff856","system_id":"levelo_inurba_marseille","lat":43.27942,"lon":5.41038,"is_reserved":false,"is_disabled":false,"rental_uris":{"android":"levelo://app?vid=bf94b5cf-6e0a-4706-b635-1d348d1ff856","ios":"levelo://app?vid=bf94b5cf-6e0a-4706-b635-1d348d1ff856"},"vehicle_type_id":"4","last_reported":1738174314,"current_range_meters":10800,"station_id":"ce4bhnp2rcd13ifvqh0g","pricing_plan_id":"cebpf4jnsgd1na2vs0mg"},{"bike_id":"9f7cbc3c-6e0b-4442-8c70-64c0b2a1452e","system_id":"levelo_inurba_marseille","lat":43.23058,"lon":5.3549,"is_reserved":false,"is_disabled":false,"rental_uris":{"android":"levelo://app?vid=9f7cbc3c-6e0b-4442-8c70-64c0b2a1452e","ios":"levelo://app?vid=9f7cbc3c-6e0b-4442-8c70-64c0b2a1452e"},"vehicle_type_id":"4","last_reported":1738174314,"current_range_meters":16800,"station_id":"cpo3342slgdg3j2ifvpg","pricing_plan_id":"cebpf4jnsgd1na2vs0mg"},{"bike_id":"c8a3a0ed-dff2-4f3c-87dc-2e6b47b1ad28","system_id":"levelo_inurba_marseille","lat":43.337444,"lon":5.374475,"is_reserved":false,"is_disabled":true,"rental_uris":{"android":"levelo://app?vid=c8a3a0ed-dff2-4f3c-87dc-2e6b47b1ad28","ios":"levelo://app?vid=c8a3a0ed-dff2-4f3c-87dc-2e6b47b1ad28"},"vehicle_type_id":"4","last_reported":1738174314,"current_range_meters":0,"station_id":"","pricing_plan_id":"cebpf4jnsgd1na2vs0mg"},{"bike_id":"76009bdf-fe47-4c7b-b848-7fc36b4f5990","system_id":"levelo_inurba_marseille","lat":43.27566,"lon":5.38418,"is_reserved":false,"is_disabled":false,"rental_uris":{"android":"levelo://app?vid=76009bdf-fe47-4c7b-b848-7fc36b4f5990","ios":"levelo://app?vid=76009bdf-fe47-4c7b-b848-7fc36b4f5990"},"vehicle_type_id":"4","last_reported":1738174314,"current_range_meters":38800,"station_id":"ce4bhh92rcd13ifvqfi0","pricing_plan_id":"cebpf4jnsgd1na2vs0mg"},{"bike_id":"62c0a05a-8c99-422d-8d99-b615ce2d9639","system_id":"levelo_inurba_marseille","lat":43.27945,"lon":5.41047,"is_reserved":false,"is_disabled":false,"rental_uris":{"android":"levelo://app?vid=62c0a05a-8c99-422d-8d99-b615ce2d9639","ios":"levelo://app?vid=62c0a05a-8c99-422d-8d99-b615ce2d9639"},"vehicle_type_id":"4","last_reported":1738174314,"current_range_meters":20000,"station_id":"ce4bhnp2rcd13ifvqh0g","pricing_plan_id":"cebpf4jnsgd1na2vs0mg"},{"bike_id":"2b9d8f53-3d23-4ae7-9ce5-0da780c3a019","system_id":"levelo_inurba_marseille","lat":43.31374,"lon":5.38493,"is_reserved":false,"is_disabled":false,"rental_uris":{"android":"levelo://app?vid=2b9d8f53-3d23-4ae7-9ce5-0da780c3a019","ios":"levelo://app?vid=2b9d8f53-3d23-4ae7-9ce5-0da780c3a019"},"vehicle_type_id":"4","last_reported":1738174314,"current_range_meters":16400,"station_id":"ce4bgt92rcd13ifvqcf0","pricing_plan_id":"cebpf4jnsgd1na2vs0mg"},{"bike_id":"e5689561-e61d-4938-b4b3-32fc1f4148d4","system_id":"levelo_inurba_marseille","lat":43.25725,"lon":5.41111,"is_reserved":false,"is_disabled":false,"rental_uris":{"android":"levelo://app?vid=e5689561-e61d-4938-b4b3-32fc1f4148d4","ios":"levelo://app?vid=e5689561-e61d-4938-b4b3-32fc1f4148d4"},"vehicle_type_id":"4","last_reported":1738174314,"current_range_meters":17200,"station_id":"ce4bhkp2rcd13ifvqgd0","pricing_plan_id":"cebpf4jnsgd1na2vs0mg"},{"bike_id":"430b91ac-b063-4125-8cfa-55b741f7646a","system_id":"levelo_inurba_marseille","lat":43.29036,"lon":5.38625,"is_reserved":false,"is_disabled":true,"rental_uris":{"android":"levelo://app?vid=430b91ac-b063-4125-8cfa-55b741f7646a","ios":"levelo://app?vid=430b91ac-b063-4125-8cfa-55b741f7646a"},"vehicle_type_id":"4","last_reported":1738174314,"current_range_meters":0,"station_id":"ce4bh4p2rcd13ifvqe0g","pricing_plan_id":"cebpf4jnsgd1na2vs0mg"},{"bike_id":"48dd9d6d-3972-4678-9001-00e51006317f","system_id":"levelo_inurba_marseille","lat":43.25868,"lon":5.39894,"is_reserved":false,"is_disabled":true,"rental_uris":{"android":"levelo://app?vid=48dd9d6d-3972-4678-9001-00e51006317f","ios":"levelo://app?vid=48dd9d6d-3972-4678-9001-00e51006317f"},"vehicle_type_id":"4","last_reported":1738174314,"current_range_meters":400,"station_id":"ce4bhl92rcd13ifvqghg","pricing_plan_id":"cebpf4jnsgd1na2vs0mg"},{"bike_id":"6811fcdd-0dd6-46b0-93c3-921932e8f90c","system_id":"levelo_inurba_marseille","lat":43.325367,"lon":5.414527,"is_reserved":false,"is_disabled":true,"rental_uris":{"android":"levelo://app?vid=6811fcdd-0dd6-46b0-93c3-921932e8f90c","ios":"levelo://app?vid=6811fcdd-0dd6-46b0-93c3-921932e8f90c"},"vehicle_type_id":"4","last_reported":1738174314,"current_range_meters":38800,"station_id":"ce4bhq12rcd13ifvqhhg","pricing_plan_id":"cebpf4jnsgd1na2vs0mg"},{"bike_id":"e62d273d-8b4d-4b66-9902-36b5bafb2df2","system_id":"levelo_inurba_marseille","lat":43.2795,"lon":5.41043,"is_reserved":false,"is_disabled":false,"rental_uris":{"android":"levelo://app?vid=e62d273d-8b4d-4b66-9902-36b5bafb2df2","ios":"levelo://app?vid=e62d273d-8b4d-4b66-9902-36b5bafb2df2"},"vehicle_type_id":"4","last_reported":1738174314,"current_range_meters":18000,"station_id":"ce4bhnp2rcd13ifvqh0g","pricing_plan_id":"cebpf4jnsgd1na2vs0mg"},{"bike_id":"d6f1898b-ad56-4d0e-86dd-6c795b8152a5","system_id":"levelo_inurba_marseille","lat":43.29293,"lon":5.37442,"is_reserved":false,"is_disabled":false,"rental_uris":{"android":"levelo://app?vid=d6f1898b-ad56-4d0e-86dd-6c795b8152a5","ios":"levelo://app?vid=d6f1898b-ad56-4d0e-86dd-6c795b8152a5"},"vehicle_type_id":"4","last_reported":1738174314,"current_range_meters":38800,"station_id":"ce4bgi12rcd13ifvqb70","pricing_plan_id":"cebpf4jnsgd1na2vs0mg"},{"bike_id":"ebb62ccf-3b30-4887-8c47-8865caf0c2fb","system_id":"levelo_inurba_marseille","lat":43.29873,"lon":5.38912,"is_reserved":false,"is_disabled":false,"rental_uris":{"android":"levelo://app?vid=ebb62ccf-3b30-4887-8c47-8865caf0c2fb","ios":"levelo://app?vid=ebb62ccf-3b30-4887-8c47-8865caf0c2fb"},"vehicle_type_id":"4","last_reported":1738174314,"current_range_meters":38800,"station_id":"ce4bh392rcd13ifvqdl0","pricing_plan_id":"cebpf4jnsgd1na2vs0mg"},{"bike_id":"96111419-020e-4b85-8005-96ab906d2273","system_id":"levelo_inurba_marseille","lat":43.2816,"lon":5.42654,"is_reserved":false,"is_disabled":true,"rental_uris":{"android":"levelo://app?vid=96111419-020e-4b85-8005-96ab906d2273","ios":"levelo://app?vid=96111419-020e-4b85-8005-96ab906d2273"},"vehicle_type_id":"4","last_reported":1738174314,"current_range_meters":0,"station_id":"ce4bhnh2rcd13ifvqgug","pricing_plan_id":"cebpf4jnsgd1na2vs0mg"},{"bike_id":"6154358a-439a-46b5-9df8-fc726363e491","system_id":"levelo_inurba_marseille","lat":43.28885,"lon":5.38446,"is_reserved":false,"is_disabled":false,"rental_uris":{"android":"levelo://app?vid=6154358a-439a-46b5-9df8-fc726363e491","ios":"levelo://app?vid=6154358a-439a-46b5-9df8-fc726363e491"},"vehicle_type_id":"4","last_reported":1738174314,"current_range_meters":7200,"station_id":"","pricing_plan_id":"cebpf4jnsgd1na2vs0mg"},{"bike_id":"9838cc78-2b53-49d3-ae13-82df62c4fd64","system_id":"levelo_inurba_marseille","lat":43.28412,"lon":5.40934,"is_reserved":false,"is_disabled":true,"rental_uris":{"android":"levelo://app?vid=9838cc78-2b53-49d3-ae13-82df62c4fd64","ios":"levelo://app?vid=9838cc78-2b53-49d3-ae13-82df62c4fd64"},"vehicle_type_id":"4","last_reported":1738174314,"current_range_meters":0,"station_id":"","pricing_plan_id":"cebpf4jnsgd1na2vs0mg"},{"bike_id":"a765fe06-018c-4a73-898c-2082c09f528c","system_id":"levelo_inurba_marseille","lat":43.27181,"lon":5.41018,"is_reserved":false,"is_disabled":false,"rental_uris":{"android":"levelo://app?vid=a765fe06-018c-4a73-898c-2082c09f528c","ios":"levelo://app?vid=a765fe06-018c-4a73-898c-2082c09f528c"},"vehicle_type_id":"4","last_reported":1738174314,"current_range_meters":26800,"station_id":"ce4bhl12rcd13ifvqgf0","pricing_plan_id":"cebpf4jnsgd1na2vs0mg"},{"bike_id":"60897c11-30b1-4f9d-8ae9-0cd745775b7f","system_id":"levelo_inurba_marseille","lat":43.27569,"lon":5.38434,"is_reserved":false,"is_disabled":false,"rental_uris":{"android":"levelo://app?vid=60897c11-30b1-4f9d-8ae9-0cd745775b7f","ios":"levelo://app?vid=60897c11-30b1-4f9d-8ae9-0cd745775b7f"},"vehicle_type_id":"4","last_reported":1738174314,"current_range_meters":35600,"station_id":"ce4bhh92rcd13ifvqfi0","pricing_plan_id":"cebpf4jnsgd1na2vs0mg"},{"bike_id":"c4b612cf-bd83-4c1a-9a6d-5ad5ed4741f9","system_id":"levelo_inurba_marseille","lat":43.271843,"lon":5.409855,"is_reserved":false,"is_disabled":false,"rental_uris":{"android":"levelo://app?vid=c4b612cf-bd83-4c1a-9a6d-5ad5ed4741f9","ios":"levelo://app?vid=c4b612cf-bd83-4c1a-9a6d-5ad5ed4741f9"},"vehicle_type_id":"4","last_reported":1738174314,"current_range_meters":38800,"station_id":"ce4bhl12rcd13ifvqgf0","pricing_plan_id":"cebpf4jnsgd1na2vs0mg"},{"bike_id":"cebc1cc3-2475-48cb-aa41-05d47858d44e","system_id":"levelo_inurba_marseille","lat":43.29896,"lon":5.43654,"is_reserved":false,"is_disabled":false,"rental_uris":{"android":"levelo://app?vid=cebc1cc3-2475-48cb-aa41-05d47858d44e","ios":"levelo://app?vid=cebc1cc3-2475-48cb-aa41-05d47858d44e"},"vehicle_type_id":"4","last_reported":1738174314,"current_range_meters":26800,"station_id":"ce4bhpp2rcd13ifvqhfg","pricing_plan_id":"cebpf4jnsgd1na2vs0mg"},{"bike_id":"c854bde6-3823-4924-a211-655b97685edf","system_id":"levelo_inurba_marseille","lat":43.27674,"lon":5.38879,"is_reserved":false,"is_disabled":true,"rental_uris":{"android":"levelo://app?vid=c854bde6-3823-4924-a211-655b97685edf","ios":"levelo://app?vid=c854bde6-3823-4924-a211-655b97685edf"},"vehicle_type_id":"4","last_reported":1738174314,"current_range_meters":0,"station_id":"ce4bhi12rcd13ifvqfo0","pricing_plan_id":"cebpf4jnsgd1na2vs0mg"},{"bike_id":"a18a3998-f4ec-41e7-9f14-0e864a454fb8","system_id":"levelo_inurba_marseille","lat":43.28464,"lon":5.35903,"is_reserved":false,"is_disabled":false,"rental_uris":{"android":"levelo://app?vid=a18a3998-f4ec-41e7-9f14-0e864a454fb8","ios":"levelo://app?vid=a18a3998-f4ec-41e7-9f14-0e864a454fb8"},"vehicle_type_id":"4","last_reported":1738174314,"current_range_meters":11200,"station_id":"ce4bhah2rcd13ifvqei0","pricing_plan_id":"cebpf4jnsgd1na2vs0mg"},{"bike_id":"d09fbc8b-1664-4bee-b0d4-ddf0f6322931","system_id":"levelo_inurba_marseille","lat":43.30542,"lon":5.36523,"is_reserved":false,"is_disabled":false,"rental_uris":{"android":"levelo://app?vid=d09fbc8b-1664-4bee-b0d4-ddf0f6322931","ios":"levelo://app?vid=d09fbc8b-1664-4bee-b0d4-ddf0f6322931"},"vehicle_type_id":"4","last_reported":1738174314,"current_range_meters":28800,"station_id":"ce4bgs12rcd13ifvqcag","pricing_plan_id":"cebpf4jnsgd1na2vs0mg"},{"bike_id":"53a7a3bf-3fd4-4eb1-8db8-2c5096431bb1","system_id":"levelo_inurba_marseille","lat":43.30243,"lon":5.4006,"is_reserved":false,"is_disabled":false,"rental_uris":{"android":"levelo://app?vid=53a7a3bf-3fd4-4eb1-8db8-2c5096431bb1","ios":"levelo://app?vid=53a7a3bf-3fd4-4eb1-8db8-2c5096431bb1"},"vehicle_type_id":"4","last_reported":1738174314,"current_range_meters":19200,"station_id":"ce4bgvh2rcd13ifvqcs0","pricing_plan_id":"cebpf4jnsgd1na2vs0mg"},{"bike_id":"72c0d44a-bafc-46fb-b91e-5b0f3c4c6896","system_id":"levelo_inurba_marseille","lat":43.27968,"lon":5.38721,"is_reserved":false,"is_disabled":false,"rental_uris":{"android":"levelo://app?vid=72c0d44a-bafc-46fb-b91e-5b0f3c4c6896","ios":"levelo://app?vid=72c0d44a-bafc-46fb-b91e-5b0f3c4c6896"},"vehicle_type_id":"4","last_reported":1738174314,"current_range_meters":31200,"station_id":"ce4bhg12rcd13ifvqf80","pricing_plan_id":"cebpf4jnsgd1na2vs0mg"},{"bike_id":"30d1c8f3-5300-4043-9503-c4ce7894e403","system_id":"levelo_inurba_marseille","lat":43.24187,"lon":5.39726,"is_reserved":false,"is_disabled":false,"rental_uris":{"android":"levelo://app?vid=30d1c8f3-5300-4043-9503-c4ce7894e403","ios":"levelo://app?vid=30d1c8f3-5300-4043-9503-c4ce7894e403"},"vehicle_type_id":"4","last_reported":1738174314,"current_range_meters":8000,"station_id":"ce4bhn12rcd13ifvqgpg","pricing_plan_id":"cebpf4jnsgd1na2vs0mg"},{"bike_id":"60215485-6b9b-4721-bb3a-8b32371b51e2","system_id":"levelo_inurba_marseille","lat":43.27965,"lon":5.38719,"is_reserved":false,"is_disabled":false,"rental_uris":{"android":"levelo://app?vid=60215485-6b9b-4721-bb3a-8b32371b51e2","ios":"levelo://app?vid=60215485-6b9b-4721-bb3a-8b32371b51e2"},"vehicle_type_id":"4","last_reported":1738174314,"current_range_meters":22800,"station_id":"ce4bhg12rcd13ifvqf80","pricing_plan_id":"cebpf4jnsgd1na2vs0mg"},{"bike_id":"d51bd018-b652-4e1d-9bf4-54de43279c9c","system_id":"levelo_inurba_marseille","lat":43.32276,"lon":5.38293,"is_reserved":false,"is_disabled":false,"rental_uris":{"android":"levelo://app?vid=d51bd018-b652-4e1d-9bf4-54de43279c9c","ios":"levelo://app?vid=d51bd018-b652-4e1d-9bf4-54de43279c9c"},"vehicle_type_id":"4","last_reported":1738174314,"current_range_meters":22000,"station_id":"ce4bhr12rcd13ifvqhqg","pricing_plan_id":"cebpf4jnsgd1na2vs0mg"},{"bike_id":"8966adc7-8935-4bb4-a804-4c541b15f944","system_id":"levelo_inurba_marseille","lat":43.29031,"lon":5.38642,"is_reserved":false,"is_disabled":false,"rental_uris":{"android":"levelo://app?vid=8966adc7-8935-4bb4-a804-4c541b15f944","ios":"levelo://app?vid=8966adc7-8935-4bb4-a804-4c541b15f944"},"vehicle_type_id":"4","last_reported":1738174314,"current_range_meters":24800,"station_id":"ce4bh4p2rcd13ifvqe0g","pricing_plan_id":"cebpf4jnsgd1na2vs0mg"},{"bike_id":"e616b313-df38-422a-b95a-06db009f6756","system_id":"levelo_inurba_marseille","lat":43.2718,"lon":5.40989,"is_reserved":false,"is_disabled":false,"rental_uris":{"android":"levelo://app?vid=e616b313-df38-422a-b95a-06db009f6756","ios":"levelo://app?vid=e616b313-df38-422a-b95a-06db009f6756"},"vehicle_type_id":"4","last_reported":1738174314,"current_range_meters":30800,"station_id":"ce4bhl12rcd13ifvqgf0","pricing_plan_id":"cebpf4jnsgd1na2vs0mg"},{"bike_id":"d979d8d2-ec65-47af-9229-e4270aab279a","system_id":"levelo_inurba_marseille","lat":43.23065,"lon":5.355,"is_reserved":false,"is_disabled":false,"rental_uris":{"android":"levelo://app?vid=d979d8d2-ec65-47af-9229-e4270aab279a","ios":"levelo://app?vid=d979d8d2-ec65-47af-9229-e4270aab279a"},"vehicle_type_id":"4","last_reported":1738174314,"current_range_meters":17600,"station_id":"cpo3342slgdg3j2ifvpg","pricing_plan_id":"cebpf4jnsgd1na2vs0mg"},{"bike_id":"4022c348-0a12-4ca9-b1a7-9ff470eab2bf","system_id":"levelo_inurba_marseille","lat":43.283515,"lon":5.38118,"is_reserved":false,"is_disabled":false,"rental_uris":{"android":"levelo://app?vid=4022c348-0a12-4ca9-b1a7-9ff470eab2bf","ios":"levelo://app?vid=4022c348-0a12-4ca9-b1a7-9ff470eab2bf"},"vehicle_type_id":"4","last_reported":1738174314,"current_range_meters":7200,"station_id":"ce4bh412rcd13ifvqdr0","pricing_plan_id":"cebpf4jnsgd1na2vs0mg"},{"bike_id":"8401c82e-2c7e-4101-98a2-b12f578674b6","system_id":"levelo_inurba_marseille","lat":43.28439,"lon":5.39181,"is_reserved":false,"is_disabled":true,"rental_uris":{"android":"levelo://app?vid=8401c82e-2c7e-4101-98a2-b12f578674b6","ios":"levelo://app?vid=8401c82e-2c7e-4101-98a2-b12f578674b6"},"vehicle_type_id":"4","last_reported":1738174314,"current_range_meters":400,"station_id":"ce4bhoh2rcd13ifvqh5g","pricing_plan_id":"cebpf4jnsgd1na2vs0mg"},{"bike_id":"7d6260ec-6d8c-4d5b-8950-1a493871014c","system_id":"levelo_inurba_marseille","lat":43.299,"lon":5.43666,"is_reserved":false,"is_disabled":false,"rental_uris":{"android":"levelo://app?vid=7d6260ec-6d8c-4d5b-8950-1a493871014c","ios":"levelo://app?vid=7d6260ec-6d8c-4d5b-8950-1a493871014c"},"vehicle_type_id":"4","last_reported":1738174314,"current_range_meters":27600,"station_id":"ce4bhpp2rcd13ifvqhfg","pricing_plan_id":"cebpf4jnsgd1na2vs0mg"},{"bike_id":"8531a105-c117-474e-b069-6567179c8036","system_id":"levelo_inurba_marseille","lat":43.28665,"lon":5.36355,"is_reserved":false,"is_disabled":false,"rental_uris":{"android":"levelo://app?vid=8531a105-c117-474e-b069-6567179c8036","ios":"levelo://app?vid=8531a105-c117-474e-b069-6567179c8036"},"vehicle_type_id":"4","last_reported":1738174314,"current_range_meters":26000,"station_id":"ce4bhah2rcd13ifvqej0","pricing_plan_id":"cebpf4jnsgd1na2vs0mg"},{"bike_id":"c5228e69-a08c-42cd-8e0c-ea75456912ae","system_id":"levelo_inurba_marseille","lat":43.27318,"lon":5.39077,"is_reserved":false,"is_disabled":true,"rental_uris":{"android":"levelo://app?vid=c5228e69-a08c-42cd-8e0c-ea75456912ae","ios":"levelo://app?vid=c5228e69-a08c-42cd-8e0c-ea75456912ae"},"vehicle_type_id":"4","last_reported":1738174314,"current_range_meters":2800,"station_id":"ce4bhgp2rcd13ifvqfe0","pricing_plan_id":"cebpf4jnsgd1na2vs0mg"},{"bike_id":"a7fa174b-9e7a-480f-96ea-d7b68ff91040","system_id":"levelo_inurba_marseille","lat":43.29989,"lon":5.38526,"is_reserved":false,"is_disabled":true,"rental_uris":{"android":"levelo://app?vid=a7fa174b-9e7a-480f-96ea-d7b68ff91040","ios":"levelo://app?vid=a7fa174b-9e7a-480f-96ea-d7b68ff91040"},"vehicle_type_id":"4","last_reported":1738174314,"current_range_meters":33600,"station_id":"ce4bgj92rcd13ifvqbd0","pricing_plan_id":"cebpf4jnsgd1na2vs0mg"},{"bike_id":"d8b1c3f9-ff6e-4179-8423-4ba0d2a2af0e","system_id":"levelo_inurba_marseille","lat":43.33728,"lon":5.39177,"is_reserved":false,"is_disabled":false,"rental_uris":{"android":"levelo://app?vid=d8b1c3f9-ff6e-4179-8423-4ba0d2a2af0e","ios":"levelo://app?vid=d8b1c3f9-ff6e-4179-8423-4ba0d2a2af0e"},"vehicle_type_id":"4","last_reported":1738174314,"current_range_meters":38800,"station_id":"ce4bhr92rcd13ifvqhsg","pricing_plan_id":"cebpf4jnsgd1na2vs0mg"},{"bike_id":"ee29ffa2-4da1-4468-9d56-5a2e7e193d6d","system_id":"levelo_inurba_marseille","lat":43.29592,"lon":5.36739,"is_reserved":false,"is_disabled":false,"rental_uris":{"android":"levelo://app?vid=ee29ffa2-4da1-4468-9d56-5a2e7e193d6d","ios":"levelo://app?vid=ee29ffa2-4da1-4468-9d56-5a2e7e193d6d"},"vehicle_type_id":"4","last_reported":1738174314,"current_range_meters":38800,"station_id":"ce4bgph2rcd13ifvqc2g","pricing_plan_id":"cebpf4jnsgd1na2vs0mg"},{"bike_id":"24c3f57e-10bf-40fd-9d10-f14144e314b3","system_id":"levelo_inurba_marseille","lat":43.33024,"lon":5.39051,"is_reserved":false,"is_disabled":false,"rental_uris":{"android":"levelo://app?vid=24c3f57e-10bf-40fd-9d10-f14144e314b3","ios":"levelo://app?vid=24c3f57e-10bf-40fd-9d10-f14144e314b3"},"vehicle_type_id":"4","last_reported":1738174314,"current_range_meters":38800,"station_id":"ce4bhr92rcd13ifvqhrg","pricing_plan_id":"cebpf4jnsgd1na2vs0mg"},{"bike_id":"91394c05-5d2c-4802-8f5f-6f60929bbe7d","system_id":"levelo_inurba_marseille","lat":43.26786,"lon":5.39409,"is_reserved":false,"is_disabled":false,"rental_uris":{"android":"levelo://app?vid=91394c05-5d2c-4802-8f5f-6f60929bbe7d","ios":"levelo://app?vid=91394c05-5d2c-4802-8f5f-6f60929bbe7d"},"vehicle_type_id":"4","last_reported":1738174314,"current_range_meters":36400,"station_id":"ce4bhh12rcd13ifvqfg0","pricing_plan_id":"cebpf4jnsgd1na2vs0mg"},{"bike_id":"c6b22e63-3112-4b18-a4bd-a7ccda40bad7","system_id":"levelo_inurba_marseille","lat":43.2989,"lon":5.38127,"is_reserved":false,"is_disabled":true,"rental_uris":{"android":"levelo://app?vid=c6b22e63-3112-4b18-a4bd-a7ccda40bad7","ios":"levelo://app?vid=c6b22e63-3112-4b18-a4bd-a7ccda40bad7"},"vehicle_type_id":"4","last_reported":1738174314,"current_range_meters":28000,"station_id":"ce4bgj12rcd13ifvqbc0","pricing_plan_id":"cebpf4jnsgd1na2vs0mg"},{"bike_id":"d771a357-1752-4074-ae7d-a168eb780f2e","system_id":"levelo_inurba_marseille","lat":43.28666,"lon":5.36357,"is_reserved":false,"is_disabled":false,"rental_uris":{"android":"levelo://app?vid=d771a357-1752-4074-ae7d-a168eb780f2e","ios":"levelo://app?vid=d771a357-1752-4074-ae7d-a168eb780f2e"},"vehicle_type_id":"4","last_reported":1738174314,"current_range_meters":6800,"station_id":"ce4bhah2rcd13ifvqej0","pricing_plan_id":"cebpf4jnsgd1na2vs0mg"},{"bike_id":"7dc5bf12-1318-4222-8f9d-88a8ccc9fc60","system_id":"levelo_inurba_marseille","lat":43.29529,"lon":5.39019,"is_reserved":false,"is_disabled":false,"rental_uris":{"android":"levelo://app?vid=7dc5bf12-1318-4222-8f9d-88a8ccc9fc60","ios":"levelo://app?vid=7dc5bf12-1318-4222-8f9d-88a8ccc9fc60"},"vehicle_type_id":"4","last_reported":1738174314,"current_range_meters":25200,"station_id":"ce4bh3p2rcd13ifvqdp0","pricing_plan_id":"cebpf4jnsgd1na2vs0mg"},{"bike_id":"bf347ed1-1c94-4677-9c17-53330017b8d2","system_id":"levelo_inurba_marseille","lat":43.29195,"lon":5.39311,"is_reserved":false,"is_disabled":false,"rental_uris":{"android":"levelo://app?vid=bf347ed1-1c94-4677-9c17-53330017b8d2","ios":"levelo://app?vid=bf347ed1-1c94-4677-9c17-53330017b8d2"},"vehicle_type_id":"4","last_reported":1738174314,"current_range_meters":26000,"station_id":"ce4bh192rcd13ifvqdd0","pricing_plan_id":"cebpf4jnsgd1na2vs0mg"},{"bike_id":"3c9c9088-9c27-4609-bc62-8218c0dc2be8","system_id":"levelo_inurba_marseille","lat":43.23192,"lon":5.35565,"is_reserved":false,"is_disabled":false,"rental_uris":{"android":"levelo://app?vid=3c9c9088-9c27-4609-bc62-8218c0dc2be8","ios":"levelo://app?vid=3c9c9088-9c27-4609-bc62-8218c0dc2be8"},"vehicle_type_id":"4","last_reported":1738174314,"current_range_meters":38800,"station_id":"ce4bhu92rcd13ifvqi70","pricing_plan_id":"cebpf4jnsgd1na2vs0mg"},{"bike_id":"ee6cddcb-3675-46e7-b2e2-06e8f68994d8","system_id":"levelo_inurba_marseille","lat":43.29435,"lon":5.38628,"is_reserved":false,"is_disabled":false,"rental_uris":{"android":"levelo://app?vid=ee6cddcb-3675-46e7-b2e2-06e8f68994d8","ios":"levelo://app?vid=ee6cddcb-3675-46e7-b2e2-06e8f68994d8"},"vehicle_type_id":"4","last_reported":1738174314,"current_range_meters":10800,"station_id":"ce4bh2h2rcd13ifvqdh0","pricing_plan_id":"cebpf4jnsgd1na2vs0mg"},{"bike_id":"31e09b01-b790-4187-a00d-62fe58555cb3","system_id":"levelo_inurba_marseille","lat":43.29878,"lon":5.38912,"is_reserved":false,"is_disabled":false,"rental_uris":{"android":"levelo://app?vid=31e09b01-b790-4187-a00d-62fe58555cb3","ios":"levelo://app?vid=31e09b01-b790-4187-a00d-62fe58555cb3"},"vehicle_type_id":"4","last_reported":1738174314,"current_range_meters":12800,"station_id":"ce4bh392rcd13ifvqdl0","pricing_plan_id":"cebpf4jnsgd1na2vs0mg"},{"bike_id":"65c22d16-0d7c-48ff-a902-c9b423eb9b6e","system_id":"levelo_inurba_marseille","lat":43.25869,"lon":5.39896,"is_reserved":false,"is_disabled":false,"rental_uris":{"android":"levelo://app?vid=65c22d16-0d7c-48ff-a902-c9b423eb9b6e","ios":"levelo://app?vid=65c22d16-0d7c-48ff-a902-c9b423eb9b6e"},"vehicle_type_id":"4","last_reported":1738174314,"current_range_meters":19600,"station_id":"ce4bhl92rcd13ifvqghg","pricing_plan_id":"cebpf4jnsgd1na2vs0mg"},{"bike_id":"0679e8e7-1d83-45e7-b848-939cf45d57c6","system_id":"levelo_inurba_marseille","lat":43.29539,"lon":5.3855,"is_reserved":false,"is_disabled":false,"rental_uris":{"android":"levelo://app?vid=0679e8e7-1d83-45e7-b848-939cf45d57c6","ios":"levelo://app?vid=0679e8e7-1d83-45e7-b848-939cf45d57c6"},"vehicle_type_id":"4","last_reported":1738174314,"current_range_meters":38800,"station_id":"ce4bgih2rcd13ifvqba0","pricing_plan_id":"cebpf4jnsgd1na2vs0mg"},{"bike_id":"53fa82d1-eb43-4e19-8ac1-1347a372b80a","system_id":"levelo_inurba_marseille","lat":43.25872,"lon":5.39882,"is_reserved":false,"is_disabled":false,"rental_uris":{"android":"levelo://app?vid=53fa82d1-eb43-4e19-8ac1-1347a372b80a","ios":"levelo://app?vid=53fa82d1-eb43-4e19-8ac1-1347a372b80a"},"vehicle_type_id":"4","last_reported":1738174314,"current_range_meters":33600,"station_id":"ce4bhl92rcd13ifvqghg","pricing_plan_id":"cebpf4jnsgd1na2vs0mg"},{"bike_id":"796664c1-d207-429d-b5f8-272d4d89b86b","system_id":"levelo_inurba_marseille","lat":43.3304,"lon":5.39036,"is_reserved":false,"is_disabled":false,"rental_uris":{"android":"levelo://app?vid=796664c1-d207-429d-b5f8-272d4d89b86b","ios":"levelo://app?vid=796664c1-d207-429d-b5f8-272d4d89b86b"},"vehicle_type_id":"4","last_reported":1738174314,"current_range_meters":36400,"station_id":"ce4bhr92rcd13ifvqhrg","pricing_plan_id":"cebpf4jnsgd1na2vs0mg"},{"bike_id":"d68d4b5d-0ff7-4f27-8930-5a0cf66d1d7c","system_id":"levelo_inurba_marseille","lat":43.3043,"lon":5.39754,"is_reserved":false,"is_disabled":false,"rental_uris":{"android":"levelo://app?vid=d68d4b5d-0ff7-4f27-8930-5a0cf66d1d7c","ios":"levelo://app?vid=d68d4b5d-0ff7-4f27-8930-5a0cf66d1d7c"},"vehicle_type_id":"4","last_reported":1738174314,"current_range_meters":18800,"station_id":"ce4bh092rcd13ifvqd20","pricing_plan_id":"cebpf4jnsgd1na2vs0mg"},{"bike_id":"21dcda01-dc61-4318-b38b-7fe72cb5a51e","system_id":"levelo_inurba_marseille","lat":43.29821,"lon":5.3624,"is_reserved":false,"is_disabled":false,"rental_uris":{"android":"levelo://app?vid=21dcda01-dc61-4318-b38b-7fe72cb5a51e","ios":"levelo://app?vid=21dcda01-dc61-4318-b38b-7fe72cb5a51e"},"vehicle_type_id":"4","last_reported":1738174314,"current_range_meters":7200,"station_id":"ce4bgpp2rcd13ifvqc3g","pricing_plan_id":"cebpf4jnsgd1na2vs0mg"},{"bike_id":"b5b78cfd-5efc-4893-8da6-672549072a8c","system_id":"levelo_inurba_marseille","lat":43.25824,"lon":5.39445,"is_reserved":false,"is_disabled":false,"rental_uris":{"android":"levelo://app?vid=b5b78cfd-5efc-4893-8da6-672549072a8c","ios":"levelo://app?vid=b5b78cfd-5efc-4893-8da6-672549072a8c"},"vehicle_type_id":"4","last_reported":1738174314,"current_range_meters":17200,"station_id":"ce4bhip2rcd13ifvqft0","pricing_plan_id":"cebpf4jnsgd1na2vs0mg"},{"bike_id":"bb6baece-dcd6-468f-8663-d5d138b6b8f3","system_id":"levelo_inurba_marseille","lat":43.251054,"lon":5.4034,"is_reserved":false,"is_disabled":false,"rental_uris":{"android":"levelo://app?vid=bb6baece-dcd6-468f-8663-d5d138b6b8f3","ios":"levelo://app?vid=bb6baece-dcd6-468f-8663-d5d138b6b8f3"},"vehicle_type_id":"4","last_reported":1738174314,"current_range_meters":25200,"station_id":"ce4bhlh2rcd13ifvqgig","pricing_plan_id":"cebpf4jnsgd1na2vs0mg"},{"bike_id":"1e3bc1ac-75bb-44a1-8857-ef8f9e3ea1b0","system_id":"levelo_inurba_marseille","lat":43.32286,"lon":5.3827,"is_reserved":false,"is_disabled":false,"rental_uris":{"android":"levelo://app?vid=1e3bc1ac-75bb-44a1-8857-ef8f9e3ea1b0","ios":"levelo://app?vid=1e3bc1ac-75bb-44a1-8857-ef8f9e3ea1b0"},"vehicle_type_id":"4","last_reported":1738174314,"current_range_meters":22000,"station_id":"ce4bhr12rcd13ifvqhqg","pricing_plan_id":"cebpf4jnsgd1na2vs0mg"},{"bike_id":"b5b8cdb4-8aeb-4aa7-968d-abac927353b6","system_id":"levelo_inurba_marseille","lat":43.31364,"lon":5.38484,"is_reserved":false,"is_disabled":false,"rental_uris":{"android":"levelo://app?vid=b5b8cdb4-8aeb-4aa7-968d-abac927353b6","ios":"levelo://app?vid=b5b8cdb4-8aeb-4aa7-968d-abac927353b6"},"vehicle_type_id":"4","last_reported":1738174314,"current_range_meters":22000,"station_id":"ce4bgt92rcd13ifvqcf0","pricing_plan_id":"cebpf4jnsgd1na2vs0mg"},{"bike_id":"5507b78b-a8ff-461a-b0a6-b5720cb28780","system_id":"levelo_inurba_marseille","lat":43.287,"lon":5.37396,"is_reserved":false,"is_disabled":false,"rental_uris":{"android":"levelo://app?vid=5507b78b-a8ff-461a-b0a6-b5720cb28780","ios":"levelo://app?vid=5507b78b-a8ff-461a-b0a6-b5720cb28780"},"vehicle_type_id":"4","last_reported":1738174314,"current_range_meters":14000,"station_id":"ce4bh3p2rcd13ifvqdq0","pricing_plan_id":"cebpf4jnsgd1na2vs0mg"},{"bike_id":"ed91be64-cef5-490b-8ec1-3351f1f0455f","system_id":"levelo_inurba_marseille","lat":43.30254,"lon":5.40071,"is_reserved":false,"is_disabled":false,"rental_uris":{"android":"levelo://app?vid=ed91be64-cef5-490b-8ec1-3351f1f0455f","ios":"levelo://app?vid=ed91be64-cef5-490b-8ec1-3351f1f0455f"},"vehicle_type_id":"4","last_reported":1738174314,"current_range_meters":17200,"station_id":"ce4bgvh2rcd13ifvqcs0","pricing_plan_id":"cebpf4jnsgd1na2vs0mg"},{"bike_id":"9061c30b-f0f7-46e3-8477-d3c2c36b1f53","system_id":"levelo_inurba_marseille","lat":43.28035,"lon":5.36948,"is_reserved":false,"is_disabled":false,"rental_uris":{"android":"levelo://app?vid=9061c30b-f0f7-46e3-8477-d3c2c36b1f53","ios":"levelo://app?vid=9061c30b-f0f7-46e3-8477-d3c2c36b1f53"},"vehicle_type_id":"4","last_reported":1738174314,"current_range_meters":38800,"station_id":"ce4bha12rcd13ifvqef0","pricing_plan_id":"cebpf4jnsgd1na2vs0mg"},{"bike_id":"f13d5aa8-c024-4fbb-8216-a7ef6ab1eff4","system_id":"levelo_inurba_marseille","lat":43.31895,"lon":5.40735,"is_reserved":false,"is_disabled":false,"rental_uris":{"android":"levelo://app?vid=f13d5aa8-c024-4fbb-8216-a7ef6ab1eff4","ios":"levelo://app?vid=f13d5aa8-c024-4fbb-8216-a7ef6ab1eff4"},"vehicle_type_id":"4","last_reported":1738174314,"current_range_meters":38400,"station_id":"ce4bhq12rcd13ifvqhig","pricing_plan_id":"cebpf4jnsgd1na2vs0mg"},{"bike_id":"39bd9e28-59f1-42e3-98fa-8269cd3a779a","system_id":"levelo_inurba_marseille","lat":43.28092,"lon":5.3966,"is_reserved":false,"is_disabled":true,"rental_uris":{"android":"levelo://app?vid=39bd9e28-59f1-42e3-98fa-8269cd3a779a","ios":"levelo://app?vid=39bd9e28-59f1-42e3-98fa-8269cd3a779a"},"vehicle_type_id":"4","last_reported":1738174314,"current_range_meters":800,"station_id":"ce4bho12rcd13ifvqh2g","pricing_plan_id":"cebpf4jnsgd1na2vs0mg"},{"bike_id":"ab2c796a-c23b-4a3a-9534-777b873d6a05","system_id":"levelo_inurba_marseille","lat":43.24163,"lon":5.36406,"is_reserved":false,"is_disabled":false,"rental_uris":{"android":"levelo://app?vid=ab2c796a-c23b-4a3a-9534-777b873d6a05","ios":"levelo://app?vid=ab2c796a-c23b-4a3a-9534-777b873d6a05"},"vehicle_type_id":"4","last_reported":1738174314,"current_range_meters":15200,"station_id":"cpo36qri1sfpv3e86is0","pricing_plan_id":"cebpf4jnsgd1na2vs0mg"},{"bike_id":"a833db72-e176-47ed-b4fe-2c2e6afc478d","system_id":"levelo_inurba_marseille","lat":43.30324,"lon":5.40441,"is_reserved":false,"is_disabled":false,"rental_uris":{"android":"levelo://app?vid=a833db72-e176-47ed-b4fe-2c2e6afc478d","ios":"levelo://app?vid=a833db72-e176-47ed-b4fe-2c2e6afc478d"},"vehicle_type_id":"4","last_reported":1738174314,"current_range_meters":27200,"station_id":"ce4bh012rcd13ifvqd10","pricing_plan_id":"cebpf4jnsgd1na2vs0mg"},{"bike_id":"eca914c1-5c29-44d5-b3d0-f7b51a76a49b","system_id":"levelo_inurba_marseille","lat":43.26035,"lon":5.37546,"is_reserved":false,"is_disabled":false,"rental_uris":{"android":"levelo://app?vid=eca914c1-5c29-44d5-b3d0-f7b51a76a49b","ios":"levelo://app?vid=eca914c1-5c29-44d5-b3d0-f7b51a76a49b"},"vehicle_type_id":"4","last_reported":1738174314,"current_range_meters":27200,"station_id":"ce4bhgh2rcd13ifvqfa0","pricing_plan_id":"cebpf4jnsgd1na2vs0mg"},{"bike_id":"450e3f0c-21f7-47e4-a591-52ca8404051a","system_id":"levelo_inurba_marseille","lat":43.29186,"lon":5.39297,"is_reserved":false,"is_disabled":false,"rental_uris":{"android":"levelo://app?vid=450e3f0c-21f7-47e4-a591-52ca8404051a","ios":"levelo://app?vid=450e3f0c-21f7-47e4-a591-52ca8404051a"},"vehicle_type_id":"4","last_reported":1738174314,"current_range_meters":22400,"station_id":"ce4bh192rcd13ifvqdd0","pricing_plan_id":"cebpf4jnsgd1na2vs0mg"},{"bike_id":"fa910578-4caa-4210-aa45-ea80af27e609","system_id":"levelo_inurba_marseille","lat":43.31724,"lon":5.42383,"is_reserved":false,"is_disabled":false,"rental_uris":{"android":"levelo://app?vid=fa910578-4caa-4210-aa45-ea80af27e609","ios":"levelo://app?vid=fa910578-4caa-4210-aa45-ea80af27e609"},"vehicle_type_id":"4","last_reported":1738174314,"current_range_meters":37600,"station_id":"ce4bhp92rcd13ifvqhbg","pricing_plan_id":"cebpf4jnsgd1na2vs0mg"},{"bike_id":"f658c344-7f13-4d54-85bb-fe625358b82f","system_id":"levelo_inurba_marseille","lat":43.28337,"lon":5.38093,"is_reserved":false,"is_disabled":false,"rental_uris":{"android":"levelo://app?vid=f658c344-7f13-4d54-85bb-fe625358b82f","ios":"levelo://app?vid=f658c344-7f13-4d54-85bb-fe625358b82f"},"vehicle_type_id":"4","last_reported":1738174314,"current_range_meters":38800,"station_id":"ce4bh412rcd13ifvqdr0","pricing_plan_id":"cebpf4jnsgd1na2vs0mg"},{"bike_id":"4db0ee50-a77b-48bc-ae95-385921c8c1a6","system_id":"levelo_inurba_marseille","lat":43.28488,"lon":5.38426,"is_reserved":false,"is_disabled":false,"rental_uris":{"android":"levelo://app?vid=4db0ee50-a77b-48bc-ae95-385921c8c1a6","ios":"levelo://app?vid=4db0ee50-a77b-48bc-ae95-385921c8c1a6"},"vehicle_type_id":"4","last_reported":1738174314,"current_range_meters":31200,"station_id":"ce4bh512rcd13ifvqe3g","pricing_plan_id":"cebpf4jnsgd1na2vs0mg"},{"bike_id":"f0f07e84-01c4-443b-852b-4e00b882c1d8","system_id":"levelo_inurba_marseille","lat":43.30798,"lon":5.4353,"is_reserved":false,"is_disabled":false,"rental_uris":{"android":"levelo://app?vid=f0f07e84-01c4-443b-852b-4e00b882c1d8","ios":"levelo://app?vid=f0f07e84-01c4-443b-852b-4e00b882c1d8"},"vehicle_type_id":"4","last_reported":1738174314,"current_range_meters":38800,"station_id":"ce4bhph2rcd13ifvqheg","pricing_plan_id":"cebpf4jnsgd1na2vs0mg"},{"bike_id":"46b7ca4e-5ebb-4782-aafc-3512392391be","system_id":"levelo_inurba_marseille","lat":43.28852,"lon":5.39324,"is_reserved":false,"is_disabled":false,"rental_uris":{"android":"levelo://app?vid=46b7ca4e-5ebb-4782-aafc-3512392391be","ios":"levelo://app?vid=46b7ca4e-5ebb-4782-aafc-3512392391be"},"vehicle_type_id":"4","last_reported":1738174314,"current_range_meters":21600,"station_id":"ce4bh2p2rcd13ifvqdi0","pricing_plan_id":"cebpf4jnsgd1na2vs0mg"},{"bike_id":"615a0747-8d06-4fbf-b735-2ce44cc12594","system_id":"levelo_inurba_marseille","lat":43.32361,"lon":5.38885,"is_reserved":false,"is_disabled":false,"rental_uris":{"android":"levelo://app?vid=615a0747-8d06-4fbf-b735-2ce44cc12594","ios":"levelo://app?vid=615a0747-8d06-4fbf-b735-2ce44cc12594"},"vehicle_type_id":"4","last_reported":1738174314,"current_range_meters":19200,"station_id":"ce4bhqp2rcd13ifvqhog","pricing_plan_id":"cebpf4jnsgd1na2vs0mg"},{"bike_id":"4e331cde-9b58-436f-9288-d266e9017c62","system_id":"levelo_inurba_marseille","lat":43.24188,"lon":5.39745,"is_reserved":false,"is_disabled":false,"rental_uris":{"android":"levelo://app?vid=4e331cde-9b58-436f-9288-d266e9017c62","ios":"levelo://app?vid=4e331cde-9b58-436f-9288-d266e9017c62"},"vehicle_type_id":"4","last_reported":1738174314,"current_range_meters":10000,"station_id":"ce4bhn12rcd13ifvqgpg","pricing_plan_id":"cebpf4jnsgd1na2vs0mg"},{"bike_id":"02d39449-0eb9-4903-94f1-cdcb8fa74f19","system_id":"levelo_inurba_marseille","lat":43.27813,"lon":5.407,"is_reserved":false,"is_disabled":false,"rental_uris":{"android":"levelo://app?vid=02d39449-0eb9-4903-94f1-cdcb8fa74f19","ios":"levelo://app?vid=02d39449-0eb9-4903-94f1-cdcb8fa74f19"},"vehicle_type_id":"4","last_reported":1738174314,"current_range_meters":34000,"station_id":"ce4bhnh2rcd13ifvqgtg","pricing_plan_id":"cebpf4jnsgd1na2vs0mg"},{"bike_id":"3afe2907-14fe-40b0-8ce8-247215ed16c8","system_id":"levelo_inurba_marseille","lat":43.26942,"lon":5.38919,"is_reserved":false,"is_disabled":true,"rental_uris":{"android":"levelo://app?vid=3afe2907-14fe-40b0-8ce8-247215ed16c8","ios":"levelo://app?vid=3afe2907-14fe-40b0-8ce8-247215ed16c8"},"vehicle_type_id":"4","last_reported":1738174314,"current_range_meters":3600,"station_id":"ce4bhhh2rcd13ifvqfl0","pricing_plan_id":"cebpf4jnsgd1na2vs0mg"},{"bike_id":"e8e1f7c6-d773-4c38-bfcc-4a6d773355ce","system_id":"levelo_inurba_marseille","lat":43.22931,"lon":5.35371,"is_reserved":false,"is_disabled":false,"rental_uris":{"android":"levelo://app?vid=e8e1f7c6-d773-4c38-bfcc-4a6d773355ce","ios":"levelo://app?vid=e8e1f7c6-d773-4c38-bfcc-4a6d773355ce"},"vehicle_type_id":"4","last_reported":1738174314,"current_range_meters":38800,"station_id":"cpo3532slgdg3j2ikp40","pricing_plan_id":"cebpf4jnsgd1na2vs0mg"},{"bike_id":"f0ed3e26-8dad-4678-bee9-f6903412b754","system_id":"levelo_inurba_marseille","lat":43.28112,"lon":5.37849,"is_reserved":false,"is_disabled":false,"rental_uris":{"android":"levelo://app?vid=f0ed3e26-8dad-4678-bee9-f6903412b754","ios":"levelo://app?vid=f0ed3e26-8dad-4678-bee9-f6903412b754"},"vehicle_type_id":"4","last_reported":1738174314,"current_range_meters":37600,"station_id":"ce4bha12rcd13ifvqee0","pricing_plan_id":"cebpf4jnsgd1na2vs0mg"},{"bike_id":"c6d9776a-49c2-423f-a499-a0451a1f511e","system_id":"levelo_inurba_marseille","lat":43.30956,"lon":5.39036,"is_reserved":false,"is_disabled":false,"rental_uris":{"android":"levelo://app?vid=c6d9776a-49c2-423f-a499-a0451a1f511e","ios":"levelo://app?vid=c6d9776a-49c2-423f-a499-a0451a1f511e"},"vehicle_type_id":"4","last_reported":1738174314,"current_range_meters":20000,"station_id":"ce4bgup2rcd13ifvqco0","pricing_plan_id":"cebpf4jnsgd1na2vs0mg"},{"bike_id":"b9c67b31-5b70-486d-ab63-ac678ea85199","system_id":"levelo_inurba_marseille","lat":43.26187,"lon":5.37459,"is_reserved":false,"is_disabled":false,"rental_uris":{"android":"levelo://app?vid=b9c67b31-5b70-486d-ab63-ac678ea85199","ios":"levelo://app?vid=b9c67b31-5b70-486d-ab63-ac678ea85199"},"vehicle_type_id":"4","last_reported":1738174314,"current_range_meters":22800,"station_id":"ce4bhgp2rcd13ifvqfc0","pricing_plan_id":"cebpf4jnsgd1na2vs0mg"},{"bike_id":"13da3b75-536b-4260-bc06-acbd5c63dff9","system_id":"levelo_inurba_marseille","lat":43.23197,"lon":5.3998,"is_reserved":false,"is_disabled":false,"rental_uris":{"android":"levelo://app?vid=13da3b75-536b-4260-bc06-acbd5c63dff9","ios":"levelo://app?vid=13da3b75-536b-4260-bc06-acbd5c63dff9"},"vehicle_type_id":"4","last_reported":1738174314,"current_range_meters":38800,"station_id":"ce4bhn12rcd13ifvqgqg","pricing_plan_id":"cebpf4jnsgd1na2vs0mg"},{"bike_id":"c7d3cd14-c17e-40b6-ad28-95f8e7b23957","system_id":"levelo_inurba_marseille","lat":43.25721,"lon":5.41108,"is_reserved":false,"is_disabled":false,"rental_uris":{"android":"levelo://app?vid=c7d3cd14-c17e-40b6-ad28-95f8e7b23957","ios":"levelo://app?vid=c7d3cd14-c17e-40b6-ad28-95f8e7b23957"},"vehicle_type_id":"4","last_reported":1738174314,"current_range_meters":36800,"station_id":"ce4bhkp2rcd13ifvqgd0","pricing_plan_id":"cebpf4jnsgd1na2vs0mg"},{"bike_id":"f052ed73-f3c7-4432-884c-90cf35af7b20","system_id":"levelo_inurba_marseille","lat":43.31715,"lon":5.37738,"is_reserved":false,"is_disabled":false,"rental_uris":{"android":"levelo://app?vid=f052ed73-f3c7-4432-884c-90cf35af7b20","ios":"levelo://app?vid=f052ed73-f3c7-4432-884c-90cf35af7b20"},"vehicle_type_id":"4","last_reported":1738174314,"current_range_meters":6000,"station_id":"ce4bgth2rcd13ifvqch0","pricing_plan_id":"cebpf4jnsgd1na2vs0mg"},{"bike_id":"ebbbeda3-6f3b-497d-a709-e29544308192","system_id":"levelo_inurba_marseille","lat":43.29516,"lon":5.39419,"is_reserved":false,"is_disabled":false,"rental_uris":{"android":"levelo://app?vid=ebbbeda3-6f3b-497d-a709-e29544308192","ios":"levelo://app?vid=ebbbeda3-6f3b-497d-a709-e29544308192"},"vehicle_type_id":"4","last_reported":1738174314,"current_range_meters":24800,"station_id":"ce4bh292rcd13ifvqdf0","pricing_plan_id":"cebpf4jnsgd1na2vs0mg"},{"bike_id":"dd195832-ff3f-4763-a260-74003ef7ff4c","system_id":"levelo_inurba_marseille","lat":43.29222,"lon":5.36054,"is_reserved":false,"is_disabled":false,"rental_uris":{"android":"levelo://app?vid=dd195832-ff3f-4763-a260-74003ef7ff4c","ios":"levelo://app?vid=dd195832-ff3f-4763-a260-74003ef7ff4c"},"vehicle_type_id":"4","last_reported":1738174314,"current_range_meters":32800,"station_id":"ce4bhbh2rcd13ifvqeqg","pricing_plan_id":"cebpf4jnsgd1na2vs0mg"},{"bike_id":"ee757b3c-1b66-4688-957f-c178b479b260","system_id":"levelo_inurba_marseille","lat":43.28428,"lon":5.3919,"is_reserved":false,"is_disabled":false,"rental_uris":{"android":"levelo://app?vid=ee757b3c-1b66-4688-957f-c178b479b260","ios":"levelo://app?vid=ee757b3c-1b66-4688-957f-c178b479b260"},"vehicle_type_id":"4","last_reported":1738174314,"current_range_meters":28800,"station_id":"ce4bhoh2rcd13ifvqh5g","pricing_plan_id":"cebpf4jnsgd1na2vs0mg"},{"bike_id":"7cbfc840-8be9-451b-83cd-cd2511b7a3d1","system_id":"levelo_inurba_marseille","lat":43.2758,"lon":5.38385,"is_reserved":false,"is_disabled":false,"rental_uris":{"android":"levelo://app?vid=7cbfc840-8be9-451b-83cd-cd2511b7a3d1","ios":"levelo://app?vid=7cbfc840-8be9-451b-83cd-cd2511b7a3d1"},"vehicle_type_id":"4","last_reported":1738174314,"current_range_meters":28800,"station_id":"ce4bhh92rcd13ifvqfi0","pricing_plan_id":"cebpf4jnsgd1na2vs0mg"},{"bike_id":"c1d1ce73-8f8f-42c4-8303-66858ad4f592","system_id":"levelo_inurba_marseille","lat":43.27485,"lon":5.42489,"is_reserved":false,"is_disabled":true,"rental_uris":{"android":"levelo://app?vid=c1d1ce73-8f8f-42c4-8303-66858ad4f592","ios":"levelo://app?vid=c1d1ce73-8f8f-42c4-8303-66858ad4f592"},"vehicle_type_id":"4","last_reported":1738174314,"current_range_meters":27200,"station_id":"ce4bhn92rcd13ifvqgrg","pricing_plan_id":"cebpf4jnsgd1na2vs0mg"},{"bike_id":"e772bd17-0385-469c-865e-a70732c91048","system_id":"levelo_inurba_marseille","lat":43.29701,"lon":5.36595,"is_reserved":false,"is_disabled":false,"rental_uris":{"android":"levelo://app?vid=e772bd17-0385-469c-865e-a70732c91048","ios":"levelo://app?vid=e772bd17-0385-469c-865e-a70732c91048"},"vehicle_type_id":"4","last_reported":1738174314,"current_range_meters":8000,"station_id":"ce4bgn12rcd13ifvqbt0","pricing_plan_id":"cebpf4jnsgd1na2vs0mg"},{"bike_id":"71f34f72-d3b7-46a5-9bd4-1fe057b3152f","system_id":"levelo_inurba_marseille","lat":43.22936,"lon":5.35383,"is_reserved":false,"is_disabled":false,"rental_uris":{"android":"levelo://app?vid=71f34f72-d3b7-46a5-9bd4-1fe057b3152f","ios":"levelo://app?vid=71f34f72-d3b7-46a5-9bd4-1fe057b3152f"},"vehicle_type_id":"4","last_reported":1738174314,"current_range_meters":38800,"station_id":"cpo3532slgdg3j2ikp40","pricing_plan_id":"cebpf4jnsgd1na2vs0mg"},{"bike_id":"20029bdd-9f9c-4ff9-86e4-5ba6ed30f46a","system_id":"levelo_inurba_marseille","lat":43.23161,"lon":5.4372,"is_reserved":false,"is_disabled":true,"rental_uris":{"android":"levelo://app?vid=20029bdd-9f9c-4ff9-86e4-5ba6ed30f46a","ios":"levelo://app?vid=20029bdd-9f9c-4ff9-86e4-5ba6ed30f46a"},"vehicle_type_id":"4","last_reported":1738174314,"current_range_meters":0,"station_id":"ce4bhmp2rcd13ifvqgog","pricing_plan_id":"cebpf4jnsgd1na2vs0mg"},{"bike_id":"e0faf88b-d747-4bdd-940c-18d5a8ae4471","system_id":"levelo_inurba_marseille","lat":43.281,"lon":5.37843,"is_reserved":false,"is_disabled":false,"rental_uris":{"android":"levelo://app?vid=e0faf88b-d747-4bdd-940c-18d5a8ae4471","ios":"levelo://app?vid=e0faf88b-d747-4bdd-940c-18d5a8ae4471"},"vehicle_type_id":"4","last_reported":1738174314,"current_range_meters":29600,"station_id":"ce4bha12rcd13ifvqee0","pricing_plan_id":"cebpf4jnsgd1na2vs0mg"},{"bike_id":"669de347-4793-46f9-b7aa-9822a4a7a353","system_id":"levelo_inurba_marseille","lat":43.25002,"lon":5.38926,"is_reserved":false,"is_disabled":false,"rental_uris":{"android":"levelo://app?vid=669de347-4793-46f9-b7aa-9822a4a7a353","ios":"levelo://app?vid=669de347-4793-46f9-b7aa-9822a4a7a353"},"vehicle_type_id":"4","last_reported":1738174314,"current_range_meters":30000,"station_id":"ce4bhgp2rcd13ifvqfd0","pricing_plan_id":"cebpf4jnsgd1na2vs0mg"},{"bike_id":"ecf6e76f-5faa-4cd6-aaac-ee69b01d2a2c","system_id":"levelo_inurba_marseille","lat":43.26188,"lon":5.37467,"is_reserved":false,"is_disabled":false,"rental_uris":{"android":"levelo://app?vid=ecf6e76f-5faa-4cd6-aaac-ee69b01d2a2c","ios":"levelo://app?vid=ecf6e76f-5faa-4cd6-aaac-ee69b01d2a2c"},"vehicle_type_id":"4","last_reported":1738174314,"current_range_meters":38800,"station_id":"ce4bhgp2rcd13ifvqfc0","pricing_plan_id":"cebpf4jnsgd1na2vs0mg"},{"bike_id":"9cef6fa4-3ddb-412a-b91c-2ed6416e1e06","system_id":"levelo_inurba_marseille","lat":43.30318,"lon":5.40436,"is_reserved":false,"is_disabled":false,"rental_uris":{"android":"levelo://app?vid=9cef6fa4-3ddb-412a-b91c-2ed6416e1e06","ios":"levelo://app?vid=9cef6fa4-3ddb-412a-b91c-2ed6416e1e06"},"vehicle_type_id":"4","last_reported":1738174314,"current_range_meters":28400,"station_id":"ce4bh012rcd13ifvqd10","pricing_plan_id":"cebpf4jnsgd1na2vs0mg"},{"bike_id":"46f1f77e-98b6-4ba2-a396-1e36c4b255d1","system_id":"levelo_inurba_marseille","lat":43.28108,"lon":5.3785,"is_reserved":false,"is_disabled":false,"rental_uris":{"android":"levelo://app?vid=46f1f77e-98b6-4ba2-a396-1e36c4b255d1","ios":"levelo://app?vid=46f1f77e-98b6-4ba2-a396-1e36c4b255d1"},"vehicle_type_id":"4","last_reported":1738174314,"current_range_meters":17600,"station_id":"ce4bha12rcd13ifvqee0","pricing_plan_id":"cebpf4jnsgd1na2vs0mg"},{"bike_id":"58eb6d43-a65f-4cf9-b3d0-d3c85bb963eb","system_id":"levelo_inurba_marseille","lat":43.28105,"lon":5.3784,"is_reserved":false,"is_disabled":false,"rental_uris":{"android":"levelo://app?vid=58eb6d43-a65f-4cf9-b3d0-d3c85bb963eb","ios":"levelo://app?vid=58eb6d43-a65f-4cf9-b3d0-d3c85bb963eb"},"vehicle_type_id":"4","last_reported":1738174314,"current_range_meters":18800,"station_id":"ce4bha12rcd13ifvqee0","pricing_plan_id":"cebpf4jnsgd1na2vs0mg"},{"bike_id":"67010c49-4067-40f8-abbe-e9abaf8588d1","system_id":"levelo_inurba_marseille","lat":43.260278,"lon":5.375442,"is_reserved":false,"is_disabled":false,"rental_uris":{"android":"levelo://app?vid=67010c49-4067-40f8-abbe-e9abaf8588d1","ios":"levelo://app?vid=67010c49-4067-40f8-abbe-e9abaf8588d1"},"vehicle_type_id":"4","last_reported":1738174314,"current_range_meters":38000,"station_id":"ce4bhgh2rcd13ifvqfa0","pricing_plan_id":"cebpf4jnsgd1na2vs0mg"},{"bike_id":"bee89fe1-75de-4aa4-8834-a29197d70af2","system_id":"levelo_inurba_marseille","lat":43.2902,"lon":5.39229,"is_reserved":false,"is_disabled":true,"rental_uris":{"android":"levelo://app?vid=bee89fe1-75de-4aa4-8834-a29197d70af2","ios":"levelo://app?vid=bee89fe1-75de-4aa4-8834-a29197d70af2"},"vehicle_type_id":"4","last_reported":1738174314,"current_range_meters":0,"station_id":"","pricing_plan_id":"cebpf4jnsgd1na2vs0mg"},{"bike_id":"2ec84c22-8666-467b-b9ab-b38e4ac8ff9f","system_id":"levelo_inurba_marseille","lat":43.29897,"lon":5.43665,"is_reserved":false,"is_disabled":true,"rental_uris":{"android":"levelo://app?vid=2ec84c22-8666-467b-b9ab-b38e4ac8ff9f","ios":"levelo://app?vid=2ec84c22-8666-467b-b9ab-b38e4ac8ff9f"},"vehicle_type_id":"4","last_reported":1738174314,"current_range_meters":32800,"station_id":"ce4bhpp2rcd13ifvqhfg","pricing_plan_id":"cebpf4jnsgd1na2vs0mg"},{"bike_id":"6168012a-0aa5-4e91-a32c-2e506aac2f21","system_id":"levelo_inurba_marseille","lat":43.28418,"lon":5.37529,"is_reserved":false,"is_disabled":false,"rental_uris":{"android":"levelo://app?vid=6168012a-0aa5-4e91-a32c-2e506aac2f21","ios":"levelo://app?vid=6168012a-0aa5-4e91-a32c-2e506aac2f21"},"vehicle_type_id":"4","last_reported":1738174314,"current_range_meters":9600,"station_id":"ce4bh412rcd13ifvqds0","pricing_plan_id":"cebpf4jnsgd1na2vs0mg"},{"bike_id":"b3d40c8b-6520-4de1-9a69-18248d074696","system_id":"levelo_inurba_marseille","lat":43.298865,"lon":5.381318,"is_reserved":false,"is_disabled":false,"rental_uris":{"android":"levelo://app?vid=b3d40c8b-6520-4de1-9a69-18248d074696","ios":"levelo://app?vid=b3d40c8b-6520-4de1-9a69-18248d074696"},"vehicle_type_id":"4","last_reported":1738174314,"current_range_meters":38800,"station_id":"ce4bgj12rcd13ifvqbc0","pricing_plan_id":"cebpf4jnsgd1na2vs0mg"},{"bike_id":"9ea78203-8f98-4ce9-a46f-06802a5df390","system_id":"levelo_inurba_marseille","lat":43.23176,"lon":5.39974,"is_reserved":false,"is_disabled":false,"rental_uris":{"android":"levelo://app?vid=9ea78203-8f98-4ce9-a46f-06802a5df390","ios":"levelo://app?vid=9ea78203-8f98-4ce9-a46f-06802a5df390"},"vehicle_type_id":"4","last_reported":1738174314,"current_range_meters":12000,"station_id":"ce4bhn12rcd13ifvqgqg","pricing_plan_id":"cebpf4jnsgd1na2vs0mg"},{"bike_id":"a9eaae4d-3875-4425-8362-4de13abed7b5","system_id":"levelo_inurba_marseille","lat":43.24653,"lon":5.38905,"is_reserved":false,"is_disabled":false,"rental_uris":{"android":"levelo://app?vid=a9eaae4d-3875-4425-8362-4de13abed7b5","ios":"levelo://app?vid=a9eaae4d-3875-4425-8362-4de13abed7b5"},"vehicle_type_id":"4","last_reported":1738174314,"current_range_meters":36000,"station_id":"ce4bhg12rcd13ifvqf60","pricing_plan_id":"cebpf4jnsgd1na2vs0mg"},{"bike_id":"96b8e4ef-534c-4051-9f0e-c2158b65cb6c","system_id":"levelo_inurba_marseille","lat":43.27941,"lon":5.41047,"is_reserved":false,"is_disabled":false,"rental_uris":{"android":"levelo://app?vid=96b8e4ef-534c-4051-9f0e-c2158b65cb6c","ios":"levelo://app?vid=96b8e4ef-534c-4051-9f0e-c2158b65cb6c"},"vehicle_type_id":"4","last_reported":1738174314,"current_range_meters":27600,"station_id":"ce4bhnp2rcd13ifvqh0g","pricing_plan_id":"cebpf4jnsgd1na2vs0mg"},{"bike_id":"296acca2-a355-4830-bc97-a6939a85f573","system_id":"levelo_inurba_marseille","lat":43.25594,"lon":5.38203,"is_reserved":false,"is_disabled":false,"rental_uris":{"android":"levelo://app?vid=296acca2-a355-4830-bc97-a6939a85f573","ios":"levelo://app?vid=296acca2-a355-4830-bc97-a6939a85f573"},"vehicle_type_id":"4","last_reported":1738174314,"current_range_meters":23200,"station_id":"ce4bhih2rcd13ifvqfs0","pricing_plan_id":"cebpf4jnsgd1na2vs0mg"},{"bike_id":"a79b3a4a-2ffb-47d4-a0ed-c2ebdfbf34cb","system_id":"levelo_inurba_marseille","lat":43.2952,"lon":5.39035,"is_reserved":false,"is_disabled":false,"rental_uris":{"android":"levelo://app?vid=a79b3a4a-2ffb-47d4-a0ed-c2ebdfbf34cb","ios":"levelo://app?vid=a79b3a4a-2ffb-47d4-a0ed-c2ebdfbf34cb"},"vehicle_type_id":"4","last_reported":1738174314,"current_range_meters":38800,"station_id":"ce4bh3p2rcd13ifvqdp0","pricing_plan_id":"cebpf4jnsgd1na2vs0mg"},{"bike_id":"049ca464-7b4f-4f69-a2f2-84c739b63c04","system_id":"levelo_inurba_marseille","lat":43.30949,"lon":5.39037,"is_reserved":false,"is_disabled":false,"rental_uris":{"android":"levelo://app?vid=049ca464-7b4f-4f69-a2f2-84c739b63c04","ios":"levelo://app?vid=049ca464-7b4f-4f69-a2f2-84c739b63c04"},"vehicle_type_id":"4","last_reported":1738174314,"current_range_meters":34800,"station_id":"ce4bgup2rcd13ifvqco0","pricing_plan_id":"cebpf4jnsgd1na2vs0mg"},{"bike_id":"5f654e4e-95e6-426d-9211-44da09fb915e","system_id":"levelo_inurba_marseille","lat":43.27815,"lon":5.40709,"is_reserved":false,"is_disabled":false,"rental_uris":{"android":"levelo://app?vid=5f654e4e-95e6-426d-9211-44da09fb915e","ios":"levelo://app?vid=5f654e4e-95e6-426d-9211-44da09fb915e"},"vehicle_type_id":"4","last_reported":1738174314,"current_range_meters":8400,"station_id":"ce4bhnh2rcd13ifvqgtg","pricing_plan_id":"cebpf4jnsgd1na2vs0mg"},{"bike_id":"e8f6ee29-d98f-4b58-a9a2-330f39cb6448","system_id":"levelo_inurba_marseille","lat":43.29965,"lon":5.37146,"is_reserved":false,"is_disabled":true,"rental_uris":{"android":"levelo://app?vid=e8f6ee29-d98f-4b58-a9a2-330f39cb6448","ios":"levelo://app?vid=e8f6ee29-d98f-4b58-a9a2-330f39cb6448"},"vehicle_type_id":"4","last_reported":1738174314,"current_range_meters":1600,"station_id":"ce4bgr92rcd13ifvqc7g","pricing_plan_id":"cebpf4jnsgd1na2vs0mg"},{"bike_id":"0002070e-3794-4cb5-9dfa-5e512fa72331","system_id":"levelo_inurba_marseille","lat":43.27923,"lon":5.39583,"is_reserved":false,"is_disabled":true,"rental_uris":{"android":"levelo://app?vid=0002070e-3794-4cb5-9dfa-5e512fa72331","ios":"levelo://app?vid=0002070e-3794-4cb5-9dfa-5e512fa72331"},"vehicle_type_id":"4","last_reported":1738174314,"current_range_meters":1200,"station_id":"ce4bhf92rcd13ifvqf40","pricing_plan_id":"cebpf4jnsgd1na2vs0mg"},{"bike_id":"1e72bf70-f1e2-4d23-890a-cffd77e2e51b","system_id":"levelo_inurba_marseille","lat":43.27923,"lon":5.39584,"is_reserved":false,"is_disabled":false,"rental_uris":{"android":"levelo://app?vid=1e72bf70-f1e2-4d23-890a-cffd77e2e51b","ios":"levelo://app?vid=1e72bf70-f1e2-4d23-890a-cffd77e2e51b"},"vehicle_type_id":"4","last_reported":1738174314,"current_range_meters":22000,"station_id":"ce4bhf92rcd13ifvqf40","pricing_plan_id":"cebpf4jnsgd1na2vs0mg"},{"bike_id":"89b04d62-af5f-4dc0-9e50-a2f69beb51a8","system_id":"levelo_inurba_marseille","lat":43.30133,"lon":5.39874,"is_reserved":false,"is_disabled":false,"rental_uris":{"android":"levelo://app?vid=89b04d62-af5f-4dc0-9e50-a2f69beb51a8","ios":"levelo://app?vid=89b04d62-af5f-4dc0-9e50-a2f69beb51a8"},"vehicle_type_id":"4","last_reported":1738174314,"current_range_meters":38400,"station_id":"ce4bh0h2rcd13ifvqd40","pricing_plan_id":"cebpf4jnsgd1na2vs0mg"},{"bike_id":"6796328d-01e0-4a62-ae70-64acf349e0ca","system_id":"levelo_inurba_marseille","lat":43.27666,"lon":5.38953,"is_reserved":false,"is_disabled":false,"rental_uris":{"android":"levelo://app?vid=6796328d-01e0-4a62-ae70-64acf349e0ca","ios":"levelo://app?vid=6796328d-01e0-4a62-ae70-64acf349e0ca"},"vehicle_type_id":"4","last_reported":1738174314,"current_range_meters":3200,"station_id":"ce4bhi12rcd13ifvqfo0","pricing_plan_id":"cebpf4jnsgd1na2vs0mg"},{"bike_id":"35a5c402-13ca-468f-8a93-76197813b571","system_id":"levelo_inurba_marseille","lat":43.25926,"lon":5.40907,"is_reserved":false,"is_disabled":true,"rental_uris":{"android":"levelo://app?vid=35a5c402-13ca-468f-8a93-76197813b571","ios":"levelo://app?vid=35a5c402-13ca-468f-8a93-76197813b571"},"vehicle_type_id":"4","last_reported":1738174314,"current_range_meters":1200,"station_id":"ce4bhm92rcd13ifvqglg","pricing_plan_id":"cebpf4jnsgd1na2vs0mg"},{"bike_id":"b25ecd20-6597-4932-9038-93bb6ac07c3d","system_id":"levelo_inurba_marseille","lat":43.29194,"lon":5.35812,"is_reserved":false,"is_disabled":false,"rental_uris":{"android":"levelo://app?vid=b25ecd20-6597-4932-9038-93bb6ac07c3d","ios":"levelo://app?vid=b25ecd20-6597-4932-9038-93bb6ac07c3d"},"vehicle_type_id":"4","last_reported":1738174314,"current_range_meters":30800,"station_id":"ce4bhb12rcd13ifvqel0","pricing_plan_id":"cebpf4jnsgd1na2vs0mg"},{"bike_id":"e3c5a10e-948d-477c-91ce-8c835a7fe362","system_id":"levelo_inurba_marseille","lat":43.280767,"lon":5.396483,"is_reserved":false,"is_disabled":true,"rental_uris":{"android":"levelo://app?vid=e3c5a10e-948d-477c-91ce-8c835a7fe362","ios":"levelo://app?vid=e3c5a10e-948d-477c-91ce-8c835a7fe362"},"vehicle_type_id":"4","last_reported":1738174314,"current_range_meters":0,"station_id":"ce4bho12rcd13ifvqh2g","pricing_plan_id":"cebpf4jnsgd1na2vs0mg"},{"bike_id":"f9d35a32-65b2-4842-bd83-8cbe10324274","system_id":"levelo_inurba_marseille","lat":43.28613,"lon":5.35101,"is_reserved":false,"is_disabled":false,"rental_uris":{"android":"levelo://app?vid=f9d35a32-65b2-4842-bd83-8cbe10324274","ios":"levelo://app?vid=f9d35a32-65b2-4842-bd83-8cbe10324274"},"vehicle_type_id":"4","last_reported":1738174314,"current_range_meters":22000,"station_id":"ce4bhch2rcd13ifvqeug","pricing_plan_id":"cebpf4jnsgd1na2vs0mg"},{"bike_id":"b56744dd-c9e9-45e3-a372-031669fe5fab","system_id":"levelo_inurba_marseille","lat":43.29275,"lon":5.38436,"is_reserved":false,"is_disabled":true,"rental_uris":{"android":"levelo://app?vid=b56744dd-c9e9-45e3-a372-031669fe5fab","ios":"levelo://app?vid=b56744dd-c9e9-45e3-a372-031669fe5fab"},"vehicle_type_id":"4","last_reported":1738174314,"current_range_meters":2000,"station_id":"ce4bh692rcd13ifvqea0","pricing_plan_id":"cebpf4jnsgd1na2vs0mg"},{"bike_id":"79e99809-e2d5-467c-aa72-b4d7c9afae9f","system_id":"levelo_inurba_marseille","lat":43.28077,"lon":5.39656,"is_reserved":false,"is_disabled":false,"rental_uris":{"android":"levelo://app?vid=79e99809-e2d5-467c-aa72-b4d7c9afae9f","ios":"levelo://app?vid=79e99809-e2d5-467c-aa72-b4d7c9afae9f"},"vehicle_type_id":"4","last_reported":1738174314,"current_range_meters":38800,"station_id":"ce4bho12rcd13ifvqh2g","pricing_plan_id":"cebpf4jnsgd1na2vs0mg"},{"bike_id":"1e7882da-a016-4654-9a16-4361fd531dc2","system_id":"levelo_inurba_marseille","lat":43.27179,"lon":5.41,"is_reserved":false,"is_disabled":false,"rental_uris":{"android":"levelo://app?vid=1e7882da-a016-4654-9a16-4361fd531dc2","ios":"levelo://app?vid=1e7882da-a016-4654-9a16-4361fd531dc2"},"vehicle_type_id":"4","last_reported":1738174314,"current_range_meters":22800,"station_id":"ce4bhl12rcd13ifvqgf0","pricing_plan_id":"cebpf4jnsgd1na2vs0mg"},{"bike_id":"41a83c3f-ebf7-4afe-a948-62f1fc17bcda","system_id":"levelo_inurba_marseille","lat":43.29277,"lon":5.36847,"is_reserved":false,"is_disabled":false,"rental_uris":{"android":"levelo://app?vid=41a83c3f-ebf7-4afe-a948-62f1fc17bcda","ios":"levelo://app?vid=41a83c3f-ebf7-4afe-a948-62f1fc17bcda"},"vehicle_type_id":"4","last_reported":1738174314,"current_range_meters":35200,"station_id":"ce4bhbp2rcd13ifvqesg","pricing_plan_id":"cebpf4jnsgd1na2vs0mg"},{"bike_id":"84abc79f-e001-4dde-ad87-989d7ecfc2da","system_id":"levelo_inurba_marseille","lat":43.297087,"lon":5.366107,"is_reserved":false,"is_disabled":false,"rental_uris":{"android":"levelo://app?vid=84abc79f-e001-4dde-ad87-989d7ecfc2da","ios":"levelo://app?vid=84abc79f-e001-4dde-ad87-989d7ecfc2da"},"vehicle_type_id":"4","last_reported":1738174314,"current_range_meters":38800,"station_id":"ce4bgn12rcd13ifvqbt0","pricing_plan_id":"cebpf4jnsgd1na2vs0mg"},{"bike_id":"209e09f0-f9ff-40f5-b536-60febfde1271","system_id":"levelo_inurba_marseille","lat":43.29526,"lon":5.38536,"is_reserved":false,"is_disabled":false,"rental_uris":{"android":"levelo://app?vid=209e09f0-f9ff-40f5-b536-60febfde1271","ios":"levelo://app?vid=209e09f0-f9ff-40f5-b536-60febfde1271"},"vehicle_type_id":"4","last_reported":1738174314,"current_range_meters":27600,"station_id":"ce4bgih2rcd13ifvqba0","pricing_plan_id":"cebpf4jnsgd1na2vs0mg"},{"bike_id":"3ee23f0d-fe93-42bf-b315-943af680278f","system_id":"levelo_inurba_marseille","lat":43.30149,"lon":5.39873,"is_reserved":false,"is_disabled":false,"rental_uris":{"android":"levelo://app?vid=3ee23f0d-fe93-42bf-b315-943af680278f","ios":"levelo://app?vid=3ee23f0d-fe93-42bf-b315-943af680278f"},"vehicle_type_id":"4","last_reported":1738174314,"current_range_meters":24000,"station_id":"ce4bh0h2rcd13ifvqd40","pricing_plan_id":"cebpf4jnsgd1na2vs0mg"},{"bike_id":"724abe73-fee2-49e4-ac64-4993fbd92435","system_id":"levelo_inurba_marseille","lat":43.26569,"lon":5.3901,"is_reserved":false,"is_disabled":false,"rental_uris":{"android":"levelo://app?vid=724abe73-fee2-49e4-ac64-4993fbd92435","ios":"levelo://app?vid=724abe73-fee2-49e4-ac64-4993fbd92435"},"vehicle_type_id":"4","last_reported":1738174314,"current_range_meters":24800,"station_id":"ce4bhe12rcd13ifvqf30","pricing_plan_id":"cebpf4jnsgd1na2vs0mg"},{"bike_id":"0a41ed65-fb70-41da-a817-88f7fe3391d5","system_id":"levelo_inurba_marseille","lat":43.29259,"lon":5.38441,"is_reserved":false,"is_disabled":false,"rental_uris":{"android":"levelo://app?vid=0a41ed65-fb70-41da-a817-88f7fe3391d5","ios":"levelo://app?vid=0a41ed65-fb70-41da-a817-88f7fe3391d5"},"vehicle_type_id":"4","last_reported":1738174314,"current_range_meters":9200,"station_id":"ce4bh692rcd13ifvqea0","pricing_plan_id":"cebpf4jnsgd1na2vs0mg"},{"bike_id":"8c69ea1e-2ad2-43c7-a69e-7814046ee1fc","system_id":"levelo_inurba_marseille","lat":43.28348,"lon":5.38126,"is_reserved":false,"is_disabled":false,"rental_uris":{"android":"levelo://app?vid=8c69ea1e-2ad2-43c7-a69e-7814046ee1fc","ios":"levelo://app?vid=8c69ea1e-2ad2-43c7-a69e-7814046ee1fc"},"vehicle_type_id":"4","last_reported":1738174314,"current_range_meters":8800,"station_id":"ce4bh412rcd13ifvqdr0","pricing_plan_id":"cebpf4jnsgd1na2vs0mg"},{"bike_id":"3ad10b32-c1b1-4c7a-9f3c-30dcc350bc0c","system_id":"levelo_inurba_marseille","lat":43.27947,"lon":5.41048,"is_reserved":false,"is_disabled":false,"rental_uris":{"android":"levelo://app?vid=3ad10b32-c1b1-4c7a-9f3c-30dcc350bc0c","ios":"levelo://app?vid=3ad10b32-c1b1-4c7a-9f3c-30dcc350bc0c"},"vehicle_type_id":"4","last_reported":1738174314,"current_range_meters":10800,"station_id":"ce4bhnp2rcd13ifvqh0g","pricing_plan_id":"cebpf4jnsgd1na2vs0mg"},{"bike_id":"908fb01a-e43a-4d47-ab10-c023fb7ca441","system_id":"levelo_inurba_marseille","lat":43.28003,"lon":5.40024,"is_reserved":false,"is_disabled":false,"rental_uris":{"android":"levelo://app?vid=908fb01a-e43a-4d47-ab10-c023fb7ca441","ios":"levelo://app?vid=908fb01a-e43a-4d47-ab10-c023fb7ca441"},"vehicle_type_id":"4","last_reported":1738174314,"current_range_meters":25200,"station_id":"ce4bho92rcd13ifvqh4g","pricing_plan_id":"cebpf4jnsgd1na2vs0mg"},{"bike_id":"8382186f-0d25-40e6-beca-2632cc8590f2","system_id":"levelo_inurba_marseille","lat":43.29552,"lon":5.42297,"is_reserved":false,"is_disabled":true,"rental_uris":{"android":"levelo://app?vid=8382186f-0d25-40e6-beca-2632cc8590f2","ios":"levelo://app?vid=8382186f-0d25-40e6-beca-2632cc8590f2"},"vehicle_type_id":"4","last_reported":1738174314,"current_range_meters":11600,"station_id":"ce4bhph2rcd13ifvqhdg","pricing_plan_id":"cebpf4jnsgd1na2vs0mg"},{"bike_id":"3bc30e29-a2db-484c-81fa-e28d5a9e79f5","system_id":"levelo_inurba_marseille","lat":43.29887,"lon":5.38923,"is_reserved":false,"is_disabled":false,"rental_uris":{"android":"levelo://app?vid=3bc30e29-a2db-484c-81fa-e28d5a9e79f5","ios":"levelo://app?vid=3bc30e29-a2db-484c-81fa-e28d5a9e79f5"},"vehicle_type_id":"4","last_reported":1738174314,"current_range_meters":24800,"station_id":"ce4bh392rcd13ifvqdl0","pricing_plan_id":"cebpf4jnsgd1na2vs0mg"},{"bike_id":"70f0c963-8c36-418f-a110-4edb8ff73131","system_id":"levelo_inurba_marseille","lat":43.295147,"lon":5.393877,"is_reserved":false,"is_disabled":true,"rental_uris":{"android":"levelo://app?vid=70f0c963-8c36-418f-a110-4edb8ff73131","ios":"levelo://app?vid=70f0c963-8c36-418f-a110-4edb8ff73131"},"vehicle_type_id":"4","last_reported":1738174314,"current_range_meters":36400,"station_id":"ce4bh292rcd13ifvqdf0","pricing_plan_id":"cebpf4jnsgd1na2vs0mg"},{"bike_id":"b6a6b106-c0a9-4afa-ad24-a5822ef23f96","system_id":"levelo_inurba_marseille","lat":43.2827,"lon":5.35073,"is_reserved":false,"is_disabled":false,"rental_uris":{"android":"levelo://app?vid=b6a6b106-c0a9-4afa-ad24-a5822ef23f96","ios":"levelo://app?vid=b6a6b106-c0a9-4afa-ad24-a5822ef23f96"},"vehicle_type_id":"4","last_reported":1738174314,"current_range_meters":38800,"station_id":"ce4bhbp2rcd13ifvqerg","pricing_plan_id":"cebpf4jnsgd1na2vs0mg"},{"bike_id":"ee5be08c-4f95-40dd-a78d-eeff7586d7cc","system_id":"levelo_inurba_marseille","lat":43.28454,"lon":5.3589,"is_reserved":false,"is_disabled":false,"rental_uris":{"android":"levelo://app?vid=ee5be08c-4f95-40dd-a78d-eeff7586d7cc","ios":"levelo://app?vid=ee5be08c-4f95-40dd-a78d-eeff7586d7cc"},"vehicle_type_id":"4","last_reported":1738174314,"current_range_meters":7200,"station_id":"ce4bhah2rcd13ifvqei0","pricing_plan_id":"cebpf4jnsgd1na2vs0mg"},{"bike_id":"4e25d392-4200-41fa-9bdc-7fd393881cbd","system_id":"levelo_inurba_marseille","lat":43.28407,"lon":5.37519,"is_reserved":false,"is_disabled":false,"rental_uris":{"android":"levelo://app?vid=4e25d392-4200-41fa-9bdc-7fd393881cbd","ios":"levelo://app?vid=4e25d392-4200-41fa-9bdc-7fd393881cbd"},"vehicle_type_id":"4","last_reported":1738174314,"current_range_meters":9600,"station_id":"ce4bh412rcd13ifvqds0","pricing_plan_id":"cebpf4jnsgd1na2vs0mg"},{"bike_id":"732e0f21-9776-437d-9e9c-e54f5beff5db","system_id":"levelo_inurba_marseille","lat":43.27998,"lon":5.40023,"is_reserved":false,"is_disabled":false,"rental_uris":{"android":"levelo://app?vid=732e0f21-9776-437d-9e9c-e54f5beff5db","ios":"levelo://app?vid=732e0f21-9776-437d-9e9c-e54f5beff5db"},"vehicle_type_id":"4","last_reported":1738174314,"current_range_meters":11200,"station_id":"ce4bho92rcd13ifvqh4g","pricing_plan_id":"cebpf4jnsgd1na2vs0mg"},{"bike_id":"67d87e23-738b-42b4-a250-e369a902027c","system_id":"levelo_inurba_marseille","lat":43.24392,"lon":5.37055,"is_reserved":false,"is_disabled":false,"rental_uris":{"android":"levelo://app?vid=67d87e23-738b-42b4-a250-e369a902027c","ios":"levelo://app?vid=67d87e23-738b-42b4-a250-e369a902027c"},"vehicle_type_id":"4","last_reported":1738174314,"current_range_meters":24800,"station_id":"ce4bhhh2rcd13ifvqfk0","pricing_plan_id":"cebpf4jnsgd1na2vs0mg"},{"bike_id":"8b19f642-e16c-49a5-ab46-6c1c5629eaa1","system_id":"levelo_inurba_marseille","lat":43.28419,"lon":5.37521,"is_reserved":false,"is_disabled":false,"rental_uris":{"android":"levelo://app?vid=8b19f642-e16c-49a5-ab46-6c1c5629eaa1","ios":"levelo://app?vid=8b19f642-e16c-49a5-ab46-6c1c5629eaa1"},"vehicle_type_id":"4","last_reported":1738174314,"current_range_meters":38800,"station_id":"ce4bh412rcd13ifvqds0","pricing_plan_id":"cebpf4jnsgd1na2vs0mg"},{"bike_id":"0a2fd205-d616-4064-aa75-d4d529957d90","system_id":"levelo_inurba_marseille","lat":43.23078,"lon":5.35485,"is_reserved":false,"is_disabled":false,"rental_uris":{"android":"levelo://app?vid=0a2fd205-d616-4064-aa75-d4d529957d90","ios":"levelo://app?vid=0a2fd205-d616-4064-aa75-d4d529957d90"},"vehicle_type_id":"4","last_reported":1738174314,"current_range_meters":27600,"station_id":"cpo3342slgdg3j2ifvpg","pricing_plan_id":"cebpf4jnsgd1na2vs0mg"},{"bike_id":"091e774c-6431-4692-8d74-9f1747bff319","system_id":"levelo_inurba_marseille","lat":43.30122,"lon":5.39847,"is_reserved":false,"is_disabled":false,"rental_uris":{"android":"levelo://app?vid=091e774c-6431-4692-8d74-9f1747bff319","ios":"levelo://app?vid=091e774c-6431-4692-8d74-9f1747bff319"},"vehicle_type_id":"4","last_reported":1738174314,"current_range_meters":38800,"station_id":"ce4bh0h2rcd13ifvqd40","pricing_plan_id":"cebpf4jnsgd1na2vs0mg"},{"bike_id":"07c5fe4f-62a9-489d-ba2e-1729172292cf","system_id":"levelo_inurba_marseille","lat":43.28154,"lon":5.42643,"is_reserved":false,"is_disabled":false,"rental_uris":{"android":"levelo://app?vid=07c5fe4f-62a9-489d-ba2e-1729172292cf","ios":"levelo://app?vid=07c5fe4f-62a9-489d-ba2e-1729172292cf"},"vehicle_type_id":"4","last_reported":1738174314,"current_range_meters":30000,"station_id":"ce4bhnh2rcd13ifvqgug","pricing_plan_id":"cebpf4jnsgd1na2vs0mg"},{"bike_id":"a02e7897-f701-4298-b4bd-75a438821c2f","system_id":"levelo_inurba_marseille","lat":43.3303,"lon":5.39053,"is_reserved":false,"is_disabled":false,"rental_uris":{"android":"levelo://app?vid=a02e7897-f701-4298-b4bd-75a438821c2f","ios":"levelo://app?vid=a02e7897-f701-4298-b4bd-75a438821c2f"},"vehicle_type_id":"4","last_reported":1738174314,"current_range_meters":28400,"station_id":"ce4bhr92rcd13ifvqhrg","pricing_plan_id":"cebpf4jnsgd1na2vs0mg"},{"bike_id":"7c78a755-c7f5-4f07-a96b-621451d47948","system_id":"levelo_inurba_marseille","lat":43.2989,"lon":5.43657,"is_reserved":false,"is_disabled":false,"rental_uris":{"android":"levelo://app?vid=7c78a755-c7f5-4f07-a96b-621451d47948","ios":"levelo://app?vid=7c78a755-c7f5-4f07-a96b-621451d47948"},"vehicle_type_id":"4","last_reported":1738174314,"current_range_meters":17200,"station_id":"ce4bhpp2rcd13ifvqhfg","pricing_plan_id":"cebpf4jnsgd1na2vs0mg"},{"bike_id":"131290dc-769c-4503-bd81-4aad78d0271d","system_id":"levelo_inurba_marseille","lat":43.29517,"lon":5.39051,"is_reserved":false,"is_disabled":false,"rental_uris":{"android":"levelo://app?vid=131290dc-769c-4503-bd81-4aad78d0271d","ios":"levelo://app?vid=131290dc-769c-4503-bd81-4aad78d0271d"},"vehicle_type_id":"4","last_reported":1738174314,"current_range_meters":19200,"station_id":"ce4bh3p2rcd13ifvqdp0","pricing_plan_id":"cebpf4jnsgd1na2vs0mg"},{"bike_id":"cc3968ec-db87-4d76-8f5b-72642836fe15","system_id":"levelo_inurba_marseille","lat":43.29519,"lon":5.39021,"is_reserved":false,"is_disabled":false,"rental_uris":{"android":"levelo://app?vid=cc3968ec-db87-4d76-8f5b-72642836fe15","ios":"levelo://app?vid=cc3968ec-db87-4d76-8f5b-72642836fe15"},"vehicle_type_id":"4","last_reported":1738174314,"current_range_meters":35600,"station_id":"ce4bh3p2rcd13ifvqdp0","pricing_plan_id":"cebpf4jnsgd1na2vs0mg"},{"bike_id":"19cad940-b6c1-46ba-af57-18f654fea131","system_id":"levelo_inurba_marseille","lat":43.31165,"lon":5.3873,"is_reserved":false,"is_disabled":false,"rental_uris":{"android":"levelo://app?vid=19cad940-b6c1-46ba-af57-18f654fea131","ios":"levelo://app?vid=19cad940-b6c1-46ba-af57-18f654fea131"},"vehicle_type_id":"4","last_reported":1738174314,"current_range_meters":23200,"station_id":"ce4bgv12rcd13ifvqcp0","pricing_plan_id":"cebpf4jnsgd1na2vs0mg"},{"bike_id":"eee19f47-252c-4823-9731-a950c178be22","system_id":"levelo_inurba_marseille","lat":43.27939,"lon":5.41036,"is_reserved":false,"is_disabled":false,"rental_uris":{"android":"levelo://app?vid=eee19f47-252c-4823-9731-a950c178be22","ios":"levelo://app?vid=eee19f47-252c-4823-9731-a950c178be22"},"vehicle_type_id":"4","last_reported":1738174314,"current_range_meters":30800,"station_id":"ce4bhnp2rcd13ifvqh0g","pricing_plan_id":"cebpf4jnsgd1na2vs0mg"},{"bike_id":"803e03d8-7d2e-4feb-ac46-774902d16dee","system_id":"levelo_inurba_marseille","lat":43.33731,"lon":5.37442,"is_reserved":false,"is_disabled":true,"rental_uris":{"android":"levelo://app?vid=803e03d8-7d2e-4feb-ac46-774902d16dee","ios":"levelo://app?vid=803e03d8-7d2e-4feb-ac46-774902d16dee"},"vehicle_type_id":"4","last_reported":1738174314,"current_range_meters":32800,"station_id":"","pricing_plan_id":"cebpf4jnsgd1na2vs0mg"},{"bike_id":"97350652-ce8e-4027-9467-c6cabc8ac7df","system_id":"levelo_inurba_marseille","lat":43.25003,"lon":5.38926,"is_reserved":false,"is_disabled":false,"rental_uris":{"android":"levelo://app?vid=97350652-ce8e-4027-9467-c6cabc8ac7df","ios":"levelo://app?vid=97350652-ce8e-4027-9467-c6cabc8ac7df"},"vehicle_type_id":"4","last_reported":1738174314,"current_range_meters":5600,"station_id":"ce4bhgp2rcd13ifvqfd0","pricing_plan_id":"cebpf4jnsgd1na2vs0mg"},{"bike_id":"a7dc23b2-0b3e-4975-85c0-4ff424ec837c","system_id":"levelo_inurba_marseille","lat":43.29575,"lon":5.37536,"is_reserved":false,"is_disabled":false,"rental_uris":{"android":"levelo://app?vid=a7dc23b2-0b3e-4975-85c0-4ff424ec837c","ios":"levelo://app?vid=a7dc23b2-0b3e-4975-85c0-4ff424ec837c"},"vehicle_type_id":"4","last_reported":1738174314,"current_range_meters":12000,"station_id":"ce4bgh92rcd13ifvqb50","pricing_plan_id":"cebpf4jnsgd1na2vs0mg"},{"bike_id":"0367fa8e-91ab-4e14-b0b8-43c759ce0a3e","system_id":"levelo_inurba_marseille","lat":43.29173,"lon":5.37171,"is_reserved":false,"is_disabled":false,"rental_uris":{"android":"levelo://app?vid=0367fa8e-91ab-4e14-b0b8-43c759ce0a3e","ios":"levelo://app?vid=0367fa8e-91ab-4e14-b0b8-43c759ce0a3e"},"vehicle_type_id":"4","last_reported":1738174314,"current_range_meters":37600,"station_id":"ce4bha92rcd13ifvqeh0","pricing_plan_id":"cebpf4jnsgd1na2vs0mg"},{"bike_id":"667cbf4b-8c90-4ac3-8c0a-b71356d6ac3d","system_id":"levelo_inurba_marseille","lat":43.24652,"lon":5.38167,"is_reserved":false,"is_disabled":false,"rental_uris":{"android":"levelo://app?vid=667cbf4b-8c90-4ac3-8c0a-b71356d6ac3d","ios":"levelo://app?vid=667cbf4b-8c90-4ac3-8c0a-b71356d6ac3d"},"vehicle_type_id":"4","last_reported":1738174314,"current_range_meters":38800,"station_id":"ce4bhih2rcd13ifvqfr0","pricing_plan_id":"cebpf4jnsgd1na2vs0mg"},{"bike_id":"ee921a40-7461-48d0-9eda-8732538a2893","system_id":"levelo_inurba_marseille","lat":43.29278,"lon":5.40118,"is_reserved":false,"is_disabled":true,"rental_uris":{"android":"levelo://app?vid=ee921a40-7461-48d0-9eda-8732538a2893","ios":"levelo://app?vid=ee921a40-7461-48d0-9eda-8732538a2893"},"vehicle_type_id":"4","last_reported":1738174314,"current_range_meters":2000,"station_id":"ce4bh312rcd13ifvqdk0","pricing_plan_id":"cebpf4jnsgd1na2vs0mg"},{"bike_id":"dd8504be-b7fa-4b6e-b65d-a5c8fed31c73","system_id":"levelo_inurba_marseille","lat":43.33025,"lon":5.39039,"is_reserved":false,"is_disabled":false,"rental_uris":{"android":"levelo://app?vid=dd8504be-b7fa-4b6e-b65d-a5c8fed31c73","ios":"levelo://app?vid=dd8504be-b7fa-4b6e-b65d-a5c8fed31c73"},"vehicle_type_id":"4","last_reported":1738174314,"current_range_meters":35600,"station_id":"ce4bhr92rcd13ifvqhrg","pricing_plan_id":"cebpf4jnsgd1na2vs0mg"},{"bike_id":"eaef2861-89f9-4bba-82ed-0c18a26ab13c","system_id":"levelo_inurba_marseille","lat":43.29866,"lon":5.39743,"is_reserved":false,"is_disabled":false,"rental_uris":{"android":"levelo://app?vid=eaef2861-89f9-4bba-82ed-0c18a26ab13c","ios":"levelo://app?vid=eaef2861-89f9-4bba-82ed-0c18a26ab13c"},"vehicle_type_id":"4","last_reported":1738174314,"current_range_meters":36800,"station_id":"ce4bh0h2rcd13ifvqd50","pricing_plan_id":"cebpf4jnsgd1na2vs0mg"},{"bike_id":"760bc6ec-2824-4535-9f72-367e424e7a17","system_id":"levelo_inurba_marseille","lat":43.286774,"lon":5.386699,"is_reserved":false,"is_disabled":true,"rental_uris":{"android":"levelo://app?vid=760bc6ec-2824-4535-9f72-367e424e7a17","ios":"levelo://app?vid=760bc6ec-2824-4535-9f72-367e424e7a17"},"vehicle_type_id":"4","last_reported":1738174314,"current_range_meters":0,"station_id":"ce4bh492rcd13ifvqdug","pricing_plan_id":"cebpf4jnsgd1na2vs0mg"},{"bike_id":"1cb80b27-39fd-4949-b243-3c7c37b18b3d","system_id":"levelo_inurba_marseille","lat":43.29265,"lon":5.36851,"is_reserved":false,"is_disabled":false,"rental_uris":{"android":"levelo://app?vid=1cb80b27-39fd-4949-b243-3c7c37b18b3d","ios":"levelo://app?vid=1cb80b27-39fd-4949-b243-3c7c37b18b3d"},"vehicle_type_id":"4","last_reported":1738174314,"current_range_meters":9200,"station_id":"ce4bhbp2rcd13ifvqesg","pricing_plan_id":"cebpf4jnsgd1na2vs0mg"},{"bike_id":"3cab5ce9-fa36-4f37-a4fd-aa59591df4d1","system_id":"levelo_inurba_marseille","lat":43.2843,"lon":5.34986,"is_reserved":false,"is_disabled":true,"rental_uris":{"android":"levelo://app?vid=3cab5ce9-fa36-4f37-a4fd-aa59591df4d1","ios":"levelo://app?vid=3cab5ce9-fa36-4f37-a4fd-aa59591df4d1"},"vehicle_type_id":"4","last_reported":1738174314,"current_range_meters":29600,"station_id":"ce4bhbh2rcd13ifvqepg","pricing_plan_id":"cebpf4jnsgd1na2vs0mg"},{"bike_id":"fe186a54-6849-456d-a0f8-45067ff07b13","system_id":"levelo_inurba_marseille","lat":43.27566,"lon":5.38415,"is_reserved":false,"is_disabled":false,"rental_uris":{"android":"levelo://app?vid=fe186a54-6849-456d-a0f8-45067ff07b13","ios":"levelo://app?vid=fe186a54-6849-456d-a0f8-45067ff07b13"},"vehicle_type_id":"4","last_reported":1738174314,"current_range_meters":18800,"station_id":"ce4bhh92rcd13ifvqfi0","pricing_plan_id":"cebpf4jnsgd1na2vs0mg"},{"bike_id":"85af6c92-372c-4cd2-84da-c4ec61fa470d","system_id":"levelo_inurba_marseille","lat":43.25703,"lon":5.41133,"is_reserved":false,"is_disabled":true,"rental_uris":{"android":"levelo://app?vid=85af6c92-372c-4cd2-84da-c4ec61fa470d","ios":"levelo://app?vid=85af6c92-372c-4cd2-84da-c4ec61fa470d"},"vehicle_type_id":"4","last_reported":1738174314,"current_range_meters":36000,"station_id":"ce4bhkp2rcd13ifvqgd0","pricing_plan_id":"cebpf4jnsgd1na2vs0mg"},{"bike_id":"911d971a-0124-498e-bf11-e1e6c7698135","system_id":"levelo_inurba_marseille","lat":43.2918,"lon":5.35806,"is_reserved":false,"is_disabled":false,"rental_uris":{"android":"levelo://app?vid=911d971a-0124-498e-bf11-e1e6c7698135","ios":"levelo://app?vid=911d971a-0124-498e-bf11-e1e6c7698135"},"vehicle_type_id":"4","last_reported":1738174314,"current_range_meters":29600,"station_id":"ce4bhb12rcd13ifvqel0","pricing_plan_id":"cebpf4jnsgd1na2vs0mg"},{"bike_id":"680e7405-7503-4206-9ce7-09204bbc5100","system_id":"levelo_inurba_marseille","lat":43.30426,"lon":5.39753,"is_reserved":false,"is_disabled":false,"rental_uris":{"android":"levelo://app?vid=680e7405-7503-4206-9ce7-09204bbc5100","ios":"levelo://app?vid=680e7405-7503-4206-9ce7-09204bbc5100"},"vehicle_type_id":"4","last_reported":1738174314,"current_range_meters":8800,"station_id":"ce4bh092rcd13ifvqd20","pricing_plan_id":"cebpf4jnsgd1na2vs0mg"},{"bike_id":"5a4a8346-6f89-4e28-8841-25738da5b081","system_id":"levelo_inurba_marseille","lat":43.29178,"lon":5.39295,"is_reserved":false,"is_disabled":false,"rental_uris":{"android":"levelo://app?vid=5a4a8346-6f89-4e28-8841-25738da5b081","ios":"levelo://app?vid=5a4a8346-6f89-4e28-8841-25738da5b081"},"vehicle_type_id":"4","last_reported":1738174314,"current_range_meters":24800,"station_id":"ce4bh192rcd13ifvqdd0","pricing_plan_id":"cebpf4jnsgd1na2vs0mg"},{"bike_id":"544ef996-c9cc-441c-aa37-24340c012c2e","system_id":"levelo_inurba_marseille","lat":43.30324,"lon":5.40428,"is_reserved":false,"is_disabled":false,"rental_uris":{"android":"levelo://app?vid=544ef996-c9cc-441c-aa37-24340c012c2e","ios":"levelo://app?vid=544ef996-c9cc-441c-aa37-24340c012c2e"},"vehicle_type_id":"4","last_reported":1738174314,"current_range_meters":27200,"station_id":"ce4bh012rcd13ifvqd10","pricing_plan_id":"cebpf4jnsgd1na2vs0mg"},{"bike_id":"0d3f46ad-475b-45ab-bba3-a9b43b092108","system_id":"levelo_inurba_marseille","lat":43.27617,"lon":5.36099,"is_reserved":false,"is_disabled":false,"rental_uris":{"android":"levelo://app?vid=0d3f46ad-475b-45ab-bba3-a9b43b092108","ios":"levelo://app?vid=0d3f46ad-475b-45ab-bba3-a9b43b092108"},"vehicle_type_id":"4","last_reported":1738174314,"current_range_meters":38800,"station_id":"ce4bgj92rcd13ifvqbe0","pricing_plan_id":"cebpf4jnsgd1na2vs0mg"},{"bike_id":"01dfd409-7321-44f1-894d-84a2a0484483","system_id":"levelo_inurba_marseille","lat":43.30587,"lon":5.37187,"is_reserved":false,"is_disabled":false,"rental_uris":{"android":"levelo://app?vid=01dfd409-7321-44f1-894d-84a2a0484483","ios":"levelo://app?vid=01dfd409-7321-44f1-894d-84a2a0484483"},"vehicle_type_id":"4","last_reported":1738174314,"current_range_meters":24400,"station_id":"ce4bgqh2rcd13ifvqc4g","pricing_plan_id":"cebpf4jnsgd1na2vs0mg"},{"bike_id":"184088f7-55e4-4411-bfca-10705137161d","system_id":"levelo_inurba_marseille","lat":43.28699,"lon":5.37395,"is_reserved":false,"is_disabled":false,"rental_uris":{"android":"levelo://app?vid=184088f7-55e4-4411-bfca-10705137161d","ios":"levelo://app?vid=184088f7-55e4-4411-bfca-10705137161d"},"vehicle_type_id":"4","last_reported":1738174314,"current_range_meters":38800,"station_id":"ce4bh3p2rcd13ifvqdq0","pricing_plan_id":"cebpf4jnsgd1na2vs0mg"},{"bike_id":"3d98c6ce-e80d-46e8-b577-648cd8c28632","system_id":"levelo_inurba_marseille","lat":43.34699,"lon":5.34741,"is_reserved":false,"is_disabled":true,"rental_uris":{"android":"levelo://app?vid=3d98c6ce-e80d-46e8-b577-648cd8c28632","ios":"levelo://app?vid=3d98c6ce-e80d-46e8-b577-648cd8c28632"},"vehicle_type_id":"4","last_reported":1738174314,"current_range_meters":0,"station_id":"","pricing_plan_id":"cebpf4jnsgd1na2vs0mg"},{"bike_id":"6f98862b-a882-42a8-976d-ac1c45b588e1","system_id":"levelo_inurba_marseille","lat":43.25494,"lon":5.37648,"is_reserved":false,"is_disabled":false,"rental_uris":{"android":"levelo://app?vid=6f98862b-a882-42a8-976d-ac1c45b588e1","ios":"levelo://app?vid=6f98862b-a882-42a8-976d-ac1c45b588e1"},"vehicle_type_id":"4","last_reported":1738174314,"current_range_meters":38800,"station_id":"ce4bhh12rcd13ifvqff0","pricing_plan_id":"cebpf4jnsgd1na2vs0mg"},{"bike_id":"d223a7c8-a47f-45eb-964f-391c66913c07","system_id":"levelo_inurba_marseille","lat":43.30301,"lon":5.4043,"is_reserved":false,"is_disabled":false,"rental_uris":{"android":"levelo://app?vid=d223a7c8-a47f-45eb-964f-391c66913c07","ios":"levelo://app?vid=d223a7c8-a47f-45eb-964f-391c66913c07"},"vehicle_type_id":"4","last_reported":1738174314,"current_range_meters":10000,"station_id":"ce4bh012rcd13ifvqd10","pricing_plan_id":"cebpf4jnsgd1na2vs0mg"},{"bike_id":"a1d06062-ea26-4b8c-a36a-ac911b2faa66","system_id":"levelo_inurba_marseille","lat":43.29266,"lon":5.36853,"is_reserved":false,"is_disabled":false,"rental_uris":{"android":"levelo://app?vid=a1d06062-ea26-4b8c-a36a-ac911b2faa66","ios":"levelo://app?vid=a1d06062-ea26-4b8c-a36a-ac911b2faa66"},"vehicle_type_id":"4","last_reported":1738174314,"current_range_meters":19600,"station_id":"ce4bhbp2rcd13ifvqesg","pricing_plan_id":"cebpf4jnsgd1na2vs0mg"},{"bike_id":"4cb57573-19b8-44b0-b556-66b13f757585","system_id":"levelo_inurba_marseille","lat":43.28616,"lon":5.35109,"is_reserved":false,"is_disabled":false,"rental_uris":{"android":"levelo://app?vid=4cb57573-19b8-44b0-b556-66b13f757585","ios":"levelo://app?vid=4cb57573-19b8-44b0-b556-66b13f757585"},"vehicle_type_id":"4","last_reported":1738174314,"current_range_meters":36800,"station_id":"ce4bhch2rcd13ifvqeug","pricing_plan_id":"cebpf4jnsgd1na2vs0mg"},{"bike_id":"3c4225a9-2e96-4949-9c17-2af834989423","system_id":"levelo_inurba_marseille","lat":43.28569,"lon":5.39495,"is_reserved":false,"is_disabled":false,"rental_uris":{"android":"levelo://app?vid=3c4225a9-2e96-4949-9c17-2af834989423","ios":"levelo://app?vid=3c4225a9-2e96-4949-9c17-2af834989423"},"vehicle_type_id":"4","last_reported":1738174314,"current_range_meters":19600,"station_id":"ce4bh292rcd13ifvqdg0","pricing_plan_id":"cebpf4jnsgd1na2vs0mg"},{"bike_id":"32e48480-8b27-4a07-8006-69337db0f3f3","system_id":"levelo_inurba_marseille","lat":43.29252,"lon":5.39121,"is_reserved":false,"is_disabled":false,"rental_uris":{"android":"levelo://app?vid=32e48480-8b27-4a07-8006-69337db0f3f3","ios":"levelo://app?vid=32e48480-8b27-4a07-8006-69337db0f3f3"},"vehicle_type_id":"4","last_reported":1738174314,"current_range_meters":27600,"station_id":"","pricing_plan_id":"cebpf4jnsgd1na2vs0mg"},{"bike_id":"1cc72904-73db-4690-8d8d-9db3a2e22526","system_id":"levelo_inurba_marseille","lat":43.31081,"lon":5.4246,"is_reserved":false,"is_disabled":false,"rental_uris":{"android":"levelo://app?vid=1cc72904-73db-4690-8d8d-9db3a2e22526","ios":"levelo://app?vid=1cc72904-73db-4690-8d8d-9db3a2e22526"},"vehicle_type_id":"4","last_reported":1738174314,"current_range_meters":37600,"station_id":"ce4bhp92rcd13ifvqhag","pricing_plan_id":"cebpf4jnsgd1na2vs0mg"},{"bike_id":"b597c675-708b-460c-8447-a0d0ca0fc47a","system_id":"levelo_inurba_marseille","lat":43.28616,"lon":5.35098,"is_reserved":false,"is_disabled":false,"rental_uris":{"android":"levelo://app?vid=b597c675-708b-460c-8447-a0d0ca0fc47a","ios":"levelo://app?vid=b597c675-708b-460c-8447-a0d0ca0fc47a"},"vehicle_type_id":"4","last_reported":1738174314,"current_range_meters":6400,"station_id":"ce4bhch2rcd13ifvqeug","pricing_plan_id":"cebpf4jnsgd1na2vs0mg"},