{"last_updated":1740751758,"ttl":60,"version":"2.2","data":{"bikes":[{"bike_id":"1b364542-e2fa-4bd4-8564-b0ee373e71fe","system_id":"levelo_inurba_marseille","lat":43.23064,"lon":5.3549,"is_reserved":false,"is_disabled":false,"rental_uris":{"android":"levelo://app?vid=1b364542-e2fa-4bd4-8564-b0ee373e71fe","ios":"levelo://app?vid=1b364542-e2fa-4bd4-8564-b0ee373e71fe"},"vehicle_type_id":"4","last_reported":1740751758,"current_range_meters":2800,"station_id":"cpo3342slgdg3j2ifvpg","pricing_plan_id":"cebpf4jnsgd1na2vs0mg"},{"bike_id":"7d314587-46bd-4ef7-bc3d-5cb04c39fbdb","system_id":"levelo_inurba_marseille","lat":43.3112,"lon":5.3778,"is_reserved":false,"is_disabled":false,"rental_uris":{"android":"levelo://app?vid=7d314587-46bd-4ef7-bc3d-5cb04c39fbdb","ios":"levelo://app?vid=7d314587-46bd-4ef7-bc3d-5cb04c39fbdb"},"vehicle_type_id":"4","last_reported":1740751758,"current_range_meters":2800,"station_id":"ce4bgt92rcd13ifvqcg0","pricing_plan_id":"cebpf4jnsgd1na2vs0mg"},{"bike_id":"cd4c8066-773a-403f-b022-6a28ca719c0b","system_id":"levelo_inurba_marseille","lat":43.26201,"lon":5.37929,"is_reserved":false,"is_disabled":false,"rental_uris":{"android":"levelo://app?vid=cd4c8066-773a-403f-b022-6a28ca719c0b","ios":"levelo://app?vid=cd4c8066-773a-403f-b022-6a28ca719c0b"},"vehicle_type_id":"4","last_reported":1740751758,"current_range_meters":2800,"station_id":"ce4bhjp2rcd13ifvqg90","pricing_plan_id":"cebpf4jnsgd1na2vs0mg"},{"bike_id":"266e3ab8-e2a7-4a7b-bc81-8c4388cf952c","system_id":"levelo_inurba_marseille","lat":43.31054,"lon":5.40144,"is_reserved":false,"is_disabled":false,"rental_uris":{"android":"levelo://app?vid=266e3ab8-e2a7-4a7b-bc81-8c4388cf952c","ios":"levelo://app?vid=266e3ab8-e2a7-4a7b-bc81-8c4388cf952c"},"vehicle_type_id":"4","last_reported":1740751758,"current_range_meters":3200,"station_id":"","pricing_plan_id":"cebpf4jnsgd1na2vs0mg"},{"bike_id":"346e808c-12c7-448a-aabf-196675d03105","system_id":"levelo_inurba_marseille","lat":43.28566,"lon":5.39481,"is_reserved":false,"is_disabled":false,"rental_uris":{"android":"levelo://app?vid=346e808c-12c7-448a-aabf-196675d03105","ios":"levelo://app?vid=346e808c-12c7-448a-aabf-196675d03105"},"vehicle_type_id":"4","last_reported":1740751758,"current_range_meters":6800,"station_id":"ce4bh292rcd13ifvqdg0","pricing_plan_id":"cebpf4jnsgd1na2vs0mg"},{"bike_id":"f5199d14-d35a-4e6b-8747-13add0e50f88","system_id":"levelo_inurba_marseille","lat":43.27629,"lon":5.36093,"is_reserved":false,"is_disabled":false,"rental_uris":{"android":"levelo://app?vid=f5199d14-d35a-4e6b-8747-13add0e50f88","ios":"levelo://app?vid=f5199d14-d35a-4e6b-8747-13add0e50f88"},"vehicle_type_id":"4","last_reported":1740751758,"current_range_meters":3200,"station_id":"ce4bgj92rcd13ifvqbe0","pricing_plan_id":"cebpf4jnsgd1na2vs0mg"},{"bike_id":"5a2ea86e-6cd7-4957-bef5-02b517851cd1","system_id":"levelo_inurba_marseille","lat":43.29224,"lon":5.36062,"is_reserved":false,"is_disabled":false,"rental_uris":{"android":"levelo://app?vid=5a2ea86e-6cd7-4957-bef5-02b517851cd1","ios":"levelo://app?vid=5a2ea86e-6cd7-4957-bef5-02b517851cd1"},"vehicle_type_id":"4","last_reported":1740751758,"current_range_meters":3600,"station_id":"ce4bhbh2rcd13ifvqeqg","pricing_plan_id":"cebpf4jnsgd1na2vs0mg"},{"bike_id":"fc6a6e7f-7eb4-4532-9b27-aac0f6f3b5cc","system_id":"levelo_inurba_marseille","lat":43.31117,"lon":5.37765,"is_reserved":false,"is_disabled":false,"rental_uris":{"android":"levelo://app?vid=fc6a6e7f-7eb4-4532-9b27-aac0f6f3b5cc","ios":"levelo://app?vid=fc6a6e7f-7eb4-4532-9b27-aac0f6f3b5cc"},"vehicle_type_id":"4","last_reported":1740751758,"current_range_meters":3600,"station_id":"ce4bgt92rcd13ifvqcg0","pricing_plan_id":"cebpf4jnsgd1na2vs0mg"},{"bike_id":"2a329baa-c529-4f7f-84c9-0753ea19a2b8","system_id":"levelo_inurba_marseille","lat":43.23155,"lon":5.43706,"is_reserved":false,"is_disabled":false,"rental_uris":{"android":"levelo://app?vid=2a329baa-c529-4f7f-84c9-0753ea19a2b8","ios":"levelo://app?vid=2a329baa-c529-4f7f-84c9-0753ea19a2b8"},"vehicle_type_id":"4","last_reported":1740751758,"current_range_meters":3200,"station_id":"ce4bhmp2rcd13ifvqgog","pricing_plan_id":"cebpf4jnsgd1na2vs0mg"},{"bike_id":"4892be3a-980e-40c9-be8f-990c52a0194c","system_id":"levelo_inurba_marseille","lat":43.2861,"lon":5.35103,"is_reserved":false,"is_disabled":false,"rental_uris":{"android":"levelo://app?vid=4892be3a-980e-40c9-be8f-990c52a0194c","ios":"levelo://app?vid=4892be3a-980e-40c9-be8f-990c52a0194c"},"vehicle_type_id":"4","last_reported":1740751758,"current_range_meters":1200,"station_id":"ce4bhch2rcd13ifvqeug","pricing_plan_id":"cebpf4jnsgd1na2vs0mg"},{"bike_id":"ab220a24-0029-46e9-a125-8a14abfac3de","system_id":"levelo_inurba_marseille","lat":43.26552,"lon":5.37287,"is_reserved":false,"is_disabled":false,"rental_uris":{"android":"levelo://app?vid=ab220a24-0029-46e9-a125-8a14abfac3de","ios":"levelo://app?vid=ab220a24-0029-46e9-a125-8a14abfac3de"},"vehicle_type_id":"4","last_reported":1740751758,"current_range_meters":4000,"station_id":"ce4bhg12rcd13ifvqf70","pricing_plan_id":"cebpf4jnsgd1na2vs0mg"},{"bike_id":"8a72fd36-7518-4e8b-90c3-294112d9307e","system_id":"levelo_inurba_marseille","lat":43.24733,"lon":5.41162,"is_reserved":false,"is_disabled":false,"rental_uris":{"android":"levelo://app?vid=8a72fd36-7518-4e8b-90c3-294112d9307e","ios":"levelo://app?vid=8a72fd36-7518-4e8b-90c3-294112d9307e"},"vehicle_type_id":"4","last_reported":1740751758,"current_range_meters":4000,"station_id":"","pricing_plan_id":"cebpf4jnsgd1na2vs0mg"},{"bike_id":"3abe833c-737b-400d-93c2-0875535b2399","system_id":"levelo_inurba_marseille","lat":43.29303,"lon":5.37166,"is_reserved":false,"is_disabled":false,"rental_uris":{"android":"levelo://app?vid=3abe833c-737b-400d-93c2-0875535b2399","ios":"levelo://app?vid=3abe833c-737b-400d-93c2-0875535b2399"},"vehicle_type_id":"4","last_reported":1740751758,"current_range_meters":4000,"station_id":"ce4bgh92rcd13ifvqb40","pricing_plan_id":"cebpf4jnsgd1na2vs0mg"},{"bike_id":"17635321-397b-4f8b-9d46-58a5891c7b21","system_id":"levelo_inurba_marseille","lat":43.280827,"lon":5.396604,"is_reserved":false,"is_disabled":false,"rental_uris":{"android":"levelo://app?vid=17635321-397b-4f8b-9d46-58a5891c7b21","ios":"levelo://app?vid=17635321-397b-4f8b-9d46-58a5891c7b21"},"vehicle_type_id":"4","last_reported":1740751758,"current_range_meters":4000,"station_id":"ce4bho12rcd13ifvqh2g","pricing_plan_id":"cebpf4jnsgd1na2vs0mg"},{"bike_id":"ef2d6e5e-1330-4b18-9a7a-d4a328505c23","system_id":"levelo_inurba_marseille","lat":43.27317,"lon":5.39075,"is_reserved":false,"is_disabled":false,"rental_uris":{"android":"levelo://app?vid=ef2d6e5e-1330-4b18-9a7a-d4a328505c23","ios":"levelo://app?vid=ef2d6e5e-1330-4b18-9a7a-d4a328505c23"},"vehicle_type_id":"4","last_reported":1740751758,"current_range_meters":3600,"station_id":"ce4bhgp2rcd13ifvqfe0","pricing_plan_id":"cebpf4jnsgd1na2vs0mg"},{"bike_id":"68018e6b-9e13-4257-8877-4de81e410228","system_id":"levelo_inurba_marseille","lat":43.280977,"lon":5.402024,"is_reserved":false,"is_disabled":false,"rental_uris":{"android":"levelo://app?vid=68018e6b-9e13-4257-8877-4de81e410228","ios":"levelo://app?vid=68018e6b-9e13-4257-8877-4de81e410228"},"vehicle_type_id":"4","last_reported":1740751758,"current_range_meters":4400,"station_id":"ce4bhnh2rcd13ifvqgug","pricing_plan_id":"cebpf4jnsgd1na2vs0mg"},{"bike_id":"35d44876-2ef1-44f2-a868-c3e2080f8201","system_id":"levelo_inurba_marseille","lat":43.29423,"lon":5.38621,"is_reserved":false,"is_disabled":false,"rental_uris":{"android":"levelo://app?vid=35d44876-2ef1-44f2-a868-c3e2080f8201","ios":"levelo://app?vid=35d44876-2ef1-44f2-a868-c3e2080f8201"},"vehicle_type_id":"4","last_reported":1740751758,"current_range_meters":4400,"station_id":"ce4bh2h2rcd13ifvqdh0","pricing_plan_id":"cebpf4jnsgd1na2vs0mg"},{"bike_id":"7c63646c-4127-4b70-909c-fec61e236c64","system_id":"levelo_inurba_marseille","lat":43.29785,"lon":5.3711,"is_reserved":false,"is_disabled":false,"rental_uris":{"android":"levelo://app?vid=7c63646c-4127-4b70-909c-fec61e236c64","ios":"levelo://app?vid=7c63646c-4127-4b70-909c-fec61e236c64"},"vehicle_type_id":"4","last_reported":1740751758,"current_range_meters":7200,"station_id":"ce4bgop2rcd13ifvqc1g","pricing_plan_id":"cebpf4jnsgd1na2vs0mg"},{"bike_id":"4e037647-a298-446e-8d1e-e20bd1b34ca6","system_id":"levelo_inurba_marseille","lat":43.24671,"lon":5.38128,"is_reserved":false,"is_disabled":false,"rental_uris":{"android":"levelo://app?vid=4e037647-a298-446e-8d1e-e20bd1b34ca6","ios":"levelo://app?vid=4e037647-a298-446e-8d1e-e20bd1b34ca6"},"vehicle_type_id":"4","last_reported":1740751758,"current_range_meters":4400,"station_id":"ce4bhih2rcd13ifvqfr0","pricing_plan_id":"cebpf4jnsgd1na2vs0mg"},{"bike_id":"695118a2-1195-4b47-ab56-4735039d191f","system_id":"levelo_inurba_marseille","lat":43.25112,"lon":5.40321,"is_reserved":false,"is_disabled":false,"rental_uris":{"android":"levelo://app?vid=695118a2-1195-4b47-ab56-4735039d191f","ios":"levelo://app?vid=695118a2-1195-4b47-ab56-4735039d191f"},"vehicle_type_id":"4","last_reported":1740751758,"current_range_meters":4400,"station_id":"ce4bhlh2rcd13ifvqgig","pricing_plan_id":"cebpf4jnsgd1na2vs0mg"},{"bike_id":"80c7b970-6455-470a-89d9-c60746c3905f","system_id":"levelo_inurba_marseille","lat":43.25587,"lon":5.38202,"is_reserved":false,"is_disabled":false,"rental_uris":{"android":"levelo://app?vid=80c7b970-6455-470a-89d9-c60746c3905f","ios":"levelo://app?vid=80c7b970-6455-470a-89d9-c60746c3905f"},"vehicle_type_id":"4","last_reported":1740751758,"current_range_meters":5600,"station_id":"ce4bhih2rcd13ifvqfs0","pricing_plan_id":"cebpf4jnsgd1na2vs0mg"},{"bike_id":"8a376742-1b98-4235-a76e-610dc1cf80af","system_id":"levelo_inurba_marseille","lat":43.25914,"lon":5.40893,"is_reserved":false,"is_disabled":false,"rental_uris":{"android":"levelo://app?vid=8a376742-1b98-4235-a76e-610dc1cf80af","ios":"levelo://app?vid=8a376742-1b98-4235-a76e-610dc1cf80af"},"vehicle_type_id":"4","last_reported":1740751758,"current_range_meters":4800,"station_id":"ce4bhm92rcd13ifvqglg","pricing_plan_id":"cebpf4jnsgd1na2vs0mg"},{"bike_id":"d56554fc-58a6-4e75-86b4-39b2ad44d9b9","system_id":"levelo_inurba_marseille","lat":43.26564,"lon":5.39006,"is_reserved":false,"is_disabled":false,"rental_uris":{"android":"levelo://app?vid=d56554fc-58a6-4e75-86b4-39b2ad44d9b9","ios":"levelo://app?vid=d56554fc-58a6-4e75-86b4-39b2ad44d9b9"},"vehicle_type_id":"4","last_reported":1740751758,"current_range_meters":5600,"station_id":"ce4bhe12rcd13ifvqf30","pricing_plan_id":"cebpf4jnsgd1na2vs0mg"},{"bike_id":"7926011b-4c81-4897-be31-2dc7e47d4b2b","system_id":"levelo_inurba_marseille","lat":43.25584,"lon":5.38246,"is_reserved":false,"is_disabled":false,"rental_uris":{"android":"levelo://app?vid=7926011b-4c81-4897-be31-2dc7e47d4b2b","ios":"levelo://app?vid=7926011b-4c81-4897-be31-2dc7e47d4b2b"},"vehicle_type_id":"4","last_reported":1740751758,"current_range_meters":4800,"station_id":"ce4bhih2rcd13ifvqfs0","pricing_plan_id":"cebpf4jnsgd1na2vs0mg"},{"bike_id":"0e07936b-b5f4-4ce0-90ff-73c063994f1c","system_id":"levelo_inurba_marseille","lat":43.30477,"lon":5.37249,"is_reserved":false,"is_disabled":false,"rental_uris":{"android":"levelo://app?vid=0e07936b-b5f4-4ce0-90ff-73c063994f1c","ios":"levelo://app?vid=0e07936b-b5f4-4ce0-90ff-73c063994f1c"},"vehicle_type_id":"4","last_reported":1740751758,"current_range_meters":5600,"station_id":"","pricing_plan_id":"cebpf4jnsgd1na2vs0mg"},{"bike_id":"b8b5a57c-8dde-4019-bb6a-ae49adc55d76","system_id":"levelo_inurba_marseille","lat":43.26957,"lon":5.38611,"is_reserved":false,"is_disabled":false,"rental_uris":{"android":"levelo://app?vid=b8b5a57c-8dde-4019-bb6a-ae49adc55d76","ios":"levelo://app?vid=b8b5a57c-8dde-4019-bb6a-ae49adc55d76"},"vehicle_type_id":"4","last_reported":1740751758,"current_range_meters":6000,"station_id":"ce4bhh92rcd13ifvqfh0","pricing_plan_id":"cebpf4jnsgd1na2vs0mg"},{"bike_id":"03b2ea25-d4f3-4684-b5fc-a577c06fb29b","system_id":"levelo_inurba_marseille","lat":43.27786,"lon":5.35522,"is_reserved":false,"is_disabled":false,"rental_uris":{"android":"levelo://app?vid=03b2ea25-d4f3-4684-b5fc-a577c06fb29b","ios":"levelo://app?vid=03b2ea25-d4f3-4684-b5fc-a577c06fb29b"},"vehicle_type_id":"4","last_reported":1740751758,"current_range_meters":6000,"station_id":"","pricing_plan_id":"cebpf4jnsgd1na2vs0mg"},{"bike_id":"8a8e48dd-6811-4066-b4c3-521090b55b27","system_id":"levelo_inurba_marseille","lat":43.30188,"lon":5.36615,"is_reserved":false,"is_disabled":false,"rental_uris":{"android":"levelo://app?vid=8a8e48dd-6811-4066-b4c3-521090b55b27","ios":"levelo://app?vid=8a8e48dd-6811-4066-b4c3-521090b55b27"},"vehicle_type_id":"4","last_reported":1740751758,"current_range_meters":5600,"station_id":"ce4bgrh2rcd13ifvqc8g","pricing_plan_id":"cebpf4jnsgd1na2vs0mg"},{"bike_id":"fcd69a2a-3835-492a-bf89-355d6f488d6e","system_id":"levelo_inurba_marseille","lat":43.27666,"lon":5.38869,"is_reserved":false,"is_disabled":false,"rental_uris":{"android":"levelo://app?vid=fcd69a2a-3835-492a-bf89-355d6f488d6e","ios":"levelo://app?vid=fcd69a2a-3835-492a-bf89-355d6f488d6e"},"vehicle_type_id":"4","last_reported":1740751758,"current_range_meters":6000,"station_id":"ce4bhi12rcd13ifvqfo0","pricing_plan_id":"cebpf4jnsgd1na2vs0mg"},{"bike_id":"85f43657-7240-4874-8135-8788eb94ba63","system_id":"levelo_inurba_marseille","lat":43.337444,"lon":5.374475,"is_reserved":false,"is_disabled":false,"rental_uris":{"android":"levelo://app?vid=85f43657-7240-4874-8135-8788eb94ba63","ios":"levelo://app?vid=85f43657-7240-4874-8135-8788eb94ba63"},"vehicle_type_id":"4","last_reported":1740751758,"current_range_meters":6000,"station_id":"","pricing_plan_id":"cebpf4jnsgd1na2vs0mg"},{"bike_id":"cb151145-1667-44f5-888c-ed10a82848b4","system_id":"levelo_inurba_marseille","lat":43.26587,"lon":5.39032,"is_reserved":false,"is_disabled":false,"rental_uris":{"android":"levelo://app?vid=cb151145-1667-44f5-888c-ed10a82848b4","ios":"levelo://app?vid=cb151145-1667-44f5-888c-ed10a82848b4"},"vehicle_type_id":"4","last_reported":1740751758,"current_range_meters":6000,"station_id":"ce4bhe12rcd13ifvqf30","pricing_plan_id":"cebpf4jnsgd1na2vs0mg"},{"bike_id":"18ba8288-36e5-4ff5-8254-36420fea01a9","system_id":"levelo_inurba_marseille","lat":43.28463,"lon":5.35885,"is_reserved":false,"is_disabled":false,"rental_uris":{"android":"levelo://app?vid=18ba8288-36e5-4ff5-8254-36420fea01a9","ios":"levelo://app?vid=18ba8288-36e5-4ff5-8254-36420fea01a9"},"vehicle_type_id":"4","last_reported":1740751758,"current_range_meters":6400,"station_id":"ce4bhah2rcd13ifvqei0","pricing_plan_id":"cebpf4jnsgd1na2vs0mg"},{"bike_id":"062cf1df-89f8-4721-a6f2-7dad610bb9cd","system_id":"levelo_inurba_marseille","lat":43.27991,"lon":5.41655,"is_reserved":false,"is_disabled":false,"rental_uris":{"android":"levelo://app?vid=062cf1df-89f8-4721-a6f2-7dad610bb9cd","ios":"levelo://app?vid=062cf1df-89f8-4721-a6f2-7dad610bb9cd"},"vehicle_type_id":"4","last_reported":1740751758,"current_range_meters":6400,"station_id":"ce4bho12rcd13ifvqh1g","pricing_plan_id":"cebpf4jnsgd1na2vs0mg"},{"bike_id":"a402dcb0-63b6-4569-b9e8-ad825500c3f8","system_id":"levelo_inurba_marseille","lat":43.28984,"lon":5.35913,"is_reserved":false,"is_disabled":false,"rental_uris":{"android":"levelo://app?vid=a402dcb0-63b6-4569-b9e8-ad825500c3f8","ios":"levelo://app?vid=a402dcb0-63b6-4569-b9e8-ad825500c3f8"},"vehicle_type_id":"4","last_reported":1740751758,"current_range_meters":6400,"station_id":"","pricing_plan_id":"cebpf4jnsgd1na2vs0mg"},{"bike_id":"b1fd7ee9-30e5-4fab-aa78-d50ff4137b52","system_id":"levelo_inurba_marseille","lat":43.25583,"lon":5.38224,"is_reserved":false,"is_disabled":false,"rental_uris":{"android":"levelo://app?vid=b1fd7ee9-30e5-4fab-aa78-d50ff4137b52","ios":"levelo://app?vid=b1fd7ee9-30e5-4fab-aa78-d50ff4137b52"},"vehicle_type_id":"4","last_reported":1740751758,"current_range_meters":6400,"station_id":"ce4bhih2rcd13ifvqfs0","pricing_plan_id":"cebpf4jnsgd1na2vs0mg"},{"bike_id":"a45eac4f-c3a2-4787-a54c-1a1d8e001a9c","system_id":"levelo_inurba_marseille","lat":43.22933,"lon":5.35377,"is_reserved":false,"is_disabled":false,"rental_uris":{"android":"levelo://app?vid=a45eac4f-c3a2-4787-a54c-1a1d8e001a9c","ios":"levelo://app?vid=a45eac4f-c3a2-4787-a54c-1a1d8e001a9c"},"vehicle_type_id":"4","last_reported":1740751758,"current_range_meters":7200,"station_id":"cpo3532slgdg3j2ikp40","pricing_plan_id":"cebpf4jnsgd1na2vs0mg"},{"bike_id":"435cc12b-60b2-4fef-b94c-59941ba4cebb","system_id":"levelo_inurba_marseille","lat":43.27374,"lon":5.36261,"is_reserved":false,"is_disabled":false,"rental_uris":{"android":"levelo://app?vid=435cc12b-60b2-4fef-b94c-59941ba4cebb","ios":"levelo://app?vid=435cc12b-60b2-4fef-b94c-59941ba4cebb"},"vehicle_type_id":"4","last_reported":1740751758,"current_range_meters":6400,"station_id":"ce4bhbh2rcd13ifvqeo0","pricing_plan_id":"cebpf4jnsgd1na2vs0mg"},{"bike_id":"e61c558e-70bf-4486-b29e-74b2bb22ec44","system_id":"levelo_inurba_marseille","lat":43.25576,"lon":5.38229,"is_reserved":false,"is_disabled":false,"rental_uris":{"android":"levelo://app?vid=e61c558e-70bf-4486-b29e-74b2bb22ec44","ios":"levelo://app?vid=e61c558e-70bf-4486-b29e-74b2bb22ec44"},"vehicle_type_id":"4","last_reported":1740751758,"current_range_meters":2000,"station_id":"ce4bhih2rcd13ifvqfs0","pricing_plan_id":"cebpf4jnsgd1na2vs0mg"},{"bike_id":"8be613bd-f25e-47be-89ed-ef1fcb177e01","system_id":"levelo_inurba_marseille","lat":43.29096,"lon":5.38132,"is_reserved":false,"is_disabled":false,"rental_uris":{"android":"levelo://app?vid=8be613bd-f25e-47be-89ed-ef1fcb177e01","ios":"levelo://app?vid=8be613bd-f25e-47be-89ed-ef1fcb177e01"},"vehicle_type_id":"4","last_reported":1740751758,"current_range_meters":6000,"station_id":"ce4bh512rcd13ifvqe2g","pricing_plan_id":"cebpf4jnsgd1na2vs0mg"},{"bike_id":"8ef90c46-b687-4d5f-9bc1-82729d818502","system_id":"levelo_inurba_marseille","lat":43.25826,"lon":5.39441,"is_reserved":false,"is_disabled":false,"rental_uris":{"android":"levelo://app?vid=8ef90c46-b687-4d5f-9bc1-82729d818502","ios":"levelo://app?vid=8ef90c46-b687-4d5f-9bc1-82729d818502"},"vehicle_type_id":"4","last_reported":1740751758,"current_range_meters":6800,"station_id":"ce4bhip2rcd13ifvqft0","pricing_plan_id":"cebpf4jnsgd1na2vs0mg"},{"bike_id":"847869db-9221-4af6-8e61-a30cd123789e","system_id":"levelo_inurba_marseille","lat":43.30548,"lon":5.36564,"is_reserved":false,"is_disabled":false,"rental_uris":{"android":"levelo://app?vid=847869db-9221-4af6-8e61-a30cd123789e","ios":"levelo://app?vid=847869db-9221-4af6-8e61-a30cd123789e"},"vehicle_type_id":"4","last_reported":1740751758,"current_range_meters":6800,"station_id":"ce4bgs12rcd13ifvqcag","pricing_plan_id":"cebpf4jnsgd1na2vs0mg"},{"bike_id":"5d27b574-d0fe-49dd-9c73-aa0ca33a540a","system_id":"levelo_inurba_marseille","lat":43.24681,"lon":5.38149,"is_reserved":false,"is_disabled":false,"rental_uris":{"android":"levelo://app?vid=5d27b574-d0fe-49dd-9c73-aa0ca33a540a","ios":"levelo://app?vid=5d27b574-d0fe-49dd-9c73-aa0ca33a540a"},"vehicle_type_id":"4","last_reported":1740751758,"current_range_meters":6800,"station_id":"ce4bhih2rcd13ifvqfr0","pricing_plan_id":"cebpf4jnsgd1na2vs0mg"},{"bike_id":"716ca9e9-f948-4094-a6ab-ab925bd4b584","system_id":"levelo_inurba_marseille","lat":43.31375,"lon":5.38489,"is_reserved":false,"is_disabled":false,"rental_uris":{"android":"levelo://app?vid=716ca9e9-f948-4094-a6ab-ab925bd4b584","ios":"levelo://app?vid=716ca9e9-f948-4094-a6ab-ab925bd4b584"},"vehicle_type_id":"4","last_reported":1740751758,"current_range_meters":6800,"station_id":"ce4bgt92rcd13ifvqcf0","pricing_plan_id":"cebpf4jnsgd1na2vs0mg"},{"bike_id":"5e0e22b0-e973-48d0-8bed-a771273f721a","system_id":"levelo_inurba_marseille","lat":43.27376,"lon":5.36242,"is_reserved":false,"is_disabled":false,"rental_uris":{"android":"levelo://app?vid=5e0e22b0-e973-48d0-8bed-a771273f721a","ios":"levelo://app?vid=5e0e22b0-e973-48d0-8bed-a771273f721a"},"vehicle_type_id":"4","last_reported":1740751758,"current_range_meters":7200,"station_id":"ce4bhbh2rcd13ifvqeo0","pricing_plan_id":"cebpf4jnsgd1na2vs0mg"},{"bike_id":"0be80174-a213-4ef8-b72e-940be9a53bf1","system_id":"levelo_inurba_marseille","lat":43.25497,"lon":5.3765,"is_reserved":false,"is_disabled":false,"rental_uris":{"android":"levelo://app?vid=0be80174-a213-4ef8-b72e-940be9a53bf1","ios":"levelo://app?vid=0be80174-a213-4ef8-b72e-940be9a53bf1"},"vehicle_type_id":"4","last_reported":1740751758,"current_range_meters":7200,"station_id":"ce4bhh12rcd13ifvqff0","pricing_plan_id":"cebpf4jnsgd1na2vs0mg"},{"bike_id":"a92f59e1-45f6-404d-bd08-f108dcf176dc","system_id":"levelo_inurba_marseille","lat":43.27175,"lon":5.40993,"is_reserved":false,"is_disabled":false,"rental_uris":{"android":"levelo://app?vid=a92f59e1-45f6-404d-bd08-f108dcf176dc","ios":"levelo://app?vid=a92f59e1-45f6-404d-bd08-f108dcf176dc"},"vehicle_type_id":"4","last_reported":1740751758,"current_range_meters":10000,"station_id":"ce4bhl12rcd13ifvqgf0","pricing_plan_id":"cebpf4jnsgd1na2vs0mg"},{"bike_id":"a857a849-1414-4d4d-9dae-cc5261b581b9","system_id":"levelo_inurba_marseille","lat":43.23194,"lon":5.35551,"is_reserved":false,"is_disabled":false,"rental_uris":{"android":"levelo://app?vid=a857a849-1414-4d4d-9dae-cc5261b581b9","ios":"levelo://app?vid=a857a849-1414-4d4d-9dae-cc5261b581b9"},"vehicle_type_id":"4","last_reported":1740751758,"current_range_meters":7200,"station_id":"ce4bhu92rcd13ifvqi70","pricing_plan_id":"cebpf4jnsgd1na2vs0mg"},{"bike_id":"7fe3c1fd-48d7-4b61-85a9-f0902a09f399","system_id":"levelo_inurba_marseille","lat":43.28269,"lon":5.35082,"is_reserved":false,"is_disabled":false,"rental_uris":{"android":"levelo://app?vid=7fe3c1fd-48d7-4b61-85a9-f0902a09f399","ios":"levelo://app?vid=7fe3c1fd-48d7-4b61-85a9-f0902a09f399"},"vehicle_type_id":"4","last_reported":1740751758,"current_range_meters":7200,"station_id":"ce4bhbp2rcd13ifvqerg","pricing_plan_id":"cebpf4jnsgd1na2vs0mg"},{"bike_id":"402979ed-c66a-47a2-b48f-0f0f7b332189","system_id":"levelo_inurba_marseille","lat":43.29227,"lon":5.36068,"is_reserved":false,"is_disabled":false,"rental_uris":{"android":"levelo://app?vid=402979ed-c66a-47a2-b48f-0f0f7b332189","ios":"levelo://app?vid=402979ed-c66a-47a2-b48f-0f0f7b332189"},"vehicle_type_id":"4","last_reported":1740751758,"current_range_meters":7200,"station_id":"ce4bhbh2rcd13ifvqeqg","pricing_plan_id":"cebpf4jnsgd1na2vs0mg"},{"bike_id":"9f1df557-2ca7-48ee-937d-826c5d6ab9b7","system_id":"levelo_inurba_marseille","lat":43.23062,"lon":5.35492,"is_reserved":false,"is_disabled":false,"rental_uris":{"android":"levelo://app?vid=9f1df557-2ca7-48ee-937d-826c5d6ab9b7","ios":"levelo://app?vid=9f1df557-2ca7-48ee-937d-826c5d6ab9b7"},"vehicle_type_id":"4","last_reported":1740751758,"current_range_meters":8000,"station_id":"cpo3342slgdg3j2ifvpg","pricing_plan_id":"cebpf4jnsgd1na2vs0mg"},{"bike_id":"c0169b3a-a525-4147-abc7-59733a3a77d9","system_id":"levelo_inurba_marseille","lat":43.30149,"lon":5.38091,"is_reserved":false,"is_disabled":false,"rental_uris":{"android":"levelo://app?vid=c0169b3a-a525-4147-abc7-59733a3a77d9","ios":"levelo://app?vid=c0169b3a-a525-4147-abc7-59733a3a77d9"},"vehicle_type_id":"4","last_reported":1740751758,"current_range_meters":8000,"station_id":"ce4bgjp2rcd13ifvqbh0","pricing_plan_id":"cebpf4jnsgd1na2vs0mg"},{"bike_id":"045457a5-0624-47ff-b0ea-add280185ef9","system_id":"levelo_inurba_marseille","lat":43.30811,"lon":5.38168,"is_reserved":false,"is_disabled":false,"rental_uris":{"android":"levelo://app?vid=045457a5-0624-47ff-b0ea-add280185ef9","ios":"levelo://app?vid=045457a5-0624-47ff-b0ea-add280185ef9"},"vehicle_type_id":"4","last_reported":1740751758,"current_range_meters":8000,"station_id":"ce4bgt12rcd13ifvqce0","pricing_plan_id":"cebpf4jnsgd1na2vs0mg"},{"bike_id":"65088479-67a3-40cf-a81e-01c7566ba65e","system_id":"levelo_inurba_marseille","lat":43.27567,"lon":5.38425,"is_reserved":false,"is_disabled":false,"rental_uris":{"android":"levelo://app?vid=65088479-67a3-40cf-a81e-01c7566ba65e","ios":"levelo://app?vid=65088479-67a3-40cf-a81e-01c7566ba65e"},"vehicle_type_id":"4","last_reported":1740751758,"current_range_meters":8400,"station_id":"ce4bhh92rcd13ifvqfi0","pricing_plan_id":"cebpf4jnsgd1na2vs0mg"},{"bike_id":"ec0c3b7d-e59a-44ca-a91a-f860d2fd7a88","system_id":"levelo_inurba_marseille","lat":43.30834,"lon":5.37374,"is_reserved":false,"is_disabled":false,"rental_uris":{"android":"levelo://app?vid=ec0c3b7d-e59a-44ca-a91a-f860d2fd7a88","ios":"levelo://app?vid=ec0c3b7d-e59a-44ca-a91a-f860d2fd7a88"},"vehicle_type_id":"4","last_reported":1740751758,"current_range_meters":8000,"station_id":"","pricing_plan_id":"cebpf4jnsgd1na2vs0mg"},{"bike_id":"ddf4c189-cdc7-4208-a0e3-f769f5b5d1c5","system_id":"levelo_inurba_marseille","lat":43.32001,"lon":5.38168,"is_reserved":false,"is_disabled":false,"rental_uris":{"android":"levelo://app?vid=ddf4c189-cdc7-4208-a0e3-f769f5b5d1c5","ios":"levelo://app?vid=ddf4c189-cdc7-4208-a0e3-f769f5b5d1c5"},"vehicle_type_id":"4","last_reported":1740751758,"current_range_meters":8000,"station_id":"ce4bhr12rcd13ifvqhpg","pricing_plan_id":"cebpf4jnsgd1na2vs0mg"},{"bike_id":"89f85577-0bf1-4bc1-ab86-ec0a1d78adc9","system_id":"levelo_inurba_marseille","lat":43.33729,"lon":5.39183,"is_reserved":false,"is_disabled":false,"rental_uris":{"android":"levelo://app?vid=89f85577-0bf1-4bc1-ab86-ec0a1d78adc9","ios":"levelo://app?vid=89f85577-0bf1-4bc1-ab86-ec0a1d78adc9"},"vehicle_type_id":"4","last_reported":1740751758,"current_range_meters":8000,"station_id":"ce4bhr92rcd13ifvqhsg","pricing_plan_id":"cebpf4jnsgd1na2vs0mg"},{"bike_id":"67aff349-dc9a-40cd-8844-2d4724543d75","system_id":"levelo_inurba_marseille","lat":43.2548,"lon":5.37659,"is_reserved":false,"is_disabled":false,"rental_uris":{"android":"levelo://app?vid=67aff349-dc9a-40cd-8844-2d4724543d75","ios":"levelo://app?vid=67aff349-dc9a-40cd-8844-2d4724543d75"},"vehicle_type_id":"4","last_reported":1740751758,"current_range_meters":1200,"station_id":"ce4bhh12rcd13ifvqff0","pricing_plan_id":"cebpf4jnsgd1na2vs0mg"},{"bike_id":"86518cd3-56e0-4833-a40e-4322ddb83495","system_id":"levelo_inurba_marseille","lat":43.27378,"lon":5.362582,"is_reserved":false,"is_disabled":false,"rental_uris":{"android":"levelo://app?vid=86518cd3-56e0-4833-a40e-4322ddb83495","ios":"levelo://app?vid=86518cd3-56e0-4833-a40e-4322ddb83495"},"vehicle_type_id":"4","last_reported":1740751758,"current_range_meters":8400,"station_id":"ce4bhi12rcd13ifvqfq0","pricing_plan_id":"cebpf4jnsgd1na2vs0mg"},{"bike_id":"6208017f-24c9-4f36-a465-a818621e4412","system_id":"levelo_inurba_marseille","lat":43.262,"lon":5.37911,"is_reserved":false,"is_disabled":false,"rental_uris":{"android":"levelo://app?vid=6208017f-24c9-4f36-a465-a818621e4412","ios":"levelo://app?vid=6208017f-24c9-4f36-a465-a818621e4412"},"vehicle_type_id":"4","last_reported":1740751758,"current_range_meters":8000,"station_id":"ce4bhjp2rcd13ifvqg90","pricing_plan_id":"cebpf4jnsgd1na2vs0mg"},{"bike_id":"b4096433-b2bd-42ed-aab6-0e8e83574332","system_id":"levelo_inurba_marseille","lat":43.29546,"lon":5.42285,"is_reserved":false,"is_disabled":false,"rental_uris":{"android":"levelo://app?vid=b4096433-b2bd-42ed-aab6-0e8e83574332","ios":"levelo://app?vid=b4096433-b2bd-42ed-aab6-0e8e83574332"},"vehicle_type_id":"4","last_reported":1740751758,"current_range_meters":8000,"station_id":"ce4bhph2rcd13ifvqhdg","pricing_plan_id":"cebpf4jnsgd1na2vs0mg"},{"bike_id":"1ab7b098-f66b-40af-b0cc-bd927e3e0ad1","system_id":"levelo_inurba_marseille","lat":43.23204,"lon":5.35538,"is_reserved":false,"is_disabled":false,"rental_uris":{"android":"levelo://app?vid=1ab7b098-f66b-40af-b0cc-bd927e3e0ad1","ios":"levelo://app?vid=1ab7b098-f66b-40af-b0cc-bd927e3e0ad1"},"vehicle_type_id":"4","last_reported":1740751758,"current_range_meters":8400,"station_id":"ce4bhu92rcd13ifvqi70","pricing_plan_id":"cebpf4jnsgd1na2vs0mg"},{"bike_id":"0b87d054-c623-4c6e-98fa-4edce9813bf3","system_id":"levelo_inurba_marseille","lat":43.25916,"lon":5.40922,"is_reserved":false,"is_disabled":false,"rental_uris":{"android":"levelo://app?vid=0b87d054-c623-4c6e-98fa-4edce9813bf3","ios":"levelo://app?vid=0b87d054-c623-4c6e-98fa-4edce9813bf3"},"vehicle_type_id":"4","last_reported":1740751758,"current_range_meters":8400,"station_id":"ce4bhm92rcd13ifvqglg","pricing_plan_id":"cebpf4jnsgd1na2vs0mg"},{"bike_id":"b8bd50c8-af3a-4daf-86af-9931bafca09a","system_id":"levelo_inurba_marseille","lat":43.30807,"lon":5.43528,"is_reserved":false,"is_disabled":false,"rental_uris":{"android":"levelo://app?vid=b8bd50c8-af3a-4daf-86af-9931bafca09a","ios":"levelo://app?vid=b8bd50c8-af3a-4daf-86af-9931bafca09a"},"vehicle_type_id":"4","last_reported":1740751758,"current_range_meters":8000,"station_id":"ce4bhph2rcd13ifvqheg","pricing_plan_id":"cebpf4jnsgd1na2vs0mg"},{"bike_id":"d04140d9-6eb5-492a-8f0e-210e2f033a09","system_id":"levelo_inurba_marseille","lat":43.30465,"lon":5.37909,"is_reserved":false,"is_disabled":false,"rental_uris":{"android":"levelo://app?vid=d04140d9-6eb5-492a-8f0e-210e2f033a09","ios":"levelo://app?vid=d04140d9-6eb5-492a-8f0e-210e2f033a09"},"vehicle_type_id":"4","last_reported":1740751758,"current_range_meters":8400,"station_id":"ce4bgup2rcd13ifvqcn0","pricing_plan_id":"cebpf4jnsgd1na2vs0mg"},{"bike_id":"2fb9e660-6f85-4edb-bad4-3b87d32a93f5","system_id":"levelo_inurba_marseille","lat":43.29533,"lon":5.37512,"is_reserved":false,"is_disabled":false,"rental_uris":{"android":"levelo://app?vid=2fb9e660-6f85-4edb-bad4-3b87d32a93f5","ios":"levelo://app?vid=2fb9e660-6f85-4edb-bad4-3b87d32a93f5"},"vehicle_type_id":"4","last_reported":1740751758,"current_range_meters":8400,"station_id":"ce4bgkp2rcd13ifvqbmg","pricing_plan_id":"cebpf4jnsgd1na2vs0mg"},{"bike_id":"026e178e-412a-49e0-9772-e5f6d0abaab4","system_id":"levelo_inurba_marseille","lat":43.30879,"lon":5.37081,"is_reserved":false,"is_disabled":false,"rental_uris":{"android":"levelo://app?vid=026e178e-412a-49e0-9772-e5f6d0abaab4","ios":"levelo://app?vid=026e178e-412a-49e0-9772-e5f6d0abaab4"},"vehicle_type_id":"4","last_reported":1740751758,"current_range_meters":8800,"station_id":"","pricing_plan_id":"cebpf4jnsgd1na2vs0mg"},{"bike_id":"2eed8e1e-3041-457b-819c-bae49a5eab32","system_id":"levelo_inurba_marseille","lat":43.26198,"lon":5.37448,"is_reserved":false,"is_disabled":false,"rental_uris":{"android":"levelo://app?vid=2eed8e1e-3041-457b-819c-bae49a5eab32","ios":"levelo://app?vid=2eed8e1e-3041-457b-819c-bae49a5eab32"},"vehicle_type_id":"4","last_reported":1740751758,"current_range_meters":8800,"station_id":"ce4bhgp2rcd13ifvqfc0","pricing_plan_id":"cebpf4jnsgd1na2vs0mg"},{"bike_id":"a97ef810-7225-4bf9-ae16-85c852e9dbad","system_id":"levelo_inurba_marseille","lat":43.3056,"lon":5.36521,"is_reserved":false,"is_disabled":false,"rental_uris":{"android":"levelo://app?vid=a97ef810-7225-4bf9-ae16-85c852e9dbad","ios":"levelo://app?vid=a97ef810-7225-4bf9-ae16-85c852e9dbad"},"vehicle_type_id":"4","last_reported":1740751758,"current_range_meters":9200,"station_id":"ce4bgs12rcd13ifvqcag","pricing_plan_id":"cebpf4jnsgd1na2vs0mg"},{"bike_id":"5e117a9d-b9e1-4009-bfc4-f11479e54d74","system_id":"levelo_inurba_marseille","lat":43.25001,"lon":5.38926,"is_reserved":false,"is_disabled":false,"rental_uris":{"android":"levelo://app?vid=5e117a9d-b9e1-4009-bfc4-f11479e54d74","ios":"levelo://app?vid=5e117a9d-b9e1-4009-bfc4-f11479e54d74"},"vehicle_type_id":"4","last_reported":1740751758,"current_range_meters":8800,"station_id":"ce4bhgp2rcd13ifvqfd0","pricing_plan_id":"cebpf4jnsgd1na2vs0mg"},{"bike_id":"a9f1f1e3-d3f5-491e-b067-729e0dc90246","system_id":"levelo_inurba_marseille","lat":43.30166,"lon":5.38101,"is_reserved":false,"is_disabled":false,"rental_uris":{"android":"levelo://app?vid=a9f1f1e3-d3f5-491e-b067-729e0dc90246","ios":"levelo://app?vid=a9f1f1e3-d3f5-491e-b067-729e0dc90246"},"vehicle_type_id":"4","last_reported":1740751758,"current_range_meters":9200,"station_id":"ce4bgjp2rcd13ifvqbh0","pricing_plan_id":"cebpf4jnsgd1na2vs0mg"},{"bike_id":"af48260f-7450-44d2-af77-60ea47d09858","system_id":"levelo_inurba_marseille","lat":43.29961,"lon":5.3716,"is_reserved":false,"is_disabled":false,"rental_uris":{"android":"levelo://app?vid=af48260f-7450-44d2-af77-60ea47d09858","ios":"levelo://app?vid=af48260f-7450-44d2-af77-60ea47d09858"},"vehicle_type_id":"4","last_reported":1740751758,"current_range_meters":9200,"station_id":"ce4bgr92rcd13ifvqc7g","pricing_plan_id":"cebpf4jnsgd1na2vs0mg"},{"bike_id":"379f4009-2fed-4f96-9809-f0eeee54aaf5","system_id":"levelo_inurba_marseille","lat":43.29844,"lon":5.36264,"is_reserved":false,"is_disabled":false,"rental_uris":{"android":"levelo://app?vid=379f4009-2fed-4f96-9809-f0eeee54aaf5","ios":"levelo://app?vid=379f4009-2fed-4f96-9809-f0eeee54aaf5"},"vehicle_type_id":"4","last_reported":1740751758,"current_range_meters":9200,"station_id":"ce4bgpp2rcd13ifvqc3g","pricing_plan_id":"cebpf4jnsgd1na2vs0mg"},{"bike_id":"aa38e5a0-f202-4937-afea-0884bdfbe308","system_id":"levelo_inurba_marseille","lat":43.30539,"lon":5.36702,"is_reserved":false,"is_disabled":false,"rental_uris":{"android":"levelo://app?vid=aa38e5a0-f202-4937-afea-0884bdfbe308","ios":"levelo://app?vid=aa38e5a0-f202-4937-afea-0884bdfbe308"},"vehicle_type_id":"4","last_reported":1740751758,"current_range_meters":9200,"station_id":"ce4bgrp2rcd13ifvqc9g","pricing_plan_id":"cebpf4jnsgd1na2vs0mg"},{"bike_id":"3de9aeda-1f9a-4bbc-8b90-e02a49e56ca9","system_id":"levelo_inurba_marseille","lat":43.23197,"lon":5.35551,"is_reserved":false,"is_disabled":false,"rental_uris":{"android":"levelo://app?vid=3de9aeda-1f9a-4bbc-8b90-e02a49e56ca9","ios":"levelo://app?vid=3de9aeda-1f9a-4bbc-8b90-e02a49e56ca9"},"vehicle_type_id":"4","last_reported":1740751758,"current_range_meters":9200,"station_id":"ce4bhu92rcd13ifvqi70","pricing_plan_id":"cebpf4jnsgd1na2vs0mg"},{"bike_id":"6128382e-034a-492c-9e04-119abc545af4","system_id":"levelo_inurba_marseille","lat":43.29032,"lon":5.3996,"is_reserved":false,"is_disabled":false,"rental_uris":{"android":"levelo://app?vid=6128382e-034a-492c-9e04-119abc545af4","ios":"levelo://app?vid=6128382e-034a-492c-9e04-119abc545af4"},"vehicle_type_id":"4","last_reported":1740751758,"current_range_meters":9200,"station_id":"ce4bh392rcd13ifvqdm0","pricing_plan_id":"cebpf4jnsgd1na2vs0mg"},{"bike_id":"63463664-260a-49b1-b788-c4ffe3d30739","system_id":"levelo_inurba_marseille","lat":43.29283,"lon":5.40116,"is_reserved":false,"is_disabled":false,"rental_uris":{"android":"levelo://app?vid=63463664-260a-49b1-b788-c4ffe3d30739","ios":"levelo://app?vid=63463664-260a-49b1-b788-c4ffe3d30739"},"vehicle_type_id":"4","last_reported":1740751758,"current_range_meters":5600,"station_id":"ce4bh312rcd13ifvqdk0","pricing_plan_id":"cebpf4jnsgd1na2vs0mg"},{"bike_id":"0d8b3744-45a2-40c6-a7d5-e48187b98f45","system_id":"levelo_inurba_marseille","lat":43.23156,"lon":5.43704,"is_reserved":false,"is_disabled":false,"rental_uris":{"android":"levelo://app?vid=0d8b3744-45a2-40c6-a7d5-e48187b98f45","ios":"levelo://app?vid=0d8b3744-45a2-40c6-a7d5-e48187b98f45"},"vehicle_type_id":"4","last_reported":1740751758,"current_range_meters":9600,"station_id":"ce4bhmp2rcd13ifvqgog","pricing_plan_id":"cebpf4jnsgd1na2vs0mg"},{"bike_id":"71f68bea-1636-449e-a230-6d983096a86d","system_id":"levelo_inurba_marseille","lat":43.24076,"lon":5.37761,"is_reserved":false,"is_disabled":false,"rental_uris":{"android":"levelo://app?vid=71f68bea-1636-449e-a230-6d983096a86d","ios":"levelo://app?vid=71f68bea-1636-449e-a230-6d983096a86d"},"vehicle_type_id":"4","last_reported":1740751758,"current_range_meters":9600,"station_id":"ce4bhnp2rcd13ifvqgvg","pricing_plan_id":"cebpf4jnsgd1na2vs0mg"},{"bike_id":"6c9fdca8-6847-4ee3-b16a-1c080f98bae1","system_id":"levelo_inurba_marseille","lat":43.25086,"lon":5.3952,"is_reserved":false,"is_disabled":false,"rental_uris":{"android":"levelo://app?vid=6c9fdca8-6847-4ee3-b16a-1c080f98bae1","ios":"levelo://app?vid=6c9fdca8-6847-4ee3-b16a-1c080f98bae1"},"vehicle_type_id":"4","last_reported":1740751758,"current_range_meters":9600,"station_id":"ce4bhm12rcd13ifvqgkg","pricing_plan_id":"cebpf4jnsgd1na2vs0mg"},{"bike_id":"590510b3-774a-460d-bc6d-183ef4ba7b32","system_id":"levelo_inurba_marseille","lat":43.29259,"lon":5.38442,"is_reserved":false,"is_disabled":false,"rental_uris":{"android":"levelo://app?vid=590510b3-774a-460d-bc6d-183ef4ba7b32","ios":"levelo://app?vid=590510b3-774a-460d-bc6d-183ef4ba7b32"},"vehicle_type_id":"4","last_reported":1740751758,"current_range_meters":9600,"station_id":"ce4bh692rcd13ifvqea0","pricing_plan_id":"cebpf4jnsgd1na2vs0mg"},{"bike_id":"4076bcf6-008a-4005-92cd-c9085db6a11b","system_id":"levelo_inurba_marseille","lat":43.317187,"lon":5.37743,"is_reserved":false,"is_disabled":false,"rental_uris":{"android":"levelo://app?vid=4076bcf6-008a-4005-92cd-c9085db6a11b","ios":"levelo://app?vid=4076bcf6-008a-4005-92cd-c9085db6a11b"},"vehicle_type_id":"4","last_reported":1740751758,"current_range_meters":9200,"station_id":"ce4bgth2rcd13ifvqch0","pricing_plan_id":"cebpf4jnsgd1na2vs0mg"},{"bike_id":"15056705-02f5-4709-bf04-aa0476cb150a","system_id":"levelo_inurba_marseille","lat":43.27818,"lon":5.40707,"is_reserved":false,"is_disabled":false,"rental_uris":{"android":"levelo://app?vid=15056705-02f5-4709-bf04-aa0476cb150a","ios":"levelo://app?vid=15056705-02f5-4709-bf04-aa0476cb150a"},"vehicle_type_id":"4","last_reported":1740751758,"current_range_meters":10000,"station_id":"ce4bhnh2rcd13ifvqgtg","pricing_plan_id":"cebpf4jnsgd1na2vs0mg"},{"bike_id":"93356d6f-68fd-4f85-b972-a491110e4e6a","system_id":"levelo_inurba_marseille","lat":43.31361,"lon":5.38493,"is_reserved":false,"is_disabled":false,"rental_uris":{"android":"levelo://app?vid=93356d6f-68fd-4f85-b972-a491110e4e6a","ios":"levelo://app?vid=93356d6f-68fd-4f85-b972-a491110e4e6a"},"vehicle_type_id":"4","last_reported":1740751758,"current_range_meters":10000,"station_id":"ce4bgt92rcd13ifvqcf0","pricing_plan_id":"cebpf4jnsgd1na2vs0mg"},{"bike_id":"d4918d6a-5525-4be8-b0c4-7af64b54343d","system_id":"levelo_inurba_marseille","lat":43.24176,"lon":5.36384,"is_reserved":false,"is_disabled":false,"rental_uris":{"android":"levelo://app?vid=d4918d6a-5525-4be8-b0c4-7af64b54343d","ios":"levelo://app?vid=d4918d6a-5525-4be8-b0c4-7af64b54343d"},"vehicle_type_id":"4","last_reported":1740751758,"current_range_meters":10000,"station_id":"cpo36qri1sfpv3e86is0","pricing_plan_id":"cebpf4jnsgd1na2vs0mg"},{"bike_id":"fa1727d2-1914-47f5-9566-f0a9274c0fe8","system_id":"levelo_inurba_marseille","lat":43.28611,"lon":5.35105,"is_reserved":false,"is_disabled":false,"rental_uris":{"android":"levelo://app?vid=fa1727d2-1914-47f5-9566-f0a9274c0fe8","ios":"levelo://app?vid=fa1727d2-1914-47f5-9566-f0a9274c0fe8"},"vehicle_type_id":"4","last_reported":1740751758,"current_range_meters":10000,"station_id":"ce4bhch2rcd13ifvqeug","pricing_plan_id":"cebpf4jnsgd1na2vs0mg"},{"bike_id":"10be055f-dd9f-4dc6-8d3f-7aba3762d29b","system_id":"levelo_inurba_marseille","lat":43.32122,"lon":5.36758,"is_reserved":false,"is_disabled":false,"rental_uris":{"android":"levelo://app?vid=10be055f-dd9f-4dc6-8d3f-7aba3762d29b","ios":"levelo://app?vid=10be055f-dd9f-4dc6-8d3f-7aba3762d29b"},"vehicle_type_id":"4","last_reported":1740751758,"current_range_meters":10000,"station_id":"ce4bhrh2rcd13ifvqhug","pricing_plan_id":"cebpf4jnsgd1na2vs0mg"},{"bike_id":"7ad1d76a-ec00-4d91-a338-68ad21f448a1","system_id":"levelo_inurba_marseille","lat":43.29928,"lon":5.37502,"is_reserved":false,"is_disabled":false,"rental_uris":{"android":"levelo://app?vid=7ad1d76a-ec00-4d91-a338-68ad21f448a1","ios":"levelo://app?vid=7ad1d76a-ec00-4d91-a338-68ad21f448a1"},"vehicle_type_id":"4","last_reported":1740751758,"current_range_meters":10000,"station_id":"","pricing_plan_id":"cebpf4jnsgd1na2vs0mg"},{"bike_id":"c4aaec2d-c2fd-442e-ab39-1c1382bfa4a2","system_id":"levelo_inurba_marseille","lat":43.2861,"lon":5.37067,"is_reserved":false,"is_disabled":false,"rental_uris":{"android":"levelo://app?vid=c4aaec2d-c2fd-442e-ab39-1c1382bfa4a2","ios":"levelo://app?vid=c4aaec2d-c2fd-442e-ab39-1c1382bfa4a2"},"vehicle_type_id":"4","last_reported":1740751758,"current_range_meters":10000,"station_id":"ce4bht12rcd13ifvqi60","pricing_plan_id":"cebpf4jnsgd1na2vs0mg"},{"bike_id":"780ba828-4fef-42ec-8c1a-0a8ad4696382","system_id":"levelo_inurba_marseille","lat":43.305909,"lon":5.393638,"is_reserved":false,"is_disabled":false,"rental_uris":{"android":"levelo://app?vid=780ba828-4fef-42ec-8c1a-0a8ad4696382","ios":"levelo://app?vid=780ba828-4fef-42ec-8c1a-0a8ad4696382"},"vehicle_type_id":"4","last_reported":1740751758,"current_range_meters":10000,"station_id":"ce4bgv92rcd13ifvqcq0","pricing_plan_id":"cebpf4jnsgd1na2vs0mg"},{"bike_id":"36aaff39-aaa8-465d-bd0a-3f671adb5484","system_id":"levelo_inurba_marseille","lat":43.298508,"lon":5.362764,"is_reserved":false,"is_disabled":false,"rental_uris":{"android":"levelo://app?vid=36aaff39-aaa8-465d-bd0a-3f671adb5484","ios":"levelo://app?vid=36aaff39-aaa8-465d-bd0a-3f671adb5484"},"vehicle_type_id":"4","last_reported":1740751758,"current_range_meters":10800,"station_id":"ce4bgpp2rcd13ifvqc3g","pricing_plan_id":"cebpf4jnsgd1na2vs0mg"},{"bike_id":"7f17b740-f556-4a59-8544-bf7fe77a2064","system_id":"levelo_inurba_marseille","lat":43.257263,"lon":5.411112,"is_reserved":false,"is_disabled":false,"rental_uris":{"android":"levelo://app?vid=7f17b740-f556-4a59-8544-bf7fe77a2064","ios":"levelo://app?vid=7f17b740-f556-4a59-8544-bf7fe77a2064"},"vehicle_type_id":"4","last_reported":1740751758,"current_range_meters":10800,"station_id":"cjm6bp8fraef2m0cb0m0","pricing_plan_id":"cebpf4jnsgd1na2vs0mg"},{"bike_id":"e88c391f-b639-4541-bd7a-102c68c520a4","system_id":"levelo_inurba_marseille","lat":43.24386,"lon":5.37066,"is_reserved":false,"is_disabled":false,"rental_uris":{"android":"levelo://app?vid=e88c391f-b639-4541-bd7a-102c68c520a4","ios":"levelo://app?vid=e88c391f-b639-4541-bd7a-102c68c520a4"},"vehicle_type_id":"4","last_reported":1740751758,"current_range_meters":10800,"station_id":"ce4bhhh2rcd13ifvqfk0","pricing_plan_id":"cebpf4jnsgd1na2vs0mg"},{"bike_id":"5b28cd77-a409-482f-8702-f764eef9151e","system_id":"levelo_inurba_marseille","lat":43.2592,"lon":5.40884,"is_reserved":false,"is_disabled":false,"rental_uris":{"android":"levelo://app?vid=5b28cd77-a409-482f-8702-f764eef9151e","ios":"levelo://app?vid=5b28cd77-a409-482f-8702-f764eef9151e"},"vehicle_type_id":"4","last_reported":1740751758,"current_range_meters":10800,"station_id":"ce4bhm92rcd13ifvqglg","pricing_plan_id":"cebpf4jnsgd1na2vs0mg"},{"bike_id":"9fe1686b-87f4-4090-857d-b2cad3d05448","system_id":"levelo_inurba_marseille","lat":43.25916,"lon":5.40887,"is_reserved":false,"is_disabled":false,"rental_uris":{"android":"levelo://app?vid=9fe1686b-87f4-4090-857d-b2cad3d05448","ios":"levelo://app?vid=9fe1686b-87f4-4090-857d-b2cad3d05448"},"vehicle_type_id":"4","last_reported":1740751758,"current_range_meters":10800,"station_id":"ce4bhm92rcd13ifvqglg","pricing_plan_id":"cebpf4jnsgd1na2vs0mg"},{"bike_id":"5991433b-c630-4948-ac7d-124f861f9539","system_id":"levelo_inurba_marseille","lat":43.27609,"lon":5.39667,"is_reserved":false,"is_disabled":false,"rental_uris":{"android":"levelo://app?vid=5991433b-c630-4948-ac7d-124f861f9539","ios":"levelo://app?vid=5991433b-c630-4948-ac7d-124f861f9539"},"vehicle_type_id":"4","last_reported":1740751758,"current_range_meters":11200,"station_id":"ce4bhhp2rcd13ifvqfm0","pricing_plan_id":"cebpf4jnsgd1na2vs0mg"},{"bike_id":"b2e3b789-c312-4c83-9c74-05547d51ea2d","system_id":"levelo_inurba_marseille","lat":43.3095,"lon":5.39036,"is_reserved":false,"is_disabled":false,"rental_uris":{"android":"levelo://app?vid=b2e3b789-c312-4c83-9c74-05547d51ea2d","ios":"levelo://app?vid=b2e3b789-c312-4c83-9c74-05547d51ea2d"},"vehicle_type_id":"4","last_reported":1740751758,"current_range_meters":11200,"station_id":"ce4bgup2rcd13ifvqco0","pricing_plan_id":"cebpf4jnsgd1na2vs0mg"},{"bike_id":"9bf3b457-fd6c-4041-8202-af660c2419be","system_id":"levelo_inurba_marseille","lat":43.25577,"lon":5.38221,"is_reserved":false,"is_disabled":false,"rental_uris":{"android":"levelo://app?vid=9bf3b457-fd6c-4041-8202-af660c2419be","ios":"levelo://app?vid=9bf3b457-fd6c-4041-8202-af660c2419be"},"vehicle_type_id":"4","last_reported":1740751758,"current_range_meters":11200,"station_id":"ce4bhih2rcd13ifvqfs0","pricing_plan_id":"cebpf4jnsgd1na2vs0mg"},{"bike_id":"0d2214fb-bda6-43d2-b09e-96a098d563c4","system_id":"levelo_inurba_marseille","lat":43.28444,"lon":5.39203,"is_reserved":false,"is_disabled":false,"rental_uris":{"android":"levelo://app?vid=0d2214fb-bda6-43d2-b09e-96a098d563c4","ios":"levelo://app?vid=0d2214fb-bda6-43d2-b09e-96a098d563c4"},"vehicle_type_id":"4","last_reported":1740751758,"current_range_meters":11200,"station_id":"ce4bhoh2rcd13ifvqh5g","pricing_plan_id":"cebpf4jnsgd1na2vs0mg"},{"bike_id":"1010e876-dfaa-4646-ad8a-ad80d54f844d","system_id":"levelo_inurba_marseille","lat":43.2315,"lon":5.43715,"is_reserved":false,"is_disabled":false,"rental_uris":{"android":"levelo://app?vid=1010e876-dfaa-4646-ad8a-ad80d54f844d","ios":"levelo://app?vid=1010e876-dfaa-4646-ad8a-ad80d54f844d"},"vehicle_type_id":"4","last_reported":1740751758,"current_range_meters":11200,"station_id":"ce4bhmp2rcd13ifvqgog","pricing_plan_id":"cebpf4jnsgd1na2vs0mg"},{"bike_id":"e40525b0-9cf9-4ee7-b22a-422716978078","system_id":"levelo_inurba_marseille","lat":43.275696,"lon":5.384224,"is_reserved":false,"is_disabled":false,"rental_uris":{"android":"levelo://app?vid=e40525b0-9cf9-4ee7-b22a-422716978078","ios":"levelo://app?vid=e40525b0-9cf9-4ee7-b22a-422716978078"},"vehicle_type_id":"4","last_reported":1740751758,"current_range_meters":11200,"station_id":"ce4bhhh2rcd13ifvqfl0","pricing_plan_id":"cebpf4jnsgd1na2vs0mg"},{"bike_id":"ae69beb0-57bc-4a3e-af45-ef8780aa1720","system_id":"levelo_inurba_marseille","lat":43.31181,"lon":5.38723,"is_reserved":false,"is_disabled":false,"rental_uris":{"android":"levelo://app?vid=ae69beb0-57bc-4a3e-af45-ef8780aa1720","ios":"levelo://app?vid=ae69beb0-57bc-4a3e-af45-ef8780aa1720"},"vehicle_type_id":"4","last_reported":1740751758,"current_range_meters":11200,"station_id":"ce4bgv12rcd13ifvqcp0","pricing_plan_id":"cebpf4jnsgd1na2vs0mg"},{"bike_id":"54c4ecf0-8750-416c-be34-eab664ed1ede","system_id":"levelo_inurba_marseille","lat":43.23956,"lon":5.36638,"is_reserved":false,"is_disabled":false,"rental_uris":{"android":"levelo://app?vid=54c4ecf0-8750-416c-be34-eab664ed1ede","ios":"levelo://app?vid=54c4ecf0-8750-416c-be34-eab664ed1ede"},"vehicle_type_id":"4","last_reported":1740751758,"current_range_meters":12400,"station_id":"ce4bhi12rcd13ifvqfp0","pricing_plan_id":"cebpf4jnsgd1na2vs0mg"},{"bike_id":"d8b06deb-b715-42b1-a12f-fd2d93946df1","system_id":"levelo_inurba_marseille","lat":43.28276,"lon":5.35072,"is_reserved":false,"is_disabled":false,"rental_uris":{"android":"levelo://app?vid=d8b06deb-b715-42b1-a12f-fd2d93946df1","ios":"levelo://app?vid=d8b06deb-b715-42b1-a12f-fd2d93946df1"},"vehicle_type_id":"4","last_reported":1740751758,"current_range_meters":11200,"station_id":"ce4bhbp2rcd13ifvqerg","pricing_plan_id":"cebpf4jnsgd1na2vs0mg"},{"bike_id":"b12302b4-d886-400e-aec8-597abc147b0b","system_id":"levelo_inurba_marseille","lat":43.3137,"lon":5.36757,"is_reserved":false,"is_disabled":false,"rental_uris":{"android":"levelo://app?vid=b12302b4-d886-400e-aec8-597abc147b0b","ios":"levelo://app?vid=b12302b4-d886-400e-aec8-597abc147b0b"},"vehicle_type_id":"4","last_reported":1740751758,"current_range_meters":11600,"station_id":"ce4bgr92rcd13ifvqc6g","pricing_plan_id":"cebpf4jnsgd1na2vs0mg"},{"bike_id":"1373b6cc-15ff-473a-8da5-713c8ea0e033","system_id":"levelo_inurba_marseille","lat":43.296,"lon":5.38087,"is_reserved":false,"is_disabled":false,"rental_uris":{"android":"levelo://app?vid=1373b6cc-15ff-473a-8da5-713c8ea0e033","ios":"levelo://app?vid=1373b6cc-15ff-473a-8da5-713c8ea0e033"},"vehicle_type_id":"4","last_reported":1740751758,"current_range_meters":11600,"station_id":"ce4bgl12rcd13ifvqbo0","pricing_plan_id":"cebpf4jnsgd1na2vs0mg"},{"bike_id":"43d6aa6f-20c7-4a1b-bcb8-31b660876567","system_id":"levelo_inurba_marseille","lat":43.265584,"lon":5.372967,"is_reserved":false,"is_disabled":false,"rental_uris":{"android":"levelo://app?vid=43d6aa6f-20c7-4a1b-bcb8-31b660876567","ios":"levelo://app?vid=43d6aa6f-20c7-4a1b-bcb8-31b660876567"},"vehicle_type_id":"4","last_reported":1740751758,"current_range_meters":12000,"station_id":"ce4bhg12rcd13ifvqf70","pricing_plan_id":"cebpf4jnsgd1na2vs0mg"},{"bike_id":"3f5e4c77-943b-4a46-b257-614bf13afec4","system_id":"levelo_inurba_marseille","lat":43.24173,"lon":5.364,"is_reserved":false,"is_disabled":false,"rental_uris":{"android":"levelo://app?vid=3f5e4c77-943b-4a46-b257-614bf13afec4","ios":"levelo://app?vid=3f5e4c77-943b-4a46-b257-614bf13afec4"},"vehicle_type_id":"4","last_reported":1740751758,"current_range_meters":11600,"station_id":"cpo36qri1sfpv3e86is0","pricing_plan_id":"cebpf4jnsgd1na2vs0mg"},{"bike_id":"07c95ed8-ef75-441b-82b8-4bc0502030ca","system_id":"levelo_inurba_marseille","lat":43.23202,"lon":5.35552,"is_reserved":false,"is_disabled":false,"rental_uris":{"android":"levelo://app?vid=07c95ed8-ef75-441b-82b8-4bc0502030ca","ios":"levelo://app?vid=07c95ed8-ef75-441b-82b8-4bc0502030ca"},"vehicle_type_id":"4","last_reported":1740751758,"current_range_meters":11600,"station_id":"ce4bhu92rcd13ifvqi70","pricing_plan_id":"cebpf4jnsgd1na2vs0mg"},{"bike_id":"f4b4f460-644c-4058-b990-eacb5419b4eb","system_id":"levelo_inurba_marseille","lat":43.27211,"lon":5.39173,"is_reserved":false,"is_disabled":false,"rental_uris":{"android":"levelo://app?vid=f4b4f460-644c-4058-b990-eacb5419b4eb","ios":"levelo://app?vid=f4b4f460-644c-4058-b990-eacb5419b4eb"},"vehicle_type_id":"4","last_reported":1740751758,"current_range_meters":11600,"station_id":"ce4bhhp2rcd13ifvqfm0","pricing_plan_id":"cebpf4jnsgd1na2vs0mg"},{"bike_id":"fbb578c6-bc58-4f39-a675-f75212c7ad17","system_id":"levelo_inurba_marseille","lat":43.25566,"lon":5.38246,"is_reserved":false,"is_disabled":false,"rental_uris":{"android":"levelo://app?vid=fbb578c6-bc58-4f39-a675-f75212c7ad17","ios":"levelo://app?vid=fbb578c6-bc58-4f39-a675-f75212c7ad17"},"vehicle_type_id":"4","last_reported":1740751758,"current_range_meters":11600,"station_id":"ce4bhih2rcd13ifvqfs0","pricing_plan_id":"cebpf4jnsgd1na2vs0mg"},{"bike_id":"1291ca44-3760-44bb-83ca-5445461812cb","system_id":"levelo_inurba_marseille","lat":43.3121,"lon":5.36844,"is_reserved":false,"is_disabled":false,"rental_uris":{"android":"levelo://app?vid=1291ca44-3760-44bb-83ca-5445461812cb","ios":"levelo://app?vid=1291ca44-3760-44bb-83ca-5445461812cb"},"vehicle_type_id":"4","last_reported":1740751758,"current_range_meters":12000,"station_id":"ce4bgl92rcd13ifvqbq0","pricing_plan_id":"cebpf4jnsgd1na2vs0mg"},{"bike_id":"7053ed04-89cd-47b3-b66e-d28617ca8d79","system_id":"levelo_inurba_marseille","lat":43.31064,"lon":5.38378,"is_reserved":false,"is_disabled":false,"rental_uris":{"android":"levelo://app?vid=7053ed04-89cd-47b3-b66e-d28617ca8d79","ios":"levelo://app?vid=7053ed04-89cd-47b3-b66e-d28617ca8d79"},"vehicle_type_id":"4","last_reported":1740751758,"current_range_meters":12800,"station_id":"ce4bgv92rcd13ifvqcr0","pricing_plan_id":"cebpf4jnsgd1na2vs0mg"},{"bike_id":"7923e11c-6aa0-455c-b291-531713d27c89","system_id":"levelo_inurba_marseille","lat":43.26589,"lon":5.39058,"is_reserved":false,"is_disabled":false,"rental_uris":{"android":"levelo://app?vid=7923e11c-6aa0-455c-b291-531713d27c89","ios":"levelo://app?vid=7923e11c-6aa0-455c-b291-531713d27c89"},"vehicle_type_id":"4","last_reported":1740751758,"current_range_meters":12400,"station_id":"ce4bhe12rcd13ifvqf30","pricing_plan_id":"cebpf4jnsgd1na2vs0mg"},{"bike_id":"7f900a02-a150-4672-8105-0ef978b4bbb3","system_id":"levelo_inurba_marseille","lat":43.26065,"lon":5.39398,"is_reserved":false,"is_disabled":false,"rental_uris":{"android":"levelo://app?vid=7f900a02-a150-4672-8105-0ef978b4bbb3","ios":"levelo://app?vid=7f900a02-a150-4672-8105-0ef978b4bbb3"},"vehicle_type_id":"4","last_reported":1740751758,"current_range_meters":12400,"station_id":"ce4bhh92rcd13ifvqfj0","pricing_plan_id":"cebpf4jnsgd1na2vs0mg"},{"bike_id":"25ce1959-4b44-4725-b909-cd4426628b37","system_id":"levelo_inurba_marseille","lat":43.298002,"lon":5.380898,"is_reserved":false,"is_disabled":false,"rental_uris":{"android":"levelo://app?vid=25ce1959-4b44-4725-b909-cd4426628b37","ios":"levelo://app?vid=25ce1959-4b44-4725-b909-cd4426628b37"},"vehicle_type_id":"4","last_reported":1740751758,"current_range_meters":12800,"station_id":"ce4bgip2rcd13ifvqbb0","pricing_plan_id":"cebpf4jnsgd1na2vs0mg"},{"bike_id":"92151e43-236e-4006-978e-1626eb4f41f0","system_id":"levelo_inurba_marseille","lat":43.25578,"lon":5.38251,"is_reserved":false,"is_disabled":false,"rental_uris":{"android":"levelo://app?vid=92151e43-236e-4006-978e-1626eb4f41f0","ios":"levelo://app?vid=92151e43-236e-4006-978e-1626eb4f41f0"},"vehicle_type_id":"4","last_reported":1740751758,"current_range_meters":12400,"station_id":"ce4bhih2rcd13ifvqfs0","pricing_plan_id":"cebpf4jnsgd1na2vs0mg"},{"bike_id":"98fb097c-4653-48ac-bc97-01aec87d810f","system_id":"levelo_inurba_marseille","lat":43.28983,"lon":5.35636,"is_reserved":false,"is_disabled":false,"rental_uris":{"android":"levelo://app?vid=98fb097c-4653-48ac-bc97-01aec87d810f","ios":"levelo://app?vid=98fb097c-4653-48ac-bc97-01aec87d810f"},"vehicle_type_id":"4","last_reported":1740751758,"current_range_meters":12400,"station_id":"ce4bhb92rcd13ifvqen0","pricing_plan_id":"cebpf4jnsgd1na2vs0mg"},{"bike_id":"511934ef-c328-4333-ae4b-ec2fe93665ed","system_id":"levelo_inurba_marseille","lat":43.298,"lon":5.38082,"is_reserved":false,"is_disabled":false,"rental_uris":{"android":"levelo://app?vid=511934ef-c328-4333-ae4b-ec2fe93665ed","ios":"levelo://app?vid=511934ef-c328-4333-ae4b-ec2fe93665ed"},"vehicle_type_id":"4","last_reported":1740751758,"current_range_meters":12400,"station_id":"ce4bgip2rcd13ifvqbb0","pricing_plan_id":"cebpf4jnsgd1na2vs0mg"},{"bike_id":"b3672aa5-6f36-4322-9f5f-0f785e72ff09","system_id":"levelo_inurba_marseille","lat":43.31274,"lon":5.40167,"is_reserved":false,"is_disabled":false,"rental_uris":{"android":"levelo://app?vid=b3672aa5-6f36-4322-9f5f-0f785e72ff09","ios":"levelo://app?vid=b3672aa5-6f36-4322-9f5f-0f785e72ff09"},"vehicle_type_id":"4","last_reported":1740751758,"current_range_meters":12000,"station_id":"ce4bh092rcd13ifvqd30","pricing_plan_id":"cebpf4jnsgd1na2vs0mg"},{"bike_id":"19484cde-547c-4c76-92aa-f362a36b4444","system_id":"levelo_inurba_marseille","lat":43.28271,"lon":5.35069,"is_reserved":false,"is_disabled":false,"rental_uris":{"android":"levelo://app?vid=19484cde-547c-4c76-92aa-f362a36b4444","ios":"levelo://app?vid=19484cde-547c-4c76-92aa-f362a36b4444"},"vehicle_type_id":"4","last_reported":1740751758,"current_range_meters":15200,"station_id":"ce4bhbp2rcd13ifvqerg","pricing_plan_id":"cebpf4jnsgd1na2vs0mg"},{"bike_id":"26ea3936-ca1a-4833-89ff-6ab4e1a1c8e3","system_id":"levelo_inurba_marseille","lat":43.2396,"lon":5.3664,"is_reserved":false,"is_disabled":false,"rental_uris":{"android":"levelo://app?vid=26ea3936-ca1a-4833-89ff-6ab4e1a1c8e3","ios":"levelo://app?vid=26ea3936-ca1a-4833-89ff-6ab4e1a1c8e3"},"vehicle_type_id":"4","last_reported":1740751758,"current_range_meters":12400,"station_id":"ce4bhi12rcd13ifvqfp0","pricing_plan_id":"cebpf4jnsgd1na2vs0mg"},{"bike_id":"689338e6-848b-49e1-92fe-f5f7117dedbb","system_id":"levelo_inurba_marseille","lat":43.29034,"lon":5.38652,"is_reserved":false,"is_disabled":false,"rental_uris":{"android":"levelo://app?vid=689338e6-848b-49e1-92fe-f5f7117dedbb","ios":"levelo://app?vid=689338e6-848b-49e1-92fe-f5f7117dedbb"},"vehicle_type_id":"4","last_reported":1740751758,"current_range_meters":9600,"station_id":"ce4bh4p2rcd13ifvqe0g","pricing_plan_id":"cebpf4jnsgd1na2vs0mg"},{"bike_id":"a5b71eda-2929-4b9b-b830-5bad5f94bc76","system_id":"levelo_inurba_marseille","lat":43.27202,"lon":5.39186,"is_reserved":false,"is_disabled":false,"rental_uris":{"android":"levelo://app?vid=a5b71eda-2929-4b9b-b830-5bad5f94bc76","ios":"levelo://app?vid=a5b71eda-2929-4b9b-b830-5bad5f94bc76"},"vehicle_type_id":"4","last_reported":1740751758,"current_range_meters":12400,"station_id":"ce4bhhp2rcd13ifvqfm0","pricing_plan_id":"cebpf4jnsgd1na2vs0mg"},{"bike_id":"9c3c211e-e325-4dd4-bc83-cca0ba26e936","system_id":"levelo_inurba_marseille","lat":43.32051,"lon":5.41578,"is_reserved":false,"is_disabled":false,"rental_uris":{"android":"levelo://app?vid=9c3c211e-e325-4dd4-bc83-cca0ba26e936","ios":"levelo://app?vid=9c3c211e-e325-4dd4-bc83-cca0ba26e936"},"vehicle_type_id":"4","last_reported":1740751758,"current_range_meters":12000,"station_id":"ce4bhq92rcd13ifvqhkg","pricing_plan_id":"cebpf4jnsgd1na2vs0mg"},{"bike_id":"dfc7d439-d001-4f7d-b155-790f1b3dc735","system_id":"levelo_inurba_marseille","lat":43.28996,"lon":5.35648,"is_reserved":false,"is_disabled":false,"rental_uris":{"android":"levelo://app?vid=dfc7d439-d001-4f7d-b155-790f1b3dc735","ios":"levelo://app?vid=dfc7d439-d001-4f7d-b155-790f1b3dc735"},"vehicle_type_id":"4","last_reported":1740751758,"current_range_meters":12800,"station_id":"ce4bhb92rcd13ifvqen0","pricing_plan_id":"cebpf4jnsgd1na2vs0mg"},{"bike_id":"51cd2925-39a1-4fe2-aed1-330cf10221be","system_id":"levelo_inurba_marseille","lat":43.26552,"lon":5.37291,"is_reserved":false,"is_disabled":false,"rental_uris":{"android":"levelo://app?vid=51cd2925-39a1-4fe2-aed1-330cf10221be","ios":"levelo://app?vid=51cd2925-39a1-4fe2-aed1-330cf10221be"},"vehicle_type_id":"4","last_reported":1740751758,"current_range_meters":13600,"station_id":"ce4bhg12rcd13ifvqf70","pricing_plan_id":"cebpf4jnsgd1na2vs0mg"},{"bike_id":"f80ab5bc-1c8d-436e-8fed-add05e02cdc3","system_id":"levelo_inurba_marseille","lat":43.27997,"lon":5.41661,"is_reserved":false,"is_disabled":false,"rental_uris":{"android":"levelo://app?vid=f80ab5bc-1c8d-436e-8fed-add05e02cdc3","ios":"levelo://app?vid=f80ab5bc-1c8d-436e-8fed-add05e02cdc3"},"vehicle_type_id":"4","last_reported":1740751758,"current_range_meters":13600,"station_id":"ce4bho12rcd13ifvqh1g","pricing_plan_id":"cebpf4jnsgd1na2vs0mg"},{"bike_id":"dfd040e3-2a1f-4880-997d-77d67a15a769","system_id":"levelo_inurba_marseille","lat":43.298,"lon":5.38085,"is_reserved":false,"is_disabled":false,"rental_uris":{"android":"levelo://app?vid=dfd040e3-2a1f-4880-997d-77d67a15a769","ios":"levelo://app?vid=dfd040e3-2a1f-4880-997d-77d67a15a769"},"vehicle_type_id":"4","last_reported":1740751758,"current_range_meters":13600,"station_id":"ce4bgip2rcd13ifvqbb0","pricing_plan_id":"cebpf4jnsgd1na2vs0mg"},{"bike_id":"f5fe4361-1d3d-4314-a7e8-95ca49fcf6f9","system_id":"levelo_inurba_marseille","lat":43.32222,"lon":5.38794,"is_reserved":false,"is_disabled":false,"rental_uris":{"android":"levelo://app?vid=f5fe4361-1d3d-4314-a7e8-95ca49fcf6f9","ios":"levelo://app?vid=f5fe4361-1d3d-4314-a7e8-95ca49fcf6f9"},"vehicle_type_id":"4","last_reported":1740751758,"current_range_meters":13600,"station_id":"","pricing_plan_id":"cebpf4jnsgd1na2vs0mg"},{"bike_id":"296fed84-561f-4c5b-8e4b-23175a408b8d","system_id":"levelo_inurba_marseille","lat":43.33725,"lon":5.39193,"is_reserved":false,"is_disabled":false,"rental_uris":{"android":"levelo://app?vid=296fed84-561f-4c5b-8e4b-23175a408b8d","ios":"levelo://app?vid=296fed84-561f-4c5b-8e4b-23175a408b8d"},"vehicle_type_id":"4","last_reported":1740751758,"current_range_meters":13600,"station_id":"ce4bhr92rcd13ifvqhsg","pricing_plan_id":"cebpf4jnsgd1na2vs0mg"},{"bike_id":"593edb3c-7add-4a3d-9dbe-95cef549de0d","system_id":"levelo_inurba_marseille","lat":43.23075,"lon":5.35484,"is_reserved":false,"is_disabled":false,"rental_uris":{"android":"levelo://app?vid=593edb3c-7add-4a3d-9dbe-95cef549de0d","ios":"levelo://app?vid=593edb3c-7add-4a3d-9dbe-95cef549de0d"},"vehicle_type_id":"4","last_reported":1740751758,"current_range_meters":13600,"station_id":"cpo3342slgdg3j2ifvpg","pricing_plan_id":"cebpf4jnsgd1na2vs0mg"},{"bike_id":"48117f54-556b-407e-8e6d-86f346883d6c","system_id":"levelo_inurba_marseille","lat":43.27913,"lon":5.39578,"is_reserved":false,"is_disabled":false,"rental_uris":{"android":"levelo://app?vid=48117f54-556b-407e-8e6d-86f346883d6c","ios":"levelo://app?vid=48117f54-556b-407e-8e6d-86f346883d6c"},"vehicle_type_id":"4","last_reported":1740751758,"current_range_meters":14000,"station_id":"ce4bhf92rcd13ifvqf40","pricing_plan_id":"cebpf4jnsgd1na2vs0mg"},{"bike_id":"592e903d-2c10-4b7b-a4a2-d5e0ee49fb07","system_id":"levelo_inurba_marseille","lat":43.29623,"lon":5.37717,"is_reserved":false,"is_disabled":false,"rental_uris":{"android":"levelo://app?vid=592e903d-2c10-4b7b-a4a2-d5e0ee49fb07","ios":"levelo://app?vid=592e903d-2c10-4b7b-a4a2-d5e0ee49fb07"},"vehicle_type_id":"4","last_reported":1740751758,"current_range_meters":14000,"station_id":"ce4bgi92rcd13ifvqb90","pricing_plan_id":"cebpf4jnsgd1na2vs0mg"},{"bike_id":"52af985b-0be7-4cce-a149-20cfb1168009","system_id":"levelo_inurba_marseille","lat":43.27992,"lon":5.41658,"is_reserved":false,"is_disabled":false,"rental_uris":{"android":"levelo://app?vid=52af985b-0be7-4cce-a149-20cfb1168009","ios":"levelo://app?vid=52af985b-0be7-4cce-a149-20cfb1168009"},"vehicle_type_id":"4","last_reported":1740751758,"current_range_meters":13600,"station_id":"ce4bho12rcd13ifvqh1g","pricing_plan_id":"cebpf4jnsgd1na2vs0mg"},{"bike_id":"99e0c407-0186-4be4-b964-6b90140a57f2","system_id":"levelo_inurba_marseille","lat":43.30541,"lon":5.36704,"is_reserved":false,"is_disabled":false,"rental_uris":{"android":"levelo://app?vid=99e0c407-0186-4be4-b964-6b90140a57f2","ios":"levelo://app?vid=99e0c407-0186-4be4-b964-6b90140a57f2"},"vehicle_type_id":"4","last_reported":1740751758,"current_range_meters":13600,"station_id":"ce4bgrp2rcd13ifvqc9g","pricing_plan_id":"cebpf4jnsgd1na2vs0mg"},{"bike_id":"2db20f8c-06ae-4726-a183-3d8a61458b8d","system_id":"levelo_inurba_marseille","lat":43.2904,"lon":5.37567,"is_reserved":false,"is_disabled":false,"rental_uris":{"android":"levelo://app?vid=2db20f8c-06ae-4726-a183-3d8a61458b8d","ios":"levelo://app?vid=2db20f8c-06ae-4726-a183-3d8a61458b8d"},"vehicle_type_id":"4","last_reported":1740751758,"current_range_meters":14000,"station_id":"ce4bh692rcd13ifvqe90","pricing_plan_id":"cebpf4jnsgd1na2vs0mg"},{"bike_id":"b6704ff6-de6a-4339-85c4-43ba7f5da833","system_id":"levelo_inurba_marseille","lat":43.29007,"lon":5.3561,"is_reserved":false,"is_disabled":false,"rental_uris":{"android":"levelo://app?vid=b6704ff6-de6a-4339-85c4-43ba7f5da833","ios":"levelo://app?vid=b6704ff6-de6a-4339-85c4-43ba7f5da833"},"vehicle_type_id":"4","last_reported":1740751758,"current_range_meters":14400,"station_id":"ce4bhb92rcd13ifvqen0","pricing_plan_id":"cebpf4jnsgd1na2vs0mg"},{"bike_id":"b469f0a8-f034-4050-b268-ea56888700ea","system_id":"levelo_inurba_marseille","lat":43.2987,"lon":5.397523,"is_reserved":false,"is_disabled":false,"rental_uris":{"android":"levelo://app?vid=b469f0a8-f034-4050-b268-ea56888700ea","ios":"levelo://app?vid=b469f0a8-f034-4050-b268-ea56888700ea"},"vehicle_type_id":"4","last_reported":1740751758,"current_range_meters":14400,"station_id":"ce4bh0h2rcd13ifvqd50","pricing_plan_id":"cebpf4jnsgd1na2vs0mg"},{"bike_id":"c3879c4a-1f8e-4ca7-8a3b-195d6726be8b","system_id":"levelo_inurba_marseille","lat":43.30152,"lon":5.38091,"is_reserved":false,"is_disabled":false,"rental_uris":{"android":"levelo://app?vid=c3879c4a-1f8e-4ca7-8a3b-195d6726be8b","ios":"levelo://app?vid=c3879c4a-1f8e-4ca7-8a3b-195d6726be8b"},"vehicle_type_id":"4","last_reported":1740751758,"current_range_meters":14800,"station_id":"ce4bgjp2rcd13ifvqbh0","pricing_plan_id":"cebpf4jnsgd1na2vs0mg"},{"bike_id":"f7a20cba-2399-49fd-8468-072e901dffab","system_id":"levelo_inurba_marseille","lat":43.28989,"lon":5.37209,"is_reserved":false,"is_disabled":false,"rental_uris":{"android":"levelo://app?vid=f7a20cba-2399-49fd-8468-072e901dffab","ios":"levelo://app?vid=f7a20cba-2399-49fd-8468-072e901dffab"},"vehicle_type_id":"4","last_reported":1740751758,"current_range_meters":14400,"station_id":"","pricing_plan_id":"cebpf4jnsgd1na2vs0mg"},{"bike_id":"a2d1254e-7615-4685-9808-11fb1391d415","system_id":"levelo_inurba_marseille","lat":43.27565,"lon":5.3842,"is_reserved":false,"is_disabled":false,"rental_uris":{"android":"levelo://app?vid=a2d1254e-7615-4685-9808-11fb1391d415","ios":"levelo://app?vid=a2d1254e-7615-4685-9808-11fb1391d415"},"vehicle_type_id":"4","last_reported":1740751758,"current_range_meters":14400,"station_id":"ce4bhh92rcd13ifvqfi0","pricing_plan_id":"cebpf4jnsgd1na2vs0mg"},{"bike_id":"364b209e-752e-45ea-b26c-06b2552c1833","system_id":"levelo_inurba_marseille","lat":43.231909,"lon":5.355545,"is_reserved":false,"is_disabled":false,"rental_uris":{"android":"levelo://app?vid=364b209e-752e-45ea-b26c-06b2552c1833","ios":"levelo://app?vid=364b209e-752e-45ea-b26c-06b2552c1833"},"vehicle_type_id":"4","last_reported":1740751758,"current_range_meters":14400,"station_id":"ce4bhu92rcd13ifvqi70","pricing_plan_id":"cebpf4jnsgd1na2vs0mg"},{"bike_id":"e1bf9372-f789-45fa-b27d-d9b053a1d3ef","system_id":"levelo_inurba_marseille","lat":43.27972,"lon":5.3875,"is_reserved":false,"is_disabled":false,"rental_uris":{"android":"levelo://app?vid=e1bf9372-f789-45fa-b27d-d9b053a1d3ef","ios":"levelo://app?vid=e1bf9372-f789-45fa-b27d-d9b053a1d3ef"},"vehicle_type_id":"4","last_reported":1740751758,"current_range_meters":14400,"station_id":"ce4bhg12rcd13ifvqf80","pricing_plan_id":"cebpf4jnsgd1na2vs0mg"},{"bike_id":"27d54230-b007-40cc-9dfb-2d15cfdfcdca","system_id":"levelo_inurba_marseille","lat":43.29973,"lon":5.37165,"is_reserved":false,"is_disabled":false,"rental_uris":{"android":"levelo://app?vid=27d54230-b007-40cc-9dfb-2d15cfdfcdca","ios":"levelo://app?vid=27d54230-b007-40cc-9dfb-2d15cfdfcdca"},"vehicle_type_id":"4","last_reported":1740751758,"current_range_meters":14400,"station_id":"ce4bgr92rcd13ifvqc7g","pricing_plan_id":"cebpf4jnsgd1na2vs0mg"},{"bike_id":"49e9cdc7-76a5-4b66-ae2d-61c73beb73a8","system_id":"levelo_inurba_marseille","lat":43.24164,"lon":5.36418,"is_reserved":false,"is_disabled":false,"rental_uris":{"android":"levelo://app?vid=49e9cdc7-76a5-4b66-ae2d-61c73beb73a8","ios":"levelo://app?vid=49e9cdc7-76a5-4b66-ae2d-61c73beb73a8"},"vehicle_type_id":"4","last_reported":1740751758,"current_range_meters":14400,"station_id":"cpo36qri1sfpv3e86is0","pricing_plan_id":"cebpf4jnsgd1na2vs0mg"},{"bike_id":"435de083-a59d-4d02-bb25-ac546a68f18f","system_id":"levelo_inurba_marseille","lat":43.23963,"lon":5.36626,"is_reserved":false,"is_disabled":false,"rental_uris":{"android":"levelo://app?vid=435de083-a59d-4d02-bb25-ac546a68f18f","ios":"levelo://app?vid=435de083-a59d-4d02-bb25-ac546a68f18f"},"vehicle_type_id":"4","last_reported":1740751758,"current_range_meters":16000,"station_id":"ce4bhi12rcd13ifvqfp0","pricing_plan_id":"cebpf4jnsgd1na2vs0mg"},{"bike_id":"5030a670-2140-4464-942c-f431c57567a6","system_id":"levelo_inurba_marseille","lat":43.336147,"lon":5.4103,"is_reserved":false,"is_disabled":false,"rental_uris":{"android":"levelo://app?vid=5030a670-2140-4464-942c-f431c57567a6","ios":"levelo://app?vid=5030a670-2140-4464-942c-f431c57567a6"},"vehicle_type_id":"4","last_reported":1740751758,"current_range_meters":15200,"station_id":"ce4bhqh2rcd13ifvqhmg","pricing_plan_id":"cebpf4jnsgd1na2vs0mg"},{"bike_id":"c20512a4-eb8e-45bd-a812-493636a53e25","system_id":"levelo_inurba_marseille","lat":43.29298,"lon":5.37467,"is_reserved":false,"is_disabled":false,"rental_uris":{"android":"levelo://app?vid=c20512a4-eb8e-45bd-a812-493636a53e25","ios":"levelo://app?vid=c20512a4-eb8e-45bd-a812-493636a53e25"},"vehicle_type_id":"4","last_reported":1740751758,"current_range_meters":14800,"station_id":"ce4bgi12rcd13ifvqb70","pricing_plan_id":"cebpf4jnsgd1na2vs0mg"},{"bike_id":"fdede2a3-027e-45d5-b2c7-4ac6c614e60a","system_id":"levelo_inurba_marseille","lat":43.29556,"lon":5.42265,"is_reserved":false,"is_disabled":false,"rental_uris":{"android":"levelo://app?vid=fdede2a3-027e-45d5-b2c7-4ac6c614e60a","ios":"levelo://app?vid=fdede2a3-027e-45d5-b2c7-4ac6c614e60a"},"vehicle_type_id":"4","last_reported":1740751758,"current_range_meters":14800,"station_id":"ce4bhph2rcd13ifvqhdg","pricing_plan_id":"cebpf4jnsgd1na2vs0mg"},{"bike_id":"f105385c-4d5c-4a7d-89de-9c5606cae81d","system_id":"levelo_inurba_marseille","lat":43.23152,"lon":5.43717,"is_reserved":false,"is_disabled":false,"rental_uris":{"android":"levelo://app?vid=f105385c-4d5c-4a7d-89de-9c5606cae81d","ios":"levelo://app?vid=f105385c-4d5c-4a7d-89de-9c5606cae81d"},"vehicle_type_id":"4","last_reported":1740751758,"current_range_meters":15200,"station_id":"ce4bhmp2rcd13ifvqgog","pricing_plan_id":"cebpf4jnsgd1na2vs0mg"},{"bike_id":"33b2b3da-1ba3-4ec8-bf36-4d542c365e95","system_id":"levelo_inurba_marseille","lat":43.2417,"lon":5.39733,"is_reserved":false,"is_disabled":false,"rental_uris":{"android":"levelo://app?vid=33b2b3da-1ba3-4ec8-bf36-4d542c365e95","ios":"levelo://app?vid=33b2b3da-1ba3-4ec8-bf36-4d542c365e95"},"vehicle_type_id":"4","last_reported":1740751758,"current_range_meters":15200,"station_id":"ce4bhn12rcd13ifvqgpg","pricing_plan_id":"cebpf4jnsgd1na2vs0mg"},{"bike_id":"9d0546b9-abb6-4ae3-9ed7-8d418444c7ba","system_id":"levelo_inurba_marseille","lat":43.23197,"lon":5.35549,"is_reserved":false,"is_disabled":false,"rental_uris":{"android":"levelo://app?vid=9d0546b9-abb6-4ae3-9ed7-8d418444c7ba","ios":"levelo://app?vid=9d0546b9-abb6-4ae3-9ed7-8d418444c7ba"},"vehicle_type_id":"4","last_reported":1740751758,"current_range_meters":16000,"station_id":"ce4bhu92rcd13ifvqi70","pricing_plan_id":"cebpf4jnsgd1na2vs0mg"},{"bike_id":"8c6408a4-5842-402c-a16b-04f226705892","system_id":"levelo_inurba_marseille","lat":43.28,"lon":5.40008,"is_reserved":false,"is_disabled":false,"rental_uris":{"android":"levelo://app?vid=8c6408a4-5842-402c-a16b-04f226705892","ios":"levelo://app?vid=8c6408a4-5842-402c-a16b-04f226705892"},"vehicle_type_id":"4","last_reported":1740751758,"current_range_meters":15200,"station_id":"ce4bho92rcd13ifvqh4g","pricing_plan_id":"cebpf4jnsgd1na2vs0mg"},{"bike_id":"09a79771-6bb3-4ab6-af0e-0a7eecfdfbca","system_id":"levelo_inurba_marseille","lat":43.28267,"lon":5.35074,"is_reserved":false,"is_disabled":false,"rental_uris":{"android":"levelo://app?vid=09a79771-6bb3-4ab6-af0e-0a7eecfdfbca","ios":"levelo://app?vid=09a79771-6bb3-4ab6-af0e-0a7eecfdfbca"},"vehicle_type_id":"4","last_reported":1740751758,"current_range_meters":14400,"station_id":"ce4bhbp2rcd13ifvqerg","pricing_plan_id":"cebpf4jnsgd1na2vs0mg"},{"bike_id":"8b383fad-f10f-4d6c-aa72-edd1d8053e2b","system_id":"levelo_inurba_marseille","lat":43.29986,"lon":5.37383,"is_reserved":false,"is_disabled":false,"rental_uris":{"android":"levelo://app?vid=8b383fad-f10f-4d6c-aa72-edd1d8053e2b","ios":"levelo://app?vid=8b383fad-f10f-4d6c-aa72-edd1d8053e2b"},"vehicle_type_id":"4","last_reported":1740751758,"current_range_meters":16000,"station_id":"","pricing_plan_id":"cebpf4jnsgd1na2vs0mg"},{"bike_id":"df5e2f43-22c4-456f-9bb7-ad548083c724","system_id":"levelo_inurba_marseille","lat":43.28742,"lon":5.36083,"is_reserved":false,"is_disabled":false,"rental_uris":{"android":"levelo://app?vid=df5e2f43-22c4-456f-9bb7-ad548083c724","ios":"levelo://app?vid=df5e2f43-22c4-456f-9bb7-ad548083c724"},"vehicle_type_id":"4","last_reported":1740751758,"current_range_meters":16000,"station_id":"cki0cbj6b192h4jlfktg","pricing_plan_id":"cebpf4jnsgd1na2vs0mg"},{"bike_id":"c84f47e5-27b1-47a9-a2d2-ba104cc1f39a","system_id":"levelo_inurba_marseille","lat":43.32345,"lon":5.36733,"is_reserved":false,"is_disabled":false,"rental_uris":{"android":"levelo://app?vid=c84f47e5-27b1-47a9-a2d2-ba104cc1f39a","ios":"levelo://app?vid=c84f47e5-27b1-47a9-a2d2-ba104cc1f39a"},"vehicle_type_id":"4","last_reported":1740751758,"current_range_meters":16000,"station_id":"ce4bhsh2rcd13ifvqi2g","pricing_plan_id":"cebpf4jnsgd1na2vs0mg"},{"bike_id":"f9f6bb57-d9a4-471d-95a7-50892c4dbabd","system_id":"levelo_inurba_marseille","lat":43.2986,"lon":5.36274,"is_reserved":false,"is_disabled":false,"rental_uris":{"android":"levelo://app?vid=f9f6bb57-d9a4-471d-95a7-50892c4dbabd","ios":"levelo://app?vid=f9f6bb57-d9a4-471d-95a7-50892c4dbabd"},"vehicle_type_id":"4","last_reported":1740751758,"current_range_meters":16400,"station_id":"ce4bgpp2rcd13ifvqc3g","pricing_plan_id":"cebpf4jnsgd1na2vs0mg"},{"bike_id":"bd7ec62f-0dc9-4405-b781-e2e9798963d2","system_id":"levelo_inurba_marseille","lat":43.23186,"lon":5.39989,"is_reserved":false,"is_disabled":false,"rental_uris":{"android":"levelo://app?vid=bd7ec62f-0dc9-4405-b781-e2e9798963d2","ios":"levelo://app?vid=bd7ec62f-0dc9-4405-b781-e2e9798963d2"},"vehicle_type_id":"4","last_reported":1740751758,"current_range_meters":16000,"station_id":"ce4bhn12rcd13ifvqgqg","pricing_plan_id":"cebpf4jnsgd1na2vs0mg"},{"bike_id":"3259a43c-eff5-4802-b12d-33f728a30b21","system_id":"levelo_inurba_marseille","lat":43.29263,"lon":5.40903,"is_reserved":false,"is_disabled":false,"rental_uris":{"android":"levelo://app?vid=3259a43c-eff5-4802-b12d-33f728a30b21","ios":"levelo://app?vid=3259a43c-eff5-4802-b12d-33f728a30b21"},"vehicle_type_id":"4","last_reported":1740751758,"current_range_meters":16000,"station_id":"ce4bh192rcd13ifvqdc0","pricing_plan_id":"cebpf4jnsgd1na2vs0mg"},{"bike_id":"597c78d8-1097-48db-b3be-fafc8754eab9","system_id":"levelo_inurba_marseille","lat":43.2417,"lon":5.36396,"is_reserved":false,"is_disabled":false,"rental_uris":{"android":"levelo://app?vid=597c78d8-1097-48db-b3be-fafc8754eab9","ios":"levelo://app?vid=597c78d8-1097-48db-b3be-fafc8754eab9"},"vehicle_type_id":"4","last_reported":1740751758,"current_range_meters":16000,"station_id":"cpo36qri1sfpv3e86is0","pricing_plan_id":"cebpf4jnsgd1na2vs0mg"},{"bike_id":"9d10d9fa-01d1-4f34-9fd2-6276042dffed","system_id":"levelo_inurba_marseille","lat":43.30536,"lon":5.36686,"is_reserved":false,"is_disabled":false,"rental_uris":{"android":"levelo://app?vid=9d10d9fa-01d1-4f34-9fd2-6276042dffed","ios":"levelo://app?vid=9d10d9fa-01d1-4f34-9fd2-6276042dffed"},"vehicle_type_id":"4","last_reported":1740751758,"current_range_meters":16000,"station_id":"ce4bgrp2rcd13ifvqc9g","pricing_plan_id":"cebpf4jnsgd1na2vs0mg"},{"bike_id":"ae121af3-0d42-4b58-ab2d-757a40837df4","system_id":"levelo_inurba_marseille","lat":43.22929,"lon":5.35372,"is_reserved":false,"is_disabled":false,"rental_uris":{"android":"levelo://app?vid=ae121af3-0d42-4b58-ab2d-757a40837df4","ios":"levelo://app?vid=ae121af3-0d42-4b58-ab2d-757a40837df4"},"vehicle_type_id":"4","last_reported":1740751758,"current_range_meters":16000,"station_id":"cpo3532slgdg3j2ikp40","pricing_plan_id":"cebpf4jnsgd1na2vs0mg"},{"bike_id":"d2d43415-9208-4c98-bcba-7c055bcb2caa","system_id":"levelo_inurba_marseille","lat":43.26943,"lon":5.40254,"is_reserved":false,"is_disabled":false,"rental_uris":{"android":"levelo://app?vid=d2d43415-9208-4c98-bcba-7c055bcb2caa","ios":"levelo://app?vid=d2d43415-9208-4c98-bcba-7c055bcb2caa"},"vehicle_type_id":"4","last_reported":1740751758,"current_range_meters":16400,"station_id":"cjm6bp8fraef2m0cb0m0","pricing_plan_id":"cebpf4jnsgd1na2vs0mg"},{"bike_id":"64fc1650-f3a1-4993-be35-bbc0c55c0232","system_id":"levelo_inurba_marseille","lat":43.27802,"lon":5.36264,"is_reserved":false,"is_disabled":false,"rental_uris":{"android":"levelo://app?vid=64fc1650-f3a1-4993-be35-bbc0c55c0232","ios":"levelo://app?vid=64fc1650-f3a1-4993-be35-bbc0c55c0232"},"vehicle_type_id":"4","last_reported":1740751758,"current_range_meters":16400,"station_id":"","pricing_plan_id":"cebpf4jnsgd1na2vs0mg"},{"bike_id":"192adea5-a213-4231-85f9-987063f5c28a","system_id":"levelo_inurba_marseille","lat":43.23191,"lon":5.3555,"is_reserved":false,"is_disabled":false,"rental_uris":{"android":"levelo://app?vid=192adea5-a213-4231-85f9-987063f5c28a","ios":"levelo://app?vid=192adea5-a213-4231-85f9-987063f5c28a"},"vehicle_type_id":"4","last_reported":1740751758,"current_range_meters":16400,"station_id":"ce4bhu92rcd13ifvqi70","pricing_plan_id":"cebpf4jnsgd1na2vs0mg"},{"bike_id":"abff5d4b-70ee-4a17-807c-5bb5b54cc913","system_id":"levelo_inurba_marseille","lat":43.25001,"lon":5.38927,"is_reserved":false,"is_disabled":false,"rental_uris":{"android":"levelo://app?vid=abff5d4b-70ee-4a17-807c-5bb5b54cc913","ios":"levelo://app?vid=abff5d4b-70ee-4a17-807c-5bb5b54cc913"},"vehicle_type_id":"4","last_reported":1740751758,"current_range_meters":16400,"station_id":"ce4bhgp2rcd13ifvqfd0","pricing_plan_id":"cebpf4jnsgd1na2vs0mg"},{"bike_id":"695e9a27-d903-4bbc-b050-bcc463be80aa","system_id":"levelo_inurba_marseille","lat":43.24181,"lon":5.36383,"is_reserved":false,"is_disabled":false,"rental_uris":{"android":"levelo://app?vid=695e9a27-d903-4bbc-b050-bcc463be80aa","ios":"levelo://app?vid=695e9a27-d903-4bbc-b050-bcc463be80aa"},"vehicle_type_id":"4","last_reported":1740751758,"current_range_meters":16400,"station_id":"cpo36qri1sfpv3e86is0","pricing_plan_id":"cebpf4jnsgd1na2vs0mg"},{"bike_id":"5afe3ca4-4293-472f-af4b-7206f75b5a44","system_id":"levelo_inurba_marseille","lat":43.29838,"lon":5.36274,"is_reserved":false,"is_disabled":false,"rental_uris":{"android":"levelo://app?vid=5afe3ca4-4293-472f-af4b-7206f75b5a44","ios":"levelo://app?vid=5afe3ca4-4293-472f-af4b-7206f75b5a44"},"vehicle_type_id":"4","last_reported":1740751758,"current_range_meters":16400,"station_id":"ce4bgpp2rcd13ifvqc3g","pricing_plan_id":"cebpf4jnsgd1na2vs0mg"},{"bike_id":"27f8d61f-de01-4772-8b8c-ceceaf4de61e","system_id":"levelo_inurba_marseille","lat":43.29082,"lon":5.37167,"is_reserved":false,"is_disabled":true,"rental_uris":{"android":"levelo://app?vid=27f8d61f-de01-4772-8b8c-ceceaf4de61e","ios":"levelo://app?vid=27f8d61f-de01-4772-8b8c-ceceaf4de61e"},"vehicle_type_id":"4","last_reported":1740751758,"current_range_meters":16400,"station_id":"ce4bh5p2rcd13ifvqe4g","pricing_plan_id":"cebpf4jnsgd1na2vs0mg"},{"bike_id":"16d6a25c-f214-4967-a24a-2fa204fc54a9","system_id":"levelo_inurba_marseille","lat":43.29851,"lon":5.38058,"is_reserved":false,"is_disabled":false,"rental_uris":{"android":"levelo://app?vid=16d6a25c-f214-4967-a24a-2fa204fc54a9","ios":"levelo://app?vid=16d6a25c-f214-4967-a24a-2fa204fc54a9"},"vehicle_type_id":"4","last_reported":1740751758,"current_range_meters":16400,"station_id":"","pricing_plan_id":"cebpf4jnsgd1na2vs0mg"},{"bike_id":"0693b9d6-4a9d-4e38-bfa2-80f934bcc2e3","system_id":"levelo_inurba_marseille","lat":43.24174,"lon":5.36414,"is_reserved":false,"is_disabled":false,"rental_uris":{"android":"levelo://app?vid=0693b9d6-4a9d-4e38-bfa2-80f934bcc2e3","ios":"levelo://app?vid=0693b9d6-4a9d-4e38-bfa2-80f934bcc2e3"},"vehicle_type_id":"4","last_reported":1740751758,"current_range_meters":16800,"station_id":"cpo36qri1sfpv3e86is0","pricing_plan_id":"cebpf4jnsgd1na2vs0mg"},{"bike_id":"c49dc9c4-5019-4329-842d-cb613d8fac4d","system_id":"levelo_inurba_marseille","lat":43.29969,"lon":5.37182,"is_reserved":false,"is_disabled":false,"rental_uris":{"android":"levelo://app?vid=c49dc9c4-5019-4329-842d-cb613d8fac4d","ios":"levelo://app?vid=c49dc9c4-5019-4329-842d-cb613d8fac4d"},"vehicle_type_id":"4","last_reported":1740751758,"current_range_meters":16400,"station_id":"ce4bgr92rcd13ifvqc7g","pricing_plan_id":"cebpf4jnsgd1na2vs0mg"},{"bike_id":"8c86cb21-5e53-44c8-a766-70640a93721c","system_id":"levelo_inurba_marseille","lat":43.29182,"lon":5.37542,"is_reserved":false,"is_disabled":false,"rental_uris":{"android":"levelo://app?vid=8c86cb21-5e53-44c8-a766-70640a93721c","ios":"levelo://app?vid=8c86cb21-5e53-44c8-a766-70640a93721c"},"vehicle_type_id":"4","last_reported":1740751758,"current_range_meters":16800,"station_id":"","pricing_plan_id":"cebpf4jnsgd1na2vs0mg"},{"bike_id":"25e89ac1-d6d0-41be-86e5-48f8b7f864e8","system_id":"levelo_inurba_marseille","lat":43.31368,"lon":5.36713,"is_reserved":false,"is_disabled":false,"rental_uris":{"android":"levelo://app?vid=25e89ac1-d6d0-41be-86e5-48f8b7f864e8","ios":"levelo://app?vid=25e89ac1-d6d0-41be-86e5-48f8b7f864e8"},"vehicle_type_id":"4","last_reported":1740751758,"current_range_meters":17200,"station_id":"ce4bgr92rcd13ifvqc6g","pricing_plan_id":"cebpf4jnsgd1na2vs0mg"},{"bike_id":"a43d23d2-0d6e-4cf7-8691-8ab079a8ff69","system_id":"levelo_inurba_marseille","lat":43.29937,"lon":5.43657,"is_reserved":false,"is_disabled":false,"rental_uris":{"android":"levelo://app?vid=a43d23d2-0d6e-4cf7-8691-8ab079a8ff69","ios":"levelo://app?vid=a43d23d2-0d6e-4cf7-8691-8ab079a8ff69"},"vehicle_type_id":"4","last_reported":1740751758,"current_range_meters":16800,"station_id":"","pricing_plan_id":"cebpf4jnsgd1na2vs0mg"},{"bike_id":"79bb3a88-1ef3-49bb-a686-3c712a80715d","system_id":"levelo_inurba_marseille","lat":43.29376,"lon":5.38746,"is_reserved":false,"is_disabled":false,"rental_uris":{"android":"levelo://app?vid=79bb3a88-1ef3-49bb-a686-3c712a80715d","ios":"levelo://app?vid=79bb3a88-1ef3-49bb-a686-3c712a80715d"},"vehicle_type_id":"4","last_reported":1740751758,"current_range_meters":16800,"station_id":"","pricing_plan_id":"cebpf4jnsgd1na2vs0mg"},{"bike_id":"1c05c9eb-a923-464b-b8e2-a210bd9c428d","system_id":"levelo_inurba_marseille","lat":43.28419,"lon":5.35001,"is_reserved":false,"is_disabled":false,"rental_uris":{"android":"levelo://app?vid=1c05c9eb-a923-464b-b8e2-a210bd9c428d","ios":"levelo://app?vid=1c05c9eb-a923-464b-b8e2-a210bd9c428d"},"vehicle_type_id":"4","last_reported":1740751758,"current_range_meters":17200,"station_id":"ce4bhbh2rcd13ifvqepg","pricing_plan_id":"cebpf4jnsgd1na2vs0mg"},{"bike_id":"4015c440-7267-44b4-8be2-f4b87cb51aa9","system_id":"levelo_inurba_marseille","lat":43.25592,"lon":5.38216,"is_reserved":false,"is_disabled":false,"rental_uris":{"android":"levelo://app?vid=4015c440-7267-44b4-8be2-f4b87cb51aa9","ios":"levelo://app?vid=4015c440-7267-44b4-8be2-f4b87cb51aa9"},"vehicle_type_id":"4","last_reported":1740751758,"current_range_meters":16800,"station_id":"ce4bhih2rcd13ifvqfs0","pricing_plan_id":"cebpf4jnsgd1na2vs0mg"},{"bike_id":"199f6953-90bf-452d-a70b-9790e3c9500e","system_id":"levelo_inurba_marseille","lat":43.28416,"lon":5.34996,"is_reserved":false,"is_disabled":false,"rental_uris":{"android":"levelo://app?vid=199f6953-90bf-452d-a70b-9790e3c9500e","ios":"levelo://app?vid=199f6953-90bf-452d-a70b-9790e3c9500e"},"vehicle_type_id":"4","last_reported":1740751758,"current_range_meters":17200,"station_id":"ce4bhbh2rcd13ifvqepg","pricing_plan_id":"cebpf4jnsgd1na2vs0mg"},{"bike_id":"766f9252-76ba-4151-9194-6d162e66f1d3","system_id":"levelo_inurba_marseille","lat":43.24806,"lon":5.37462,"is_reserved":false,"is_disabled":false,"rental_uris":{"android":"levelo://app?vid=766f9252-76ba-4151-9194-6d162e66f1d3","ios":"levelo://app?vid=766f9252-76ba-4151-9194-6d162e66f1d3"},"vehicle_type_id":"4","last_reported":1740751758,"current_range_meters":16800,"station_id":"ce4bhgh2rcd13ifvqfb0","pricing_plan_id":"cebpf4jnsgd1na2vs0mg"},{"bike_id":"5d1c7497-86a2-4f31-9a7c-8dca6939067e","system_id":"levelo_inurba_marseille","lat":43.25084,"lon":5.39526,"is_reserved":false,"is_disabled":false,"rental_uris":{"android":"levelo://app?vid=5d1c7497-86a2-4f31-9a7c-8dca6939067e","ios":"levelo://app?vid=5d1c7497-86a2-4f31-9a7c-8dca6939067e"},"vehicle_type_id":"4","last_reported":1740751758,"current_range_meters":16800,"station_id":"ce4bhm12rcd13ifvqgkg","pricing_plan_id":"cebpf4jnsgd1na2vs0mg"},{"bike_id":"2693da2c-4969-43ef-b7aa-53da9d4dfdf9","system_id":"levelo_inurba_marseille","lat":43.30274,"lon":5.37691,"is_reserved":false,"is_disabled":false,"rental_uris":{"android":"levelo://app?vid=2693da2c-4969-43ef-b7aa-53da9d4dfdf9","ios":"levelo://app?vid=2693da2c-4969-43ef-b7aa-53da9d4dfdf9"},"vehicle_type_id":"4","last_reported":1740751758,"current_range_meters":16400,"station_id":"ce4bguh2rcd13ifvqcj0","pricing_plan_id":"cebpf4jnsgd1na2vs0mg"},{"bike_id":"3b51f321-7860-478d-8dcb-446f467539e5","system_id":"levelo_inurba_marseille","lat":43.31241,"lon":5.3682,"is_reserved":false,"is_disabled":false,"rental_uris":{"android":"levelo://app?vid=3b51f321-7860-478d-8dcb-446f467539e5","ios":"levelo://app?vid=3b51f321-7860-478d-8dcb-446f467539e5"},"vehicle_type_id":"4","last_reported":1740751758,"current_range_meters":16800,"station_id":"ce4bgl92rcd13ifvqbq0","pricing_plan_id":"cebpf4jnsgd1na2vs0mg"},{"bike_id":"3db7a956-8660-4e5f-b160-9fa61e415cd3","system_id":"levelo_inurba_marseille","lat":43.22949,"lon":5.35369,"is_reserved":false,"is_disabled":false,"rental_uris":{"android":"levelo://app?vid=3db7a956-8660-4e5f-b160-9fa61e415cd3","ios":"levelo://app?vid=3db7a956-8660-4e5f-b160-9fa61e415cd3"},"vehicle_type_id":"4","last_reported":1740751758,"current_range_meters":16800,"station_id":"cpo3532slgdg3j2ikp40","pricing_plan_id":"cebpf4jnsgd1na2vs0mg"},{"bike_id":"6c00e2bd-c1a0-4878-ab7d-bb856a589cae","system_id":"levelo_inurba_marseille","lat":43.25577,"lon":5.38225,"is_reserved":false,"is_disabled":false,"rental_uris":{"android":"levelo://app?vid=6c00e2bd-c1a0-4878-ab7d-bb856a589cae","ios":"levelo://app?vid=6c00e2bd-c1a0-4878-ab7d-bb856a589cae"},"vehicle_type_id":"4","last_reported":1740751758,"current_range_meters":17200,"station_id":"ce4bhih2rcd13ifvqfs0","pricing_plan_id":"cebpf4jnsgd1na2vs0mg"},{"bike_id":"8d91c655-19ff-47c9-a3e3-8857cd75c678","system_id":"levelo_inurba_marseille","lat":43.24815,"lon":5.37463,"is_reserved":false,"is_disabled":false,"rental_uris":{"android":"levelo://app?vid=8d91c655-19ff-47c9-a3e3-8857cd75c678","ios":"levelo://app?vid=8d91c655-19ff-47c9-a3e3-8857cd75c678"},"vehicle_type_id":"4","last_reported":1740751758,"current_range_meters":16800,"station_id":"ce4bhgh2rcd13ifvqfb0","pricing_plan_id":"cebpf4jnsgd1na2vs0mg"},{"bike_id":"5479fbcd-1bb7-43ca-831a-9142f1ef1397","system_id":"levelo_inurba_marseille","lat":43.24685,"lon":5.38151,"is_reserved":false,"is_disabled":false,"rental_uris":{"android":"levelo://app?vid=5479fbcd-1bb7-43ca-831a-9142f1ef1397","ios":"levelo://app?vid=5479fbcd-1bb7-43ca-831a-9142f1ef1397"},"vehicle_type_id":"4","last_reported":1740751758,"current_range_meters":17200,"station_id":"ce4bhih2rcd13ifvqfr0","pricing_plan_id":"cebpf4jnsgd1na2vs0mg"},{"bike_id":"085d28c3-d678-460a-a2b0-03561e14272e","system_id":"levelo_inurba_marseille","lat":43.32115,"lon":5.3677,"is_reserved":false,"is_disabled":false,"rental_uris":{"android":"levelo://app?vid=085d28c3-d678-460a-a2b0-03561e14272e","ios":"levelo://app?vid=085d28c3-d678-460a-a2b0-03561e14272e"},"vehicle_type_id":"4","last_reported":1740751758,"current_range_meters":17200,"station_id":"ce4bhrh2rcd13ifvqhug","pricing_plan_id":"cebpf4jnsgd1na2vs0mg"},{"bike_id":"808e7af5-7280-4dcf-9c4a-50c17ad3c304","system_id":"levelo_inurba_marseille","lat":43.23967,"lon":5.36635,"is_reserved":false,"is_disabled":false,"rental_uris":{"android":"levelo://app?vid=808e7af5-7280-4dcf-9c4a-50c17ad3c304","ios":"levelo://app?vid=808e7af5-7280-4dcf-9c4a-50c17ad3c304"},"vehicle_type_id":"4","last_reported":1740751758,"current_range_meters":17200,"station_id":"ce4bhi12rcd13ifvqfp0","pricing_plan_id":"cebpf4jnsgd1na2vs0mg"},{"bike_id":"d3c64d52-179f-4497-a377-848e9ad9d8f8","system_id":"levelo_inurba_marseille","lat":43.29774,"lon":5.37098,"is_reserved":false,"is_disabled":false,"rental_uris":{"android":"levelo://app?vid=d3c64d52-179f-4497-a377-848e9ad9d8f8","ios":"levelo://app?vid=d3c64d52-179f-4497-a377-848e9ad9d8f8"},"vehicle_type_id":"4","last_reported":1740751758,"current_range_meters":17200,"station_id":"ce4bgop2rcd13ifvqc1g","pricing_plan_id":"cebpf4jnsgd1na2vs0mg"},{"bike_id":"685a0357-c8db-4a02-9a25-a9947b7c7c10","system_id":"levelo_inurba_marseille","lat":43.3016,"lon":5.38084,"is_reserved":false,"is_disabled":false,"rental_uris":{"android":"levelo://app?vid=685a0357-c8db-4a02-9a25-a9947b7c7c10","ios":"levelo://app?vid=685a0357-c8db-4a02-9a25-a9947b7c7c10"},"vehicle_type_id":"4","last_reported":1740751758,"current_range_meters":17200,"station_id":"ce4bgjp2rcd13ifvqbh0","pricing_plan_id":"cebpf4jnsgd1na2vs0mg"},{"bike_id":"0edcb5f6-5d31-42a2-bfd6-392b10b8c6da","system_id":"levelo_inurba_marseille","lat":43.32094,"lon":5.41501,"is_reserved":false,"is_disabled":false,"rental_uris":{"android":"levelo://app?vid=0edcb5f6-5d31-42a2-bfd6-392b10b8c6da","ios":"levelo://app?vid=0edcb5f6-5d31-42a2-bfd6-392b10b8c6da"},"vehicle_type_id":"4","last_reported":1740751758,"current_range_meters":17200,"station_id":"","pricing_plan_id":"cebpf4jnsgd1na2vs0mg"},{"bike_id":"6a9c191c-f69d-437f-a5a2-339653ae959f","system_id":"levelo_inurba_marseille","lat":43.29262,"lon":5.40906,"is_reserved":false,"is_disabled":false,"rental_uris":{"android":"levelo://app?vid=6a9c191c-f69d-437f-a5a2-339653ae959f","ios":"levelo://app?vid=6a9c191c-f69d-437f-a5a2-339653ae959f"},"vehicle_type_id":"4","last_reported":1740751758,"current_range_meters":17600,"station_id":"ce4bh192rcd13ifvqdc0","pricing_plan_id":"cebpf4jnsgd1na2vs0mg"},{"bike_id":"9a01249f-a7e6-4d4c-af7a-0fae8942f0f3","system_id":"levelo_inurba_marseille","lat":43.23069,"lon":5.35485,"is_reserved":false,"is_disabled":false,"rental_uris":{"android":"levelo://app?vid=9a01249f-a7e6-4d4c-af7a-0fae8942f0f3","ios":"levelo://app?vid=9a01249f-a7e6-4d4c-af7a-0fae8942f0f3"},"vehicle_type_id":"4","last_reported":1740751758,"current_range_meters":17600,"station_id":"cpo3342slgdg3j2ifvpg","pricing_plan_id":"cebpf4jnsgd1na2vs0mg"},{"bike_id":"c0bcb284-0702-4236-ad79-4401fb8ae656","system_id":"levelo_inurba_marseille","lat":43.22934,"lon":5.35379,"is_reserved":false,"is_disabled":false,"rental_uris":{"android":"levelo://app?vid=c0bcb284-0702-4236-ad79-4401fb8ae656","ios":"levelo://app?vid=c0bcb284-0702-4236-ad79-4401fb8ae656"},"vehicle_type_id":"4","last_reported":1740751758,"current_range_meters":17600,"station_id":"cpo3532slgdg3j2ikp40","pricing_plan_id":"cebpf4jnsgd1na2vs0mg"},{"bike_id":"15ed088e-937e-4c6a-98d4-1715379a096f","system_id":"levelo_inurba_marseille","lat":43.29308,"lon":5.3717,"is_reserved":false,"is_disabled":false,"rental_uris":{"android":"levelo://app?vid=15ed088e-937e-4c6a-98d4-1715379a096f","ios":"levelo://app?vid=15ed088e-937e-4c6a-98d4-1715379a096f"},"vehicle_type_id":"4","last_reported":1740751758,"current_range_meters":17600,"station_id":"ce4bgh92rcd13ifvqb40","pricing_plan_id":"cebpf4jnsgd1na2vs0mg"},{"bike_id":"9ffe6c9d-0407-4859-ba96-0cf757661786","system_id":"levelo_inurba_marseille","lat":43.30135,"lon":5.37431,"is_reserved":false,"is_disabled":false,"rental_uris":{"android":"levelo://app?vid=9ffe6c9d-0407-4859-ba96-0cf757661786","ios":"levelo://app?vid=9ffe6c9d-0407-4859-ba96-0cf757661786"},"vehicle_type_id":"4","last_reported":1740751758,"current_range_meters":17600,"station_id":"ce4bgs92rcd13ifvqcc0","pricing_plan_id":"cebpf4jnsgd1na2vs0mg"},{"bike_id":"39f07adc-2989-4ef1-b1d1-08bc801b2cb2","system_id":"levelo_inurba_marseille","lat":43.29791,"lon":5.38107,"is_reserved":false,"is_disabled":false,"rental_uris":{"android":"levelo://app?vid=39f07adc-2989-4ef1-b1d1-08bc801b2cb2","ios":"levelo://app?vid=39f07adc-2989-4ef1-b1d1-08bc801b2cb2"},"vehicle_type_id":"4","last_reported":1740751758,"current_range_meters":17600,"station_id":"ce4bgip2rcd13ifvqbb0","pricing_plan_id":"cebpf4jnsgd1na2vs0mg"},{"bike_id":"04d49327-57a0-493c-997d-c1715dc560f2","system_id":"levelo_inurba_marseille","lat":43.25112,"lon":5.40331,"is_reserved":false,"is_disabled":false,"rental_uris":{"android":"levelo://app?vid=04d49327-57a0-493c-997d-c1715dc560f2","ios":"levelo://app?vid=04d49327-57a0-493c-997d-c1715dc560f2"},"vehicle_type_id":"4","last_reported":1740751758,"current_range_meters":9600,"station_id":"ce4bhlh2rcd13ifvqgig","pricing_plan_id":"cebpf4jnsgd1na2vs0mg"},{"bike_id":"9b69e1a3-e087-4b03-bb57-30fc857dd381","system_id":"levelo_inurba_marseille","lat":43.30429,"lon":5.39761,"is_reserved":false,"is_disabled":false,"rental_uris":{"android":"levelo://app?vid=9b69e1a3-e087-4b03-bb57-30fc857dd381","ios":"levelo://app?vid=9b69e1a3-e087-4b03-bb57-30fc857dd381"},"vehicle_type_id":"4","last_reported":1740751758,"current_range_meters":17600,"station_id":"ce4bh092rcd13ifvqd20","pricing_plan_id":"cebpf4jnsgd1na2vs0mg"},{"bike_id":"672e22c9-7973-42fe-9bfd-dd94f652e9dd","system_id":"levelo_inurba_marseille","lat":43.312658,"lon":5.401697,"is_reserved":false,"is_disabled":false,"rental_uris":{"android":"levelo://app?vid=672e22c9-7973-42fe-9bfd-dd94f652e9dd","ios":"levelo://app?vid=672e22c9-7973-42fe-9bfd-dd94f652e9dd"},"vehicle_type_id":"4","last_reported":1740751758,"current_range_meters":17600,"station_id":"ce4bh092rcd13ifvqd30","pricing_plan_id":"cebpf4jnsgd1na2vs0mg"},{"bike_id":"a566e966-9712-4484-947d-355e0fd614d3","system_id":"levelo_inurba_marseille","lat":43.29214,"lon":5.38303,"is_reserved":false,"is_disabled":false,"rental_uris":{"android":"levelo://app?vid=a566e966-9712-4484-947d-355e0fd614d3","ios":"levelo://app?vid=a566e966-9712-4484-947d-355e0fd614d3"},"vehicle_type_id":"4","last_reported":1740751758,"current_range_meters":18000,"station_id":"","pricing_plan_id":"cebpf4jnsgd1na2vs0mg"},{"bike_id":"32ceb2c3-2f3b-4092-8d32-8ede67e0cd39","system_id":"levelo_inurba_marseille","lat":43.29934,"lon":5.4364,"is_reserved":false,"is_disabled":false,"rental_uris":{"android":"levelo://app?vid=32ceb2c3-2f3b-4092-8d32-8ede67e0cd39","ios":"levelo://app?vid=32ceb2c3-2f3b-4092-8d32-8ede67e0cd39"},"vehicle_type_id":"4","last_reported":1740751758,"current_range_meters":18000,"station_id":"ce4bhpp2rcd13ifvqhfg","pricing_plan_id":"cebpf4jnsgd1na2vs0mg"},{"bike_id":"3f203f23-4004-4cf3-8fd7-3c9839a0ab70","system_id":"levelo_inurba_marseille","lat":43.27162,"lon":5.41001,"is_reserved":false,"is_disabled":false,"rental_uris":{"android":"levelo://app?vid=3f203f23-4004-4cf3-8fd7-3c9839a0ab70","ios":"levelo://app?vid=3f203f23-4004-4cf3-8fd7-3c9839a0ab70"},"vehicle_type_id":"4","last_reported":1740751758,"current_range_meters":18000,"station_id":"ce4bhl12rcd13ifvqgf0","pricing_plan_id":"cebpf4jnsgd1na2vs0mg"},{"bike_id":"11810f3c-aef4-4a2c-91e0-ae91c2b0c531","system_id":"levelo_inurba_marseille","lat":43.26566,"lon":5.37284,"is_reserved":false,"is_disabled":false,"rental_uris":{"android":"levelo://app?vid=11810f3c-aef4-4a2c-91e0-ae91c2b0c531","ios":"levelo://app?vid=11810f3c-aef4-4a2c-91e0-ae91c2b0c531"},"vehicle_type_id":"4","last_reported":1740751758,"current_range_meters":18000,"station_id":"ce4bhg12rcd13ifvqf70","pricing_plan_id":"cebpf4jnsgd1na2vs0mg"},{"bike_id":"9f108314-2f62-4829-9d51-0d5c4307a42c","system_id":"levelo_inurba_marseille","lat":43.30089,"lon":5.37068,"is_reserved":false,"is_disabled":false,"rental_uris":{"android":"levelo://app?vid=9f108314-2f62-4829-9d51-0d5c4307a42c","ios":"levelo://app?vid=9f108314-2f62-4829-9d51-0d5c4307a42c"},"vehicle_type_id":"4","last_reported":1740751758,"current_range_meters":18000,"station_id":"","pricing_plan_id":"cebpf4jnsgd1na2vs0mg"},{"bike_id":"62c5966d-9c35-4220-90d2-2f2b769ce132","system_id":"levelo_inurba_marseille","lat":43.29297,"lon":5.3747,"is_reserved":false,"is_disabled":false,"rental_uris":{"android":"levelo://app?vid=62c5966d-9c35-4220-90d2-2f2b769ce132","ios":"levelo://app?vid=62c5966d-9c35-4220-90d2-2f2b769ce132"},"vehicle_type_id":"4","last_reported":1740751758,"current_range_meters":18000,"station_id":"ce4bgi12rcd13ifvqb70","pricing_plan_id":"cebpf4jnsgd1na2vs0mg"},{"bike_id":"9088348a-4570-462c-9e76-8e4a6bf3aa5b","system_id":"levelo_inurba_marseille","lat":43.30506,"lon":5.36514,"is_reserved":false,"is_disabled":false,"rental_uris":{"android":"levelo://app?vid=9088348a-4570-462c-9e76-8e4a6bf3aa5b","ios":"levelo://app?vid=9088348a-4570-462c-9e76-8e4a6bf3aa5b"},"vehicle_type_id":"4","last_reported":1740751758,"current_range_meters":18000,"station_id":"ce4bgs12rcd13ifvqcag","pricing_plan_id":"cebpf4jnsgd1na2vs0mg"},{"bike_id":"e4d8aea3-ca93-43b3-b49c-2c9bc9cbc59f","system_id":"levelo_inurba_marseille","lat":43.27811,"lon":5.40713,"is_reserved":false,"is_disabled":false,"rental_uris":{"android":"levelo://app?vid=e4d8aea3-ca93-43b3-b49c-2c9bc9cbc59f","ios":"levelo://app?vid=e4d8aea3-ca93-43b3-b49c-2c9bc9cbc59f"},"vehicle_type_id":"4","last_reported":1740751758,"current_range_meters":18800,"station_id":"ce4bhnh2rcd13ifvqgtg","pricing_plan_id":"cebpf4jnsgd1na2vs0mg"},{"bike_id":"0fa9de02-d4e3-46a1-9135-52dc14e5e5d2","system_id":"levelo_inurba_marseille","lat":43.28422,"lon":5.35001,"is_reserved":false,"is_disabled":false,"rental_uris":{"android":"levelo://app?vid=0fa9de02-d4e3-46a1-9135-52dc14e5e5d2","ios":"levelo://app?vid=0fa9de02-d4e3-46a1-9135-52dc14e5e5d2"},"vehicle_type_id":"4","last_reported":1740751758,"current_range_meters":18800,"station_id":"ce4bhbh2rcd13ifvqepg","pricing_plan_id":"cebpf4jnsgd1na2vs0mg"},{"bike_id":"2a88a5d5-485c-4d6b-8ae1-14a2e8299fd8","system_id":"levelo_inurba_marseille","lat":43.2613,"lon":5.41465,"is_reserved":false,"is_disabled":false,"rental_uris":{"android":"levelo://app?vid=2a88a5d5-485c-4d6b-8ae1-14a2e8299fd8","ios":"levelo://app?vid=2a88a5d5-485c-4d6b-8ae1-14a2e8299fd8"},"vehicle_type_id":"4","last_reported":1740751758,"current_range_meters":19200,"station_id":"","pricing_plan_id":"cebpf4jnsgd1na2vs0mg"},{"bike_id":"ee00a07c-bb63-4de8-a3ab-8d3403810524","system_id":"levelo_inurba_marseille","lat":43.28419,"lon":5.3499,"is_reserved":false,"is_disabled":false,"rental_uris":{"android":"levelo://app?vid=ee00a07c-bb63-4de8-a3ab-8d3403810524","ios":"levelo://app?vid=ee00a07c-bb63-4de8-a3ab-8d3403810524"},"vehicle_type_id":"4","last_reported":1740751758,"current_range_meters":18800,"station_id":"ce4bhbh2rcd13ifvqepg","pricing_plan_id":"cebpf4jnsgd1na2vs0mg"},{"bike_id":"40934b71-845e-4f3a-bef6-a23530397ee7","system_id":"levelo_inurba_marseille","lat":43.28273,"lon":5.35071,"is_reserved":false,"is_disabled":false,"rental_uris":{"android":"levelo://app?vid=40934b71-845e-4f3a-bef6-a23530397ee7","ios":"levelo://app?vid=40934b71-845e-4f3a-bef6-a23530397ee7"},"vehicle_type_id":"4","last_reported":1740751758,"current_range_meters":18800,"station_id":"ce4bhbp2rcd13ifvqerg","pricing_plan_id":"cebpf4jnsgd1na2vs0mg"},{"bike_id":"388d361d-0903-4278-86d6-2a715f0eca22","system_id":"levelo_inurba_marseille","lat":43.30544,"lon":5.36688,"is_reserved":false,"is_disabled":false,"rental_uris":{"android":"levelo://app?vid=388d361d-0903-4278-86d6-2a715f0eca22","ios":"levelo://app?vid=388d361d-0903-4278-86d6-2a715f0eca22"},"vehicle_type_id":"4","last_reported":1740751758,"current_range_meters":18000,"station_id":"ce4bgrp2rcd13ifvqc9g","pricing_plan_id":"cebpf4jnsgd1na2vs0mg"},{"bike_id":"20a79456-3231-4522-9d5a-1097bcba3100","system_id":"levelo_inurba_marseille","lat":43.271317,"lon":5.422223,"is_reserved":false,"is_disabled":false,"rental_uris":{"android":"levelo://app?vid=20a79456-3231-4522-9d5a-1097bcba3100","ios":"levelo://app?vid=20a79456-3231-4522-9d5a-1097bcba3100"},"vehicle_type_id":"4","last_reported":1740751758,"current_range_meters":18800,"station_id":"ce4bh192rcd13ifvqdd0","pricing_plan_id":"cebpf4jnsgd1na2vs0mg"},{"bike_id":"4b75b758-6e2c-4516-ab85-32d61cdf5c3d","system_id":"levelo_inurba_marseille","lat":43.23958,"lon":5.36628,"is_reserved":false,"is_disabled":false,"rental_uris":{"android":"levelo://app?vid=4b75b758-6e2c-4516-ab85-32d61cdf5c3d","ios":"levelo://app?vid=4b75b758-6e2c-4516-ab85-32d61cdf5c3d"},"vehicle_type_id":"4","last_reported":1740751758,"current_range_meters":18800,"station_id":"ce4bhi12rcd13ifvqfp0","pricing_plan_id":"cebpf4jnsgd1na2vs0mg"},{"bike_id":"6d03f821-f018-49c1-9129-dc65736e86f8","system_id":"levelo_inurba_marseille","lat":43.302215,"lon":5.39458,"is_reserved":false,"is_disabled":false,"rental_uris":{"android":"levelo://app?vid=6d03f821-f018-49c1-9129-dc65736e86f8","ios":"levelo://app?vid=6d03f821-f018-49c1-9129-dc65736e86f8"},"vehicle_type_id":"4","last_reported":1740751758,"current_range_meters":18800,"station_id":"ce4bh0p2rcd13ifvqd70","pricing_plan_id":"cebpf4jnsgd1na2vs0mg"},{"bike_id":"c8433f6c-857f-4ebc-b0e2-34c100ec2eef","system_id":"levelo_inurba_marseille","lat":43.29576,"lon":5.37509,"is_reserved":false,"is_disabled":false,"rental_uris":{"android":"levelo://app?vid=c8433f6c-857f-4ebc-b0e2-34c100ec2eef","ios":"levelo://app?vid=c8433f6c-857f-4ebc-b0e2-34c100ec2eef"},"vehicle_type_id":"4","last_reported":1740751758,"current_range_meters":18800,"station_id":"ce4bgh92rcd13ifvqb50","pricing_plan_id":"cebpf4jnsgd1na2vs0mg"},{"bike_id":"f86558ae-7403-42cf-8f86-3321d1245dd7","system_id":"levelo_inurba_marseille","lat":43.25906,"lon":5.40879,"is_reserved":false,"is_disabled":false,"rental_uris":{"android":"levelo://app?vid=f86558ae-7403-42cf-8f86-3321d1245dd7","ios":"levelo://app?vid=f86558ae-7403-42cf-8f86-3321d1245dd7"},