{"last_updated":1700417294,"ttl":30,"version":"2.2","data":{"bikes":[{"bike_id":"499162d6-7fad-44c8-91f8-355c834834f6","system_id":"levelo_inurba_marseille","lat":43.313391,"lon":5.36706,"is_reserved":false,"is_disabled":false,"rental_uris":{"android":"levelo://app?vid=499162d6-7fad-44c8-91f8-355c834834f6","ios":"levelo://app?vid=499162d6-7fad-44c8-91f8-355c834834f6"},"vehicle_type_id":"4","last_reported":1700417294,"current_range_meters":16000,"station_id":"ce4bgr92rcd13ifvqc6g","pricing_plan_id":"free"},{"bike_id":"72010720-3972-4237-b98c-ea849c0d33c4","system_id":"levelo_inurba_marseille","lat":43.309039,"lon":5.371797,"is_reserved":false,"is_disabled":false,"rental_uris":{"android":"levelo://app?vid=72010720-3972-4237-b98c-ea849c0d33c4","ios":"levelo://app?vid=72010720-3972-4237-b98c-ea849c0d33c4"},"vehicle_type_id":"4","last_reported":1700417294,"current_range_meters":13200,"station_id":"ce4bguh2rcd13ifvqckg","pricing_plan_id":"free"},{"bike_id":"445ac94f-db1e-47a9-9236-b99ad16bd022","system_id":"levelo_inurba_marseille","lat":43.30881,"lon":5.37193,"is_reserved":false,"is_disabled":false,"rental_uris":{"android":"levelo://app?vid=445ac94f-db1e-47a9-9236-b99ad16bd022","ios":"levelo://app?vid=445ac94f-db1e-47a9-9236-b99ad16bd022"},"vehicle_type_id":"4","last_reported":1700417294,"current_range_meters":26000,"station_id":"ce4bguh2rcd13ifvqckg","pricing_plan_id":"free"},{"bike_id":"3f0db877-f819-4c9d-a707-5ceb6e01e906","system_id":"levelo_inurba_marseille","lat":43.314837,"lon":5.374068,"is_reserved":false,"is_disabled":false,"rental_uris":{"android":"levelo://app?vid=3f0db877-f819-4c9d-a707-5ceb6e01e906","ios":"levelo://app?vid=3f0db877-f819-4c9d-a707-5ceb6e01e906"},"vehicle_type_id":"4","last_reported":1700417294,"current_range_meters":0,"station_id":"","pricing_plan_id":"free"},{"bike_id":"3475d204-43b6-43d9-b615-ca1d0d58200e","system_id":"levelo_inurba_marseille","lat":43.30679,"lon":5.3679,"is_reserved":false,"is_disabled":false,"rental_uris":{"android":"levelo://app?vid=3475d204-43b6-43d9-b615-ca1d0d58200e","ios":"levelo://app?vid=3475d204-43b6-43d9-b615-ca1d0d58200e"},"vehicle_type_id":"4","last_reported":1700417294,"current_range_meters":10000,"station_id":"","pricing_plan_id":"free"},{"bike_id":"8b3677d2-ba45-46d5-8680-59b39c3c55a8","system_id":"levelo_inurba_marseille","lat":43.31216,"lon":5.37613,"is_reserved":false,"is_disabled":false,"rental_uris":{"android":"levelo://app?vid=8b3677d2-ba45-46d5-8680-59b39c3c55a8","ios":"levelo://app?vid=8b3677d2-ba45-46d5-8680-59b39c3c55a8"},"vehicle_type_id":"4","last_reported":1700417294,"current_range_meters":3200,"station_id":"","pricing_plan_id":"free"},{"bike_id":"09ccbac6-0f01-4cfb-8bb8-da5484277d5c","system_id":"levelo_inurba_marseille","lat":43.31956,"lon":5.3711,"is_reserved":false,"is_disabled":false,"rental_uris":{"android":"levelo://app?vid=09ccbac6-0f01-4cfb-8bb8-da5484277d5c","ios":"levelo://app?vid=09ccbac6-0f01-4cfb-8bb8-da5484277d5c"},"vehicle_type_id":"4","last_reported":1700417294,"current_range_meters":0,"station_id":"","pricing_plan_id":"free"},{"bike_id":"2ab9f744-2334-4f51-95da-3d094a76b93f","system_id":"levelo_inurba_marseille","lat":43.305989,"lon":5.37225,"is_reserved":false,"is_disabled":false,"rental_uris":{"android":"levelo://app?vid=2ab9f744-2334-4f51-95da-3d094a76b93f","ios":"levelo://app?vid=2ab9f744-2334-4f51-95da-3d094a76b93f"},"vehicle_type_id":"4","last_reported":1700417294,"current_range_meters":0,"station_id":"ce4bgqh2rcd13ifvqc4g","pricing_plan_id":"free"},{"bike_id":"f501362c-2c9e-4252-adae-b3465b15c47f","system_id":"levelo_inurba_marseille","lat":43.31126,"lon":5.37754,"is_reserved":false,"is_disabled":false,"rental_uris":{"android":"levelo://app?vid=f501362c-2c9e-4252-adae-b3465b15c47f","ios":"levelo://app?vid=f501362c-2c9e-4252-adae-b3465b15c47f"},"vehicle_type_id":"4","last_reported":1700417294,"current_range_meters":4000,"station_id":"ce4bgt92rcd13ifvqcg0","pricing_plan_id":"free"},{"bike_id":"11a9b973-1314-4e5c-b5d7-40b1e9ab5fed","system_id":"levelo_inurba_marseille","lat":43.311131,"lon":5.377651,"is_reserved":false,"is_disabled":false,"rental_uris":{"android":"levelo://app?vid=11a9b973-1314-4e5c-b5d7-40b1e9ab5fed","ios":"levelo://app?vid=11a9b973-1314-4e5c-b5d7-40b1e9ab5fed"},"vehicle_type_id":"4","last_reported":1700417294,"current_range_meters":18000,"station_id":"ce4bgt92rcd13ifvqcg0","pricing_plan_id":"free"},{"bike_id":"00e3ba25-60b2-451c-9bc5-1789d1d631a0","system_id":"levelo_inurba_marseille","lat":43.311125,"lon":5.377624,"is_reserved":false,"is_disabled":false,"rental_uris":{"android":"levelo://app?vid=00e3ba25-60b2-451c-9bc5-1789d1d631a0","ios":"levelo://app?vid=00e3ba25-60b2-451c-9bc5-1789d1d631a0"},"vehicle_type_id":"4","last_reported":1700417294,"current_range_meters":8000,"station_id":"ce4bgt92rcd13ifvqcg0","pricing_plan_id":"free"},{"bike_id":"7dbf0beb-f63c-4573-a8f2-c30c140d0813","system_id":"levelo_inurba_marseille","lat":43.30816,"lon":5.37646,"is_reserved":false,"is_disabled":false,"rental_uris":{"android":"levelo://app?vid=7dbf0beb-f63c-4573-a8f2-c30c140d0813","ios":"levelo://app?vid=7dbf0beb-f63c-4573-a8f2-c30c140d0813"},"vehicle_type_id":"4","last_reported":1700417294,"current_range_meters":10400,"station_id":"ce4bgv92rcd13ifvqcq0","pricing_plan_id":"free"},{"bike_id":"af6139ec-39d5-43b4-91c6-5b544165835f","system_id":"levelo_inurba_marseille","lat":43.307945,"lon":5.376487,"is_reserved":false,"is_disabled":false,"rental_uris":{"android":"levelo://app?vid=af6139ec-39d5-43b4-91c6-5b544165835f","ios":"levelo://app?vid=af6139ec-39d5-43b4-91c6-5b544165835f"},"vehicle_type_id":"4","last_reported":1700417294,"current_range_meters":27600,"station_id":"ce4bgv92rcd13ifvqcq0","pricing_plan_id":"free"},{"bike_id":"5f9e0c4b-52ae-404b-9264-5fe603326a29","system_id":"levelo_inurba_marseille","lat":43.30802,"lon":5.38155,"is_reserved":false,"is_disabled":false,"rental_uris":{"android":"levelo://app?vid=5f9e0c4b-52ae-404b-9264-5fe603326a29","ios":"levelo://app?vid=5f9e0c4b-52ae-404b-9264-5fe603326a29"},"vehicle_type_id":"4","last_reported":1700417294,"current_range_meters":0,"station_id":"ce4bgt12rcd13ifvqce0","pricing_plan_id":"free"},{"bike_id":"3a722b20-8d9a-4ed7-bed2-82edca53ad10","system_id":"levelo_inurba_marseille","lat":43.324754,"lon":5.365615,"is_reserved":false,"is_disabled":false,"rental_uris":{"android":"levelo://app?vid=3a722b20-8d9a-4ed7-bed2-82edca53ad10","ios":"levelo://app?vid=3a722b20-8d9a-4ed7-bed2-82edca53ad10"},"vehicle_type_id":"4","last_reported":1700417294,"current_range_meters":13600,"station_id":"ce4bhs12rcd13ifvqhvg","pricing_plan_id":"free"},{"bike_id":"8c6b9948-2f23-41f5-967e-cd18cc963390","system_id":"levelo_inurba_marseille","lat":43.32484,"lon":5.36564,"is_reserved":false,"is_disabled":false,"rental_uris":{"android":"levelo://app?vid=8c6b9948-2f23-41f5-967e-cd18cc963390","ios":"levelo://app?vid=8c6b9948-2f23-41f5-967e-cd18cc963390"},"vehicle_type_id":"4","last_reported":1700417294,"current_range_meters":14400,"station_id":"ce4bhs12rcd13ifvqhvg","pricing_plan_id":"free"},{"bike_id":"b86bd29c-7dae-4d1a-900b-90742660a871","system_id":"levelo_inurba_marseille","lat":43.319935,"lon":5.381699,"is_reserved":false,"is_disabled":false,"rental_uris":{"android":"levelo://app?vid=b86bd29c-7dae-4d1a-900b-90742660a871","ios":"levelo://app?vid=b86bd29c-7dae-4d1a-900b-90742660a871"},"vehicle_type_id":"4","last_reported":1700417294,"current_range_meters":24800,"station_id":"ce4bhr12rcd13ifvqhpg","pricing_plan_id":"free"},{"bike_id":"cb9aaf1e-c165-4477-b766-07ed6f860aa9","system_id":"levelo_inurba_marseille","lat":43.31995,"lon":5.38164,"is_reserved":false,"is_disabled":false,"rental_uris":{"android":"levelo://app?vid=cb9aaf1e-c165-4477-b766-07ed6f860aa9","ios":"levelo://app?vid=cb9aaf1e-c165-4477-b766-07ed6f860aa9"},"vehicle_type_id":"4","last_reported":1700417294,"current_range_meters":1600,"station_id":"ce4bhr12rcd13ifvqhpg","pricing_plan_id":"free"},{"bike_id":"0cf1e07a-f1fc-4cb1-a9ae-cb802a826045","system_id":"levelo_inurba_marseille","lat":43.313571,"lon":5.384829,"is_reserved":false,"is_disabled":false,"rental_uris":{"android":"levelo://app?vid=0cf1e07a-f1fc-4cb1-a9ae-cb802a826045","ios":"levelo://app?vid=0cf1e07a-f1fc-4cb1-a9ae-cb802a826045"},"vehicle_type_id":"4","last_reported":1700417294,"current_range_meters":29600,"station_id":"ce4bgt92rcd13ifvqcf0","pricing_plan_id":"free"},{"bike_id":"19e4e1ed-a3b4-42e1-9c15-79ea9bfc4c08","system_id":"levelo_inurba_marseille","lat":43.299724,"lon":5.371829,"is_reserved":false,"is_disabled":false,"rental_uris":{"android":"levelo://app?vid=19e4e1ed-a3b4-42e1-9c15-79ea9bfc4c08","ios":"levelo://app?vid=19e4e1ed-a3b4-42e1-9c15-79ea9bfc4c08"},"vehicle_type_id":"4","last_reported":1700417294,"current_range_meters":8800,"station_id":"ce4bgr92rcd13ifvqc7g","pricing_plan_id":"free"},{"bike_id":"5da9dea2-bd9f-4746-b637-56e44ea9e587","system_id":"levelo_inurba_marseille","lat":43.298489,"lon":5.362942,"is_reserved":false,"is_disabled":false,"rental_uris":{"android":"levelo://app?vid=5da9dea2-bd9f-4746-b637-56e44ea9e587","ios":"levelo://app?vid=5da9dea2-bd9f-4746-b637-56e44ea9e587"},"vehicle_type_id":"4","last_reported":1700417294,"current_range_meters":0,"station_id":"","pricing_plan_id":"free"},{"bike_id":"a3250fa3-9a31-49a0-b944-4252a510d9d1","system_id":"levelo_inurba_marseille","lat":43.305364,"lon":5.384119,"is_reserved":false,"is_disabled":false,"rental_uris":{"android":"levelo://app?vid=a3250fa3-9a31-49a0-b944-4252a510d9d1","ios":"levelo://app?vid=a3250fa3-9a31-49a0-b944-4252a510d9d1"},"vehicle_type_id":"4","last_reported":1700417294,"current_range_meters":28800,"station_id":"ce4bgg92rcd13ifvqb30","pricing_plan_id":"free"},{"bike_id":"37953e08-1c8a-47a2-8817-8d23d68b1f2f","system_id":"levelo_inurba_marseille","lat":43.305364,"lon":5.384119,"is_reserved":false,"is_disabled":false,"rental_uris":{"android":"levelo://app?vid=37953e08-1c8a-47a2-8817-8d23d68b1f2f","ios":"levelo://app?vid=37953e08-1c8a-47a2-8817-8d23d68b1f2f"},"vehicle_type_id":"4","last_reported":1700417294,"current_range_meters":3200,"station_id":"ce4bgg92rcd13ifvqb30","pricing_plan_id":"free"},{"bike_id":"bd775708-f5d5-4439-9c36-9068cd8a050d","system_id":"levelo_inurba_marseille","lat":43.311722,"lon":5.387247,"is_reserved":false,"is_disabled":false,"rental_uris":{"android":"levelo://app?vid=bd775708-f5d5-4439-9c36-9068cd8a050d","ios":"levelo://app?vid=bd775708-f5d5-4439-9c36-9068cd8a050d"},"vehicle_type_id":"4","last_reported":1700417294,"current_range_meters":8400,"station_id":"ce4bgv12rcd13ifvqcp0","pricing_plan_id":"free"},{"bike_id":"efe1a15b-f6a0-43f7-aad5-0abb385e5506","system_id":"levelo_inurba_marseille","lat":43.297794,"lon":5.370888,"is_reserved":false,"is_disabled":false,"rental_uris":{"android":"levelo://app?vid=efe1a15b-f6a0-43f7-aad5-0abb385e5506","ios":"levelo://app?vid=efe1a15b-f6a0-43f7-aad5-0abb385e5506"},"vehicle_type_id":"4","last_reported":1700417294,"current_range_meters":20400,"station_id":"ce4bgop2rcd13ifvqc1g","pricing_plan_id":"free"},{"bike_id":"6c5d7580-0af2-4711-aac6-b10b4ab61119","system_id":"levelo_inurba_marseille","lat":43.297847,"lon":5.372297,"is_reserved":false,"is_disabled":false,"rental_uris":{"android":"levelo://app?vid=6c5d7580-0af2-4711-aac6-b10b4ab61119","ios":"levelo://app?vid=6c5d7580-0af2-4711-aac6-b10b4ab61119"},"vehicle_type_id":"4","last_reported":1700417294,"current_range_meters":0,"station_id":"","pricing_plan_id":"free"},{"bike_id":"44cc598b-60fc-40d2-b531-971a6e6970cc","system_id":"levelo_inurba_marseille","lat":43.32825,"lon":5.36688,"is_reserved":false,"is_disabled":false,"rental_uris":{"android":"levelo://app?vid=44cc598b-60fc-40d2-b531-971a6e6970cc","ios":"levelo://app?vid=44cc598b-60fc-40d2-b531-971a6e6970cc"},"vehicle_type_id":"4","last_reported":1700417294,"current_range_meters":4000,"station_id":"ce4bhs92rcd13ifvqi0g","pricing_plan_id":"free"},{"bike_id":"e5c30010-bab4-4fba-b633-780bc1a27fa9","system_id":"levelo_inurba_marseille","lat":43.328371,"lon":5.366909,"is_reserved":false,"is_disabled":false,"rental_uris":{"android":"levelo://app?vid=e5c30010-bab4-4fba-b633-780bc1a27fa9","ios":"levelo://app?vid=e5c30010-bab4-4fba-b633-780bc1a27fa9"},"vehicle_type_id":"4","last_reported":1700417294,"current_range_meters":4400,"station_id":"ce4bhs92rcd13ifvqi0g","pricing_plan_id":"free"},{"bike_id":"2a07802c-16d5-4104-9ab3-93ca6dd62601","system_id":"levelo_inurba_marseille","lat":43.29601,"lon":5.368027,"is_reserved":false,"is_disabled":false,"rental_uris":{"android":"levelo://app?vid=2a07802c-16d5-4104-9ab3-93ca6dd62601","ios":"levelo://app?vid=2a07802c-16d5-4104-9ab3-93ca6dd62601"},"vehicle_type_id":"4","last_reported":1700417294,"current_range_meters":25600,"station_id":"","pricing_plan_id":"free"},{"bike_id":"cdfefbe5-443e-4db0-9409-df5d0e7a153a","system_id":"levelo_inurba_marseille","lat":43.296921,"lon":5.376579,"is_reserved":false,"is_disabled":false,"rental_uris":{"android":"levelo://app?vid=cdfefbe5-443e-4db0-9409-df5d0e7a153a","ios":"levelo://app?vid=cdfefbe5-443e-4db0-9409-df5d0e7a153a"},"vehicle_type_id":"4","last_reported":1700417294,"current_range_meters":21200,"station_id":"ce4bgkh2rcd13ifvqbl0","pricing_plan_id":"free"},{"bike_id":"67ffd28a-0325-489b-a10f-d90500122751","system_id":"levelo_inurba_marseille","lat":43.295748,"lon":5.37522,"is_reserved":false,"is_disabled":false,"rental_uris":{"android":"levelo://app?vid=67ffd28a-0325-489b-a10f-d90500122751","ios":"levelo://app?vid=67ffd28a-0325-489b-a10f-d90500122751"},"vehicle_type_id":"4","last_reported":1700417294,"current_range_meters":30000,"station_id":"ce4bgh92rcd13ifvqb50","pricing_plan_id":"free"},{"bike_id":"3e3e92fe-39b7-4933-99ff-3747b28b5d69","system_id":"levelo_inurba_marseille","lat":43.328154,"lon":5.380034,"is_reserved":false,"is_disabled":false,"rental_uris":{"android":"levelo://app?vid=3e3e92fe-39b7-4933-99ff-3747b28b5d69","ios":"levelo://app?vid=3e3e92fe-39b7-4933-99ff-3747b28b5d69"},"vehicle_type_id":"4","last_reported":1700417294,"current_range_meters":5200,"station_id":"","pricing_plan_id":"free"},{"bike_id":"5cd1992f-8f2a-4839-aa8d-3fc76f58c797","system_id":"levelo_inurba_marseille","lat":43.298037,"lon":5.381066,"is_reserved":false,"is_disabled":false,"rental_uris":{"android":"levelo://app?vid=5cd1992f-8f2a-4839-aa8d-3fc76f58c797","ios":"levelo://app?vid=5cd1992f-8f2a-4839-aa8d-3fc76f58c797"},"vehicle_type_id":"4","last_reported":1700417294,"current_range_meters":0,"station_id":"ce4bgip2rcd13ifvqbb0","pricing_plan_id":"free"},{"bike_id":"774acf38-347a-4410-bb9e-edbe8844ed57","system_id":"levelo_inurba_marseille","lat":43.304278,"lon":5.388868,"is_reserved":false,"is_disabled":false,"rental_uris":{"android":"levelo://app?vid=774acf38-347a-4410-bb9e-edbe8844ed57","ios":"levelo://app?vid=774acf38-347a-4410-bb9e-edbe8844ed57"},"vehicle_type_id":"4","last_reported":1700417294,"current_range_meters":13600,"station_id":"ce4bgk12rcd13ifvqbi0","pricing_plan_id":"free"},{"bike_id":"10098763-6743-4233-ba9f-4e5f9fa1031c","system_id":"levelo_inurba_marseille","lat":43.29609,"lon":5.37713,"is_reserved":false,"is_disabled":false,"rental_uris":{"android":"levelo://app?vid=10098763-6743-4233-ba9f-4e5f9fa1031c","ios":"levelo://app?vid=10098763-6743-4233-ba9f-4e5f9fa1031c"},"vehicle_type_id":"4","last_reported":1700417294,"current_range_meters":0,"station_id":"ce4bgi92rcd13ifvqb90","pricing_plan_id":"free"},{"bike_id":"a3b40b8b-16ef-49d4-89d1-621eeeaf4730","system_id":"levelo_inurba_marseille","lat":43.299707,"lon":5.384859,"is_reserved":false,"is_disabled":false,"rental_uris":{"android":"levelo://app?vid=a3b40b8b-16ef-49d4-89d1-621eeeaf4730","ios":"levelo://app?vid=a3b40b8b-16ef-49d4-89d1-621eeeaf4730"},"vehicle_type_id":"4","last_reported":1700417294,"current_range_meters":0,"station_id":"ce4bgj92rcd13ifvqbd0","pricing_plan_id":"free"},{"bike_id":"5cd597ec-3a58-4b91-9f13-e2ef552bf3af","system_id":"levelo_inurba_marseille","lat":43.29982,"lon":5.38503,"is_reserved":false,"is_disabled":false,"rental_uris":{"android":"levelo://app?vid=5cd597ec-3a58-4b91-9f13-e2ef552bf3af","ios":"levelo://app?vid=5cd597ec-3a58-4b91-9f13-e2ef552bf3af"},"vehicle_type_id":"4","last_reported":1700417294,"current_range_meters":5200,"station_id":"","pricing_plan_id":"free"},{"bike_id":"8667dd21-3e0f-4e19-8221-3a6b3454e518","system_id":"levelo_inurba_marseille","lat":43.299724,"lon":5.384848,"is_reserved":false,"is_disabled":false,"rental_uris":{"android":"levelo://app?vid=8667dd21-3e0f-4e19-8221-3a6b3454e518","ios":"levelo://app?vid=8667dd21-3e0f-4e19-8221-3a6b3454e518"},"vehicle_type_id":"4","last_reported":1700417294,"current_range_meters":0,"station_id":"ce4bgj92rcd13ifvqbd0","pricing_plan_id":"free"},{"bike_id":"e145a3f7-00ac-4f8f-bfe5-435bc38ccaf7","system_id":"levelo_inurba_marseille","lat":43.293801,"lon":5.363066,"is_reserved":false,"is_disabled":false,"rental_uris":{"android":"levelo://app?vid=e145a3f7-00ac-4f8f-bfe5-435bc38ccaf7","ios":"levelo://app?vid=e145a3f7-00ac-4f8f-bfe5-435bc38ccaf7"},"vehicle_type_id":"4","last_reported":1700417294,"current_range_meters":22800,"station_id":"","pricing_plan_id":"free"},{"bike_id":"489990f3-8349-455a-830c-7dc558db125e","system_id":"levelo_inurba_marseille","lat":43.32366,"lon":5.38882,"is_reserved":false,"is_disabled":false,"rental_uris":{"android":"levelo://app?vid=489990f3-8349-455a-830c-7dc558db125e","ios":"levelo://app?vid=489990f3-8349-455a-830c-7dc558db125e"},"vehicle_type_id":"4","last_reported":1700417294,"current_range_meters":0,"station_id":"ce4bhqp2rcd13ifvqhog","pricing_plan_id":"free"},{"bike_id":"8057a4b5-a559-412e-aaff-00b6471b97a0","system_id":"levelo_inurba_marseille","lat":43.32367,"lon":5.388836,"is_reserved":false,"is_disabled":false,"rental_uris":{"android":"levelo://app?vid=8057a4b5-a559-412e-aaff-00b6471b97a0","ios":"levelo://app?vid=8057a4b5-a559-412e-aaff-00b6471b97a0"},"vehicle_type_id":"4","last_reported":1700417294,"current_range_meters":6400,"station_id":"ce4bhqp2rcd13ifvqhog","pricing_plan_id":"free"},{"bike_id":"4eef38cc-64cf-4f4d-8d5b-99bd9d3b1b37","system_id":"levelo_inurba_marseille","lat":43.29316,"lon":5.37121,"is_reserved":false,"is_disabled":false,"rental_uris":{"android":"levelo://app?vid=4eef38cc-64cf-4f4d-8d5b-99bd9d3b1b37","ios":"levelo://app?vid=4eef38cc-64cf-4f4d-8d5b-99bd9d3b1b37"},"vehicle_type_id":"4","last_reported":1700417294,"current_range_meters":23600,"station_id":"ce4bgh92rcd13ifvqb40","pricing_plan_id":"free"},{"bike_id":"5799a9d6-a442-4601-aa83-e692396a2b31","system_id":"levelo_inurba_marseille","lat":43.292749,"lon":5.368402,"is_reserved":false,"is_disabled":false,"rental_uris":{"android":"levelo://app?vid=5799a9d6-a442-4601-aa83-e692396a2b31","ios":"levelo://app?vid=5799a9d6-a442-4601-aa83-e692396a2b31"},"vehicle_type_id":"4","last_reported":1700417294,"current_range_meters":22000,"station_id":"ce4bhbp2rcd13ifvqesg","pricing_plan_id":"free"},{"bike_id":"fe42f263-f6d3-479a-9e33-4c4c765988b6","system_id":"levelo_inurba_marseille","lat":43.302992,"lon":5.392136,"is_reserved":false,"is_disabled":false,"rental_uris":{"android":"levelo://app?vid=fe42f263-f6d3-479a-9e33-4c4c765988b6","ios":"levelo://app?vid=fe42f263-f6d3-479a-9e33-4c4c765988b6"},"vehicle_type_id":"4","last_reported":1700417294,"current_range_meters":0,"station_id":"ce4bgkh2rcd13ifvqbk0","pricing_plan_id":"free"},{"bike_id":"99232910-37a3-469f-b75b-5ef5e91cf7c4","system_id":"levelo_inurba_marseille","lat":43.30305,"lon":5.39209,"is_reserved":false,"is_disabled":false,"rental_uris":{"android":"levelo://app?vid=99232910-37a3-469f-b75b-5ef5e91cf7c4","ios":"levelo://app?vid=99232910-37a3-469f-b75b-5ef5e91cf7c4"},"vehicle_type_id":"4","last_reported":1700417294,"current_range_meters":0,"station_id":"ce4bgkh2rcd13ifvqbk0","pricing_plan_id":"free"},{"bike_id":"125ea649-974b-4cee-94bd-dbe6d8d2e1e8","system_id":"levelo_inurba_marseille","lat":43.2936,"lon":5.37835,"is_reserved":false,"is_disabled":false,"rental_uris":{"android":"levelo://app?vid=125ea649-974b-4cee-94bd-dbe6d8d2e1e8","ios":"levelo://app?vid=125ea649-974b-4cee-94bd-dbe6d8d2e1e8"},"vehicle_type_id":"4","last_reported":1700417294,"current_range_meters":26800,"station_id":"ce4bgjh2rcd13ifvqbf0","pricing_plan_id":"free"},{"bike_id":"b5db1d87-d3fe-4f27-aaab-2968228e84c0","system_id":"levelo_inurba_marseille","lat":43.298764,"lon":5.388973,"is_reserved":false,"is_disabled":false,"rental_uris":{"android":"levelo://app?vid=b5db1d87-d3fe-4f27-aaab-2968228e84c0","ios":"levelo://app?vid=b5db1d87-d3fe-4f27-aaab-2968228e84c0"},"vehicle_type_id":"4","last_reported":1700417294,"current_range_meters":3600,"station_id":"ce4bh392rcd13ifvqdl0","pricing_plan_id":"free"},{"bike_id":"a951fa6f-93a0-4f13-af08-6a33792ed0e1","system_id":"levelo_inurba_marseille","lat":43.3133,"lon":5.39688,"is_reserved":false,"is_disabled":false,"rental_uris":{"android":"levelo://app?vid=a951fa6f-93a0-4f13-af08-6a33792ed0e1","ios":"levelo://app?vid=a951fa6f-93a0-4f13-af08-6a33792ed0e1"},"vehicle_type_id":"4","last_reported":1700417294,"current_range_meters":5200,"station_id":"ce4bgvp2rcd13ifvqcu0","pricing_plan_id":"free"},{"bike_id":"b6ff24c0-2a13-44a7-af34-ee87a9d6f2d3","system_id":"levelo_inurba_marseille","lat":43.31334,"lon":5.39693,"is_reserved":false,"is_disabled":false,"rental_uris":{"android":"levelo://app?vid=b6ff24c0-2a13-44a7-af34-ee87a9d6f2d3","ios":"levelo://app?vid=b6ff24c0-2a13-44a7-af34-ee87a9d6f2d3"},"vehicle_type_id":"4","last_reported":1700417294,"current_range_meters":1600,"station_id":"ce4bgvp2rcd13ifvqcu0","pricing_plan_id":"free"},{"bike_id":"889d7ec5-d5b9-44b7-b03c-b402bb4c7c4e","system_id":"levelo_inurba_marseille","lat":43.31325,"lon":5.39696,"is_reserved":false,"is_disabled":false,"rental_uris":{"android":"levelo://app?vid=889d7ec5-d5b9-44b7-b03c-b402bb4c7c4e","ios":"levelo://app?vid=889d7ec5-d5b9-44b7-b03c-b402bb4c7c4e"},"vehicle_type_id":"4","last_reported":1700417294,"current_range_meters":10400,"station_id":"ce4bgvp2rcd13ifvqcu0","pricing_plan_id":"free"},{"bike_id":"98d6b48b-4b6a-4f15-bd62-92511ff67d4e","system_id":"levelo_inurba_marseille","lat":43.31326,"lon":5.39697,"is_reserved":false,"is_disabled":false,"rental_uris":{"android":"levelo://app?vid=98d6b48b-4b6a-4f15-bd62-92511ff67d4e","ios":"levelo://app?vid=98d6b48b-4b6a-4f15-bd62-92511ff67d4e"},"vehicle_type_id":"4","last_reported":1700417294,"current_range_meters":3600,"station_id":"ce4bgvp2rcd13ifvqcu0","pricing_plan_id":"free"},{"bike_id":"990296b3-39f3-4f26-913e-6169b905901d","system_id":"levelo_inurba_marseille","lat":43.313291,"lon":5.396838,"is_reserved":false,"is_disabled":false,"rental_uris":{"android":"levelo://app?vid=990296b3-39f3-4f26-913e-6169b905901d","ios":"levelo://app?vid=990296b3-39f3-4f26-913e-6169b905901d"},"vehicle_type_id":"4","last_reported":1700417294,"current_range_meters":19200,"station_id":"ce4bgvp2rcd13ifvqcu0","pricing_plan_id":"free"},{"bike_id":"9851e74a-bc2f-4d5c-99ae-af1e04e8dbc6","system_id":"levelo_inurba_marseille","lat":43.302008,"lon":5.394694,"is_reserved":false,"is_disabled":false,"rental_uris":{"android":"levelo://app?vid=9851e74a-bc2f-4d5c-99ae-af1e04e8dbc6","ios":"levelo://app?vid=9851e74a-bc2f-4d5c-99ae-af1e04e8dbc6"},"vehicle_type_id":"4","last_reported":1700417294,"current_range_meters":6000,"station_id":"ce4bh0p2rcd13ifvqd70","pricing_plan_id":"free"},{"bike_id":"69e22cd2-7d50-4819-9871-454089378520","system_id":"levelo_inurba_marseille","lat":43.302008,"lon":5.394694,"is_reserved":false,"is_disabled":false,"rental_uris":{"android":"levelo://app?vid=69e22cd2-7d50-4819-9871-454089378520","ios":"levelo://app?vid=69e22cd2-7d50-4819-9871-454089378520"},"vehicle_type_id":"4","last_reported":1700417294,"current_range_meters":2400,"station_id":"ce4bh0p2rcd13ifvqd70","pricing_plan_id":"free"},{"bike_id":"877855e9-e3d7-48bb-873d-c6cb5dc88fdc","system_id":"levelo_inurba_marseille","lat":43.302107,"lon":5.394693,"is_reserved":false,"is_disabled":false,"rental_uris":{"android":"levelo://app?vid=877855e9-e3d7-48bb-873d-c6cb5dc88fdc","ios":"levelo://app?vid=877855e9-e3d7-48bb-873d-c6cb5dc88fdc"},"vehicle_type_id":"4","last_reported":1700417294,"current_range_meters":2000,"station_id":"ce4bh0p2rcd13ifvqd70","pricing_plan_id":"free"},{"bike_id":"cac8c042-5f93-4410-8418-f2fc34aa84a3","system_id":"levelo_inurba_marseille","lat":43.290624,"lon":5.359245,"is_reserved":false,"is_disabled":false,"rental_uris":{"android":"levelo://app?vid=cac8c042-5f93-4410-8418-f2fc34aa84a3","ios":"levelo://app?vid=cac8c042-5f93-4410-8418-f2fc34aa84a3"},"vehicle_type_id":"4","last_reported":1700417294,"current_range_meters":0,"station_id":"ce4bha92rcd13ifvqeg0","pricing_plan_id":"free"},{"bike_id":"afeb0962-39bd-4b2c-89c7-72974ef78b81","system_id":"levelo_inurba_marseille","lat":43.290327,"lon":5.375711,"is_reserved":false,"is_disabled":false,"rental_uris":{"android":"levelo://app?vid=afeb0962-39bd-4b2c-89c7-72974ef78b81","ios":"levelo://app?vid=afeb0962-39bd-4b2c-89c7-72974ef78b81"},"vehicle_type_id":"4","last_reported":1700417294,"current_range_meters":7600,"station_id":"ce4bh692rcd13ifvqe90","pricing_plan_id":"free"},{"bike_id":"31b27753-e928-4f26-8dc9-f87a851ee624","system_id":"levelo_inurba_marseille","lat":43.29056,"lon":5.377515,"is_reserved":false,"is_disabled":false,"rental_uris":{"android":"levelo://app?vid=31b27753-e928-4f26-8dc9-f87a851ee624","ios":"levelo://app?vid=31b27753-e928-4f26-8dc9-f87a851ee624"},"vehicle_type_id":"4","last_reported":1700417294,"current_range_meters":0,"station_id":"","pricing_plan_id":"free"},{"bike_id":"091f30e1-5354-4816-84e3-4c5308a261e7","system_id":"levelo_inurba_marseille","lat":43.292642,"lon":5.384254,"is_reserved":false,"is_disabled":false,"rental_uris":{"android":"levelo://app?vid=091f30e1-5354-4816-84e3-4c5308a261e7","ios":"levelo://app?vid=091f30e1-5354-4816-84e3-4c5308a261e7"},"vehicle_type_id":"4","last_reported":1700417294,"current_range_meters":21200,"station_id":"ce4bh692rcd13ifvqea0","pricing_plan_id":"free"},{"bike_id":"24113cd2-dbd3-400b-b05f-c551588ccff2","system_id":"levelo_inurba_marseille","lat":43.292642,"lon":5.384254,"is_reserved":false,"is_disabled":false,"rental_uris":{"android":"levelo://app?vid=24113cd2-dbd3-400b-b05f-c551588ccff2","ios":"levelo://app?vid=24113cd2-dbd3-400b-b05f-c551588ccff2"},"vehicle_type_id":"4","last_reported":1700417294,"current_range_meters":18800,"station_id":"ce4bh692rcd13ifvqea0","pricing_plan_id":"free"},{"bike_id":"1444a987-ef97-4496-a4b7-34aa88031bef","system_id":"levelo_inurba_marseille","lat":43.2901,"lon":5.381269,"is_reserved":false,"is_disabled":false,"rental_uris":{"android":"levelo://app?vid=1444a987-ef97-4496-a4b7-34aa88031bef","ios":"levelo://app?vid=1444a987-ef97-4496-a4b7-34aa88031bef"},"vehicle_type_id":"4","last_reported":1700417294,"current_range_meters":26800,"station_id":"ce4bh4p2rcd13ifvqe1g","pricing_plan_id":"free"},{"bike_id":"79734513-9a3c-45d5-afae-9ce10c030c8b","system_id":"levelo_inurba_marseille","lat":43.29027,"lon":5.38137,"is_reserved":false,"is_disabled":false,"rental_uris":{"android":"levelo://app?vid=79734513-9a3c-45d5-afae-9ce10c030c8b","ios":"levelo://app?vid=79734513-9a3c-45d5-afae-9ce10c030c8b"},"vehicle_type_id":"4","last_reported":1700417294,"current_range_meters":0,"station_id":"ce4bh4p2rcd13ifvqe1g","pricing_plan_id":"free"},{"bike_id":"68c04127-2b68-4c26-83b1-2df95f3bebc0","system_id":"levelo_inurba_marseille","lat":43.28856,"lon":5.358371,"is_reserved":false,"is_disabled":false,"rental_uris":{"android":"levelo://app?vid=68c04127-2b68-4c26-83b1-2df95f3bebc0","ios":"levelo://app?vid=68c04127-2b68-4c26-83b1-2df95f3bebc0"},"vehicle_type_id":"4","last_reported":1700417294,"current_range_meters":25200,"station_id":"ce4bhb12rcd13ifvqem0","pricing_plan_id":"free"},{"bike_id":"c4e791c5-7454-412e-9b5b-b7c006fa49aa","system_id":"levelo_inurba_marseille","lat":43.28856,"lon":5.358371,"is_reserved":false,"is_disabled":false,"rental_uris":{"android":"levelo://app?vid=c4e791c5-7454-412e-9b5b-b7c006fa49aa","ios":"levelo://app?vid=c4e791c5-7454-412e-9b5b-b7c006fa49aa"},"vehicle_type_id":"4","last_reported":1700417294,"current_range_meters":1600,"station_id":"ce4bhb12rcd13ifvqem0","pricing_plan_id":"free"},{"bike_id":"07202f70-50d7-46f0-a5bd-59712659d6a0","system_id":"levelo_inurba_marseille","lat":43.31251,"lon":5.40162,"is_reserved":false,"is_disabled":false,"rental_uris":{"android":"levelo://app?vid=07202f70-50d7-46f0-a5bd-59712659d6a0","ios":"levelo://app?vid=07202f70-50d7-46f0-a5bd-59712659d6a0"},"vehicle_type_id":"4","last_reported":1700417294,"current_range_meters":10000,"station_id":"","pricing_plan_id":"free"},{"bike_id":"1168b568-6366-4ada-8e40-45c41ec28947","system_id":"levelo_inurba_marseille","lat":43.30926,"lon":5.40142,"is_reserved":false,"is_disabled":false,"rental_uris":{"android":"levelo://app?vid=1168b568-6366-4ada-8e40-45c41ec28947","ios":"levelo://app?vid=1168b568-6366-4ada-8e40-45c41ec28947"},"vehicle_type_id":"4","last_reported":1700417294,"current_range_meters":30000,"station_id":"ce4bgvp2rcd13ifvqct0","pricing_plan_id":"free"},{"bike_id":"7dcb580d-b824-4737-9d34-fd241ab5d475","system_id":"levelo_inurba_marseille","lat":43.306412,"lon":5.401035,"is_reserved":false,"is_disabled":false,"rental_uris":{"android":"levelo://app?vid=7dcb580d-b824-4737-9d34-fd241ab5d475","ios":"levelo://app?vid=7dcb580d-b824-4737-9d34-fd241ab5d475"},"vehicle_type_id":"4","last_reported":1700417294,"current_range_meters":4400,"station_id":"ce4bh112rcd13ifvqda0","pricing_plan_id":"free"},{"bike_id":"48f36f13-3a3a-463c-82ec-0b0600a323f4","system_id":"levelo_inurba_marseille","lat":43.33744,"lon":5.37472,"is_reserved":false,"is_disabled":false,"rental_uris":{"android":"levelo://app?vid=48f36f13-3a3a-463c-82ec-0b0600a323f4","ios":"levelo://app?vid=48f36f13-3a3a-463c-82ec-0b0600a323f4"},"vehicle_type_id":"4","last_reported":1700417294,"current_range_meters":22800,"station_id":"","pricing_plan_id":"free"},{"bike_id":"7c829e26-8fe6-4a79-9737-59697f306dbe","system_id":"levelo_inurba_marseille","lat":43.30932,"lon":5.40148,"is_reserved":false,"is_disabled":false,"rental_uris":{"android":"levelo://app?vid=7c829e26-8fe6-4a79-9737-59697f306dbe","ios":"levelo://app?vid=7c829e26-8fe6-4a79-9737-59697f306dbe"},"vehicle_type_id":"4","last_reported":1700417294,"current_range_meters":400,"station_id":"ce4bgvp2rcd13ifvqct0","pricing_plan_id":"free"},{"bike_id":"46509513-12f0-4bae-91ab-3b5bb7ed22cf","system_id":"levelo_inurba_marseille","lat":43.337719,"lon":5.374277,"is_reserved":false,"is_disabled":false,"rental_uris":{"android":"levelo://app?vid=46509513-12f0-4bae-91ab-3b5bb7ed22cf","ios":"levelo://app?vid=46509513-12f0-4bae-91ab-3b5bb7ed22cf"},"vehicle_type_id":"4","last_reported":1700417294,"current_range_meters":18400,"station_id":"","pricing_plan_id":"free"},{"bike_id":"7c3f33ec-7ee0-404f-ae9c-2f0ae21ed26e","system_id":"levelo_inurba_marseille","lat":43.30642,"lon":5.401031,"is_reserved":false,"is_disabled":false,"rental_uris":{"android":"levelo://app?vid=7c3f33ec-7ee0-404f-ae9c-2f0ae21ed26e","ios":"levelo://app?vid=7c3f33ec-7ee0-404f-ae9c-2f0ae21ed26e"},"vehicle_type_id":"4","last_reported":1700417294,"current_range_meters":28000,"station_id":"ce4bh112rcd13ifvqda0","pricing_plan_id":"free"},{"bike_id":"473d2011-ae75-4743-87c2-eb53e5b85a28","system_id":"levelo_inurba_marseille","lat":43.337811,"lon":5.374246,"is_reserved":false,"is_disabled":false,"rental_uris":{"android":"levelo://app?vid=473d2011-ae75-4743-87c2-eb53e5b85a28","ios":"levelo://app?vid=473d2011-ae75-4743-87c2-eb53e5b85a28"},"vehicle_type_id":"4","last_reported":1700417294,"current_range_meters":20400,"station_id":"","pricing_plan_id":"free"},{"bike_id":"fc915100-6985-4bb8-bafa-62bd363dffe4","system_id":"levelo_inurba_marseille","lat":43.28727,"lon":5.36078,"is_reserved":false,"is_disabled":false,"rental_uris":{"android":"levelo://app?vid=fc915100-6985-4bb8-bafa-62bd363dffe4","ios":"levelo://app?vid=fc915100-6985-4bb8-bafa-62bd363dffe4"},"vehicle_type_id":"4","last_reported":1700417294,"current_range_meters":28400,"station_id":"cki0cbj6b192h4jlfktg","pricing_plan_id":"free"},{"bike_id":"668a58be-3b97-49b0-8ecb-a2d5b16ce93b","system_id":"levelo_inurba_marseille","lat":43.286591,"lon":5.363346,"is_reserved":false,"is_disabled":false,"rental_uris":{"android":"levelo://app?vid=668a58be-3b97-49b0-8ecb-a2d5b16ce93b","ios":"levelo://app?vid=668a58be-3b97-49b0-8ecb-a2d5b16ce93b"},"vehicle_type_id":"4","last_reported":1700417294,"current_range_meters":27600,"station_id":"ce4bhah2rcd13ifvqej0","pricing_plan_id":"free"},{"bike_id":"4e0f57cf-230f-490e-9506-f4f599a3a68d","system_id":"levelo_inurba_marseille","lat":43.295194,"lon":5.39397,"is_reserved":false,"is_disabled":false,"rental_uris":{"android":"levelo://app?vid=4e0f57cf-230f-490e-9506-f4f599a3a68d","ios":"levelo://app?vid=4e0f57cf-230f-490e-9506-f4f599a3a68d"},"vehicle_type_id":"4","last_reported":1700417294,"current_range_meters":25600,"station_id":"ce4bh292rcd13ifvqdf0","pricing_plan_id":"free"},{"bike_id":"ce999d21-1755-411e-b89b-4bafb573c53b","system_id":"levelo_inurba_marseille","lat":43.29036,"lon":5.38644,"is_reserved":false,"is_disabled":false,"rental_uris":{"android":"levelo://app?vid=ce999d21-1755-411e-b89b-4bafb573c53b","ios":"levelo://app?vid=ce999d21-1755-411e-b89b-4bafb573c53b"},"vehicle_type_id":"4","last_reported":1700417294,"current_range_meters":11600,"station_id":"ce4bh4p2rcd13ifvqe0g","pricing_plan_id":"free"},{"bike_id":"3aec5328-f655-4fdd-9ee9-5ac4b7358e56","system_id":"levelo_inurba_marseille","lat":43.289285,"lon":5.38391,"is_reserved":false,"is_disabled":false,"rental_uris":{"android":"levelo://app?vid=3aec5328-f655-4fdd-9ee9-5ac4b7358e56","ios":"levelo://app?vid=3aec5328-f655-4fdd-9ee9-5ac4b7358e56"},"vehicle_type_id":"4","last_reported":1700417294,"current_range_meters":24000,"station_id":"ce4bh612rcd13ifvqe6g","pricing_plan_id":"free"},{"bike_id":"957ebeb6-d3b4-4e32-81b4-d646b2f47150","system_id":"levelo_inurba_marseille","lat":43.29027,"lon":5.38642,"is_reserved":false,"is_disabled":false,"rental_uris":{"android":"levelo://app?vid=957ebeb6-d3b4-4e32-81b4-d646b2f47150","ios":"levelo://app?vid=957ebeb6-d3b4-4e32-81b4-d646b2f47150"},"vehicle_type_id":"4","last_reported":1700417294,"current_range_meters":16000,"station_id":"ce4bh4p2rcd13ifvqe0g","pricing_plan_id":"free"},{"bike_id":"6327a74e-3737-4e6f-974c-9a9284067788","system_id":"levelo_inurba_marseille","lat":43.287185,"lon":5.379373,"is_reserved":false,"is_disabled":false,"rental_uris":{"android":"levelo://app?vid=6327a74e-3737-4e6f-974c-9a9284067788","ios":"levelo://app?vid=6327a74e-3737-4e6f-974c-9a9284067788"},"vehicle_type_id":"4","last_reported":1700417294,"current_range_meters":8000,"station_id":"ce4bh9p2rcd13ifvqec0","pricing_plan_id":"free"},{"bike_id":"ff9fa543-3d9b-4ab4-abc7-a21a66dfe448","system_id":"levelo_inurba_marseille","lat":43.294314,"lon":5.397498,"is_reserved":false,"is_disabled":false,"rental_uris":{"android":"levelo://app?vid=ff9fa543-3d9b-4ab4-abc7-a21a66dfe448","ios":"levelo://app?vid=ff9fa543-3d9b-4ab4-abc7-a21a66dfe448"},"vehicle_type_id":"4","last_reported":1700417294,"current_range_meters":28800,"station_id":"ce4bh3h2rcd13ifvqdo0","pricing_plan_id":"free"},{"bike_id":"cc8e82c6-cdda-4262-bfa2-e80527e78329","system_id":"levelo_inurba_marseille","lat":43.28615,"lon":5.351,"is_reserved":false,"is_disabled":false,"rental_uris":{"android":"levelo://app?vid=cc8e82c6-cdda-4262-bfa2-e80527e78329","ios":"levelo://app?vid=cc8e82c6-cdda-4262-bfa2-e80527e78329"},"vehicle_type_id":"4","last_reported":1700417294,"current_range_meters":31200,"station_id":"ce4bhch2rcd13ifvqeug","pricing_plan_id":"free"},{"bike_id":"4bc705ee-b031-4ecc-8b1f-fc07067b5e18","system_id":"levelo_inurba_marseille","lat":43.294314,"lon":5.397498,"is_reserved":false,"is_disabled":false,"rental_uris":{"android":"levelo://app?vid=4bc705ee-b031-4ecc-8b1f-fc07067b5e18","ios":"levelo://app?vid=4bc705ee-b031-4ecc-8b1f-fc07067b5e18"},"vehicle_type_id":"4","last_reported":1700417294,"current_range_meters":2000,"station_id":"ce4bh3h2rcd13ifvqdo0","pricing_plan_id":"free"},{"bike_id":"5f153f02-c4c9-456b-aa48-aeca587f3139","system_id":"levelo_inurba_marseille","lat":43.28464,"lon":5.37849,"is_reserved":false,"is_disabled":false,"rental_uris":{"android":"levelo://app?vid=5f153f02-c4c9-456b-aa48-aeca587f3139","ios":"levelo://app?vid=5f153f02-c4c9-456b-aa48-aeca587f3139"},"vehicle_type_id":"4","last_reported":1700417294,"current_range_meters":6800,"station_id":"","pricing_plan_id":"free"},{"bike_id":"212854bb-4836-4e0c-b31e-6215ccf03d73","system_id":"levelo_inurba_marseille","lat":43.283998,"lon":5.375062,"is_reserved":false,"is_disabled":false,"rental_uris":{"android":"levelo://app?vid=212854bb-4836-4e0c-b31e-6215ccf03d73","ios":"levelo://app?vid=212854bb-4836-4e0c-b31e-6215ccf03d73"},"vehicle_type_id":"4","last_reported":1700417294,"current_range_meters":26000,"station_id":"ce4bh412rcd13ifvqds0","pricing_plan_id":"free"},{"bike_id":"5974ad3b-da81-42ca-a08b-1b3632a47afa","system_id":"levelo_inurba_marseille","lat":43.33237,"lon":5.3985,"is_reserved":false,"is_disabled":false,"rental_uris":{"android":"levelo://app?vid=5974ad3b-da81-42ca-a08b-1b3632a47afa","ios":"levelo://app?vid=5974ad3b-da81-42ca-a08b-1b3632a47afa"},"vehicle_type_id":"4","last_reported":1700417294,"current_range_meters":800,"station_id":"","pricing_plan_id":"free"},{"bike_id":"c8815ca1-85b8-4297-b7c2-978e5c43a3d1","system_id":"levelo_inurba_marseille","lat":43.33717,"lon":5.391857,"is_reserved":false,"is_disabled":false,"rental_uris":{"android":"levelo://app?vid=c8815ca1-85b8-4297-b7c2-978e5c43a3d1","ios":"levelo://app?vid=c8815ca1-85b8-4297-b7c2-978e5c43a3d1"},"vehicle_type_id":"4","last_reported":1700417294,"current_range_meters":21200,"station_id":"ce4bhr92rcd13ifvqhsg","pricing_plan_id":"free"},{"bike_id":"87a78bd4-0737-4f62-8a78-dd03a90224ff","system_id":"levelo_inurba_marseille","lat":43.28481,"lon":5.38425,"is_reserved":false,"is_disabled":false,"rental_uris":{"android":"levelo://app?vid=87a78bd4-0737-4f62-8a78-dd03a90224ff","ios":"levelo://app?vid=87a78bd4-0737-4f62-8a78-dd03a90224ff"},"vehicle_type_id":"4","last_reported":1700417294,"current_range_meters":12400,"station_id":"ce4bh512rcd13ifvqe3g","pricing_plan_id":"free"},{"bike_id":"342ca8c2-4c61-475f-98f5-2cf45d4d122a","system_id":"levelo_inurba_marseille","lat":43.284793,"lon":5.384119,"is_reserved":false,"is_disabled":false,"rental_uris":{"android":"levelo://app?vid=342ca8c2-4c61-475f-98f5-2cf45d4d122a","ios":"levelo://app?vid=342ca8c2-4c61-475f-98f5-2cf45d4d122a"},"vehicle_type_id":"4","last_reported":1700417294,"current_range_meters":0,"station_id":"ce4bh512rcd13ifvqe3g","pricing_plan_id":"free"},{"bike_id":"0ff0f3f9-d7df-4c4c-9f5f-ff5f6ea46352","system_id":"levelo_inurba_marseille","lat":43.282754,"lon":5.350519,"is_reserved":false,"is_disabled":false,"rental_uris":{"android":"levelo://app?vid=0ff0f3f9-d7df-4c4c-9f5f-ff5f6ea46352","ios":"levelo://app?vid=0ff0f3f9-d7df-4c4c-9f5f-ff5f6ea46352"},"vehicle_type_id":"4","last_reported":1700417294,"current_range_meters":0,"station_id":"ce4bhbp2rcd13ifvqerg","pricing_plan_id":"free"},{"bike_id":"2bb43df1-dccc-4b5e-a8ed-c0af072a8834","system_id":"levelo_inurba_marseille","lat":43.282744,"lon":5.350533,"is_reserved":false,"is_disabled":false,"rental_uris":{"android":"levelo://app?vid=2bb43df1-dccc-4b5e-a8ed-c0af072a8834","ios":"levelo://app?vid=2bb43df1-dccc-4b5e-a8ed-c0af072a8834"},"vehicle_type_id":"4","last_reported":1700417294,"current_range_meters":31200,"station_id":"ce4bhbp2rcd13ifvqerg","pricing_plan_id":"free"},{"bike_id":"bccc62b8-e98f-454a-bbf4-18cff92f4c4a","system_id":"levelo_inurba_marseille","lat":43.28093,"lon":5.37839,"is_reserved":false,"is_disabled":false,"rental_uris":{"android":"levelo://app?vid=bccc62b8-e98f-454a-bbf4-18cff92f4c4a","ios":"levelo://app?vid=bccc62b8-e98f-454a-bbf4-18cff92f4c4a"},"vehicle_type_id":"4","last_reported":1700417294,"current_range_meters":0,"station_id":"ce4bha12rcd13ifvqee0","pricing_plan_id":"free"},{"bike_id":"ccf9b17e-2fb6-47d5-b5cb-73ea08fcb6e5","system_id":"levelo_inurba_marseille","lat":43.28575,"lon":5.39498,"is_reserved":false,"is_disabled":false,"rental_uris":{"android":"levelo://app?vid=ccf9b17e-2fb6-47d5-b5cb-73ea08fcb6e5","ios":"levelo://app?vid=ccf9b17e-2fb6-47d5-b5cb-73ea08fcb6e5"},"vehicle_type_id":"4","last_reported":1700417294,"current_range_meters":0,"station_id":"ce4bh292rcd13ifvqdg0","pricing_plan_id":"free"},{"bike_id":"e5e47c1b-28cd-4f21-b8a3-4ae0c7190b5c","system_id":"levelo_inurba_marseille","lat":43.304174,"lon":5.412846,"is_reserved":false,"is_disabled":false,"rental_uris":{"android":"levelo://app?vid=e5e47c1b-28cd-4f21-b8a3-4ae0c7190b5c","ios":"levelo://app?vid=e5e47c1b-28cd-4f21-b8a3-4ae0c7190b5c"},"vehicle_type_id":"4","last_reported":1700417294,"current_range_meters":17200,"station_id":"ce4bhop2rcd13ifvqh8g","pricing_plan_id":"free"},{"bike_id":"a73e4f69-14a5-4eea-833c-0b5ca431ae90","system_id":"levelo_inurba_marseille","lat":43.304188,"lon":5.412904,"is_reserved":false,"is_disabled":false,"rental_uris":{"android":"levelo://app?vid=a73e4f69-14a5-4eea-833c-0b5ca431ae90","ios":"levelo://app?vid=a73e4f69-14a5-4eea-833c-0b5ca431ae90"},"vehicle_type_id":"4","last_reported":1700417294,"current_range_meters":20800,"station_id":"ce4bhop2rcd13ifvqh8g","pricing_plan_id":"free"},{"bike_id":"5d9d48ea-daba-4f97-9219-33a746cb030b","system_id":"levelo_inurba_marseille","lat":43.30413,"lon":5.41289,"is_reserved":false,"is_disabled":false,"rental_uris":{"android":"levelo://app?vid=5d9d48ea-daba-4f97-9219-33a746cb030b","ios":"levelo://app?vid=5d9d48ea-daba-4f97-9219-33a746cb030b"},"vehicle_type_id":"4","last_reported":1700417294,"current_range_meters":2800,"station_id":"ce4bhop2rcd13ifvqh8g","pricing_plan_id":"free"},{"bike_id":"269da346-5ab7-4474-88f7-8f8fd55b9b33","system_id":"levelo_inurba_marseille","lat":43.287154,"lon":5.399979,"is_reserved":false,"is_disabled":false,"rental_uris":{"android":"levelo://app?vid=269da346-5ab7-4474-88f7-8f8fd55b9b33","ios":"levelo://app?vid=269da346-5ab7-4474-88f7-8f8fd55b9b33"},"vehicle_type_id":"4","last_reported":1700417294,"current_range_meters":0,"station_id":"ce4bho92rcd13ifvqh3g","pricing_plan_id":"free"},{"bike_id":"acdfd446-c693-479c-83c7-fc22b823d97d","system_id":"levelo_inurba_marseille","lat":43.320045,"lon":5.415046,"is_reserved":false,"is_disabled":false,"rental_uris":{"android":"levelo://app?vid=acdfd446-c693-479c-83c7-fc22b823d97d","ios":"levelo://app?vid=acdfd446-c693-479c-83c7-fc22b823d97d"},"vehicle_type_id":"4","last_reported":1700417294,"current_range_meters":13600,"station_id":"ce4bhq92rcd13ifvqhkg","pricing_plan_id":"free"},{"bike_id":"66c2a9f4-d670-4ff9-94d8-5b8f8b3c2c7d","system_id":"levelo_inurba_marseille","lat":43.29259,"lon":5.40915,"is_reserved":false,"is_disabled":false,"rental_uris":{"android":"levelo://app?vid=66c2a9f4-d670-4ff9-94d8-5b8f8b3c2c7d","ios":"levelo://app?vid=66c2a9f4-d670-4ff9-94d8-5b8f8b3c2c7d"},"vehicle_type_id":"4","last_reported":1700417294,"current_range_meters":400,"station_id":"ce4bh192rcd13ifvqdc0","pricing_plan_id":"free"},{"bike_id":"8c69b603-8a22-457a-9c65-5ead6ab43d89","system_id":"levelo_inurba_marseille","lat":43.280784,"lon":5.396622,"is_reserved":false,"is_disabled":false,"rental_uris":{"android":"levelo://app?vid=8c69b603-8a22-457a-9c65-5ead6ab43d89","ios":"levelo://app?vid=8c69b603-8a22-457a-9c65-5ead6ab43d89"},"vehicle_type_id":"4","last_reported":1700417294,"current_range_meters":12000,"station_id":"ce4bho12rcd13ifvqh2g","pricing_plan_id":"free"},{"bike_id":"d4b4098b-3108-4693-bbcc-ac1187aecdac","system_id":"levelo_inurba_marseille","lat":43.280784,"lon":5.396622,"is_reserved":false,"is_disabled":false,"rental_uris":{"android":"levelo://app?vid=d4b4098b-3108-4693-bbcc-ac1187aecdac","ios":"levelo://app?vid=d4b4098b-3108-4693-bbcc-ac1187aecdac"},"vehicle_type_id":"4","last_reported":1700417294,"current_range_meters":0,"station_id":"ce4bho12rcd13ifvqh2g","pricing_plan_id":"free"},{"bike_id":"f8f5677d-f8b2-4ddb-837f-25c547c244b9","system_id":"levelo_inurba_marseille","lat":43.280784,"lon":5.396622,"is_reserved":false,"is_disabled":false,"rental_uris":{"android":"levelo://app?vid=f8f5677d-f8b2-4ddb-837f-25c547c244b9","ios":"levelo://app?vid=f8f5677d-f8b2-4ddb-837f-25c547c244b9"},"vehicle_type_id":"4","last_reported":1700417294,"current_range_meters":29200,"station_id":"ce4bho12rcd13ifvqh2g","pricing_plan_id":"free"},{"bike_id":"703abe7d-9d17-45f5-8618-d9c89868615b","system_id":"levelo_inurba_marseille","lat":43.278401,"lon":5.392152,"is_reserved":false,"is_disabled":false,"rental_uris":{"android":"levelo://app?vid=703abe7d-9d17-45f5-8618-d9c89868615b","ios":"levelo://app?vid=703abe7d-9d17-45f5-8618-d9c89868615b"},"vehicle_type_id":"4","last_reported":1700417294,"current_range_meters":20000,"station_id":"ce4bhjp2rcd13ifvqga0","pricing_plan_id":"free"},{"bike_id":"8f64ab4c-e41b-42bc-8b04-fd401c60b361","system_id":"levelo_inurba_marseille","lat":43.279952,"lon":5.400085,"is_reserved":false,"is_disabled":false,"rental_uris":{"android":"levelo://app?vid=8f64ab4c-e41b-42bc-8b04-fd401c60b361","ios":"levelo://app?vid=8f64ab4c-e41b-42bc-8b04-fd401c60b361"},"vehicle_type_id":"4","last_reported":1700417294,"current_range_meters":22800,"station_id":"ce4bho92rcd13ifvqh4g","pricing_plan_id":"free"},{"bike_id":"4af864ad-13ab-43ec-a845-17c4cf0e589c","system_id":"levelo_inurba_marseille","lat":43.279952,"lon":5.400085,"is_reserved":false,"is_disabled":false,"rental_uris":{"android":"levelo://app?vid=4af864ad-13ab-43ec-a845-17c4cf0e589c","ios":"levelo://app?vid=4af864ad-13ab-43ec-a845-17c4cf0e589c"},"vehicle_type_id":"4","last_reported":1700417294,"current_range_meters":5600,"station_id":"ce4bho92rcd13ifvqh4g","pricing_plan_id":"free"},{"bike_id":"09598e6a-b738-4f12-ac60-d1462555796f","system_id":"levelo_inurba_marseille","lat":43.279952,"lon":5.400085,"is_reserved":false,"is_disabled":false,"rental_uris":{"android":"levelo://app?vid=09598e6a-b738-4f12-ac60-d1462555796f","ios":"levelo://app?vid=09598e6a-b738-4f12-ac60-d1462555796f"},"vehicle_type_id":"4","last_reported":1700417294,"current_range_meters":10800,"station_id":"ce4bho92rcd13ifvqh4g","pricing_plan_id":"free"},{"bike_id":"26e38500-cf06-412c-84c9-f57ade123ddf","system_id":"levelo_inurba_marseille","lat":43.27995,"lon":5.40017,"is_reserved":false,"is_disabled":false,"rental_uris":{"android":"levelo://app?vid=26e38500-cf06-412c-84c9-f57ade123ddf","ios":"levelo://app?vid=26e38500-cf06-412c-84c9-f57ade123ddf"},"vehicle_type_id":"4","last_reported":1700417294,"current_range_meters":28800,"station_id":"ce4bho92rcd13ifvqh4g","pricing_plan_id":"free"},{"bike_id":"8872c7b8-c4a3-4750-b6cf-f9bc2db8b393","system_id":"levelo_inurba_marseille","lat":43.239588,"lon":5.366238,"is_reserved":false,"is_disabled":false,"rental_uris":{"android":"levelo://app?vid=8872c7b8-c4a3-4750-b6cf-f9bc2db8b393","ios":"levelo://app?vid=8872c7b8-c4a3-4750-b6cf-f9bc2db8b393"},"vehicle_type_id":"4","last_reported":1700417294,"current_range_meters":8400,"station_id":"ce4bhi12rcd13ifvqfp0","pricing_plan_id":"free"},{"bike_id":"78ed1994-6a4d-4937-a848-a352dc9268c0","system_id":"levelo_inurba_marseille","lat":43.295511,"lon":5.422926,"is_reserved":false,"is_disabled":false,"rental_uris":{"android":"levelo://app?vid=78ed1994-6a4d-4937-a848-a352dc9268c0","ios":"levelo://app?vid=78ed1994-6a4d-4937-a848-a352dc9268c0"},"vehicle_type_id":"4","last_reported":1700417294,"current_range_meters":12800,"station_id":"ce4bhph2rcd13ifvqhdg","pricing_plan_id":"free"},{"bike_id":"f8f5619a-a183-461d-b100-453fb972fcd4","system_id":"levelo_inurba_marseille","lat":43.272118,"lon":5.391758,"is_reserved":false,"is_disabled":false,"rental_uris":{"android":"levelo://app?vid=f8f5619a-a183-461d-b100-453fb972fcd4","ios":"levelo://app?vid=f8f5619a-a183-461d-b100-453fb972fcd4"},"vehicle_type_id":"4","last_reported":1700417294,"current_range_meters":18800,"station_id":"ce4bhhp2rcd13ifvqfm0","pricing_plan_id":"free"},{"bike_id":"fe139271-7817-4645-9ec4-f7eee743e805","system_id":"levelo_inurba_marseille","lat":43.271896,"lon":5.392307,"is_reserved":false,"is_disabled":false,"rental_uris":{"android":"levelo://app?vid=fe139271-7817-4645-9ec4-f7eee743e805","ios":"levelo://app?vid=fe139271-7817-4645-9ec4-f7eee743e805"},"vehicle_type_id":"4","last_reported":1700417294,"current_range_meters":0,"station_id":"","pricing_plan_id":"free"},{"bike_id":"f0ed4531-078e-42fb-a007-3ed80505eb54","system_id":"levelo_inurba_marseille","lat":43.271891,"lon":5.392412,"is_reserved":false,"is_disabled":false,"rental_uris":{"android":"levelo://app?vid=f0ed4531-078e-42fb-a007-3ed80505eb54","ios":"levelo://app?vid=f0ed4531-078e-42fb-a007-3ed80505eb54"},"vehicle_type_id":"4","last_reported":1700417294,"current_range_meters":2400,"station_id":"","pricing_plan_id":"free"},{"bike_id":"4e904388-8315-42a3-823e-b01ae258624d","system_id":"levelo_inurba_marseille","lat":43.278128,"lon":5.407195,"is_reserved":false,"is_disabled":false,"rental_uris":{"android":"levelo://app?vid=4e904388-8315-42a3-823e-b01ae258624d","ios":"levelo://app?vid=4e904388-8315-42a3-823e-b01ae258624d"},"vehicle_type_id":"4","last_reported":1700417294,"current_range_meters":400,"station_id":"ce4bhnh2rcd13ifvqgtg","pricing_plan_id":"free"},{"bike_id":"ca9fecf8-9c03-4b4a-b925-dc7fd9eaebb8","system_id":"levelo_inurba_marseille","lat":43.269467,"lon":5.386439,"is_reserved":false,"is_disabled":false,"rental_uris":{"android":"levelo://app?vid=ca9fecf8-9c03-4b4a-b925-dc7fd9eaebb8","ios":"levelo://app?vid=ca9fecf8-9c03-4b4a-b925-dc7fd9eaebb8"},"vehicle_type_id":"4","last_reported":1700417294,"current_range_meters":6800,"station_id":"ce4bhh92rcd13ifvqfh0","pricing_plan_id":"free"},{"bike_id":"139753b1-0b83-4c3a-80f1-5052bac15461","system_id":"levelo_inurba_marseille","lat":43.271056,"lon":5.393366,"is_reserved":false,"is_disabled":false,"rental_uris":{"android":"levelo://app?vid=139753b1-0b83-4c3a-80f1-5052bac15461","ios":"levelo://app?vid=139753b1-0b83-4c3a-80f1-5052bac15461"},"vehicle_type_id":"4","last_reported":1700417294,"current_range_meters":7200,"station_id":"","pricing_plan_id":"free"},{"bike_id":"80b1dae0-4d3f-4f68-b655-78b9a54f41f0","system_id":"levelo_inurba_marseille","lat":43.269319,"lon":5.389397,"is_reserved":false,"is_disabled":false,"rental_uris":{"android":"levelo://app?vid=80b1dae0-4d3f-4f68-b655-78b9a54f41f0","ios":"levelo://app?vid=80b1dae0-4d3f-4f68-b655-78b9a54f41f0"},"vehicle_type_id":"4","last_reported":1700417294,"current_range_meters":12000,"station_id":"ce4bhhh2rcd13ifvqfl0","pricing_plan_id":"free"},{"bike_id":"ac75ef05-8f30-4f41-8859-3afb88fbc5a8","system_id":"levelo_inurba_marseille","lat":43.265714,"lon":5.372891,"is_reserved":false,"is_disabled":false,"rental_uris":{"android":"levelo://app?vid=ac75ef05-8f30-4f41-8859-3afb88fbc5a8","ios":"levelo://app?vid=ac75ef05-8f30-4f41-8859-3afb88fbc5a8"},"vehicle_type_id":"4","last_reported":1700417294,"current_range_meters":3600,"station_id":"ce4bhg12rcd13ifvqf70","pricing_plan_id":"free"},{"bike_id":"98ddc24b-d4d2-452c-88b9-095da52be95d","system_id":"levelo_inurba_marseille","lat":43.26548,"lon":5.37287,"is_reserved":false,"is_disabled":false,"rental_uris":{"android":"levelo://app?vid=98ddc24b-d4d2-452c-88b9-095da52be95d","ios":"levelo://app?vid=98ddc24b-d4d2-452c-88b9-095da52be95d"},"vehicle_type_id":"4","last_reported":1700417294,"current_range_meters":0,"station_id":"ce4bhg12rcd13ifvqf70","pricing_plan_id":"free"},{"bike_id":"c7758cb2-2a45-4f89-aa5c-0e391d845c76","system_id":"levelo_inurba_marseille","lat":43.326053,"lon":5.429943,"is_reserved":false,"is_disabled":false,"rental_uris":{"android":"levelo://app?vid=c7758cb2-2a45-4f89-aa5c-0e391d845c76","ios":"levelo://app?vid=c7758cb2-2a45-4f89-aa5c-0e391d845c76"},"vehicle_type_id":"4","last_reported":1700417294,"current_range_meters":0,"station_id":"","pricing_plan_id":"free"},{"bike_id":"42871d3b-8c03-490f-baf1-f4b57c44a331","system_id":"levelo_inurba_marseille","lat":43.326369,"lon":5.430512,"is_reserved":false,"is_disabled":false,"rental_uris":{"android":"levelo://app?vid=42871d3b-8c03-490f-baf1-f4b57c44a331","ios":"levelo://app?vid=42871d3b-8c03-490f-baf1-f4b57c44a331"},"vehicle_type_id":"4","last_reported":1700417294,"current_range_meters":17200,"station_id":"","pricing_plan_id":"free"},{"bike_id":"7c067b93-2793-4b90-82c5-9baf19c6f9c1","system_id":"levelo_inurba_marseille","lat":43.267966,"lon":5.393976,"is_reserved":false,"is_disabled":false,"rental_uris":{"android":"levelo://app?vid=7c067b93-2793-4b90-82c5-9baf19c6f9c1","ios":"levelo://app?vid=7c067b93-2793-4b90-82c5-9baf19c6f9c1"},"vehicle_type_id":"4","last_reported":1700417294,"current_range_meters":0,"station_id":"ce4bhh12rcd13ifvqfg0","pricing_plan_id":"free"},{"bike_id":"a72878b3-3da7-4963-a99b-ce5658c865bb","system_id":"levelo_inurba_marseille","lat":43.265714,"lon":5.372891,"is_reserved":false,"is_disabled":false,"rental_uris":{"android":"levelo://app?vid=a72878b3-3da7-4963-a99b-ce5658c865bb","ios":"levelo://app?vid=a72878b3-3da7-4963-a99b-ce5658c865bb"},"vehicle_type_id":"4","last_reported":1700417294,"current_range_meters":1600,"station_id":"ce4bhg12rcd13ifvqf70","pricing_plan_id":"free"},{"bike_id":"87be04d4-b68d-4ca4-bc75-5865077b920f","system_id":"levelo_inurba_marseille","lat":43.288478,"lon":5.426335,"is_reserved":false,"is_disabled":false,"rental_uris":{"android":"levelo://app?vid=87be04d4-b68d-4ca4-bc75-5865077b920f","ios":"levelo://app?vid=87be04d4-b68d-4ca4-bc75-5865077b920f"},"vehicle_type_id":"4","last_reported":1700417294,"current_range_meters":2000,"station_id":"","pricing_plan_id":"free"},{"bike_id":"f7fbcf96-85d5-481b-bec9-968b3ef5bdaf","system_id":"levelo_inurba_marseille","lat":43.307999,"lon":5.435261,"is_reserved":false,"is_disabled":false,"rental_uris":{"android":"levelo://app?vid=f7fbcf96-85d5-481b-bec9-968b3ef5bdaf","ios":"levelo://app?vid=f7fbcf96-85d5-481b-bec9-968b3ef5bdaf"},"vehicle_type_id":"4","last_reported":1700417294,"current_range_meters":0,"station_id":"ce4bhph2rcd13ifvqheg","pricing_plan_id":"free"},{"bike_id":"e43325bc-de43-4c89-b73e-9c4b9a51d5a2","system_id":"levelo_inurba_marseille","lat":43.26566,"lon":5.39013,"is_reserved":false,"is_disabled":false,"rental_uris":{"android":"levelo://app?vid=e43325bc-de43-4c89-b73e-9c4b9a51d5a2","ios":"levelo://app?vid=e43325bc-de43-4c89-b73e-9c4b9a51d5a2"},"vehicle_type_id":"4","last_reported":1700417294,"current_range_meters":26000,"station_id":"ce4bhe12rcd13ifvqf30","pricing_plan_id":"free"},{"bike_id":"8daa9355-6caa-4056-85ed-9b8d45f6ce6e","system_id":"levelo_inurba_marseille","lat":43.26949,"lon":5.40262,"is_reserved":false,"is_disabled":false,"rental_uris":{"android":"levelo://app?vid=8daa9355-6caa-4056-85ed-9b8d45f6ce6e","ios":"levelo://app?vid=8daa9355-6caa-4056-85ed-9b8d45f6ce6e"},"vehicle_type_id":"4","last_reported":1700417294,"current_range_meters":7200,"station_id":"cjm6bp8fraef2m0cb0m0","pricing_plan_id":"free"},{"bike_id":"76dc7ef1-9340-4d20-a44e-7ebbb19adcb9","system_id":"levelo_inurba_marseille","lat":43.26938,"lon":5.40253,"is_reserved":false,"is_disabled":false,"rental_uris":{"android":"levelo://app?vid=76dc7ef1-9340-4d20-a44e-7ebbb19adcb9","ios":"levelo://app?vid=76dc7ef1-9340-4d20-a44e-7ebbb19adcb9"},"vehicle_type_id":"4","last_reported":1700417294,"current_range_meters":7200,"station_id":"cjm6bp8fraef2m0cb0m0","pricing_plan_id":"free"},{"bike_id":"df729029-16b9-4837-a9a7-1611f65dce68","system_id":"levelo_inurba_marseille","lat":43.26937,"lon":5.40261,"is_reserved":false,"is_disabled":false,"rental_uris":{"android":"levelo://app?vid=df729029-16b9-4837-a9a7-1611f65dce68","ios":"levelo://app?vid=df729029-16b9-4837-a9a7-1611f65dce68"},"vehicle_type_id":"4","last_reported":1700417294,"current_range_meters":0,"station_id":"cjm6bp8fraef2m0cb0m0","pricing_plan_id":"free"},{"bike_id":"f1652e3f-c477-413b-a9b7-b30d047c7518","system_id":"levelo_inurba_marseille","lat":43.2618,"lon":5.37447,"is_reserved":false,"is_disabled":false,"rental_uris":{"android":"levelo://app?vid=f1652e3f-c477-413b-a9b7-b30d047c7518","ios":"levelo://app?vid=f1652e3f-c477-413b-a9b7-b30d047c7518"},"vehicle_type_id":"4","last_reported":1700417294,"current_range_meters":0,"station_id":"ce4bhgp2rcd13ifvqfc0","pricing_plan_id":"free"},{"bike_id":"74ce853b-0d8b-42c9-81c8-17a7564a4b34","system_id":"levelo_inurba_marseille","lat":43.31725,"lon":5.43786,"is_reserved":false,"is_disabled":false,"rental_uris":{"android":"levelo://app?vid=74ce853b-0d8b-42c9-81c8-17a7564a4b34","ios":"levelo://app?vid=74ce853b-0d8b-42c9-81c8-17a7564a4b34"},"vehicle_type_id":"4","last_reported":1700417294,"current_range_meters":14000,"station_id":"","pricing_plan_id":"free"},{"bike_id":"899bf2e4-d437-43aa-9d87-9b33de90f3da","system_id":"levelo_inurba_marseille","lat":43.298768,"lon":5.43643,"is_reserved":false,"is_disabled":false,"rental_uris":{"android":"levelo://app?vid=899bf2e4-d437-43aa-9d87-9b33de90f3da","ios":"levelo://app?vid=899bf2e4-d437-43aa-9d87-9b33de90f3da"},"vehicle_type_id":"4","last_reported":1700417294,"current_range_meters":16000,"station_id":"ce4bhpp2rcd13ifvqhfg","pricing_plan_id":"free"},{"bike_id":"35b4690a-4ff2-4d42-aa61-c6b80cb1da06","system_id":"levelo_inurba_marseille","lat":43.281548,"lon":5.42643,"is_reserved":false,"is_disabled":false,"rental_uris":{"android":"levelo://app?vid=35b4690a-4ff2-4d42-aa61-c6b80cb1da06","ios":"levelo://app?vid=35b4690a-4ff2-4d42-aa61-c6b80cb1da06"},"vehicle_type_id":"4","last_reported":1700417294,"current_range_meters":4800,"station_id":"ce4bhnh2rcd13ifvqgug","pricing_plan_id":"free"},{"bike_id":"c8c64381-897d-4216-ae2b-5017c79bac1b","system_id":"levelo_inurba_marseille","lat":43.28155,"lon":5.42645,"is_reserved":false,"is_disabled":false,"rental_uris":{"android":"levelo://app?vid=c8c64381-897d-4216-ae2b-5017c79bac1b","ios":"levelo://app?vid=c8c64381-897d-4216-ae2b-5017c79bac1b"},"vehicle_type_id":"4","last_reported":1700417294,"current_range_meters":400,"station_id":"ce4bhnh2rcd13ifvqgug","pricing_plan_id":"free"},{"bike_id":"136f26ff-90d9-441a-9f7d-ca400cf602be","system_id":"levelo_inurba_marseille","lat":43.260909,"lon":5.397591,"is_reserved":false,"is_disabled":false,"rental_uris":{"android":"levelo://app?vid=136f26ff-90d9-441a-9f7d-ca400cf602be","ios":"levelo://app?vid=136f26ff-90d9-441a-9f7d-ca400cf602be"},"vehicle_type_id":"4","last_reported":1700417294,"current_range_meters":0,"station_id":"ce4bhi12rcd13ifvqfq0","pricing_plan_id":"free"},{"bike_id":"04aae268-835a-4433-a037-0574dea6082b","system_id":"levelo_inurba_marseille","lat":43.275028,"lon":5.424534,"is_reserved":false,"is_disabled":false,"rental_uris":{"android":"levelo://app?vid=04aae268-835a-4433-a037-0574dea6082b","ios":"levelo://app?vid=04aae268-835a-4433-a037-0574dea6082b"},"vehicle_type_id":"4","last_reported":1700417294,"current_range_meters":2000,"station_id":"ce4bhn92rcd13ifvqgrg","pricing_plan_id":"free"},{"bike_id":"3c7600fa-272a-4807-b331-48e666f0d425","system_id":"levelo_inurba_marseille","lat":43.25577,"lon":5.38235,"is_reserved":false,"is_disabled":false,"rental_uris":{"android":"levelo://app?vid=3c7600fa-272a-4807-b331-48e666f0d425","ios":"levelo://app?vid=3c7600fa-272a-4807-b331-48e666f0d425"},"vehicle_type_id":"4","last_reported":1700417294,"current_range_meters":30400,"station_id":"ce4bhih2rcd13ifvqfs0","pricing_plan_id":"free"},{"bike_id":"6ac86546-d9a6-48e5-a60b-0e2948a1a33a","system_id":"levelo_inurba_marseille","lat":43.270721,"lon":5.422764,"is_reserved":false,"is_disabled":false,"rental_uris":{"android":"levelo://app?vid=6ac86546-d9a6-48e5-a60b-0e2948a1a33a","ios":"levelo://app?vid=6ac86546-d9a6-48e5-a60b-0e2948a1a33a"},"vehicle_type_id":"4","last_reported":1700417294,"current_range_meters":10000,"station_id":"ce4bhk92rcd13ifvqgb0","pricing_plan_id":"free"},{"bike_id":"653a93dc-fdc8-45b7-9661-c0469e70ba2a","system_id":"levelo_inurba_marseille","lat":43.25943,"lon":5.40903,"is_reserved":false,"is_disabled":false,"rental_uris":{"android":"levelo://app?vid=653a93dc-fdc8-45b7-9661-c0469e70ba2a","ios":"levelo://app?vid=653a93dc-fdc8-45b7-9661-c0469e70ba2a"},"vehicle_type_id":"4","last_reported":1700417294,"current_range_meters":0,"station_id":"ce4bhm92rcd13ifvqglg","pricing_plan_id":"free"},{"bike_id":"80b71ce4-d048-49bd-8ecd-355f020bd070","system_id":"levelo_inurba_marseille","lat":43.257079,"lon":5.411051,"is_reserved":false,"is_disabled":false,"rental_uris":{"android":"levelo://app?vid=80b71ce4-d048-49bd-8ecd-355f020bd070","ios":"levelo://app?vid=80b71ce4-d048-49bd-8ecd-355f020bd070"},"vehicle_type_id":"4","last_reported":1700417294,"current_range_meters":12000,"station_id":"ce4bhkp2rcd13ifvqgd0","pricing_plan_id":"free"},{"bike_id":"0e4fdc17-0fb2-484d-919f-6e4eea02f374","system_id":"levelo_inurba_marseille","lat":43.250009,"lon":5.389195,"is_reserved":false,"is_disabled":false,"rental_uris":{"android":"levelo://app?vid=0e4fdc17-0fb2-484d-919f-6e4eea02f374","ios":"levelo://app?vid=0e4fdc17-0fb2-484d-919f-6e4eea02f374"},"vehicle_type_id":"4","last_reported":1700417294,"current_range_meters":9600,"station_id":"ce4bhgp2rcd13ifvqfd0","pricing_plan_id":"free"},{"bike_id":"7a62e4a9-fd15-4484-a784-e54d762e06b3","system_id":"levelo_inurba_marseille","lat":43.25115,"lon":5.4032,"is_reserved":false,"is_disabled":false,"rental_uris":{"android":"levelo://app?vid=7a62e4a9-fd15-4484-a784-e54d762e06b3","ios":"levelo://app?vid=7a62e4a9-fd15-4484-a784-e54d762e06b3"},"vehicle_type_id":"4","last_reported":1700417294,"current_range_meters":19600,"station_id":"ce4bhlh2rcd13ifvqgig","pricing_plan_id":"free"},{"bike_id":"7e8adc22-1ffe-4ad4-8b3b-4602d99409dd","system_id":"levelo_inurba_marseille","lat":43.25102,"lon":5.403214,"is_reserved":false,"is_disabled":false,"rental_uris":{"android":"levelo://app?vid=7e8adc22-1ffe-4ad4-8b3b-4602d99409dd","ios":"levelo://app?vid=7e8adc22-1ffe-4ad4-8b3b-4602d99409dd"},"vehicle_type_id":"4","last_reported":1700417294,"current_range_meters":1200,"station_id":"ce4bhlh2rcd13ifvqgig","pricing_plan_id":"free"},{"bike_id":"3a9b916e-0205-4083-aeb8-c4a07c6a1418","system_id":"levelo_inurba_marseille","lat":43.25102,"lon":5.403214,"is_reserved":false,"is_disabled":false,"rental_uris":{"android":"levelo://app?vid=3a9b916e-0205-4083-aeb8-c4a07c6a1418","ios":"levelo://app?vid=3a9b916e-0205-4083-aeb8-c4a07c6a1418"},"vehicle_type_id":"4","last_reported":1700417294,"current_range_meters":18000,"station_id":"ce4bhlh2rcd13ifvqgig","pricing_plan_id":"free"},{"bike_id":"3773760c-943d-40e3-aae5-9549e5f5d3c6","system_id":"levelo_inurba_marseille","lat":43.25113,"lon":5.403301,"is_reserved":false,"is_disabled":false,"rental_uris":{"android":"levelo://app?vid=3773760c-943d-40e3-aae5-9549e5f5d3c6","ios":"levelo://app?vid=3773760c-943d-40e3-aae5-9549e5f5d3c6"},"vehicle_type_id":"4","last_reported":1700417294,"current_range_meters":7200,"station_id":"ce4bhlh2rcd13ifvqgig","pricing_plan_id":"free"},{"bike_id":"50cd4525-f477-4e9e-a7b5-d10717be78c7","system_id":"levelo_inurba_marseille","lat":43.25102,"lon":5.403214,"is_reserved":false,"is_disabled":false,"rental_uris":{"android":"levelo://app?vid=50cd4525-f477-4e9e-a7b5-d10717be78c7","ios":"levelo://app?vid=50cd4525-f477-4e9e-a7b5-d10717be78c7"},"vehicle_type_id":"4","last_reported":1700417294,"current_range_meters":23200,"station_id":"ce4bhlh2rcd13ifvqgig","pricing_plan_id":"free"},{"bike_id":"48551b10-7a07-44d3-8793-398c73779585","system_id":"levelo_inurba_marseille","lat":43.246467,"lon":5.388984,"is_reserved":false,"is_disabled":false,"rental_uris":{"android":"levelo://app?vid=48551b10-7a07-44d3-8793-398c73779585","ios":"levelo://app?vid=48551b10-7a07-44d3-8793-398c73779585"},"vehicle_type_id":"4","last_reported":1700417294,"current_range_meters":26000,"station_id":"ce4bhg12rcd13ifvqf60","pricing_plan_id":"free"},{"bike_id":"3e0246ff-d47a-43c1-8fe7-11c8eecca72a","system_id":"levelo_inurba_marseille","lat":43.245581,"lon":5.395069,"is_reserved":false,"is_disabled":false,"rental_uris":{"android":"levelo://app?vid=3e0246ff-d47a-43c1-8fe7-11c8eecca72a","ios":"levelo://app?vid=3e0246ff-d47a-43c1-8fe7-11c8eecca72a"},"vehicle_type_id":"4","last_reported":1700417294,"current_range_meters":21600,"station_id":"ce4bhlp2rcd13ifvqgjg","pricing_plan_id":"free"},{"bike_id":"e4f07ed6-3c69-43e5-934b-2447c4c26050","system_id":"levelo_inurba_marseille","lat":43.240623,"lon":5.377642,"is_reserved":false,"is_disabled":false,"rental_uris":{"android":"levelo://app?vid=e4f07ed6-3c69-43e5-934b-2447c4c26050","ios":"levelo://app?vid=e4f07ed6-3c69-43e5-934b-2447c4c26050"},"vehicle_type_id":"4","last_reported":1700417294,"current_range_meters":18800,"station_id":"ce4bhnp2rcd13ifvqgvg","pricing_plan_id":"free"},{"bike_id":"d1161103-e87d-40cc-b115-1ba7c43ae4f9","system_id":"levelo_inurba_marseille","lat":43.240623,"lon":5.377642,"is_reserved":false,"is_disabled":false,"rental_uris":{"android":"levelo://app?vid=d1161103-e87d-40cc-b115-1ba7c43ae4f9","ios":"levelo://app?vid=d1161103-e87d-40cc-b115-1ba7c43ae4f9"},"vehicle_type_id":"4","last_reported":1700417294,"current_range_meters":19600,"station_id":"ce4bhnp2rcd13ifvqgvg","pricing_plan_id":"free"},{"bike_id":"33cb4995-2f44-44df-bb6b-4d73bc352569","system_id":"levelo_inurba_marseille","lat":43.239588,"lon":5.366238,"is_reserved":false,"is_disabled":false,"rental_uris":{"android":"levelo://app?vid=33cb4995-2f44-44df-bb6b-4d73bc352569","ios":"levelo://app?vid=33cb4995-2f44-44df-bb6b-4d73bc352569"},"vehicle_type_id":"4","last_reported":1700417294,"current_range_meters":2000,"station_id":"ce4bhi12rcd13ifvqfp0","pricing_plan_id":"free"},{"bike_id":"8eab7e84-1847-40e3-8e05-13b79ecc7a07","system_id":"levelo_inurba_marseille","lat":43.239588,"lon":5.366238,"is_reserved":false,"is_disabled":false,"rental_uris":{"android":"levelo://app?vid=8eab7e84-1847-40e3-8e05-13b79ecc7a07","ios":"levelo://app?vid=8eab7e84-1847-40e3-8e05-13b79ecc7a07"},"vehicle_type_id":"4","last_reported":1700417294,"current_range_meters":4800,"station_id":"ce4bhi12rcd13ifvqfp0","pricing_plan_id":"free"},{"bike_id":"1916ba89-348a-46de-862f-002e26a606b7","system_id":"levelo_inurba_marseille","lat":43.241813,"lon":5.397267,"is_reserved":false,"is_disabled":false,"rental_uris":{"android":"levelo://app?vid=1916ba89-348a-46de-862f-002e26a606b7","ios":"levelo://app?vid=1916ba89-348a-46de-862f-002e26a606b7"},"vehicle_type_id":"4","last_reported":1700417294,"current_range_meters":5200,"station_id":"ce4bhn12rcd13ifvqgpg","pricing_plan_id":"free"},{"bike_id":"1e4c8235-2661-4216-9b37-2498240d8932","system_id":"levelo_inurba_marseille","lat":43.24177,"lon":5.39726,"is_reserved":false,"is_disabled":false,"rental_uris":{"android":"levelo://app?vid=1e4c8235-2661-4216-9b37-2498240d8932","ios":"levelo://app?vid=1e4c8235-2661-4216-9b37-2498240d8932"},"vehicle_type_id":"4","last_reported":1700417294,"current_range_meters":15200,"station_id":"ce4bhn12rcd13ifvqgpg","pricing_plan_id":"free"},{"bike_id":"d905acc7-ab58-44fe-8043-2eba6e8fb049","system_id":"levelo_inurba_marseille","lat":43.241782,"lon":5.397261,"is_reserved":false,"is_disabled":false,"rental_uris":{"android":"levelo://app?vid=d905acc7-ab58-44fe-8043-2eba6e8fb049","ios":"levelo://app?vid=d905acc7-ab58-44fe-8043-2eba6e8fb049"},"vehicle_type_id":"4","last_reported":1700417294,"current_range_meters":9200,"station_id":"ce4bhn12rcd13ifvqgpg","pricing_plan_id":"free"},{"bike_id":"4370869b-0c59-4e1b-b4c7-59bf3a7bc50e","system_id":"levelo_inurba_marseille","lat":43.24175,"lon":5.39725,"is_reserved":false,"is_disabled":false,"rental_uris":{"android":"levelo://app?vid=4370869b-0c59-4e1b-b4c7-59bf3a7bc50e","ios":"levelo://app?vid=4370869b-0c59-4e1b-b4c7-59bf3a7bc50e"},"vehicle_type_id":"4","last_reported":1700417294,"current_range_meters":12000,"station_id":"ce4bhn12rcd13ifvqgpg","pricing_plan_id":"free"},{"bike_id":"c7d71dd3-1e23-47a1-af8a-ee349e4bdae4","system_id":"levelo_inurba_marseille","lat":43.231919,"lon":5.355532,"is_reserved":false,"is_disabled":false,"rental_uris":{"android":"levelo://app?vid=c7d71dd3-1e23-47a1-af8a-ee349e4bdae4","ios":"levelo://app?vid=c7d71dd3-1e23-47a1-af8a-ee349e4bdae4"},"vehicle_type_id":"4","last_reported":1700417294,"current_range_meters":4400,"station_id":"ce4bhu92rcd13ifvqi70","pricing_plan_id":"free"},{"bike_id":"b21dd2aa-2a0b-4b77-892c-dcc2551f62ec","system_id":"levelo_inurba_marseille","lat":43.231794,"lon":5.400052,"is_reserved":false,"is_disabled":false,"rental_uris":{"android":"levelo://app?vid=b21dd2aa-2a0b-4b77-892c-dcc2551f62ec","ios":"levelo://app?vid=b21dd2aa-2a0b-4b77-892c-dcc2551f62ec"},"vehicle_type_id":"4","last_reported":1700417294,"current_range_meters":12800,"station_id":"ce4bhn12rcd13ifvqgqg","pricing_plan_id":"free"},{"bike_id":"af1ded82-d209-4511-aea5-36860ab15eac","system_id":"levelo_inurba_marseille","lat":43.231794,"lon":5.400052,"is_reserved":false,"is_disabled":false,"rental_uris":{"android":"levelo://app?vid=af1ded82-d209-4511-aea5-36860ab15eac","ios":"levelo://app?vid=af1ded82-d209-4511-aea5-36860ab15eac"},"vehicle_type_id":"4","last_reported":1700417294,"current_range_meters":17600,"station_id":"ce4bhn12rcd13ifvqgqg","pricing_plan_id":"free"},{"bike_id":"aa00fa58-aed4-4693-a908-f6c5d3454ce6","system_id":"levelo_inurba_marseille","lat":43.231562,"lon":5.436933,"is_reserved":false,"is_disabled":false,"rental_uris":{"android":"levelo://app?vid=aa00fa58-aed4-4693-a908-f6c5d3454ce6","ios":"levelo://app?vid=aa00fa58-aed4-4693-a908-f6c5d3454ce6"},"vehicle_type_id":"4","last_reported":1700417294,"current_range_meters":7600,"station_id":"ce4bhmp2rcd13ifvqgog","pricing_plan_id":"free"},{"bike_id":"bc57395b-fe92-4868-812b-705163e4facb","system_id":"levelo_inurba_marseille","lat":43.231562,"lon":5.436933,"is_reserved":false,"is_disabled":false,"rental_uris":{"android":"levelo://app?vid=bc57395b-fe92-4868-812b-705163e4facb","ios":"levelo://app?vid=bc57395b-fe92-4868-812b-705163e4facb"},"vehicle_type_id":"4","last_reported":1700417294,"current_range_meters":0,"station_id":"ce4bhmp2rcd13ifvqgog","pricing_plan_id":"free"},{"bike_id":"910ae0c6-1690-485c-8734-3a112e2e02b4","system_id":"levelo_inurba_marseille","lat":43.231562,"lon":5.436933,"is_reserved":false,"is_disabled":false,"rental_uris":{"android":"levelo://app?vid=910ae0c6-1690-485c-8734-3a112e2e02b4","ios":"levelo://app?vid=910ae0c6-1690-485c-8734-3a112e2e02b4"},"vehicle_type_id":"4","last_reported":1700417294,"current_range_meters":22800,"station_id":"ce4bhmp2rcd13ifvqgog","pricing_plan_id":"free"}]}}