{"last_updated":1684170357,"ttl":30,"version":"2.2","data":{"bikes":[{"bike_id":"2f11cd2c-4d01-4456-b483-9c5ecce10f33","system_id":"levelo_inurba_marseille","lat":43.30896,"lon":5.37205,"is_reserved":false,"is_disabled":false,"rental_uris":{"android":"levelo://app?vid=2f11cd2c-4d01-4456-b483-9c5ecce10f33","ios":"levelo://app?vid=2f11cd2c-4d01-4456-b483-9c5ecce10f33"},"vehicle_type_id":"4","last_reported":1684170357,"current_range_meters":0,"station_id":"","pricing_plan_id":"free"},{"bike_id":"f560fd9d-9152-48da-b6b7-132a7a4e1e57","system_id":"levelo_inurba_marseille","lat":43.30588,"lon":5.36563,"is_reserved":false,"is_disabled":false,"rental_uris":{"android":"levelo://app?vid=f560fd9d-9152-48da-b6b7-132a7a4e1e57","ios":"levelo://app?vid=f560fd9d-9152-48da-b6b7-132a7a4e1e57"},"vehicle_type_id":"4","last_reported":1684170357,"current_range_meters":6800,"station_id":"","pricing_plan_id":"free"},{"bike_id":"b5bb5fd9-9ba9-40e2-a2a5-0067958b014e","system_id":"levelo_inurba_marseille","lat":43.305368,"lon":5.367343,"is_reserved":false,"is_disabled":false,"rental_uris":{"android":"levelo://app?vid=b5bb5fd9-9ba9-40e2-a2a5-0067958b014e","ios":"levelo://app?vid=b5bb5fd9-9ba9-40e2-a2a5-0067958b014e"},"vehicle_type_id":"4","last_reported":1684170357,"current_range_meters":16000,"station_id":"ce4bgrp2rcd13ifvqc9g","pricing_plan_id":"free"},{"bike_id":"746ffd84-4ccf-450c-91f8-44d6d63b045a","system_id":"levelo_inurba_marseille","lat":43.311125,"lon":5.377624,"is_reserved":false,"is_disabled":false,"rental_uris":{"android":"levelo://app?vid=746ffd84-4ccf-450c-91f8-44d6d63b045a","ios":"levelo://app?vid=746ffd84-4ccf-450c-91f8-44d6d63b045a"},"vehicle_type_id":"4","last_reported":1684170357,"current_range_meters":13200,"station_id":"ce4bgt92rcd13ifvqcg0","pricing_plan_id":"free"},{"bike_id":"053f1d7f-7dd1-4deb-9cc7-c1dbaf6395aa","system_id":"levelo_inurba_marseille","lat":43.31716,"lon":5.3773,"is_reserved":false,"is_disabled":false,"rental_uris":{"android":"levelo://app?vid=053f1d7f-7dd1-4deb-9cc7-c1dbaf6395aa","ios":"levelo://app?vid=053f1d7f-7dd1-4deb-9cc7-c1dbaf6395aa"},"vehicle_type_id":"4","last_reported":1684170357,"current_range_meters":14400,"station_id":"","pricing_plan_id":"free"},{"bike_id":"7f400d3f-adb8-45a3-99e5-4253315e7c58","system_id":"levelo_inurba_marseille","lat":43.31528,"lon":5.38036,"is_reserved":false,"is_disabled":false,"rental_uris":{"android":"levelo://app?vid=7f400d3f-adb8-45a3-99e5-4253315e7c58","ios":"levelo://app?vid=7f400d3f-adb8-45a3-99e5-4253315e7c58"},"vehicle_type_id":"4","last_reported":1684170357,"current_range_meters":25200,"station_id":"ce4bhsp2rcd13ifvqi50","pricing_plan_id":"free"},{"bike_id":"81895983-8d0f-423d-9903-5221e9bd4e77","system_id":"levelo_inurba_marseille","lat":43.301939,"lon":5.366286,"is_reserved":false,"is_disabled":false,"rental_uris":{"android":"levelo://app?vid=81895983-8d0f-423d-9903-5221e9bd4e77","ios":"levelo://app?vid=81895983-8d0f-423d-9903-5221e9bd4e77"},"vehicle_type_id":"4","last_reported":1684170357,"current_range_meters":1600,"station_id":"ce4bgrh2rcd13ifvqc8g","pricing_plan_id":"free"},{"bike_id":"2460c75a-1f9c-4c6a-bfce-5312ef17bf0b","system_id":"levelo_inurba_marseille","lat":43.301939,"lon":5.366286,"is_reserved":false,"is_disabled":false,"rental_uris":{"android":"levelo://app?vid=2460c75a-1f9c-4c6a-bfce-5312ef17bf0b","ios":"levelo://app?vid=2460c75a-1f9c-4c6a-bfce-5312ef17bf0b"},"vehicle_type_id":"4","last_reported":1684170357,"current_range_meters":12000,"station_id":"ce4bgrh2rcd13ifvqc8g","pricing_plan_id":"free"},{"bike_id":"78d0180d-6b31-41fa-8a2b-64600ff22866","system_id":"levelo_inurba_marseille","lat":43.308012,"lon":5.381511,"is_reserved":false,"is_disabled":false,"rental_uris":{"android":"levelo://app?vid=78d0180d-6b31-41fa-8a2b-64600ff22866","ios":"levelo://app?vid=78d0180d-6b31-41fa-8a2b-64600ff22866"},"vehicle_type_id":"4","last_reported":1684170357,"current_range_meters":0,"station_id":"ce4bgt12rcd13ifvqce0","pricing_plan_id":"free"},{"bike_id":"a344feee-27a3-4b43-b2cf-962601909902","system_id":"levelo_inurba_marseille","lat":43.308012,"lon":5.381511,"is_reserved":false,"is_disabled":false,"rental_uris":{"android":"levelo://app?vid=a344feee-27a3-4b43-b2cf-962601909902","ios":"levelo://app?vid=a344feee-27a3-4b43-b2cf-962601909902"},"vehicle_type_id":"4","last_reported":1684170357,"current_range_meters":24800,"station_id":"ce4bgt12rcd13ifvqce0","pricing_plan_id":"free"},{"bike_id":"77356d28-3dad-4b14-a737-190bd3b8267a","system_id":"levelo_inurba_marseille","lat":43.31997,"lon":5.38154,"is_reserved":false,"is_disabled":false,"rental_uris":{"android":"levelo://app?vid=77356d28-3dad-4b14-a737-190bd3b8267a","ios":"levelo://app?vid=77356d28-3dad-4b14-a737-190bd3b8267a"},"vehicle_type_id":"4","last_reported":1684170357,"current_range_meters":19600,"station_id":"ce4bhr12rcd13ifvqhpg","pricing_plan_id":"free"},{"bike_id":"bdf0dcda-580a-4844-a395-2c3106ab86f2","system_id":"levelo_inurba_marseille","lat":43.31374,"lon":5.38493,"is_reserved":false,"is_disabled":false,"rental_uris":{"android":"levelo://app?vid=bdf0dcda-580a-4844-a395-2c3106ab86f2","ios":"levelo://app?vid=bdf0dcda-580a-4844-a395-2c3106ab86f2"},"vehicle_type_id":"4","last_reported":1684170357,"current_range_meters":7600,"station_id":"ce4bgt92rcd13ifvqcf0","pricing_plan_id":"free"},{"bike_id":"3a15f81b-0cad-40e5-ac20-e59f6ff3c551","system_id":"levelo_inurba_marseille","lat":43.299222,"lon":5.365554,"is_reserved":false,"is_disabled":false,"rental_uris":{"android":"levelo://app?vid=3a15f81b-0cad-40e5-ac20-e59f6ff3c551","ios":"levelo://app?vid=3a15f81b-0cad-40e5-ac20-e59f6ff3c551"},"vehicle_type_id":"4","last_reported":1684170357,"current_range_meters":4400,"station_id":"ce4bgm92rcd13ifvqbr0","pricing_plan_id":"free"},{"bike_id":"be840c93-0dae-4113-b065-6e63692db62c","system_id":"levelo_inurba_marseille","lat":43.32764,"lon":5.36691,"is_reserved":false,"is_disabled":false,"rental_uris":{"android":"levelo://app?vid=be840c93-0dae-4113-b065-6e63692db62c","ios":"levelo://app?vid=be840c93-0dae-4113-b065-6e63692db62c"},"vehicle_type_id":"4","last_reported":1684170357,"current_range_meters":2800,"station_id":"","pricing_plan_id":"free"},{"bike_id":"efef64eb-15cd-43b8-8c54-b037d798c359","system_id":"levelo_inurba_marseille","lat":43.2978,"lon":5.37105,"is_reserved":false,"is_disabled":false,"rental_uris":{"android":"levelo://app?vid=efef64eb-15cd-43b8-8c54-b037d798c359","ios":"levelo://app?vid=efef64eb-15cd-43b8-8c54-b037d798c359"},"vehicle_type_id":"4","last_reported":1684170357,"current_range_meters":11600,"station_id":"ce4bgop2rcd13ifvqc1g","pricing_plan_id":"free"},{"bike_id":"223a3942-eae0-44ef-a497-aa5c208469bf","system_id":"levelo_inurba_marseille","lat":43.32819,"lon":5.3668,"is_reserved":false,"is_disabled":false,"rental_uris":{"android":"levelo://app?vid=223a3942-eae0-44ef-a497-aa5c208469bf","ios":"levelo://app?vid=223a3942-eae0-44ef-a497-aa5c208469bf"},"vehicle_type_id":"4","last_reported":1684170357,"current_range_meters":15600,"station_id":"ce4bhs92rcd13ifvqi0g","pricing_plan_id":"free"},{"bike_id":"1b448613-613a-40d5-8c09-58c4ba87a63c","system_id":"levelo_inurba_marseille","lat":43.328371,"lon":5.366909,"is_reserved":false,"is_disabled":false,"rental_uris":{"android":"levelo://app?vid=1b448613-613a-40d5-8c09-58c4ba87a63c","ios":"levelo://app?vid=1b448613-613a-40d5-8c09-58c4ba87a63c"},"vehicle_type_id":"4","last_reported":1684170357,"current_range_meters":12800,"station_id":"ce4bhs92rcd13ifvqi0g","pricing_plan_id":"free"},{"bike_id":"14b6bcff-37dd-4d87-9f56-f9f851b88984","system_id":"levelo_inurba_marseille","lat":43.328371,"lon":5.366909,"is_reserved":false,"is_disabled":false,"rental_uris":{"android":"levelo://app?vid=14b6bcff-37dd-4d87-9f56-f9f851b88984","ios":"levelo://app?vid=14b6bcff-37dd-4d87-9f56-f9f851b88984"},"vehicle_type_id":"4","last_reported":1684170357,"current_range_meters":20000,"station_id":"ce4bhs92rcd13ifvqi0g","pricing_plan_id":"free"},{"bike_id":"e7f2b6eb-fd3e-4f84-a542-cc68dc37093a","system_id":"levelo_inurba_marseille","lat":43.32829,"lon":5.36692,"is_reserved":false,"is_disabled":false,"rental_uris":{"android":"levelo://app?vid=e7f2b6eb-fd3e-4f84-a542-cc68dc37093a","ios":"levelo://app?vid=e7f2b6eb-fd3e-4f84-a542-cc68dc37093a"},"vehicle_type_id":"4","last_reported":1684170357,"current_range_meters":21200,"station_id":"ce4bhs92rcd13ifvqi0g","pricing_plan_id":"free"},{"bike_id":"ce99431c-8377-4512-9962-530c9a4ca775","system_id":"levelo_inurba_marseille","lat":43.3283,"lon":5.36691,"is_reserved":false,"is_disabled":false,"rental_uris":{"android":"levelo://app?vid=ce99431c-8377-4512-9962-530c9a4ca775","ios":"levelo://app?vid=ce99431c-8377-4512-9962-530c9a4ca775"},"vehicle_type_id":"4","last_reported":1684170357,"current_range_meters":20000,"station_id":"ce4bhs92rcd13ifvqi0g","pricing_plan_id":"free"},{"bike_id":"2e3b9d51-8c66-4a9a-8612-ff9a723ae0cb","system_id":"levelo_inurba_marseille","lat":43.29716,"lon":5.36674,"is_reserved":false,"is_disabled":false,"rental_uris":{"android":"levelo://app?vid=2e3b9d51-8c66-4a9a-8612-ff9a723ae0cb","ios":"levelo://app?vid=2e3b9d51-8c66-4a9a-8612-ff9a723ae0cb"},"vehicle_type_id":"4","last_reported":1684170357,"current_range_meters":800,"station_id":"","pricing_plan_id":"free"},{"bike_id":"f7f5e7cd-f784-4de0-9ab3-dfe3cf921004","system_id":"levelo_inurba_marseille","lat":43.32833,"lon":5.36691,"is_reserved":false,"is_disabled":false,"rental_uris":{"android":"levelo://app?vid=f7f5e7cd-f784-4de0-9ab3-dfe3cf921004","ios":"levelo://app?vid=f7f5e7cd-f784-4de0-9ab3-dfe3cf921004"},"vehicle_type_id":"4","last_reported":1684170357,"current_range_meters":5600,"station_id":"ce4bhs92rcd13ifvqi0g","pricing_plan_id":"free"},{"bike_id":"d65e3504-e852-446c-b998-21e150a744c8","system_id":"levelo_inurba_marseille","lat":43.32834,"lon":5.3668,"is_reserved":false,"is_disabled":false,"rental_uris":{"android":"levelo://app?vid=d65e3504-e852-446c-b998-21e150a744c8","ios":"levelo://app?vid=d65e3504-e852-446c-b998-21e150a744c8"},"vehicle_type_id":"4","last_reported":1684170357,"current_range_meters":10400,"station_id":"ce4bhs92rcd13ifvqi0g","pricing_plan_id":"free"},{"bike_id":"55774435-99a4-4a7e-98f1-24fa06872660","system_id":"levelo_inurba_marseille","lat":43.29623,"lon":5.37149,"is_reserved":false,"is_disabled":false,"rental_uris":{"android":"levelo://app?vid=55774435-99a4-4a7e-98f1-24fa06872660","ios":"levelo://app?vid=55774435-99a4-4a7e-98f1-24fa06872660"},"vehicle_type_id":"4","last_reported":1684170357,"current_range_meters":14000,"station_id":"","pricing_plan_id":"free"},{"bike_id":"7ff6d02f-eb57-4401-a16e-a4890a923b71","system_id":"levelo_inurba_marseille","lat":43.317557,"lon":5.390173,"is_reserved":false,"is_disabled":false,"rental_uris":{"android":"levelo://app?vid=7ff6d02f-eb57-4401-a16e-a4890a923b71","ios":"levelo://app?vid=7ff6d02f-eb57-4401-a16e-a4890a923b71"},"vehicle_type_id":"4","last_reported":1684170357,"current_range_meters":9200,"station_id":"ce4bhqp2rcd13ifvqhng","pricing_plan_id":"free"},{"bike_id":"efe72aa0-e51b-41e0-bb04-c223a99c76d1","system_id":"levelo_inurba_marseille","lat":43.29625,"lon":5.37705,"is_reserved":false,"is_disabled":false,"rental_uris":{"android":"levelo://app?vid=efe72aa0-e51b-41e0-bb04-c223a99c76d1","ios":"levelo://app?vid=efe72aa0-e51b-41e0-bb04-c223a99c76d1"},"vehicle_type_id":"4","last_reported":1684170357,"current_range_meters":10400,"station_id":"ce4bgi92rcd13ifvqb90","pricing_plan_id":"free"},{"bike_id":"25cea7b6-8f5f-4f13-81b5-1d1ccbebcdf1","system_id":"levelo_inurba_marseille","lat":43.304278,"lon":5.388868,"is_reserved":false,"is_disabled":false,"rental_uris":{"android":"levelo://app?vid=25cea7b6-8f5f-4f13-81b5-1d1ccbebcdf1","ios":"levelo://app?vid=25cea7b6-8f5f-4f13-81b5-1d1ccbebcdf1"},"vehicle_type_id":"4","last_reported":1684170357,"current_range_meters":7600,"station_id":"ce4bgk12rcd13ifvqbi0","pricing_plan_id":"free"},{"bike_id":"a657e723-ba7a-4d0d-afbd-59fbc6dafddb","system_id":"levelo_inurba_marseille","lat":43.299717,"lon":5.384845,"is_reserved":false,"is_disabled":false,"rental_uris":{"android":"levelo://app?vid=a657e723-ba7a-4d0d-afbd-59fbc6dafddb","ios":"levelo://app?vid=a657e723-ba7a-4d0d-afbd-59fbc6dafddb"},"vehicle_type_id":"4","last_reported":1684170357,"current_range_meters":0,"station_id":"ce4bgj92rcd13ifvqbd0","pricing_plan_id":"free"},{"bike_id":"57788115-387d-40a2-a807-a902fa910e3a","system_id":"levelo_inurba_marseille","lat":43.32367,"lon":5.38876,"is_reserved":false,"is_disabled":false,"rental_uris":{"android":"levelo://app?vid=57788115-387d-40a2-a807-a902fa910e3a","ios":"levelo://app?vid=57788115-387d-40a2-a807-a902fa910e3a"},"vehicle_type_id":"4","last_reported":1684170357,"current_range_meters":13600,"station_id":"ce4bhqp2rcd13ifvqhog","pricing_plan_id":"free"},{"bike_id":"8c83af73-e52b-455d-a488-2dcd7b769ae0","system_id":"levelo_inurba_marseille","lat":43.32367,"lon":5.38879,"is_reserved":false,"is_disabled":false,"rental_uris":{"android":"levelo://app?vid=8c83af73-e52b-455d-a488-2dcd7b769ae0","ios":"levelo://app?vid=8c83af73-e52b-455d-a488-2dcd7b769ae0"},"vehicle_type_id":"4","last_reported":1684170357,"current_range_meters":7600,"station_id":"ce4bhqp2rcd13ifvqhog","pricing_plan_id":"free"},{"bike_id":"9ec1a55f-8c74-4a8f-b32c-0166f897593e","system_id":"levelo_inurba_marseille","lat":43.32365,"lon":5.38881,"is_reserved":false,"is_disabled":false,"rental_uris":{"android":"levelo://app?vid=9ec1a55f-8c74-4a8f-b32c-0166f897593e","ios":"levelo://app?vid=9ec1a55f-8c74-4a8f-b32c-0166f897593e"},"vehicle_type_id":"4","last_reported":1684170357,"current_range_meters":0,"station_id":"","pricing_plan_id":"free"},{"bike_id":"cb01f50f-7c0e-45d3-b481-59bc943ee22f","system_id":"levelo_inurba_marseille","lat":43.32366,"lon":5.38881,"is_reserved":false,"is_disabled":false,"rental_uris":{"android":"levelo://app?vid=cb01f50f-7c0e-45d3-b481-59bc943ee22f","ios":"levelo://app?vid=cb01f50f-7c0e-45d3-b481-59bc943ee22f"},"vehicle_type_id":"4","last_reported":1684170357,"current_range_meters":18800,"station_id":"ce4bhqp2rcd13ifvqhog","pricing_plan_id":"free"},{"bike_id":"1dfa9dcc-ad43-4366-80ee-5c7f154611fc","system_id":"levelo_inurba_marseille","lat":43.32367,"lon":5.38881,"is_reserved":false,"is_disabled":false,"rental_uris":{"android":"levelo://app?vid=1dfa9dcc-ad43-4366-80ee-5c7f154611fc","ios":"levelo://app?vid=1dfa9dcc-ad43-4366-80ee-5c7f154611fc"},"vehicle_type_id":"4","last_reported":1684170357,"current_range_meters":26000,"station_id":"ce4bhqp2rcd13ifvqhog","pricing_plan_id":"free"},{"bike_id":"368dad79-014b-46e3-b946-93453ee151a4","system_id":"levelo_inurba_marseille","lat":43.32363,"lon":5.38885,"is_reserved":false,"is_disabled":false,"rental_uris":{"android":"levelo://app?vid=368dad79-014b-46e3-b946-93453ee151a4","ios":"levelo://app?vid=368dad79-014b-46e3-b946-93453ee151a4"},"vehicle_type_id":"4","last_reported":1684170357,"current_range_meters":0,"station_id":"ce4bhqp2rcd13ifvqhog","pricing_plan_id":"free"},{"bike_id":"cc25496d-8593-433d-a9e2-a643a228371f","system_id":"levelo_inurba_marseille","lat":43.32367,"lon":5.38888,"is_reserved":false,"is_disabled":false,"rental_uris":{"android":"levelo://app?vid=cc25496d-8593-433d-a9e2-a643a228371f","ios":"levelo://app?vid=cc25496d-8593-433d-a9e2-a643a228371f"},"vehicle_type_id":"4","last_reported":1684170357,"current_range_meters":30800,"station_id":"ce4bhqp2rcd13ifvqhog","pricing_plan_id":"free"},{"bike_id":"1a705e8e-b254-4ef5-ac1a-3b23d1742151","system_id":"levelo_inurba_marseille","lat":43.32367,"lon":5.38892,"is_reserved":false,"is_disabled":false,"rental_uris":{"android":"levelo://app?vid=1a705e8e-b254-4ef5-ac1a-3b23d1742151","ios":"levelo://app?vid=1a705e8e-b254-4ef5-ac1a-3b23d1742151"},"vehicle_type_id":"4","last_reported":1684170357,"current_range_meters":27600,"station_id":"","pricing_plan_id":"free"},{"bike_id":"b598aa41-f21a-44ab-bfa6-d8292decfa6d","system_id":"levelo_inurba_marseille","lat":43.3237,"lon":5.38892,"is_reserved":false,"is_disabled":false,"rental_uris":{"android":"levelo://app?vid=b598aa41-f21a-44ab-bfa6-d8292decfa6d","ios":"levelo://app?vid=b598aa41-f21a-44ab-bfa6-d8292decfa6d"},"vehicle_type_id":"4","last_reported":1684170357,"current_range_meters":0,"station_id":"","pricing_plan_id":"free"},{"bike_id":"923ea210-1094-4c45-9066-a0951a247531","system_id":"levelo_inurba_marseille","lat":43.293249,"lon":5.371578,"is_reserved":false,"is_disabled":false,"rental_uris":{"android":"levelo://app?vid=923ea210-1094-4c45-9066-a0951a247531","ios":"levelo://app?vid=923ea210-1094-4c45-9066-a0951a247531"},"vehicle_type_id":"4","last_reported":1684170357,"current_range_meters":23600,"station_id":"ce4bgh92rcd13ifvqb40","pricing_plan_id":"free"},{"bike_id":"cd5d6ab9-ec4a-4b89-b67d-66d3f51103d6","system_id":"levelo_inurba_marseille","lat":43.29306,"lon":5.37178,"is_reserved":false,"is_disabled":false,"rental_uris":{"android":"levelo://app?vid=cd5d6ab9-ec4a-4b89-b67d-66d3f51103d6","ios":"levelo://app?vid=cd5d6ab9-ec4a-4b89-b67d-66d3f51103d6"},"vehicle_type_id":"4","last_reported":1684170357,"current_range_meters":5200,"station_id":"ce4bgh92rcd13ifvqb40","pricing_plan_id":"free"},{"bike_id":"0429e159-1c53-4345-bbb9-a7c3275c13be","system_id":"levelo_inurba_marseille","lat":43.298764,"lon":5.388973,"is_reserved":false,"is_disabled":false,"rental_uris":{"android":"levelo://app?vid=0429e159-1c53-4345-bbb9-a7c3275c13be","ios":"levelo://app?vid=0429e159-1c53-4345-bbb9-a7c3275c13be"},"vehicle_type_id":"4","last_reported":1684170357,"current_range_meters":19200,"station_id":"ce4bh392rcd13ifvqdl0","pricing_plan_id":"free"},{"bike_id":"3502dc6e-15a7-4404-986f-eafe1a923427","system_id":"levelo_inurba_marseille","lat":43.292663,"lon":5.376394,"is_reserved":false,"is_disabled":false,"rental_uris":{"android":"levelo://app?vid=3502dc6e-15a7-4404-986f-eafe1a923427","ios":"levelo://app?vid=3502dc6e-15a7-4404-986f-eafe1a923427"},"vehicle_type_id":"4","last_reported":1684170357,"current_range_meters":22400,"station_id":"ce4bgi12rcd13ifvqb80","pricing_plan_id":"free"},{"bike_id":"cb75dcbd-3283-4abb-b8a8-f3d596630259","system_id":"levelo_inurba_marseille","lat":43.29883,"lon":5.38916,"is_reserved":false,"is_disabled":false,"rental_uris":{"android":"levelo://app?vid=cb75dcbd-3283-4abb-b8a8-f3d596630259","ios":"levelo://app?vid=cb75dcbd-3283-4abb-b8a8-f3d596630259"},"vehicle_type_id":"4","last_reported":1684170357,"current_range_meters":0,"station_id":"","pricing_plan_id":"free"},{"bike_id":"b4701224-a0be-4a3e-b475-0b78501f1918","system_id":"levelo_inurba_marseille","lat":43.31329,"lon":5.39685,"is_reserved":false,"is_disabled":false,"rental_uris":{"android":"levelo://app?vid=b4701224-a0be-4a3e-b475-0b78501f1918","ios":"levelo://app?vid=b4701224-a0be-4a3e-b475-0b78501f1918"},"vehicle_type_id":"4","last_reported":1684170357,"current_range_meters":8400,"station_id":"ce4bgvp2rcd13ifvqcu0","pricing_plan_id":"free"},{"bike_id":"f732d9a4-2e98-4ae2-ad41-ac892c11ff42","system_id":"levelo_inurba_marseille","lat":43.31329,"lon":5.39688,"is_reserved":false,"is_disabled":false,"rental_uris":{"android":"levelo://app?vid=f732d9a4-2e98-4ae2-ad41-ac892c11ff42","ios":"levelo://app?vid=f732d9a4-2e98-4ae2-ad41-ac892c11ff42"},"vehicle_type_id":"4","last_reported":1684170357,"current_range_meters":12400,"station_id":"ce4bgvp2rcd13ifvqcu0","pricing_plan_id":"free"},{"bike_id":"6d2bb92d-58a4-4619-9e46-f46813fb14a3","system_id":"levelo_inurba_marseille","lat":43.31328,"lon":5.39691,"is_reserved":false,"is_disabled":false,"rental_uris":{"android":"levelo://app?vid=6d2bb92d-58a4-4619-9e46-f46813fb14a3","ios":"levelo://app?vid=6d2bb92d-58a4-4619-9e46-f46813fb14a3"},"vehicle_type_id":"4","last_reported":1684170357,"current_range_meters":12000,"station_id":"ce4bgvp2rcd13ifvqcu0","pricing_plan_id":"free"},{"bike_id":"d1e3cb8b-55f8-40b0-a409-b74d193856ea","system_id":"levelo_inurba_marseille","lat":43.31323,"lon":5.39694,"is_reserved":false,"is_disabled":false,"rental_uris":{"android":"levelo://app?vid=d1e3cb8b-55f8-40b0-a409-b74d193856ea","ios":"levelo://app?vid=d1e3cb8b-55f8-40b0-a409-b74d193856ea"},"vehicle_type_id":"4","last_reported":1684170357,"current_range_meters":21600,"station_id":"ce4bgvp2rcd13ifvqcu0","pricing_plan_id":"free"},{"bike_id":"3bbf8571-c3ca-4f06-baee-bc5cd88e056a","system_id":"levelo_inurba_marseille","lat":43.31328,"lon":5.39696,"is_reserved":false,"is_disabled":false,"rental_uris":{"android":"levelo://app?vid=3bbf8571-c3ca-4f06-baee-bc5cd88e056a","ios":"levelo://app?vid=3bbf8571-c3ca-4f06-baee-bc5cd88e056a"},"vehicle_type_id":"4","last_reported":1684170357,"current_range_meters":10000,"station_id":"ce4bgvp2rcd13ifvqcu0","pricing_plan_id":"free"},{"bike_id":"8c331635-570f-4fea-a291-134922223915","system_id":"levelo_inurba_marseille","lat":43.313291,"lon":5.396838,"is_reserved":false,"is_disabled":false,"rental_uris":{"android":"levelo://app?vid=8c331635-570f-4fea-a291-134922223915","ios":"levelo://app?vid=8c331635-570f-4fea-a291-134922223915"},"vehicle_type_id":"4","last_reported":1684170357,"current_range_meters":7600,"station_id":"ce4bgvp2rcd13ifvqcu0","pricing_plan_id":"free"},{"bike_id":"14a377f0-67d2-49e2-aa48-067b36c23940","system_id":"levelo_inurba_marseille","lat":43.309038,"lon":5.396546,"is_reserved":false,"is_disabled":false,"rental_uris":{"android":"levelo://app?vid=14a377f0-67d2-49e2-aa48-067b36c23940","ios":"levelo://app?vid=14a377f0-67d2-49e2-aa48-067b36c23940"},"vehicle_type_id":"4","last_reported":1684170357,"current_range_meters":7200,"station_id":"ce4bh012rcd13ifvqcv0","pricing_plan_id":"free"},{"bike_id":"5b662301-4947-4cef-b863-6cca04dda490","system_id":"levelo_inurba_marseille","lat":43.309038,"lon":5.396546,"is_reserved":false,"is_disabled":false,"rental_uris":{"android":"levelo://app?vid=5b662301-4947-4cef-b863-6cca04dda490","ios":"levelo://app?vid=5b662301-4947-4cef-b863-6cca04dda490"},"vehicle_type_id":"4","last_reported":1684170357,"current_range_meters":17200,"station_id":"ce4bh012rcd13ifvqcv0","pricing_plan_id":"free"},{"bike_id":"4858c327-0c02-4134-be5b-06f6d3036939","system_id":"levelo_inurba_marseille","lat":43.29533,"lon":5.38544,"is_reserved":false,"is_disabled":false,"rental_uris":{"android":"levelo://app?vid=4858c327-0c02-4134-be5b-06f6d3036939","ios":"levelo://app?vid=4858c327-0c02-4134-be5b-06f6d3036939"},"vehicle_type_id":"4","last_reported":1684170357,"current_range_meters":12400,"station_id":"ce4bgih2rcd13ifvqba0","pricing_plan_id":"free"},{"bike_id":"4a0fdf22-c16e-4c8a-a978-95e928a6e103","system_id":"levelo_inurba_marseille","lat":43.284219,"lon":5.3497,"is_reserved":false,"is_disabled":false,"rental_uris":{"android":"levelo://app?vid=4a0fdf22-c16e-4c8a-a978-95e928a6e103","ios":"levelo://app?vid=4a0fdf22-c16e-4c8a-a978-95e928a6e103"},"vehicle_type_id":"4","last_reported":1684170357,"current_range_meters":15200,"station_id":"ce4bhbh2rcd13ifvqepg","pricing_plan_id":"free"},{"bike_id":"61ece8a6-f808-4010-ba2c-568ee6bcafed","system_id":"levelo_inurba_marseille","lat":43.29041,"lon":5.37575,"is_reserved":false,"is_disabled":false,"rental_uris":{"android":"levelo://app?vid=61ece8a6-f808-4010-ba2c-568ee6bcafed","ios":"levelo://app?vid=61ece8a6-f808-4010-ba2c-568ee6bcafed"},"vehicle_type_id":"4","last_reported":1684170357,"current_range_meters":28800,"station_id":"ce4bh692rcd13ifvqe90","pricing_plan_id":"free"},{"bike_id":"c34b90f4-9ee5-49ff-b457-8ca8c2b7e493","system_id":"levelo_inurba_marseille","lat":43.289184,"lon":5.366408,"is_reserved":false,"is_disabled":false,"rental_uris":{"android":"levelo://app?vid=c34b90f4-9ee5-49ff-b457-8ca8c2b7e493","ios":"levelo://app?vid=c34b90f4-9ee5-49ff-b457-8ca8c2b7e493"},"vehicle_type_id":"4","last_reported":1684170357,"current_range_meters":11200,"station_id":"ce4bhap2rcd13ifvqek0","pricing_plan_id":"free"},{"bike_id":"ee60db39-baf6-48fb-b4b3-e76e534474a4","system_id":"levelo_inurba_marseille","lat":43.289468,"lon":5.363719,"is_reserved":false,"is_disabled":false,"rental_uris":{"android":"levelo://app?vid=ee60db39-baf6-48fb-b4b3-e76e534474a4","ios":"levelo://app?vid=ee60db39-baf6-48fb-b4b3-e76e534474a4"},"vehicle_type_id":"4","last_reported":1684170357,"current_range_meters":4400,"station_id":"ce4bhc92rcd13ifvqetg","pricing_plan_id":"free"},{"bike_id":"24776489-4165-4619-8f1f-325e63916286","system_id":"levelo_inurba_marseille","lat":43.289468,"lon":5.363719,"is_reserved":false,"is_disabled":false,"rental_uris":{"android":"levelo://app?vid=24776489-4165-4619-8f1f-325e63916286","ios":"levelo://app?vid=24776489-4165-4619-8f1f-325e63916286"},"vehicle_type_id":"4","last_reported":1684170357,"current_range_meters":0,"station_id":"ce4bhc92rcd13ifvqetg","pricing_plan_id":"free"},{"bike_id":"6087e9d6-c12e-44e6-8c39-4307557927b1","system_id":"levelo_inurba_marseille","lat":43.292642,"lon":5.384254,"is_reserved":false,"is_disabled":false,"rental_uris":{"android":"levelo://app?vid=6087e9d6-c12e-44e6-8c39-4307557927b1","ios":"levelo://app?vid=6087e9d6-c12e-44e6-8c39-4307557927b1"},"vehicle_type_id":"4","last_reported":1684170357,"current_range_meters":7200,"station_id":"ce4bh692rcd13ifvqea0","pricing_plan_id":"free"},{"bike_id":"030b9231-c3b2-411e-ae6d-e65516608c7a","system_id":"levelo_inurba_marseille","lat":43.33041,"lon":5.38916,"is_reserved":false,"is_disabled":false,"rental_uris":{"android":"levelo://app?vid=030b9231-c3b2-411e-ae6d-e65516608c7a","ios":"levelo://app?vid=030b9231-c3b2-411e-ae6d-e65516608c7a"},"vehicle_type_id":"4","last_reported":1684170357,"current_range_meters":20000,"station_id":"ce4bhr92rcd13ifvqhrg","pricing_plan_id":"free"},{"bike_id":"f7511243-15c9-4dfd-8620-cc9b9d0d5dc6","system_id":"levelo_inurba_marseille","lat":43.33043,"lon":5.38918,"is_reserved":false,"is_disabled":false,"rental_uris":{"android":"levelo://app?vid=f7511243-15c9-4dfd-8620-cc9b9d0d5dc6","ios":"levelo://app?vid=f7511243-15c9-4dfd-8620-cc9b9d0d5dc6"},"vehicle_type_id":"4","last_reported":1684170357,"current_range_meters":8000,"station_id":"ce4bhr92rcd13ifvqhrg","pricing_plan_id":"free"},{"bike_id":"fa6ae152-a9bc-4457-9c02-27faa676bee8","system_id":"levelo_inurba_marseille","lat":43.33044,"lon":5.38917,"is_reserved":false,"is_disabled":false,"rental_uris":{"android":"levelo://app?vid=fa6ae152-a9bc-4457-9c02-27faa676bee8","ios":"levelo://app?vid=fa6ae152-a9bc-4457-9c02-27faa676bee8"},"vehicle_type_id":"4","last_reported":1684170357,"current_range_meters":13200,"station_id":"ce4bhr92rcd13ifvqhrg","pricing_plan_id":"free"},{"bike_id":"dc811be1-f27e-44b8-a981-b26decf78c4c","system_id":"levelo_inurba_marseille","lat":43.33046,"lon":5.38915,"is_reserved":false,"is_disabled":false,"rental_uris":{"android":"levelo://app?vid=dc811be1-f27e-44b8-a981-b26decf78c4c","ios":"levelo://app?vid=dc811be1-f27e-44b8-a981-b26decf78c4c"},"vehicle_type_id":"4","last_reported":1684170357,"current_range_meters":6000,"station_id":"ce4bhr92rcd13ifvqhrg","pricing_plan_id":"free"},{"bike_id":"d1207b2e-3cb5-421b-ba98-79f633aa28c4","system_id":"levelo_inurba_marseille","lat":43.33041,"lon":5.38923,"is_reserved":false,"is_disabled":false,"rental_uris":{"android":"levelo://app?vid=d1207b2e-3cb5-421b-ba98-79f633aa28c4","ios":"levelo://app?vid=d1207b2e-3cb5-421b-ba98-79f633aa28c4"},"vehicle_type_id":"4","last_reported":1684170357,"current_range_meters":29200,"station_id":"ce4bhr92rcd13ifvqhrg","pricing_plan_id":"free"},{"bike_id":"389d2b46-3652-474f-95b3-6bde9e83d2d4","system_id":"levelo_inurba_marseille","lat":43.290104,"lon":5.356111,"is_reserved":false,"is_disabled":false,"rental_uris":{"android":"levelo://app?vid=389d2b46-3652-474f-95b3-6bde9e83d2d4","ios":"levelo://app?vid=389d2b46-3652-474f-95b3-6bde9e83d2d4"},"vehicle_type_id":"4","last_reported":1684170357,"current_range_meters":400,"station_id":"ce4bhb92rcd13ifvqen0","pricing_plan_id":"free"},{"bike_id":"7c9f71ef-b77f-4c03-9f45-a7decfddcc77","system_id":"levelo_inurba_marseille","lat":43.33042,"lon":5.38923,"is_reserved":false,"is_disabled":false,"rental_uris":{"android":"levelo://app?vid=7c9f71ef-b77f-4c03-9f45-a7decfddcc77","ios":"levelo://app?vid=7c9f71ef-b77f-4c03-9f45-a7decfddcc77"},"vehicle_type_id":"4","last_reported":1684170357,"current_range_meters":30400,"station_id":"ce4bhr92rcd13ifvqhrg","pricing_plan_id":"free"},{"bike_id":"06568df2-cfe7-49f3-951c-2d76869b4511","system_id":"levelo_inurba_marseille","lat":43.33046,"lon":5.38918,"is_reserved":false,"is_disabled":false,"rental_uris":{"android":"levelo://app?vid=06568df2-cfe7-49f3-951c-2d76869b4511","ios":"levelo://app?vid=06568df2-cfe7-49f3-951c-2d76869b4511"},"vehicle_type_id":"4","last_reported":1684170357,"current_range_meters":29200,"station_id":"ce4bhr92rcd13ifvqhrg","pricing_plan_id":"free"},{"bike_id":"8fed593d-e041-48a5-97b4-87fa0bd07169","system_id":"levelo_inurba_marseille","lat":43.33049,"lon":5.38928,"is_reserved":false,"is_disabled":false,"rental_uris":{"android":"levelo://app?vid=8fed593d-e041-48a5-97b4-87fa0bd07169","ios":"levelo://app?vid=8fed593d-e041-48a5-97b4-87fa0bd07169"},"vehicle_type_id":"4","last_reported":1684170357,"current_range_meters":28800,"station_id":"ce4bhr92rcd13ifvqhrg","pricing_plan_id":"free"},{"bike_id":"90dc250e-04ff-4773-a54c-ccdb3763d397","system_id":"levelo_inurba_marseille","lat":43.289743,"lon":5.378304,"is_reserved":false,"is_disabled":false,"rental_uris":{"android":"levelo://app?vid=90dc250e-04ff-4773-a54c-ccdb3763d397","ios":"levelo://app?vid=90dc250e-04ff-4773-a54c-ccdb3763d397"},"vehicle_type_id":"4","last_reported":1684170357,"current_range_meters":12400,"station_id":"ce4bh9p2rcd13ifvqed0","pricing_plan_id":"free"},{"bike_id":"3e8bab21-9a2e-4001-b373-e7bf0ae2576c","system_id":"levelo_inurba_marseille","lat":43.29524,"lon":5.39041,"is_reserved":false,"is_disabled":false,"rental_uris":{"android":"levelo://app?vid=3e8bab21-9a2e-4001-b373-e7bf0ae2576c","ios":"levelo://app?vid=3e8bab21-9a2e-4001-b373-e7bf0ae2576c"},"vehicle_type_id":"4","last_reported":1684170357,"current_range_meters":0,"station_id":"","pricing_plan_id":"free"},{"bike_id":"a644ae46-7eab-4ece-b842-a78fc03eaa6b","system_id":"levelo_inurba_marseille","lat":43.337328,"lon":5.374538,"is_reserved":false,"is_disabled":false,"rental_uris":{"android":"levelo://app?vid=a644ae46-7eab-4ece-b842-a78fc03eaa6b","ios":"levelo://app?vid=a644ae46-7eab-4ece-b842-a78fc03eaa6b"},"vehicle_type_id":"4","last_reported":1684170357,"current_range_meters":22800,"station_id":"ce4bhah2rcd13ifvqei0","pricing_plan_id":"free"},{"bike_id":"0aaf129a-7f4a-4b0c-837f-833be83b7a49","system_id":"levelo_inurba_marseille","lat":43.337436,"lon":5.374627,"is_reserved":false,"is_disabled":false,"rental_uris":{"android":"levelo://app?vid=0aaf129a-7f4a-4b0c-837f-833be83b7a49","ios":"levelo://app?vid=0aaf129a-7f4a-4b0c-837f-833be83b7a49"},"vehicle_type_id":"4","last_reported":1684170357,"current_range_meters":23600,"station_id":"ce4bhnp2rcd13ifvqgvg","pricing_plan_id":"free"},{"bike_id":"813d4a8b-9ad8-4d3a-8b70-7af3f4d37c5c","system_id":"levelo_inurba_marseille","lat":43.33767,"lon":5.37439,"is_reserved":false,"is_disabled":false,"rental_uris":{"android":"levelo://app?vid=813d4a8b-9ad8-4d3a-8b70-7af3f4d37c5c","ios":"levelo://app?vid=813d4a8b-9ad8-4d3a-8b70-7af3f4d37c5c"},"vehicle_type_id":"4","last_reported":1684170357,"current_range_meters":28800,"station_id":"ce4rr2p2rcd13i802rgg","pricing_plan_id":"free"},{"bike_id":"b23fd310-f81c-4698-8a9d-084a2b0e7c29","system_id":"levelo_inurba_marseille","lat":43.298681,"lon":5.397225,"is_reserved":false,"is_disabled":false,"rental_uris":{"android":"levelo://app?vid=b23fd310-f81c-4698-8a9d-084a2b0e7c29","ios":"levelo://app?vid=b23fd310-f81c-4698-8a9d-084a2b0e7c29"},"vehicle_type_id":"4","last_reported":1684170357,"current_range_meters":12400,"station_id":"ce4bh0h2rcd13ifvqd50","pricing_plan_id":"free"},{"bike_id":"aa9943a0-2849-45b1-a7d4-5daaff90c812","system_id":"levelo_inurba_marseille","lat":43.298681,"lon":5.397225,"is_reserved":false,"is_disabled":false,"rental_uris":{"android":"levelo://app?vid=aa9943a0-2849-45b1-a7d4-5daaff90c812","ios":"levelo://app?vid=aa9943a0-2849-45b1-a7d4-5daaff90c812"},"vehicle_type_id":"4","last_reported":1684170357,"current_range_meters":20000,"station_id":"ce4bh0h2rcd13ifvqd50","pricing_plan_id":"free"},{"bike_id":"dedbc9a8-f478-49bc-9715-fb3b1b0f8d89","system_id":"levelo_inurba_marseille","lat":43.286593,"lon":5.363346,"is_reserved":false,"is_disabled":false,"rental_uris":{"android":"levelo://app?vid=dedbc9a8-f478-49bc-9715-fb3b1b0f8d89","ios":"levelo://app?vid=dedbc9a8-f478-49bc-9715-fb3b1b0f8d89"},"vehicle_type_id":"4","last_reported":1684170357,"current_range_meters":5200,"station_id":"ce4bhah2rcd13ifvqej0","pricing_plan_id":"free"},{"bike_id":"b63c532c-18fc-4111-9e2b-916a0908e6dc","system_id":"levelo_inurba_marseille","lat":43.295196,"lon":5.39397,"is_reserved":false,"is_disabled":false,"rental_uris":{"android":"levelo://app?vid=b63c532c-18fc-4111-9e2b-916a0908e6dc","ios":"levelo://app?vid=b63c532c-18fc-4111-9e2b-916a0908e6dc"},"vehicle_type_id":"4","last_reported":1684170357,"current_range_meters":8000,"station_id":"ce4bh292rcd13ifvqdf0","pricing_plan_id":"free"},{"bike_id":"8de7b855-5bc2-47e2-a211-536c87015a77","system_id":"levelo_inurba_marseille","lat":43.295194,"lon":5.39397,"is_reserved":false,"is_disabled":false,"rental_uris":{"android":"levelo://app?vid=8de7b855-5bc2-47e2-a211-536c87015a77","ios":"levelo://app?vid=8de7b855-5bc2-47e2-a211-536c87015a77"},"vehicle_type_id":"4","last_reported":1684170357,"current_range_meters":0,"station_id":"ce4bh292rcd13ifvqdf0","pricing_plan_id":"free"},{"bike_id":"d350fe19-7f4a-4c40-8e7e-c5d40be2d1e3","system_id":"levelo_inurba_marseille","lat":43.302759,"lon":5.400793,"is_reserved":false,"is_disabled":false,"rental_uris":{"android":"levelo://app?vid=d350fe19-7f4a-4c40-8e7e-c5d40be2d1e3","ios":"levelo://app?vid=d350fe19-7f4a-4c40-8e7e-c5d40be2d1e3"},"vehicle_type_id":"4","last_reported":1684170357,"current_range_meters":14400,"station_id":"ce4bgvh2rcd13ifvqcs0","pricing_plan_id":"free"},{"bike_id":"9d5e095b-86e0-4130-bda7-0f750375fef0","system_id":"levelo_inurba_marseille","lat":43.29039,"lon":5.3865,"is_reserved":false,"is_disabled":false,"rental_uris":{"android":"levelo://app?vid=9d5e095b-86e0-4130-bda7-0f750375fef0","ios":"levelo://app?vid=9d5e095b-86e0-4130-bda7-0f750375fef0"},"vehicle_type_id":"4","last_reported":1684170357,"current_range_meters":8400,"station_id":"ce4bh4p2rcd13ifvqe0g","pricing_plan_id":"free"},{"bike_id":"46ac63f7-b78b-4032-9002-a1e795470b37","system_id":"levelo_inurba_marseille","lat":43.29033,"lon":5.38644,"is_reserved":false,"is_disabled":false,"rental_uris":{"android":"levelo://app?vid=46ac63f7-b78b-4032-9002-a1e795470b37","ios":"levelo://app?vid=46ac63f7-b78b-4032-9002-a1e795470b37"},"vehicle_type_id":"4","last_reported":1684170357,"current_range_meters":23600,"station_id":"ce4bh4p2rcd13ifvqe0g","pricing_plan_id":"free"},{"bike_id":"d900556f-4832-4adc-9fe3-447868a70cdf","system_id":"levelo_inurba_marseille","lat":43.316447,"lon":5.404321,"is_reserved":false,"is_disabled":false,"rental_uris":{"android":"levelo://app?vid=d900556f-4832-4adc-9fe3-447868a70cdf","ios":"levelo://app?vid=d900556f-4832-4adc-9fe3-447868a70cdf"},"vehicle_type_id":"4","last_reported":1684170357,"current_range_meters":12800,"station_id":"","pricing_plan_id":"free"},{"bike_id":"5d861580-195a-4dd7-936a-1ee939d95364","system_id":"levelo_inurba_marseille","lat":43.291994,"lon":5.392907,"is_reserved":false,"is_disabled":false,"rental_uris":{"android":"levelo://app?vid=5d861580-195a-4dd7-936a-1ee939d95364","ios":"levelo://app?vid=5d861580-195a-4dd7-936a-1ee939d95364"},"vehicle_type_id":"4","last_reported":1684170357,"current_range_meters":31200,"station_id":"ce4bh192rcd13ifvqdd0","pricing_plan_id":"free"},{"bike_id":"9adc00cf-5d1c-40d2-9be8-5a21cb494e6e","system_id":"levelo_inurba_marseille","lat":43.291994,"lon":5.392907,"is_reserved":false,"is_disabled":false,"rental_uris":{"android":"levelo://app?vid=9adc00cf-5d1c-40d2-9be8-5a21cb494e6e","ios":"levelo://app?vid=9adc00cf-5d1c-40d2-9be8-5a21cb494e6e"},"vehicle_type_id":"4","last_reported":1684170357,"current_range_meters":30400,"station_id":"ce4bh192rcd13ifvqdd0","pricing_plan_id":"free"},{"bike_id":"f48c89c8-1dd4-4e3a-97ef-896f972c8639","system_id":"levelo_inurba_marseille","lat":43.291994,"lon":5.392907,"is_reserved":false,"is_disabled":false,"rental_uris":{"android":"levelo://app?vid=f48c89c8-1dd4-4e3a-97ef-896f972c8639","ios":"levelo://app?vid=f48c89c8-1dd4-4e3a-97ef-896f972c8639"},"vehicle_type_id":"4","last_reported":1684170357,"current_range_meters":10000,"station_id":"ce4bh192rcd13ifvqdd0","pricing_plan_id":"free"},{"bike_id":"cf711f34-f38b-4a3b-a40d-de2d4df276c8","system_id":"levelo_inurba_marseille","lat":43.291994,"lon":5.392907,"is_reserved":false,"is_disabled":false,"rental_uris":{"android":"levelo://app?vid=cf711f34-f38b-4a3b-a40d-de2d4df276c8","ios":"levelo://app?vid=cf711f34-f38b-4a3b-a40d-de2d4df276c8"},"vehicle_type_id":"4","last_reported":1684170357,"current_range_meters":17600,"station_id":"ce4bh192rcd13ifvqdd0","pricing_plan_id":"free"},{"bike_id":"14225d95-0809-4d1c-932b-6940116a5a01","system_id":"levelo_inurba_marseille","lat":43.284534,"lon":5.358662,"is_reserved":false,"is_disabled":false,"rental_uris":{"android":"levelo://app?vid=14225d95-0809-4d1c-932b-6940116a5a01","ios":"levelo://app?vid=14225d95-0809-4d1c-932b-6940116a5a01"},"vehicle_type_id":"4","last_reported":1684170357,"current_range_meters":8800,"station_id":"ce4bhah2rcd13ifvqei0","pricing_plan_id":"free"},{"bike_id":"1a1fedfb-bc1b-4438-8983-b7abc439a0a2","system_id":"levelo_inurba_marseille","lat":43.284534,"lon":5.358662,"is_reserved":false,"is_disabled":false,"rental_uris":{"android":"levelo://app?vid=1a1fedfb-bc1b-4438-8983-b7abc439a0a2","ios":"levelo://app?vid=1a1fedfb-bc1b-4438-8983-b7abc439a0a2"},"vehicle_type_id":"4","last_reported":1684170357,"current_range_meters":3200,"station_id":"ce4bhah2rcd13ifvqei0","pricing_plan_id":"free"},{"bike_id":"2cf4b41e-bedc-4825-a7da-3cbde0c261d8","system_id":"levelo_inurba_marseille","lat":43.284534,"lon":5.358662,"is_reserved":false,"is_disabled":false,"rental_uris":{"android":"levelo://app?vid=2cf4b41e-bedc-4825-a7da-3cbde0c261d8","ios":"levelo://app?vid=2cf4b41e-bedc-4825-a7da-3cbde0c261d8"},"vehicle_type_id":"4","last_reported":1684170357,"current_range_meters":27200,"station_id":"ce4bhah2rcd13ifvqei0","pricing_plan_id":"free"},{"bike_id":"ab71db90-45eb-45c9-b4e0-ae6149c1fd53","system_id":"levelo_inurba_marseille","lat":43.284534,"lon":5.358662,"is_reserved":false,"is_disabled":false,"rental_uris":{"android":"levelo://app?vid=ab71db90-45eb-45c9-b4e0-ae6149c1fd53","ios":"levelo://app?vid=ab71db90-45eb-45c9-b4e0-ae6149c1fd53"},"vehicle_type_id":"4","last_reported":1684170357,"current_range_meters":4400,"station_id":"ce4bhah2rcd13ifvqei0","pricing_plan_id":"free"},{"bike_id":"90016cb9-3e6a-4f68-820b-7be7a3092e92","system_id":"levelo_inurba_marseille","lat":43.284534,"lon":5.358662,"is_reserved":false,"is_disabled":false,"rental_uris":{"android":"levelo://app?vid=90016cb9-3e6a-4f68-820b-7be7a3092e92","ios":"levelo://app?vid=90016cb9-3e6a-4f68-820b-7be7a3092e92"},"vehicle_type_id":"4","last_reported":1684170357,"current_range_meters":27600,"station_id":"ce4bhah2rcd13ifvqei0","pricing_plan_id":"free"},{"bike_id":"58161430-f6db-4541-b1d7-dc0ca15f4be7","system_id":"levelo_inurba_marseille","lat":43.284534,"lon":5.358662,"is_reserved":false,"is_disabled":false,"rental_uris":{"android":"levelo://app?vid=58161430-f6db-4541-b1d7-dc0ca15f4be7","ios":"levelo://app?vid=58161430-f6db-4541-b1d7-dc0ca15f4be7"},"vehicle_type_id":"4","last_reported":1684170357,"current_range_meters":0,"station_id":"ce4bhah2rcd13ifvqei0","pricing_plan_id":"free"},{"bike_id":"805d6e7a-509b-41d5-b67a-500ce5f214ad","system_id":"levelo_inurba_marseille","lat":43.284534,"lon":5.358662,"is_reserved":false,"is_disabled":false,"rental_uris":{"android":"levelo://app?vid=805d6e7a-509b-41d5-b67a-500ce5f214ad","ios":"levelo://app?vid=805d6e7a-509b-41d5-b67a-500ce5f214ad"},"vehicle_type_id":"4","last_reported":1684170357,"current_range_meters":18400,"station_id":"ce4bhah2rcd13ifvqei0","pricing_plan_id":"free"},{"bike_id":"51b1edef-abcb-4fcc-9d08-3b900fc767ac","system_id":"levelo_inurba_marseille","lat":43.284534,"lon":5.358662,"is_reserved":false,"is_disabled":false,"rental_uris":{"android":"levelo://app?vid=51b1edef-abcb-4fcc-9d08-3b900fc767ac","ios":"levelo://app?vid=51b1edef-abcb-4fcc-9d08-3b900fc767ac"},"vehicle_type_id":"4","last_reported":1684170357,"current_range_meters":13200,"station_id":"ce4bhah2rcd13ifvqei0","pricing_plan_id":"free"},{"bike_id":"fe0a48d0-5cfb-41dc-9318-dde0d3a6a311","system_id":"levelo_inurba_marseille","lat":43.284534,"lon":5.358662,"is_reserved":false,"is_disabled":false,"rental_uris":{"android":"levelo://app?vid=fe0a48d0-5cfb-41dc-9318-dde0d3a6a311","ios":"levelo://app?vid=fe0a48d0-5cfb-41dc-9318-dde0d3a6a311"},"vehicle_type_id":"4","last_reported":1684170357,"current_range_meters":10000,"station_id":"ce4bhah2rcd13ifvqei0","pricing_plan_id":"free"},{"bike_id":"f5db6993-8753-42ea-a5cf-414f4b2bfce5","system_id":"levelo_inurba_marseille","lat":43.284534,"lon":5.358662,"is_reserved":false,"is_disabled":false,"rental_uris":{"android":"levelo://app?vid=f5db6993-8753-42ea-a5cf-414f4b2bfce5","ios":"levelo://app?vid=f5db6993-8753-42ea-a5cf-414f4b2bfce5"},"vehicle_type_id":"4","last_reported":1684170357,"current_range_meters":19600,"station_id":"ce4bhah2rcd13ifvqei0","pricing_plan_id":"free"},{"bike_id":"8830da87-e836-4c5e-84c3-37939b94939e","system_id":"levelo_inurba_marseille","lat":43.284534,"lon":5.358662,"is_reserved":false,"is_disabled":false,"rental_uris":{"android":"levelo://app?vid=8830da87-e836-4c5e-84c3-37939b94939e","ios":"levelo://app?vid=8830da87-e836-4c5e-84c3-37939b94939e"},"vehicle_type_id":"4","last_reported":1684170357,"current_range_meters":23200,"station_id":"ce4bhah2rcd13ifvqei0","pricing_plan_id":"free"},{"bike_id":"454a0c5f-f06c-48b2-8b7f-6209ddc57402","system_id":"levelo_inurba_marseille","lat":43.284534,"lon":5.358662,"is_reserved":false,"is_disabled":false,"rental_uris":{"android":"levelo://app?vid=454a0c5f-f06c-48b2-8b7f-6209ddc57402","ios":"levelo://app?vid=454a0c5f-f06c-48b2-8b7f-6209ddc57402"},"vehicle_type_id":"4","last_reported":1684170357,"current_range_meters":18800,"station_id":"ce4bhah2rcd13ifvqei0","pricing_plan_id":"free"},{"bike_id":"98eadbde-d5ff-4b7d-a2f2-f073c9242783","system_id":"levelo_inurba_marseille","lat":43.28624,"lon":5.35105,"is_reserved":false,"is_disabled":false,"rental_uris":{"android":"levelo://app?vid=98eadbde-d5ff-4b7d-a2f2-f073c9242783","ios":"levelo://app?vid=98eadbde-d5ff-4b7d-a2f2-f073c9242783"},"vehicle_type_id":"4","last_reported":1684170357,"current_range_meters":25600,"station_id":"","pricing_plan_id":"free"},{"bike_id":"3be142d8-249f-4aa7-a5fa-fd2e94a59bcd","system_id":"levelo_inurba_marseille","lat":43.28621,"lon":5.35109,"is_reserved":false,"is_disabled":false,"rental_uris":{"android":"levelo://app?vid=3be142d8-249f-4aa7-a5fa-fd2e94a59bcd","ios":"levelo://app?vid=3be142d8-249f-4aa7-a5fa-fd2e94a59bcd"},"vehicle_type_id":"4","last_reported":1684170357,"current_range_meters":7600,"station_id":"","pricing_plan_id":"free"},{"bike_id":"2c3800e5-4408-40c9-91ce-a829f186666e","system_id":"levelo_inurba_marseille","lat":43.28621,"lon":5.35107,"is_reserved":false,"is_disabled":false,"rental_uris":{"android":"levelo://app?vid=2c3800e5-4408-40c9-91ce-a829f186666e","ios":"levelo://app?vid=2c3800e5-4408-40c9-91ce-a829f186666e"},"vehicle_type_id":"4","last_reported":1684170357,"current_range_meters":28000,"station_id":"","pricing_plan_id":"free"},{"bike_id":"4da944e7-4bf8-4a1f-a9fe-9a3bde81f918","system_id":"levelo_inurba_marseille","lat":43.285856,"lon":5.350771,"is_reserved":false,"is_disabled":false,"rental_uris":{"android":"levelo://app?vid=4da944e7-4bf8-4a1f-a9fe-9a3bde81f918","ios":"levelo://app?vid=4da944e7-4bf8-4a1f-a9fe-9a3bde81f918"},"vehicle_type_id":"4","last_reported":1684170357,"current_range_meters":21200,"station_id":"ce4bhch2rcd13ifvqeug","pricing_plan_id":"free"},{"bike_id":"fef8b3d8-232e-4c0b-beda-7ba0ac79893c","system_id":"levelo_inurba_marseille","lat":43.2862,"lon":5.35105,"is_reserved":false,"is_disabled":false,"rental_uris":{"android":"levelo://app?vid=fef8b3d8-232e-4c0b-beda-7ba0ac79893c","ios":"levelo://app?vid=fef8b3d8-232e-4c0b-beda-7ba0ac79893c"},"vehicle_type_id":"4","last_reported":1684170357,"current_range_meters":30800,"station_id":"","pricing_plan_id":"free"},{"bike_id":"129bb63a-be19-4397-9284-e5ab0a3e7636","system_id":"levelo_inurba_marseille","lat":43.28619,"lon":5.35107,"is_reserved":false,"is_disabled":false,"rental_uris":{"android":"levelo://app?vid=129bb63a-be19-4397-9284-e5ab0a3e7636","ios":"levelo://app?vid=129bb63a-be19-4397-9284-e5ab0a3e7636"},"vehicle_type_id":"4","last_reported":1684170357,"current_range_meters":11200,"station_id":"","pricing_plan_id":"free"},{"bike_id":"13097756-b7e8-4515-8c93-eed717af7a29","system_id":"levelo_inurba_marseille","lat":43.2862,"lon":5.35101,"is_reserved":false,"is_disabled":false,"rental_uris":{"android":"levelo://app?vid=13097756-b7e8-4515-8c93-eed717af7a29","ios":"levelo://app?vid=13097756-b7e8-4515-8c93-eed717af7a29"},"vehicle_type_id":"4","last_reported":1684170357,"current_range_meters":30400,"station_id":"","pricing_plan_id":"free"},{"bike_id":"3c34687f-2d3a-4ab9-ad4a-f37f3ffd4f2d","system_id":"levelo_inurba_marseille","lat":43.2862,"lon":5.35101,"is_reserved":false,"is_disabled":false,"rental_uris":{"android":"levelo://app?vid=3c34687f-2d3a-4ab9-ad4a-f37f3ffd4f2d","ios":"levelo://app?vid=3c34687f-2d3a-4ab9-ad4a-f37f3ffd4f2d"},"vehicle_type_id":"4","last_reported":1684170357,"current_range_meters":26400,"station_id":"","pricing_plan_id":"free"},{"bike_id":"5a64992d-4f81-4576-9167-4fdf51d97a63","system_id":"levelo_inurba_marseille","lat":43.28619,"lon":5.35103,"is_reserved":false,"is_disabled":false,"rental_uris":{"android":"levelo://app?vid=5a64992d-4f81-4576-9167-4fdf51d97a63","ios":"levelo://app?vid=5a64992d-4f81-4576-9167-4fdf51d97a63"},"vehicle_type_id":"4","last_reported":1684170357,"current_range_meters":30800,"station_id":"","pricing_plan_id":"free"},{"bike_id":"c8d10fac-b0cb-4047-a891-7a0e801041f4","system_id":"levelo_inurba_marseille","lat":43.28619,"lon":5.35103,"is_reserved":false,"is_disabled":false,"rental_uris":{"android":"levelo://app?vid=c8d10fac-b0cb-4047-a891-7a0e801041f4","ios":"levelo://app?vid=c8d10fac-b0cb-4047-a891-7a0e801041f4"},"vehicle_type_id":"4","last_reported":1684170357,"current_range_meters":16800,"station_id":"","pricing_plan_id":"free"},{"bike_id":"d4621018-2178-48e1-8a34-912b4ef39e7e","system_id":"levelo_inurba_marseille","lat":43.28619,"lon":5.35102,"is_reserved":false,"is_disabled":false,"rental_uris":{"android":"levelo://app?vid=d4621018-2178-48e1-8a34-912b4ef39e7e","ios":"levelo://app?vid=d4621018-2178-48e1-8a34-912b4ef39e7e"},"vehicle_type_id":"4","last_reported":1684170357,"current_range_meters":31200,"station_id":"","pricing_plan_id":"free"},{"bike_id":"f4f67a93-4410-45b2-be58-1107fe3e2183","system_id":"levelo_inurba_marseille","lat":43.28616,"lon":5.35111,"is_reserved":false,"is_disabled":false,"rental_uris":{"android":"levelo://app?vid=f4f67a93-4410-45b2-be58-1107fe3e2183","ios":"levelo://app?vid=f4f67a93-4410-45b2-be58-1107fe3e2183"},"vehicle_type_id":"4","last_reported":1684170357,"current_range_meters":16800,"station_id":"","pricing_plan_id":"free"},{"bike_id":"0da6cca6-68f9-432e-93b1-a08a82d048e3","system_id":"levelo_inurba_marseille","lat":43.28617,"lon":5.35106,"is_reserved":false,"is_disabled":false,"rental_uris":{"android":"levelo://app?vid=0da6cca6-68f9-432e-93b1-a08a82d048e3","ios":"levelo://app?vid=0da6cca6-68f9-432e-93b1-a08a82d048e3"},"vehicle_type_id":"4","last_reported":1684170357,"current_range_meters":9200,"station_id":"","pricing_plan_id":"free"},{"bike_id":"2b665aec-e325-45fd-bbae-d3c8aca91a22","system_id":"levelo_inurba_marseille","lat":43.28618,"lon":5.35102,"is_reserved":false,"is_disabled":false,"rental_uris":{"android":"levelo://app?vid=2b665aec-e325-45fd-bbae-d3c8aca91a22","ios":"levelo://app?vid=2b665aec-e325-45fd-bbae-d3c8aca91a22"},"vehicle_type_id":"4","last_reported":1684170357,"current_range_meters":22000,"station_id":"","pricing_plan_id":"free"},{"bike_id":"2d283eda-870b-4f4f-9675-155d89358bfb","system_id":"levelo_inurba_marseille","lat":43.28618,"lon":5.35101,"is_reserved":false,"is_disabled":false,"rental_uris":{"android":"levelo://app?vid=2d283eda-870b-4f4f-9675-155d89358bfb","ios":"levelo://app?vid=2d283eda-870b-4f4f-9675-155d89358bfb"},"vehicle_type_id":"4","last_reported":1684170357,"current_range_meters":31200,"station_id":"","pricing_plan_id":"free"},{"bike_id":"bbd7436b-1f5c-4d85-a8ea-79bcb268f93e","system_id":"levelo_inurba_marseille","lat":43.285856,"lon":5.350771,"is_reserved":false,"is_disabled":false,"rental_uris":{"android":"levelo://app?vid=bbd7436b-1f5c-4d85-a8ea-79bcb268f93e","ios":"levelo://app?vid=bbd7436b-1f5c-4d85-a8ea-79bcb268f93e"},"vehicle_type_id":"4","last_reported":1684170357,"current_range_meters":31200,"station_id":"ce4bhch2rcd13ifvqeug","pricing_plan_id":"free"},{"bike_id":"3a242261-0216-45db-a1b0-f80d4648ccbb","system_id":"levelo_inurba_marseille","lat":43.28618,"lon":5.35094,"is_reserved":false,"is_disabled":false,"rental_uris":{"android":"levelo://app?vid=3a242261-0216-45db-a1b0-f80d4648ccbb","ios":"levelo://app?vid=3a242261-0216-45db-a1b0-f80d4648ccbb"},"vehicle_type_id":"4","last_reported":1684170357,"current_range_meters":28000,"station_id":"","pricing_plan_id":"free"},{"bike_id":"7c84b1e2-8962-4679-a840-ae274eec1961","system_id":"levelo_inurba_marseille","lat":43.28617,"lon":5.35097,"is_reserved":false,"is_disabled":false,"rental_uris":{"android":"levelo://app?vid=7c84b1e2-8962-4679-a840-ae274eec1961","ios":"levelo://app?vid=7c84b1e2-8962-4679-a840-ae274eec1961"},"vehicle_type_id":"4","last_reported":1684170357,"current_range_meters":20800,"station_id":"","pricing_plan_id":"free"},{"bike_id":"3fc592f3-4d65-4077-984b-890df09f3840","system_id":"levelo_inurba_marseille","lat":43.28613,"lon":5.35108,"is_reserved":false,"is_disabled":false,"rental_uris":{"android":"levelo://app?vid=3fc592f3-4d65-4077-984b-890df09f3840","ios":"levelo://app?vid=3fc592f3-4d65-4077-984b-890df09f3840"},"vehicle_type_id":"4","last_reported":1684170357,"current_range_meters":0,"station_id":"","pricing_plan_id":"free"},{"bike_id":"28bfd4b4-deeb-41fa-902d-d824483a1341","system_id":"levelo_inurba_marseille","lat":43.28615,"lon":5.35101,"is_reserved":false,"is_disabled":false,"rental_uris":{"android":"levelo://app?vid=28bfd4b4-deeb-41fa-902d-d824483a1341","ios":"levelo://app?vid=28bfd4b4-deeb-41fa-902d-d824483a1341"},"vehicle_type_id":"4","last_reported":1684170357,"current_range_meters":30000,"station_id":"","pricing_plan_id":"free"},{"bike_id":"8dd6de62-8b81-4c0f-99aa-5b6ffc0f7c6f","system_id":"levelo_inurba_marseille","lat":43.286151,"lon":5.351006,"is_reserved":false,"is_disabled":false,"rental_uris":{"android":"levelo://app?vid=8dd6de62-8b81-4c0f-99aa-5b6ffc0f7c6f","ios":"levelo://app?vid=8dd6de62-8b81-4c0f-99aa-5b6ffc0f7c6f"},"vehicle_type_id":"4","last_reported":1684170357,"current_range_meters":10000,"station_id":"ce4bhbp2rcd13ifvqerg","pricing_plan_id":"free"},{"bike_id":"81973241-78a1-46d1-be74-923330f4754a","system_id":"levelo_inurba_marseille","lat":43.28614,"lon":5.35097,"is_reserved":false,"is_disabled":false,"rental_uris":{"android":"levelo://app?vid=81973241-78a1-46d1-be74-923330f4754a","ios":"levelo://app?vid=81973241-78a1-46d1-be74-923330f4754a"},"vehicle_type_id":"4","last_reported":1684170357,"current_range_meters":1600,"station_id":"","pricing_plan_id":"free"},{"bike_id":"4ebb2e52-c3e8-491b-8de7-0e73e8acbd1d","system_id":"levelo_inurba_marseille","lat":43.323464,"lon":5.406297,"is_reserved":false,"is_disabled":false,"rental_uris":{"android":"levelo://app?vid=4ebb2e52-c3e8-491b-8de7-0e73e8acbd1d","ios":"levelo://app?vid=4ebb2e52-c3e8-491b-8de7-0e73e8acbd1d"},"vehicle_type_id":"4","last_reported":1684170357,"current_range_meters":31200,"station_id":"ce4bhq92rcd13ifvqhjg","pricing_plan_id":"free"},{"bike_id":"f38664cb-2587-4e95-98f6-d6b9ba4ca768","system_id":"levelo_inurba_marseille","lat":43.323464,"lon":5.406297,"is_reserved":false,"is_disabled":false,"rental_uris":{"android":"levelo://app?vid=f38664cb-2587-4e95-98f6-d6b9ba4ca768","ios":"levelo://app?vid=f38664cb-2587-4e95-98f6-d6b9ba4ca768"},"vehicle_type_id":"4","last_reported":1684170357,"current_range_meters":30000,"station_id":"ce4bhq92rcd13ifvqhjg","pricing_plan_id":"free"},{"bike_id":"2d0e5ff0-e6e8-4d3a-a849-63eb3408db8b","system_id":"levelo_inurba_marseille","lat":43.288501,"lon":5.393087,"is_reserved":false,"is_disabled":false,"rental_uris":{"android":"levelo://app?vid=2d0e5ff0-e6e8-4d3a-a849-63eb3408db8b","ios":"levelo://app?vid=2d0e5ff0-e6e8-4d3a-a849-63eb3408db8b"},"vehicle_type_id":"4","last_reported":1684170357,"current_range_meters":12400,"station_id":"ce4bh2p2rcd13ifvqdi0","pricing_plan_id":"free"},{"bike_id":"3e3736e9-40d4-4794-95de-737b33838ad4","system_id":"levelo_inurba_marseille","lat":43.288497,"lon":5.393089,"is_reserved":false,"is_disabled":false,"rental_uris":{"android":"levelo://app?vid=3e3736e9-40d4-4794-95de-737b33838ad4","ios":"levelo://app?vid=3e3736e9-40d4-4794-95de-737b33838ad4"},"vehicle_type_id":"4","last_reported":1684170357,"current_range_meters":5600,"station_id":"ce4bh2p2rcd13ifvqdi0","pricing_plan_id":"free"},{"bike_id":"9651c931-8a89-43a6-88ac-6d02385f536e","system_id":"levelo_inurba_marseille","lat":43.28429,"lon":5.34987,"is_reserved":false,"is_disabled":false,"rental_uris":{"android":"levelo://app?vid=9651c931-8a89-43a6-88ac-6d02385f536e","ios":"levelo://app?vid=9651c931-8a89-43a6-88ac-6d02385f536e"},"vehicle_type_id":"4","last_reported":1684170357,"current_range_meters":0,"station_id":"ce4bhbh2rcd13ifvqepg","pricing_plan_id":"free"},{"bike_id":"e366cba2-f427-4e77-80c6-4da14f047ff0","system_id":"levelo_inurba_marseille","lat":43.28455,"lon":5.38486,"is_reserved":false,"is_disabled":false,"rental_uris":{"android":"levelo://app?vid=e366cba2-f427-4e77-80c6-4da14f047ff0","ios":"levelo://app?vid=e366cba2-f427-4e77-80c6-4da14f047ff0"},"vehicle_type_id":"4","last_reported":1684170357,"current_range_meters":9600,"station_id":"ce4bha12rcd13ifvqee0","pricing_plan_id":"free"},{"bike_id":"e50ecd6f-e855-496f-8a8e-f94ead1768c9","system_id":"levelo_inurba_marseille","lat":43.284217,"lon":5.349697,"is_reserved":false,"is_disabled":false,"rental_uris":{"android":"levelo://app?vid=e50ecd6f-e855-496f-8a8e-f94ead1768c9","ios":"levelo://app?vid=e50ecd6f-e855-496f-8a8e-f94ead1768c9"},"vehicle_type_id":"4","last_reported":1684170357,"current_range_meters":21200,"station_id":"ce4bhbh2rcd13ifvqepg","pricing_plan_id":"free"},{"bike_id":"df7de2f6-a6f6-4c34-96f2-f1a8e36d1aea","system_id":"levelo_inurba_marseille","lat":43.284219,"lon":5.3497,"is_reserved":false,"is_disabled":false,"rental_uris":{"android":"levelo://app?vid=df7de2f6-a6f6-4c34-96f2-f1a8e36d1aea","ios":"levelo://app?vid=df7de2f6-a6f6-4c34-96f2-f1a8e36d1aea"},"vehicle_type_id":"4","last_reported":1684170357,"current_range_meters":31200,"station_id":"ce4bhbh2rcd13ifvqepg","pricing_plan_id":"free"},{"bike_id":"62eb235e-5f9c-4982-a521-06ac25edfd39","system_id":"levelo_inurba_marseille","lat":43.28426,"lon":5.34973,"is_reserved":false,"is_disabled":false,"rental_uris":{"android":"levelo://app?vid=62eb235e-5f9c-4982-a521-06ac25edfd39","ios":"levelo://app?vid=62eb235e-5f9c-4982-a521-06ac25edfd39"},"vehicle_type_id":"4","last_reported":1684170357,"current_range_meters":20800,"station_id":"ce4bhbh2rcd13ifvqepg","pricing_plan_id":"free"},{"bike_id":"b557dae2-3d4d-44b6-a788-6ef45dc42c42","system_id":"levelo_inurba_marseille","lat":43.284219,"lon":5.3497,"is_reserved":false,"is_disabled":false,"rental_uris":{"android":"levelo://app?vid=b557dae2-3d4d-44b6-a788-6ef45dc42c42","ios":"levelo://app?vid=b557dae2-3d4d-44b6-a788-6ef45dc42c42"},"vehicle_type_id":"4","last_reported":1684170357,"current_range_meters":17200,"station_id":"ce4bhbh2rcd13ifvqepg","pricing_plan_id":"free"},{"bike_id":"88dde1fc-4a7b-453b-b569-c51ef30cf14c","system_id":"levelo_inurba_marseille","lat":43.284217,"lon":5.349697,"is_reserved":false,"is_disabled":false,"rental_uris":{"android":"levelo://app?vid=88dde1fc-4a7b-453b-b569-c51ef30cf14c","ios":"levelo://app?vid=88dde1fc-4a7b-453b-b569-c51ef30cf14c"},"vehicle_type_id":"4","last_reported":1684170357,"current_range_meters":29600,"station_id":"ce4bhbh2rcd13ifvqepg","pricing_plan_id":"free"},{"bike_id":"3b300651-be76-4054-b6e5-2981d85f0620","system_id":"levelo_inurba_marseille","lat":43.284217,"lon":5.349697,"is_reserved":false,"is_disabled":false,"rental_uris":{"android":"levelo://app?vid=3b300651-be76-4054-b6e5-2981d85f0620","ios":"levelo://app?vid=3b300651-be76-4054-b6e5-2981d85f0620"},"vehicle_type_id":"4","last_reported":1684170357,"current_range_meters":27200,"station_id":"ce4bhbh2rcd13ifvqepg","pricing_plan_id":"free"},{"bike_id":"422e969b-de68-4e39-b3ca-0164d4efd97f","system_id":"levelo_inurba_marseille","lat":43.284219,"lon":5.3497,"is_reserved":false,"is_disabled":false,"rental_uris":{"android":"levelo://app?vid=422e969b-de68-4e39-b3ca-0164d4efd97f","ios":"levelo://app?vid=422e969b-de68-4e39-b3ca-0164d4efd97f"},"vehicle_type_id":"4","last_reported":1684170357,"current_range_meters":30400,"station_id":"ce4bhbh2rcd13ifvqepg","pricing_plan_id":"free"},{"bike_id":"72cbb59e-93ed-48a8-9b5c-762f32e3ae96","system_id":"levelo_inurba_marseille","lat":43.284219,"lon":5.3497,"is_reserved":false,"is_disabled":false,"rental_uris":{"android":"levelo://app?vid=72cbb59e-93ed-48a8-9b5c-762f32e3ae96","ios":"levelo://app?vid=72cbb59e-93ed-48a8-9b5c-762f32e3ae96"},"vehicle_type_id":"4","last_reported":1684170357,"current_range_meters":31200,"station_id":"ce4bhbh2rcd13ifvqepg","pricing_plan_id":"free"},{"bike_id":"d10b1c59-a278-44a7-994f-61b6779e4d5d","system_id":"levelo_inurba_marseille","lat":43.284217,"lon":5.349697,"is_reserved":false,"is_disabled":false,"rental_uris":{"android":"levelo://app?vid=d10b1c59-a278-44a7-994f-61b6779e4d5d","ios":"levelo://app?vid=d10b1c59-a278-44a7-994f-61b6779e4d5d"},"vehicle_type_id":"4","last_reported":1684170357,"current_range_meters":30400,"station_id":"ce4bhbh2rcd13ifvqepg","pricing_plan_id":"free"},{"bike_id":"c07c3e35-d52d-4b10-9a22-49a78bfbbfb8","system_id":"levelo_inurba_marseille","lat":43.284217,"lon":5.349697,"is_reserved":false,"is_disabled":false,"rental_uris":{"android":"levelo://app?vid=c07c3e35-d52d-4b10-9a22-49a78bfbbfb8","ios":"levelo://app?vid=c07c3e35-d52d-4b10-9a22-49a78bfbbfb8"},"vehicle_type_id":"4","last_reported":1684170357,"current_range_meters":29200,"station_id":"ce4bhbh2rcd13ifvqepg","pricing_plan_id":"free"},{"bike_id":"dd8fc7fb-e4ed-4b86-a4af-ce974516cfab","system_id":"levelo_inurba_marseille","lat":43.284219,"lon":5.3497,"is_reserved":false,"is_disabled":false,"rental_uris":{"android":"levelo://app?vid=dd8fc7fb-e4ed-4b86-a4af-ce974516cfab","ios":"levelo://app?vid=dd8fc7fb-e4ed-4b86-a4af-ce974516cfab"},"vehicle_type_id":"4","last_reported":1684170357,"current_range_meters":9600,"station_id":"ce4bhbh2rcd13ifvqepg","pricing_plan_id":"free"},{"bike_id":"9e669dce-c083-4c21-bca9-c56f1097660d","system_id":"levelo_inurba_marseille","lat":43.28418,"lon":5.34979,"is_reserved":false,"is_disabled":false,"rental_uris":{"android":"levelo://app?vid=9e669dce-c083-4c21-bca9-c56f1097660d","ios":"levelo://app?vid=9e669dce-c083-4c21-bca9-c56f1097660d"},"vehicle_type_id":"4","last_reported":1684170357,"current_range_meters":29200,"station_id":"ce4bhbh2rcd13ifvqepg","pricing_plan_id":"free"},{"bike_id":"a1e668d0-8824-45fb-b9ba-207c0d07a5df","system_id":"levelo_inurba_marseille","lat":43.28419,"lon":5.34972,"is_reserved":false,"is_disabled":false,"rental_uris":{"android":"levelo://app?vid=a1e668d0-8824-45fb-b9ba-207c0d07a5df","ios":"levelo://app?vid=a1e668d0-8824-45fb-b9ba-207c0d07a5df"},"vehicle_type_id":"4","last_reported":1684170357,"current_range_meters":24400,"station_id":"ce4bhbh2rcd13ifvqepg","pricing_plan_id":"free"},{"bike_id":"4f4af6fe-dc18-4dca-b938-c12f44d9f3ae","system_id":"levelo_inurba_marseille","lat":43.284219,"lon":5.3497,"is_reserved":false,"is_disabled":false,"rental_uris":{"android":"levelo://app?vid=4f4af6fe-dc18-4dca-b938-c12f44d9f3ae","ios":"levelo://app?vid=4f4af6fe-dc18-4dca-b938-c12f44d9f3ae"},"vehicle_type_id":"4","last_reported":1684170357,"current_range_meters":18000,"station_id":"ce4bhbh2rcd13ifvqepg","pricing_plan_id":"free"},{"bike_id":"25d3f0c2-a677-47ae-8627-c6a36dd0e124","system_id":"levelo_inurba_marseille","lat":43.284219,"lon":5.3497,"is_reserved":false,"is_disabled":false,"rental_uris":{"android":"levelo://app?vid=25d3f0c2-a677-47ae-8627-c6a36dd0e124","ios":"levelo://app?vid=25d3f0c2-a677-47ae-8627-c6a36dd0e124"},"vehicle_type_id":"4","last_reported":1684170357,"current_range_meters":28800,"station_id":"ce4bhbh2rcd13ifvqepg","pricing_plan_id":"free"},{"bike_id":"8265ffbd-3992-4cab-aa87-1b3a4cc336ba","system_id":"levelo_inurba_marseille","lat":43.284217,"lon":5.349697,"is_reserved":false,"is_disabled":false,"rental_uris":{"android":"levelo://app?vid=8265ffbd-3992-4cab-aa87-1b3a4cc336ba","ios":"levelo://app?vid=8265ffbd-3992-4cab-aa87-1b3a4cc336ba"},"vehicle_type_id":"4","last_reported":1684170357,"current_range_meters":31200,"station_id":"ce4bhbh2rcd13ifvqepg","pricing_plan_id":"free"},{"bike_id":"b90abf6e-4f78-4341-8547-efb6d0281c25","system_id":"levelo_inurba_marseille","lat":43.284217,"lon":5.349697,"is_reserved":false,"is_disabled":false,"rental_uris":{"android":"levelo://app?vid=b90abf6e-4f78-4341-8547-efb6d0281c25","ios":"levelo://app?vid=b90abf6e-4f78-4341-8547-efb6d0281c25"},"vehicle_type_id":"4","last_reported":1684170357,"current_range_meters":30800,"station_id":"ce4bhbh2rcd13ifvqepg","pricing_plan_id":"free"},{"bike_id":"4308e5dd-65b5-4891-bed5-2457cf84e029","system_id":"levelo_inurba_marseille","lat":43.284217,"lon":5.349697,"is_reserved":false,"is_disabled":false,"rental_uris":{"android":"levelo://app?vid=4308e5dd-65b5-4891-bed5-2457cf84e029","ios":"levelo://app?vid=4308e5dd-65b5-4891-bed5-2457cf84e029"},"vehicle_type_id":"4","last_reported":1684170357,"current_range_meters":20800,"station_id":"ce4bhbh2rcd13ifvqepg","pricing_plan_id":"free"},{"bike_id":"2d5de33f-8a72-4225-aa5b-0b90e4e03758","system_id":"levelo_inurba_marseille","lat":43.284217,"lon":5.349697,"is_reserved":false,"is_disabled":false,"rental_uris":{"android":"levelo://app?vid=2d5de33f-8a72-4225-aa5b-0b90e4e03758","ios":"levelo://app?vid=2d5de33f-8a72-4225-aa5b-0b90e4e03758"},"vehicle_type_id":"4","last_reported":1684170357,"current_range_meters":31200,"station_id":"ce4bhbh2rcd13ifvqepg","pricing_plan_id":"free"},{"bike_id":"8b7bb9fd-73fb-41be-868a-86b4fd445df3","system_id":"levelo_inurba_marseille","lat":43.284217,"lon":5.349697,"is_reserved":false,"is_disabled":false,"rental_uris":{"android":"levelo://app?vid=8b7bb9fd-73fb-41be-868a-86b4fd445df3","ios":"levelo://app?vid=8b7bb9fd-73fb-41be-868a-86b4fd445df3"},"vehicle_type_id":"4","last_reported":1684170357,"current_range_meters":31200,"station_id":"ce4bhbh2rcd13ifvqepg","pricing_plan_id":"free"},{"bike_id":"0807e324-220f-4e7d-9d4d-aa719ff627e9","system_id":"levelo_inurba_marseille","lat":43.284217,"lon":5.349697,"is_reserved":false,"is_disabled":false,"rental_uris":{"android":"levelo://app?vid=0807e324-220f-4e7d-9d4d-aa719ff627e9","ios":"levelo://app?vid=0807e324-220f-4e7d-9d4d-aa719ff627e9"},"vehicle_type_id":"4","last_reported":1684170357,"current_range_meters":31200,"station_id":"ce4bhbh2rcd13ifvqepg","pricing_plan_id":"free"},{"bike_id":"858374cb-cfee-4f68-a770-bd6e01270211","system_id":"levelo_inurba_marseille","lat":43.284219,"lon":5.3497,"is_reserved":false,"is_disabled":false,"rental_uris":{"android":"levelo://app?vid=858374cb-cfee-4f68-a770-bd6e01270211","ios":"levelo://app?vid=858374cb-cfee-4f68-a770-bd6e01270211"},"vehicle_type_id":"4","last_reported":1684170357,"current_range_meters":30400,"station_id":"ce4bhbh2rcd13ifvqepg","pricing_plan_id":"free"},{"bike_id":"394cd778-d1ae-4d49-8147-48abf6e97f28","system_id":"levelo_inurba_marseille","lat":43.29281,"lon":5.40116,"is_reserved":false,"is_disabled":false,"rental_uris":{"android":"levelo://app?vid=394cd778-d1ae-4d49-8147-48abf6e97f28","ios":"levelo://app?vid=394cd778-d1ae-4d49-8147-48abf6e97f28"},"vehicle_type_id":"4","last_reported":1684170357,"current_range_meters":12400,"station_id":"ce4bh312rcd13ifvqdk0","pricing_plan_id":"free"},{"bike_id":"9e3c0fd1-7cb9-48cf-903d-ed295c53ccc8","system_id":"levelo_inurba_marseille","lat":43.29272,"lon":5.40109,"is_reserved":false,"is_disabled":false,"rental_uris":{"android":"levelo://app?vid=9e3c0fd1-7cb9-48cf-903d-ed295c53ccc8","ios":"levelo://app?vid=9e3c0fd1-7cb9-48cf-903d-ed295c53ccc8"},"vehicle_type_id":"4","last_reported":1684170357,"current_range_meters":22000,"station_id":"ce4bh312rcd13ifvqdk0","pricing_plan_id":"free"},{"bike_id":"58121bc7-62d8-42d5-8b7c-4b3a7ca6819d","system_id":"levelo_inurba_marseille","lat":43.282744,"lon":5.350533,"is_reserved":false,"is_disabled":false,"rental_uris":{"android":"levelo://app?vid=58121bc7-62d8-42d5-8b7c-4b3a7ca6819d","ios":"levelo://app?vid=58121bc7-62d8-42d5-8b7c-4b3a7ca6819d"},"vehicle_type_id":"4","last_reported":1684170357,"current_range_meters":0,"station_id":"ce4bhbp2rcd13ifvqerg","pricing_plan_id":"free"},{"bike_id":"79879a69-b63a-4679-9da5-c3a4db2a677f","system_id":"levelo_inurba_marseille","lat":43.282754,"lon":5.350519,"is_reserved":false,"is_disabled":false,"rental_uris":{"android":"levelo://app?vid=79879a69-b63a-4679-9da5-c3a4db2a677f","ios":"levelo://app?vid=79879a69-b63a-4679-9da5-c3a4db2a677f"},"vehicle_type_id":"4","last_reported":1684170357,"current_range_meters":22400,"station_id":"ce4bhbp2rcd13ifvqerg","pricing_plan_id":"free"},{"bike_id":"8cc125f0-8b1e-46cb-be47-0eb6d447dd34","system_id":"levelo_inurba_marseille","lat":43.282754,"lon":5.350519,"is_reserved":false,"is_disabled":false,"rental_uris":{"android":"levelo://app?vid=8cc125f0-8b1e-46cb-be47-0eb6d447dd34","ios":"levelo://app?vid=8cc125f0-8b1e-46cb-be47-0eb6d447dd34"},"vehicle_type_id":"4","last_reported":1684170357,"current_range_meters":0,"station_id":"ce4bhbp2rcd13ifvqerg","pricing_plan_id":"free"},{"bike_id":"9ab153c1-cf46-4d1e-b7e1-112a590167aa","system_id":"levelo_inurba_marseille","lat":43.283502,"lon":5.386471,"is_reserved":false,"is_disabled":false,"rental_uris":{"android":"levelo://app?vid=9ab153c1-cf46-4d1e-b7e1-112a590167aa","ios":"levelo://app?vid=9ab153c1-cf46-4d1e-b7e1-112a590167aa"},"vehicle_type_id":"4","last_reported":1684170357,"current_range_meters":30000,"station_id":"ce4bh492rcd13ifvqdvg","pricing_plan_id":"free"},{"bike_id":"e53faa7d-6f14-4a9c-9da8-7a4c31c3b29d","system_id":"levelo_inurba_marseille","lat":43.282754,"lon":5.350519,"is_reserved":false,"is_disabled":false,"rental_uris":{"android":"levelo://app?vid=e53faa7d-6f14-4a9c-9da8-7a4c31c3b29d","ios":"levelo://app?vid=e53faa7d-6f14-4a9c-9da8-7a4c31c3b29d"},"vehicle_type_id":"4","last_reported":1684170357,"current_range_meters":22400,"station_id":"ce4bhbp2rcd13ifvqerg","pricing_plan_id":"free"},{"bike_id":"8ad4500f-4799-4f38-94d4-36fc782ad132","system_id":"levelo_inurba_marseille","lat":43.280382,"lon":5.369291,"is_reserved":false,"is_disabled":false,"rental_uris":{"android":"levelo://app?vid=8ad4500f-4799-4f38-94d4-36fc782ad132","ios":"levelo://app?vid=8ad4500f-4799-4f38-94d4-36fc782ad132"},"vehicle_type_id":"4","last_reported":1684170357,"current_range_meters":31200,"station_id":"ce4bha12rcd13ifvqef0","pricing_plan_id":"free"},{"bike_id":"ea73f483-765d-4d95-93a8-88e8343b8851","system_id":"levelo_inurba_marseille","lat":43.280382,"lon":5.369291,"is_reserved":false,"is_disabled":false,"rental_uris":{"android":"levelo://app?vid=ea73f483-765d-4d95-93a8-88e8343b8851","ios":"levelo://app?vid=ea73f483-765d-4d95-93a8-88e8343b8851"},"vehicle_type_id":"4","last_reported":1684170357,"current_range_meters":21200,"station_id":"ce4bha12rcd13ifvqef0","pricing_plan_id":"free"},{"bike_id":"2560253a-5de8-45ee-8d31-a11ec74a05f4","system_id":"levelo_inurba_marseille","lat":43.28039,"lon":5.369297,"is_reserved":false,"is_disabled":false,"rental_uris":{"android":"levelo://app?vid=2560253a-5de8-45ee-8d31-a11ec74a05f4","ios":"levelo://app?vid=2560253a-5de8-45ee-8d31-a11ec74a05f4"},"vehicle_type_id":"4","last_reported":1684170357,"current_range_meters":16400,"station_id":"ce4bha12rcd13ifvqef0","pricing_plan_id":"free"},{"bike_id":"1f0ddf90-2e10-4041-be36-26b04f0f8a69","system_id":"levelo_inurba_marseille","lat":43.28039,"lon":5.369297,"is_reserved":false,"is_disabled":false,"rental_uris":{"android":"levelo://app?vid=1f0ddf90-2e10-4041-be36-26b04f0f8a69","ios":"levelo://app?vid=1f0ddf90-2e10-4041-be36-26b04f0f8a69"},"vehicle_type_id":"4","last_reported":1684170357,"current_range_meters":0,"station_id":"ce4bha12rcd13ifvqef0","pricing_plan_id":"free"},{"bike_id":"ed635e56-30cf-4be2-b504-0d143832fdbf","system_id":"levelo_inurba_marseille","lat":43.281044,"lon":5.378308,"is_reserved":false,"is_disabled":false,"rental_uris":{"android":"levelo://app?vid=ed635e56-30cf-4be2-b504-0d143832fdbf","ios":"levelo://app?vid=ed635e56-30cf-4be2-b504-0d143832fdbf"},"vehicle_type_id":"4","last_reported":1684170357,"current_range_meters":16000,"station_id":"ce4bha12rcd13ifvqee0","pricing_plan_id":"free"},{"bike_id":"205ed15d-340d-4d93-9a0f-460f32b0f1a8","system_id":"levelo_inurba_marseille","lat":43.281044,"lon":5.378308,"is_reserved":false,"is_disabled":false,"rental_uris":{"android":"levelo://app?vid=205ed15d-340d-4d93-9a0f-460f32b0f1a8","ios":"levelo://app?vid=205ed15d-340d-4d93-9a0f-460f32b0f1a8"},"vehicle_type_id":"4","last_reported":1684170357,"current_range_meters":26800,"station_id":"ce4bha12rcd13ifvqee0","pricing_plan_id":"free"},{"bike_id":"af47aca4-26e1-404e-bc44-1927aa6f98fa","system_id":"levelo_inurba_marseille","lat":43.296263,"lon":5.40601,"is_reserved":false,"is_disabled":false,"rental_uris":{"android":"levelo://app?vid=af47aca4-26e1-404e-bc44-1927aa6f98fa","ios":"levelo://app?vid=af47aca4-26e1-404e-bc44-1927aa6f98fa"},"vehicle_type_id":"4","last_reported":1684170357,"current_range_meters":4400,"station_id":"ce4bh0h2rcd13ifvqd60","pricing_plan_id":"free"},{"bike_id":"8bcefb05-1f26-4b13-b047-da0565dd1986","system_id":"levelo_inurba_marseille","lat":43.304188,"lon":5.412904,"is_reserved":false,"is_disabled":false,"rental_uris":{"android":"levelo://app?vid=8bcefb05-1f26-4b13-b047-da0565dd1986","ios":"levelo://app?vid=8bcefb05-1f26-4b13-b047-da0565dd1986"},"vehicle_type_id":"4","last_reported":1684170357,"current_range_meters":18000,"station_id":"ce4bhop2rcd13ifvqh8g","pricing_plan_id":"free"},{"bike_id":"69817ef1-b755-4216-9b0e-8095ea4e437a","system_id":"levelo_inurba_marseille","lat":43.279742,"lon":5.38744,"is_reserved":false,"is_disabled":false,"rental_uris":{"android":"levelo://app?vid=69817ef1-b755-4216-9b0e-8095ea4e437a","ios":"levelo://app?vid=69817ef1-b755-4216-9b0e-8095ea4e437a"},"vehicle_type_id":"4","last_reported":1684170357,"current_range_meters":22000,"station_id":"ce4bhg12rcd13ifvqf80","pricing_plan_id":"free"},{"bike_id":"563b3e82-ca7e-4123-8c6d-97f822c1d170","system_id":"levelo_inurba_marseille","lat":43.27978,"lon":5.38737,"is_reserved":false,"is_disabled":false,"rental_uris":{"android":"levelo://app?vid=563b3e82-ca7e-4123-8c6d-97f822c1d170","ios":"levelo://app?vid=563b3e82-ca7e-4123-8c6d-97f822c1d170"},"vehicle_type_id":"4","last_reported":1684170357,"current_range_meters":29600,"station_id":"","pricing_plan_id":"free"},{"bike_id":"f3ff7a31-3f10-4463-9d4a-009533f86342","system_id":"levelo_inurba_marseille","lat":43.292571,"lon":5.409107,"is_reserved":false,"is_disabled":false,"rental_uris":{"android":"levelo://app?vid=f3ff7a31-3f10-4463-9d4a-009533f86342","ios":"levelo://app?vid=f3ff7a31-3f10-4463-9d4a-009533f86342"},"vehicle_type_id":"4","last_reported":1684170357,"current_range_meters":24800,"station_id":"ce4bh192rcd13ifvqdc0","pricing_plan_id":"free"},{"bike_id":"c4c5941e-c39e-40c2-92b0-2b56f72bcf05","system_id":"levelo_inurba_marseille","lat":43.292571,"lon":5.409107,"is_reserved":false,"is_disabled":false,"rental_uris":{"android":"levelo://app?vid=c4c5941e-c39e-40c2-92b0-2b56f72bcf05","ios":"levelo://app?vid=c4c5941e-c39e-40c2-92b0-2b56f72bcf05"},"vehicle_type_id":"4","last_reported":1684170357,"current_range_meters":0,"station_id":"ce4bh192rcd13ifvqdc0","pricing_plan_id":"free"},{"bike_id":"1a9ec22f-6143-4a87-84fb-a1e1a170f551","system_id":"levelo_inurba_marseille","lat":43.292571,"lon":5.409107,"is_reserved":false,"is_disabled":false,"rental_uris":{"android":"levelo://app?vid=1a9ec22f-6143-4a87-84fb-a1e1a170f551","ios":"levelo://app?vid=1a9ec22f-6143-4a87-84fb-a1e1a170f551"},"vehicle_type_id":"4","last_reported":1684170357,"current_range_meters":0,"station_id":"ce4bh192rcd13ifvqdc0","pricing_plan_id":"free"},{"bike_id":"bcd8eec6-fcaa-4636-9f59-0453c7ea2936","system_id":"levelo_inurba_marseille","lat":43.27618,"lon":5.361009,"is_reserved":false,"is_disabled":false,"rental_uris":{"android":"levelo://app?vid=bcd8eec6-fcaa-4636-9f59-0453c7ea2936","ios":"levelo://app?vid=bcd8eec6-fcaa-4636-9f59-0453c7ea2936"},"vehicle_type_id":"4","last_reported":1684170357,"current_range_meters":13200,"station_id":"ce4bgj92rcd13ifvqbe0","pricing_plan_id":"free"},{"bike_id":"fca5b498-1dec-4b79-aee7-9b0cbbf5c1e9","system_id":"levelo_inurba_marseille","lat":43.292571,"lon":5.409107,"is_reserved":false,"is_disabled":false,"rental_uris":{"android":"levelo://app?vid=fca5b498-1dec-4b79-aee7-9b0cbbf5c1e9","ios":"levelo://app?vid=fca5b498-1dec-4b79-aee7-9b0cbbf5c1e9"},"vehicle_type_id":"4","last_reported":1684170357,"current_range_meters":18000,"station_id":"ce4bh192rcd13ifvqdc0","pricing_plan_id":"free"},{"bike_id":"b2bbe2ce-ffb8-4bf6-860b-6b4f29393d44","system_id":"levelo_inurba_marseille","lat":43.27618,"lon":5.361009,"is_reserved":false,"is_disabled":false,"rental_uris":{"android":"levelo://app?vid=b2bbe2ce-ffb8-4bf6-860b-6b4f29393d44","ios":"levelo://app?vid=b2bbe2ce-ffb8-4bf6-860b-6b4f29393d44"},"vehicle_type_id":"4","last_reported":1684170357,"current_range_meters":30400,"station_id":"ce4bgj92rcd13ifvqbe0","pricing_plan_id":"free"},{"bike_id":"743231cd-f684-48c1-9001-3000c1a8b289","system_id":"levelo_inurba_marseille","lat":43.27618,"lon":5.361009,"is_reserved":false,"is_disabled":false,"rental_uris":{"android":"levelo://app?vid=743231cd-f684-48c1-9001-3000c1a8b289","ios":"levelo://app?vid=743231cd-f684-48c1-9001-3000c1a8b289"},"vehicle_type_id":"4","last_reported":1684170357,"current_range_meters":24000,"station_id":"ce4bgj92rcd13ifvqbe0","pricing_plan_id":"free"},{"bike_id":"65972e44-feae-4354-ab68-5fb7f0f4c1f7","system_id":"levelo_inurba_marseille","lat":43.28077,"lon":5.39655,"is_reserved":false,"is_disabled":false,"rental_uris":{"android":"levelo://app?vid=65972e44-feae-4354-ab68-5fb7f0f4c1f7","ios":"levelo://app?vid=65972e44-feae-4354-ab68-5fb7f0f4c1f7"},"vehicle_type_id":"4","last_reported":1684170357,"current_range_meters":23200,"station_id":"ce4bho12rcd13ifvqh2g","pricing_plan_id":"free"},{"bike_id":"d6116e44-0045-44e7-9474-882171a961e4","system_id":"levelo_inurba_marseille","lat":43.27383,"lon":5.36255,"is_reserved":false,"is_disabled":false,"rental_uris":{"android":"levelo://app?vid=d6116e44-0045-44e7-9474-882171a961e4","ios":"levelo://app?vid=d6116e44-0045-44e7-9474-882171a961e4"},"vehicle_type_id":"4","last_reported":1684170357,"current_range_meters":20800,"station_id":"","pricing_plan_id":"free"},{"bike_id":"61d8c3c9-9392-4700-bba8-859b4412dcb3","system_id":"levelo_inurba_marseille","lat":43.27381,"lon":5.36249,"is_reserved":false,"is_disabled":false,"rental_uris":{"android":"levelo://app?vid=61d8c3c9-9392-4700-bba8-859b4412dcb3","ios":"levelo://app?vid=61d8c3c9-9392-4700-bba8-859b4412dcb3"},"vehicle_type_id":"4","last_reported":1684170357,"current_range_meters":11600,"station_id":"","pricing_plan_id":"free"},{"bike_id":"ebd330a0-a806-4ccb-a3d9-141d1fa9f553","system_id":"levelo_inurba_marseille","lat":43.273609,"lon":5.362708,"is_reserved":false,"is_disabled":false,"rental_uris":{"android":"levelo://app?vid=ebd330a0-a806-4ccb-a3d9-141d1fa9f553","ios":"levelo://app?vid=ebd330a0-a806-4ccb-a3d9-141d1fa9f553"},"vehicle_type_id":"4","last_reported":1684170357,"current_range_meters":4000,"station_id":"ce4bhbh2rcd13ifvqeo0","pricing_plan_id":"free"},{"bike_id":"5cb4bc8a-9e90-452f-81fc-e78d1962b7d1","system_id":"levelo_inurba_marseille","lat":43.273613,"lon":5.362705,"is_reserved":false,"is_disabled":false,"rental_uris":{"android":"levelo://app?vid=5cb4bc8a-9e90-452f-81fc-e78d1962b7d1","ios":"levelo://app?vid=5cb4bc8a-9e90-452f-81fc-e78d1962b7d1"},"vehicle_type_id":"4","last_reported":1684170357,"current_range_meters":28400,"station_id":"ce4bhbh2rcd13ifvqeo0","pricing_plan_id":"free"},{"bike_id":"71251e0e-c29e-4767-83bf-0fdf2462e67f","system_id":"levelo_inurba_marseille","lat":43.273613,"lon":5.362705,"is_reserved":false,"is_disabled":false,"rental_uris":{"android":"levelo://app?vid=71251e0e-c29e-4767-83bf-0fdf2462e67f","ios":"levelo://app?vid=71251e0e-c29e-4767-83bf-0fdf2462e67f"},"vehicle_type_id":"4","last_reported":1684170357,"current_range_meters":31200,"station_id":"ce4bhbh2rcd13ifvqeo0","pricing_plan_id":"free"},{"bike_id":"459002be-064e-45b6-b848-7c0f6c4b01c4","system_id":"levelo_inurba_marseille","lat":43.273613,"lon":5.362705,"is_reserved":false,"is_disabled":false,"rental_uris":{"android":"levelo://app?vid=459002be-064e-45b6-b848-7c0f6c4b01c4","ios":"levelo://app?vid=459002be-064e-45b6-b848-7c0f6c4b01c4"},"vehicle_type_id":"4","last_reported":1684170357,"current_range_meters":31200,"station_id":"ce4bhbh2rcd13ifvqeo0","pricing_plan_id":"free"},{"bike_id":"028680f8-06b9-4b4c-a9f6-c5e8def6b864","system_id":"levelo_inurba_marseille","lat":43.273609,"lon":5.362708,"is_reserved":false,"is_disabled":false,"rental_uris":{"android":"levelo://app?vid=028680f8-06b9-4b4c-a9f6-c5e8def6b864","ios":"levelo://app?vid=028680f8-06b9-4b4c-a9f6-c5e8def6b864"},"vehicle_type_id":"4","last_reported":1684170357,"current_range_meters":31200,"station_id":"ce4bhbh2rcd13ifvqeo0","pricing_plan_id":"free"},{"bike_id":"e998a03b-7fa3-4c00-81c0-1ca8f3c93dad","system_id":"levelo_inurba_marseille","lat":43.273613,"lon":5.362705,"is_reserved":false,"is_disabled":false,"rental_uris":{"android":"levelo://app?vid=e998a03b-7fa3-4c00-81c0-1ca8f3c93dad","ios":"levelo://app?vid=e998a03b-7fa3-4c00-81c0-1ca8f3c93dad"},"vehicle_type_id":"4","last_reported":1684170357,"current_range_meters":31200,"station_id":"ce4bhbh2rcd13ifvqeo0","pricing_plan_id":"free"},{"bike_id":"600cef59-bd09-480f-bbb3-b5488466e008","system_id":"levelo_inurba_marseille","lat":43.273609,"lon":5.362708,"is_reserved":false,"is_disabled":false,"rental_uris":{"android":"levelo://app?vid=600cef59-bd09-480f-bbb3-b5488466e008","ios":"levelo://app?vid=600cef59-bd09-480f-bbb3-b5488466e008"},"vehicle_type_id":"4","last_reported":1684170357,"current_range_meters":22400,"station_id":"ce4bhbh2rcd13ifvqeo0","pricing_plan_id":"free"},{"bike_id":"6b513cce-07b8-4545-b192-27f6f0112fe9","system_id":"levelo_inurba_marseille","lat":43.273609,"lon":5.362708,"is_reserved":false,"is_disabled":false,"rental_uris":{"android":"levelo://app?vid=6b513cce-07b8-4545-b192-27f6f0112fe9","ios":"levelo://app?vid=6b513cce-07b8-4545-b192-27f6f0112fe9"},"vehicle_type_id":"4","last_reported":1684170357,"current_range_meters":17200,"station_id":"ce4bhbh2rcd13ifvqeo0","pricing_plan_id":"free"},{"bike_id":"0c08dd19-859b-4be9-96a8-340acb0425e7","system_id":"levelo_inurba_marseille","lat":43.273613,"lon":5.362705,"is_reserved":false,"is_disabled":false,"rental_uris":{"android":"levelo://app?vid=0c08dd19-859b-4be9-96a8-340acb0425e7","ios":"levelo://app?vid=0c08dd19-859b-4be9-96a8-340acb0425e7"},"vehicle_type_id":"4","last_reported":1684170357,"current_range_meters":31200,"station_id":"ce4bhbh2rcd13ifvqeo0","pricing_plan_id":"free"},{"bike_id":"ec2dc0ee-c668-4dde-bdf9-64fba7e99196","system_id":"levelo_inurba_marseille","lat":43.273613,"lon":5.362705,"is_reserved":false,"is_disabled":false,"rental_uris":{"android":"levelo://app?vid=ec2dc0ee-c668-4dde-bdf9-64fba7e99196","ios":"levelo://app?vid=ec2dc0ee-c668-4dde-bdf9-64fba7e99196"},"vehicle_type_id":"4","last_reported":1684170357,"current_range_meters":31200,"station_id":"ce4bhbh2rcd13ifvqeo0","pricing_plan_id":"free"},{"bike_id":"1078d127-33e4-4136-a154-fd959b052636","system_id":"levelo_inurba_marseille","lat":43.273613,"lon":5.362705,"is_reserved":false,"is_disabled":false,"rental_uris":{"android":"levelo://app?vid=1078d127-33e4-4136-a154-fd959b052636","ios":"levelo://app?vid=1078d127-33e4-4136-a154-fd959b052636"},"vehicle_type_id":"4","last_reported":1684170357,"current_range_meters":31200,"station_id":"ce4bhbh2rcd13ifvqeo0","pricing_plan_id":"free"},{"bike_id":"3da1b092-0f28-4251-a668-5044c8fe179b","system_id":"levelo_inurba_marseille","lat":43.273609,"lon":5.362708,"is_reserved":false,"is_disabled":false,"rental_uris":{"android":"levelo://app?vid=3da1b092-0f28-4251-a668-5044c8fe179b","ios":"levelo://app?vid=3da1b092-0f28-4251-a668-5044c8fe179b"},"vehicle_type_id":"4","last_reported":1684170357,"current_range_meters":14800,"station_id":"ce4bhbh2rcd13ifvqeo0","pricing_plan_id":"free"},{"bike_id":"9b9ecc12-15a0-47c8-8232-1b63f0c49342","system_id":"levelo_inurba_marseille","lat":43.273609,"lon":5.362708,"is_reserved":false,"is_disabled":false,"rental_uris":{"android":"levelo://app?vid=9b9ecc12-15a0-47c8-8232-1b63f0c49342","ios":"levelo://app?vid=9b9ecc12-15a0-47c8-8232-1b63f0c49342"},"vehicle_type_id":"4","last_reported":1684170357,"current_range_meters":29600,"station_id":"ce4bhbh2rcd13ifvqeo0","pricing_plan_id":"free"},{"bike_id":"11ae1453-51eb-448d-9331-20e4e43cd28d","system_id":"levelo_inurba_marseille","lat":43.273609,"lon":5.362708,"is_reserved":false,"is_disabled":false,"rental_uris":{"android":"levelo://app?vid=11ae1453-51eb-448d-9331-20e4e43cd28d","ios":"levelo://app?vid=11ae1453-51eb-448d-9331-20e4e43cd28d"},"vehicle_type_id":"4","last_reported":1684170357,"current_range_meters":28400,"station_id":"ce4bhbh2rcd13ifvqeo0","pricing_plan_id":"free"},{"bike_id":"a5017e45-143e-430f-94ba-bc65801cb2bc","system_id":"levelo_inurba_marseille","lat":43.273609,"lon":5.362708,"is_reserved":false,"is_disabled":false,"rental_uris":{"android":"levelo://app?vid=a5017e45-143e-430f-94ba-bc65801cb2bc","ios":"levelo://app?vid=a5017e45-143e-430f-94ba-bc65801cb2bc"},"vehicle_type_id":"4","last_reported":1684170357,"current_range_meters":11200,"station_id":"ce4bhbh2rcd13ifvqeo0","pricing_plan_id":"free"},{"bike_id":"99dfaf32-5411-4eea-9a24-84c455ec94d3","system_id":"levelo_inurba_marseille","lat":43.273609,"lon":5.362708,"is_reserved":false,"is_disabled":false,"rental_uris":{"android":"levelo://app?vid=99dfaf32-5411-4eea-9a24-84c455ec94d3","ios":"levelo://app?vid=99dfaf32-5411-4eea-9a24-84c455ec94d3"},"vehicle_type_id":"4","last_reported":1684170357,"current_range_meters":3600,"station_id":"ce4bhbh2rcd13ifvqeo0","pricing_plan_id":"free"},{"bike_id":"0ff95b6e-3be4-4bb5-8f93-a6873f20da65","system_id":"levelo_inurba_marseille","lat":43.273609,"lon":5.362708,"is_reserved":false,"is_disabled":false,"rental_uris":{"android":"levelo://app?vid=0ff95b6e-3be4-4bb5-8f93-a6873f20da65","ios":"levelo://app?vid=0ff95b6e-3be4-4bb5-8f93-a6873f20da65"},"vehicle_type_id":"4","last_reported":1684170357,"current_range_meters":31600,"station_id":"ce4bhbh2rcd13ifvqeo0","pricing_plan_id":"free"},{"bike_id":"0a78ba09-eaeb-4491-b6f7-617689f014de","system_id":"levelo_inurba_marseille","lat":43.273609,"lon":5.362708,"is_reserved":false,"is_disabled":false,"rental_uris":{"android":"levelo://app?vid=0a78ba09-eaeb-4491-b6f7-617689f014de","ios":"levelo://app?vid=0a78ba09-eaeb-4491-b6f7-617689f014de"},"vehicle_type_id":"4","last_reported":1684170357,"current_range_meters":29600,"station_id":"ce4bhbh2rcd13ifvqeo0","pricing_plan_id":"free"},{"bike_id":"c7b7140b-9427-4296-819f-06bfc3617a9a","system_id":"levelo_inurba_marseille","lat":43.273609,"lon":5.362708,"is_reserved":false,"is_disabled":false,"rental_uris":{"android":"levelo://app?vid=c7b7140b-9427-4296-819f-06bfc3617a9a","ios":"levelo://app?vid=c7b7140b-9427-4296-819f-06bfc3617a9a"},"vehicle_type_id":"4","last_reported":1684170357,"current_range_meters":31600,"station_id":"ce4bhbh2rcd13ifvqeo0","pricing_plan_id":"free"},{"bike_id":"c2150365-c3c9-49dd-ab59-21860ce29eb9","system_id":"levelo_inurba_marseille","lat":43.273609,"lon":5.362708,"is_reserved":false,"is_disabled":false,"rental_uris":{"android":"levelo://app?vid=c2150365-c3c9-49dd-ab59-21860ce29eb9","ios":"levelo://app?vid=c2150365-c3c9-49dd-ab59-21860ce29eb9"},"vehicle_type_id":"4","last_reported":1684170357,"current_range_meters":31600,"station_id":"ce4bhbh2rcd13ifvqeo0","pricing_plan_id":"free"},{"bike_id":"ed537cd0-17bd-4786-abc5-2810c0636034","system_id":"levelo_inurba_marseille","lat":43.276771,"lon":5.388799,"is_reserved":false,"is_disabled":false,"rental_uris":{"android":"levelo://app?vid=ed537cd0-17bd-4786-abc5-2810c0636034","ios":"levelo://app?vid=ed537cd0-17bd-4786-abc5-2810c0636034"},"vehicle_type_id":"4","last_reported":1684170357,"current_range_meters":0,"station_id":"ce4bhi12rcd13ifvqfo0","pricing_plan_id":"free"},{"bike_id":"0914673f-16bd-494f-86f8-04d81d7017d5","system_id":"levelo_inurba_marseille","lat":43.276771,"lon":5.388799,"is_reserved":false,"is_disabled":false,"rental_uris":{"android":"levelo://app?vid=0914673f-16bd-494f-86f8-04d81d7017d5","ios":"levelo://app?vid=0914673f-16bd-494f-86f8-04d81d7017d5"},"vehicle_type_id":"4","last_reported":1684170357,"current_range_meters":1600,"station_id":"ce4bhi12rcd13ifvqfo0","pricing_plan_id":"free"},{"bike_id":"654688de-d7eb-46d6-a435-283ac64ab149","system_id":"levelo_inurba_marseille","lat":43.31085,"lon":5.42422,"is_reserved":false,"is_disabled":false,"rental_uris":{"android":"levelo://app?vid=654688de-d7eb-46d6-a435-283ac64ab149","ios":"levelo://app?vid=654688de-d7eb-46d6-a435-283ac64ab149"},"vehicle_type_id":"4","last_reported":1684170357,"current_range_meters":12800,"station_id":"ce4bhp92rcd13ifvqhag","pricing_plan_id":"free"},{"bike_id":"b46b677d-b5c7-49f9-864e-e317dc78c163","system_id":"levelo_inurba_marseille","lat":43.317121,"lon":5.423936,"is_reserved":false,"is_disabled":false,"rental_uris":{"android":"levelo://app?vid=b46b677d-b5c7-49f9-864e-e317dc78c163","ios":"levelo://app?vid=b46b677d-b5c7-49f9-864e-e317dc78c163"},"vehicle_type_id":"4","last_reported":1684170357,"current_range_meters":2400,"station_id":"ce4bhp92rcd13ifvqhbg","pricing_plan_id":"free"},{"bike_id":"f7b5afdb-3a08-4830-9f50-4dd8a49069b8","system_id":"levelo_inurba_marseille","lat":43.27625,"lon":5.39502,"is_reserved":false,"is_disabled":false,"rental_uris":{"android":"levelo://app?vid=f7b5afdb-3a08-4830-9f50-4dd8a49069b8","ios":"levelo://app?vid=f7b5afdb-3a08-4830-9f50-4dd8a49069b8"},"vehicle_type_id":"4","last_reported":1684170357,"current_range_meters":21600,"station_id":"","pricing_plan_id":"free"},{"bike_id":"6cc4d3a4-0c27-46fe-a4de-1c8c09fcd40b","system_id":"levelo_inurba_marseille","lat":43.274103,"lon":5.394016,"is_reserved":false,"is_disabled":false,"rental_uris":{"android":"levelo://app?vid=6cc4d3a4-0c27-46fe-a4de-1c8c09fcd40b","ios":"levelo://app?vid=6cc4d3a4-0c27-46fe-a4de-1c8c09fcd40b"},"vehicle_type_id":"4","last_reported":1684170357,"current_range_meters":5600,"station_id":"ce4bhdp2rcd13ifvqf20","pricing_plan_id":"free"},{"bike_id":"167d6337-05e7-4bde-b557-5bbba0753ef8","system_id":"levelo_inurba_marseille","lat":43.27419,"lon":5.39407,"is_reserved":false,"is_disabled":false,"rental_uris":{"android":"levelo://app?vid=167d6337-05e7-4bde-b557-5bbba0753ef8","ios":"levelo://app?vid=167d6337-05e7-4bde-b557-5bbba0753ef8"},"vehicle_type_id":"4","last_reported":1684170357,"current_range_meters":0,"station_id":"ce4bhdp2rcd13ifvqf20","pricing_plan_id":"free"},{"bike_id":"d7f21fef-0b62-4db1-8358-8ebfc2644748","system_id":"levelo_inurba_marseille","lat":43.2956,"lon":5.42288,"is_reserved":false,"is_disabled":false,"rental_uris":{"android":"levelo://app?vid=d7f21fef-0b62-4db1-8358-8ebfc2644748","ios":"levelo://app?vid=d7f21fef-0b62-4db1-8358-8ebfc2644748"},"vehicle_type_id":"4","last_reported":1684170357,"current_range_meters":13200,"station_id":"","pricing_plan_id":"free"},{"bike_id":"17515981-e71c-4f67-bc67-0aa0817bb7d6","system_id":"levelo_inurba_marseille","lat":43.295523,"lon":5.422926,"is_reserved":false,"is_disabled":false,"rental_uris":{"android":"levelo://app?vid=17515981-e71c-4f67-bc67-0aa0817bb7d6","ios":"levelo://app?vid=17515981-e71c-4f67-bc67-0aa0817bb7d6"},"vehicle_type_id":"4","last_reported":1684170357,"current_range_meters":24400,"station_id":"ce4bhph2rcd13ifvqhdg","pricing_plan_id":"free"},{"bike_id":"5c3e28ae-3541-47c5-8ef5-9f188bde42cf","system_id":"levelo_inurba_marseille","lat":43.29562,"lon":5.422952,"is_reserved":false,"is_disabled":false,"rental_uris":{"android":"levelo://app?vid=5c3e28ae-3541-47c5-8ef5-9f188bde42cf","ios":"levelo://app?vid=5c3e28ae-3541-47c5-8ef5-9f188bde42cf"},"vehicle_type_id":"4","last_reported":1684170357,"current_range_meters":31200,"station_id":"ce4bhph2rcd13ifvqhdg","pricing_plan_id":"free"},{"bike_id":"597536fb-9f72-49e8-aaad-bd5080cb26ff","system_id":"levelo_inurba_marseille","lat":43.295585,"lon":5.422942,"is_reserved":false,"is_disabled":false,"rental_uris":{"android":"levelo://app?vid=597536fb-9f72-49e8-aaad-bd5080cb26ff","ios":"levelo://app?vid=597536fb-9f72-49e8-aaad-bd5080cb26ff"},"vehicle_type_id":"4","last_reported":1684170357,"current_range_meters":31200,"station_id":"ce4bhph2rcd13ifvqhdg","pricing_plan_id":"free"},{"bike_id":"c0707337-5706-4d06-a62b-0b778f88a47d","system_id":"levelo_inurba_marseille","lat":43.278128,"lon":5.407195,"is_reserved":false,"is_disabled":false,"rental_uris":{"android":"levelo://app?vid=c0707337-5706-4d06-a62b-0b778f88a47d","ios":"levelo://app?vid=c0707337-5706-4d06-a62b-0b778f88a47d"},"vehicle_type_id":"4","last_reported":1684170357,"current_range_meters":5600,"station_id":"ce4bhnh2rcd13ifvqgtg","pricing_plan_id":"free"},{"bike_id":"1555eedd-8c2a-4192-8291-eceee5b6c51d","system_id":"levelo_inurba_marseille","lat":43.278128,"lon":5.407195,"is_reserved":false,"is_disabled":false,"rental_uris":{"android":"levelo://app?vid=1555eedd-8c2a-4192-8291-eceee5b6c51d","ios":"levelo://app?vid=1555eedd-8c2a-4192-8291-eceee5b6c51d"},"vehicle_type_id":"4","last_reported":1684170357,"current_range_meters":2800,"station_id":"ce4bhnh2rcd13ifvqgtg","pricing_plan_id":"free"},{"bike_id":"2d55c94c-5ba6-4300-9633-f091382f0b1d","system_id":"levelo_inurba_marseille","lat":43.269319,"lon":5.389397,"is_reserved":false,"is_disabled":false,"rental_uris":{"android":"levelo://app?vid=2d55c94c-5ba6-4300-9633-f091382f0b1d","ios":"levelo://app?vid=2d55c94c-5ba6-4300-9633-f091382f0b1d"},"vehicle_type_id":"4","last_reported":1684170357,"current_range_meters":5200,"station_id":"ce4bhhh2rcd13ifvqfl0","pricing_plan_id":"free"},{"bike_id":"3bf9b58a-7f58-49d2-9950-8f9674d5aadb","system_id":"levelo_inurba_marseille","lat":43.265714,"lon":5.372891,"is_reserved":false,"is_disabled":false,"rental_uris":{"android":"levelo://app?vid=3bf9b58a-7f58-49d2-9950-8f9674d5aadb","ios":"levelo://app?vid=3bf9b58a-7f58-49d2-9950-8f9674d5aadb"},"vehicle_type_id":"4","last_reported":1684170357,"current_range_meters":2400,"station_id":"ce4bhg12rcd13ifvqf70","pricing_plan_id":"free"},{"bike_id":"727898c8-5e77-4425-b6eb-c34172a7e277","system_id":"levelo_inurba_marseille","lat":43.280048,"lon":5.41657,"is_reserved":false,"is_disabled":false,"rental_uris":{"android":"levelo://app?vid=727898c8-5e77-4425-b6eb-c34172a7e277","ios":"levelo://app?vid=727898c8-5e77-4425-b6eb-c34172a7e277"},"vehicle_type_id":"4","last_reported":1684170357,"current_range_meters":8000,"station_id":"","pricing_plan_id":"free"},{"bike_id":"4f4f4dc8-0c4c-49a2-9bc2-ea88ad107761","system_id":"levelo_inurba_marseille","lat":43.27995,"lon":5.41657,"is_reserved":false,"is_disabled":false,"rental_uris":{"android":"levelo://app?vid=4f4f4dc8-0c4c-49a2-9bc2-ea88ad107761","ios":"levelo://app?vid=4f4f4dc8-0c4c-49a2-9bc2-ea88ad107761"},"vehicle_type_id":"4","last_reported":1684170357,"current_range_meters":31200,"station_id":"ce4bho12rcd13ifvqh1g","pricing_plan_id":"free"},{"bike_id":"5617f282-b096-4ae9-a2a8-4e8b946630c8","system_id":"levelo_inurba_marseille","lat":43.27996,"lon":5.416624,"is_reserved":false,"is_disabled":false,"rental_uris":{"android":"levelo://app?vid=5617f282-b096-4ae9-a2a8-4e8b946630c8","ios":"levelo://app?vid=5617f282-b096-4ae9-a2a8-4e8b946630c8"},"vehicle_type_id":"4","last_reported":1684170357,"current_range_meters":16400,"station_id":"ce4bho12rcd13ifvqh1g","pricing_plan_id":"free"},{"bike_id":"0c8ca94a-a045-41d3-8ed1-f0c0cc03a6ae","system_id":"levelo_inurba_marseille","lat":43.27067,"lon":5.40282,"is_reserved":false,"is_disabled":false,"rental_uris":{"android":"levelo://app?vid=0c8ca94a-a045-41d3-8ed1-f0c0cc03a6ae","ios":"levelo://app?vid=0c8ca94a-a045-41d3-8ed1-f0c0cc03a6ae"},"vehicle_type_id":"4","last_reported":1684170357,"current_range_meters":21200,"station_id":"ce4bhk92rcd13ifvqgc0","pricing_plan_id":"free"},{"bike_id":"a07d22d2-aed7-4e21-9025-cd417aa58956","system_id":"levelo_inurba_marseille","lat":43.30811,"lon":5.43516,"is_reserved":false,"is_disabled":false,"rental_uris":{"android":"levelo://app?vid=a07d22d2-aed7-4e21-9025-cd417aa58956","ios":"levelo://app?vid=a07d22d2-aed7-4e21-9025-cd417aa58956"},"vehicle_type_id":"4","last_reported":1684170357,"current_range_meters":22400,"station_id":"","pricing_plan_id":"free"},{"bike_id":"f87ffc7f-7080-4520-930e-283f817fd7ba","system_id":"levelo_inurba_marseille","lat":43.30806,"lon":5.43516,"is_reserved":false,"is_disabled":false,"rental_uris":{"android":"levelo://app?vid=f87ffc7f-7080-4520-930e-283f817fd7ba","ios":"levelo://app?vid=f87ffc7f-7080-4520-930e-283f817fd7ba"},"vehicle_type_id":"4","last_reported":1684170357,"current_range_meters":14000,"station_id":"","pricing_plan_id":"free"},{"bike_id":"bafc6135-ccb8-42a4-b4b6-6232fb481126","system_id":"levelo_inurba_marseille","lat":43.30815,"lon":5.43519,"is_reserved":false,"is_disabled":false,"rental_uris":{"android":"levelo://app?vid=bafc6135-ccb8-42a4-b4b6-6232fb481126","ios":"levelo://app?vid=bafc6135-ccb8-42a4-b4b6-6232fb481126"},"vehicle_type_id":"4","last_reported":1684170357,"current_range_meters":30800,"station_id":"","pricing_plan_id":"free"},{"bike_id":"770a4e63-a773-4ac9-a070-968501169b15","system_id":"levelo_inurba_marseille","lat":43.2658,"lon":5.39021,"is_reserved":false,"is_disabled":false,"rental_uris":{"android":"levelo://app?vid=770a4e63-a773-4ac9-a070-968501169b15","ios":"levelo://app?vid=770a4e63-a773-4ac9-a070-968501169b15"},"vehicle_type_id":"4","last_reported":1684170357,"current_range_meters":0,"station_id":"ce4bhe12rcd13ifvqf30","pricing_plan_id":"free"},{"bike_id":"8eecd811-ee08-48c8-96c6-2b5c5dc501d4","system_id":"levelo_inurba_marseille","lat":43.30799,"lon":5.43527,"is_reserved":false,"is_disabled":false,"rental_uris":{"android":"levelo://app?vid=8eecd811-ee08-48c8-96c6-2b5c5dc501d4","ios":"levelo://app?vid=8eecd811-ee08-48c8-96c6-2b5c5dc501d4"},"vehicle_type_id":"4","last_reported":1684170357,"current_range_meters":9600,"station_id":"","pricing_plan_id":"free"},{"bike_id":"f44c3528-2f50-4395-a754-fd07ae3177d8","system_id":"levelo_inurba_marseille","lat":43.265569,"lon":5.390047,"is_reserved":false,"is_disabled":false,"rental_uris":{"android":"levelo://app?vid=f44c3528-2f50-4395-a754-fd07ae3177d8","ios":"levelo://app?vid=f44c3528-2f50-4395-a754-fd07ae3177d8"},"vehicle_type_id":"4","last_reported":1684170357,"current_range_meters":15200,"station_id":"ce4bhe12rcd13ifvqf30","pricing_plan_id":"free"},{"bike_id":"2726099a-6393-4ed0-989b-5df2c9a8874d","system_id":"levelo_inurba_marseille","lat":43.28601,"lon":5.42583,"is_reserved":false,"is_disabled":false,"rental_uris":{"android":"levelo://app?vid=2726099a-6393-4ed0-989b-5df2c9a8874d","ios":"levelo://app?vid=2726099a-6393-4ed0-989b-5df2c9a8874d"},"vehicle_type_id":"4","last_reported":1684170357,"current_range_meters":30400,"station_id":"ce4bho12rcd13ifvqh2g","pricing_plan_id":"free"},{"bike_id":"e2a66aa6-112e-4c8b-a701-9941ef03ab40","system_id":"levelo_inurba_marseille","lat":43.261782,"lon":5.374515,"is_reserved":false,"is_disabled":false,"rental_uris":{"android":"levelo://app?vid=e2a66aa6-112e-4c8b-a701-9941ef03ab40","ios":"levelo://app?vid=e2a66aa6-112e-4c8b-a701-9941ef03ab40"},"vehicle_type_id":"4","last_reported":1684170357,"current_range_meters":2000,"station_id":"ce4bhgp2rcd13ifvqfc0","pricing_plan_id":"free"},{"bike_id":"460910eb-5f7a-4819-b1e9-8842208a8757","system_id":"levelo_inurba_marseille","lat":43.261782,"lon":5.374515,"is_reserved":false,"is_disabled":false,"rental_uris":{"android":"levelo://app?vid=460910eb-5f7a-4819-b1e9-8842208a8757","ios":"levelo://app?vid=460910eb-5f7a-4819-b1e9-8842208a8757"},"vehicle_type_id":"4","last_reported":1684170357,"current_range_meters":4000,"station_id":"ce4bhgp2rcd13ifvqfc0","pricing_plan_id":"free"},{"bike_id":"8cb69da5-0c18-47f4-85f0-940bd2d9aed5","system_id":"levelo_inurba_marseille","lat":43.26202,"lon":5.379299,"is_reserved":false,"is_disabled":false,"rental_uris":{"android":"levelo://app?vid=8cb69da5-0c18-47f4-85f0-940bd2d9aed5","ios":"levelo://app?vid=8cb69da5-0c18-47f4-85f0-940bd2d9aed5"},"vehicle_type_id":"4","last_reported":1684170357,"current_range_meters":31600,"station_id":"ce4bhjp2rcd13ifvqg90","pricing_plan_id":"free"},{"bike_id":"a790e609-ff5f-4d1f-91f0-f922f1feee9e","system_id":"levelo_inurba_marseille","lat":43.26809,"lon":5.40263,"is_reserved":false,"is_disabled":false,"rental_uris":{"android":"levelo://app?vid=a790e609-ff5f-4d1f-91f0-f922f1feee9e","ios":"levelo://app?vid=a790e609-ff5f-4d1f-91f0-f922f1feee9e"},"vehicle_type_id":"4","last_reported":1684170357,"current_range_meters":0,"station_id":"ce501612rcd8frsf0b60","pricing_plan_id":"free"},{"bike_id":"a97818ee-38a1-439f-9e07-1df3b52e11b2","system_id":"levelo_inurba_marseille","lat":43.30685,"lon":5.43811,"is_reserved":false,"is_disabled":false,"rental_uris":{"android":"levelo://app?vid=a97818ee-38a1-439f-9e07-1df3b52e11b2","ios":"levelo://app?vid=a97818ee-38a1-439f-9e07-1df3b52e11b2"},"vehicle_type_id":"4","last_reported":1684170357,"current_range_meters":10400,"station_id":"ce4bho12rcd13ifvqh2g","pricing_plan_id":"free"},{"bike_id":"608d4d06-d1b2-4439-b6d0-64989755113c","system_id":"levelo_inurba_marseille","lat":43.29902,"lon":5.43658,"is_reserved":false,"is_disabled":false,"rental_uris":{"android":"levelo://app?vid=608d4d06-d1b2-4439-b6d0-64989755113c","ios":"levelo://app?vid=608d4d06-d1b2-4439-b6d0-64989755113c"},"vehicle_type_id":"4","last_reported":1684170357,"current_range_meters":16800,"station_id":"","pricing_plan_id":"free"},{"bike_id":"72471e8f-020b-4943-8e8d-c97cf4f5994d","system_id":"levelo_inurba_marseille","lat":43.29899,"lon":5.43657,"is_reserved":false,"is_disabled":false,"rental_uris":{"android":"levelo://app?vid=72471e8f-020b-4943-8e8d-c97cf4f5994d","ios":"levelo://app?vid=72471e8f-020b-4943-8e8d-c97cf4f5994d"},"vehicle_type_id":"4","last_reported":1684170357,"current_range_meters":28000,"station_id":"ce4bhpp2rcd13ifvqhfg","pricing_plan_id":"free"},{"bike_id":"0653b4fe-a855-4188-86f3-4653f98f72ee","system_id":"levelo_inurba_marseille","lat":43.29897,"lon":5.43661,"is_reserved":false,"is_disabled":false,"rental_uris":{"android":"levelo://app?vid=0653b4fe-a855-4188-86f3-4653f98f72ee","ios":"levelo://app?vid=0653b4fe-a855-4188-86f3-4653f98f72ee"},"vehicle_type_id":"4","last_reported":1684170357,"current_range_meters":26800,"station_id":"ce4bhpp2rcd13ifvqhfg","pricing_plan_id":"free"},{"bike_id":"f52c0a16-0b14-47e4-8fd2-e99efda8037b","system_id":"levelo_inurba_marseille","lat":43.299,"lon":5.43665,"is_reserved":false,"is_disabled":false,"rental_uris":{"android":"levelo://app?vid=f52c0a16-0b14-47e4-8fd2-e99efda8037b","ios":"levelo://app?vid=f52c0a16-0b14-47e4-8fd2-e99efda8037b"},"vehicle_type_id":"4","last_reported":1684170357,"current_range_meters":7200,"station_id":"","pricing_plan_id":"free"},