{"last_updated":1692637561,"ttl":30,"version":"2.2","data":{"bikes":[{"bike_id":"f22ca441-4e4e-4660-b824-b2f46943e54d","system_id":"levelo_inurba_marseille","lat":43.312239,"lon":5.368562,"is_reserved":false,"is_disabled":false,"rental_uris":{"android":"levelo://app?vid=f22ca441-4e4e-4660-b824-b2f46943e54d","ios":"levelo://app?vid=f22ca441-4e4e-4660-b824-b2f46943e54d"},"vehicle_type_id":"4","last_reported":1692637561,"current_range_meters":31200,"station_id":"ce4bgl92rcd13ifvqbq0","pricing_plan_id":"free"},{"bike_id":"9fbe6e18-d192-44c2-98b5-cafb68b41aa4","system_id":"levelo_inurba_marseille","lat":43.30533,"lon":5.36524,"is_reserved":false,"is_disabled":false,"rental_uris":{"android":"levelo://app?vid=9fbe6e18-d192-44c2-98b5-cafb68b41aa4","ios":"levelo://app?vid=9fbe6e18-d192-44c2-98b5-cafb68b41aa4"},"vehicle_type_id":"4","last_reported":1692637561,"current_range_meters":30800,"station_id":"ce4bgs12rcd13ifvqcag","pricing_plan_id":"free"},{"bike_id":"798c839e-52be-45de-89e4-03e1531c7411","system_id":"levelo_inurba_marseille","lat":43.31119,"lon":5.37761,"is_reserved":false,"is_disabled":false,"rental_uris":{"android":"levelo://app?vid=798c839e-52be-45de-89e4-03e1531c7411","ios":"levelo://app?vid=798c839e-52be-45de-89e4-03e1531c7411"},"vehicle_type_id":"4","last_reported":1692637561,"current_range_meters":2000,"station_id":"ce4bgt92rcd13ifvqcg0","pricing_plan_id":"free"},{"bike_id":"16b78517-b021-4a0f-804d-ba352469ac32","system_id":"levelo_inurba_marseille","lat":43.317075,"lon":5.377367,"is_reserved":false,"is_disabled":false,"rental_uris":{"android":"levelo://app?vid=16b78517-b021-4a0f-804d-ba352469ac32","ios":"levelo://app?vid=16b78517-b021-4a0f-804d-ba352469ac32"},"vehicle_type_id":"4","last_reported":1692637561,"current_range_meters":29600,"station_id":"ce4bgth2rcd13ifvqch0","pricing_plan_id":"free"},{"bike_id":"3f76f2fa-48fc-43dc-9b64-1b006c5e7d4e","system_id":"levelo_inurba_marseille","lat":43.317075,"lon":5.377367,"is_reserved":false,"is_disabled":false,"rental_uris":{"android":"levelo://app?vid=3f76f2fa-48fc-43dc-9b64-1b006c5e7d4e","ios":"levelo://app?vid=3f76f2fa-48fc-43dc-9b64-1b006c5e7d4e"},"vehicle_type_id":"4","last_reported":1692637561,"current_range_meters":28800,"station_id":"ce4bgth2rcd13ifvqch0","pricing_plan_id":"free"},{"bike_id":"c0baba88-a966-4576-81eb-ee9924bcba65","system_id":"levelo_inurba_marseille","lat":43.31536,"lon":5.38021,"is_reserved":false,"is_disabled":false,"rental_uris":{"android":"levelo://app?vid=c0baba88-a966-4576-81eb-ee9924bcba65","ios":"levelo://app?vid=c0baba88-a966-4576-81eb-ee9924bcba65"},"vehicle_type_id":"4","last_reported":1692637561,"current_range_meters":19200,"station_id":"ce4bhsp2rcd13ifvqi50","pricing_plan_id":"free"},{"bike_id":"e7452ebf-16dc-4f46-b5f4-b6aac02a4016","system_id":"levelo_inurba_marseille","lat":43.31544,"lon":5.38019,"is_reserved":false,"is_disabled":false,"rental_uris":{"android":"levelo://app?vid=e7452ebf-16dc-4f46-b5f4-b6aac02a4016","ios":"levelo://app?vid=e7452ebf-16dc-4f46-b5f4-b6aac02a4016"},"vehicle_type_id":"4","last_reported":1692637561,"current_range_meters":12000,"station_id":"ce4bhsp2rcd13ifvqi50","pricing_plan_id":"free"},{"bike_id":"98baefb0-d5a1-49a6-836f-3598468fa56d","system_id":"levelo_inurba_marseille","lat":43.31535,"lon":5.38023,"is_reserved":false,"is_disabled":false,"rental_uris":{"android":"levelo://app?vid=98baefb0-d5a1-49a6-836f-3598468fa56d","ios":"levelo://app?vid=98baefb0-d5a1-49a6-836f-3598468fa56d"},"vehicle_type_id":"4","last_reported":1692637561,"current_range_meters":12800,"station_id":"ce4bhsp2rcd13ifvqi50","pricing_plan_id":"free"},{"bike_id":"ca30f48f-743f-487e-832a-a69b7d321f95","system_id":"levelo_inurba_marseille","lat":43.3154,"lon":5.38029,"is_reserved":false,"is_disabled":false,"rental_uris":{"android":"levelo://app?vid=ca30f48f-743f-487e-832a-a69b7d321f95","ios":"levelo://app?vid=ca30f48f-743f-487e-832a-a69b7d321f95"},"vehicle_type_id":"4","last_reported":1692637561,"current_range_meters":4000,"station_id":"ce4bhsp2rcd13ifvqi50","pricing_plan_id":"free"},{"bike_id":"5b9af73c-1561-4b31-a727-178a92108f91","system_id":"levelo_inurba_marseille","lat":43.31534,"lon":5.38036,"is_reserved":false,"is_disabled":false,"rental_uris":{"android":"levelo://app?vid=5b9af73c-1561-4b31-a727-178a92108f91","ios":"levelo://app?vid=5b9af73c-1561-4b31-a727-178a92108f91"},"vehicle_type_id":"4","last_reported":1692637561,"current_range_meters":4800,"station_id":"ce4bhsp2rcd13ifvqi50","pricing_plan_id":"free"},{"bike_id":"d6ab70b7-eb29-4db2-94fb-21f45c499712","system_id":"levelo_inurba_marseille","lat":43.31534,"lon":5.38043,"is_reserved":false,"is_disabled":false,"rental_uris":{"android":"levelo://app?vid=d6ab70b7-eb29-4db2-94fb-21f45c499712","ios":"levelo://app?vid=d6ab70b7-eb29-4db2-94fb-21f45c499712"},"vehicle_type_id":"4","last_reported":1692637561,"current_range_meters":16000,"station_id":"ce4bhsp2rcd13ifvqi50","pricing_plan_id":"free"},{"bike_id":"f6e2d0be-9c0c-4b31-aa9c-8e344adbf134","system_id":"levelo_inurba_marseille","lat":43.308012,"lon":5.381511,"is_reserved":false,"is_disabled":false,"rental_uris":{"android":"levelo://app?vid=f6e2d0be-9c0c-4b31-aa9c-8e344adbf134","ios":"levelo://app?vid=f6e2d0be-9c0c-4b31-aa9c-8e344adbf134"},"vehicle_type_id":"4","last_reported":1692637561,"current_range_meters":3600,"station_id":"ce4bgt12rcd13ifvqce0","pricing_plan_id":"free"},{"bike_id":"126b7364-5293-42b3-a2a5-332ac63909f2","system_id":"levelo_inurba_marseille","lat":43.308012,"lon":5.381511,"is_reserved":false,"is_disabled":false,"rental_uris":{"android":"levelo://app?vid=126b7364-5293-42b3-a2a5-332ac63909f2","ios":"levelo://app?vid=126b7364-5293-42b3-a2a5-332ac63909f2"},"vehicle_type_id":"4","last_reported":1692637561,"current_range_meters":15600,"station_id":"ce4bgt12rcd13ifvqce0","pricing_plan_id":"free"},{"bike_id":"b4ceaa4e-ed03-43da-b00d-24d6c651f795","system_id":"levelo_inurba_marseille","lat":43.31989,"lon":5.38155,"is_reserved":false,"is_disabled":false,"rental_uris":{"android":"levelo://app?vid=b4ceaa4e-ed03-43da-b00d-24d6c651f795","ios":"levelo://app?vid=b4ceaa4e-ed03-43da-b00d-24d6c651f795"},"vehicle_type_id":"4","last_reported":1692637561,"current_range_meters":11600,"station_id":"ce4bhr12rcd13ifvqhpg","pricing_plan_id":"free"},{"bike_id":"ef37f8fe-19d1-440d-8938-bd3b5c7eb906","system_id":"levelo_inurba_marseille","lat":43.313571,"lon":5.384829,"is_reserved":false,"is_disabled":false,"rental_uris":{"android":"levelo://app?vid=ef37f8fe-19d1-440d-8938-bd3b5c7eb906","ios":"levelo://app?vid=ef37f8fe-19d1-440d-8938-bd3b5c7eb906"},"vehicle_type_id":"4","last_reported":1692637561,"current_range_meters":7600,"station_id":"ce4bgt92rcd13ifvqcf0","pricing_plan_id":"free"},{"bike_id":"95dc9ecf-047e-4c3a-bb12-a5676cb36ad4","system_id":"levelo_inurba_marseille","lat":43.3216,"lon":5.38166,"is_reserved":false,"is_disabled":false,"rental_uris":{"android":"levelo://app?vid=95dc9ecf-047e-4c3a-bb12-a5676cb36ad4","ios":"levelo://app?vid=95dc9ecf-047e-4c3a-bb12-a5676cb36ad4"},"vehicle_type_id":"4","last_reported":1692637561,"current_range_meters":10400,"station_id":"","pricing_plan_id":"free"},{"bike_id":"b885f463-e8c5-42cc-902f-7152167ce1c7","system_id":"levelo_inurba_marseille","lat":43.299243,"lon":5.37481,"is_reserved":false,"is_disabled":false,"rental_uris":{"android":"levelo://app?vid=b885f463-e8c5-42cc-902f-7152167ce1c7","ios":"levelo://app?vid=b885f463-e8c5-42cc-902f-7152167ce1c7"},"vehicle_type_id":"4","last_reported":1692637561,"current_range_meters":30800,"station_id":"ce4bgjh2rcd13ifvqbg0","pricing_plan_id":"free"},{"bike_id":"e2ba62be-2e8e-4cc0-984c-73cdeb830c41","system_id":"levelo_inurba_marseille","lat":43.31174,"lon":5.38701,"is_reserved":false,"is_disabled":false,"rental_uris":{"android":"levelo://app?vid=e2ba62be-2e8e-4cc0-984c-73cdeb830c41","ios":"levelo://app?vid=e2ba62be-2e8e-4cc0-984c-73cdeb830c41"},"vehicle_type_id":"4","last_reported":1692637561,"current_range_meters":27200,"station_id":"ce4bgv12rcd13ifvqcp0","pricing_plan_id":"free"},{"bike_id":"48773837-8a01-4137-95bb-600dc54ff51e","system_id":"levelo_inurba_marseille","lat":43.323,"lon":5.38261,"is_reserved":false,"is_disabled":false,"rental_uris":{"android":"levelo://app?vid=48773837-8a01-4137-95bb-600dc54ff51e","ios":"levelo://app?vid=48773837-8a01-4137-95bb-600dc54ff51e"},"vehicle_type_id":"4","last_reported":1692637561,"current_range_meters":31200,"station_id":"ce4bhr12rcd13ifvqhqg","pricing_plan_id":"free"},{"bike_id":"97897afe-9902-4c43-9f19-d17acb314f86","system_id":"levelo_inurba_marseille","lat":43.32824,"lon":5.36673,"is_reserved":false,"is_disabled":false,"rental_uris":{"android":"levelo://app?vid=97897afe-9902-4c43-9f19-d17acb314f86","ios":"levelo://app?vid=97897afe-9902-4c43-9f19-d17acb314f86"},"vehicle_type_id":"4","last_reported":1692637561,"current_range_meters":21600,"station_id":"ce4bhs92rcd13ifvqi0g","pricing_plan_id":"free"},{"bike_id":"5b8e48f9-77d7-46c4-8853-5410f28c6930","system_id":"levelo_inurba_marseille","lat":43.32825,"lon":5.36679,"is_reserved":false,"is_disabled":false,"rental_uris":{"android":"levelo://app?vid=5b8e48f9-77d7-46c4-8853-5410f28c6930","ios":"levelo://app?vid=5b8e48f9-77d7-46c4-8853-5410f28c6930"},"vehicle_type_id":"4","last_reported":1692637561,"current_range_meters":30000,"station_id":"ce4bhs92rcd13ifvqi0g","pricing_plan_id":"free"},{"bike_id":"693b7c50-ec4a-4c19-8146-c32ca6a50962","system_id":"levelo_inurba_marseille","lat":43.32826,"lon":5.36688,"is_reserved":false,"is_disabled":false,"rental_uris":{"android":"levelo://app?vid=693b7c50-ec4a-4c19-8146-c32ca6a50962","ios":"levelo://app?vid=693b7c50-ec4a-4c19-8146-c32ca6a50962"},"vehicle_type_id":"4","last_reported":1692637561,"current_range_meters":29600,"station_id":"","pricing_plan_id":"free"},{"bike_id":"fd6db2c3-48eb-4aff-9c39-32c2e49d01ed","system_id":"levelo_inurba_marseille","lat":43.32827,"lon":5.36677,"is_reserved":false,"is_disabled":false,"rental_uris":{"android":"levelo://app?vid=fd6db2c3-48eb-4aff-9c39-32c2e49d01ed","ios":"levelo://app?vid=fd6db2c3-48eb-4aff-9c39-32c2e49d01ed"},"vehicle_type_id":"4","last_reported":1692637561,"current_range_meters":22800,"station_id":"ce4bhs92rcd13ifvqi0g","pricing_plan_id":"free"},{"bike_id":"eb70974a-c524-46d9-b5be-026bf2b9f1f4","system_id":"levelo_inurba_marseille","lat":43.32827,"lon":5.36676,"is_reserved":false,"is_disabled":false,"rental_uris":{"android":"levelo://app?vid=eb70974a-c524-46d9-b5be-026bf2b9f1f4","ios":"levelo://app?vid=eb70974a-c524-46d9-b5be-026bf2b9f1f4"},"vehicle_type_id":"4","last_reported":1692637561,"current_range_meters":24800,"station_id":"ce4bhs92rcd13ifvqi0g","pricing_plan_id":"free"},{"bike_id":"c7e961d5-230f-4d8f-bad1-026546c8c1ba","system_id":"levelo_inurba_marseille","lat":43.32828,"lon":5.36685,"is_reserved":false,"is_disabled":false,"rental_uris":{"android":"levelo://app?vid=c7e961d5-230f-4d8f-bad1-026546c8c1ba","ios":"levelo://app?vid=c7e961d5-230f-4d8f-bad1-026546c8c1ba"},"vehicle_type_id":"4","last_reported":1692637561,"current_range_meters":17600,"station_id":"ce4bhs92rcd13ifvqi0g","pricing_plan_id":"free"},{"bike_id":"853e5f2a-04f9-4353-a7e9-c7a96efd0b48","system_id":"levelo_inurba_marseille","lat":43.32828,"lon":5.36676,"is_reserved":false,"is_disabled":false,"rental_uris":{"android":"levelo://app?vid=853e5f2a-04f9-4353-a7e9-c7a96efd0b48","ios":"levelo://app?vid=853e5f2a-04f9-4353-a7e9-c7a96efd0b48"},"vehicle_type_id":"4","last_reported":1692637561,"current_range_meters":21200,"station_id":"ce4bhs92rcd13ifvqi0g","pricing_plan_id":"free"},{"bike_id":"98647f47-5187-42cd-8802-93c51d8c232d","system_id":"levelo_inurba_marseille","lat":43.328371,"lon":5.366912,"is_reserved":false,"is_disabled":false,"rental_uris":{"android":"levelo://app?vid=98647f47-5187-42cd-8802-93c51d8c232d","ios":"levelo://app?vid=98647f47-5187-42cd-8802-93c51d8c232d"},"vehicle_type_id":"4","last_reported":1692637561,"current_range_meters":31200,"station_id":"ce4bhs92rcd13ifvqi0g","pricing_plan_id":"free"},{"bike_id":"4c6c1221-0539-4c92-b6c8-75c96bd6858f","system_id":"levelo_inurba_marseille","lat":43.3283,"lon":5.36676,"is_reserved":false,"is_disabled":false,"rental_uris":{"android":"levelo://app?vid=4c6c1221-0539-4c92-b6c8-75c96bd6858f","ios":"levelo://app?vid=4c6c1221-0539-4c92-b6c8-75c96bd6858f"},"vehicle_type_id":"4","last_reported":1692637561,"current_range_meters":18800,"station_id":"ce4bhs92rcd13ifvqi0g","pricing_plan_id":"free"},{"bike_id":"acbd9ce9-3f5e-4d79-92f1-0e9dcf940928","system_id":"levelo_inurba_marseille","lat":43.32832,"lon":5.36685,"is_reserved":false,"is_disabled":false,"rental_uris":{"android":"levelo://app?vid=acbd9ce9-3f5e-4d79-92f1-0e9dcf940928","ios":"levelo://app?vid=acbd9ce9-3f5e-4d79-92f1-0e9dcf940928"},"vehicle_type_id":"4","last_reported":1692637561,"current_range_meters":25600,"station_id":"ce4bhs92rcd13ifvqi0g","pricing_plan_id":"free"},{"bike_id":"5bbef7a0-1325-4f1f-9b42-d044170d6e83","system_id":"levelo_inurba_marseille","lat":43.32832,"lon":5.36656,"is_reserved":false,"is_disabled":false,"rental_uris":{"android":"levelo://app?vid=5bbef7a0-1325-4f1f-9b42-d044170d6e83","ios":"levelo://app?vid=5bbef7a0-1325-4f1f-9b42-d044170d6e83"},"vehicle_type_id":"4","last_reported":1692637561,"current_range_meters":19600,"station_id":"ce4bhs92rcd13ifvqi0g","pricing_plan_id":"free"},{"bike_id":"4cbec067-4527-483a-818d-69c4afd2ea31","system_id":"levelo_inurba_marseille","lat":43.328371,"lon":5.366909,"is_reserved":false,"is_disabled":false,"rental_uris":{"android":"levelo://app?vid=4cbec067-4527-483a-818d-69c4afd2ea31","ios":"levelo://app?vid=4cbec067-4527-483a-818d-69c4afd2ea31"},"vehicle_type_id":"4","last_reported":1692637561,"current_range_meters":13200,"station_id":"ce4bhs92rcd13ifvqi0g","pricing_plan_id":"free"},{"bike_id":"dd789220-e7b5-42c1-b9dc-dc4243148021","system_id":"levelo_inurba_marseille","lat":43.297163,"lon":5.365866,"is_reserved":false,"is_disabled":false,"rental_uris":{"android":"levelo://app?vid=dd789220-e7b5-42c1-b9dc-dc4243148021","ios":"levelo://app?vid=dd789220-e7b5-42c1-b9dc-dc4243148021"},"vehicle_type_id":"4","last_reported":1692637561,"current_range_meters":31200,"station_id":"ce4bgn12rcd13ifvqbt0","pricing_plan_id":"free"},{"bike_id":"bb155e93-116e-494a-9911-2df351c7dae8","system_id":"levelo_inurba_marseille","lat":43.296129,"lon":5.370777,"is_reserved":false,"is_disabled":false,"rental_uris":{"android":"levelo://app?vid=bb155e93-116e-494a-9911-2df351c7dae8","ios":"levelo://app?vid=bb155e93-116e-494a-9911-2df351c7dae8"},"vehicle_type_id":"4","last_reported":1692637561,"current_range_meters":28400,"station_id":"ce4bgnh2rcd13ifvqc0g","pricing_plan_id":"free"},{"bike_id":"d3139180-8ba9-4c91-b6e4-8baae3c22113","system_id":"levelo_inurba_marseille","lat":43.296131,"lon":5.370773,"is_reserved":false,"is_disabled":false,"rental_uris":{"android":"levelo://app?vid=d3139180-8ba9-4c91-b6e4-8baae3c22113","ios":"levelo://app?vid=d3139180-8ba9-4c91-b6e4-8baae3c22113"},"vehicle_type_id":"4","last_reported":1692637561,"current_range_meters":31200,"station_id":"ce4bgnh2rcd13ifvqc0g","pricing_plan_id":"free"},{"bike_id":"2c93ce6f-c5e1-4ec9-9941-ebb7469bb8f2","system_id":"levelo_inurba_marseille","lat":43.31754,"lon":5.39016,"is_reserved":false,"is_disabled":false,"rental_uris":{"android":"levelo://app?vid=2c93ce6f-c5e1-4ec9-9941-ebb7469bb8f2","ios":"levelo://app?vid=2c93ce6f-c5e1-4ec9-9941-ebb7469bb8f2"},"vehicle_type_id":"4","last_reported":1692637561,"current_range_meters":18400,"station_id":"ce4bhqp2rcd13ifvqhng","pricing_plan_id":"free"},{"bike_id":"ee25c531-7489-4af7-897f-fbd501101add","system_id":"levelo_inurba_marseille","lat":43.31763,"lon":5.39013,"is_reserved":false,"is_disabled":false,"rental_uris":{"android":"levelo://app?vid=ee25c531-7489-4af7-897f-fbd501101add","ios":"levelo://app?vid=ee25c531-7489-4af7-897f-fbd501101add"},"vehicle_type_id":"4","last_reported":1692637561,"current_range_meters":28000,"station_id":"ce4bhqp2rcd13ifvqhng","pricing_plan_id":"free"},{"bike_id":"b99a8368-ca74-4352-91a1-a135a44b3e75","system_id":"levelo_inurba_marseille","lat":43.317557,"lon":5.390173,"is_reserved":false,"is_disabled":false,"rental_uris":{"android":"levelo://app?vid=b99a8368-ca74-4352-91a1-a135a44b3e75","ios":"levelo://app?vid=b99a8368-ca74-4352-91a1-a135a44b3e75"},"vehicle_type_id":"4","last_reported":1692637561,"current_range_meters":31200,"station_id":"ce4bhqp2rcd13ifvqhng","pricing_plan_id":"free"},{"bike_id":"5ad397a5-782c-4d3d-b970-036708b02620","system_id":"levelo_inurba_marseille","lat":43.317557,"lon":5.390173,"is_reserved":false,"is_disabled":false,"rental_uris":{"android":"levelo://app?vid=5ad397a5-782c-4d3d-b970-036708b02620","ios":"levelo://app?vid=5ad397a5-782c-4d3d-b970-036708b02620"},"vehicle_type_id":"4","last_reported":1692637561,"current_range_meters":10000,"station_id":"ce4bhqp2rcd13ifvqhng","pricing_plan_id":"free"},{"bike_id":"07f13e9e-ef8f-4f0b-a6cc-8cabbf97e9a5","system_id":"levelo_inurba_marseille","lat":43.317557,"lon":5.390173,"is_reserved":false,"is_disabled":false,"rental_uris":{"android":"levelo://app?vid=07f13e9e-ef8f-4f0b-a6cc-8cabbf97e9a5","ios":"levelo://app?vid=07f13e9e-ef8f-4f0b-a6cc-8cabbf97e9a5"},"vehicle_type_id":"4","last_reported":1692637561,"current_range_meters":32000,"station_id":"ce4bhqp2rcd13ifvqhng","pricing_plan_id":"free"},{"bike_id":"68914e65-d050-4f96-87b6-04c982d40cae","system_id":"levelo_inurba_marseille","lat":43.317557,"lon":5.390173,"is_reserved":false,"is_disabled":false,"rental_uris":{"android":"levelo://app?vid=68914e65-d050-4f96-87b6-04c982d40cae","ios":"levelo://app?vid=68914e65-d050-4f96-87b6-04c982d40cae"},"vehicle_type_id":"4","last_reported":1692637561,"current_range_meters":24800,"station_id":"ce4bhqp2rcd13ifvqhng","pricing_plan_id":"free"},{"bike_id":"25bb5afc-352a-4856-829c-1560b5501e50","system_id":"levelo_inurba_marseille","lat":43.317557,"lon":5.390173,"is_reserved":false,"is_disabled":false,"rental_uris":{"android":"levelo://app?vid=25bb5afc-352a-4856-829c-1560b5501e50","ios":"levelo://app?vid=25bb5afc-352a-4856-829c-1560b5501e50"},"vehicle_type_id":"4","last_reported":1692637561,"current_range_meters":8800,"station_id":"ce4bhqp2rcd13ifvqhng","pricing_plan_id":"free"},{"bike_id":"982c10ba-43a5-4da2-bea5-f45853dd1c9e","system_id":"levelo_inurba_marseille","lat":43.29511,"lon":5.36369,"is_reserved":false,"is_disabled":false,"rental_uris":{"android":"levelo://app?vid=982c10ba-43a5-4da2-bea5-f45853dd1c9e","ios":"levelo://app?vid=982c10ba-43a5-4da2-bea5-f45853dd1c9e"},"vehicle_type_id":"4","last_reported":1692637561,"current_range_meters":8800,"station_id":"","pricing_plan_id":"free"},{"bike_id":"a4df99ce-0488-49dd-a888-94686f562e88","system_id":"levelo_inurba_marseille","lat":43.295748,"lon":5.37522,"is_reserved":false,"is_disabled":false,"rental_uris":{"android":"levelo://app?vid=a4df99ce-0488-49dd-a888-94686f562e88","ios":"levelo://app?vid=a4df99ce-0488-49dd-a888-94686f562e88"},"vehicle_type_id":"4","last_reported":1692637561,"current_range_meters":26800,"station_id":"ce4bgh92rcd13ifvqb50","pricing_plan_id":"free"},{"bike_id":"00883cd9-a56a-4720-bb55-237d0136a4a1","system_id":"levelo_inurba_marseille","lat":43.32365,"lon":5.38881,"is_reserved":false,"is_disabled":false,"rental_uris":{"android":"levelo://app?vid=00883cd9-a56a-4720-bb55-237d0136a4a1","ios":"levelo://app?vid=00883cd9-a56a-4720-bb55-237d0136a4a1"},"vehicle_type_id":"4","last_reported":1692637561,"current_range_meters":18400,"station_id":"ce4bhqp2rcd13ifvqhog","pricing_plan_id":"free"},{"bike_id":"57c3a205-b811-4238-a20c-ed8b8322bcfb","system_id":"levelo_inurba_marseille","lat":43.29601,"lon":5.381084,"is_reserved":false,"is_disabled":false,"rental_uris":{"android":"levelo://app?vid=57c3a205-b811-4238-a20c-ed8b8322bcfb","ios":"levelo://app?vid=57c3a205-b811-4238-a20c-ed8b8322bcfb"},"vehicle_type_id":"4","last_reported":1692637561,"current_range_meters":14000,"station_id":"ce4bgl12rcd13ifvqbo0","pricing_plan_id":"free"},{"bike_id":"0468c516-75ea-4cd5-9f7b-cdc8d0bd9ef9","system_id":"levelo_inurba_marseille","lat":43.292749,"lon":5.368398,"is_reserved":false,"is_disabled":false,"rental_uris":{"android":"levelo://app?vid=0468c516-75ea-4cd5-9f7b-cdc8d0bd9ef9","ios":"levelo://app?vid=0468c516-75ea-4cd5-9f7b-cdc8d0bd9ef9"},"vehicle_type_id":"4","last_reported":1692637561,"current_range_meters":0,"station_id":"ce4bhbp2rcd13ifvqesg","pricing_plan_id":"free"},{"bike_id":"aedf7951-f6ba-4a8f-953f-dad2283a2689","system_id":"levelo_inurba_marseille","lat":43.292749,"lon":5.368402,"is_reserved":false,"is_disabled":false,"rental_uris":{"android":"levelo://app?vid=aedf7951-f6ba-4a8f-953f-dad2283a2689","ios":"levelo://app?vid=aedf7951-f6ba-4a8f-953f-dad2283a2689"},"vehicle_type_id":"4","last_reported":1692637561,"current_range_meters":23200,"station_id":"ce4bhbp2rcd13ifvqesg","pricing_plan_id":"free"},{"bike_id":"24118260-9154-4102-ac3b-d9c00022833f","system_id":"levelo_inurba_marseille","lat":43.292749,"lon":5.368402,"is_reserved":false,"is_disabled":false,"rental_uris":{"android":"levelo://app?vid=24118260-9154-4102-ac3b-d9c00022833f","ios":"levelo://app?vid=24118260-9154-4102-ac3b-d9c00022833f"},"vehicle_type_id":"4","last_reported":1692637561,"current_range_meters":28400,"station_id":"ce4bhbp2rcd13ifvqesg","pricing_plan_id":"free"},{"bike_id":"35656165-16f5-4100-be1a-511a0a75d969","system_id":"levelo_inurba_marseille","lat":43.29276,"lon":5.36796,"is_reserved":false,"is_disabled":false,"rental_uris":{"android":"levelo://app?vid=35656165-16f5-4100-be1a-511a0a75d969","ios":"levelo://app?vid=35656165-16f5-4100-be1a-511a0a75d969"},"vehicle_type_id":"4","last_reported":1692637561,"current_range_meters":2000,"station_id":"ce4bgh92rcd13ifvqb50","pricing_plan_id":"free"},{"bike_id":"152bad5a-ad1e-4eaa-b673-ec93a9c779c6","system_id":"levelo_inurba_marseille","lat":43.293009,"lon":5.374584,"is_reserved":false,"is_disabled":false,"rental_uris":{"android":"levelo://app?vid=152bad5a-ad1e-4eaa-b673-ec93a9c779c6","ios":"levelo://app?vid=152bad5a-ad1e-4eaa-b673-ec93a9c779c6"},"vehicle_type_id":"4","last_reported":1692637561,"current_range_meters":11600,"station_id":"ce4bgi12rcd13ifvqb70","pricing_plan_id":"free"},{"bike_id":"68ee34c1-7624-4bc5-a4e2-0544ae0380a7","system_id":"levelo_inurba_marseille","lat":43.293009,"lon":5.374584,"is_reserved":false,"is_disabled":false,"rental_uris":{"android":"levelo://app?vid=68ee34c1-7624-4bc5-a4e2-0544ae0380a7","ios":"levelo://app?vid=68ee34c1-7624-4bc5-a4e2-0544ae0380a7"},"vehicle_type_id":"4","last_reported":1692637561,"current_range_meters":14800,"station_id":"ce4bgi12rcd13ifvqb70","pricing_plan_id":"free"},{"bike_id":"38fef587-7cc5-4800-b069-87b8f296a10a","system_id":"levelo_inurba_marseille","lat":43.293009,"lon":5.374584,"is_reserved":false,"is_disabled":false,"rental_uris":{"android":"levelo://app?vid=38fef587-7cc5-4800-b069-87b8f296a10a","ios":"levelo://app?vid=38fef587-7cc5-4800-b069-87b8f296a10a"},"vehicle_type_id":"4","last_reported":1692637561,"current_range_meters":31200,"station_id":"ce4bgi12rcd13ifvqb70","pricing_plan_id":"free"},{"bike_id":"0724f352-a262-45b7-9b71-9a09ff17d945","system_id":"levelo_inurba_marseille","lat":43.303002,"lon":5.392142,"is_reserved":false,"is_disabled":false,"rental_uris":{"android":"levelo://app?vid=0724f352-a262-45b7-9b71-9a09ff17d945","ios":"levelo://app?vid=0724f352-a262-45b7-9b71-9a09ff17d945"},"vehicle_type_id":"4","last_reported":1692637561,"current_range_meters":14800,"station_id":"ce4bgkh2rcd13ifvqbk0","pricing_plan_id":"free"},{"bike_id":"012bcdd5-555a-42de-832b-bbe3647e8d2c","system_id":"levelo_inurba_marseille","lat":43.292426,"lon":5.356991,"is_reserved":false,"is_disabled":false,"rental_uris":{"android":"levelo://app?vid=012bcdd5-555a-42de-832b-bbe3647e8d2c","ios":"levelo://app?vid=012bcdd5-555a-42de-832b-bbe3647e8d2c"},"vehicle_type_id":"4","last_reported":1692637561,"current_range_meters":17200,"station_id":"","pricing_plan_id":"free"},{"bike_id":"fe0c66a9-6acf-43f3-8fe0-8af62e3c1a35","system_id":"levelo_inurba_marseille","lat":43.292,"lon":5.358,"is_reserved":false,"is_disabled":false,"rental_uris":{"android":"levelo://app?vid=fe0c66a9-6acf-43f3-8fe0-8af62e3c1a35","ios":"levelo://app?vid=fe0c66a9-6acf-43f3-8fe0-8af62e3c1a35"},"vehicle_type_id":"4","last_reported":1692637561,"current_range_meters":15200,"station_id":"ce4bhb12rcd13ifvqel0","pricing_plan_id":"free"},{"bike_id":"952a56ec-18dc-4161-9534-78cfab642278","system_id":"levelo_inurba_marseille","lat":43.29072,"lon":5.3654,"is_reserved":false,"is_disabled":false,"rental_uris":{"android":"levelo://app?vid=952a56ec-18dc-4161-9534-78cfab642278","ios":"levelo://app?vid=952a56ec-18dc-4161-9534-78cfab642278"},"vehicle_type_id":"4","last_reported":1692637561,"current_range_meters":6800,"station_id":"","pricing_plan_id":"free"},{"bike_id":"39b5b5cf-86ef-48ea-a176-58e554756417","system_id":"levelo_inurba_marseille","lat":43.302008,"lon":5.394694,"is_reserved":false,"is_disabled":false,"rental_uris":{"android":"levelo://app?vid=39b5b5cf-86ef-48ea-a176-58e554756417","ios":"levelo://app?vid=39b5b5cf-86ef-48ea-a176-58e554756417"},"vehicle_type_id":"4","last_reported":1692637561,"current_range_meters":30800,"station_id":"ce4bh0p2rcd13ifvqd70","pricing_plan_id":"free"},{"bike_id":"9a4c04f5-a039-4730-a35e-4b2e619192ad","system_id":"levelo_inurba_marseille","lat":43.302008,"lon":5.394694,"is_reserved":false,"is_disabled":false,"rental_uris":{"android":"levelo://app?vid=9a4c04f5-a039-4730-a35e-4b2e619192ad","ios":"levelo://app?vid=9a4c04f5-a039-4730-a35e-4b2e619192ad"},"vehicle_type_id":"4","last_reported":1692637561,"current_range_meters":29600,"station_id":"ce4bh0p2rcd13ifvqd70","pricing_plan_id":"free"},{"bike_id":"5804971f-79ee-47a3-a436-11fa71bf1818","system_id":"levelo_inurba_marseille","lat":43.290631,"lon":5.359244,"is_reserved":false,"is_disabled":false,"rental_uris":{"android":"levelo://app?vid=5804971f-79ee-47a3-a436-11fa71bf1818","ios":"levelo://app?vid=5804971f-79ee-47a3-a436-11fa71bf1818"},"vehicle_type_id":"4","last_reported":1692637561,"current_range_meters":10400,"station_id":"ce4bha92rcd13ifvqeg0","pricing_plan_id":"free"},{"bike_id":"53855547-da39-4fd6-89a3-45c9c572b5dc","system_id":"levelo_inurba_marseille","lat":43.294153,"lon":5.386305,"is_reserved":false,"is_disabled":false,"rental_uris":{"android":"levelo://app?vid=53855547-da39-4fd6-89a3-45c9c572b5dc","ios":"levelo://app?vid=53855547-da39-4fd6-89a3-45c9c572b5dc"},"vehicle_type_id":"4","last_reported":1692637561,"current_range_meters":1600,"station_id":"ce4bh2h2rcd13ifvqdh0","pricing_plan_id":"free"},{"bike_id":"869f4aa2-0110-4f07-8192-a7571d0ebc5c","system_id":"levelo_inurba_marseille","lat":43.294162,"lon":5.386292,"is_reserved":false,"is_disabled":false,"rental_uris":{"android":"levelo://app?vid=869f4aa2-0110-4f07-8192-a7571d0ebc5c","ios":"levelo://app?vid=869f4aa2-0110-4f07-8192-a7571d0ebc5c"},"vehicle_type_id":"4","last_reported":1692637561,"current_range_meters":26000,"station_id":"ce4bh2h2rcd13ifvqdh0","pricing_plan_id":"free"},{"bike_id":"c2ade244-bec2-40b9-af09-88f2194ac8fe","system_id":"levelo_inurba_marseille","lat":43.294162,"lon":5.386292,"is_reserved":false,"is_disabled":false,"rental_uris":{"android":"levelo://app?vid=c2ade244-bec2-40b9-af09-88f2194ac8fe","ios":"levelo://app?vid=c2ade244-bec2-40b9-af09-88f2194ac8fe"},"vehicle_type_id":"4","last_reported":1692637561,"current_range_meters":0,"station_id":"ce4bh2h2rcd13ifvqdh0","pricing_plan_id":"free"},{"bike_id":"e35e25a0-5d50-4e81-8571-cf69e4dd580a","system_id":"levelo_inurba_marseille","lat":43.2942,"lon":5.38623,"is_reserved":false,"is_disabled":false,"rental_uris":{"android":"levelo://app?vid=e35e25a0-5d50-4e81-8571-cf69e4dd580a","ios":"levelo://app?vid=e35e25a0-5d50-4e81-8571-cf69e4dd580a"},"vehicle_type_id":"4","last_reported":1692637561,"current_range_meters":6400,"station_id":"","pricing_plan_id":"free"},{"bike_id":"024af803-e420-44fb-856d-d56ffae0897a","system_id":"levelo_inurba_marseille","lat":43.294162,"lon":5.386292,"is_reserved":false,"is_disabled":false,"rental_uris":{"android":"levelo://app?vid=024af803-e420-44fb-856d-d56ffae0897a","ios":"levelo://app?vid=024af803-e420-44fb-856d-d56ffae0897a"},"vehicle_type_id":"4","last_reported":1692637561,"current_range_meters":14800,"station_id":"ce4bh2h2rcd13ifvqdh0","pricing_plan_id":"free"},{"bike_id":"ae818f4a-9bd2-4ddc-ba8b-fe111a70ab9c","system_id":"levelo_inurba_marseille","lat":43.294162,"lon":5.386292,"is_reserved":false,"is_disabled":false,"rental_uris":{"android":"levelo://app?vid=ae818f4a-9bd2-4ddc-ba8b-fe111a70ab9c","ios":"levelo://app?vid=ae818f4a-9bd2-4ddc-ba8b-fe111a70ab9c"},"vehicle_type_id":"4","last_reported":1692637561,"current_range_meters":0,"station_id":"ce4bh2h2rcd13ifvqdh0","pricing_plan_id":"free"},{"bike_id":"9471019a-b8af-498f-9396-11f543db7261","system_id":"levelo_inurba_marseille","lat":43.294162,"lon":5.386292,"is_reserved":false,"is_disabled":false,"rental_uris":{"android":"levelo://app?vid=9471019a-b8af-498f-9396-11f543db7261","ios":"levelo://app?vid=9471019a-b8af-498f-9396-11f543db7261"},"vehicle_type_id":"4","last_reported":1692637561,"current_range_meters":27600,"station_id":"ce4bh2h2rcd13ifvqdh0","pricing_plan_id":"free"},{"bike_id":"15726224-ab8d-4345-a11f-91abbeee4e45","system_id":"levelo_inurba_marseille","lat":43.289468,"lon":5.363719,"is_reserved":false,"is_disabled":false,"rental_uris":{"android":"levelo://app?vid=15726224-ab8d-4345-a11f-91abbeee4e45","ios":"levelo://app?vid=15726224-ab8d-4345-a11f-91abbeee4e45"},"vehicle_type_id":"4","last_reported":1692637561,"current_range_meters":20400,"station_id":"ce4bhc92rcd13ifvqetg","pricing_plan_id":"free"},{"bike_id":"107bbc18-4343-4f97-8caa-7bd159c64825","system_id":"levelo_inurba_marseille","lat":43.292642,"lon":5.384254,"is_reserved":false,"is_disabled":false,"rental_uris":{"android":"levelo://app?vid=107bbc18-4343-4f97-8caa-7bd159c64825","ios":"levelo://app?vid=107bbc18-4343-4f97-8caa-7bd159c64825"},"vehicle_type_id":"4","last_reported":1692637561,"current_range_meters":18000,"station_id":"ce4bh692rcd13ifvqea0","pricing_plan_id":"free"},{"bike_id":"708f7f21-b221-4c14-94b6-b5d8e3289350","system_id":"levelo_inurba_marseille","lat":43.33041,"lon":5.38913,"is_reserved":false,"is_disabled":false,"rental_uris":{"android":"levelo://app?vid=708f7f21-b221-4c14-94b6-b5d8e3289350","ios":"levelo://app?vid=708f7f21-b221-4c14-94b6-b5d8e3289350"},"vehicle_type_id":"4","last_reported":1692637561,"current_range_meters":13200,"station_id":"ce4bhr92rcd13ifvqhrg","pricing_plan_id":"free"},{"bike_id":"5036c72a-6252-47f4-a9fb-50fd514d506a","system_id":"levelo_inurba_marseille","lat":43.3304,"lon":5.3892,"is_reserved":false,"is_disabled":false,"rental_uris":{"android":"levelo://app?vid=5036c72a-6252-47f4-a9fb-50fd514d506a","ios":"levelo://app?vid=5036c72a-6252-47f4-a9fb-50fd514d506a"},"vehicle_type_id":"4","last_reported":1692637561,"current_range_meters":14400,"station_id":"ce4bhr92rcd13ifvqhrg","pricing_plan_id":"free"},{"bike_id":"86eac789-1e56-496d-abfa-705e29d378c7","system_id":"levelo_inurba_marseille","lat":43.33047,"lon":5.38912,"is_reserved":false,"is_disabled":false,"rental_uris":{"android":"levelo://app?vid=86eac789-1e56-496d-abfa-705e29d378c7","ios":"levelo://app?vid=86eac789-1e56-496d-abfa-705e29d378c7"},"vehicle_type_id":"4","last_reported":1692637561,"current_range_meters":22400,"station_id":"ce4bhr92rcd13ifvqhrg","pricing_plan_id":"free"},{"bike_id":"c65152a1-dca7-4ee4-9864-308587d5ed74","system_id":"levelo_inurba_marseille","lat":43.33041,"lon":5.38922,"is_reserved":false,"is_disabled":false,"rental_uris":{"android":"levelo://app?vid=c65152a1-dca7-4ee4-9864-308587d5ed74","ios":"levelo://app?vid=c65152a1-dca7-4ee4-9864-308587d5ed74"},"vehicle_type_id":"4","last_reported":1692637561,"current_range_meters":14800,"station_id":"ce4bhr92rcd13ifvqhrg","pricing_plan_id":"free"},{"bike_id":"de450cac-4370-4660-9455-3e94463307a2","system_id":"levelo_inurba_marseille","lat":43.33042,"lon":5.38922,"is_reserved":false,"is_disabled":false,"rental_uris":{"android":"levelo://app?vid=de450cac-4370-4660-9455-3e94463307a2","ios":"levelo://app?vid=de450cac-4370-4660-9455-3e94463307a2"},"vehicle_type_id":"4","last_reported":1692637561,"current_range_meters":29600,"station_id":"ce4bhr92rcd13ifvqhrg","pricing_plan_id":"free"},{"bike_id":"6046f703-b961-4815-8512-48f6667aae78","system_id":"levelo_inurba_marseille","lat":43.295169,"lon":5.390426,"is_reserved":false,"is_disabled":false,"rental_uris":{"android":"levelo://app?vid=6046f703-b961-4815-8512-48f6667aae78","ios":"levelo://app?vid=6046f703-b961-4815-8512-48f6667aae78"},"vehicle_type_id":"4","last_reported":1692637561,"current_range_meters":31200,"station_id":"ce4bh3p2rcd13ifvqdp0","pricing_plan_id":"free"},{"bike_id":"1a8adfa7-4fc1-42a7-98f5-a1b00e7869e1","system_id":"levelo_inurba_marseille","lat":43.28975,"lon":5.37827,"is_reserved":false,"is_disabled":false,"rental_uris":{"android":"levelo://app?vid=1a8adfa7-4fc1-42a7-98f5-a1b00e7869e1","ios":"levelo://app?vid=1a8adfa7-4fc1-42a7-98f5-a1b00e7869e1"},"vehicle_type_id":"4","last_reported":1692637561,"current_range_meters":15600,"station_id":"","pricing_plan_id":"free"},{"bike_id":"0dbeb38f-99c8-412a-87d0-5822ca96341e","system_id":"levelo_inurba_marseille","lat":43.29019,"lon":5.38129,"is_reserved":false,"is_disabled":false,"rental_uris":{"android":"levelo://app?vid=0dbeb38f-99c8-412a-87d0-5822ca96341e","ios":"levelo://app?vid=0dbeb38f-99c8-412a-87d0-5822ca96341e"},"vehicle_type_id":"4","last_reported":1692637561,"current_range_meters":7200,"station_id":"ce4bh4p2rcd13ifvqe1g","pricing_plan_id":"free"},{"bike_id":"6dc891b0-7b9c-4ad3-980c-d8b84bff816e","system_id":"levelo_inurba_marseille","lat":43.30642,"lon":5.401031,"is_reserved":false,"is_disabled":false,"rental_uris":{"android":"levelo://app?vid=6dc891b0-7b9c-4ad3-980c-d8b84bff816e","ios":"levelo://app?vid=6dc891b0-7b9c-4ad3-980c-d8b84bff816e"},"vehicle_type_id":"4","last_reported":1692637561,"current_range_meters":10800,"station_id":"ce4bh112rcd13ifvqda0","pricing_plan_id":"free"},{"bike_id":"ddbc3e02-57d2-4896-9054-77b34d55a622","system_id":"levelo_inurba_marseille","lat":43.298681,"lon":5.397225,"is_reserved":false,"is_disabled":false,"rental_uris":{"android":"levelo://app?vid=ddbc3e02-57d2-4896-9054-77b34d55a622","ios":"levelo://app?vid=ddbc3e02-57d2-4896-9054-77b34d55a622"},"vehicle_type_id":"4","last_reported":1692637561,"current_range_meters":31600,"station_id":"ce4bh0h2rcd13ifvqd50","pricing_plan_id":"free"},{"bike_id":"db2488f8-58bf-4e94-af74-4ff72c5e703c","system_id":"levelo_inurba_marseille","lat":43.286961,"lon":5.373785,"is_reserved":false,"is_disabled":false,"rental_uris":{"android":"levelo://app?vid=db2488f8-58bf-4e94-af74-4ff72c5e703c","ios":"levelo://app?vid=db2488f8-58bf-4e94-af74-4ff72c5e703c"},"vehicle_type_id":"4","last_reported":1692637561,"current_range_meters":400,"station_id":"ce4bh3p2rcd13ifvqdq0","pricing_plan_id":"free"},{"bike_id":"75199276-b705-4ad7-b6a9-49aeaa84628a","system_id":"levelo_inurba_marseille","lat":43.28662,"lon":5.36349,"is_reserved":false,"is_disabled":false,"rental_uris":{"android":"levelo://app?vid=75199276-b705-4ad7-b6a9-49aeaa84628a","ios":"levelo://app?vid=75199276-b705-4ad7-b6a9-49aeaa84628a"},"vehicle_type_id":"4","last_reported":1692637561,"current_range_meters":30400,"station_id":"ce4bhah2rcd13ifvqej0","pricing_plan_id":"free"},{"bike_id":"64bd444a-b9c1-48f5-9e0e-f7e86dfd26c3","system_id":"levelo_inurba_marseille","lat":43.306448,"lon":5.401943,"is_reserved":false,"is_disabled":false,"rental_uris":{"android":"levelo://app?vid=64bd444a-b9c1-48f5-9e0e-f7e86dfd26c3","ios":"levelo://app?vid=64bd444a-b9c1-48f5-9e0e-f7e86dfd26c3"},"vehicle_type_id":"4","last_reported":1692637561,"current_range_meters":16800,"station_id":"ce4bh112rcd13ifvqda0","pricing_plan_id":"free"},{"bike_id":"6876d02d-a18e-40a9-8442-aac7e33db44f","system_id":"levelo_inurba_marseille","lat":43.290336,"lon":5.386425,"is_reserved":false,"is_disabled":false,"rental_uris":{"android":"levelo://app?vid=6876d02d-a18e-40a9-8442-aac7e33db44f","ios":"levelo://app?vid=6876d02d-a18e-40a9-8442-aac7e33db44f"},"vehicle_type_id":"4","last_reported":1692637561,"current_range_meters":11600,"station_id":"ce4bh4p2rcd13ifvqe0g","pricing_plan_id":"free"},{"bike_id":"e96af37c-511b-49e9-a278-e16b93b23af8","system_id":"levelo_inurba_marseille","lat":43.290336,"lon":5.386425,"is_reserved":false,"is_disabled":false,"rental_uris":{"android":"levelo://app?vid=e96af37c-511b-49e9-a278-e16b93b23af8","ios":"levelo://app?vid=e96af37c-511b-49e9-a278-e16b93b23af8"},"vehicle_type_id":"4","last_reported":1692637561,"current_range_meters":400,"station_id":"ce4bh4p2rcd13ifvqe0g","pricing_plan_id":"free"},{"bike_id":"6c3da63f-2cdc-442a-9d27-a095b2e148a0","system_id":"levelo_inurba_marseille","lat":43.286039,"lon":5.370679,"is_reserved":false,"is_disabled":false,"rental_uris":{"android":"levelo://app?vid=6c3da63f-2cdc-442a-9d27-a095b2e148a0","ios":"levelo://app?vid=6c3da63f-2cdc-442a-9d27-a095b2e148a0"},"vehicle_type_id":"4","last_reported":1692637561,"current_range_meters":4400,"station_id":"ce4bht12rcd13ifvqi60","pricing_plan_id":"free"},{"bike_id":"d2c6b8cf-1cfa-4520-8fa2-ad18385bbb08","system_id":"levelo_inurba_marseille","lat":43.286039,"lon":5.370681,"is_reserved":false,"is_disabled":false,"rental_uris":{"android":"levelo://app?vid=d2c6b8cf-1cfa-4520-8fa2-ad18385bbb08","ios":"levelo://app?vid=d2c6b8cf-1cfa-4520-8fa2-ad18385bbb08"},"vehicle_type_id":"4","last_reported":1692637561,"current_range_meters":10000,"station_id":"ce4bht12rcd13ifvqi60","pricing_plan_id":"free"},{"bike_id":"b70ea99c-1ffa-4279-bb43-46c47cb18879","system_id":"levelo_inurba_marseille","lat":43.2479,"lon":5.374457,"is_reserved":false,"is_disabled":false,"rental_uris":{"android":"levelo://app?vid=b70ea99c-1ffa-4279-bb43-46c47cb18879","ios":"levelo://app?vid=b70ea99c-1ffa-4279-bb43-46c47cb18879"},"vehicle_type_id":"4","last_reported":1692637561,"current_range_meters":14000,"station_id":"ce4bhgh2rcd13ifvqfb0","pricing_plan_id":"free"},{"bike_id":"c28ce3c5-3ab3-4201-8ec5-28e2ad1df686","system_id":"levelo_inurba_marseille","lat":43.28593,"lon":5.37176,"is_reserved":false,"is_disabled":false,"rental_uris":{"android":"levelo://app?vid=c28ce3c5-3ab3-4201-8ec5-28e2ad1df686","ios":"levelo://app?vid=c28ce3c5-3ab3-4201-8ec5-28e2ad1df686"},"vehicle_type_id":"4","last_reported":1692637561,"current_range_meters":8000,"station_id":"ce4bht12rcd13ifvqi60","pricing_plan_id":"free"},{"bike_id":"a9a644a6-b4c2-47a8-abdd-018d04033548","system_id":"levelo_inurba_marseille","lat":43.31645,"lon":5.40437,"is_reserved":false,"is_disabled":false,"rental_uris":{"android":"levelo://app?vid=a9a644a6-b4c2-47a8-abdd-018d04033548","ios":"levelo://app?vid=a9a644a6-b4c2-47a8-abdd-018d04033548"},"vehicle_type_id":"4","last_reported":1692637561,"current_range_meters":10400,"station_id":"ce4bh012rcd13ifvqd00","pricing_plan_id":"free"},{"bike_id":"7da9e437-1e79-4b5f-9ab0-65254ac17dd7","system_id":"levelo_inurba_marseille","lat":43.31647,"lon":5.40443,"is_reserved":false,"is_disabled":false,"rental_uris":{"android":"levelo://app?vid=7da9e437-1e79-4b5f-9ab0-65254ac17dd7","ios":"levelo://app?vid=7da9e437-1e79-4b5f-9ab0-65254ac17dd7"},"vehicle_type_id":"4","last_reported":1692637561,"current_range_meters":16800,"station_id":"ce4bh012rcd13ifvqd00","pricing_plan_id":"free"},{"bike_id":"3d0db731-e795-408b-b042-7b83a8f7d15c","system_id":"levelo_inurba_marseille","lat":43.284538,"lon":5.358657,"is_reserved":false,"is_disabled":false,"rental_uris":{"android":"levelo://app?vid=3d0db731-e795-408b-b042-7b83a8f7d15c","ios":"levelo://app?vid=3d0db731-e795-408b-b042-7b83a8f7d15c"},"vehicle_type_id":"4","last_reported":1692637561,"current_range_meters":20800,"station_id":"ce4bhah2rcd13ifvqei0","pricing_plan_id":"free"},{"bike_id":"9c9b1105-5247-4816-92d0-f9ed49be8460","system_id":"levelo_inurba_marseille","lat":43.28467,"lon":5.35892,"is_reserved":false,"is_disabled":false,"rental_uris":{"android":"levelo://app?vid=9c9b1105-5247-4816-92d0-f9ed49be8460","ios":"levelo://app?vid=9c9b1105-5247-4816-92d0-f9ed49be8460"},"vehicle_type_id":"4","last_reported":1692637561,"current_range_meters":1200,"station_id":"ce4bhah2rcd13ifvqei0","pricing_plan_id":"free"},{"bike_id":"24866126-beea-44de-bbba-77f5be917552","system_id":"levelo_inurba_marseille","lat":43.28621,"lon":5.351,"is_reserved":false,"is_disabled":false,"rental_uris":{"android":"levelo://app?vid=24866126-beea-44de-bbba-77f5be917552","ios":"levelo://app?vid=24866126-beea-44de-bbba-77f5be917552"},"vehicle_type_id":"4","last_reported":1692637561,"current_range_meters":0,"station_id":"ce4bhch2rcd13ifvqeug","pricing_plan_id":"free"},{"bike_id":"35eec3a1-aa54-4990-8eb4-78e6c0dd24d0","system_id":"levelo_inurba_marseille","lat":43.2862,"lon":5.35099,"is_reserved":false,"is_disabled":false,"rental_uris":{"android":"levelo://app?vid=35eec3a1-aa54-4990-8eb4-78e6c0dd24d0","ios":"levelo://app?vid=35eec3a1-aa54-4990-8eb4-78e6c0dd24d0"},"vehicle_type_id":"4","last_reported":1692637561,"current_range_meters":23200,"station_id":"ce4bhch2rcd13ifvqeug","pricing_plan_id":"free"},{"bike_id":"becfe7cb-d167-440c-a158-d9fa9ea79f3e","system_id":"levelo_inurba_marseille","lat":43.29529,"lon":5.385581,"is_reserved":false,"is_disabled":false,"rental_uris":{"android":"levelo://app?vid=becfe7cb-d167-440c-a158-d9fa9ea79f3e","ios":"levelo://app?vid=becfe7cb-d167-440c-a158-d9fa9ea79f3e"},"vehicle_type_id":"4","last_reported":1692637561,"current_range_meters":13600,"station_id":"ce4bgih2rcd13ifvqba0","pricing_plan_id":"free"},{"bike_id":"89041f2d-f088-40d5-bde8-4b249f3dbb9c","system_id":"levelo_inurba_marseille","lat":43.286081,"lon":5.351067,"is_reserved":false,"is_disabled":false,"rental_uris":{"android":"levelo://app?vid=89041f2d-f088-40d5-bde8-4b249f3dbb9c","ios":"levelo://app?vid=89041f2d-f088-40d5-bde8-4b249f3dbb9c"},"vehicle_type_id":"4","last_reported":1692637561,"current_range_meters":28000,"station_id":"ce4bhch2rcd13ifvqeug","pricing_plan_id":"free"},{"bike_id":"a0af2392-f4f7-404d-90f4-2d02e6d1d22b","system_id":"levelo_inurba_marseille","lat":43.28419,"lon":5.37513,"is_reserved":false,"is_disabled":false,"rental_uris":{"android":"levelo://app?vid=a0af2392-f4f7-404d-90f4-2d02e6d1d22b","ios":"levelo://app?vid=a0af2392-f4f7-404d-90f4-2d02e6d1d22b"},"vehicle_type_id":"4","last_reported":1692637561,"current_range_meters":13600,"station_id":"ce4bh412rcd13ifvqds0","pricing_plan_id":"free"},{"bike_id":"395d9a29-d4de-4378-ac36-ffb4ab1b95b1","system_id":"levelo_inurba_marseille","lat":43.283998,"lon":5.375062,"is_reserved":false,"is_disabled":false,"rental_uris":{"android":"levelo://app?vid=395d9a29-d4de-4378-ac36-ffb4ab1b95b1","ios":"levelo://app?vid=395d9a29-d4de-4378-ac36-ffb4ab1b95b1"},"vehicle_type_id":"4","last_reported":1692637561,"current_range_meters":26400,"station_id":"ce4bh412rcd13ifvqds0","pricing_plan_id":"free"},{"bike_id":"2363d3b5-6c15-401a-a59c-ee80bd4af927","system_id":"levelo_inurba_marseille","lat":43.28415,"lon":5.37522,"is_reserved":false,"is_disabled":false,"rental_uris":{"android":"levelo://app?vid=2363d3b5-6c15-401a-a59c-ee80bd4af927","ios":"levelo://app?vid=2363d3b5-6c15-401a-a59c-ee80bd4af927"},"vehicle_type_id":"4","last_reported":1692637561,"current_range_meters":12400,"station_id":"ce4bh412rcd13ifvqds0","pricing_plan_id":"free"},{"bike_id":"5e603d29-0f80-4300-9376-4e6f772b3979","system_id":"levelo_inurba_marseille","lat":43.28413,"lon":5.3751,"is_reserved":false,"is_disabled":false,"rental_uris":{"android":"levelo://app?vid=5e603d29-0f80-4300-9376-4e6f772b3979","ios":"levelo://app?vid=5e603d29-0f80-4300-9376-4e6f772b3979"},"vehicle_type_id":"4","last_reported":1692637561,"current_range_meters":26800,"station_id":"ce4bh412rcd13ifvqds0","pricing_plan_id":"free"},{"bike_id":"e1238caa-b32f-44e1-8935-ac2de29dacd5","system_id":"levelo_inurba_marseille","lat":43.28396,"lon":5.37518,"is_reserved":false,"is_disabled":false,"rental_uris":{"android":"levelo://app?vid=e1238caa-b32f-44e1-8935-ac2de29dacd5","ios":"levelo://app?vid=e1238caa-b32f-44e1-8935-ac2de29dacd5"},"vehicle_type_id":"4","last_reported":1692637561,"current_range_meters":22800,"station_id":"ce4bh412rcd13ifvqds0","pricing_plan_id":"free"},{"bike_id":"05fd7296-5f12-47c6-8bad-bf77e55bcdad","system_id":"levelo_inurba_marseille","lat":43.283998,"lon":5.375062,"is_reserved":false,"is_disabled":false,"rental_uris":{"android":"levelo://app?vid=05fd7296-5f12-47c6-8bad-bf77e55bcdad","ios":"levelo://app?vid=05fd7296-5f12-47c6-8bad-bf77e55bcdad"},"vehicle_type_id":"4","last_reported":1692637561,"current_range_meters":9200,"station_id":"ce4bh412rcd13ifvqds0","pricing_plan_id":"free"},{"bike_id":"8644ae71-63f3-4cc7-a936-6fbf1866c650","system_id":"levelo_inurba_marseille","lat":43.286595,"lon":5.386795,"is_reserved":false,"is_disabled":false,"rental_uris":{"android":"levelo://app?vid=8644ae71-63f3-4cc7-a936-6fbf1866c650","ios":"levelo://app?vid=8644ae71-63f3-4cc7-a936-6fbf1866c650"},"vehicle_type_id":"4","last_reported":1692637561,"current_range_meters":1600,"station_id":"ce4bh492rcd13ifvqdug","pricing_plan_id":"free"},{"bike_id":"79ae07f7-3d9b-456b-927e-8e880eafedba","system_id":"levelo_inurba_marseille","lat":43.32558,"lon":5.40416,"is_reserved":false,"is_disabled":false,"rental_uris":{"android":"levelo://app?vid=79ae07f7-3d9b-456b-927e-8e880eafedba","ios":"levelo://app?vid=79ae07f7-3d9b-456b-927e-8e880eafedba"},"vehicle_type_id":"4","last_reported":1692637561,"current_range_meters":2400,"station_id":"","pricing_plan_id":"free"},{"bike_id":"17105054-6fd8-493b-b0be-1ed88688055c","system_id":"levelo_inurba_marseille","lat":43.33724,"lon":5.39179,"is_reserved":false,"is_disabled":false,"rental_uris":{"android":"levelo://app?vid=17105054-6fd8-493b-b0be-1ed88688055c","ios":"levelo://app?vid=17105054-6fd8-493b-b0be-1ed88688055c"},"vehicle_type_id":"4","last_reported":1692637561,"current_range_meters":20800,"station_id":"ce4bhr92rcd13ifvqhsg","pricing_plan_id":"free"},{"bike_id":"cb97d7f6-ab64-4d52-b2f3-b33486c80b80","system_id":"levelo_inurba_marseille","lat":43.33725,"lon":5.39182,"is_reserved":false,"is_disabled":false,"rental_uris":{"android":"levelo://app?vid=cb97d7f6-ab64-4d52-b2f3-b33486c80b80","ios":"levelo://app?vid=cb97d7f6-ab64-4d52-b2f3-b33486c80b80"},"vehicle_type_id":"4","last_reported":1692637561,"current_range_meters":8000,"station_id":"ce4bhr92rcd13ifvqhsg","pricing_plan_id":"free"},{"bike_id":"2b3f06e0-8f2d-4133-9563-f19f57fe46e5","system_id":"levelo_inurba_marseille","lat":43.337168,"lon":5.391825,"is_reserved":false,"is_disabled":false,"rental_uris":{"android":"levelo://app?vid=2b3f06e0-8f2d-4133-9563-f19f57fe46e5","ios":"levelo://app?vid=2b3f06e0-8f2d-4133-9563-f19f57fe46e5"},"vehicle_type_id":"4","last_reported":1692637561,"current_range_meters":24000,"station_id":"ce4bhr92rcd13ifvqhsg","pricing_plan_id":"free"},{"bike_id":"9366d9c8-6a03-4369-9957-cf14b4387af6","system_id":"levelo_inurba_marseille","lat":43.297946,"lon":5.404063,"is_reserved":false,"is_disabled":false,"rental_uris":{"android":"levelo://app?vid=9366d9c8-6a03-4369-9957-cf14b4387af6","ios":"levelo://app?vid=9366d9c8-6a03-4369-9957-cf14b4387af6"},"vehicle_type_id":"4","last_reported":1692637561,"current_range_meters":0,"station_id":"ce4bh112rcd13ifvqd90","pricing_plan_id":"free"},{"bike_id":"81207e02-e329-4cea-9b6c-33ba9c0267d2","system_id":"levelo_inurba_marseille","lat":43.284787,"lon":5.384116,"is_reserved":false,"is_disabled":false,"rental_uris":{"android":"levelo://app?vid=81207e02-e329-4cea-9b6c-33ba9c0267d2","ios":"levelo://app?vid=81207e02-e329-4cea-9b6c-33ba9c0267d2"},"vehicle_type_id":"4","last_reported":1692637561,"current_range_meters":30800,"station_id":"ce4bh512rcd13ifvqe3g","pricing_plan_id":"free"},{"bike_id":"674a5f26-c690-41e7-a8eb-b17c3061d619","system_id":"levelo_inurba_marseille","lat":43.283498,"lon":5.380948,"is_reserved":false,"is_disabled":false,"rental_uris":{"android":"levelo://app?vid=674a5f26-c690-41e7-a8eb-b17c3061d619","ios":"levelo://app?vid=674a5f26-c690-41e7-a8eb-b17c3061d619"},"vehicle_type_id":"4","last_reported":1692637561,"current_range_meters":8800,"station_id":"ce4bh412rcd13ifvqdr0","pricing_plan_id":"free"},{"bike_id":"dbe01606-0d1e-4afd-9950-384df2ddb610","system_id":"levelo_inurba_marseille","lat":43.284219,"lon":5.3497,"is_reserved":false,"is_disabled":false,"rental_uris":{"android":"levelo://app?vid=dbe01606-0d1e-4afd-9950-384df2ddb610","ios":"levelo://app?vid=dbe01606-0d1e-4afd-9950-384df2ddb610"},"vehicle_type_id":"4","last_reported":1692637561,"current_range_meters":31200,"station_id":"ce4bhbh2rcd13ifvqepg","pricing_plan_id":"free"},{"bike_id":"de440e7e-84a2-4f37-9efc-49647904b382","system_id":"levelo_inurba_marseille","lat":43.28422,"lon":5.34984,"is_reserved":false,"is_disabled":false,"rental_uris":{"android":"levelo://app?vid=de440e7e-84a2-4f37-9efc-49647904b382","ios":"levelo://app?vid=de440e7e-84a2-4f37-9efc-49647904b382"},"vehicle_type_id":"4","last_reported":1692637561,"current_range_meters":12400,"station_id":"ce4bhbh2rcd13ifvqepg","pricing_plan_id":"free"},{"bike_id":"7087af9d-dd10-4f3a-9400-8cce993dca76","system_id":"levelo_inurba_marseille","lat":43.284217,"lon":5.349697,"is_reserved":false,"is_disabled":false,"rental_uris":{"android":"levelo://app?vid=7087af9d-dd10-4f3a-9400-8cce993dca76","ios":"levelo://app?vid=7087af9d-dd10-4f3a-9400-8cce993dca76"},"vehicle_type_id":"4","last_reported":1692637561,"current_range_meters":18400,"station_id":"ce4bhbh2rcd13ifvqepg","pricing_plan_id":"free"},{"bike_id":"ddec25ab-236e-448c-9a31-bb3fa655c745","system_id":"levelo_inurba_marseille","lat":43.284219,"lon":5.3497,"is_reserved":false,"is_disabled":false,"rental_uris":{"android":"levelo://app?vid=ddec25ab-236e-448c-9a31-bb3fa655c745","ios":"levelo://app?vid=ddec25ab-236e-448c-9a31-bb3fa655c745"},"vehicle_type_id":"4","last_reported":1692637561,"current_range_meters":31200,"station_id":"ce4bhbh2rcd13ifvqepg","pricing_plan_id":"free"},{"bike_id":"ba36448b-9be9-4745-9747-7dc0107210fc","system_id":"levelo_inurba_marseille","lat":43.28419,"lon":5.34988,"is_reserved":false,"is_disabled":false,"rental_uris":{"android":"levelo://app?vid=ba36448b-9be9-4745-9747-7dc0107210fc","ios":"levelo://app?vid=ba36448b-9be9-4745-9747-7dc0107210fc"},"vehicle_type_id":"4","last_reported":1692637561,"current_range_meters":12400,"station_id":"ce4bhbh2rcd13ifvqepg","pricing_plan_id":"free"},{"bike_id":"9a111172-0451-4027-89a3-2d163154c8be","system_id":"levelo_inurba_marseille","lat":43.28422,"lon":5.34975,"is_reserved":false,"is_disabled":false,"rental_uris":{"android":"levelo://app?vid=9a111172-0451-4027-89a3-2d163154c8be","ios":"levelo://app?vid=9a111172-0451-4027-89a3-2d163154c8be"},"vehicle_type_id":"4","last_reported":1692637561,"current_range_meters":19200,"station_id":"ce4bhbh2rcd13ifvqepg","pricing_plan_id":"free"},{"bike_id":"3ead90b0-79b2-4895-9723-b16f6a8453b4","system_id":"levelo_inurba_marseille","lat":43.28419,"lon":5.34982,"is_reserved":false,"is_disabled":false,"rental_uris":{"android":"levelo://app?vid=3ead90b0-79b2-4895-9723-b16f6a8453b4","ios":"levelo://app?vid=3ead90b0-79b2-4895-9723-b16f6a8453b4"},"vehicle_type_id":"4","last_reported":1692637561,"current_range_meters":26000,"station_id":"ce4bhbh2rcd13ifvqepg","pricing_plan_id":"free"},{"bike_id":"9d554851-33ac-4c1f-abad-8fe34b892984","system_id":"levelo_inurba_marseille","lat":43.28418,"lon":5.34984,"is_reserved":false,"is_disabled":false,"rental_uris":{"android":"levelo://app?vid=9d554851-33ac-4c1f-abad-8fe34b892984","ios":"levelo://app?vid=9d554851-33ac-4c1f-abad-8fe34b892984"},"vehicle_type_id":"4","last_reported":1692637561,"current_range_meters":29600,"station_id":"ce4bhbh2rcd13ifvqepg","pricing_plan_id":"free"},{"bike_id":"b14bf781-e814-41c1-8087-85dc1ae6b8c4","system_id":"levelo_inurba_marseille","lat":43.284219,"lon":5.3497,"is_reserved":false,"is_disabled":false,"rental_uris":{"android":"levelo://app?vid=b14bf781-e814-41c1-8087-85dc1ae6b8c4","ios":"levelo://app?vid=b14bf781-e814-41c1-8087-85dc1ae6b8c4"},"vehicle_type_id":"4","last_reported":1692637561,"current_range_meters":31200,"station_id":"ce4bhbh2rcd13ifvqepg","pricing_plan_id":"free"},{"bike_id":"fd1bc6b0-fe7f-4f07-8e6b-9d9d94031d71","system_id":"levelo_inurba_marseille","lat":43.284217,"lon":5.349697,"is_reserved":false,"is_disabled":false,"rental_uris":{"android":"levelo://app?vid=fd1bc6b0-fe7f-4f07-8e6b-9d9d94031d71","ios":"levelo://app?vid=fd1bc6b0-fe7f-4f07-8e6b-9d9d94031d71"},"vehicle_type_id":"4","last_reported":1692637561,"current_range_meters":14000,"station_id":"ce4bhbh2rcd13ifvqepg","pricing_plan_id":"free"},{"bike_id":"71d5aeb3-fda5-439d-abe1-ccc16a3c2338","system_id":"levelo_inurba_marseille","lat":43.28419,"lon":5.34972,"is_reserved":false,"is_disabled":false,"rental_uris":{"android":"levelo://app?vid=71d5aeb3-fda5-439d-abe1-ccc16a3c2338","ios":"levelo://app?vid=71d5aeb3-fda5-439d-abe1-ccc16a3c2338"},"vehicle_type_id":"4","last_reported":1692637561,"current_range_meters":10800,"station_id":"ce4bhbh2rcd13ifvqepg","pricing_plan_id":"free"},{"bike_id":"b6433c5c-5caf-476c-bbbd-891c661cc63b","system_id":"levelo_inurba_marseille","lat":43.284219,"lon":5.3497,"is_reserved":false,"is_disabled":false,"rental_uris":{"android":"levelo://app?vid=b6433c5c-5caf-476c-bbbd-891c661cc63b","ios":"levelo://app?vid=b6433c5c-5caf-476c-bbbd-891c661cc63b"},"vehicle_type_id":"4","last_reported":1692637561,"current_range_meters":31200,"station_id":"ce4bhbh2rcd13ifvqepg","pricing_plan_id":"free"},{"bike_id":"4be49e3a-2b1c-4a4a-8874-644b2f3fda89","system_id":"levelo_inurba_marseille","lat":43.284219,"lon":5.3497,"is_reserved":false,"is_disabled":false,"rental_uris":{"android":"levelo://app?vid=4be49e3a-2b1c-4a4a-8874-644b2f3fda89","ios":"levelo://app?vid=4be49e3a-2b1c-4a4a-8874-644b2f3fda89"},"vehicle_type_id":"4","last_reported":1692637561,"current_range_meters":14800,"station_id":"ce4bhbh2rcd13ifvqepg","pricing_plan_id":"free"},{"bike_id":"f79bc2c7-2a6e-40dd-a706-1f81329e5316","system_id":"levelo_inurba_marseille","lat":43.284098,"lon":5.349839,"is_reserved":false,"is_disabled":false,"rental_uris":{"android":"levelo://app?vid=f79bc2c7-2a6e-40dd-a706-1f81329e5316","ios":"levelo://app?vid=f79bc2c7-2a6e-40dd-a706-1f81329e5316"},"vehicle_type_id":"4","last_reported":1692637561,"current_range_meters":31200,"station_id":"ce4bhbh2rcd13ifvqepg","pricing_plan_id":"free"},{"bike_id":"cb24dd4e-f105-4064-a5b2-431f0c78596b","system_id":"levelo_inurba_marseille","lat":43.284074,"lon":5.349876,"is_reserved":false,"is_disabled":false,"rental_uris":{"android":"levelo://app?vid=cb24dd4e-f105-4064-a5b2-431f0c78596b","ios":"levelo://app?vid=cb24dd4e-f105-4064-a5b2-431f0c78596b"},"vehicle_type_id":"4","last_reported":1692637561,"current_range_meters":21600,"station_id":"ce4bhbh2rcd13ifvqepg","pricing_plan_id":"free"},{"bike_id":"db119d4c-760d-41ac-9a46-af0f1fb6879a","system_id":"levelo_inurba_marseille","lat":43.28407,"lon":5.349841,"is_reserved":false,"is_disabled":false,"rental_uris":{"android":"levelo://app?vid=db119d4c-760d-41ac-9a46-af0f1fb6879a","ios":"levelo://app?vid=db119d4c-760d-41ac-9a46-af0f1fb6879a"},"vehicle_type_id":"4","last_reported":1692637561,"current_range_meters":14000,"station_id":"ce4bhbh2rcd13ifvqepg","pricing_plan_id":"free"},{"bike_id":"6dd2cbf0-f4a9-4031-9e0f-e10c53b3c426","system_id":"levelo_inurba_marseille","lat":43.284046,"lon":5.349866,"is_reserved":false,"is_disabled":false,"rental_uris":{"android":"levelo://app?vid=6dd2cbf0-f4a9-4031-9e0f-e10c53b3c426","ios":"levelo://app?vid=6dd2cbf0-f4a9-4031-9e0f-e10c53b3c426"},"vehicle_type_id":"4","last_reported":1692637561,"current_range_meters":31200,"station_id":"ce4bhbh2rcd13ifvqepg","pricing_plan_id":"free"},{"bike_id":"89c96caf-e2f2-4b40-a403-8ad58ac97d5c","system_id":"levelo_inurba_marseille","lat":43.284217,"lon":5.349697,"is_reserved":false,"is_disabled":false,"rental_uris":{"android":"levelo://app?vid=89c96caf-e2f2-4b40-a403-8ad58ac97d5c","ios":"levelo://app?vid=89c96caf-e2f2-4b40-a403-8ad58ac97d5c"},"vehicle_type_id":"4","last_reported":1692637561,"current_range_meters":27600,"station_id":"ce4bhbh2rcd13ifvqepg","pricing_plan_id":"free"},{"bike_id":"f50aca5f-cf5b-4020-925f-826a2e34874f","system_id":"levelo_inurba_marseille","lat":43.289363,"lon":5.396322,"is_reserved":false,"is_disabled":false,"rental_uris":{"android":"levelo://app?vid=f50aca5f-cf5b-4020-925f-826a2e34874f","ios":"levelo://app?vid=f50aca5f-cf5b-4020-925f-826a2e34874f"},"vehicle_type_id":"4","last_reported":1692637561,"current_range_meters":31200,"station_id":"ce4bh3h2rcd13ifvqdn0","pricing_plan_id":"free"},{"bike_id":"5cec26ac-344f-432b-af34-450b75305b9b","system_id":"levelo_inurba_marseille","lat":43.292724,"lon":5.401131,"is_reserved":false,"is_disabled":false,"rental_uris":{"android":"levelo://app?vid=5cec26ac-344f-432b-af34-450b75305b9b","ios":"levelo://app?vid=5cec26ac-344f-432b-af34-450b75305b9b"},"vehicle_type_id":"4","last_reported":1692637561,"current_range_meters":30800,"station_id":"ce4bh312rcd13ifvqdk0","pricing_plan_id":"free"},{"bike_id":"728c291b-81f8-4a4d-980d-1a6cca35e478","system_id":"levelo_inurba_marseille","lat":43.282754,"lon":5.350519,"is_reserved":false,"is_disabled":false,"rental_uris":{"android":"levelo://app?vid=728c291b-81f8-4a4d-980d-1a6cca35e478","ios":"levelo://app?vid=728c291b-81f8-4a4d-980d-1a6cca35e478"},"vehicle_type_id":"4","last_reported":1692637561,"current_range_meters":28000,"station_id":"ce4bhbp2rcd13ifvqerg","pricing_plan_id":"free"},{"bike_id":"c6df123c-c8cf-44c8-b5ae-a69c77b9fcde","system_id":"levelo_inurba_marseille","lat":43.28278,"lon":5.3507,"is_reserved":false,"is_disabled":false,"rental_uris":{"android":"levelo://app?vid=c6df123c-c8cf-44c8-b5ae-a69c77b9fcde","ios":"levelo://app?vid=c6df123c-c8cf-44c8-b5ae-a69c77b9fcde"},"vehicle_type_id":"4","last_reported":1692637561,"current_range_meters":19200,"station_id":"ce4bhbp2rcd13ifvqerg","pricing_plan_id":"free"},{"bike_id":"0d8a9861-47a4-48ae-8f92-9a6311b924a9","system_id":"levelo_inurba_marseille","lat":43.28275,"lon":5.35075,"is_reserved":false,"is_disabled":false,"rental_uris":{"android":"levelo://app?vid=0d8a9861-47a4-48ae-8f92-9a6311b924a9","ios":"levelo://app?vid=0d8a9861-47a4-48ae-8f92-9a6311b924a9"},"vehicle_type_id":"4","last_reported":1692637561,"current_range_meters":30000,"station_id":"ce4bhbp2rcd13ifvqerg","pricing_plan_id":"free"},{"bike_id":"1877c733-1e88-48f8-b40e-ba3c91297f23","system_id":"levelo_inurba_marseille","lat":43.282744,"lon":5.350533,"is_reserved":false,"is_disabled":false,"rental_uris":{"android":"levelo://app?vid=1877c733-1e88-48f8-b40e-ba3c91297f23","ios":"levelo://app?vid=1877c733-1e88-48f8-b40e-ba3c91297f23"},"vehicle_type_id":"4","last_reported":1692637561,"current_range_meters":10000,"station_id":"ce4bhbp2rcd13ifvqerg","pricing_plan_id":"free"},{"bike_id":"88940920-727e-47f8-bee6-24feedff1167","system_id":"levelo_inurba_marseille","lat":43.282744,"lon":5.350533,"is_reserved":false,"is_disabled":false,"rental_uris":{"android":"levelo://app?vid=88940920-727e-47f8-bee6-24feedff1167","ios":"levelo://app?vid=88940920-727e-47f8-bee6-24feedff1167"},"vehicle_type_id":"4","last_reported":1692637561,"current_range_meters":30000,"station_id":"ce4bhbp2rcd13ifvqerg","pricing_plan_id":"free"},{"bike_id":"65cf76c1-01bc-4c82-91e9-6291c2a8382b","system_id":"levelo_inurba_marseille","lat":43.28275,"lon":5.35068,"is_reserved":false,"is_disabled":false,"rental_uris":{"android":"levelo://app?vid=65cf76c1-01bc-4c82-91e9-6291c2a8382b","ios":"levelo://app?vid=65cf76c1-01bc-4c82-91e9-6291c2a8382b"},"vehicle_type_id":"4","last_reported":1692637561,"current_range_meters":11200,"station_id":"ce4bhbp2rcd13ifvqerg","pricing_plan_id":"free"},{"bike_id":"0cdf3157-ae00-44e9-a335-0fbb5431ea03","system_id":"levelo_inurba_marseille","lat":43.2827,"lon":5.35073,"is_reserved":false,"is_disabled":false,"rental_uris":{"android":"levelo://app?vid=0cdf3157-ae00-44e9-a335-0fbb5431ea03","ios":"levelo://app?vid=0cdf3157-ae00-44e9-a335-0fbb5431ea03"},"vehicle_type_id":"4","last_reported":1692637561,"current_range_meters":31200,"station_id":"ce4bhbp2rcd13ifvqerg","pricing_plan_id":"free"},{"bike_id":"7f5d95f0-deab-4ee5-96e2-e44cd26b7a9f","system_id":"levelo_inurba_marseille","lat":43.282754,"lon":5.350519,"is_reserved":false,"is_disabled":false,"rental_uris":{"android":"levelo://app?vid=7f5d95f0-deab-4ee5-96e2-e44cd26b7a9f","ios":"levelo://app?vid=7f5d95f0-deab-4ee5-96e2-e44cd26b7a9f"},"vehicle_type_id":"4","last_reported":1692637561,"current_range_meters":31200,"station_id":"ce4bhbp2rcd13ifvqerg","pricing_plan_id":"free"},{"bike_id":"a2936c39-27a4-4f8c-8b9a-5c9afcb313bc","system_id":"levelo_inurba_marseille","lat":43.2827,"lon":5.35069,"is_reserved":false,"is_disabled":false,"rental_uris":{"android":"levelo://app?vid=a2936c39-27a4-4f8c-8b9a-5c9afcb313bc","ios":"levelo://app?vid=a2936c39-27a4-4f8c-8b9a-5c9afcb313bc"},"vehicle_type_id":"4","last_reported":1692637561,"current_range_meters":14400,"station_id":"ce4bhbp2rcd13ifvqerg","pricing_plan_id":"free"},{"bike_id":"c3b00a8f-63e9-4a0d-a809-f58c91a69086","system_id":"levelo_inurba_marseille","lat":43.282744,"lon":5.350533,"is_reserved":false,"is_disabled":false,"rental_uris":{"android":"levelo://app?vid=c3b00a8f-63e9-4a0d-a809-f58c91a69086","ios":"levelo://app?vid=c3b00a8f-63e9-4a0d-a809-f58c91a69086"},"vehicle_type_id":"4","last_reported":1692637561,"current_range_meters":21200,"station_id":"ce4bhbp2rcd13ifvqerg","pricing_plan_id":"free"},{"bike_id":"a2cc0781-db7b-491b-b177-3858f0ce6bea","system_id":"levelo_inurba_marseille","lat":43.280382,"lon":5.369291,"is_reserved":false,"is_disabled":false,"rental_uris":{"android":"levelo://app?vid=a2cc0781-db7b-491b-b177-3858f0ce6bea","ios":"levelo://app?vid=a2cc0781-db7b-491b-b177-3858f0ce6bea"},"vehicle_type_id":"4","last_reported":1692637561,"current_range_meters":10800,"station_id":"ce4bha12rcd13ifvqef0","pricing_plan_id":"free"},{"bike_id":"89ec6284-bb44-4c49-b024-6bd9e96ee57c","system_id":"levelo_inurba_marseille","lat":43.28272,"lon":5.35059,"is_reserved":false,"is_disabled":false,"rental_uris":{"android":"levelo://app?vid=89ec6284-bb44-4c49-b024-6bd9e96ee57c","ios":"levelo://app?vid=89ec6284-bb44-4c49-b024-6bd9e96ee57c"},"vehicle_type_id":"4","last_reported":1692637561,"current_range_meters":14000,"station_id":"ce4bhbp2rcd13ifvqerg","pricing_plan_id":"free"},{"bike_id":"f152c606-0323-462d-9f96-d938de6df51a","system_id":"levelo_inurba_marseille","lat":43.2827,"lon":5.35062,"is_reserved":false,"is_disabled":false,"rental_uris":{"android":"levelo://app?vid=f152c606-0323-462d-9f96-d938de6df51a","ios":"levelo://app?vid=f152c606-0323-462d-9f96-d938de6df51a"},"vehicle_type_id":"4","last_reported":1692637561,"current_range_meters":31200,"station_id":"ce4bhbp2rcd13ifvqerg","pricing_plan_id":"free"},{"bike_id":"84ac2ce7-ed2d-407f-bf82-f6b7e5cdcfe0","system_id":"levelo_inurba_marseille","lat":43.28266,"lon":5.35075,"is_reserved":false,"is_disabled":false,"rental_uris":{"android":"levelo://app?vid=84ac2ce7-ed2d-407f-bf82-f6b7e5cdcfe0","ios":"levelo://app?vid=84ac2ce7-ed2d-407f-bf82-f6b7e5cdcfe0"},"vehicle_type_id":"4","last_reported":1692637561,"current_range_meters":20400,"station_id":"ce4bhbp2rcd13ifvqerg","pricing_plan_id":"free"},{"bike_id":"b6cfb683-e62f-48cc-ab7f-52cbf6ab030b","system_id":"levelo_inurba_marseille","lat":43.28268,"lon":5.3506,"is_reserved":false,"is_disabled":false,"rental_uris":{"android":"levelo://app?vid=b6cfb683-e62f-48cc-ab7f-52cbf6ab030b","ios":"levelo://app?vid=b6cfb683-e62f-48cc-ab7f-52cbf6ab030b"},"vehicle_type_id":"4","last_reported":1692637561,"current_range_meters":800,"station_id":"ce4bhbp2rcd13ifvqerg","pricing_plan_id":"free"},{"bike_id":"e6658042-f10e-49f0-9dc4-fccce98c5a6c","system_id":"levelo_inurba_marseille","lat":43.282702,"lon":5.350508,"is_reserved":false,"is_disabled":false,"rental_uris":{"android":"levelo://app?vid=e6658042-f10e-49f0-9dc4-fccce98c5a6c","ios":"levelo://app?vid=e6658042-f10e-49f0-9dc4-fccce98c5a6c"},"vehicle_type_id":"4","last_reported":1692637561,"current_range_meters":31200,"station_id":"ce4bhbp2rcd13ifvqerg","pricing_plan_id":"free"},{"bike_id":"4e64f514-84a0-4e1c-a0ee-9bd00d133462","system_id":"levelo_inurba_marseille","lat":43.282693,"lon":5.35053,"is_reserved":false,"is_disabled":false,"rental_uris":{"android":"levelo://app?vid=4e64f514-84a0-4e1c-a0ee-9bd00d133462","ios":"levelo://app?vid=4e64f514-84a0-4e1c-a0ee-9bd00d133462"},"vehicle_type_id":"4","last_reported":1692637561,"current_range_meters":25200,"station_id":"ce4bhbp2rcd13ifvqerg","pricing_plan_id":"free"},{"bike_id":"fe0b17e6-32d2-4331-ab72-e88c4403aa9b","system_id":"levelo_inurba_marseille","lat":43.282691,"lon":5.350535,"is_reserved":false,"is_disabled":false,"rental_uris":{"android":"levelo://app?vid=fe0b17e6-32d2-4331-ab72-e88c4403aa9b","ios":"levelo://app?vid=fe0b17e6-32d2-4331-ab72-e88c4403aa9b"},"vehicle_type_id":"4","last_reported":1692637561,"current_range_meters":16800,"station_id":"ce4bhbp2rcd13ifvqerg","pricing_plan_id":"free"},{"bike_id":"5b0a6ac3-5e6b-4586-b728-81e730f986bb","system_id":"levelo_inurba_marseille","lat":43.28264,"lon":5.35071,"is_reserved":false,"is_disabled":false,"rental_uris":{"android":"levelo://app?vid=5b0a6ac3-5e6b-4586-b728-81e730f986bb","ios":"levelo://app?vid=5b0a6ac3-5e6b-4586-b728-81e730f986bb"},"vehicle_type_id":"4","last_reported":1692637561,"current_range_meters":18000,"station_id":"ce4bhbp2rcd13ifvqerg","pricing_plan_id":"free"},{"bike_id":"69e586f7-9c42-45a5-ae52-87f7e102516c","system_id":"levelo_inurba_marseille","lat":43.282677,"lon":5.350541,"is_reserved":false,"is_disabled":false,"rental_uris":{"android":"levelo://app?vid=69e586f7-9c42-45a5-ae52-87f7e102516c","ios":"levelo://app?vid=69e586f7-9c42-45a5-ae52-87f7e102516c"},"vehicle_type_id":"4","last_reported":1692637561,"current_range_meters":14800,"station_id":"ce4bhbp2rcd13ifvqerg","pricing_plan_id":"free"},{"bike_id":"83749760-9456-4fc5-b2a3-f81939c7bf3d","system_id":"levelo_inurba_marseille","lat":43.282676,"lon":5.350527,"is_reserved":false,"is_disabled":false,"rental_uris":{"android":"levelo://app?vid=83749760-9456-4fc5-b2a3-f81939c7bf3d","ios":"levelo://app?vid=83749760-9456-4fc5-b2a3-f81939c7bf3d"},"vehicle_type_id":"4","last_reported":1692637561,"current_range_meters":12800,"station_id":"ce4bhbp2rcd13ifvqerg","pricing_plan_id":"free"},{"bike_id":"d6e30829-5ddb-4986-b357-39519611bba9","system_id":"levelo_inurba_marseille","lat":43.282665,"lon":5.350549,"is_reserved":false,"is_disabled":false,"rental_uris":{"android":"levelo://app?vid=d6e30829-5ddb-4986-b357-39519611bba9","ios":"levelo://app?vid=d6e30829-5ddb-4986-b357-39519611bba9"},"vehicle_type_id":"4","last_reported":1692637561,"current_range_meters":24800,"station_id":"ce4bhbp2rcd13ifvqerg","pricing_plan_id":"free"},{"bike_id":"b49420cb-6b68-4194-bc09-97eace49eed7","system_id":"levelo_inurba_marseille","lat":43.301117,"lon":5.398795,"is_reserved":false,"is_disabled":false,"rental_uris":{"android":"levelo://app?vid=b49420cb-6b68-4194-bc09-97eace49eed7","ios":"levelo://app?vid=b49420cb-6b68-4194-bc09-97eace49eed7"},"vehicle_type_id":"4","last_reported":1692637561,"current_range_meters":5200,"station_id":"ce4bh0h2rcd13ifvqd40","pricing_plan_id":"free"},{"bike_id":"23c0c05d-86d0-4b20-9130-647cc21a8ae5","system_id":"levelo_inurba_marseille","lat":43.282663,"lon":5.350554,"is_reserved":false,"is_disabled":false,"rental_uris":{"android":"levelo://app?vid=23c0c05d-86d0-4b20-9130-647cc21a8ae5","ios":"levelo://app?vid=23c0c05d-86d0-4b20-9130-647cc21a8ae5"},"vehicle_type_id":"4","last_reported":1692637561,"current_range_meters":11200,"station_id":"ce4bhbp2rcd13ifvqerg","pricing_plan_id":"free"},{"bike_id":"3f537818-6ffb-4e5e-bb6f-db42ef3e6481","system_id":"levelo_inurba_marseille","lat":43.28267,"lon":5.350524,"is_reserved":false,"is_disabled":false,"rental_uris":{"android":"levelo://app?vid=3f537818-6ffb-4e5e-bb6f-db42ef3e6481","ios":"levelo://app?vid=3f537818-6ffb-4e5e-bb6f-db42ef3e6481"},"vehicle_type_id":"4","last_reported":1692637561,"current_range_meters":31200,"station_id":"ce4bhbp2rcd13ifvqerg","pricing_plan_id":"free"},{"bike_id":"c0bb1188-8484-4c54-9d74-1361449381c8","system_id":"levelo_inurba_marseille","lat":43.282659,"lon":5.350553,"is_reserved":false,"is_disabled":false,"rental_uris":{"android":"levelo://app?vid=c0bb1188-8484-4c54-9d74-1361449381c8","ios":"levelo://app?vid=c0bb1188-8484-4c54-9d74-1361449381c8"},"vehicle_type_id":"4","last_reported":1692637561,"current_range_meters":19200,"station_id":"ce4bhbp2rcd13ifvqerg","pricing_plan_id":"free"},{"bike_id":"0747453f-ece3-4e98-99ea-ce61381ba3a8","system_id":"levelo_inurba_marseille","lat":43.282661,"lon":5.350545,"is_reserved":false,"is_disabled":false,"rental_uris":{"android":"levelo://app?vid=0747453f-ece3-4e98-99ea-ce61381ba3a8","ios":"levelo://app?vid=0747453f-ece3-4e98-99ea-ce61381ba3a8"},"vehicle_type_id":"4","last_reported":1692637561,"current_range_meters":31200,"station_id":"ce4bhbp2rcd13ifvqerg","pricing_plan_id":"free"},{"bike_id":"55751480-fd3a-4a56-a6f2-9c5224efb8b7","system_id":"levelo_inurba_marseille","lat":43.282662,"lon":5.350542,"is_reserved":false,"is_disabled":false,"rental_uris":{"android":"levelo://app?vid=55751480-fd3a-4a56-a6f2-9c5224efb8b7","ios":"levelo://app?vid=55751480-fd3a-4a56-a6f2-9c5224efb8b7"},"vehicle_type_id":"4","last_reported":1692637561,"current_range_meters":20400,"station_id":"ce4bhbp2rcd13ifvqerg","pricing_plan_id":"free"},{"bike_id":"4be1ee8b-191b-46dd-88fc-1f7360a9c1f4","system_id":"levelo_inurba_marseille","lat":43.282659,"lon":5.350534,"is_reserved":false,"is_disabled":false,"rental_uris":{"android":"levelo://app?vid=4be1ee8b-191b-46dd-88fc-1f7360a9c1f4","ios":"levelo://app?vid=4be1ee8b-191b-46dd-88fc-1f7360a9c1f4"},"vehicle_type_id":"4","last_reported":1692637561,"current_range_meters":13200,"station_id":"ce4bhbp2rcd13ifvqerg","pricing_plan_id":"free"},{"bike_id":"9e78380f-4805-4553-896d-642329d465f8","system_id":"levelo_inurba_marseille","lat":43.282744,"lon":5.350533,"is_reserved":false,"is_disabled":false,"rental_uris":{"android":"levelo://app?vid=9e78380f-4805-4553-896d-642329d465f8","ios":"levelo://app?vid=9e78380f-4805-4553-896d-642329d465f8"},"vehicle_type_id":"4","last_reported":1692637561,"current_range_meters":22400,"station_id":"ce4bhbp2rcd13ifvqerg","pricing_plan_id":"free"},{"bike_id":"11f4e064-eb88-4a2b-817f-7738670b1d28","system_id":"levelo_inurba_marseille","lat":43.282744,"lon":5.350533,"is_reserved":false,"is_disabled":false,"rental_uris":{"android":"levelo://app?vid=11f4e064-eb88-4a2b-817f-7738670b1d28","ios":"levelo://app?vid=11f4e064-eb88-4a2b-817f-7738670b1d28"},"vehicle_type_id":"4","last_reported":1692637561,"current_range_meters":25200,"station_id":"ce4bhbp2rcd13ifvqerg","pricing_plan_id":"free"},{"bike_id":"bef86d5d-0c67-4b2d-b67d-6890ed9f0501","system_id":"levelo_inurba_marseille","lat":43.28264,"lon":5.35057,"is_reserved":false,"is_disabled":false,"rental_uris":{"android":"levelo://app?vid=bef86d5d-0c67-4b2d-b67d-6890ed9f0501","ios":"levelo://app?vid=bef86d5d-0c67-4b2d-b67d-6890ed9f0501"},"vehicle_type_id":"4","last_reported":1692637561,"current_range_meters":15600,"station_id":"ce4bhbp2rcd13ifvqerg","pricing_plan_id":"free"},{"bike_id":"c3e3f7e7-f923-4fa9-90e1-64c07a8b0b23","system_id":"levelo_inurba_marseille","lat":43.282645,"lon":5.350551,"is_reserved":false,"is_disabled":false,"rental_uris":{"android":"levelo://app?vid=c3e3f7e7-f923-4fa9-90e1-64c07a8b0b23","ios":"levelo://app?vid=c3e3f7e7-f923-4fa9-90e1-64c07a8b0b23"},"vehicle_type_id":"4","last_reported":1692637561,"current_range_meters":21200,"station_id":"ce4bhbp2rcd13ifvqerg","pricing_plan_id":"free"},{"bike_id":"7c18eed0-4874-4076-9534-8c2d6f7c1d66","system_id":"levelo_inurba_marseille","lat":43.282744,"lon":5.350533,"is_reserved":false,"is_disabled":false,"rental_uris":{"android":"levelo://app?vid=7c18eed0-4874-4076-9534-8c2d6f7c1d66","ios":"levelo://app?vid=7c18eed0-4874-4076-9534-8c2d6f7c1d66"},"vehicle_type_id":"4","last_reported":1692637561,"current_range_meters":32000,"station_id":"ce4bhbp2rcd13ifvqerg","pricing_plan_id":"free"},{"bike_id":"b30ff812-662c-49bc-95d4-b3daa8a91f9f","system_id":"levelo_inurba_marseille","lat":43.28265,"lon":5.35052,"is_reserved":false,"is_disabled":false,"rental_uris":{"android":"levelo://app?vid=b30ff812-662c-49bc-95d4-b3daa8a91f9f","ios":"levelo://app?vid=b30ff812-662c-49bc-95d4-b3daa8a91f9f"},"vehicle_type_id":"4","last_reported":1692637561,"current_range_meters":4400,"station_id":"ce4bhbp2rcd13ifvqerg","pricing_plan_id":"free"},{"bike_id":"8bba2c57-42fe-4760-a7ec-a96ed8d4c190","system_id":"levelo_inurba_marseille","lat":43.282744,"lon":5.350533,"is_reserved":false,"is_disabled":false,"rental_uris":{"android":"levelo://app?vid=8bba2c57-42fe-4760-a7ec-a96ed8d4c190","ios":"levelo://app?vid=8bba2c57-42fe-4760-a7ec-a96ed8d4c190"},"vehicle_type_id":"4","last_reported":1692637561,"current_range_meters":21600,"station_id":"ce4bhbp2rcd13ifvqerg","pricing_plan_id":"free"},{"bike_id":"91bd5462-c1b8-4b66-8503-45ba88315462","system_id":"levelo_inurba_marseille","lat":43.282744,"lon":5.350533,"is_reserved":false,"is_disabled":false,"rental_uris":{"android":"levelo://app?vid=91bd5462-c1b8-4b66-8503-45ba88315462","ios":"levelo://app?vid=91bd5462-c1b8-4b66-8503-45ba88315462"},"vehicle_type_id":"4","last_reported":1692637561,"current_range_meters":20000,"station_id":"ce4bhbp2rcd13ifvqerg","pricing_plan_id":"free"},{"bike_id":"dd6d6938-b0ad-4994-a797-dd7a8e1ab9fe","system_id":"levelo_inurba_marseille","lat":43.282618,"lon":5.350568,"is_reserved":false,"is_disabled":false,"rental_uris":{"android":"levelo://app?vid=dd6d6938-b0ad-4994-a797-dd7a8e1ab9fe","ios":"levelo://app?vid=dd6d6938-b0ad-4994-a797-dd7a8e1ab9fe"},"vehicle_type_id":"4","last_reported":1692637561,"current_range_meters":16000,"station_id":"ce4bhbp2rcd13ifvqerg","pricing_plan_id":"free"},{"bike_id":"2c7e05f9-0861-43f7-976d-a54378d65df2","system_id":"levelo_inurba_marseille","lat":43.282613,"lon":5.350569,"is_reserved":false,"is_disabled":false,"rental_uris":{"android":"levelo://app?vid=2c7e05f9-0861-43f7-976d-a54378d65df2","ios":"levelo://app?vid=2c7e05f9-0861-43f7-976d-a54378d65df2"},"vehicle_type_id":"4","last_reported":1692637561,"current_range_meters":16800,"station_id":"ce4bhbp2rcd13ifvqerg","pricing_plan_id":"free"},{"bike_id":"1233c2de-a554-4733-ad4c-abf1a9006846","system_id":"levelo_inurba_marseille","lat":43.28261,"lon":5.35058,"is_reserved":false,"is_disabled":false,"rental_uris":{"android":"levelo://app?vid=1233c2de-a554-4733-ad4c-abf1a9006846","ios":"levelo://app?vid=1233c2de-a554-4733-ad4c-abf1a9006846"},"vehicle_type_id":"4","last_reported":1692637561,"current_range_meters":20000,"station_id":"ce4bhbp2rcd13ifvqerg","pricing_plan_id":"free"},{"bike_id":"1f9ed3da-3e62-4f6b-9182-d538393d09b1","system_id":"levelo_inurba_marseille","lat":43.282602,"lon":5.35058,"is_reserved":false,"is_disabled":false,"rental_uris":{"android":"levelo://app?vid=1f9ed3da-3e62-4f6b-9182-d538393d09b1","ios":"levelo://app?vid=1f9ed3da-3e62-4f6b-9182-d538393d09b1"},"vehicle_type_id":"4","last_reported":1692637561,"current_range_meters":18400,"station_id":"ce4bhbp2rcd13ifvqerg","pricing_plan_id":"free"},{"bike_id":"9f5ac395-afc7-4aff-9973-5fc77b1f6ac4","system_id":"levelo_inurba_marseille","lat":43.282608,"lon":5.350556,"is_reserved":false,"is_disabled":false,"rental_uris":{"android":"levelo://app?vid=9f5ac395-afc7-4aff-9973-5fc77b1f6ac4","ios":"levelo://app?vid=9f5ac395-afc7-4aff-9973-5fc77b1f6ac4"},"vehicle_type_id":"4","last_reported":1692637561,"current_range_meters":24400,"station_id":"ce4bhbp2rcd13ifvqerg","pricing_plan_id":"free"},{"bike_id":"d1816ec0-2d32-4162-927c-7ae014f9ffc6","system_id":"levelo_inurba_marseille","lat":43.2826,"lon":5.350584,"is_reserved":false,"is_disabled":false,"rental_uris":{"android":"levelo://app?vid=d1816ec0-2d32-4162-927c-7ae014f9ffc6","ios":"levelo://app?vid=d1816ec0-2d32-4162-927c-7ae014f9ffc6"},"vehicle_type_id":"4","last_reported":1692637561,"current_range_meters":30800,"station_id":"ce4bhbp2rcd13ifvqerg","pricing_plan_id":"free"},{"bike_id":"e8ac5996-a70b-4df1-8a97-3a645574b22b","system_id":"levelo_inurba_marseille","lat":43.2826,"lon":5.350576,"is_reserved":false,"is_disabled":false,"rental_uris":{"android":"levelo://app?vid=e8ac5996-a70b-4df1-8a97-3a645574b22b","ios":"levelo://app?vid=e8ac5996-a70b-4df1-8a97-3a645574b22b"},"vehicle_type_id":"4","last_reported":1692637561,"current_range_meters":8800,"station_id":"ce4bhbp2rcd13ifvqerg","pricing_plan_id":"free"},{"bike_id":"b63b9293-496f-4db2-a214-a3e3d266ea0e","system_id":"levelo_inurba_marseille","lat":43.28263,"lon":5.35047,"is_reserved":false,"is_disabled":false,"rental_uris":{"android":"levelo://app?vid=b63b9293-496f-4db2-a214-a3e3d266ea0e","ios":"levelo://app?vid=b63b9293-496f-4db2-a214-a3e3d266ea0e"},"vehicle_type_id":"4","last_reported":1692637561,"current_range_meters":30800,"station_id":"ce4bhbp2rcd13ifvqerg","pricing_plan_id":"free"},{"bike_id":"a1f0501f-bba8-4726-b1f4-8d8c69a081f8","system_id":"levelo_inurba_marseille","lat":43.282602,"lon":5.350553,"is_reserved":false,"is_disabled":false,"rental_uris":{"android":"levelo://app?vid=a1f0501f-bba8-4726-b1f4-8d8c69a081f8","ios":"levelo://app?vid=a1f0501f-bba8-4726-b1f4-8d8c69a081f8"},"vehicle_type_id":"4","last_reported":1692637561,"current_range_meters":26000,"station_id":"ce4bhbp2rcd13ifvqerg","pricing_plan_id":"free"},{"bike_id":"adfc8145-2ef9-44b2-b8a1-e9754e289b8e","system_id":"levelo_inurba_marseille","lat":43.28039,"lon":5.369297,"is_reserved":false,"is_disabled":false,"rental_uris":{"android":"levelo://app?vid=adfc8145-2ef9-44b2-b8a1-e9754e289b8e","ios":"levelo://app?vid=adfc8145-2ef9-44b2-b8a1-e9754e289b8e"},"vehicle_type_id":"4","last_reported":1692637561,"current_range_meters":3600,"station_id":"ce4bha12rcd13ifvqef0","pricing_plan_id":"free"},{"bike_id":"9f46cfde-4f76-4076-bade-5765c2d3d473","system_id":"levelo_inurba_marseille","lat":43.28039,"lon":5.369297,"is_reserved":false,"is_disabled":false,"rental_uris":{"android":"levelo://app?vid=9f46cfde-4f76-4076-bade-5765c2d3d473","ios":"levelo://app?vid=9f46cfde-4f76-4076-bade-5765c2d3d473"},"vehicle_type_id":"4","last_reported":1692637561,"current_range_meters":31600,"station_id":"ce4bha12rcd13ifvqef0","pricing_plan_id":"free"},{"bike_id":"b546e226-60db-4f00-99ec-5ef41c879fd0","system_id":"levelo_inurba_marseille","lat":43.282539,"lon":5.350604,"is_reserved":false,"is_disabled":false,"rental_uris":{"android":"levelo://app?vid=b546e226-60db-4f00-99ec-5ef41c879fd0","ios":"levelo://app?vid=b546e226-60db-4f00-99ec-5ef41c879fd0"},"vehicle_type_id":"4","last_reported":1692637561,"current_range_meters":1200,"station_id":"","pricing_plan_id":"free"},{"bike_id":"2517cafd-e76e-4af7-871b-8f1bb47c4fa6","system_id":"levelo_inurba_marseille","lat":43.281044,"lon":5.378308,"is_reserved":false,"is_disabled":false,"rental_uris":{"android":"levelo://app?vid=2517cafd-e76e-4af7-871b-8f1bb47c4fa6","ios":"levelo://app?vid=2517cafd-e76e-4af7-871b-8f1bb47c4fa6"},"vehicle_type_id":"4","last_reported":1692637561,"current_range_meters":23600,"station_id":"ce4bha12rcd13ifvqee0","pricing_plan_id":"free"},{"bike_id":"2fcf1176-8ce9-4b20-ae1a-2fb4c66bc9e1","system_id":"levelo_inurba_marseille","lat":43.28107,"lon":5.37829,"is_reserved":false,"is_disabled":false,"rental_uris":{"android":"levelo://app?vid=2fcf1176-8ce9-4b20-ae1a-2fb4c66bc9e1","ios":"levelo://app?vid=2fcf1176-8ce9-4b20-ae1a-2fb4c66bc9e1"},"vehicle_type_id":"4","last_reported":1692637561,"current_range_meters":0,"station_id":"ce4bha12rcd13ifvqee0","pricing_plan_id":"free"},{"bike_id":"c1abbaf6-52cb-4c91-8b4f-7c0fc09579d8","system_id":"levelo_inurba_marseille","lat":43.281053,"lon":5.378288,"is_reserved":false,"is_disabled":false,"rental_uris":{"android":"levelo://app?vid=c1abbaf6-52cb-4c91-8b4f-7c0fc09579d8","ios":"levelo://app?vid=c1abbaf6-52cb-4c91-8b4f-7c0fc09579d8"},"vehicle_type_id":"4","last_reported":1692637561,"current_range_meters":12800,"station_id":"","pricing_plan_id":"free"},{"bike_id":"11f631ec-4fd9-4069-9a31-951c4e2f4447","system_id":"levelo_inurba_marseille","lat":43.296263,"lon":5.40601,"is_reserved":false,"is_disabled":false,"rental_uris":{"android":"levelo://app?vid=11f631ec-4fd9-4069-9a31-951c4e2f4447","ios":"levelo://app?vid=11f631ec-4fd9-4069-9a31-951c4e2f4447"},"vehicle_type_id":"4","last_reported":1692637561,"current_range_meters":0,"station_id":"ce4bh0h2rcd13ifvqd60","pricing_plan_id":"free"},{"bike_id":"f8ef4f78-badc-40d1-a4a9-077301466e56","system_id":"levelo_inurba_marseille","lat":43.32662,"lon":5.40978,"is_reserved":false,"is_disabled":false,"rental_uris":{"android":"levelo://app?vid=f8ef4f78-badc-40d1-a4a9-077301466e56","ios":"levelo://app?vid=f8ef4f78-badc-40d1-a4a9-077301466e56"},"vehicle_type_id":"4","last_reported":1692637561,"current_range_meters":4800,"station_id":"ce4bhpp2rcd13ifvqhgg","pricing_plan_id":"free"},{"bike_id":"4e5400ba-b79f-476c-8f11-768f462ab4aa","system_id":"levelo_inurba_marseille","lat":43.326605,"lon":5.409903,"is_reserved":false,"is_disabled":false,"rental_uris":{"android":"levelo://app?vid=4e5400ba-b79f-476c-8f11-768f462ab4aa","ios":"levelo://app?vid=4e5400ba-b79f-476c-8f11-768f462ab4aa"},"vehicle_type_id":"4","last_reported":1692637561,"current_range_meters":21600,"station_id":"ce4bhpp2rcd13ifvqhgg","pricing_plan_id":"free"},{"bike_id":"98ed81c1-d567-4fc5-aeb2-dbe76283fa86","system_id":"levelo_inurba_marseille","lat":43.326605,"lon":5.409903,"is_reserved":false,"is_disabled":false,"rental_uris":{"android":"levelo://app?vid=98ed81c1-d567-4fc5-aeb2-dbe76283fa86","ios":"levelo://app?vid=98ed81c1-d567-4fc5-aeb2-dbe76283fa86"},"vehicle_type_id":"4","last_reported":1692637561,"current_range_meters":20400,"station_id":"ce4bhpp2rcd13ifvqhgg","pricing_plan_id":"free"},{"bike_id":"605043d3-d1cd-418c-acbf-3f3b04db3bb4","system_id":"levelo_inurba_marseille","lat":43.279087,"lon":5.380114,"is_reserved":false,"is_disabled":false,"rental_uris":{"android":"levelo://app?vid=605043d3-d1cd-418c-acbf-3f3b04db3bb4","ios":"levelo://app?vid=605043d3-d1cd-418c-acbf-3f3b04db3bb4"},"vehicle_type_id":"4","last_reported":1692637561,"current_range_meters":25600,"station_id":"ce4bhf92rcd13ifvqf50","pricing_plan_id":"free"},{"bike_id":"b2566224-507e-4a86-915c-4a4ffa010c54","system_id":"levelo_inurba_marseille","lat":43.279087,"lon":5.380114,"is_reserved":false,"is_disabled":false,"rental_uris":{"android":"levelo://app?vid=b2566224-507e-4a86-915c-4a4ffa010c54","ios":"levelo://app?vid=b2566224-507e-4a86-915c-4a4ffa010c54"},"vehicle_type_id":"4","last_reported":1692637561,"current_range_meters":4400,"station_id":"ce4bhf92rcd13ifvqf50","pricing_plan_id":"free"},{"bike_id":"ec14fd2f-0a5f-4d95-afe6-8dbe389b8f76","system_id":"levelo_inurba_marseille","lat":43.279087,"lon":5.380114,"is_reserved":false,"is_disabled":false,"rental_uris":{"android":"levelo://app?vid=ec14fd2f-0a5f-4d95-afe6-8dbe389b8f76","ios":"levelo://app?vid=ec14fd2f-0a5f-4d95-afe6-8dbe389b8f76"},"vehicle_type_id":"4","last_reported":1692637561,"current_range_meters":3200,"station_id":"ce4bhf92rcd13ifvqf50","pricing_plan_id":"free"},{"bike_id":"ab940119-9832-4454-8f92-2956a145a673","system_id":"levelo_inurba_marseille","lat":43.273609,"lon":5.362708,"is_reserved":false,"is_disabled":false,"rental_uris":{"android":"levelo://app?vid=ab940119-9832-4454-8f92-2956a145a673","ios":"levelo://app?vid=ab940119-9832-4454-8f92-2956a145a673"},"vehicle_type_id":"4","last_reported":1692637561,"current_range_meters":31200,"station_id":"ce4bhbh2rcd13ifvqeo0","pricing_plan_id":"free"},{"bike_id":"457b75f2-5966-42f2-a956-fa668d18cd17","system_id":"levelo_inurba_marseille","lat":43.320045,"lon":5.415046,"is_reserved":false,"is_disabled":false,"rental_uris":{"android":"levelo://app?vid=457b75f2-5966-42f2-a956-fa668d18cd17","ios":"levelo://app?vid=457b75f2-5966-42f2-a956-fa668d18cd17"},"vehicle_type_id":"4","last_reported":1692637561,"current_range_meters":31200,"station_id":"ce4bhq92rcd13ifvqhkg","pricing_plan_id":"free"},{"bike_id":"31d90328-f4e8-4c24-8f41-1edb31efea7b","system_id":"levelo_inurba_marseille","lat":43.320045,"lon":5.415046,"is_reserved":false,"is_disabled":false,"rental_uris":{"android":"levelo://app?vid=31d90328-f4e8-4c24-8f41-1edb31efea7b","ios":"levelo://app?vid=31d90328-f4e8-4c24-8f41-1edb31efea7b"},"vehicle_type_id":"4","last_reported":1692637561,"current_range_meters":31200,"station_id":"ce4bhq92rcd13ifvqhkg","pricing_plan_id":"free"},{"bike_id":"c854a6ad-9bf5-4f00-9f0b-93ddd78c4527","system_id":"levelo_inurba_marseille","lat":43.320045,"lon":5.415048,"is_reserved":false,"is_disabled":false,"rental_uris":{"android":"levelo://app?vid=c854a6ad-9bf5-4f00-9f0b-93ddd78c4527","ios":"levelo://app?vid=c854a6ad-9bf5-4f00-9f0b-93ddd78c4527"},"vehicle_type_id":"4","last_reported":1692637561,"current_range_meters":31200,"station_id":"ce4bhq92rcd13ifvqhkg","pricing_plan_id":"free"},{"bike_id":"349955f8-b21c-46f5-8ff0-f5a4da685e45","system_id":"levelo_inurba_marseille","lat":43.32057,"lon":5.41532,"is_reserved":false,"is_disabled":false,"rental_uris":{"android":"levelo://app?vid=349955f8-b21c-46f5-8ff0-f5a4da685e45","ios":"levelo://app?vid=349955f8-b21c-46f5-8ff0-f5a4da685e45"},"vehicle_type_id":"4","last_reported":1692637561,"current_range_meters":31200,"station_id":"ce4bhq92rcd13ifvqhkg","pricing_plan_id":"free"},{"bike_id":"e0441e40-adcd-4e53-b038-44f4a2137467","system_id":"levelo_inurba_marseille","lat":43.320045,"lon":5.415046,"is_reserved":false,"is_disabled":false,"rental_uris":{"android":"levelo://app?vid=e0441e40-adcd-4e53-b038-44f4a2137467","ios":"levelo://app?vid=e0441e40-adcd-4e53-b038-44f4a2137467"},"vehicle_type_id":"4","last_reported":1692637561,"current_range_meters":30000,"station_id":"ce4bhq92rcd13ifvqhkg","pricing_plan_id":"free"},{"bike_id":"f5193848-2ed5-4f88-b4c5-59e0fdd65098","system_id":"levelo_inurba_marseille","lat":43.299579,"lon":5.413255,"is_reserved":false,"is_disabled":false,"rental_uris":{"android":"levelo://app?vid=f5193848-2ed5-4f88-b4c5-59e0fdd65098","ios":"levelo://app?vid=f5193848-2ed5-4f88-b4c5-59e0fdd65098"},"vehicle_type_id":"4","last_reported":1692637561,"current_range_meters":13200,"station_id":"ce4bhp12rcd13ifvqh9g","pricing_plan_id":"free"},{"bike_id":"faa4177f-8f73-43b8-bc92-5b231e0b4da6","system_id":"levelo_inurba_marseille","lat":43.279742,"lon":5.38744,"is_reserved":false,"is_disabled":false,"rental_uris":{"android":"levelo://app?vid=faa4177f-8f73-43b8-bc92-5b231e0b4da6","ios":"levelo://app?vid=faa4177f-8f73-43b8-bc92-5b231e0b4da6"},"vehicle_type_id":"4","last_reported":1692637561,"current_range_meters":19600,"station_id":"ce4bhg12rcd13ifvqf80","pricing_plan_id":"free"},{"bike_id":"c327718a-8fe6-4791-a349-aba0f8f94e82","system_id":"levelo_inurba_marseille","lat":43.279742,"lon":5.38744,"is_reserved":false,"is_disabled":false,"rental_uris":{"android":"levelo://app?vid=c327718a-8fe6-4791-a349-aba0f8f94e82","ios":"levelo://app?vid=c327718a-8fe6-4791-a349-aba0f8f94e82"},"vehicle_type_id":"4","last_reported":1692637561,"current_range_meters":25600,"station_id":"ce4bhg12rcd13ifvqf80","pricing_plan_id":"free"},{"bike_id":"ed3eb4c1-1b61-4ba9-b387-060e7fd50d87","system_id":"levelo_inurba_marseille","lat":43.29264,"lon":5.409,"is_reserved":false,"is_disabled":false,"rental_uris":{"android":"levelo://app?vid=ed3eb4c1-1b61-4ba9-b387-060e7fd50d87","ios":"levelo://app?vid=ed3eb4c1-1b61-4ba9-b387-060e7fd50d87"},"vehicle_type_id":"4","last_reported":1692637561,"current_range_meters":12400,"station_id":"ce4bh192rcd13ifvqdc0","pricing_plan_id":"free"},{"bike_id":"b7cd2ba5-ab97-4383-b809-f3a8980701f6","system_id":"levelo_inurba_marseille","lat":43.292571,"lon":5.409107,"is_reserved":false,"is_disabled":false,"rental_uris":{"android":"levelo://app?vid=b7cd2ba5-ab97-4383-b809-f3a8980701f6","ios":"levelo://app?vid=b7cd2ba5-ab97-4383-b809-f3a8980701f6"},"vehicle_type_id":"4","last_reported":1692637561,"current_range_meters":1200,"station_id":"ce4bh192rcd13ifvqdc0","pricing_plan_id":"free"},{"bike_id":"fcd32d74-7831-444c-8fe8-c4f215eb0bd8","system_id":"levelo_inurba_marseille","lat":43.292571,"lon":5.409107,"is_reserved":false,"is_disabled":false,"rental_uris":{"android":"levelo://app?vid=fcd32d74-7831-444c-8fe8-c4f215eb0bd8","ios":"levelo://app?vid=fcd32d74-7831-444c-8fe8-c4f215eb0bd8"},"vehicle_type_id":"4","last_reported":1692637561,"current_range_meters":0,"station_id":"ce4bh192rcd13ifvqdc0","pricing_plan_id":"free"},{"bike_id":"a6dffeed-e5db-4806-b149-0cf2f7d1fd46","system_id":"levelo_inurba_marseille","lat":43.32557,"lon":5.41422,"is_reserved":false,"is_disabled":false,"rental_uris":{"android":"levelo://app?vid=a6dffeed-e5db-4806-b149-0cf2f7d1fd46","ios":"levelo://app?vid=a6dffeed-e5db-4806-b149-0cf2f7d1fd46"},"vehicle_type_id":"4","last_reported":1692637561,"current_range_meters":22000,"station_id":"ce4bhq12rcd13ifvqhhg","pricing_plan_id":"free"},{"bike_id":"452b7a74-55d8-4254-ad5f-8533bb2a425d","system_id":"levelo_inurba_marseille","lat":43.27621,"lon":5.36114,"is_reserved":false,"is_disabled":false,"rental_uris":{"android":"levelo://app?vid=452b7a74-55d8-4254-ad5f-8533bb2a425d","ios":"levelo://app?vid=452b7a74-55d8-4254-ad5f-8533bb2a425d"},"vehicle_type_id":"4","last_reported":1692637561,"current_range_meters":31200,"station_id":"ce4bgj92rcd13ifvqbe0","pricing_plan_id":"free"},{"bike_id":"f2de4a11-98ab-4e73-8ca7-7b281b25e066","system_id":"levelo_inurba_marseille","lat":43.2762,"lon":5.36116,"is_reserved":false,"is_disabled":false,"rental_uris":{"android":"levelo://app?vid=f2de4a11-98ab-4e73-8ca7-7b281b25e066","ios":"levelo://app?vid=f2de4a11-98ab-4e73-8ca7-7b281b25e066"},"vehicle_type_id":"4","last_reported":1692637561,"current_range_meters":5600,"station_id":"ce4bgj92rcd13ifvqbe0","pricing_plan_id":"free"},{"bike_id":"9622d3a9-1fa2-4d64-8933-3e639750c23b","system_id":"levelo_inurba_marseille","lat":43.27619,"lon":5.36108,"is_reserved":false,"is_disabled":false,"rental_uris":{"android":"levelo://app?vid=9622d3a9-1fa2-4d64-8933-3e639750c23b","ios":"levelo://app?vid=9622d3a9-1fa2-4d64-8933-3e639750c23b"},"vehicle_type_id":"4","last_reported":1692637561,"current_range_meters":20000,"station_id":"ce4bgj92rcd13ifvqbe0","pricing_plan_id":"free"},{"bike_id":"5818ba17-9781-4b61-84fc-09f215eff594","system_id":"levelo_inurba_marseille","lat":43.27619,"lon":5.36103,"is_reserved":false,"is_disabled":false,"rental_uris":{"android":"levelo://app?vid=5818ba17-9781-4b61-84fc-09f215eff594","ios":"levelo://app?vid=5818ba17-9781-4b61-84fc-09f215eff594"},"vehicle_type_id":"4","last_reported":1692637561,"current_range_meters":19200,"station_id":"ce4bgj92rcd13ifvqbe0","pricing_plan_id":"free"},{"bike_id":"792e6283-a3cc-47ee-8d0f-7d5455a3ad25","system_id":"levelo_inurba_marseille","lat":43.32539,"lon":5.41445,"is_reserved":false,"is_disabled":false,"rental_uris":{"android":"levelo://app?vid=792e6283-a3cc-47ee-8d0f-7d5455a3ad25","ios":"levelo://app?vid=792e6283-a3cc-47ee-8d0f-7d5455a3ad25"},"vehicle_type_id":"4","last_reported":1692637561,"current_range_meters":3200,"station_id":"ce4bhq12rcd13ifvqhhg","pricing_plan_id":"free"},{"bike_id":"de2eef3f-1efd-48a8-9eaa-74da78f4b159","system_id":"levelo_inurba_marseille","lat":43.27614,"lon":5.36113,"is_reserved":false,"is_disabled":false,"rental_uris":{"android":"levelo://app?vid=de2eef3f-1efd-48a8-9eaa-74da78f4b159","ios":"levelo://app?vid=de2eef3f-1efd-48a8-9eaa-74da78f4b159"},"vehicle_type_id":"4","last_reported":1692637561,"current_range_meters":17200,"station_id":"ce4bgj92rcd13ifvqbe0","pricing_plan_id":"free"},{"bike_id":"4027d8e9-948a-43ef-8fe9-96d1029e292f","system_id":"levelo_inurba_marseille","lat":43.276179,"lon":5.361009,"is_reserved":false,"is_disabled":false,"rental_uris":{"android":"levelo://app?vid=4027d8e9-948a-43ef-8fe9-96d1029e292f","ios":"levelo://app?vid=4027d8e9-948a-43ef-8fe9-96d1029e292f"},"vehicle_type_id":"4","last_reported":1692637561,"current_range_meters":31200,"station_id":"ce4bgj92rcd13ifvqbe0","pricing_plan_id":"free"},{"bike_id":"094a69f2-33a7-4db4-8dae-698181ec89b5","system_id":"levelo_inurba_marseille","lat":43.325233,"lon":5.414318,"is_reserved":false,"is_disabled":false,"rental_uris":{"android":"levelo://app?vid=094a69f2-33a7-4db4-8dae-698181ec89b5","ios":"levelo://app?vid=094a69f2-33a7-4db4-8dae-698181ec89b5"},"vehicle_type_id":"4","last_reported":1692637561,"current_range_meters":31200,"station_id":"ce4bhq12rcd13ifvqhhg","pricing_plan_id":"free"},{"bike_id":"c0b544d6-f5ce-4240-896e-af05fe5d0c1c","system_id":"levelo_inurba_marseille","lat":43.27606,"lon":5.36107,"is_reserved":false,"is_disabled":false,"rental_uris":{"android":"levelo://app?vid=c0b544d6-f5ce-4240-896e-af05fe5d0c1c","ios":"levelo://app?vid=c0b544d6-f5ce-4240-896e-af05fe5d0c1c"},"vehicle_type_id":"4","last_reported":1692637561,"current_range_meters":13600,"station_id":"ce4bgj92rcd13ifvqbe0","pricing_plan_id":"free"},{"bike_id":"f147476e-e941-4342-9e31-27ef71cb490c","system_id":"levelo_inurba_marseille","lat":43.34853,"lon":5.34913,"is_reserved":false,"is_disabled":false,"rental_uris":{"android":"levelo://app?vid=f147476e-e941-4342-9e31-27ef71cb490c","ios":"levelo://app?vid=f147476e-e941-4342-9e31-27ef71cb490c"},"vehicle_type_id":"4","last_reported":1692637561,"current_range_meters":7200,"station_id":"","pricing_plan_id":"free"},{"bike_id":"16a112b4-f51f-4b4b-b90c-97d3a6e242ba","system_id":"levelo_inurba_marseille","lat":43.280784,"lon":5.396622,"is_reserved":false,"is_disabled":false,"rental_uris":{"android":"levelo://app?vid=16a112b4-f51f-4b4b-b90c-97d3a6e242ba","ios":"levelo://app?vid=16a112b4-f51f-4b4b-b90c-97d3a6e242ba"},"vehicle_type_id":"4","last_reported":1692637561,"current_range_meters":28800,"station_id":"ce4bho12rcd13ifvqh2g","pricing_plan_id":"free"},{"bike_id":"97566964-3988-42b6-a4cd-8d19f31c620d","system_id":"levelo_inurba_marseille","lat":43.27836,"lon":5.39195,"is_reserved":false,"is_disabled":false,"rental_uris":{"android":"levelo://app?vid=97566964-3988-42b6-a4cd-8d19f31c620d","ios":"levelo://app?vid=97566964-3988-42b6-a4cd-8d19f31c620d"},"vehicle_type_id":"4","last_reported":1692637561,"current_range_meters":27600,"station_id":"ce4bhjp2rcd13ifvqga0","pricing_plan_id":"free"},{"bike_id":"99d36055-0eb9-412c-a861-f57f1e72d63d","system_id":"levelo_inurba_marseille","lat":43.27835,"lon":5.39197,"is_reserved":false,"is_disabled":false,"rental_uris":{"android":"levelo://app?vid=99d36055-0eb9-412c-a861-f57f1e72d63d","ios":"levelo://app?vid=99d36055-0eb9-412c-a861-f57f1e72d63d"},"vehicle_type_id":"4","last_reported":1692637561,"current_range_meters":29600,"station_id":"ce4bhjp2rcd13ifvqga0","pricing_plan_id":"free"},{"bike_id":"c0d6283e-b8cd-40d4-8b99-0d46b13bc005","system_id":"levelo_inurba_marseille","lat":43.27837,"lon":5.39203,"is_reserved":false,"is_disabled":false,"rental_uris":{"android":"levelo://app?vid=c0d6283e-b8cd-40d4-8b99-0d46b13bc005","ios":"levelo://app?vid=c0d6283e-b8cd-40d4-8b99-0d46b13bc005"},"vehicle_type_id":"4","last_reported":1692637561,"current_range_meters":24000,"station_id":"ce4bhjp2rcd13ifvqga0","pricing_plan_id":"free"},{"bike_id":"a671abbc-7a40-4490-8662-d345b7fc8a55","system_id":"levelo_inurba_marseille","lat":43.273613,"lon":5.362705,"is_reserved":false,"is_disabled":false,"rental_uris":{"android":"levelo://app?vid=a671abbc-7a40-4490-8662-d345b7fc8a55","ios":"levelo://app?vid=a671abbc-7a40-4490-8662-d345b7fc8a55"},"vehicle_type_id":"4","last_reported":1692637561,"current_range_meters":4400,"station_id":"ce4bhbh2rcd13ifvqeo0","pricing_plan_id":"free"},{"bike_id":"2c4a96a2-1cd9-41a7-a5e0-72b07c7e7c2d","system_id":"levelo_inurba_marseille","lat":43.303837,"lon":5.418724,"is_reserved":false,"is_disabled":false,"rental_uris":{"android":"levelo://app?vid=2c4a96a2-1cd9-41a7-a5e0-72b07c7e7c2d","ios":"levelo://app?vid=2c4a96a2-1cd9-41a7-a5e0-72b07c7e7c2d"},"vehicle_type_id":"4","last_reported":1692637561,"current_range_meters":23600,"station_id":"ce4bhop2rcd13ifvqh7g","pricing_plan_id":"free"},{"bike_id":"aee43d4d-6061-4ca1-a95d-3255f3cc8edd","system_id":"levelo_inurba_marseille","lat":43.27382,"lon":5.36251,"is_reserved":false,"is_disabled":false,"rental_uris":{"android":"levelo://app?vid=aee43d4d-6061-4ca1-a95d-3255f3cc8edd","ios":"levelo://app?vid=aee43d4d-6061-4ca1-a95d-3255f3cc8edd"},"vehicle_type_id":"4","last_reported":1692637561,"current_range_meters":12400,"station_id":"ce4bhbh2rcd13ifvqeo0","pricing_plan_id":"free"},{"bike_id":"94941464-c074-46af-8ed7-052b053395d0","system_id":"levelo_inurba_marseille","lat":43.27379,"lon":5.36259,"is_reserved":false,"is_disabled":false,"rental_uris":{"android":"levelo://app?vid=94941464-c074-46af-8ed7-052b053395d0","ios":"levelo://app?vid=94941464-c074-46af-8ed7-052b053395d0"},"vehicle_type_id":"4","last_reported":1692637561,"current_range_meters":22800,"station_id":"ce4bhbh2rcd13ifvqeo0","pricing_plan_id":"free"},{"bike_id":"efddc924-8fad-4e50-8259-72f7c73ad8d6","system_id":"levelo_inurba_marseille","lat":43.273609,"lon":5.362708,"is_reserved":false,"is_disabled":false,"rental_uris":{"android":"levelo://app?vid=efddc924-8fad-4e50-8259-72f7c73ad8d6","ios":"levelo://app?vid=efddc924-8fad-4e50-8259-72f7c73ad8d6"},"vehicle_type_id":"4","last_reported":1692637561,"current_range_meters":14800,"station_id":"ce4bhbh2rcd13ifvqeo0","pricing_plan_id":"free"},{"bike_id":"d60d15b8-a83d-4b49-ba0e-056966446a10","system_id":"levelo_inurba_marseille","lat":43.273609,"lon":5.362708,"is_reserved":false,"is_disabled":false,"rental_uris":{"android":"levelo://app?vid=d60d15b8-a83d-4b49-ba0e-056966446a10","ios":"levelo://app?vid=d60d15b8-a83d-4b49-ba0e-056966446a10"},"vehicle_type_id":"4","last_reported":1692637561,"current_range_meters":8800,"station_id":"ce4bhbh2rcd13ifvqeo0","pricing_plan_id":"free"},{"bike_id":"494a6f8a-0359-4f83-9b94-d5d906337cae","system_id":"levelo_inurba_marseille","lat":43.27378,"lon":5.36252,"is_reserved":false,"is_disabled":false,"rental_uris":{"android":"levelo://app?vid=494a6f8a-0359-4f83-9b94-d5d906337cae","ios":"levelo://app?vid=494a6f8a-0359-4f83-9b94-d5d906337cae"},"vehicle_type_id":"4","last_reported":1692637561,"current_range_meters":24000,"station_id":"","pricing_plan_id":"free"},{"bike_id":"8e41fdcb-34e2-4595-b735-e70dcdff5bfc","system_id":"levelo_inurba_marseille","lat":43.273609,"lon":5.362708,"is_reserved":false,"is_disabled":false,"rental_uris":{"android":"levelo://app?vid=8e41fdcb-34e2-4595-b735-e70dcdff5bfc","ios":"levelo://app?vid=8e41fdcb-34e2-4595-b735-e70dcdff5bfc"},"vehicle_type_id":"4","last_reported":1692637561,"current_range_meters":22000,"station_id":"ce4bhbh2rcd13ifvqeo0","pricing_plan_id":"free"},{"bike_id":"b06b09e3-554f-4b27-a048-1c600222b9c1","system_id":"levelo_inurba_marseille","lat":43.27377,"lon":5.36259,"is_reserved":false,"is_disabled":false,"rental_uris":{"android":"levelo://app?vid=b06b09e3-554f-4b27-a048-1c600222b9c1","ios":"levelo://app?vid=b06b09e3-554f-4b27-a048-1c600222b9c1"},"vehicle_type_id":"4","last_reported":1692637561,"current_range_meters":25200,"station_id":"","pricing_plan_id":"free"},{"bike_id":"cb6066ba-5585-40b3-8201-027fd72b9cd4","system_id":"levelo_inurba_marseille","lat":43.273609,"lon":5.362708,"is_reserved":false,"is_disabled":false,"rental_uris":{"android":"levelo://app?vid=cb6066ba-5585-40b3-8201-027fd72b9cd4","ios":"levelo://app?vid=cb6066ba-5585-40b3-8201-027fd72b9cd4"},"vehicle_type_id":"4","last_reported":1692637561,"current_range_meters":6000,"station_id":"ce4bhbh2rcd13ifvqeo0","pricing_plan_id":"free"},{"bike_id":"29dd7184-090a-4a7e-8cf2-2da693624294","system_id":"levelo_inurba_marseille","lat":43.273609,"lon":5.362708,"is_reserved":false,"is_disabled":false,"rental_uris":{"android":"levelo://app?vid=29dd7184-090a-4a7e-8cf2-2da693624294","ios":"levelo://app?vid=29dd7184-090a-4a7e-8cf2-2da693624294"},"vehicle_type_id":"4","last_reported":1692637561,"current_range_meters":28000,"station_id":"ce4bhbh2rcd13ifvqeo0","pricing_plan_id":"free"},{"bike_id":"22948c70-38b2-49aa-9364-40f7934e713e","system_id":"levelo_inurba_marseille","lat":43.273609,"lon":5.362708,"is_reserved":false,"is_disabled":false,"rental_uris":{"android":"levelo://app?vid=22948c70-38b2-49aa-9364-40f7934e713e","ios":"levelo://app?vid=22948c70-38b2-49aa-9364-40f7934e713e"},