{"last_updated":1778427690,"ttl":60,"version":"2.2","data":{"bikes":[{"bike_id":"0905bf26-d1df-4967-bcf7-a2c7f347956a","system_id":"levelo_inurba_marseille","lat":43.28923,"lon":5.39649,"is_reserved":false,"is_disabled":true,"rental_uris":{"android":"levelo://app?vid=0905bf26-d1df-4967-bcf7-a2c7f347956a","ios":"levelo://app?vid=0905bf26-d1df-4967-bcf7-a2c7f347956a"},"vehicle_type_id":"4","last_reported":1778427691,"current_range_meters":2800,"station_id":"ce4bh3h2rcd13ifvqdn0","pricing_plan_id":"cebpf4jnsgd1na2vs0mg"},{"bike_id":"45eb3658-d438-4573-af91-29d6accd24b3","system_id":"levelo_inurba_marseille","lat":43.31513,"lon":5.38799,"is_reserved":false,"is_disabled":false,"rental_uris":{"android":"levelo://app?vid=45eb3658-d438-4573-af91-29d6accd24b3","ios":"levelo://app?vid=45eb3658-d438-4573-af91-29d6accd24b3"},"vehicle_type_id":"4","last_reported":1778427691,"current_range_meters":2800,"station_id":"","pricing_plan_id":"cebpf4jnsgd1na2vs0mg"},{"bike_id":"daba490f-06d7-408b-a85a-871aa0def2c4","system_id":"levelo_inurba_marseille","lat":43.290203,"lon":5.381237,"is_reserved":false,"is_disabled":false,"rental_uris":{"android":"levelo://app?vid=daba490f-06d7-408b-a85a-871aa0def2c4","ios":"levelo://app?vid=daba490f-06d7-408b-a85a-871aa0def2c4"},"vehicle_type_id":"4","last_reported":1778427691,"current_range_meters":2800,"station_id":"ce4bh4p2rcd13ifvqe1g","pricing_plan_id":"cebpf4jnsgd1na2vs0mg"},{"bike_id":"6e62480e-db74-4cb5-b3df-1dec3d03202b","system_id":"levelo_inurba_marseille","lat":43.27373,"lon":5.36261,"is_reserved":false,"is_disabled":false,"rental_uris":{"android":"levelo://app?vid=6e62480e-db74-4cb5-b3df-1dec3d03202b","ios":"levelo://app?vid=6e62480e-db74-4cb5-b3df-1dec3d03202b"},"vehicle_type_id":"4","last_reported":1778427691,"current_range_meters":2800,"station_id":"ce4bhbh2rcd13ifvqeo0","pricing_plan_id":"cebpf4jnsgd1na2vs0mg"},{"bike_id":"0ac132ea-cc8d-4356-bbbc-8254292b562b","system_id":"levelo_inurba_marseille","lat":43.284067,"lon":5.375064,"is_reserved":false,"is_disabled":false,"rental_uris":{"android":"levelo://app?vid=0ac132ea-cc8d-4356-bbbc-8254292b562b","ios":"levelo://app?vid=0ac132ea-cc8d-4356-bbbc-8254292b562b"},"vehicle_type_id":"4","last_reported":1778427691,"current_range_meters":2800,"station_id":"ce4bh412rcd13ifvqds0","pricing_plan_id":"cebpf4jnsgd1na2vs0mg"},{"bike_id":"7eb2b478-c255-4368-b1eb-66e0e2af9eed","system_id":"levelo_inurba_marseille","lat":43.293057,"lon":5.371692,"is_reserved":false,"is_disabled":true,"rental_uris":{"android":"levelo://app?vid=7eb2b478-c255-4368-b1eb-66e0e2af9eed","ios":"levelo://app?vid=7eb2b478-c255-4368-b1eb-66e0e2af9eed"},"vehicle_type_id":"4","last_reported":1778427691,"current_range_meters":2800,"station_id":"ce4bgh92rcd13ifvqb40","pricing_plan_id":"cebpf4jnsgd1na2vs0mg"},{"bike_id":"b1eefa37-96ae-4f95-a344-438091e1d04d","system_id":"levelo_inurba_marseille","lat":43.31051,"lon":5.39382,"is_reserved":false,"is_disabled":false,"rental_uris":{"android":"levelo://app?vid=b1eefa37-96ae-4f95-a344-438091e1d04d","ios":"levelo://app?vid=b1eefa37-96ae-4f95-a344-438091e1d04d"},"vehicle_type_id":"4","last_reported":1778427691,"current_range_meters":2800,"station_id":"","pricing_plan_id":"cebpf4jnsgd1na2vs0mg"},{"bike_id":"97be4277-27fd-4de4-809d-be99c279aa6b","system_id":"levelo_inurba_marseille","lat":43.273102,"lon":5.390297,"is_reserved":false,"is_disabled":false,"rental_uris":{"android":"levelo://app?vid=97be4277-27fd-4de4-809d-be99c279aa6b","ios":"levelo://app?vid=97be4277-27fd-4de4-809d-be99c279aa6b"},"vehicle_type_id":"4","last_reported":1778427691,"current_range_meters":2800,"station_id":"ce4bhgp2rcd13ifvqfe0","pricing_plan_id":"cebpf4jnsgd1na2vs0mg"},{"bike_id":"627ea465-4e71-4046-a508-023e31352421","system_id":"levelo_inurba_marseille","lat":43.25086,"lon":5.40528,"is_reserved":false,"is_disabled":false,"rental_uris":{"android":"levelo://app?vid=627ea465-4e71-4046-a508-023e31352421","ios":"levelo://app?vid=627ea465-4e71-4046-a508-023e31352421"},"vehicle_type_id":"4","last_reported":1778427691,"current_range_meters":2800,"station_id":"","pricing_plan_id":"cebpf4jnsgd1na2vs0mg"},{"bike_id":"97304b87-59bb-48a6-bb09-f7b1e278cff3","system_id":"levelo_inurba_marseille","lat":43.27939,"lon":5.41051,"is_reserved":false,"is_disabled":false,"rental_uris":{"android":"levelo://app?vid=97304b87-59bb-48a6-bb09-f7b1e278cff3","ios":"levelo://app?vid=97304b87-59bb-48a6-bb09-f7b1e278cff3"},"vehicle_type_id":"4","last_reported":1778427691,"current_range_meters":2800,"station_id":"ce4bhnp2rcd13ifvqh0g","pricing_plan_id":"cebpf4jnsgd1na2vs0mg"},{"bike_id":"4acb43ed-3642-4736-9baa-453b9005f3a4","system_id":"levelo_inurba_marseille","lat":43.295284,"lon":5.385303,"is_reserved":false,"is_disabled":false,"rental_uris":{"android":"levelo://app?vid=4acb43ed-3642-4736-9baa-453b9005f3a4","ios":"levelo://app?vid=4acb43ed-3642-4736-9baa-453b9005f3a4"},"vehicle_type_id":"4","last_reported":1778427691,"current_range_meters":2800,"station_id":"","pricing_plan_id":"cebpf4jnsgd1na2vs0mg"},{"bike_id":"234d937c-0a51-4b7b-a5da-54c58b1cfe2d","system_id":"levelo_inurba_marseille","lat":43.30546,"lon":5.36702,"is_reserved":false,"is_disabled":true,"rental_uris":{"android":"levelo://app?vid=234d937c-0a51-4b7b-a5da-54c58b1cfe2d","ios":"levelo://app?vid=234d937c-0a51-4b7b-a5da-54c58b1cfe2d"},"vehicle_type_id":"4","last_reported":1778427691,"current_range_meters":3200,"station_id":"ce4bgrp2rcd13ifvqc9g","pricing_plan_id":"cebpf4jnsgd1na2vs0mg"},{"bike_id":"cdd278be-6985-4e01-a1e8-4899861427d9","system_id":"levelo_inurba_marseille","lat":43.25817,"lon":5.39425,"is_reserved":false,"is_disabled":false,"rental_uris":{"android":"levelo://app?vid=cdd278be-6985-4e01-a1e8-4899861427d9","ios":"levelo://app?vid=cdd278be-6985-4e01-a1e8-4899861427d9"},"vehicle_type_id":"4","last_reported":1778427691,"current_range_meters":3200,"station_id":"ce4bhip2rcd13ifvqft0","pricing_plan_id":"cebpf4jnsgd1na2vs0mg"},{"bike_id":"3b096324-f1ca-46b1-ab6e-397e378555c8","system_id":"levelo_inurba_marseille","lat":43.3095,"lon":5.4016,"is_reserved":false,"is_disabled":false,"rental_uris":{"android":"levelo://app?vid=3b096324-f1ca-46b1-ab6e-397e378555c8","ios":"levelo://app?vid=3b096324-f1ca-46b1-ab6e-397e378555c8"},"vehicle_type_id":"4","last_reported":1778427691,"current_range_meters":3200,"station_id":"ce4bgvp2rcd13ifvqct0","pricing_plan_id":"cebpf4jnsgd1na2vs0mg"},{"bike_id":"689458f1-7c3d-457e-9967-103ee29a8833","system_id":"levelo_inurba_marseille","lat":43.299838,"lon":5.371784,"is_reserved":false,"is_disabled":true,"rental_uris":{"android":"levelo://app?vid=689458f1-7c3d-457e-9967-103ee29a8833","ios":"levelo://app?vid=689458f1-7c3d-457e-9967-103ee29a8833"},"vehicle_type_id":"4","last_reported":1778427691,"current_range_meters":3200,"station_id":"ce4bgr92rcd13ifvqc7g","pricing_plan_id":"cebpf4jnsgd1na2vs0mg"},{"bike_id":"f422b51e-1ef9-42a2-8365-1d33f807a8e0","system_id":"levelo_inurba_marseille","lat":43.23904,"lon":5.37481,"is_reserved":false,"is_disabled":true,"rental_uris":{"android":"levelo://app?vid=f422b51e-1ef9-42a2-8365-1d33f807a8e0","ios":"levelo://app?vid=f422b51e-1ef9-42a2-8365-1d33f807a8e0"},"vehicle_type_id":"4","last_reported":1778427691,"current_range_meters":3200,"station_id":"st_d6sm7csbq4hs73f8fpjg","pricing_plan_id":"cebpf4jnsgd1na2vs0mg"},{"bike_id":"74a938f2-f578-4294-9976-174677fe2f35","system_id":"levelo_inurba_marseille","lat":43.29505,"lon":5.4331,"is_reserved":false,"is_disabled":false,"rental_uris":{"android":"levelo://app?vid=74a938f2-f578-4294-9976-174677fe2f35","ios":"levelo://app?vid=74a938f2-f578-4294-9976-174677fe2f35"},"vehicle_type_id":"4","last_reported":1778427691,"current_range_meters":3200,"station_id":"st_d3j5ugp08ojc73fj9d10","pricing_plan_id":"cebpf4jnsgd1na2vs0mg"},{"bike_id":"85c88f17-24c8-4377-88e6-10b7ce6edeb5","system_id":"levelo_inurba_marseille","lat":43.305315,"lon":5.384188,"is_reserved":false,"is_disabled":false,"rental_uris":{"android":"levelo://app?vid=85c88f17-24c8-4377-88e6-10b7ce6edeb5","ios":"levelo://app?vid=85c88f17-24c8-4377-88e6-10b7ce6edeb5"},"vehicle_type_id":"4","last_reported":1778427691,"current_range_meters":3200,"station_id":"ce4bgg92rcd13ifvqb30","pricing_plan_id":"cebpf4jnsgd1na2vs0mg"},{"bike_id":"910e2bf8-6679-4126-a5cb-39ac3fdbbe39","system_id":"levelo_inurba_marseille","lat":43.25571,"lon":5.38231,"is_reserved":false,"is_disabled":false,"rental_uris":{"android":"levelo://app?vid=910e2bf8-6679-4126-a5cb-39ac3fdbbe39","ios":"levelo://app?vid=910e2bf8-6679-4126-a5cb-39ac3fdbbe39"},"vehicle_type_id":"4","last_reported":1778427691,"current_range_meters":3200,"station_id":"ce4bhih2rcd13ifvqfs0","pricing_plan_id":"cebpf4jnsgd1na2vs0mg"},{"bike_id":"08bc05e8-3588-4f06-8a69-d7da065a5cde","system_id":"levelo_inurba_marseille","lat":43.26024,"lon":5.3755,"is_reserved":false,"is_disabled":false,"rental_uris":{"android":"levelo://app?vid=08bc05e8-3588-4f06-8a69-d7da065a5cde","ios":"levelo://app?vid=08bc05e8-3588-4f06-8a69-d7da065a5cde"},"vehicle_type_id":"4","last_reported":1778427691,"current_range_meters":3200,"station_id":"ce4bhgh2rcd13ifvqfa0","pricing_plan_id":"cebpf4jnsgd1na2vs0mg"},{"bike_id":"97f964d8-1b4e-4439-a5e5-5bf9eca1819d","system_id":"levelo_inurba_marseille","lat":43.2638,"lon":5.4106,"is_reserved":false,"is_disabled":false,"rental_uris":{"android":"levelo://app?vid=97f964d8-1b4e-4439-a5e5-5bf9eca1819d","ios":"levelo://app?vid=97f964d8-1b4e-4439-a5e5-5bf9eca1819d"},"vehicle_type_id":"4","last_reported":1778427691,"current_range_meters":3600,"station_id":"st_d4e5ca6na9uc73bfl5fg","pricing_plan_id":"cebpf4jnsgd1na2vs0mg"},{"bike_id":"09b6f3bb-6078-4fcf-8589-c637cc78788d","system_id":"levelo_inurba_marseille","lat":43.29037,"lon":5.39965,"is_reserved":false,"is_disabled":false,"rental_uris":{"android":"levelo://app?vid=09b6f3bb-6078-4fcf-8589-c637cc78788d","ios":"levelo://app?vid=09b6f3bb-6078-4fcf-8589-c637cc78788d"},"vehicle_type_id":"4","last_reported":1778427691,"current_range_meters":3600,"station_id":"ce4bh392rcd13ifvqdm0","pricing_plan_id":"cebpf4jnsgd1na2vs0mg"},{"bike_id":"959457cd-ffeb-435f-abd7-e609cfbc4e6a","system_id":"levelo_inurba_marseille","lat":43.27526,"lon":5.41602,"is_reserved":false,"is_disabled":false,"rental_uris":{"android":"levelo://app?vid=959457cd-ffeb-435f-abd7-e609cfbc4e6a","ios":"levelo://app?vid=959457cd-ffeb-435f-abd7-e609cfbc4e6a"},"vehicle_type_id":"4","last_reported":1778427691,"current_range_meters":3600,"station_id":"st_d6im8g6chgec73a5pndg","pricing_plan_id":"cebpf4jnsgd1na2vs0mg"},{"bike_id":"531ee511-6f3d-455f-ae7f-c006a9c98a90","system_id":"levelo_inurba_marseille","lat":43.225387,"lon":5.348394,"is_reserved":false,"is_disabled":false,"rental_uris":{"android":"levelo://app?vid=531ee511-6f3d-455f-ae7f-c006a9c98a90","ios":"levelo://app?vid=531ee511-6f3d-455f-ae7f-c006a9c98a90"},"vehicle_type_id":"4","last_reported":1778427691,"current_range_meters":3600,"station_id":"st_cvj5dfep6f1abm77gieg","pricing_plan_id":"cebpf4jnsgd1na2vs0mg"},{"bike_id":"2a1755c6-621b-4ee0-b02e-fcd7e30106ff","system_id":"levelo_inurba_marseille","lat":43.29793,"lon":5.39355,"is_reserved":false,"is_disabled":true,"rental_uris":{"android":"levelo://app?vid=2a1755c6-621b-4ee0-b02e-fcd7e30106ff","ios":"levelo://app?vid=2a1755c6-621b-4ee0-b02e-fcd7e30106ff"},"vehicle_type_id":"4","last_reported":1778427691,"current_range_meters":3600,"station_id":"chh1huq6cuj3fo74tm60","pricing_plan_id":"cebpf4jnsgd1na2vs0mg"},{"bike_id":"b8425fa1-a298-4679-ba8a-777546e14eca","system_id":"levelo_inurba_marseille","lat":43.33745,"lon":5.37435,"is_reserved":false,"is_disabled":false,"rental_uris":{"android":"levelo://app?vid=b8425fa1-a298-4679-ba8a-777546e14eca","ios":"levelo://app?vid=b8425fa1-a298-4679-ba8a-777546e14eca"},"vehicle_type_id":"4","last_reported":1778427691,"current_range_meters":3600,"station_id":"","pricing_plan_id":"cebpf4jnsgd1na2vs0mg"},{"bike_id":"f4518127-8cf8-4965-9743-b8e3f9722f7d","system_id":"levelo_inurba_marseille","lat":43.29761,"lon":5.42792,"is_reserved":false,"is_disabled":false,"rental_uris":{"android":"levelo://app?vid=f4518127-8cf8-4965-9743-b8e3f9722f7d","ios":"levelo://app?vid=f4518127-8cf8-4965-9743-b8e3f9722f7d"},"vehicle_type_id":"4","last_reported":1778427691,"current_range_meters":3600,"station_id":"st_d3md5207bmas73dh9klg","pricing_plan_id":"cebpf4jnsgd1na2vs0mg"},{"bike_id":"ba816074-5982-4488-aecd-86f69d8ad3a0","system_id":"levelo_inurba_marseille","lat":43.27621,"lon":5.36106,"is_reserved":false,"is_disabled":false,"rental_uris":{"android":"levelo://app?vid=ba816074-5982-4488-aecd-86f69d8ad3a0","ios":"levelo://app?vid=ba816074-5982-4488-aecd-86f69d8ad3a0"},"vehicle_type_id":"4","last_reported":1778427691,"current_range_meters":3600,"station_id":"ce4bgj92rcd13ifvqbe0","pricing_plan_id":"cebpf4jnsgd1na2vs0mg"},{"bike_id":"b301d701-09d3-4220-8992-3ec09f9b03f0","system_id":"levelo_inurba_marseille","lat":43.29787,"lon":5.39342,"is_reserved":false,"is_disabled":false,"rental_uris":{"android":"levelo://app?vid=b301d701-09d3-4220-8992-3ec09f9b03f0","ios":"levelo://app?vid=b301d701-09d3-4220-8992-3ec09f9b03f0"},"vehicle_type_id":"4","last_reported":1778427691,"current_range_meters":3600,"station_id":"chh1huq6cuj3fo74tm60","pricing_plan_id":"cebpf4jnsgd1na2vs0mg"},{"bike_id":"56782922-f68e-469a-88e0-e54568de9fa4","system_id":"levelo_inurba_marseille","lat":43.30303,"lon":5.39209,"is_reserved":false,"is_disabled":true,"rental_uris":{"android":"levelo://app?vid=56782922-f68e-469a-88e0-e54568de9fa4","ios":"levelo://app?vid=56782922-f68e-469a-88e0-e54568de9fa4"},"vehicle_type_id":"4","last_reported":1778427691,"current_range_meters":4000,"station_id":"ce4bgkh2rcd13ifvqbk0","pricing_plan_id":"cebpf4jnsgd1na2vs0mg"},{"bike_id":"4aeb46bc-3a73-47eb-8bd2-0ae5d61bbb9c","system_id":"levelo_inurba_marseille","lat":43.27367,"lon":5.36253,"is_reserved":false,"is_disabled":false,"rental_uris":{"android":"levelo://app?vid=4aeb46bc-3a73-47eb-8bd2-0ae5d61bbb9c","ios":"levelo://app?vid=4aeb46bc-3a73-47eb-8bd2-0ae5d61bbb9c"},"vehicle_type_id":"4","last_reported":1778427691,"current_range_meters":4000,"station_id":"ce4bhbh2rcd13ifvqeo0","pricing_plan_id":"cebpf4jnsgd1na2vs0mg"},{"bike_id":"6ccbfb65-28c6-49b0-a268-1841c763636f","system_id":"levelo_inurba_marseille","lat":43.28409,"lon":5.34979,"is_reserved":false,"is_disabled":false,"rental_uris":{"android":"levelo://app?vid=6ccbfb65-28c6-49b0-a268-1841c763636f","ios":"levelo://app?vid=6ccbfb65-28c6-49b0-a268-1841c763636f"},"vehicle_type_id":"4","last_reported":1778427691,"current_range_meters":4000,"station_id":"ce4bhbh2rcd13ifvqepg","pricing_plan_id":"cebpf4jnsgd1na2vs0mg"},{"bike_id":"507aec5b-2920-475a-b7df-b03af2735397","system_id":"levelo_inurba_marseille","lat":43.30149,"lon":5.37414,"is_reserved":false,"is_disabled":false,"rental_uris":{"android":"levelo://app?vid=507aec5b-2920-475a-b7df-b03af2735397","ios":"levelo://app?vid=507aec5b-2920-475a-b7df-b03af2735397"},"vehicle_type_id":"4","last_reported":1778427691,"current_range_meters":4000,"station_id":"ce4bgs92rcd13ifvqcc0","pricing_plan_id":"cebpf4jnsgd1na2vs0mg"},{"bike_id":"cbe827c7-4aaa-4476-b6a0-57fa6eb854a0","system_id":"levelo_inurba_marseille","lat":43.31494,"lon":5.37327,"is_reserved":false,"is_disabled":false,"rental_uris":{"android":"levelo://app?vid=cbe827c7-4aaa-4476-b6a0-57fa6eb854a0","ios":"levelo://app?vid=cbe827c7-4aaa-4476-b6a0-57fa6eb854a0"},"vehicle_type_id":"4","last_reported":1778427691,"current_range_meters":4000,"station_id":"ce4bgt12rcd13ifvqcd0","pricing_plan_id":"cebpf4jnsgd1na2vs0mg"},{"bike_id":"4f2b66b9-d2be-480c-a44a-c9a32982cb61","system_id":"levelo_inurba_marseille","lat":43.286647,"lon":5.383252,"is_reserved":false,"is_disabled":true,"rental_uris":{"android":"levelo://app?vid=4f2b66b9-d2be-480c-a44a-c9a32982cb61","ios":"levelo://app?vid=4f2b66b9-d2be-480c-a44a-c9a32982cb61"},"vehicle_type_id":"4","last_reported":1778427691,"current_range_meters":4400,"station_id":"ce4bh192rcd13ifvqdd0","pricing_plan_id":"cebpf4jnsgd1na2vs0mg"},{"bike_id":"8b2f527f-8def-4236-a93a-fafed41bb4fa","system_id":"levelo_inurba_marseille","lat":43.24067,"lon":5.37751,"is_reserved":false,"is_disabled":false,"rental_uris":{"android":"levelo://app?vid=8b2f527f-8def-4236-a93a-fafed41bb4fa","ios":"levelo://app?vid=8b2f527f-8def-4236-a93a-fafed41bb4fa"},"vehicle_type_id":"4","last_reported":1778427691,"current_range_meters":4400,"station_id":"ce4bhnp2rcd13ifvqgvg","pricing_plan_id":"cebpf4jnsgd1na2vs0mg"},{"bike_id":"24b614b1-21fe-4a2b-a521-7a850622da21","system_id":"levelo_inurba_marseille","lat":43.23965,"lon":5.36639,"is_reserved":false,"is_disabled":false,"rental_uris":{"android":"levelo://app?vid=24b614b1-21fe-4a2b-a521-7a850622da21","ios":"levelo://app?vid=24b614b1-21fe-4a2b-a521-7a850622da21"},"vehicle_type_id":"4","last_reported":1778427691,"current_range_meters":4400,"station_id":"ce4bhi12rcd13ifvqfp0","pricing_plan_id":"cebpf4jnsgd1na2vs0mg"},{"bike_id":"02ff9fbc-bcee-4ec1-ba28-2ffabeaef12d","system_id":"levelo_inurba_marseille","lat":43.24457,"lon":5.42535,"is_reserved":false,"is_disabled":false,"rental_uris":{"android":"levelo://app?vid=02ff9fbc-bcee-4ec1-ba28-2ffabeaef12d","ios":"levelo://app?vid=02ff9fbc-bcee-4ec1-ba28-2ffabeaef12d"},"vehicle_type_id":"4","last_reported":1778427691,"current_range_meters":4400,"station_id":"st_d4a3vfp97mjs738cd8kg","pricing_plan_id":"cebpf4jnsgd1na2vs0mg"},{"bike_id":"b63b79a8-5090-4a56-9c34-548896497a4e","system_id":"levelo_inurba_marseille","lat":43.30264,"lon":5.40071,"is_reserved":false,"is_disabled":false,"rental_uris":{"android":"levelo://app?vid=b63b79a8-5090-4a56-9c34-548896497a4e","ios":"levelo://app?vid=b63b79a8-5090-4a56-9c34-548896497a4e"},"vehicle_type_id":"4","last_reported":1778427691,"current_range_meters":4400,"station_id":"ce4bgvh2rcd13ifvqcs0","pricing_plan_id":"cebpf4jnsgd1na2vs0mg"},{"bike_id":"5482da1f-0ac1-4c7d-aaf9-30e1bac5afaa","system_id":"levelo_inurba_marseille","lat":43.31754,"lon":5.39017,"is_reserved":false,"is_disabled":false,"rental_uris":{"android":"levelo://app?vid=5482da1f-0ac1-4c7d-aaf9-30e1bac5afaa","ios":"levelo://app?vid=5482da1f-0ac1-4c7d-aaf9-30e1bac5afaa"},"vehicle_type_id":"4","last_reported":1778427691,"current_range_meters":4400,"station_id":"ce4bhqp2rcd13ifvqhng","pricing_plan_id":"cebpf4jnsgd1na2vs0mg"},{"bike_id":"9795678e-d582-468b-ad6e-7a170136da14","system_id":"levelo_inurba_marseille","lat":43.27995,"lon":5.4001,"is_reserved":false,"is_disabled":false,"rental_uris":{"android":"levelo://app?vid=9795678e-d582-468b-ad6e-7a170136da14","ios":"levelo://app?vid=9795678e-d582-468b-ad6e-7a170136da14"},"vehicle_type_id":"4","last_reported":1778427691,"current_range_meters":4400,"station_id":"ce4bho92rcd13ifvqh4g","pricing_plan_id":"cebpf4jnsgd1na2vs0mg"},{"bike_id":"14777d02-dcab-4a77-84b6-d2e189d53152","system_id":"levelo_inurba_marseille","lat":43.28131,"lon":5.38299,"is_reserved":false,"is_disabled":false,"rental_uris":{"android":"levelo://app?vid=14777d02-dcab-4a77-84b6-d2e189d53152","ios":"levelo://app?vid=14777d02-dcab-4a77-84b6-d2e189d53152"},"vehicle_type_id":"4","last_reported":1778427691,"current_range_meters":4400,"station_id":"","pricing_plan_id":"cebpf4jnsgd1na2vs0mg"},{"bike_id":"808c4ecd-9bba-4ef5-91dc-62b4109dcc93","system_id":"levelo_inurba_marseille","lat":43.29529,"lon":5.38571,"is_reserved":false,"is_disabled":true,"rental_uris":{"android":"levelo://app?vid=808c4ecd-9bba-4ef5-91dc-62b4109dcc93","ios":"levelo://app?vid=808c4ecd-9bba-4ef5-91dc-62b4109dcc93"},"vehicle_type_id":"4","last_reported":1778427691,"current_range_meters":4400,"station_id":"ce4bgih2rcd13ifvqba0","pricing_plan_id":"cebpf4jnsgd1na2vs0mg"},{"bike_id":"870b46f3-db03-4653-b9be-d875fe915fbd","system_id":"levelo_inurba_marseille","lat":43.30404,"lon":5.41295,"is_reserved":false,"is_disabled":false,"rental_uris":{"android":"levelo://app?vid=870b46f3-db03-4653-b9be-d875fe915fbd","ios":"levelo://app?vid=870b46f3-db03-4653-b9be-d875fe915fbd"},"vehicle_type_id":"4","last_reported":1778427691,"current_range_meters":4400,"station_id":"ce4bhop2rcd13ifvqh8g","pricing_plan_id":"cebpf4jnsgd1na2vs0mg"},{"bike_id":"fd4a08f3-3466-46e0-bbd3-b61a1f1e2681","system_id":"levelo_inurba_marseille","lat":43.28421,"lon":5.34986,"is_reserved":false,"is_disabled":false,"rental_uris":{"android":"levelo://app?vid=fd4a08f3-3466-46e0-bbd3-b61a1f1e2681","ios":"levelo://app?vid=fd4a08f3-3466-46e0-bbd3-b61a1f1e2681"},"vehicle_type_id":"4","last_reported":1778427691,"current_range_meters":4400,"station_id":"ce4bhbh2rcd13ifvqepg","pricing_plan_id":"cebpf4jnsgd1na2vs0mg"},{"bike_id":"30b66022-1366-4606-862b-d547da8c8a3a","system_id":"levelo_inurba_marseille","lat":43.29059,"lon":5.39954,"is_reserved":false,"is_disabled":true,"rental_uris":{"android":"levelo://app?vid=30b66022-1366-4606-862b-d547da8c8a3a","ios":"levelo://app?vid=30b66022-1366-4606-862b-d547da8c8a3a"},"vehicle_type_id":"4","last_reported":1778427691,"current_range_meters":4400,"station_id":"ce4bh392rcd13ifvqdm0","pricing_plan_id":"cebpf4jnsgd1na2vs0mg"},{"bike_id":"f9cb2ade-bf21-462f-b53f-d45095aa38ec","system_id":"levelo_inurba_marseille","lat":43.29275,"lon":5.3683,"is_reserved":false,"is_disabled":false,"rental_uris":{"android":"levelo://app?vid=f9cb2ade-bf21-462f-b53f-d45095aa38ec","ios":"levelo://app?vid=f9cb2ade-bf21-462f-b53f-d45095aa38ec"},"vehicle_type_id":"4","last_reported":1778427691,"current_range_meters":4800,"station_id":"ce4bhbp2rcd13ifvqesg","pricing_plan_id":"cebpf4jnsgd1na2vs0mg"},{"bike_id":"6185c6b4-782e-4ff8-b9f0-cc828921242d","system_id":"levelo_inurba_marseille","lat":43.27091,"lon":5.42268,"is_reserved":false,"is_disabled":false,"rental_uris":{"android":"levelo://app?vid=6185c6b4-782e-4ff8-b9f0-cc828921242d","ios":"levelo://app?vid=6185c6b4-782e-4ff8-b9f0-cc828921242d"},"vehicle_type_id":"4","last_reported":1778427691,"current_range_meters":4800,"station_id":"ce4bhk92rcd13ifvqgb0","pricing_plan_id":"cebpf4jnsgd1na2vs0mg"},{"bike_id":"ee1a5dd9-04af-4787-9e08-5c55e5d06b4d","system_id":"levelo_inurba_marseille","lat":43.2977,"lon":5.3823,"is_reserved":false,"is_disabled":false,"rental_uris":{"android":"levelo://app?vid=ee1a5dd9-04af-4787-9e08-5c55e5d06b4d","ios":"levelo://app?vid=ee1a5dd9-04af-4787-9e08-5c55e5d06b4d"},"vehicle_type_id":"4","last_reported":1778427691,"current_range_meters":4800,"station_id":"","pricing_plan_id":"cebpf4jnsgd1na2vs0mg"},{"bike_id":"0bff19b0-759c-4974-b971-6d7bfa56b685","system_id":"levelo_inurba_marseille","lat":43.2981,"lon":5.44055,"is_reserved":false,"is_disabled":false,"rental_uris":{"android":"levelo://app?vid=0bff19b0-759c-4974-b971-6d7bfa56b685","ios":"levelo://app?vid=0bff19b0-759c-4974-b971-6d7bfa56b685"},"vehicle_type_id":"4","last_reported":1778427691,"current_range_meters":4800,"station_id":"st_d3jp68qikq2c7381ktn0","pricing_plan_id":"cebpf4jnsgd1na2vs0mg"},{"bike_id":"77d424bc-d204-4914-bd56-dc6cba49cac1","system_id":"levelo_inurba_marseille","lat":43.29939,"lon":5.36534,"is_reserved":false,"is_disabled":false,"rental_uris":{"android":"levelo://app?vid=77d424bc-d204-4914-bd56-dc6cba49cac1","ios":"levelo://app?vid=77d424bc-d204-4914-bd56-dc6cba49cac1"},"vehicle_type_id":"4","last_reported":1778427691,"current_range_meters":4800,"station_id":"ce4bgm92rcd13ifvqbr0","pricing_plan_id":"cebpf4jnsgd1na2vs0mg"},{"bike_id":"964ed1f7-c2d8-4bd6-8a78-800744d65f4b","system_id":"levelo_inurba_marseille","lat":43.26214,"lon":5.37918,"is_reserved":false,"is_disabled":false,"rental_uris":{"android":"levelo://app?vid=964ed1f7-c2d8-4bd6-8a78-800744d65f4b","ios":"levelo://app?vid=964ed1f7-c2d8-4bd6-8a78-800744d65f4b"},"vehicle_type_id":"4","last_reported":1778427691,"current_range_meters":4800,"station_id":"ce4bhjp2rcd13ifvqg90","pricing_plan_id":"cebpf4jnsgd1na2vs0mg"},{"bike_id":"ff41f028-e74e-477a-8abb-51c0d2444223","system_id":"levelo_inurba_marseille","lat":43.251,"lon":5.40307,"is_reserved":false,"is_disabled":false,"rental_uris":{"android":"levelo://app?vid=ff41f028-e74e-477a-8abb-51c0d2444223","ios":"levelo://app?vid=ff41f028-e74e-477a-8abb-51c0d2444223"},"vehicle_type_id":"4","last_reported":1778427691,"current_range_meters":4800,"station_id":"ce4bhlh2rcd13ifvqgig","pricing_plan_id":"cebpf4jnsgd1na2vs0mg"},{"bike_id":"a6a60149-ea74-4dce-b409-ebc1a0b75a1f","system_id":"levelo_inurba_marseille","lat":43.30539,"lon":5.38446,"is_reserved":false,"is_disabled":true,"rental_uris":{"android":"levelo://app?vid=a6a60149-ea74-4dce-b409-ebc1a0b75a1f","ios":"levelo://app?vid=a6a60149-ea74-4dce-b409-ebc1a0b75a1f"},"vehicle_type_id":"4","last_reported":1778427691,"current_range_meters":4800,"station_id":"ce4bgg92rcd13ifvqb30","pricing_plan_id":"cebpf4jnsgd1na2vs0mg"},{"bike_id":"c8981d9f-3504-4cb4-a8fc-ea894bc43e05","system_id":"levelo_inurba_marseille","lat":43.30524,"lon":5.36505,"is_reserved":false,"is_disabled":false,"rental_uris":{"android":"levelo://app?vid=c8981d9f-3504-4cb4-a8fc-ea894bc43e05","ios":"levelo://app?vid=c8981d9f-3504-4cb4-a8fc-ea894bc43e05"},"vehicle_type_id":"4","last_reported":1778427691,"current_range_meters":4800,"station_id":"","pricing_plan_id":"cebpf4jnsgd1na2vs0mg"},{"bike_id":"356d0e42-b55c-457d-ab9b-54ff4b66852d","system_id":"levelo_inurba_marseille","lat":43.28705,"lon":5.3793,"is_reserved":false,"is_disabled":true,"rental_uris":{"android":"levelo://app?vid=356d0e42-b55c-457d-ab9b-54ff4b66852d","ios":"levelo://app?vid=356d0e42-b55c-457d-ab9b-54ff4b66852d"},"vehicle_type_id":"4","last_reported":1778427691,"current_range_meters":4800,"station_id":"ce4bh9p2rcd13ifvqec0","pricing_plan_id":"cebpf4jnsgd1na2vs0mg"},{"bike_id":"323e4707-b629-4d35-ab4e-66a5c4e389f5","system_id":"levelo_inurba_marseille","lat":43.29192,"lon":5.35783,"is_reserved":false,"is_disabled":true,"rental_uris":{"android":"levelo://app?vid=323e4707-b629-4d35-ab4e-66a5c4e389f5","ios":"levelo://app?vid=323e4707-b629-4d35-ab4e-66a5c4e389f5"},"vehicle_type_id":"4","last_reported":1778427691,"current_range_meters":4800,"station_id":"ce4bhb12rcd13ifvqel0","pricing_plan_id":"cebpf4jnsgd1na2vs0mg"},{"bike_id":"c674af99-6ec5-4143-8756-5fe3962d6bbb","system_id":"levelo_inurba_marseille","lat":43.28929,"lon":5.38377,"is_reserved":false,"is_disabled":false,"rental_uris":{"android":"levelo://app?vid=c674af99-6ec5-4143-8756-5fe3962d6bbb","ios":"levelo://app?vid=c674af99-6ec5-4143-8756-5fe3962d6bbb"},"vehicle_type_id":"4","last_reported":1778427691,"current_range_meters":4800,"station_id":"ce4bh612rcd13ifvqe6g","pricing_plan_id":"cebpf4jnsgd1na2vs0mg"},{"bike_id":"3a7a6490-34c7-4e66-a967-52dc19722c9c","system_id":"levelo_inurba_marseille","lat":43.25396,"lon":5.39446,"is_reserved":false,"is_disabled":false,"rental_uris":{"android":"levelo://app?vid=3a7a6490-34c7-4e66-a967-52dc19722c9c","ios":"levelo://app?vid=3a7a6490-34c7-4e66-a967-52dc19722c9c"},"vehicle_type_id":"4","last_reported":1778427691,"current_range_meters":4800,"station_id":"","pricing_plan_id":"cebpf4jnsgd1na2vs0mg"},{"bike_id":"e1188c1a-cafa-4493-9557-0d9f1b7b748e","system_id":"levelo_inurba_marseille","lat":43.262228,"lon":5.387701,"is_reserved":false,"is_disabled":false,"rental_uris":{"android":"levelo://app?vid=e1188c1a-cafa-4493-9557-0d9f1b7b748e","ios":"levelo://app?vid=e1188c1a-cafa-4493-9557-0d9f1b7b748e"},"vehicle_type_id":"4","last_reported":1778427691,"current_range_meters":4800,"station_id":"","pricing_plan_id":"cebpf4jnsgd1na2vs0mg"},{"bike_id":"4bcea63a-8717-42b7-b1ae-62c79dae85c1","system_id":"levelo_inurba_marseille","lat":43.26217,"lon":5.37928,"is_reserved":false,"is_disabled":false,"rental_uris":{"android":"levelo://app?vid=4bcea63a-8717-42b7-b1ae-62c79dae85c1","ios":"levelo://app?vid=4bcea63a-8717-42b7-b1ae-62c79dae85c1"},"vehicle_type_id":"4","last_reported":1778427691,"current_range_meters":5600,"station_id":"ce4bhjp2rcd13ifvqg90","pricing_plan_id":"cebpf4jnsgd1na2vs0mg"},{"bike_id":"fce79078-48bc-4d3e-a1b0-a9eb686a3f15","system_id":"levelo_inurba_marseille","lat":43.29543,"lon":5.38545,"is_reserved":false,"is_disabled":false,"rental_uris":{"android":"levelo://app?vid=fce79078-48bc-4d3e-a1b0-a9eb686a3f15","ios":"levelo://app?vid=fce79078-48bc-4d3e-a1b0-a9eb686a3f15"},"vehicle_type_id":"4","last_reported":1778427691,"current_range_meters":5600,"station_id":"ce4bgih2rcd13ifvqba0","pricing_plan_id":"cebpf4jnsgd1na2vs0mg"},{"bike_id":"d59b1513-c5e0-4a44-a647-2d42866bfbdf","system_id":"levelo_inurba_marseille","lat":43.23194,"lon":5.35565,"is_reserved":false,"is_disabled":false,"rental_uris":{"android":"levelo://app?vid=d59b1513-c5e0-4a44-a647-2d42866bfbdf","ios":"levelo://app?vid=d59b1513-c5e0-4a44-a647-2d42866bfbdf"},"vehicle_type_id":"4","last_reported":1778427691,"current_range_meters":5600,"station_id":"ce4bhu92rcd13ifvqi70","pricing_plan_id":"cebpf4jnsgd1na2vs0mg"},{"bike_id":"cca12953-c738-4cc3-9e08-4b131950d5b7","system_id":"levelo_inurba_marseille","lat":43.29298,"lon":5.37448,"is_reserved":false,"is_disabled":false,"rental_uris":{"android":"levelo://app?vid=cca12953-c738-4cc3-9e08-4b131950d5b7","ios":"levelo://app?vid=cca12953-c738-4cc3-9e08-4b131950d5b7"},"vehicle_type_id":"4","last_reported":1778427691,"current_range_meters":5600,"station_id":"ce4bgi12rcd13ifvqb70","pricing_plan_id":"cebpf4jnsgd1na2vs0mg"},{"bike_id":"e5f0fbb4-b8dc-4aa1-9466-61d5f4ac958f","system_id":"levelo_inurba_marseille","lat":43.29025,"lon":5.38115,"is_reserved":false,"is_disabled":true,"rental_uris":{"android":"levelo://app?vid=e5f0fbb4-b8dc-4aa1-9466-61d5f4ac958f","ios":"levelo://app?vid=e5f0fbb4-b8dc-4aa1-9466-61d5f4ac958f"},"vehicle_type_id":"4","last_reported":1778427691,"current_range_meters":5600,"station_id":"ce4bh4p2rcd13ifvqe1g","pricing_plan_id":"cebpf4jnsgd1na2vs0mg"},{"bike_id":"f41d4b3c-4dc0-40fc-8b7b-006c1319de81","system_id":"levelo_inurba_marseille","lat":43.29523,"lon":5.39399,"is_reserved":false,"is_disabled":false,"rental_uris":{"android":"levelo://app?vid=f41d4b3c-4dc0-40fc-8b7b-006c1319de81","ios":"levelo://app?vid=f41d4b3c-4dc0-40fc-8b7b-006c1319de81"},"vehicle_type_id":"4","last_reported":1778427691,"current_range_meters":5600,"station_id":"ce4bh292rcd13ifvqdf0","pricing_plan_id":"cebpf4jnsgd1na2vs0mg"},{"bike_id":"7038e266-7dfa-42fa-8e91-50f179aa7f0e","system_id":"levelo_inurba_marseille","lat":43.33589,"lon":5.37457,"is_reserved":false,"is_disabled":false,"rental_uris":{"android":"levelo://app?vid=7038e266-7dfa-42fa-8e91-50f179aa7f0e","ios":"levelo://app?vid=7038e266-7dfa-42fa-8e91-50f179aa7f0e"},"vehicle_type_id":"4","last_reported":1778427691,"current_range_meters":5600,"station_id":"st_d46tts09ee8s73dlu43g","pricing_plan_id":"cebpf4jnsgd1na2vs0mg"},{"bike_id":"ad824b62-ba8d-40e6-a073-14a810f8f6bf","system_id":"levelo_inurba_marseille","lat":43.26052,"lon":5.39415,"is_reserved":false,"is_disabled":false,"rental_uris":{"android":"levelo://app?vid=ad824b62-ba8d-40e6-a073-14a810f8f6bf","ios":"levelo://app?vid=ad824b62-ba8d-40e6-a073-14a810f8f6bf"},"vehicle_type_id":"4","last_reported":1778427691,"current_range_meters":5600,"station_id":"ce4bhh92rcd13ifvqfj0","pricing_plan_id":"cebpf4jnsgd1na2vs0mg"},{"bike_id":"80fe3843-8b15-4190-866f-74c91cca013a","system_id":"levelo_inurba_marseille","lat":43.24943,"lon":5.40493,"is_reserved":false,"is_disabled":false,"rental_uris":{"android":"levelo://app?vid=80fe3843-8b15-4190-866f-74c91cca013a","ios":"levelo://app?vid=80fe3843-8b15-4190-866f-74c91cca013a"},"vehicle_type_id":"4","last_reported":1778427691,"current_range_meters":5600,"station_id":"st_d2ngiaodas8pm72gd1h0","pricing_plan_id":"cebpf4jnsgd1na2vs0mg"},{"bike_id":"c8447383-7b52-438d-b516-7498cfd26d9a","system_id":"levelo_inurba_marseille","lat":43.30551,"lon":5.36548,"is_reserved":false,"is_disabled":true,"rental_uris":{"android":"levelo://app?vid=c8447383-7b52-438d-b516-7498cfd26d9a","ios":"levelo://app?vid=c8447383-7b52-438d-b516-7498cfd26d9a"},"vehicle_type_id":"4","last_reported":1778427691,"current_range_meters":5600,"station_id":"ce4bgs12rcd13ifvqcag","pricing_plan_id":"cebpf4jnsgd1na2vs0mg"},{"bike_id":"bffcae86-6ed6-44e1-86ba-f509847e2903","system_id":"levelo_inurba_marseille","lat":43.292988,"lon":5.374645,"is_reserved":false,"is_disabled":false,"rental_uris":{"android":"levelo://app?vid=bffcae86-6ed6-44e1-86ba-f509847e2903","ios":"levelo://app?vid=bffcae86-6ed6-44e1-86ba-f509847e2903"},"vehicle_type_id":"4","last_reported":1778427691,"current_range_meters":5600,"station_id":"ce4bgi12rcd13ifvqb70","pricing_plan_id":"cebpf4jnsgd1na2vs0mg"},{"bike_id":"5e506c32-8063-47a0-a03b-0e18aefd7f60","system_id":"levelo_inurba_marseille","lat":43.24087,"lon":5.37737,"is_reserved":false,"is_disabled":true,"rental_uris":{"android":"levelo://app?vid=5e506c32-8063-47a0-a03b-0e18aefd7f60","ios":"levelo://app?vid=5e506c32-8063-47a0-a03b-0e18aefd7f60"},"vehicle_type_id":"4","last_reported":1778427691,"current_range_meters":6000,"station_id":"ce4bhnp2rcd13ifvqgvg","pricing_plan_id":"cebpf4jnsgd1na2vs0mg"},{"bike_id":"8351b836-b458-4e50-bd94-7b7b9083100d","system_id":"levelo_inurba_marseille","lat":43.28615,"lon":5.35112,"is_reserved":false,"is_disabled":false,"rental_uris":{"android":"levelo://app?vid=8351b836-b458-4e50-bd94-7b7b9083100d","ios":"levelo://app?vid=8351b836-b458-4e50-bd94-7b7b9083100d"},"vehicle_type_id":"4","last_reported":1778427691,"current_range_meters":6000,"station_id":"ce4bhch2rcd13ifvqeug","pricing_plan_id":"cebpf4jnsgd1na2vs0mg"},{"bike_id":"f6aa1c17-66b1-4667-bc38-e109b9e831dd","system_id":"levelo_inurba_marseille","lat":43.28933,"lon":5.36631,"is_reserved":false,"is_disabled":false,"rental_uris":{"android":"levelo://app?vid=f6aa1c17-66b1-4667-bc38-e109b9e831dd","ios":"levelo://app?vid=f6aa1c17-66b1-4667-bc38-e109b9e831dd"},"vehicle_type_id":"4","last_reported":1778427691,"current_range_meters":6000,"station_id":"ce4bhap2rcd13ifvqek0","pricing_plan_id":"cebpf4jnsgd1na2vs0mg"},{"bike_id":"8ef16af9-67c0-466d-aa89-61b55eb65a8a","system_id":"levelo_inurba_marseille","lat":43.27451,"lon":5.39402,"is_reserved":false,"is_disabled":true,"rental_uris":{"android":"levelo://app?vid=8ef16af9-67c0-466d-aa89-61b55eb65a8a","ios":"levelo://app?vid=8ef16af9-67c0-466d-aa89-61b55eb65a8a"},"vehicle_type_id":"4","last_reported":1778427691,"current_range_meters":6000,"station_id":"ce4bhdp2rcd13ifvqf20","pricing_plan_id":"cebpf4jnsgd1na2vs0mg"},{"bike_id":"8de89280-2a61-4268-b817-bf90021f9ced","system_id":"levelo_inurba_marseille","lat":43.32098,"lon":5.36783,"is_reserved":false,"is_disabled":false,"rental_uris":{"android":"levelo://app?vid=8de89280-2a61-4268-b817-bf90021f9ced","ios":"levelo://app?vid=8de89280-2a61-4268-b817-bf90021f9ced"},"vehicle_type_id":"4","last_reported":1778427691,"current_range_meters":6000,"station_id":"ce4bhrh2rcd13ifvqhug","pricing_plan_id":"cebpf4jnsgd1na2vs0mg"},{"bike_id":"97c17a71-21f3-4cde-a83a-ba04ff6d7dfe","system_id":"levelo_inurba_marseille","lat":43.2558,"lon":5.382277,"is_reserved":false,"is_disabled":false,"rental_uris":{"android":"levelo://app?vid=97c17a71-21f3-4cde-a83a-ba04ff6d7dfe","ios":"levelo://app?vid=97c17a71-21f3-4cde-a83a-ba04ff6d7dfe"},"vehicle_type_id":"4","last_reported":1778427691,"current_range_meters":6000,"station_id":"ce4bhih2rcd13ifvqfs0","pricing_plan_id":"cebpf4jnsgd1na2vs0mg"},{"bike_id":"6dec282d-38ec-4336-8ede-9a1772e1298f","system_id":"levelo_inurba_marseille","lat":43.29662,"lon":5.38066,"is_reserved":false,"is_disabled":false,"rental_uris":{"android":"levelo://app?vid=6dec282d-38ec-4336-8ede-9a1772e1298f","ios":"levelo://app?vid=6dec282d-38ec-4336-8ede-9a1772e1298f"},"vehicle_type_id":"4","last_reported":1778427691,"current_range_meters":6000,"station_id":"","pricing_plan_id":"cebpf4jnsgd1na2vs0mg"},{"bike_id":"d4040cd3-97dc-46d4-8a74-28c91c6c5e8f","system_id":"levelo_inurba_marseille","lat":43.273754,"lon":5.362631,"is_reserved":false,"is_disabled":false,"rental_uris":{"android":"levelo://app?vid=d4040cd3-97dc-46d4-8a74-28c91c6c5e8f","ios":"levelo://app?vid=d4040cd3-97dc-46d4-8a74-28c91c6c5e8f"},"vehicle_type_id":"4","last_reported":1778427691,"current_range_meters":6000,"station_id":"ce4bhbh2rcd13ifvqeo0","pricing_plan_id":"cebpf4jnsgd1na2vs0mg"},{"bike_id":"17cc4c0a-4b5f-4e18-aeb2-472d34557615","system_id":"levelo_inurba_marseille","lat":43.28712,"lon":5.4669,"is_reserved":false,"is_disabled":false,"rental_uris":{"android":"levelo://app?vid=17cc4c0a-4b5f-4e18-aeb2-472d34557615","ios":"levelo://app?vid=17cc4c0a-4b5f-4e18-aeb2-472d34557615"},"vehicle_type_id":"4","last_reported":1778427691,"current_range_meters":6000,"station_id":"st_d6tc3vkotcvc738tfjhg","pricing_plan_id":"cebpf4jnsgd1na2vs0mg"},{"bike_id":"0152740e-06db-4ade-88eb-e3632fbb8a1f","system_id":"levelo_inurba_marseille","lat":43.28314,"lon":5.35093,"is_reserved":false,"is_disabled":true,"rental_uris":{"android":"levelo://app?vid=0152740e-06db-4ade-88eb-e3632fbb8a1f","ios":"levelo://app?vid=0152740e-06db-4ade-88eb-e3632fbb8a1f"},"vehicle_type_id":"4","last_reported":1778427691,"current_range_meters":6000,"station_id":"","pricing_plan_id":"cebpf4jnsgd1na2vs0mg"},{"bike_id":"147a4cde-83e7-4d1a-9487-5b4c45228b9b","system_id":"levelo_inurba_marseille","lat":43.3316,"lon":5.37688,"is_reserved":false,"is_disabled":false,"rental_uris":{"android":"levelo://app?vid=147a4cde-83e7-4d1a-9487-5b4c45228b9b","ios":"levelo://app?vid=147a4cde-83e7-4d1a-9487-5b4c45228b9b"},"vehicle_type_id":"4","last_reported":1778427691,"current_range_meters":6000,"station_id":"st_d46cu089ee8s73dldbu0","pricing_plan_id":"cebpf4jnsgd1na2vs0mg"},{"bike_id":"7017c387-278c-4b8c-9782-aa80dc34ecbe","system_id":"levelo_inurba_marseille","lat":43.23891,"lon":5.37473,"is_reserved":false,"is_disabled":true,"rental_uris":{"android":"levelo://app?vid=7017c387-278c-4b8c-9782-aa80dc34ecbe","ios":"levelo://app?vid=7017c387-278c-4b8c-9782-aa80dc34ecbe"},"vehicle_type_id":"4","last_reported":1778427691,"current_range_meters":6000,"station_id":"st_d6sm7csbq4hs73f8fpjg","pricing_plan_id":"cebpf4jnsgd1na2vs0mg"},{"bike_id":"939a2a39-e3a0-4e6a-9128-c20cf52dba48","system_id":"levelo_inurba_marseille","lat":43.27396,"lon":5.36283,"is_reserved":false,"is_disabled":false,"rental_uris":{"android":"levelo://app?vid=939a2a39-e3a0-4e6a-9128-c20cf52dba48","ios":"levelo://app?vid=939a2a39-e3a0-4e6a-9128-c20cf52dba48"},"vehicle_type_id":"4","last_reported":1778427691,"current_range_meters":6000,"station_id":"ce4bhbh2rcd13ifvqeo0","pricing_plan_id":"cebpf4jnsgd1na2vs0mg"},{"bike_id":"45f8fdb7-2cb1-45b9-8a88-adeab1f325d7","system_id":"levelo_inurba_marseille","lat":43.29228,"lon":5.38326,"is_reserved":false,"is_disabled":false,"rental_uris":{"android":"levelo://app?vid=45f8fdb7-2cb1-45b9-8a88-adeab1f325d7","ios":"levelo://app?vid=45f8fdb7-2cb1-45b9-8a88-adeab1f325d7"},"vehicle_type_id":"4","last_reported":1778427691,"current_range_meters":6000,"station_id":"","pricing_plan_id":"cebpf4jnsgd1na2vs0mg"},{"bike_id":"c5e0a6c4-f5e2-45ff-b65f-822c882db6f0","system_id":"levelo_inurba_marseille","lat":43.21752,"lon":5.34612,"is_reserved":false,"is_disabled":false,"rental_uris":{"android":"levelo://app?vid=c5e0a6c4-f5e2-45ff-b65f-822c882db6f0","ios":"levelo://app?vid=c5e0a6c4-f5e2-45ff-b65f-822c882db6f0"},"vehicle_type_id":"4","last_reported":1778427691,"current_range_meters":6400,"station_id":"st_cvj6r9ubvosntc0bgbag","pricing_plan_id":"cebpf4jnsgd1na2vs0mg"},{"bike_id":"9dc61640-987a-437c-ada7-637d7471e1db","system_id":"levelo_inurba_marseille","lat":43.33156,"lon":5.37751,"is_reserved":false,"is_disabled":false,"rental_uris":{"android":"levelo://app?vid=9dc61640-987a-437c-ada7-637d7471e1db","ios":"levelo://app?vid=9dc61640-987a-437c-ada7-637d7471e1db"},"vehicle_type_id":"4","last_reported":1778427691,"current_range_meters":6400,"station_id":"","pricing_plan_id":"cebpf4jnsgd1na2vs0mg"},{"bike_id":"51ac79da-73b8-40fe-8601-c8f3e1221081","system_id":"levelo_inurba_marseille","lat":43.29058,"lon":5.39954,"is_reserved":false,"is_disabled":false,"rental_uris":{"android":"levelo://app?vid=51ac79da-73b8-40fe-8601-c8f3e1221081","ios":"levelo://app?vid=51ac79da-73b8-40fe-8601-c8f3e1221081"},"vehicle_type_id":"4","last_reported":1778427691,"current_range_meters":6400,"station_id":"ce4bh392rcd13ifvqdm0","pricing_plan_id":"cebpf4jnsgd1na2vs0mg"},{"bike_id":"2a10f88f-9d4c-47c3-8c89-9fe21d53aeab","system_id":"levelo_inurba_marseille","lat":43.2841,"lon":5.37512,"is_reserved":false,"is_disabled":true,"rental_uris":{"android":"levelo://app?vid=2a10f88f-9d4c-47c3-8c89-9fe21d53aeab","ios":"levelo://app?vid=2a10f88f-9d4c-47c3-8c89-9fe21d53aeab"},"vehicle_type_id":"4","last_reported":1778427691,"current_range_meters":6400,"station_id":"ce4bh412rcd13ifvqds0","pricing_plan_id":"cebpf4jnsgd1na2vs0mg"},{"bike_id":"d5f0dc25-4592-44f7-8db4-ee52a35f69ad","system_id":"levelo_inurba_marseille","lat":43.28491,"lon":5.48375,"is_reserved":false,"is_disabled":false,"rental_uris":{"android":"levelo://app?vid=d5f0dc25-4592-44f7-8db4-ee52a35f69ad","ios":"levelo://app?vid=d5f0dc25-4592-44f7-8db4-ee52a35f69ad"},"vehicle_type_id":"4","last_reported":1778427691,"current_range_meters":6400,"station_id":"","pricing_plan_id":"cebpf4jnsgd1na2vs0mg"},{"bike_id":"87311498-e52e-469d-87cd-a3cec1a7bce6","system_id":"levelo_inurba_marseille","lat":43.28506,"lon":5.38601,"is_reserved":false,"is_disabled":false,"rental_uris":{"android":"levelo://app?vid=87311498-e52e-469d-87cd-a3cec1a7bce6","ios":"levelo://app?vid=87311498-e52e-469d-87cd-a3cec1a7bce6"},"vehicle_type_id":"4","last_reported":1778427691,"current_range_meters":6400,"station_id":"ce4bh8p2rcd13ifvqeb0","pricing_plan_id":"cebpf4jnsgd1na2vs0mg"},{"bike_id":"10032cbe-ae38-4812-b75e-e14f8fae2b66","system_id":"levelo_inurba_marseille","lat":43.28658,"lon":5.36356,"is_reserved":false,"is_disabled":false,"rental_uris":{"android":"levelo://app?vid=10032cbe-ae38-4812-b75e-e14f8fae2b66","ios":"levelo://app?vid=10032cbe-ae38-4812-b75e-e14f8fae2b66"},"vehicle_type_id":"4","last_reported":1778427691,"current_range_meters":6400,"station_id":"ce4bhah2rcd13ifvqej0","pricing_plan_id":"cebpf4jnsgd1na2vs0mg"},{"bike_id":"3747d3c4-c0e3-447f-bcbd-6790387e00c8","system_id":"levelo_inurba_marseille","lat":43.2658,"lon":5.373181,"is_reserved":false,"is_disabled":false,"rental_uris":{"android":"levelo://app?vid=3747d3c4-c0e3-447f-bcbd-6790387e00c8","ios":"levelo://app?vid=3747d3c4-c0e3-447f-bcbd-6790387e00c8"},"vehicle_type_id":"4","last_reported":1778427691,"current_range_meters":6400,"station_id":"ce4bhgh2rcd13ifvqfa0","pricing_plan_id":"cebpf4jnsgd1na2vs0mg"},{"bike_id":"76645867-9226-4148-a6ac-b7d91fe256ae","system_id":"levelo_inurba_marseille","lat":43.29913,"lon":5.37462,"is_reserved":false,"is_disabled":true,"rental_uris":{"android":"levelo://app?vid=76645867-9226-4148-a6ac-b7d91fe256ae","ios":"levelo://app?vid=76645867-9226-4148-a6ac-b7d91fe256ae"},"vehicle_type_id":"4","last_reported":1778427691,"current_range_meters":6400,"station_id":"","pricing_plan_id":"cebpf4jnsgd1na2vs0mg"},{"bike_id":"fa3073f4-94f3-4c94-b649-fe4bee597c3a","system_id":"levelo_inurba_marseille","lat":43.30149,"lon":5.37429,"is_reserved":false,"is_disabled":false,"rental_uris":{"android":"levelo://app?vid=fa3073f4-94f3-4c94-b649-fe4bee597c3a","ios":"levelo://app?vid=fa3073f4-94f3-4c94-b649-fe4bee597c3a"},"vehicle_type_id":"4","last_reported":1778427691,"current_range_meters":6400,"station_id":"ce4bgs92rcd13ifvqcc0","pricing_plan_id":"cebpf4jnsgd1na2vs0mg"},{"bike_id":"f1c24aa7-e0ea-48cf-976a-1ab897ce524d","system_id":"levelo_inurba_marseille","lat":43.2997,"lon":5.37166,"is_reserved":false,"is_disabled":true,"rental_uris":{"android":"levelo://app?vid=f1c24aa7-e0ea-48cf-976a-1ab897ce524d","ios":"levelo://app?vid=f1c24aa7-e0ea-48cf-976a-1ab897ce524d"},"vehicle_type_id":"4","last_reported":1778427691,"current_range_meters":6800,"station_id":"ce4bgr92rcd13ifvqc7g","pricing_plan_id":"cebpf4jnsgd1na2vs0mg"},{"bike_id":"8c36f14f-0ea0-4eaf-8ef4-0bf3049421ef","system_id":"levelo_inurba_marseille","lat":43.30194,"lon":5.3995,"is_reserved":false,"is_disabled":false,"rental_uris":{"android":"levelo://app?vid=8c36f14f-0ea0-4eaf-8ef4-0bf3049421ef","ios":"levelo://app?vid=8c36f14f-0ea0-4eaf-8ef4-0bf3049421ef"},"vehicle_type_id":"4","last_reported":1778427691,"current_range_meters":6800,"station_id":"","pricing_plan_id":"cebpf4jnsgd1na2vs0mg"},{"bike_id":"78f7b1cf-8df7-477b-913e-49e49e322748","system_id":"levelo_inurba_marseille","lat":43.28148,"lon":5.42646,"is_reserved":false,"is_disabled":false,"rental_uris":{"android":"levelo://app?vid=78f7b1cf-8df7-477b-913e-49e49e322748","ios":"levelo://app?vid=78f7b1cf-8df7-477b-913e-49e49e322748"},"vehicle_type_id":"4","last_reported":1778427691,"current_range_meters":6800,"station_id":"ce4bhnh2rcd13ifvqgug","pricing_plan_id":"cebpf4jnsgd1na2vs0mg"},{"bike_id":"2506be62-85f3-41a6-b103-e5faab53b5ba","system_id":"levelo_inurba_marseille","lat":43.27562,"lon":5.38432,"is_reserved":false,"is_disabled":true,"rental_uris":{"android":"levelo://app?vid=2506be62-85f3-41a6-b103-e5faab53b5ba","ios":"levelo://app?vid=2506be62-85f3-41a6-b103-e5faab53b5ba"},"vehicle_type_id":"4","last_reported":1778427691,"current_range_meters":6800,"station_id":"ce4bhh92rcd13ifvqfi0","pricing_plan_id":"cebpf4jnsgd1na2vs0mg"},{"bike_id":"f69b6156-7fec-403a-a98f-d931ac8053a8","system_id":"levelo_inurba_marseille","lat":43.285452,"lon":5.441279,"is_reserved":false,"is_disabled":false,"rental_uris":{"android":"levelo://app?vid=f69b6156-7fec-403a-a98f-d931ac8053a8","ios":"levelo://app?vid=f69b6156-7fec-403a-a98f-d931ac8053a8"},"vehicle_type_id":"4","last_reported":1778427691,"current_range_meters":6800,"station_id":"st_d3j3df2ikq2c7380ej80","pricing_plan_id":"cebpf4jnsgd1na2vs0mg"},{"bike_id":"3a41ba6b-d667-47da-8e23-1f297d258b16","system_id":"levelo_inurba_marseille","lat":43.29254,"lon":5.40919,"is_reserved":false,"is_disabled":false,"rental_uris":{"android":"levelo://app?vid=3a41ba6b-d667-47da-8e23-1f297d258b16","ios":"levelo://app?vid=3a41ba6b-d667-47da-8e23-1f297d258b16"},"vehicle_type_id":"4","last_reported":1778427691,"current_range_meters":6800,"station_id":"ce4bh192rcd13ifvqdc0","pricing_plan_id":"cebpf4jnsgd1na2vs0mg"},{"bike_id":"f3663f60-dbbf-48c6-8470-0b2e2be6f100","system_id":"levelo_inurba_marseille","lat":43.26378,"lon":5.41079,"is_reserved":false,"is_disabled":false,"rental_uris":{"android":"levelo://app?vid=f3663f60-dbbf-48c6-8470-0b2e2be6f100","ios":"levelo://app?vid=f3663f60-dbbf-48c6-8470-0b2e2be6f100"},"vehicle_type_id":"4","last_reported":1778427691,"current_range_meters":6800,"station_id":"st_d4e5ca6na9uc73bfl5fg","pricing_plan_id":"cebpf4jnsgd1na2vs0mg"},{"bike_id":"943cf82b-777f-474d-9abb-0bc061b7cd0c","system_id":"levelo_inurba_marseille","lat":43.2971,"lon":5.36614,"is_reserved":false,"is_disabled":true,"rental_uris":{"android":"levelo://app?vid=943cf82b-777f-474d-9abb-0bc061b7cd0c","ios":"levelo://app?vid=943cf82b-777f-474d-9abb-0bc061b7cd0c"},"vehicle_type_id":"4","last_reported":1778427691,"current_range_meters":6800,"station_id":"ce4bgn12rcd13ifvqbt0","pricing_plan_id":"cebpf4jnsgd1na2vs0mg"},{"bike_id":"b847d9b2-7a25-40b3-b1bb-7b19e4ab5a0e","system_id":"levelo_inurba_marseille","lat":43.29967,"lon":5.3849,"is_reserved":false,"is_disabled":false,"rental_uris":{"android":"levelo://app?vid=b847d9b2-7a25-40b3-b1bb-7b19e4ab5a0e","ios":"levelo://app?vid=b847d9b2-7a25-40b3-b1bb-7b19e4ab5a0e"},"vehicle_type_id":"4","last_reported":1778427691,"current_range_meters":6800,"station_id":"ce4bgj92rcd13ifvqbd0","pricing_plan_id":"cebpf4jnsgd1na2vs0mg"},{"bike_id":"43ec9c65-e87a-4e85-86f3-9260a882dc04","system_id":"levelo_inurba_marseille","lat":43.30152,"lon":5.43107,"is_reserved":false,"is_disabled":true,"rental_uris":{"android":"levelo://app?vid=43ec9c65-e87a-4e85-86f3-9260a882dc04","ios":"levelo://app?vid=43ec9c65-e87a-4e85-86f3-9260a882dc04"},"vehicle_type_id":"4","last_reported":1778427691,"current_range_meters":6800,"station_id":"st_d3js3co5814s73ftftug","pricing_plan_id":"cebpf4jnsgd1na2vs0mg"},{"bike_id":"6be1be21-8155-4845-b665-1dad8a6c6bf4","system_id":"levelo_inurba_marseille","lat":43.28635,"lon":5.35117,"is_reserved":false,"is_disabled":true,"rental_uris":{"android":"levelo://app?vid=6be1be21-8155-4845-b665-1dad8a6c6bf4","ios":"levelo://app?vid=6be1be21-8155-4845-b665-1dad8a6c6bf4"},"vehicle_type_id":"4","last_reported":1778427691,"current_range_meters":6800,"station_id":"ce4bhch2rcd13ifvqeug","pricing_plan_id":"cebpf4jnsgd1na2vs0mg"},{"bike_id":"0d002cf5-5711-4a45-87d1-d24c622e72e3","system_id":"levelo_inurba_marseille","lat":43.21191,"lon":5.35073,"is_reserved":false,"is_disabled":false,"rental_uris":{"android":"levelo://app?vid=0d002cf5-5711-4a45-87d1-d24c622e72e3","ios":"levelo://app?vid=0d002cf5-5711-4a45-87d1-d24c622e72e3"},"vehicle_type_id":"4","last_reported":1778427691,"current_range_meters":6800,"station_id":"st_cvj6sg6p6f1abm77japg","pricing_plan_id":"cebpf4jnsgd1na2vs0mg"},{"bike_id":"92eb53d1-6218-4204-9b15-5031bb91aa2f","system_id":"levelo_inurba_marseille","lat":43.28605,"lon":5.37085,"is_reserved":false,"is_disabled":false,"rental_uris":{"android":"levelo://app?vid=92eb53d1-6218-4204-9b15-5031bb91aa2f","ios":"levelo://app?vid=92eb53d1-6218-4204-9b15-5031bb91aa2f"},"vehicle_type_id":"4","last_reported":1778427691,"current_range_meters":6800,"station_id":"ce4bht12rcd13ifvqi60","pricing_plan_id":"cebpf4jnsgd1na2vs0mg"},{"bike_id":"ac583b70-d5bc-4f8d-ba41-ca2f427e4276","system_id":"levelo_inurba_marseille","lat":43.27674,"lon":5.38865,"is_reserved":false,"is_disabled":false,"rental_uris":{"android":"levelo://app?vid=ac583b70-d5bc-4f8d-ba41-ca2f427e4276","ios":"levelo://app?vid=ac583b70-d5bc-4f8d-ba41-ca2f427e4276"},"vehicle_type_id":"4","last_reported":1778427691,"current_range_meters":6800,"station_id":"ce4bhi12rcd13ifvqfo0","pricing_plan_id":"cebpf4jnsgd1na2vs0mg"},{"bike_id":"9978bf29-8be4-416d-9e1c-7cc044f2b9f1","system_id":"levelo_inurba_marseille","lat":43.31446,"lon":5.37384,"is_reserved":false,"is_disabled":false,"rental_uris":{"android":"levelo://app?vid=9978bf29-8be4-416d-9e1c-7cc044f2b9f1","ios":"levelo://app?vid=9978bf29-8be4-416d-9e1c-7cc044f2b9f1"},"vehicle_type_id":"4","last_reported":1778427691,"current_range_meters":7200,"station_id":"","pricing_plan_id":"cebpf4jnsgd1na2vs0mg"},{"bike_id":"66969438-299e-490d-ab31-e463b9efa104","system_id":"levelo_inurba_marseille","lat":43.28483,"lon":5.48393,"is_reserved":false,"is_disabled":false,"rental_uris":{"android":"levelo://app?vid=66969438-299e-490d-ab31-e463b9efa104","ios":"levelo://app?vid=66969438-299e-490d-ab31-e463b9efa104"},"vehicle_type_id":"4","last_reported":1778427691,"current_range_meters":7200,"station_id":"","pricing_plan_id":"cebpf4jnsgd1na2vs0mg"},{"bike_id":"19fcb531-afbf-4fbb-8cfa-4fdace7952bb","system_id":"levelo_inurba_marseille","lat":43.297066,"lon":5.376863,"is_reserved":false,"is_disabled":false,"rental_uris":{"android":"levelo://app?vid=19fcb531-afbf-4fbb-8cfa-4fdace7952bb","ios":"levelo://app?vid=19fcb531-afbf-4fbb-8cfa-4fdace7952bb"},"vehicle_type_id":"4","last_reported":1778427691,"current_range_meters":7200,"station_id":"ce4bgkh2rcd13ifvqbl0","pricing_plan_id":"cebpf4jnsgd1na2vs0mg"},{"bike_id":"a2f159ba-dd8b-45b7-a364-d6100628c11e","system_id":"levelo_inurba_marseille","lat":43.24164,"lon":5.36391,"is_reserved":false,"is_disabled":false,"rental_uris":{"android":"levelo://app?vid=a2f159ba-dd8b-45b7-a364-d6100628c11e","ios":"levelo://app?vid=a2f159ba-dd8b-45b7-a364-d6100628c11e"},"vehicle_type_id":"4","last_reported":1778427691,"current_range_meters":7200,"station_id":"cpo36qri1sfpv3e86is0","pricing_plan_id":"cebpf4jnsgd1na2vs0mg"},{"bike_id":"59827150-34e3-4aef-a8c3-9fd1f0af10d9","system_id":"levelo_inurba_marseille","lat":43.23386,"lon":5.41241,"is_reserved":false,"is_disabled":false,"rental_uris":{"android":"levelo://app?vid=59827150-34e3-4aef-a8c3-9fd1f0af10d9","ios":"levelo://app?vid=59827150-34e3-4aef-a8c3-9fd1f0af10d9"},"vehicle_type_id":"4","last_reported":1778427691,"current_range_meters":7200,"station_id":"st_d75pvndhf9lc73cqq3eg","pricing_plan_id":"cebpf4jnsgd1na2vs0mg"},{"bike_id":"4fa65e5e-a226-412a-ac36-8012b00eeb68","system_id":"levelo_inurba_marseille","lat":43.29028,"lon":5.35593,"is_reserved":false,"is_disabled":false,"rental_uris":{"android":"levelo://app?vid=4fa65e5e-a226-412a-ac36-8012b00eeb68","ios":"levelo://app?vid=4fa65e5e-a226-412a-ac36-8012b00eeb68"},"vehicle_type_id":"4","last_reported":1778427691,"current_range_meters":7200,"station_id":"ce4bhb92rcd13ifvqen0","pricing_plan_id":"cebpf4jnsgd1na2vs0mg"},{"bike_id":"33c853a4-d3bd-40c8-a0e3-17178876022d","system_id":"levelo_inurba_marseille","lat":43.3052,"lon":5.36545,"is_reserved":false,"is_disabled":false,"rental_uris":{"android":"levelo://app?vid=33c853a4-d3bd-40c8-a0e3-17178876022d","ios":"levelo://app?vid=33c853a4-d3bd-40c8-a0e3-17178876022d"},"vehicle_type_id":"4","last_reported":1778427691,"current_range_meters":7200,"station_id":"ce4bgs12rcd13ifvqcag","pricing_plan_id":"cebpf4jnsgd1na2vs0mg"},{"bike_id":"fd218b19-8f33-4a74-8ae4-8251c7a63f98","system_id":"levelo_inurba_marseille","lat":43.24645,"lon":5.43126,"is_reserved":false,"is_disabled":false,"rental_uris":{"android":"levelo://app?vid=fd218b19-8f33-4a74-8ae4-8251c7a63f98","ios":"levelo://app?vid=fd218b19-8f33-4a74-8ae4-8251c7a63f98"},"vehicle_type_id":"4","last_reported":1778427691,"current_range_meters":7200,"station_id":"st_d2m6c4gdas8pm72e190g","pricing_plan_id":"cebpf4jnsgd1na2vs0mg"},{"bike_id":"8395579b-8f38-41a7-86cb-d8270590e280","system_id":"levelo_inurba_marseille","lat":43.25735,"lon":5.41125,"is_reserved":false,"is_disabled":false,"rental_uris":{"android":"levelo://app?vid=8395579b-8f38-41a7-86cb-d8270590e280","ios":"levelo://app?vid=8395579b-8f38-41a7-86cb-d8270590e280"},"vehicle_type_id":"4","last_reported":1778427691,"current_range_meters":7200,"station_id":"ce4bhkp2rcd13ifvqgd0","pricing_plan_id":"cebpf4jnsgd1na2vs0mg"},{"bike_id":"1cfda53c-3c0a-45df-b781-925d9a5c5f43","system_id":"levelo_inurba_marseille","lat":43.30102,"lon":5.39081,"is_reserved":false,"is_disabled":false,"rental_uris":{"android":"levelo://app?vid=1cfda53c-3c0a-45df-b781-925d9a5c5f43","ios":"levelo://app?vid=1cfda53c-3c0a-45df-b781-925d9a5c5f43"},"vehicle_type_id":"4","last_reported":1778427691,"current_range_meters":7200,"station_id":"ce4bh192rcd13ifvqdb0","pricing_plan_id":"cebpf4jnsgd1na2vs0mg"},{"bike_id":"9f2bf0d7-c428-448f-9e91-b8b45afbc286","system_id":"levelo_inurba_marseille","lat":43.2979,"lon":5.37107,"is_reserved":false,"is_disabled":false,"rental_uris":{"android":"levelo://app?vid=9f2bf0d7-c428-448f-9e91-b8b45afbc286","ios":"levelo://app?vid=9f2bf0d7-c428-448f-9e91-b8b45afbc286"},"vehicle_type_id":"4","last_reported":1778427691,"current_range_meters":7200,"station_id":"ce4bgop2rcd13ifvqc1g","pricing_plan_id":"cebpf4jnsgd1na2vs0mg"},{"bike_id":"d4540253-c9ac-4127-82c4-03cac9441e10","system_id":"levelo_inurba_marseille","lat":43.243872,"lon":5.370605,"is_reserved":false,"is_disabled":false,"rental_uris":{"android":"levelo://app?vid=d4540253-c9ac-4127-82c4-03cac9441e10","ios":"levelo://app?vid=d4540253-c9ac-4127-82c4-03cac9441e10"},"vehicle_type_id":"4","last_reported":1778427691,"current_range_meters":7200,"station_id":"ce4bhhh2rcd13ifvqfk0","pricing_plan_id":"cebpf4jnsgd1na2vs0mg"},{"bike_id":"019248d2-541c-4fa1-abbd-e47be97aa96b","system_id":"levelo_inurba_marseille","lat":43.25338,"lon":5.42182,"is_reserved":false,"is_disabled":true,"rental_uris":{"android":"levelo://app?vid=019248d2-541c-4fa1-abbd-e47be97aa96b","ios":"levelo://app?vid=019248d2-541c-4fa1-abbd-e47be97aa96b"},"vehicle_type_id":"4","last_reported":1778427691,"current_range_meters":7200,"station_id":"st_d2m65c5bi1j21697t3ng","pricing_plan_id":"cebpf4jnsgd1na2vs0mg"},{"bike_id":"a2bc18bc-742d-49ea-bbf9-2554b9cd98da","system_id":"levelo_inurba_marseille","lat":43.2604,"lon":5.38621,"is_reserved":false,"is_disabled":false,"rental_uris":{"android":"levelo://app?vid=a2bc18bc-742d-49ea-bbf9-2554b9cd98da","ios":"levelo://app?vid=a2bc18bc-742d-49ea-bbf9-2554b9cd98da"},"vehicle_type_id":"4","last_reported":1778427691,"current_range_meters":7200,"station_id":"","pricing_plan_id":"cebpf4jnsgd1na2vs0mg"},{"bike_id":"e8716f16-ae90-4649-a16a-2082bc35fbce","system_id":"levelo_inurba_marseille","lat":43.29528,"lon":5.38545,"is_reserved":false,"is_disabled":false,"rental_uris":{"android":"levelo://app?vid=e8716f16-ae90-4649-a16a-2082bc35fbce","ios":"levelo://app?vid=e8716f16-ae90-4649-a16a-2082bc35fbce"},"vehicle_type_id":"4","last_reported":1778427691,"current_range_meters":7200,"station_id":"","pricing_plan_id":"cebpf4jnsgd1na2vs0mg"},{"bike_id":"4ff8dc15-0708-4e2b-b324-a99a9fcbbc98","system_id":"levelo_inurba_marseille","lat":43.26205,"lon":5.37429,"is_reserved":false,"is_disabled":false,"rental_uris":{"android":"levelo://app?vid=4ff8dc15-0708-4e2b-b324-a99a9fcbbc98","ios":"levelo://app?vid=4ff8dc15-0708-4e2b-b324-a99a9fcbbc98"},"vehicle_type_id":"4","last_reported":1778427691,"current_range_meters":7200,"station_id":"ce4bhgp2rcd13ifvqfc0","pricing_plan_id":"cebpf4jnsgd1na2vs0mg"},{"bike_id":"a1d66207-ff5d-4a71-b148-d595e314ee4a","system_id":"levelo_inurba_marseille","lat":43.28794,"lon":5.42426,"is_reserved":false,"is_disabled":false,"rental_uris":{"android":"levelo://app?vid=a1d66207-ff5d-4a71-b148-d595e314ee4a","ios":"levelo://app?vid=a1d66207-ff5d-4a71-b148-d595e314ee4a"},"vehicle_type_id":"4","last_reported":1778427691,"current_range_meters":7200,"station_id":"","pricing_plan_id":"cebpf4jnsgd1na2vs0mg"},{"bike_id":"02849ecd-84ae-4972-8247-931607cdaec0","system_id":"levelo_inurba_marseille","lat":43.28604,"lon":5.35106,"is_reserved":false,"is_disabled":false,"rental_uris":{"android":"levelo://app?vid=02849ecd-84ae-4972-8247-931607cdaec0","ios":"levelo://app?vid=02849ecd-84ae-4972-8247-931607cdaec0"},"vehicle_type_id":"4","last_reported":1778427691,"current_range_meters":7200,"station_id":"ce4bhch2rcd13ifvqeug","pricing_plan_id":"cebpf4jnsgd1na2vs0mg"},{"bike_id":"32761070-ebb2-4ad1-bfc0-19334b7c04e1","system_id":"levelo_inurba_marseille","lat":43.26771,"lon":5.39423,"is_reserved":false,"is_disabled":false,"rental_uris":{"android":"levelo://app?vid=32761070-ebb2-4ad1-bfc0-19334b7c04e1","ios":"levelo://app?vid=32761070-ebb2-4ad1-bfc0-19334b7c04e1"},"vehicle_type_id":"4","last_reported":1778427691,"current_range_meters":7200,"station_id":"ce4bhh12rcd13ifvqfg0","pricing_plan_id":"cebpf4jnsgd1na2vs0mg"},{"bike_id":"6d4ff3ec-84bf-444d-985e-042bc3c04859","system_id":"levelo_inurba_marseille","lat":43.284099,"lon":5.349814,"is_reserved":false,"is_disabled":false,"rental_uris":{"android":"levelo://app?vid=6d4ff3ec-84bf-444d-985e-042bc3c04859","ios":"levelo://app?vid=6d4ff3ec-84bf-444d-985e-042bc3c04859"},"vehicle_type_id":"4","last_reported":1778427691,"current_range_meters":8000,"station_id":"ce4bhbh2rcd13ifvqepg","pricing_plan_id":"cebpf4jnsgd1na2vs0mg"},{"bike_id":"e72dcbdd-03ba-4e71-a4e1-86744277a8e2","system_id":"levelo_inurba_marseille","lat":43.29602,"lon":5.37776,"is_reserved":false,"is_disabled":false,"rental_uris":{"android":"levelo://app?vid=e72dcbdd-03ba-4e71-a4e1-86744277a8e2","ios":"levelo://app?vid=e72dcbdd-03ba-4e71-a4e1-86744277a8e2"},"vehicle_type_id":"4","last_reported":1778427691,"current_range_meters":8000,"station_id":"","pricing_plan_id":"cebpf4jnsgd1na2vs0mg"},{"bike_id":"31398a4d-4b5e-484e-bd5a-d9f31bc295bd","system_id":"levelo_inurba_marseille","lat":43.25082,"lon":5.39496,"is_reserved":false,"is_disabled":false,"rental_uris":{"android":"levelo://app?vid=31398a4d-4b5e-484e-bd5a-d9f31bc295bd","ios":"levelo://app?vid=31398a4d-4b5e-484e-bd5a-d9f31bc295bd"},"vehicle_type_id":"4","last_reported":1778427691,"current_range_meters":8000,"station_id":"ce4bhm12rcd13ifvqgkg","pricing_plan_id":"cebpf4jnsgd1na2vs0mg"},{"bike_id":"d55796ed-4e9c-4094-8c61-04073e5fd354","system_id":"levelo_inurba_marseille","lat":43.28149,"lon":5.42652,"is_reserved":false,"is_disabled":false,"rental_uris":{"android":"levelo://app?vid=d55796ed-4e9c-4094-8c61-04073e5fd354","ios":"levelo://app?vid=d55796ed-4e9c-4094-8c61-04073e5fd354"},"vehicle_type_id":"4","last_reported":1778427691,"current_range_meters":8000,"station_id":"ce4bhnh2rcd13ifvqgug","pricing_plan_id":"cebpf4jnsgd1na2vs0mg"},{"bike_id":"3be48547-9755-4740-8c69-194d026c42aa","system_id":"levelo_inurba_marseille","lat":43.28409,"lon":5.37529,"is_reserved":false,"is_disabled":true,"rental_uris":{"android":"levelo://app?vid=3be48547-9755-4740-8c69-194d026c42aa","ios":"levelo://app?vid=3be48547-9755-4740-8c69-194d026c42aa"},"vehicle_type_id":"4","last_reported":1778427691,"current_range_meters":8000,"station_id":"ce4bh412rcd13ifvqds0","pricing_plan_id":"cebpf4jnsgd1na2vs0mg"},{"bike_id":"05873d3e-2f07-45ee-9c3a-8f47e65ca722","system_id":"levelo_inurba_marseille","lat":43.29842,"lon":5.39725,"is_reserved":false,"is_disabled":true,"rental_uris":{"android":"levelo://app?vid=05873d3e-2f07-45ee-9c3a-8f47e65ca722","ios":"levelo://app?vid=05873d3e-2f07-45ee-9c3a-8f47e65ca722"},"vehicle_type_id":"4","last_reported":1778427691,"current_range_meters":8000,"station_id":"ce4bh0h2rcd13ifvqd50","pricing_plan_id":"cebpf4jnsgd1na2vs0mg"},{"bike_id":"e16f3497-994b-4a5e-a623-feda354f6eb9","system_id":"levelo_inurba_marseille","lat":43.29492,"lon":5.43287,"is_reserved":false,"is_disabled":false,"rental_uris":{"android":"levelo://app?vid=e16f3497-994b-4a5e-a623-feda354f6eb9","ios":"levelo://app?vid=e16f3497-994b-4a5e-a623-feda354f6eb9"},"vehicle_type_id":"4","last_reported":1778427691,"current_range_meters":8000,"station_id":"st_d3j5ugp08ojc73fj9d10","pricing_plan_id":"cebpf4jnsgd1na2vs0mg"},{"bike_id":"26c46353-55bc-47c3-9260-64f044b246fd","system_id":"levelo_inurba_marseille","lat":43.26222,"lon":5.40469,"is_reserved":false,"is_disabled":false,"rental_uris":{"android":"levelo://app?vid=26c46353-55bc-47c3-9260-64f044b246fd","ios":"levelo://app?vid=26c46353-55bc-47c3-9260-64f044b246fd"},"vehicle_type_id":"4","last_reported":1778427691,"current_range_meters":8000,"station_id":"ce4bhmh2rcd13ifvqgmg","pricing_plan_id":"cebpf4jnsgd1na2vs0mg"},{"bike_id":"64ee1d1b-107a-4763-9db4-d26752131c23","system_id":"levelo_inurba_marseille","lat":43.25082,"lon":5.39503,"is_reserved":false,"is_disabled":false,"rental_uris":{"android":"levelo://app?vid=64ee1d1b-107a-4763-9db4-d26752131c23","ios":"levelo://app?vid=64ee1d1b-107a-4763-9db4-d26752131c23"},"vehicle_type_id":"4","last_reported":1778427691,"current_range_meters":8000,"station_id":"ce4bhm12rcd13ifvqgkg","pricing_plan_id":"cebpf4jnsgd1na2vs0mg"},{"bike_id":"4516e97d-1ec7-4f67-bd2c-30129b674d6c","system_id":"levelo_inurba_marseille","lat":43.28617,"lon":5.35115,"is_reserved":false,"is_disabled":true,"rental_uris":{"android":"levelo://app?vid=4516e97d-1ec7-4f67-bd2c-30129b674d6c","ios":"levelo://app?vid=4516e97d-1ec7-4f67-bd2c-30129b674d6c"},"vehicle_type_id":"4","last_reported":1778427691,"current_range_meters":8000,"station_id":"ce4bhch2rcd13ifvqeug","pricing_plan_id":"cebpf4jnsgd1na2vs0mg"},{"bike_id":"829aeb58-c649-476d-904d-bd92827ec395","system_id":"levelo_inurba_marseille","lat":43.30899,"lon":5.41239,"is_reserved":false,"is_disabled":false,"rental_uris":{"android":"levelo://app?vid=829aeb58-c649-476d-904d-bd92827ec395","ios":"levelo://app?vid=829aeb58-c649-476d-904d-bd92827ec395"},"vehicle_type_id":"4","last_reported":1778427691,"current_range_meters":8000,"station_id":"","pricing_plan_id":"cebpf4jnsgd1na2vs0mg"},{"bike_id":"9419e6b1-d07e-4865-bc84-49f308e929ec","system_id":"levelo_inurba_marseille","lat":43.23309,"lon":5.35797,"is_reserved":false,"is_disabled":false,"rental_uris":{"android":"levelo://app?vid=9419e6b1-d07e-4865-bc84-49f308e929ec","ios":"levelo://app?vid=9419e6b1-d07e-4865-bc84-49f308e929ec"},"vehicle_type_id":"4","last_reported":1778427691,"current_range_meters":8000,"station_id":"","pricing_plan_id":"cebpf4jnsgd1na2vs0mg"},{"bike_id":"6d66e5ac-60f2-4aae-a825-a966c1a98257","system_id":"levelo_inurba_marseille","lat":43.30532,"lon":5.36558,"is_reserved":false,"is_disabled":false,"rental_uris":{"android":"levelo://app?vid=6d66e5ac-60f2-4aae-a825-a966c1a98257","ios":"levelo://app?vid=6d66e5ac-60f2-4aae-a825-a966c1a98257"},"vehicle_type_id":"4","last_reported":1778427691,"current_range_meters":8000,"station_id":"ce4bgs12rcd13ifvqcag","pricing_plan_id":"cebpf4jnsgd1na2vs0mg"},{"bike_id":"9693dce2-aa96-4f52-a789-2e7e44780da9","system_id":"levelo_inurba_marseille","lat":43.30426,"lon":5.39746,"is_reserved":false,"is_disabled":false,"rental_uris":{"android":"levelo://app?vid=9693dce2-aa96-4f52-a789-2e7e44780da9","ios":"levelo://app?vid=9693dce2-aa96-4f52-a789-2e7e44780da9"},"vehicle_type_id":"4","last_reported":1778427691,"current_range_meters":8000,"station_id":"ce4bh092rcd13ifvqd20","pricing_plan_id":"cebpf4jnsgd1na2vs0mg"},{"bike_id":"cccda472-7561-4978-9b74-a8c6197a578e","system_id":"levelo_inurba_marseille","lat":43.33155,"lon":5.37662,"is_reserved":false,"is_disabled":false,"rental_uris":{"android":"levelo://app?vid=cccda472-7561-4978-9b74-a8c6197a578e","ios":"levelo://app?vid=cccda472-7561-4978-9b74-a8c6197a578e"},"vehicle_type_id":"4","last_reported":1778427691,"current_range_meters":8000,"station_id":"st_d46cu089ee8s73dldbu0","pricing_plan_id":"cebpf4jnsgd1na2vs0mg"},{"bike_id":"e88067db-06e7-43fb-8b26-0f29cfb1ca74","system_id":"levelo_inurba_marseille","lat":43.28704,"lon":5.46689,"is_reserved":false,"is_disabled":false,"rental_uris":{"android":"levelo://app?vid=e88067db-06e7-43fb-8b26-0f29cfb1ca74","ios":"levelo://app?vid=e88067db-06e7-43fb-8b26-0f29cfb1ca74"},"vehicle_type_id":"4","last_reported":1778427691,"current_range_meters":8000,"station_id":"st_d6tc3vkotcvc738tfjhg","pricing_plan_id":"cebpf4jnsgd1na2vs0mg"},{"bike_id":"bd013f89-14e0-4bf4-b551-5f21536228af","system_id":"levelo_inurba_marseille","lat":43.26069,"lon":5.39378,"is_reserved":false,"is_disabled":false,"rental_uris":{"android":"levelo://app?vid=bd013f89-14e0-4bf4-b551-5f21536228af","ios":"levelo://app?vid=bd013f89-14e0-4bf4-b551-5f21536228af"},"vehicle_type_id":"4","last_reported":1778427691,"current_range_meters":8400,"station_id":"ce4bhh92rcd13ifvqfj0","pricing_plan_id":"cebpf4jnsgd1na2vs0mg"},{"bike_id":"7f14ac2a-95a1-4ff9-8272-a58b1f33bddd","system_id":"levelo_inurba_marseille","lat":43.32359,"lon":5.38915,"is_reserved":false,"is_disabled":false,"rental_uris":{"android":"levelo://app?vid=7f14ac2a-95a1-4ff9-8272-a58b1f33bddd","ios":"levelo://app?vid=7f14ac2a-95a1-4ff9-8272-a58b1f33bddd"},"vehicle_type_id":"4","last_reported":1778427691,"current_range_meters":8400,"station_id":"ce4bhqp2rcd13ifvqhog","pricing_plan_id":"cebpf4jnsgd1na2vs0mg"},{"bike_id":"0fdd2634-3a09-446a-be37-6d2e2fa070de","system_id":"levelo_inurba_marseille","lat":43.28873,"lon":5.42532,"is_reserved":false,"is_disabled":false,"rental_uris":{"android":"levelo://app?vid=0fdd2634-3a09-446a-be37-6d2e2fa070de","ios":"levelo://app?vid=0fdd2634-3a09-446a-be37-6d2e2fa070de"},"vehicle_type_id":"4","last_reported":1778427691,"current_range_meters":8400,"station_id":"st_d3b462108ojc7389ooeg","pricing_plan_id":"cebpf4jnsgd1na2vs0mg"},{"bike_id":"f3e5f4c8-4e21-43e7-b783-e32e46d7b1d8","system_id":"levelo_inurba_marseille","lat":43.31437,"lon":5.37369,"is_reserved":false,"is_disabled":false,"rental_uris":{"android":"levelo://app?vid=f3e5f4c8-4e21-43e7-b783-e32e46d7b1d8","ios":"levelo://app?vid=f3e5f4c8-4e21-43e7-b783-e32e46d7b1d8"},"vehicle_type_id":"4","last_reported":1778427691,"current_range_meters":8400,"station_id":"","pricing_plan_id":"cebpf4jnsgd1na2vs0mg"},{"bike_id":"80386a2b-e970-41f0-870f-0b66294b34a1","system_id":"levelo_inurba_marseille","lat":43.26377,"lon":5.41057,"is_reserved":false,"is_disabled":false,"rental_uris":{"android":"levelo://app?vid=80386a2b-e970-41f0-870f-0b66294b34a1","ios":"levelo://app?vid=80386a2b-e970-41f0-870f-0b66294b34a1"},"vehicle_type_id":"4","last_reported":1778427691,"current_range_meters":8400,"station_id":"st_d4e5ca6na9uc73bfl5fg","pricing_plan_id":"cebpf4jnsgd1na2vs0mg"},{"bike_id":"902c5a5f-7267-43c5-a354-8e2e086ea276","system_id":"levelo_inurba_marseille","lat":43.29068,"lon":5.37167,"is_reserved":false,"is_disabled":false,"rental_uris":{"android":"levelo://app?vid=902c5a5f-7267-43c5-a354-8e2e086ea276","ios":"levelo://app?vid=902c5a5f-7267-43c5-a354-8e2e086ea276"},"vehicle_type_id":"4","last_reported":1778427691,"current_range_meters":8400,"station_id":"ce4bh5p2rcd13ifvqe4g","pricing_plan_id":"cebpf4jnsgd1na2vs0mg"},{"bike_id":"f0727bb7-b933-4d55-a165-2af7c22b34c1","system_id":"levelo_inurba_marseille","lat":43.2257,"lon":5.41641,"is_reserved":false,"is_disabled":false,"rental_uris":{"android":"levelo://app?vid=f0727bb7-b933-4d55-a165-2af7c22b34c1","ios":"levelo://app?vid=f0727bb7-b933-4d55-a165-2af7c22b34c1"},"vehicle_type_id":"4","last_reported":1778427691,"current_range_meters":8400,"station_id":"st_d2o4gvlbi1j2169b742g","pricing_plan_id":"cebpf4jnsgd1na2vs0mg"},{"bike_id":"bca2aa77-ba64-4f28-8080-aac334bff6e7","system_id":"levelo_inurba_marseille","lat":43.27994,"lon":5.40009,"is_reserved":false,"is_disabled":false,"rental_uris":{"android":"levelo://app?vid=bca2aa77-ba64-4f28-8080-aac334bff6e7","ios":"levelo://app?vid=bca2aa77-ba64-4f28-8080-aac334bff6e7"},"vehicle_type_id":"4","last_reported":1778427691,"current_range_meters":8400,"station_id":"ce4bho92rcd13ifvqh4g","pricing_plan_id":"cebpf4jnsgd1na2vs0mg"},{"bike_id":"29e48894-3184-4075-9cbf-e74828209eb9","system_id":"levelo_inurba_marseille","lat":43.28262,"lon":5.35062,"is_reserved":false,"is_disabled":false,"rental_uris":{"android":"levelo://app?vid=29e48894-3184-4075-9cbf-e74828209eb9","ios":"levelo://app?vid=29e48894-3184-4075-9cbf-e74828209eb9"},"vehicle_type_id":"4","last_reported":1778427691,"current_range_meters":8400,"station_id":"ce4bhbp2rcd13ifvqerg","pricing_plan_id":"cebpf4jnsgd1na2vs0mg"},{"bike_id":"5782c8bd-52a7-41c7-b363-43b351c217e8","system_id":"levelo_inurba_marseille","lat":43.21183,"lon":5.35068,"is_reserved":false,"is_disabled":false,"rental_uris":{"android":"levelo://app?vid=5782c8bd-52a7-41c7-b363-43b351c217e8","ios":"levelo://app?vid=5782c8bd-52a7-41c7-b363-43b351c217e8"},"vehicle_type_id":"4","last_reported":1778427691,"current_range_meters":8800,"station_id":"st_cvj6sg6p6f1abm77japg","pricing_plan_id":"cebpf4jnsgd1na2vs0mg"},{"bike_id":"052db3d7-6dca-4eed-99f8-49960a36ffee","system_id":"levelo_inurba_marseille","lat":43.30545,"lon":5.36532,"is_reserved":false,"is_disabled":false,"rental_uris":{"android":"levelo://app?vid=052db3d7-6dca-4eed-99f8-49960a36ffee","ios":"levelo://app?vid=052db3d7-6dca-4eed-99f8-49960a36ffee"},"vehicle_type_id":"4","last_reported":1778427691,"current_range_meters":8800,"station_id":"ce4bgs12rcd13ifvqcag","pricing_plan_id":"cebpf4jnsgd1na2vs0mg"},{"bike_id":"439c580c-91fb-4f07-899b-17e34535b7cf","system_id":"levelo_inurba_marseille","lat":43.28717,"lon":5.37912,"is_reserved":false,"is_disabled":true,"rental_uris":{"android":"levelo://app?vid=439c580c-91fb-4f07-899b-17e34535b7cf","ios":"levelo://app?vid=439c580c-91fb-4f07-899b-17e34535b7cf"},"vehicle_type_id":"4","last_reported":1778427691,"current_range_meters":8800,"station_id":"ce4bh9p2rcd13ifvqec0","pricing_plan_id":"cebpf4jnsgd1na2vs0mg"},{"bike_id":"631d1102-ed89-412a-b1fd-3e938d0b26bf","system_id":"levelo_inurba_marseille","lat":43.24656,"lon":5.38885,"is_reserved":false,"is_disabled":false,"rental_uris":{"android":"levelo://app?vid=631d1102-ed89-412a-b1fd-3e938d0b26bf","ios":"levelo://app?vid=631d1102-ed89-412a-b1fd-3e938d0b26bf"},"vehicle_type_id":"4","last_reported":1778427691,"current_range_meters":8800,"station_id":"ce4bhg12rcd13ifvqf60","pricing_plan_id":"cebpf4jnsgd1na2vs0mg"},{"bike_id":"8d3783a1-4fd4-41d3-8b11-c765d49673db","system_id":"levelo_inurba_marseille","lat":43.29736,"lon":5.37697,"is_reserved":false,"is_disabled":false,"rental_uris":{"android":"levelo://app?vid=8d3783a1-4fd4-41d3-8b11-c765d49673db","ios":"levelo://app?vid=8d3783a1-4fd4-41d3-8b11-c765d49673db"},"vehicle_type_id":"4","last_reported":1778427691,"current_range_meters":8800,"station_id":"ce4bgkh2rcd13ifvqbl0","pricing_plan_id":"cebpf4jnsgd1na2vs0mg"},{"bike_id":"5c5f1b2c-364a-42ea-b18e-b314ba5bf6e3","system_id":"levelo_inurba_marseille","lat":43.28447,"lon":5.35004,"is_reserved":false,"is_disabled":true,"rental_uris":{"android":"levelo://app?vid=5c5f1b2c-364a-42ea-b18e-b314ba5bf6e3","ios":"levelo://app?vid=5c5f1b2c-364a-42ea-b18e-b314ba5bf6e3"},"vehicle_type_id":"4","last_reported":1778427691,"current_range_meters":8800,"station_id":"ce4bhbh2rcd13ifvqepg","pricing_plan_id":"cebpf4jnsgd1na2vs0mg"},{"bike_id":"0cb1821f-2bca-4ef3-9300-4ecc49901b81","system_id":"levelo_inurba_marseille","lat":43.28416,"lon":5.35013,"is_reserved":false,"is_disabled":false,"rental_uris":{"android":"levelo://app?vid=0cb1821f-2bca-4ef3-9300-4ecc49901b81","ios":"levelo://app?vid=0cb1821f-2bca-4ef3-9300-4ecc49901b81"},"vehicle_type_id":"4","last_reported":1778427691,"current_range_meters":8800,"station_id":"ce4bhbh2rcd13ifvqepg","pricing_plan_id":"cebpf4jnsgd1na2vs0mg"},{"bike_id":"ad206cfa-883b-417b-b1ab-804ae7af3a6b","system_id":"levelo_inurba_marseille","lat":43.31355,"lon":5.38509,"is_reserved":false,"is_disabled":false,"rental_uris":{"android":"levelo://app?vid=ad206cfa-883b-417b-b1ab-804ae7af3a6b","ios":"levelo://app?vid=ad206cfa-883b-417b-b1ab-804ae7af3a6b"},"vehicle_type_id":"4","last_reported":1778427691,"current_range_meters":8800,"station_id":"ce4bgt92rcd13ifvqcf0","pricing_plan_id":"cebpf4jnsgd1na2vs0mg"},{"bike_id":"4be48e83-9343-4c3a-b884-b414c3010644","system_id":"levelo_inurba_marseille","lat":43.25853,"lon":5.39917,"is_reserved":false,"is_disabled":true,"rental_uris":{"android":"levelo://app?vid=4be48e83-9343-4c3a-b884-b414c3010644","ios":"levelo://app?vid=4be48e83-9343-4c3a-b884-b414c3010644"},"vehicle_type_id":"4","last_reported":1778427691,"current_range_meters":8800,"station_id":"ce4bhl92rcd13ifvqghg","pricing_plan_id":"cebpf4jnsgd1na2vs0mg"},{"bike_id":"1f120ac7-7ee8-43e5-8a49-7d8f26aa9f00","system_id":"levelo_inurba_marseille","lat":43.30196,"lon":5.39455,"is_reserved":false,"is_disabled":false,"rental_uris":{"android":"levelo://app?vid=1f120ac7-7ee8-43e5-8a49-7d8f26aa9f00","ios":"levelo://app?vid=1f120ac7-7ee8-43e5-8a49-7d8f26aa9f00"},"vehicle_type_id":"4","last_reported":1778427691,"current_range_meters":8800,"station_id":"ce4bh0p2rcd13ifvqd70","pricing_plan_id":"cebpf4jnsgd1na2vs0mg"},{"bike_id":"dfac2de4-d362-4feb-b799-9a59741ee828","system_id":"levelo_inurba_marseille","lat":43.22942,"lon":5.44521,"is_reserved":false,"is_disabled":false,"rental_uris":{"android":"levelo://app?vid=dfac2de4-d362-4feb-b799-9a59741ee828","ios":"levelo://app?vid=dfac2de4-d362-4feb-b799-9a59741ee828"},"vehicle_type_id":"4","last_reported":1778427691,"current_range_meters":8800,"station_id":"","pricing_plan_id":"cebpf4jnsgd1na2vs0mg"},{"bike_id":"2f451d67-dd75-4a26-aa43-0a0aec9326fd","system_id":"levelo_inurba_marseille","lat":43.33169,"lon":5.37709,"is_reserved":false,"is_disabled":false,"rental_uris":{"android":"levelo://app?vid=2f451d67-dd75-4a26-aa43-0a0aec9326fd","ios":"levelo://app?vid=2f451d67-dd75-4a26-aa43-0a0aec9326fd"},"vehicle_type_id":"4","last_reported":1778427691,"current_range_meters":8800,"station_id":"st_d46cu089ee8s73dldbu0","pricing_plan_id":"cebpf4jnsgd1na2vs0mg"},{"bike_id":"4deb8ae7-bc85-432d-866c-f444aee7a67a","system_id":"levelo_inurba_marseille","lat":43.30207,"lon":5.39465,"is_reserved":false,"is_disabled":false,"rental_uris":{"android":"levelo://app?vid=4deb8ae7-bc85-432d-866c-f444aee7a67a","ios":"levelo://app?vid=4deb8ae7-bc85-432d-866c-f444aee7a67a"},"vehicle_type_id":"4","last_reported":1778427691,"current_range_meters":8800,"station_id":"ce4bh0p2rcd13ifvqd70","pricing_plan_id":"cebpf4jnsgd1na2vs0mg"},{"bike_id":"17f0a369-299f-4778-8bb1-810cfca0081e","system_id":"levelo_inurba_marseille","lat":43.29275,"lon":5.3685,"is_reserved":false,"is_disabled":false,"rental_uris":{"android":"levelo://app?vid=17f0a369-299f-4778-8bb1-810cfca0081e","ios":"levelo://app?vid=17f0a369-299f-4778-8bb1-810cfca0081e"},"vehicle_type_id":"4","last_reported":1778427691,"current_range_meters":9200,"station_id":"ce4bhbp2rcd13ifvqesg","pricing_plan_id":"cebpf4jnsgd1na2vs0mg"},{"bike_id":"0a4272d9-d28f-49e7-a8fd-729cd3788c17","system_id":"levelo_inurba_marseille","lat":43.29547,"lon":5.38541,"is_reserved":false,"is_disabled":false,"rental_uris":{"android":"levelo://app?vid=0a4272d9-d28f-49e7-a8fd-729cd3788c17","ios":"levelo://app?vid=0a4272d9-d28f-49e7-a8fd-729cd3788c17"},"vehicle_type_id":"4","last_reported":1778427691,"current_range_meters":9200,"station_id":"ce4bgih2rcd13ifvqba0","pricing_plan_id":"cebpf4jnsgd1na2vs0mg"},{"bike_id":"05e868ee-6332-4846-a54f-cde802e4b22d","system_id":"levelo_inurba_marseille","lat":43.26495,"lon":5.3954,"is_reserved":false,"is_disabled":false,"rental_uris":{"android":"levelo://app?vid=05e868ee-6332-4846-a54f-cde802e4b22d","ios":"levelo://app?vid=05e868ee-6332-4846-a54f-cde802e4b22d"},"vehicle_type_id":"4","last_reported":1778427691,"current_range_meters":9200,"station_id":"ce4bhi12rcd13ifvqfq0","pricing_plan_id":"cebpf4jnsgd1na2vs0mg"},{"bike_id":"07918b41-207e-49db-a428-6e9431456524","system_id":"levelo_inurba_marseille","lat":43.25113,"lon":5.4032,"is_reserved":false,"is_disabled":false,"rental_uris":{"android":"levelo://app?vid=07918b41-207e-49db-a428-6e9431456524","ios":"levelo://app?vid=07918b41-207e-49db-a428-6e9431456524"},"vehicle_type_id":"4","last_reported":1778427691,"current_range_meters":9200,"station_id":"ce4bhlh2rcd13ifvqgig","pricing_plan_id":"cebpf4jnsgd1na2vs0mg"},{"bike_id":"1e5d2b28-f138-4f85-a8b2-788f9a3273bb","system_id":"levelo_inurba_marseille","lat":43.3088,"lon":5.37186,"is_reserved":false,"is_disabled":false,"rental_uris":{"android":"levelo://app?vid=1e5d2b28-f138-4f85-a8b2-788f9a3273bb","ios":"levelo://app?vid=1e5d2b28-f138-4f85-a8b2-788f9a3273bb"},"vehicle_type_id":"4","last_reported":1778427691,"current_range_meters":9200,"station_id":"ce4bguh2rcd13ifvqckg","pricing_plan_id":"cebpf4jnsgd1na2vs0mg"},{"bike_id":"09fa49d6-2f72-44fb-aecc-f42e40eb9080","system_id":"levelo_inurba_marseille","lat":43.25722,"lon":5.4112,"is_reserved":false,"is_disabled":false,"rental_uris":{"android":"levelo://app?vid=09fa49d6-2f72-44fb-aecc-f42e40eb9080","ios":"levelo://app?vid=09fa49d6-2f72-44fb-aecc-f42e40eb9080"},"vehicle_type_id":"4","last_reported":1778427691,"current_range_meters":9200,"station_id":"ce4bhkp2rcd13ifvqgd0","pricing_plan_id":"cebpf4jnsgd1na2vs0mg"},{"bike_id":"49a0ed63-22bb-461b-ab14-a8cf78ecd382","system_id":"levelo_inurba_marseille","lat":43.27389,"lon":5.36267,"is_reserved":false,"is_disabled":false,"rental_uris":{"android":"levelo://app?vid=49a0ed63-22bb-461b-ab14-a8cf78ecd382","ios":"levelo://app?vid=49a0ed63-22bb-461b-ab14-a8cf78ecd382"},"vehicle_type_id":"4","last_reported":1778427691,"current_range_meters":9200,"station_id":"ce4bhbh2rcd13ifvqeo0","pricing_plan_id":"cebpf4jnsgd1na2vs0mg"},{"bike_id":"1ef3ad0d-3aaa-482d-8d94-78d293e11b2b","system_id":"levelo_inurba_marseille","lat":43.21197,"lon":5.35116,"is_reserved":false,"is_disabled":false,"rental_uris":{"android":"levelo://app?vid=1ef3ad0d-3aaa-482d-8d94-78d293e11b2b","ios":"levelo://app?vid=1ef3ad0d-3aaa-482d-8d94-78d293e11b2b"},"vehicle_type_id":"4","last_reported":1778427691,"current_range_meters":9200,"station_id":"st_cvj6sg6p6f1abm77japg","pricing_plan_id":"cebpf4jnsgd1na2vs0mg"},{"bike_id":"7b51884d-9174-4723-83c4-6dfaa9d8e718","system_id":"levelo_inurba_marseille","lat":43.33018,"lon":5.3905,"is_reserved":false,"is_disabled":false,"rental_uris":{"android":"levelo://app?vid=7b51884d-9174-4723-83c4-6dfaa9d8e718","ios":"levelo://app?vid=7b51884d-9174-4723-83c4-6dfaa9d8e718"},"vehicle_type_id":"4","last_reported":1778427691,"current_range_meters":9200,"station_id":"ce4bhr92rcd13ifvqhrg","pricing_plan_id":"cebpf4jnsgd1na2vs0mg"},{"bike_id":"9bb74d20-8aee-4a2e-996c-43ecf8d7375f","system_id":"levelo_inurba_marseille","lat":43.24781,"lon":5.38126,"is_reserved":false,"is_disabled":true,"rental_uris":{"android":"levelo://app?vid=9bb74d20-8aee-4a2e-996c-43ecf8d7375f","ios":"levelo://app?vid=9bb74d20-8aee-4a2e-996c-43ecf8d7375f"},"vehicle_type_id":"4","last_reported":1778427691,"current_range_meters":9200,"station_id":"ce4bhih2rcd13ifvqfr0","pricing_plan_id":"cebpf4jnsgd1na2vs0mg"},{"bike_id":"74b90277-5478-462a-83d8-5b7de3795766","system_id":"levelo_inurba_marseille","lat":43.3055,"lon":5.36526,"is_reserved":false,"is_disabled":false,"rental_uris":{"android":"levelo://app?vid=74b90277-5478-462a-83d8-5b7de3795766","ios":"levelo://app?vid=74b90277-5478-462a-83d8-5b7de3795766"},"vehicle_type_id":"4","last_reported":1778427691,"current_range_meters":9200,"station_id":"ce4bgs12rcd13ifvqcag","pricing_plan_id":"cebpf4jnsgd1na2vs0mg"},{"bike_id":"9fb94e69-3038-4e70-b37c-9e41dddc049b","system_id":"levelo_inurba_marseille","lat":43.2834,"lon":5.38106,"is_reserved":false,"is_disabled":true,"rental_uris":{"android":"levelo://app?vid=9fb94e69-3038-4e70-b37c-9e41dddc049b","ios":"levelo://app?vid=9fb94e69-3038-4e70-b37c-9e41dddc049b"},"vehicle_type_id":"4","last_reported":1778427691,"current_range_meters":9200,"station_id":"ce4bh412rcd13ifvqdr0","pricing_plan_id":"cebpf4jnsgd1na2vs0mg"},{"bike_id":"41ecb6d4-6eb0-4766-b142-ca32b6634c39","system_id":"levelo_inurba_marseille","lat":43.33146,"lon":5.37731,"is_reserved":false,"is_disabled":false,"rental_uris":{"android":"levelo://app?vid=41ecb6d4-6eb0-4766-b142-ca32b6634c39","ios":"levelo://app?vid=41ecb6d4-6eb0-4766-b142-ca32b6634c39"},"vehicle_type_id":"4","last_reported":1778427691,"current_range_meters":9200,"station_id":"st_d46cu089ee8s73dldbu0","pricing_plan_id":"cebpf4jnsgd1na2vs0mg"},{"bike_id":"267f282d-2ab9-44cf-a9dd-0d3247e09ef7","system_id":"levelo_inurba_marseille","lat":43.299194,"lon":5.37458,"is_reserved":false,"is_disabled":false,"rental_uris":{"android":"levelo://app?vid=267f282d-2ab9-44cf-a9dd-0d3247e09ef7","ios":"levelo://app?vid=267f282d-2ab9-44cf-a9dd-0d3247e09ef7"},"vehicle_type_id":"4","last_reported":1778427691,"current_range_meters":9200,"station_id":"","pricing_plan_id":"cebpf4jnsgd1na2vs0mg"},{"bike_id":"6c221b35-333b-451f-b80c-c18ff57def2c","system_id":"levelo_inurba_marseille","lat":43.32113,"lon":5.36777,"is_reserved":false,"is_disabled":false,"rental_uris":{"android":"levelo://app?vid=6c221b35-333b-451f-b80c-c18ff57def2c","ios":"levelo://app?vid=6c221b35-333b-451f-b80c-c18ff57def2c"},"vehicle_type_id":"4","last_reported":1778427691,"current_range_meters":9200,"station_id":"ce4bhrh2rcd13ifvqhug","pricing_plan_id":"cebpf4jnsgd1na2vs0mg"},{"bike_id":"feab11c3-7dc6-4d9f-8be2-564cabd01992","system_id":"levelo_inurba_marseille","lat":43.29552,"lon":5.42295,"is_reserved":false,"is_disabled":false,"rental_uris":{"android":"levelo://app?vid=feab11c3-7dc6-4d9f-8be2-564cabd01992","ios":"levelo://app?vid=feab11c3-7dc6-4d9f-8be2-564cabd01992"},"vehicle_type_id":"4","last_reported":1778427691,"current_range_meters":9200,"station_id":"ce4bhph2rcd13ifvqhdg","pricing_plan_id":"cebpf4jnsgd1na2vs0mg"},{"bike_id":"d602462f-e16a-4727-9504-b1e588cf0d3b","system_id":"levelo_inurba_marseille","lat":43.282637,"lon":5.350529,"is_reserved":false,"is_disabled":false,"rental_uris":{"android":"levelo://app?vid=d602462f-e16a-4727-9504-b1e588cf0d3b","ios":"levelo://app?vid=d602462f-e16a-4727-9504-b1e588cf0d3b"},"vehicle_type_id":"4","last_reported":1778427691,"current_range_meters":9200,"station_id":"ce4bhbp2rcd13ifvqerg","pricing_plan_id":"cebpf4jnsgd1na2vs0mg"},{"bike_id":"fa5fb22c-1e68-4174-84c8-3208640a3e25","system_id":"levelo_inurba_marseille","lat":43.28402,"lon":5.3499,"is_reserved":false,"is_disabled":false,"rental_uris":{"android":"levelo://app?vid=fa5fb22c-1e68-4174-84c8-3208640a3e25","ios":"levelo://app?vid=fa5fb22c-1e68-4174-84c8-3208640a3e25"},"vehicle_type_id":"4","last_reported":1778427691,"current_range_meters":9200,"station_id":"ce4bhbh2rcd13ifvqepg","pricing_plan_id":"cebpf4jnsgd1na2vs0mg"},{"bike_id":"21a7f896-b278-4e64-96ff-f2d3e49aae77","system_id":"levelo_inurba_marseille","lat":43.24624,"lon":5.4315,"is_reserved":false,"is_disabled":true,"rental_uris":{"android":"levelo://app?vid=21a7f896-b278-4e64-96ff-f2d3e49aae77","ios":"levelo://app?vid=21a7f896-b278-4e64-96ff-f2d3e49aae77"},"vehicle_type_id":"4","last_reported":1778427691,"current_range_meters":9200,"station_id":"st_d2m6c4gdas8pm72e190g","pricing_plan_id":"cebpf4jnsgd1na2vs0mg"},{"bike_id":"c09685fb-9485-4344-be1d-350a141f03bd","system_id":"levelo_inurba_marseille","lat":43.266786,"lon":5.382685,"is_reserved":false,"is_disabled":false,"rental_uris":{"android":"levelo://app?vid=c09685fb-9485-4344-be1d-350a141f03bd","ios":"levelo://app?vid=c09685fb-9485-4344-be1d-350a141f03bd"},"vehicle_type_id":"4","last_reported":1778427691,"current_range_meters":9200,"station_id":"ce4bhg92rcd13ifvqf90","pricing_plan_id":"cebpf4jnsgd1na2vs0mg"},{"bike_id":"66f9f5fa-1564-480b-8ceb-90edfa1b4d32","system_id":"levelo_inurba_marseille","lat":43.2118,"lon":5.35086,"is_reserved":false,"is_disabled":false,"rental_uris":{"android":"levelo://app?vid=66f9f5fa-1564-480b-8ceb-90edfa1b4d32","ios":"levelo://app?vid=66f9f5fa-1564-480b-8ceb-90edfa1b4d32"},"vehicle_type_id":"4","last_reported":1778427691,"current_range_meters":9200,"station_id":"st_cvj6sg6p6f1abm77japg","pricing_plan_id":"cebpf4jnsgd1na2vs0mg"},{"bike_id":"1addc021-5ffb-4681-adcd-bd9efd621fc0","system_id":"levelo_inurba_marseille","lat":43.29783,"lon":5.39346,"is_reserved":false,"is_disabled":false,"rental_uris":{"android":"levelo://app?vid=1addc021-5ffb-4681-adcd-bd9efd621fc0","ios":"levelo://app?vid=1addc021-5ffb-4681-adcd-bd9efd621fc0"},"vehicle_type_id":"4","last_reported":1778427691,"current_range_meters":9200,"station_id":"chh1huq6cuj3fo74tm60","pricing_plan_id":"cebpf4jnsgd1na2vs0mg"},{"bike_id":"e693b633-4bd6-4fda-a3ed-934fe76ccc5d","system_id":"levelo_inurba_marseille","lat":43.30182,"lon":5.36606,"is_reserved":false,"is_disabled":false,"rental_uris":{"android":"levelo://app?vid=e693b633-4bd6-4fda-a3ed-934fe76ccc5d","ios":"levelo://app?vid=e693b633-4bd6-4fda-a3ed-934fe76ccc5d"},"vehicle_type_id":"4","last_reported":1778427691,"current_range_meters":9200,"station_id":"ce4bgrh2rcd13ifvqc8g","pricing_plan_id":"cebpf4jnsgd1na2vs0mg"},{"bike_id":"7a691dfd-c72c-446b-899e-4c8b22ebb699","system_id":"levelo_inurba_marseille","lat":43.25017,"lon":5.38914,"is_reserved":false,"is_disabled":false,"rental_uris":{"android":"levelo://app?vid=7a691dfd-c72c-446b-899e-4c8b22ebb699","ios":"levelo://app?vid=7a691dfd-c72c-446b-899e-4c8b22ebb699"},"vehicle_type_id":"4","last_reported":1778427691,"current_range_meters":9200,"station_id":"ce4bhgp2rcd13ifvqfd0","pricing_plan_id":"cebpf4jnsgd1na2vs0mg"},{"bike_id":"fa97b013-cf20-4697-baec-25d48d14dd9d","system_id":"levelo_inurba_marseille","lat":43.2926,"lon":5.3844,"is_reserved":false,"is_disabled":true,"rental_uris":{"android":"levelo://app?vid=fa97b013-cf20-4697-baec-25d48d14dd9d","ios":"levelo://app?vid=fa97b013-cf20-4697-baec-25d48d14dd9d"},"vehicle_type_id":"4","last_reported":1778427691,"current_range_meters":9600,"station_id":"ce4bh692rcd13ifvqea0","pricing_plan_id":"cebpf4jnsgd1na2vs0mg"},{"bike_id":"db8a576c-9375-4aa7-a828-1b46e8e3d489","system_id":"levelo_inurba_marseille","lat":43.26067,"lon":5.39381,"is_reserved":false,"is_disabled":false,"rental_uris":{"android":"levelo://app?vid=db8a576c-9375-4aa7-a828-1b46e8e3d489","ios":"levelo://app?vid=db8a576c-9375-4aa7-a828-1b46e8e3d489"},"vehicle_type_id":"4","last_reported":1778427691,"current_range_meters":9600,"station_id":"ce4bhh92rcd13ifvqfj0","pricing_plan_id":"cebpf4jnsgd1na2vs0mg"},{"bike_id":"35f35c16-6156-42e2-a421-61b93b5f12e7","system_id":"levelo_inurba_marseille","lat":43.26059,"lon":5.39369,"is_reserved":false,"is_disabled":false,"rental_uris":{"android":"levelo://app?vid=35f35c16-6156-42e2-a421-61b93b5f12e7","ios":"levelo://app?vid=35f35c16-6156-42e2-a421-61b93b5f12e7"},"vehicle_type_id":"4","last_reported":1778427691,"current_range_meters":9600,"station_id":"ce4bhh92rcd13ifvqfj0","pricing_plan_id":"cebpf4jnsgd1na2vs0mg"},{"bike_id":"48029c3c-9371-452e-af04-97b47090f4aa","system_id":"levelo_inurba_marseille","lat":43.28447,"lon":5.39203,"is_reserved":false,"is_disabled":false,"rental_uris":{"android":"levelo://app?vid=48029c3c-9371-452e-af04-97b47090f4aa","ios":"levelo://app?vid=48029c3c-9371-452e-af04-97b47090f4aa"},"vehicle_type_id":"4","last_reported":1778427691,"current_range_meters":9600,"station_id":"ce4bhoh2rcd13ifvqh5g","pricing_plan_id":"cebpf4jnsgd1na2vs0mg"},{"bike_id":"7c0caa52-21c5-41d5-bddb-76a38bb998b8","system_id":"levelo_inurba_marseille","lat":43.29815,"lon":5.44065,"is_reserved":false,"is_disabled":false,"rental_uris":{"android":"levelo://app?vid=7c0caa52-21c5-41d5-bddb-76a38bb998b8","ios":"levelo://app?vid=7c0caa52-21c5-41d5-bddb-76a38bb998b8"},"vehicle_type_id":"4","last_reported":1778427691,"current_range_meters":9600,"station_id":"st_d3jp68qikq2c7381ktn0","pricing_plan_id":"cebpf4jnsgd1na2vs0mg"},{"bike_id":"b8253c6e-2e65-422a-b604-6720af1ef768","system_id":"levelo_inurba_marseille","lat":43.33166,"lon":5.37696,"is_reserved":false,"is_disabled":false,"rental_uris":{"android":"levelo://app?vid=b8253c6e-2e65-422a-b604-6720af1ef768","ios":"levelo://app?vid=b8253c6e-2e65-422a-b604-6720af1ef768"},"vehicle_type_id":"4","last_reported":1778427691,"current_range_meters":9600,"station_id":"st_d46cu089ee8s73dldbu0","pricing_plan_id":"cebpf4jnsgd1na2vs0mg"},{"bike_id":"57394a6b-0e54-4a7c-b04a-d450a2ab5e79","system_id":"levelo_inurba_marseille","lat":43.25508,"lon":5.37647,"is_reserved":false,"is_disabled":true,"rental_uris":{"android":"levelo://app?vid=57394a6b-0e54-4a7c-b04a-d450a2ab5e79","ios":"levelo://app?vid=57394a6b-0e54-4a7c-b04a-d450a2ab5e79"},"vehicle_type_id":"4","last_reported":1778427691,"current_range_meters":9600,"station_id":"ce4bhh12rcd13ifvqff0","pricing_plan_id":"cebpf4jnsgd1na2vs0mg"},{"bike_id":"8b197e27-4119-420a-9cf9-4f2490e68f98","system_id":"levelo_inurba_marseille","lat":43.30114,"lon":5.37398,"is_reserved":false,"is_disabled":false,"rental_uris":{"android":"levelo://app?vid=8b197e27-4119-420a-9cf9-4f2490e68f98","ios":"levelo://app?vid=8b197e27-4119-420a-9cf9-4f2490e68f98"},"vehicle_type_id":"4","last_reported":1778427691,"current_range_meters":9600,"station_id":"ce4bgs92rcd13ifvqcc0","pricing_plan_id":"cebpf4jnsgd1na2vs0mg"},{"bike_id":"522c952b-f6a9-4e5a-9c35-945728288354","system_id":"levelo_inurba_marseille","lat":43.26207,"lon":5.3745,"is_reserved":false,"is_disabled":false,"rental_uris":{"android":"levelo://app?vid=522c952b-f6a9-4e5a-9c35-945728288354","ios":"levelo://app?vid=522c952b-f6a9-4e5a-9c35-945728288354"},"vehicle_type_id":"4","last_reported":1778427691,"current_range_meters":9600,"station_id":"ce4bhgp2rcd13ifvqfc0","pricing_plan_id":"cebpf4jnsgd1na2vs0mg"},{"bike_id":"f0f401d4-150c-4cfa-919d-efdf4f923085","system_id":"levelo_inurba_marseille","lat":43.23891,"lon":5.37464,"is_reserved":false,"is_disabled":true,"rental_uris":{"android":"levelo://app?vid=f0f401d4-150c-4cfa-919d-efdf4f923085","ios":"levelo://app?vid=f0f401d4-150c-4cfa-919d-efdf4f923085"},"vehicle_type_id":"4","last_reported":1778427691,"current_range_meters":9600,"station_id":"st_d6sm7csbq4hs73f8fpjg","pricing_plan_id":"cebpf4jnsgd1na2vs0mg"},{"bike_id":"258d4e62-7ed0-412c-833a-12449f0f2867","system_id":"levelo_inurba_marseille","lat":43.32004,"lon":5.41549,"is_reserved":false,"is_disabled":false,"rental_uris":{"android":"levelo://app?vid=258d4e62-7ed0-412c-833a-12449f0f2867","ios":"levelo://app?vid=258d4e62-7ed0-412c-833a-12449f0f2867"},"vehicle_type_id":"4","last_reported":1778427691,"current_range_meters":9600,"station_id":"ce4bhq92rcd13ifvqhkg","pricing_plan_id":"cebpf4jnsgd1na2vs0mg"},{"bike_id":"97e988c6-3f99-4ecf-8ad5-d07b691a2090","system_id":"levelo_inurba_marseille","lat":43.2985,"lon":5.36305,"is_reserved":false,"is_disabled":false,"rental_uris":{"android":"levelo://app?vid=97e988c6-3f99-4ecf-8ad5-d07b691a2090","ios":"levelo://app?vid=97e988c6-3f99-4ecf-8ad5-d07b691a2090"},"vehicle_type_id":"4","last_reported":1778427691,"current_range_meters":9600,"station_id":"ce4bgpp2rcd13ifvqc3g","pricing_plan_id":"cebpf4jnsgd1na2vs0mg"},{"bike_id":"96178097-25e8-4e8a-b55e-03e212451214","system_id":"levelo_inurba_marseille","lat":43.32489,"lon":5.41463,"is_reserved":false,"is_disabled":false,"rental_uris":{"android":"levelo://app?vid=96178097-25e8-4e8a-b55e-03e212451214","ios":"levelo://app?vid=96178097-25e8-4e8a-b55e-03e212451214"},"vehicle_type_id":"4","last_reported":1778427691,"current_range_meters":9600,"station_id":"ce4bhq12rcd13ifvqhhg","pricing_plan_id":"cebpf4jnsgd1na2vs0mg"},{"bike_id":"07bab081-9195-441d-9131-ad6f73aad9d1","system_id":"levelo_inurba_marseille","lat":43.26573,"lon":5.39014,"is_reserved":false,"is_disabled":false,"rental_uris":{"android":"levelo://app?vid=07bab081-9195-441d-9131-ad6f73aad9d1","ios":"levelo://app?vid=07bab081-9195-441d-9131-ad6f73aad9d1"},"vehicle_type_id":"4","last_reported":1778427691,"current_range_meters":9600,"station_id":"ce4bhe12rcd13ifvqf30","pricing_plan_id":"cebpf4jnsgd1na2vs0mg"},{"bike_id":"08b76b8f-d54e-439b-a6d3-f08fc0226cdf","system_id":"levelo_inurba_marseille","lat":43.33036,"lon":5.39025,"is_reserved":false,"is_disabled":false,"rental_uris":{"android":"levelo://app?vid=08b76b8f-d54e-439b-a6d3-f08fc0226cdf","ios":"levelo://app?vid=08b76b8f-d54e-439b-a6d3-f08fc0226cdf"},"vehicle_type_id":"4","last_reported":1778427691,"current_range_meters":9600,"station_id":"ce4bhr92rcd13ifvqhrg","pricing_plan_id":"cebpf4jnsgd1na2vs0mg"},{"bike_id":"55f6c61f-7d61-407f-80c7-c8e09e4b0ac9","system_id":"levelo_inurba_marseille","lat":43.23891,"lon":5.37465,"is_reserved":false,"is_disabled":false,"rental_uris":{"android":"levelo://app?vid=55f6c61f-7d61-407f-80c7-c8e09e4b0ac9","ios":"levelo://app?vid=55f6c61f-7d61-407f-80c7-c8e09e4b0ac9"},"vehicle_type_id":"4","last_reported":1778427691,"current_range_meters":9600,"station_id":"st_d6sm7csbq4hs73f8fpjg","pricing_plan_id":"cebpf4jnsgd1na2vs0mg"},{"bike_id":"2080223f-ca97-4ba2-8a1d-42ec89075ad3","system_id":"levelo_inurba_marseille","lat":43.2932,"lon":5.37149,"is_reserved":false,"is_disabled":false,"rental_uris":{"android":"levelo://app?vid=2080223f-ca97-4ba2-8a1d-42ec89075ad3","ios":"levelo://app?vid=2080223f-ca97-4ba2-8a1d-42ec89075ad3"},"vehicle_type_id":"4","last_reported":1778427691,"current_range_meters":10000,"station_id":"ce4bgh92rcd13ifvqb40","pricing_plan_id":"cebpf4jnsgd1na2vs0mg"},{"bike_id":"8b637697-371a-4320-9dd5-804ddcdea538","system_id":"levelo_inurba_marseille","lat":43.26948,"lon":5.38618,"is_reserved":false,"is_disabled":false,"rental_uris":{"android":"levelo://app?vid=8b637697-371a-4320-9dd5-804ddcdea538","ios":"levelo://app?vid=8b637697-371a-4320-9dd5-804ddcdea538"},"vehicle_type_id":"4","last_reported":1778427691,"current_range_meters":10000,"station_id":"ce4bhh92rcd13ifvqfh0","pricing_plan_id":"cebpf4jnsgd1na2vs0mg"},{"bike_id":"aa77ea44-d77e-48bc-af16-69d497b15ff0","system_id":"levelo_inurba_marseille","lat":43.27066,"lon":5.38299,"is_reserved":false,"is_disabled":false,"rental_uris":{"android":"levelo://app?vid=aa77ea44-d77e-48bc-af16-69d497b15ff0","ios":"levelo://app?vid=aa77ea44-d77e-48bc-af16-69d497b15ff0"},"vehicle_type_id":"4","last_reported":1778427691,"current_range_meters":10000,"station_id":"st_d3n2fo6cfp8s73cte1j0","pricing_plan_id":"cebpf4jnsgd1na2vs0mg"},{"bike_id":"1acb59de-f9c0-4f44-8499-4cddce70eb26","system_id":"levelo_inurba_marseille","lat":43.24678,"lon":5.38228,"is_reserved":false,"is_disabled":true,"rental_uris":{"android":"levelo://app?vid=1acb59de-f9c0-4f44-8499-4cddce70eb26","ios":"levelo://app?vid=1acb59de-f9c0-4f44-8499-4cddce70eb26"},"vehicle_type_id":"4","last_reported":1778427691,"current_range_meters":10000,"station_id":"ce4bhih2rcd13ifvqfr0","pricing_plan_id":"cebpf4jnsgd1na2vs0mg"},{"bike_id":"b5b0524a-16d5-40b7-8ca1-117d09866cbf","system_id":"levelo_inurba_marseille","lat":43.33966,"lon":5.41685,"is_reserved":false,"is_disabled":false,"rental_uris":{"android":"levelo://app?vid=b5b0524a-16d5-40b7-8ca1-117d09866cbf","ios":"levelo://app?vid=b5b0524a-16d5-40b7-8ca1-117d09866cbf"},"vehicle_type_id":"4","last_reported":1778427691,"current_range_meters":10000,"station_id":"","pricing_plan_id":"cebpf4jnsgd1na2vs0mg"},{"bike_id":"afcb0074-1dd4-41dd-9cb8-4206ebbd1aa7","system_id":"levelo_inurba_marseille","lat":43.239658,"lon":5.366272,"is_reserved":false,"is_disabled":false,"rental_uris":{"android":"levelo://app?vid=afcb0074-1dd4-41dd-9cb8-4206ebbd1aa7","ios":"levelo://app?vid=afcb0074-1dd4-41dd-9cb8-4206ebbd1aa7"},"vehicle_type_id":"4","last_reported":1778427691,"current_range_meters":10000,"station_id":"ce4bhi12rcd13ifvqfp0","pricing_plan_id":"cebpf4jnsgd1na2vs0mg"},{"bike_id":"635e37d3-7b93-4e97-82bd-bbf4c4561837","system_id":"levelo_inurba_marseille","lat":43.32238,"lon":5.36884,"is_reserved":false,"is_disabled":false,"rental_uris":{"android":"levelo://app?vid=635e37d3-7b93-4e97-82bd-bbf4c4561837","ios":"levelo://app?vid=635e37d3-7b93-4e97-82bd-bbf4c4561837"},"vehicle_type_id":"4","last_reported":1778427691,"current_range_meters":10000,"station_id":"","pricing_plan_id":"cebpf4jnsgd1na2vs0mg"},{"bike_id":"75d44f43-cf7b-4662-8428-a2cc94a2980d","system_id":"levelo_inurba_marseille","lat":43.28858,"lon":5.42516,"is_reserved":false,"is_disabled":false,"rental_uris":{"android":"levelo://app?vid=75d44f43-cf7b-4662-8428-a2cc94a2980d","ios":"levelo://app?vid=75d44f43-cf7b-4662-8428-a2cc94a2980d"},"vehicle_type_id":"4","last_reported":1778427691,"current_range_meters":10000,"station_id":"st_d3b462108ojc7389ooeg","pricing_plan_id":"cebpf4jnsgd1na2vs0mg"},{"bike_id":"de5e63f3-90b9-4eb1-8a88-6b8b6b27e91d","system_id":"levelo_inurba_marseille","lat":43.23194,"lon":5.35615,"is_reserved":false,"is_disabled":true,"rental_uris":{"android":"levelo://app?vid=de5e63f3-90b9-4eb1-8a88-6b8b6b27e91d","ios":"levelo://app?vid=de5e63f3-90b9-4eb1-8a88-6b8b6b27e91d"},"vehicle_type_id":"4","last_reported":1778427691,"current_range_meters":10000,"station_id":"ce4bhu92rcd13ifvqi70","pricing_plan_id":"cebpf4jnsgd1na2vs0mg"},{"bike_id":"74ea9878-b5dc-4f8d-a818-0e6f4923c0b9","system_id":"levelo_inurba_marseille","lat":43.267885,"lon":5.394128,"is_reserved":false,"is_disabled":false,"rental_uris":{"android":"levelo://app?vid=74ea9878-b5dc-4f8d-a818-0e6f4923c0b9","ios":"levelo://app?vid=74ea9878-b5dc-4f8d-a818-0e6f4923c0b9"},"vehicle_type_id":"4","last_reported":1778427691,"current_range_meters":10000,"station_id":"ce4bhh12rcd13ifvqfg0","pricing_plan_id":"cebpf4jnsgd1na2vs0mg"},{"bike_id":"0eb1f0be-171b-438d-9494-79347ecbfe25","system_id":"levelo_inurba_marseille","lat":43.28622,"lon":5.35122,"is_reserved":false,"is_disabled":false,"rental_uris":{"android":"levelo://app?vid=0eb1f0be-171b-438d-9494-79347ecbfe25","ios":"levelo://app?vid=0eb1f0be-171b-438d-9494-79347ecbfe25"},"vehicle_type_id":"4","last_reported":1778427691,"current_range_meters":10000,"station_id":"ce4bhch2rcd13ifvqeug","pricing_plan_id":"cebpf4jnsgd1na2vs0mg"},{"bike_id":"36df636f-45a4-464f-bfd3-12c28a987630","system_id":"levelo_inurba_marseille","lat":43.27999,"lon":5.40026,"is_reserved":false,"is_disabled":false,"rental_uris":{"android":"levelo://app?vid=36df636f-45a4-464f-bfd3-12c28a987630","ios":"levelo://app?vid=36df636f-45a4-464f-bfd3-12c28a987630"},"vehicle_type_id":"4","last_reported":1778427691,"current_range_meters":10000,"station_id":"ce4bho92rcd13ifvqh4g","pricing_plan_id":"cebpf4jnsgd1na2vs0mg"},{"bike_id":"6724dbc1-5086-4123-80bf-035e99fd8d51","system_id":"levelo_inurba_marseille","lat":43.26069,"lon":5.39381,"is_reserved":false,"is_disabled":false,"rental_uris":{"android":"levelo://app?vid=6724dbc1-5086-4123-80bf-035e99fd8d51","ios":"levelo://app?vid=6724dbc1-5086-4123-80bf-035e99fd8d51"},"vehicle_type_id":"4","last_reported":1778427691,"current_range_meters":10800,"station_id":"ce4bhh92rcd13ifvqfj0","pricing_plan_id":"cebpf4jnsgd1na2vs0mg"},{"bike_id":"74c9276e-bf9a-48c3-9e42-36092b4b8ec7","system_id":"levelo_inurba_marseille","lat":43.30538,"lon":5.36519,"is_reserved":false,"is_disabled":false,"rental_uris":{"android":"levelo://app?vid=74c9276e-bf9a-48c3-9e42-36092b4b8ec7","ios":"levelo://app?vid=74c9276e-bf9a-48c3-9e42-36092b4b8ec7"},"vehicle_type_id":"4","last_reported":1778427691,"current_range_meters":10800,"station_id":"ce4bgs12rcd13ifvqcag","pricing_plan_id":"cebpf4jnsgd1na2vs0mg"},