{"last_updated":1749676213,"ttl":60,"version":"2.2","data":{"bikes":[{"bike_id":"b31f0139-170f-4194-984f-4386218a1e9d","system_id":"levelo_inurba_marseille","lat":43.33771,"lon":5.37424,"is_reserved":false,"is_disabled":true,"rental_uris":{"android":"levelo://app?vid=b31f0139-170f-4194-984f-4386218a1e9d","ios":"levelo://app?vid=b31f0139-170f-4194-984f-4386218a1e9d"},"vehicle_type_id":"4","last_reported":1749676213,"current_range_meters":0,"station_id":"","pricing_plan_id":"cebpf4jnsgd1na2vs0mg"},{"bike_id":"1acfb620-cad7-48c0-8901-d7a5b74a5b65","system_id":"levelo_inurba_marseille","lat":43.33751,"lon":5.37456,"is_reserved":false,"is_disabled":false,"rental_uris":{"android":"levelo://app?vid=1acfb620-cad7-48c0-8901-d7a5b74a5b65","ios":"levelo://app?vid=1acfb620-cad7-48c0-8901-d7a5b74a5b65"},"vehicle_type_id":"4","last_reported":1749676213,"current_range_meters":11200,"station_id":"","pricing_plan_id":"cebpf4jnsgd1na2vs0mg"},{"bike_id":"2add4495-ac90-463d-867d-acf170a6a28d","system_id":"levelo_inurba_marseille","lat":43.337499,"lon":5.374469,"is_reserved":false,"is_disabled":true,"rental_uris":{"android":"levelo://app?vid=2add4495-ac90-463d-867d-acf170a6a28d","ios":"levelo://app?vid=2add4495-ac90-463d-867d-acf170a6a28d"},"vehicle_type_id":"4","last_reported":1749676213,"current_range_meters":0,"station_id":"","pricing_plan_id":"cebpf4jnsgd1na2vs0mg"},{"bike_id":"bf89d78c-eb96-40d5-beb0-f402ef102cc1","system_id":"levelo_inurba_marseille","lat":43.337444,"lon":5.374475,"is_reserved":false,"is_disabled":true,"rental_uris":{"android":"levelo://app?vid=bf89d78c-eb96-40d5-beb0-f402ef102cc1","ios":"levelo://app?vid=bf89d78c-eb96-40d5-beb0-f402ef102cc1"},"vehicle_type_id":"4","last_reported":1749676213,"current_range_meters":0,"station_id":"","pricing_plan_id":"cebpf4jnsgd1na2vs0mg"},{"bike_id":"c66e000c-2aa1-49f0-87d5-e55349a0c1a8","system_id":"levelo_inurba_marseille","lat":43.31962,"lon":5.37413,"is_reserved":false,"is_disabled":true,"rental_uris":{"android":"levelo://app?vid=c66e000c-2aa1-49f0-87d5-e55349a0c1a8","ios":"levelo://app?vid=c66e000c-2aa1-49f0-87d5-e55349a0c1a8"},"vehicle_type_id":"4","last_reported":1749676213,"current_range_meters":0,"station_id":"","pricing_plan_id":"cebpf4jnsgd1na2vs0mg"},{"bike_id":"2fb1f445-0c17-42a7-8ba5-eed28cb31ea0","system_id":"levelo_inurba_marseille","lat":43.29737,"lon":5.36237,"is_reserved":false,"is_disabled":true,"rental_uris":{"android":"levelo://app?vid=2fb1f445-0c17-42a7-8ba5-eed28cb31ea0","ios":"levelo://app?vid=2fb1f445-0c17-42a7-8ba5-eed28cb31ea0"},"vehicle_type_id":"4","last_reported":1749676213,"current_range_meters":0,"station_id":"","pricing_plan_id":"cebpf4jnsgd1na2vs0mg"},{"bike_id":"78a3b051-1d76-41f7-a264-df07ffa40f1e","system_id":"levelo_inurba_marseille","lat":43.25316,"lon":5.39379,"is_reserved":false,"is_disabled":true,"rental_uris":{"android":"levelo://app?vid=78a3b051-1d76-41f7-a264-df07ffa40f1e","ios":"levelo://app?vid=78a3b051-1d76-41f7-a264-df07ffa40f1e"},"vehicle_type_id":"4","last_reported":1749676213,"current_range_meters":0,"station_id":"","pricing_plan_id":"cebpf4jnsgd1na2vs0mg"},{"bike_id":"9e55e93e-42c5-4c2c-9154-2d3c316cb5d9","system_id":"levelo_inurba_marseille","lat":43.31852,"lon":5.39376,"is_reserved":false,"is_disabled":true,"rental_uris":{"android":"levelo://app?vid=9e55e93e-42c5-4c2c-9154-2d3c316cb5d9","ios":"levelo://app?vid=9e55e93e-42c5-4c2c-9154-2d3c316cb5d9"},"vehicle_type_id":"4","last_reported":1749676213,"current_range_meters":0,"station_id":"","pricing_plan_id":"cebpf4jnsgd1na2vs0mg"},{"bike_id":"492f4bbd-1190-4ef2-b66a-479ffe91b09b","system_id":"levelo_inurba_marseille","lat":43.337444,"lon":5.374475,"is_reserved":false,"is_disabled":true,"rental_uris":{"android":"levelo://app?vid=492f4bbd-1190-4ef2-b66a-479ffe91b09b","ios":"levelo://app?vid=492f4bbd-1190-4ef2-b66a-479ffe91b09b"},"vehicle_type_id":"4","last_reported":1749676213,"current_range_meters":0,"station_id":"","pricing_plan_id":"cebpf4jnsgd1na2vs0mg"},{"bike_id":"55adb70c-4078-4422-9c2e-03d35abc6bf3","system_id":"levelo_inurba_marseille","lat":43.314884,"lon":5.373078,"is_reserved":false,"is_disabled":true,"rental_uris":{"android":"levelo://app?vid=55adb70c-4078-4422-9c2e-03d35abc6bf3","ios":"levelo://app?vid=55adb70c-4078-4422-9c2e-03d35abc6bf3"},"vehicle_type_id":"4","last_reported":1749676213,"current_range_meters":0,"station_id":"ce4bgt12rcd13ifvqcd0","pricing_plan_id":"cebpf4jnsgd1na2vs0mg"},{"bike_id":"9b1d68d0-40dc-40bd-a200-2e6aca5d5c88","system_id":"levelo_inurba_marseille","lat":43.314986,"lon":5.373119,"is_reserved":false,"is_disabled":true,"rental_uris":{"android":"levelo://app?vid=9b1d68d0-40dc-40bd-a200-2e6aca5d5c88","ios":"levelo://app?vid=9b1d68d0-40dc-40bd-a200-2e6aca5d5c88"},"vehicle_type_id":"4","last_reported":1749676213,"current_range_meters":0,"station_id":"ce4bgt12rcd13ifvqcd0","pricing_plan_id":"cebpf4jnsgd1na2vs0mg"},{"bike_id":"27c3ecdf-bedf-48bf-8a6a-bb9c4a34cd78","system_id":"levelo_inurba_marseille","lat":43.30878,"lon":5.39659,"is_reserved":false,"is_disabled":true,"rental_uris":{"android":"levelo://app?vid=27c3ecdf-bedf-48bf-8a6a-bb9c4a34cd78","ios":"levelo://app?vid=27c3ecdf-bedf-48bf-8a6a-bb9c4a34cd78"},"vehicle_type_id":"4","last_reported":1749676213,"current_range_meters":0,"station_id":"ce4bh012rcd13ifvqcv0","pricing_plan_id":"cebpf4jnsgd1na2vs0mg"},{"bike_id":"4514696d-9427-4e80-98fe-d6535fa1ba38","system_id":"levelo_inurba_marseille","lat":43.29628,"lon":5.40594,"is_reserved":false,"is_disabled":true,"rental_uris":{"android":"levelo://app?vid=4514696d-9427-4e80-98fe-d6535fa1ba38","ios":"levelo://app?vid=4514696d-9427-4e80-98fe-d6535fa1ba38"},"vehicle_type_id":"4","last_reported":1749676213,"current_range_meters":0,"station_id":"ce4bh0h2rcd13ifvqd60","pricing_plan_id":"cebpf4jnsgd1na2vs0mg"},{"bike_id":"3f635ad6-4538-45b1-9159-384c87a3ddc2","system_id":"levelo_inurba_marseille","lat":43.284002,"lon":5.375038,"is_reserved":false,"is_disabled":true,"rental_uris":{"android":"levelo://app?vid=3f635ad6-4538-45b1-9159-384c87a3ddc2","ios":"levelo://app?vid=3f635ad6-4538-45b1-9159-384c87a3ddc2"},"vehicle_type_id":"4","last_reported":1749676213,"current_range_meters":0,"station_id":"ce4bh2h2rcd13ifvqdh0","pricing_plan_id":"cebpf4jnsgd1na2vs0mg"},{"bike_id":"bee40f1b-321f-473f-b98b-f85529499736","system_id":"levelo_inurba_marseille","lat":43.28271,"lon":5.35061,"is_reserved":false,"is_disabled":true,"rental_uris":{"android":"levelo://app?vid=bee40f1b-321f-473f-b98b-f85529499736","ios":"levelo://app?vid=bee40f1b-321f-473f-b98b-f85529499736"},"vehicle_type_id":"4","last_reported":1749676213,"current_range_meters":0,"station_id":"ce4bhbp2rcd13ifvqerg","pricing_plan_id":"cebpf4jnsgd1na2vs0mg"},{"bike_id":"c2b5a2e0-dd52-4125-bfc3-5f3bf5c7cb49","system_id":"levelo_inurba_marseille","lat":43.26956,"lon":5.38639,"is_reserved":false,"is_disabled":true,"rental_uris":{"android":"levelo://app?vid=c2b5a2e0-dd52-4125-bfc3-5f3bf5c7cb49","ios":"levelo://app?vid=c2b5a2e0-dd52-4125-bfc3-5f3bf5c7cb49"},"vehicle_type_id":"4","last_reported":1749676213,"current_range_meters":0,"station_id":"ce4bhh92rcd13ifvqfh0","pricing_plan_id":"cebpf4jnsgd1na2vs0mg"},{"bike_id":"97d081d4-21ea-4318-8cec-119e0696eed0","system_id":"levelo_inurba_marseille","lat":43.27175,"lon":5.40997,"is_reserved":false,"is_disabled":true,"rental_uris":{"android":"levelo://app?vid=97d081d4-21ea-4318-8cec-119e0696eed0","ios":"levelo://app?vid=97d081d4-21ea-4318-8cec-119e0696eed0"},"vehicle_type_id":"4","last_reported":1749676213,"current_range_meters":0,"station_id":"ce4bhl12rcd13ifvqgf0","pricing_plan_id":"cebpf4jnsgd1na2vs0mg"},{"bike_id":"084d3747-180e-4f96-975c-4f6b199ba953","system_id":"levelo_inurba_marseille","lat":43.28148,"lon":5.42635,"is_reserved":false,"is_disabled":true,"rental_uris":{"android":"levelo://app?vid=084d3747-180e-4f96-975c-4f6b199ba953","ios":"levelo://app?vid=084d3747-180e-4f96-975c-4f6b199ba953"},"vehicle_type_id":"4","last_reported":1749676213,"current_range_meters":0,"station_id":"ce4bhnh2rcd13ifvqgug","pricing_plan_id":"cebpf4jnsgd1na2vs0mg"},{"bike_id":"ca6df3d9-d4af-470a-82cd-b5e969e09c9b","system_id":"levelo_inurba_marseille","lat":43.21748,"lon":5.34601,"is_reserved":false,"is_disabled":true,"rental_uris":{"android":"levelo://app?vid=ca6df3d9-d4af-470a-82cd-b5e969e09c9b","ios":"levelo://app?vid=ca6df3d9-d4af-470a-82cd-b5e969e09c9b"},"vehicle_type_id":"4","last_reported":1749676213,"current_range_meters":0,"station_id":"st_cvj6r9ubvosntc0bgbag","pricing_plan_id":"cebpf4jnsgd1na2vs0mg"},{"bike_id":"8e6c3109-c23a-41fc-8fce-e3ee49a6985b","system_id":"levelo_inurba_marseille","lat":43.29526,"lon":5.3901,"is_reserved":false,"is_disabled":true,"rental_uris":{"android":"levelo://app?vid=8e6c3109-c23a-41fc-8fce-e3ee49a6985b","ios":"levelo://app?vid=8e6c3109-c23a-41fc-8fce-e3ee49a6985b"},"vehicle_type_id":"4","last_reported":1749676213,"current_range_meters":400,"station_id":"ce4bh3p2rcd13ifvqdp0","pricing_plan_id":"cebpf4jnsgd1na2vs0mg"},{"bike_id":"04d5afe9-f49d-4c81-9807-c2e359934071","system_id":"levelo_inurba_marseille","lat":43.2801,"lon":5.41672,"is_reserved":false,"is_disabled":true,"rental_uris":{"android":"levelo://app?vid=04d5afe9-f49d-4c81-9807-c2e359934071","ios":"levelo://app?vid=04d5afe9-f49d-4c81-9807-c2e359934071"},"vehicle_type_id":"4","last_reported":1749676213,"current_range_meters":800,"station_id":"ce4bho12rcd13ifvqh1g","pricing_plan_id":"cebpf4jnsgd1na2vs0mg"},{"bike_id":"fe0a3841-1877-4fb7-b244-9bcbe5307971","system_id":"levelo_inurba_marseille","lat":43.33721,"lon":5.39192,"is_reserved":false,"is_disabled":true,"rental_uris":{"android":"levelo://app?vid=fe0a3841-1877-4fb7-b244-9bcbe5307971","ios":"levelo://app?vid=fe0a3841-1877-4fb7-b244-9bcbe5307971"},"vehicle_type_id":"4","last_reported":1749676213,"current_range_meters":800,"station_id":"ce4bhr92rcd13ifvqhsg","pricing_plan_id":"cebpf4jnsgd1na2vs0mg"},{"bike_id":"ce526313-e4c7-47eb-856f-183916936663","system_id":"levelo_inurba_marseille","lat":43.26212,"lon":5.39552,"is_reserved":false,"is_disabled":true,"rental_uris":{"android":"levelo://app?vid=ce526313-e4c7-47eb-856f-183916936663","ios":"levelo://app?vid=ce526313-e4c7-47eb-856f-183916936663"},"vehicle_type_id":"4","last_reported":1749676213,"current_range_meters":1200,"station_id":"","pricing_plan_id":"cebpf4jnsgd1na2vs0mg"},{"bike_id":"00486041-c003-4d7a-a753-0aa12c4f58e0","system_id":"levelo_inurba_marseille","lat":43.30884,"lon":5.39656,"is_reserved":false,"is_disabled":true,"rental_uris":{"android":"levelo://app?vid=00486041-c003-4d7a-a753-0aa12c4f58e0","ios":"levelo://app?vid=00486041-c003-4d7a-a753-0aa12c4f58e0"},"vehicle_type_id":"4","last_reported":1749676213,"current_range_meters":1200,"station_id":"ce4bh012rcd13ifvqcv0","pricing_plan_id":"cebpf4jnsgd1na2vs0mg"},{"bike_id":"b3051ef6-e2d2-4a39-8a1c-081c498d94f7","system_id":"levelo_inurba_marseille","lat":43.28079,"lon":5.396588,"is_reserved":false,"is_disabled":true,"rental_uris":{"android":"levelo://app?vid=b3051ef6-e2d2-4a39-8a1c-081c498d94f7","ios":"levelo://app?vid=b3051ef6-e2d2-4a39-8a1c-081c498d94f7"},"vehicle_type_id":"4","last_reported":1749676213,"current_range_meters":1200,"station_id":"ce4bho12rcd13ifvqh2g","pricing_plan_id":"cebpf4jnsgd1na2vs0mg"},{"bike_id":"e2834800-ebbf-4d0a-9068-3bb0c676f2e4","system_id":"levelo_inurba_marseille","lat":43.31711,"lon":5.43712,"is_reserved":false,"is_disabled":true,"rental_uris":{"android":"levelo://app?vid=e2834800-ebbf-4d0a-9068-3bb0c676f2e4","ios":"levelo://app?vid=e2834800-ebbf-4d0a-9068-3bb0c676f2e4"},"vehicle_type_id":"4","last_reported":1749676213,"current_range_meters":1600,"station_id":"ce4bhp92rcd13ifvqhcg","pricing_plan_id":"cebpf4jnsgd1na2vs0mg"},{"bike_id":"bad08a73-6d64-43e6-9a39-098dfcc0dc7d","system_id":"levelo_inurba_marseille","lat":43.32058,"lon":5.41599,"is_reserved":false,"is_disabled":true,"rental_uris":{"android":"levelo://app?vid=bad08a73-6d64-43e6-9a39-098dfcc0dc7d","ios":"levelo://app?vid=bad08a73-6d64-43e6-9a39-098dfcc0dc7d"},"vehicle_type_id":"4","last_reported":1749676213,"current_range_meters":1600,"station_id":"ce4bhq92rcd13ifvqhkg","pricing_plan_id":"cebpf4jnsgd1na2vs0mg"},{"bike_id":"71a6ad24-4e18-4bd8-917d-5666aa0c4d76","system_id":"levelo_inurba_marseille","lat":43.33768,"lon":5.37487,"is_reserved":false,"is_disabled":false,"rental_uris":{"android":"levelo://app?vid=71a6ad24-4e18-4bd8-917d-5666aa0c4d76","ios":"levelo://app?vid=71a6ad24-4e18-4bd8-917d-5666aa0c4d76"},"vehicle_type_id":"4","last_reported":1749676213,"current_range_meters":2800,"station_id":"","pricing_plan_id":"cebpf4jnsgd1na2vs0mg"},{"bike_id":"a408b8d7-a603-4f1e-b750-814a2b8aa8d7","system_id":"levelo_inurba_marseille","lat":43.31167,"lon":5.38719,"is_reserved":false,"is_disabled":false,"rental_uris":{"android":"levelo://app?vid=a408b8d7-a603-4f1e-b750-814a2b8aa8d7","ios":"levelo://app?vid=a408b8d7-a603-4f1e-b750-814a2b8aa8d7"},"vehicle_type_id":"4","last_reported":1749676213,"current_range_meters":2800,"station_id":"ce4bgv12rcd13ifvqcp0","pricing_plan_id":"cebpf4jnsgd1na2vs0mg"},{"bike_id":"bb53fc53-0a43-4824-ac52-45d997f19f41","system_id":"levelo_inurba_marseille","lat":43.29258,"lon":5.40905,"is_reserved":false,"is_disabled":false,"rental_uris":{"android":"levelo://app?vid=bb53fc53-0a43-4824-ac52-45d997f19f41","ios":"levelo://app?vid=bb53fc53-0a43-4824-ac52-45d997f19f41"},"vehicle_type_id":"4","last_reported":1749676213,"current_range_meters":2800,"station_id":"ce4bh192rcd13ifvqdc0","pricing_plan_id":"cebpf4jnsgd1na2vs0mg"},{"bike_id":"37fe0c8d-87af-4346-9990-a25dd5a4d462","system_id":"levelo_inurba_marseille","lat":43.31552,"lon":5.38931,"is_reserved":false,"is_disabled":false,"rental_uris":{"android":"levelo://app?vid=37fe0c8d-87af-4346-9990-a25dd5a4d462","ios":"levelo://app?vid=37fe0c8d-87af-4346-9990-a25dd5a4d462"},"vehicle_type_id":"4","last_reported":1749676213,"current_range_meters":3600,"station_id":"","pricing_plan_id":"cebpf4jnsgd1na2vs0mg"},{"bike_id":"2e4febba-9a16-42e9-add0-2bacbd56ef0a","system_id":"levelo_inurba_marseille","lat":43.29634,"lon":5.406,"is_reserved":false,"is_disabled":false,"rental_uris":{"android":"levelo://app?vid=2e4febba-9a16-42e9-add0-2bacbd56ef0a","ios":"levelo://app?vid=2e4febba-9a16-42e9-add0-2bacbd56ef0a"},"vehicle_type_id":"4","last_reported":1749676213,"current_range_meters":3600,"station_id":"ce4bh0h2rcd13ifvqd60","pricing_plan_id":"cebpf4jnsgd1na2vs0mg"},{"bike_id":"08d0471b-1fa3-4842-aead-d976fa7f0b26","system_id":"levelo_inurba_marseille","lat":43.27814,"lon":5.40698,"is_reserved":false,"is_disabled":false,"rental_uris":{"android":"levelo://app?vid=08d0471b-1fa3-4842-aead-d976fa7f0b26","ios":"levelo://app?vid=08d0471b-1fa3-4842-aead-d976fa7f0b26"},"vehicle_type_id":"4","last_reported":1749676213,"current_range_meters":3600,"station_id":"ce4bhnh2rcd13ifvqgtg","pricing_plan_id":"cebpf4jnsgd1na2vs0mg"},{"bike_id":"c77a0479-14d9-49e2-85a0-f226a8a9771d","system_id":"levelo_inurba_marseille","lat":43.28697,"lon":5.39981,"is_reserved":false,"is_disabled":false,"rental_uris":{"android":"levelo://app?vid=c77a0479-14d9-49e2-85a0-f226a8a9771d","ios":"levelo://app?vid=c77a0479-14d9-49e2-85a0-f226a8a9771d"},"vehicle_type_id":"4","last_reported":1749676213,"current_range_meters":3600,"station_id":"ce4bho92rcd13ifvqh3g","pricing_plan_id":"cebpf4jnsgd1na2vs0mg"},{"bike_id":"07996148-05a2-4174-ba1b-1b7bdfa0b1be","system_id":"levelo_inurba_marseille","lat":43.32475,"lon":5.36576,"is_reserved":false,"is_disabled":false,"rental_uris":{"android":"levelo://app?vid=07996148-05a2-4174-ba1b-1b7bdfa0b1be","ios":"levelo://app?vid=07996148-05a2-4174-ba1b-1b7bdfa0b1be"},"vehicle_type_id":"4","last_reported":1749676213,"current_range_meters":3600,"station_id":"ce4bhs12rcd13ifvqhvg","pricing_plan_id":"cebpf4jnsgd1na2vs0mg"},{"bike_id":"423dbf08-5478-4a5d-ba24-f1c1c64b2a0f","system_id":"levelo_inurba_marseille","lat":43.23061,"lon":5.35491,"is_reserved":false,"is_disabled":false,"rental_uris":{"android":"levelo://app?vid=423dbf08-5478-4a5d-ba24-f1c1c64b2a0f","ios":"levelo://app?vid=423dbf08-5478-4a5d-ba24-f1c1c64b2a0f"},"vehicle_type_id":"4","last_reported":1749676213,"current_range_meters":3600,"station_id":"cpo3342slgdg3j2ifvpg","pricing_plan_id":"cebpf4jnsgd1na2vs0mg"},{"bike_id":"352eeac2-f340-4bf0-82cc-bf2e8b05ac32","system_id":"levelo_inurba_marseille","lat":43.28569,"lon":5.39504,"is_reserved":false,"is_disabled":false,"rental_uris":{"android":"levelo://app?vid=352eeac2-f340-4bf0-82cc-bf2e8b05ac32","ios":"levelo://app?vid=352eeac2-f340-4bf0-82cc-bf2e8b05ac32"},"vehicle_type_id":"4","last_reported":1749676213,"current_range_meters":4000,"station_id":"ce4bh292rcd13ifvqdg0","pricing_plan_id":"cebpf4jnsgd1na2vs0mg"},{"bike_id":"f54c3c1e-7c0d-42aa-904d-30d7dcd09ad2","system_id":"levelo_inurba_marseille","lat":43.28407,"lon":5.37524,"is_reserved":false,"is_disabled":false,"rental_uris":{"android":"levelo://app?vid=f54c3c1e-7c0d-42aa-904d-30d7dcd09ad2","ios":"levelo://app?vid=f54c3c1e-7c0d-42aa-904d-30d7dcd09ad2"},"vehicle_type_id":"4","last_reported":1749676213,"current_range_meters":4000,"station_id":"ce4bh412rcd13ifvqds0","pricing_plan_id":"cebpf4jnsgd1na2vs0mg"},{"bike_id":"2c78be73-fea8-4756-8263-a3055000d1fd","system_id":"levelo_inurba_marseille","lat":43.28844,"lon":5.39297,"is_reserved":false,"is_disabled":false,"rental_uris":{"android":"levelo://app?vid=2c78be73-fea8-4756-8263-a3055000d1fd","ios":"levelo://app?vid=2c78be73-fea8-4756-8263-a3055000d1fd"},"vehicle_type_id":"4","last_reported":1749676213,"current_range_meters":4400,"station_id":"ce4bh2p2rcd13ifvqdi0","pricing_plan_id":"cebpf4jnsgd1na2vs0mg"},{"bike_id":"363f5577-43ff-4826-877e-71480d24717f","system_id":"levelo_inurba_marseille","lat":43.27839,"lon":5.39198,"is_reserved":false,"is_disabled":false,"rental_uris":{"android":"levelo://app?vid=363f5577-43ff-4826-877e-71480d24717f","ios":"levelo://app?vid=363f5577-43ff-4826-877e-71480d24717f"},"vehicle_type_id":"4","last_reported":1749676213,"current_range_meters":4400,"station_id":"ce4bhjp2rcd13ifvqga0","pricing_plan_id":"cebpf4jnsgd1na2vs0mg"},{"bike_id":"be167491-54ab-41fe-bb9d-84b23663f348","system_id":"levelo_inurba_marseille","lat":43.27809,"lon":5.40707,"is_reserved":false,"is_disabled":false,"rental_uris":{"android":"levelo://app?vid=be167491-54ab-41fe-bb9d-84b23663f348","ios":"levelo://app?vid=be167491-54ab-41fe-bb9d-84b23663f348"},"vehicle_type_id":"4","last_reported":1749676213,"current_range_meters":4400,"station_id":"ce4bhnh2rcd13ifvqgtg","pricing_plan_id":"cebpf4jnsgd1na2vs0mg"},{"bike_id":"3cf42530-d41c-4a91-9f99-0f6700f5551d","system_id":"levelo_inurba_marseille","lat":43.274742,"lon":5.415098,"is_reserved":false,"is_disabled":false,"rental_uris":{"android":"levelo://app?vid=3cf42530-d41c-4a91-9f99-0f6700f5551d","ios":"levelo://app?vid=3cf42530-d41c-4a91-9f99-0f6700f5551d"},"vehicle_type_id":"4","last_reported":1749676213,"current_range_meters":4800,"station_id":"","pricing_plan_id":"cebpf4jnsgd1na2vs0mg"},{"bike_id":"2ad3e8a4-3408-424c-96e1-ff72bb56c425","system_id":"levelo_inurba_marseille","lat":43.31174,"lon":5.38719,"is_reserved":false,"is_disabled":false,"rental_uris":{"android":"levelo://app?vid=2ad3e8a4-3408-424c-96e1-ff72bb56c425","ios":"levelo://app?vid=2ad3e8a4-3408-424c-96e1-ff72bb56c425"},"vehicle_type_id":"4","last_reported":1749676213,"current_range_meters":4800,"station_id":"ce4bgv12rcd13ifvqcp0","pricing_plan_id":"cebpf4jnsgd1na2vs0mg"},{"bike_id":"5e7f392f-f07f-4401-a654-ce21d48c9137","system_id":"levelo_inurba_marseille","lat":43.30133,"lon":5.39883,"is_reserved":false,"is_disabled":false,"rental_uris":{"android":"levelo://app?vid=5e7f392f-f07f-4401-a654-ce21d48c9137","ios":"levelo://app?vid=5e7f392f-f07f-4401-a654-ce21d48c9137"},"vehicle_type_id":"4","last_reported":1749676213,"current_range_meters":4800,"station_id":"ce4bh0h2rcd13ifvqd40","pricing_plan_id":"cebpf4jnsgd1na2vs0mg"},{"bike_id":"c79612c8-b245-4c95-9d3b-769370e42cf8","system_id":"levelo_inurba_marseille","lat":43.25114,"lon":5.40322,"is_reserved":false,"is_disabled":false,"rental_uris":{"android":"levelo://app?vid=c79612c8-b245-4c95-9d3b-769370e42cf8","ios":"levelo://app?vid=c79612c8-b245-4c95-9d3b-769370e42cf8"},"vehicle_type_id":"4","last_reported":1749676213,"current_range_meters":4800,"station_id":"ce4bhlh2rcd13ifvqgig","pricing_plan_id":"cebpf4jnsgd1na2vs0mg"},{"bike_id":"943d9a6c-6d13-4203-adf8-702de2889dae","system_id":"levelo_inurba_marseille","lat":43.274982,"lon":5.424498,"is_reserved":false,"is_disabled":false,"rental_uris":{"android":"levelo://app?vid=943d9a6c-6d13-4203-adf8-702de2889dae","ios":"levelo://app?vid=943d9a6c-6d13-4203-adf8-702de2889dae"},"vehicle_type_id":"4","last_reported":1749676213,"current_range_meters":4800,"station_id":"ce4bhn92rcd13ifvqgrg","pricing_plan_id":"cebpf4jnsgd1na2vs0mg"},{"bike_id":"5af8f883-5e73-4f6e-8a50-74328fd7d797","system_id":"levelo_inurba_marseille","lat":43.27804,"lon":5.40714,"is_reserved":false,"is_disabled":false,"rental_uris":{"android":"levelo://app?vid=5af8f883-5e73-4f6e-8a50-74328fd7d797","ios":"levelo://app?vid=5af8f883-5e73-4f6e-8a50-74328fd7d797"},"vehicle_type_id":"4","last_reported":1749676213,"current_range_meters":4800,"station_id":"ce4bhnh2rcd13ifvqgtg","pricing_plan_id":"cebpf4jnsgd1na2vs0mg"},{"bike_id":"1b12756f-c88e-4d3e-a14c-8d734714c09a","system_id":"levelo_inurba_marseille","lat":43.28698,"lon":5.39976,"is_reserved":false,"is_disabled":false,"rental_uris":{"android":"levelo://app?vid=1b12756f-c88e-4d3e-a14c-8d734714c09a","ios":"levelo://app?vid=1b12756f-c88e-4d3e-a14c-8d734714c09a"},"vehicle_type_id":"4","last_reported":1749676213,"current_range_meters":4800,"station_id":"ce4bho92rcd13ifvqh3g","pricing_plan_id":"cebpf4jnsgd1na2vs0mg"},{"bike_id":"a9334c0d-cdfc-464f-8eab-e98192ed3454","system_id":"levelo_inurba_marseille","lat":43.29243,"lon":5.39933,"is_reserved":false,"is_disabled":false,"rental_uris":{"android":"levelo://app?vid=a9334c0d-cdfc-464f-8eab-e98192ed3454","ios":"levelo://app?vid=a9334c0d-cdfc-464f-8eab-e98192ed3454"},"vehicle_type_id":"4","last_reported":1749676213,"current_range_meters":5600,"station_id":"","pricing_plan_id":"cebpf4jnsgd1na2vs0mg"},{"bike_id":"6dc9f382-50fa-4d1f-b08c-12f3bb4a7055","system_id":"levelo_inurba_marseille","lat":43.30434,"lon":5.38885,"is_reserved":false,"is_disabled":false,"rental_uris":{"android":"levelo://app?vid=6dc9f382-50fa-4d1f-b08c-12f3bb4a7055","ios":"levelo://app?vid=6dc9f382-50fa-4d1f-b08c-12f3bb4a7055"},"vehicle_type_id":"4","last_reported":1749676213,"current_range_meters":5600,"station_id":"ce4bgk12rcd13ifvqbi0","pricing_plan_id":"cebpf4jnsgd1na2vs0mg"},{"bike_id":"0c6bf2e3-ba75-40ca-ae41-ac0cd7fe427a","system_id":"levelo_inurba_marseille","lat":43.30431,"lon":5.39749,"is_reserved":false,"is_disabled":false,"rental_uris":{"android":"levelo://app?vid=0c6bf2e3-ba75-40ca-ae41-ac0cd7fe427a","ios":"levelo://app?vid=0c6bf2e3-ba75-40ca-ae41-ac0cd7fe427a"},"vehicle_type_id":"4","last_reported":1749676213,"current_range_meters":5600,"station_id":"ce4bh092rcd13ifvqd20","pricing_plan_id":"cebpf4jnsgd1na2vs0mg"},{"bike_id":"2fa540f0-1603-4922-a05b-55a5a600892f","system_id":"levelo_inurba_marseille","lat":43.31321,"lon":5.3969,"is_reserved":false,"is_disabled":false,"rental_uris":{"android":"levelo://app?vid=2fa540f0-1603-4922-a05b-55a5a600892f","ios":"levelo://app?vid=2fa540f0-1603-4922-a05b-55a5a600892f"},"vehicle_type_id":"4","last_reported":1749676213,"current_range_meters":6000,"station_id":"ce4bgvp2rcd13ifvqcu0","pricing_plan_id":"cebpf4jnsgd1na2vs0mg"},{"bike_id":"e9aa47e9-3218-4c61-a0fa-c537960d0f71","system_id":"levelo_inurba_marseille","lat":43.27809,"lon":5.40717,"is_reserved":false,"is_disabled":false,"rental_uris":{"android":"levelo://app?vid=e9aa47e9-3218-4c61-a0fa-c537960d0f71","ios":"levelo://app?vid=e9aa47e9-3218-4c61-a0fa-c537960d0f71"},"vehicle_type_id":"4","last_reported":1749676213,"current_range_meters":6000,"station_id":"ce4bhnh2rcd13ifvqgtg","pricing_plan_id":"cebpf4jnsgd1na2vs0mg"},{"bike_id":"57c1f1cc-024a-4538-bb73-9ba1927e974e","system_id":"levelo_inurba_marseille","lat":43.31996,"lon":5.38154,"is_reserved":false,"is_disabled":false,"rental_uris":{"android":"levelo://app?vid=57c1f1cc-024a-4538-bb73-9ba1927e974e","ios":"levelo://app?vid=57c1f1cc-024a-4538-bb73-9ba1927e974e"},"vehicle_type_id":"4","last_reported":1749676213,"current_range_meters":6000,"station_id":"ce4bhr12rcd13ifvqhpg","pricing_plan_id":"cebpf4jnsgd1na2vs0mg"},{"bike_id":"fe37018b-e3b6-4b9a-8294-730866fff175","system_id":"levelo_inurba_marseille","lat":43.29938,"lon":5.36526,"is_reserved":false,"is_disabled":false,"rental_uris":{"android":"levelo://app?vid=fe37018b-e3b6-4b9a-8294-730866fff175","ios":"levelo://app?vid=fe37018b-e3b6-4b9a-8294-730866fff175"},"vehicle_type_id":"4","last_reported":1749676213,"current_range_meters":6400,"station_id":"ce4bgm92rcd13ifvqbr0","pricing_plan_id":"cebpf4jnsgd1na2vs0mg"},{"bike_id":"0b1f08d0-09f3-46ac-b588-ba197c69a679","system_id":"levelo_inurba_marseille","lat":43.2985,"lon":5.36279,"is_reserved":false,"is_disabled":false,"rental_uris":{"android":"levelo://app?vid=0b1f08d0-09f3-46ac-b588-ba197c69a679","ios":"levelo://app?vid=0b1f08d0-09f3-46ac-b588-ba197c69a679"},"vehicle_type_id":"4","last_reported":1749676213,"current_range_meters":6400,"station_id":"ce4bgpp2rcd13ifvqc3g","pricing_plan_id":"cebpf4jnsgd1na2vs0mg"},{"bike_id":"2ccf3717-5b85-42b6-ba6b-93a552b7de83","system_id":"levelo_inurba_marseille","lat":43.29783,"lon":5.39337,"is_reserved":false,"is_disabled":false,"rental_uris":{"android":"levelo://app?vid=2ccf3717-5b85-42b6-ba6b-93a552b7de83","ios":"levelo://app?vid=2ccf3717-5b85-42b6-ba6b-93a552b7de83"},"vehicle_type_id":"4","last_reported":1749676213,"current_range_meters":6400,"station_id":"chh1huq6cuj3fo74tm60","pricing_plan_id":"cebpf4jnsgd1na2vs0mg"},{"bike_id":"3d7919ac-dc76-4b66-a621-58a6535441da","system_id":"levelo_inurba_marseille","lat":43.30882,"lon":5.39661,"is_reserved":false,"is_disabled":false,"rental_uris":{"android":"levelo://app?vid=3d7919ac-dc76-4b66-a621-58a6535441da","ios":"levelo://app?vid=3d7919ac-dc76-4b66-a621-58a6535441da"},"vehicle_type_id":"4","last_reported":1749676213,"current_range_meters":6800,"station_id":"ce4bh012rcd13ifvqcv0","pricing_plan_id":"cebpf4jnsgd1na2vs0mg"},{"bike_id":"8f178310-5913-4216-8a39-47e081dd0895","system_id":"levelo_inurba_marseille","lat":43.29036,"lon":5.39962,"is_reserved":false,"is_disabled":false,"rental_uris":{"android":"levelo://app?vid=8f178310-5913-4216-8a39-47e081dd0895","ios":"levelo://app?vid=8f178310-5913-4216-8a39-47e081dd0895"},"vehicle_type_id":"4","last_reported":1749676213,"current_range_meters":6800,"station_id":"ce4bh392rcd13ifvqdm0","pricing_plan_id":"cebpf4jnsgd1na2vs0mg"},{"bike_id":"8dc75653-1c3f-4f7a-bc3a-07c70974f28b","system_id":"levelo_inurba_marseille","lat":43.29104,"lon":5.38161,"is_reserved":false,"is_disabled":false,"rental_uris":{"android":"levelo://app?vid=8dc75653-1c3f-4f7a-bc3a-07c70974f28b","ios":"levelo://app?vid=8dc75653-1c3f-4f7a-bc3a-07c70974f28b"},"vehicle_type_id":"4","last_reported":1749676213,"current_range_meters":6800,"station_id":"ce4bh512rcd13ifvqe2g","pricing_plan_id":"cebpf4jnsgd1na2vs0mg"},{"bike_id":"5077581b-cebb-46fc-ba69-4fa8272d4810","system_id":"levelo_inurba_marseille","lat":43.21368,"lon":5.35515,"is_reserved":false,"is_disabled":false,"rental_uris":{"android":"levelo://app?vid=5077581b-cebb-46fc-ba69-4fa8272d4810","ios":"levelo://app?vid=5077581b-cebb-46fc-ba69-4fa8272d4810"},"vehicle_type_id":"4","last_reported":1749676213,"current_range_meters":7200,"station_id":"","pricing_plan_id":"cebpf4jnsgd1na2vs0mg"},{"bike_id":"d2248453-fcd4-4d01-82b3-5690269a6747","system_id":"levelo_inurba_marseille","lat":43.29092,"lon":5.38131,"is_reserved":false,"is_disabled":false,"rental_uris":{"android":"levelo://app?vid=d2248453-fcd4-4d01-82b3-5690269a6747","ios":"levelo://app?vid=d2248453-fcd4-4d01-82b3-5690269a6747"},"vehicle_type_id":"4","last_reported":1749676213,"current_range_meters":7200,"station_id":"ce4bh512rcd13ifvqe2g","pricing_plan_id":"cebpf4jnsgd1na2vs0mg"},{"bike_id":"7c6c6adc-a3da-49a6-8136-247da3b5ec06","system_id":"levelo_inurba_marseille","lat":43.24449,"lon":5.40049,"is_reserved":false,"is_disabled":false,"rental_uris":{"android":"levelo://app?vid=7c6c6adc-a3da-49a6-8136-247da3b5ec06","ios":"levelo://app?vid=7c6c6adc-a3da-49a6-8136-247da3b5ec06"},"vehicle_type_id":"4","last_reported":1749676213,"current_range_meters":8000,"station_id":"","pricing_plan_id":"cebpf4jnsgd1na2vs0mg"},{"bike_id":"0e92a489-6bfe-4488-b5ee-b5b5c177afe9","system_id":"levelo_inurba_marseille","lat":43.29058,"lon":5.37883,"is_reserved":false,"is_disabled":false,"rental_uris":{"android":"levelo://app?vid=0e92a489-6bfe-4488-b5ee-b5b5c177afe9","ios":"levelo://app?vid=0e92a489-6bfe-4488-b5ee-b5b5c177afe9"},"vehicle_type_id":"4","last_reported":1749676213,"current_range_meters":8400,"station_id":"","pricing_plan_id":"cebpf4jnsgd1na2vs0mg"},{"bike_id":"1e20f032-0f6a-40b2-ad29-e4d2225496fa","system_id":"levelo_inurba_marseille","lat":43.30288,"lon":5.37053,"is_reserved":false,"is_disabled":false,"rental_uris":{"android":"levelo://app?vid=1e20f032-0f6a-40b2-ad29-e4d2225496fa","ios":"levelo://app?vid=1e20f032-0f6a-40b2-ad29-e4d2225496fa"},"vehicle_type_id":"4","last_reported":1749676213,"current_range_meters":8400,"station_id":"","pricing_plan_id":"cebpf4jnsgd1na2vs0mg"},{"bike_id":"a6f9b91c-4f75-4039-a66b-74a6a0ac1d88","system_id":"levelo_inurba_marseille","lat":43.31719,"lon":5.40479,"is_reserved":false,"is_disabled":false,"rental_uris":{"android":"levelo://app?vid=a6f9b91c-4f75-4039-a66b-74a6a0ac1d88","ios":"levelo://app?vid=a6f9b91c-4f75-4039-a66b-74a6a0ac1d88"},"vehicle_type_id":"4","last_reported":1749676213,"current_range_meters":8400,"station_id":"ce4bh012rcd13ifvqd00","pricing_plan_id":"cebpf4jnsgd1na2vs0mg"},{"bike_id":"e4535ee8-17d0-4ea9-8e73-b98722866afb","system_id":"levelo_inurba_marseille","lat":43.30323,"lon":5.40447,"is_reserved":false,"is_disabled":false,"rental_uris":{"android":"levelo://app?vid=e4535ee8-17d0-4ea9-8e73-b98722866afb","ios":"levelo://app?vid=e4535ee8-17d0-4ea9-8e73-b98722866afb"},"vehicle_type_id":"4","last_reported":1749676213,"current_range_meters":8400,"station_id":"ce4bh012rcd13ifvqd10","pricing_plan_id":"cebpf4jnsgd1na2vs0mg"},{"bike_id":"01c4eab2-7f5c-4883-b69c-950919bd224e","system_id":"levelo_inurba_marseille","lat":43.242601,"lon":5.379542,"is_reserved":false,"is_disabled":false,"rental_uris":{"android":"levelo://app?vid=01c4eab2-7f5c-4883-b69c-950919bd224e","ios":"levelo://app?vid=01c4eab2-7f5c-4883-b69c-950919bd224e"},"vehicle_type_id":"4","last_reported":1749676213,"current_range_meters":8400,"station_id":"ce4bhnp2rcd13ifvqgvg","pricing_plan_id":"cebpf4jnsgd1na2vs0mg"},{"bike_id":"5300f9cd-ef99-474a-9a35-ba94d94c2887","system_id":"levelo_inurba_marseille","lat":43.33717,"lon":5.39187,"is_reserved":false,"is_disabled":false,"rental_uris":{"android":"levelo://app?vid=5300f9cd-ef99-474a-9a35-ba94d94c2887","ios":"levelo://app?vid=5300f9cd-ef99-474a-9a35-ba94d94c2887"},"vehicle_type_id":"4","last_reported":1749676213,"current_range_meters":8400,"station_id":"ce4bhr92rcd13ifvqhsg","pricing_plan_id":"cebpf4jnsgd1na2vs0mg"},{"bike_id":"632693d0-0815-4706-b045-8b917066586c","system_id":"levelo_inurba_marseille","lat":43.2681,"lon":5.4026,"is_reserved":false,"is_disabled":false,"rental_uris":{"android":"levelo://app?vid=632693d0-0815-4706-b045-8b917066586c","ios":"levelo://app?vid=632693d0-0815-4706-b045-8b917066586c"},"vehicle_type_id":"4","last_reported":1749676213,"current_range_meters":8400,"station_id":"ce501612rcd8frsf0b60","pricing_plan_id":"cebpf4jnsgd1na2vs0mg"},{"bike_id":"66314ca9-30a7-4c0a-8507-6f89f4c9b4e1","system_id":"levelo_inurba_marseille","lat":43.26238,"lon":5.37164,"is_reserved":false,"is_disabled":false,"rental_uris":{"android":"levelo://app?vid=66314ca9-30a7-4c0a-8507-6f89f4c9b4e1","ios":"levelo://app?vid=66314ca9-30a7-4c0a-8507-6f89f4c9b4e1"},"vehicle_type_id":"4","last_reported":1749676213,"current_range_meters":8800,"station_id":"","pricing_plan_id":"cebpf4jnsgd1na2vs0mg"},{"bike_id":"b1a77b42-8b2c-4782-bee1-836185155787","system_id":"levelo_inurba_marseille","lat":43.28661,"lon":5.36352,"is_reserved":false,"is_disabled":false,"rental_uris":{"android":"levelo://app?vid=b1a77b42-8b2c-4782-bee1-836185155787","ios":"levelo://app?vid=b1a77b42-8b2c-4782-bee1-836185155787"},"vehicle_type_id":"4","last_reported":1749676213,"current_range_meters":8800,"station_id":"ce4bhah2rcd13ifvqej0","pricing_plan_id":"cebpf4jnsgd1na2vs0mg"},{"bike_id":"8bc03b7b-e01e-442c-8cf1-a0129e9a8963","system_id":"levelo_inurba_marseille","lat":43.3172,"lon":5.40419,"is_reserved":false,"is_disabled":false,"rental_uris":{"android":"levelo://app?vid=8bc03b7b-e01e-442c-8cf1-a0129e9a8963","ios":"levelo://app?vid=8bc03b7b-e01e-442c-8cf1-a0129e9a8963"},"vehicle_type_id":"4","last_reported":1749676213,"current_range_meters":9200,"station_id":"","pricing_plan_id":"cebpf4jnsgd1na2vs0mg"},{"bike_id":"824157e2-36af-47a3-90b3-87be99394eb8","system_id":"levelo_inurba_marseille","lat":43.30426,"lon":5.39756,"is_reserved":false,"is_disabled":false,"rental_uris":{"android":"levelo://app?vid=824157e2-36af-47a3-90b3-87be99394eb8","ios":"levelo://app?vid=824157e2-36af-47a3-90b3-87be99394eb8"},"vehicle_type_id":"4","last_reported":1749676213,"current_range_meters":9200,"station_id":"ce4bh092rcd13ifvqd20","pricing_plan_id":"cebpf4jnsgd1na2vs0mg"},{"bike_id":"020d0ec9-e8cc-4fc2-be42-2947e6f108eb","system_id":"levelo_inurba_marseille","lat":43.28568,"lon":5.39507,"is_reserved":false,"is_disabled":false,"rental_uris":{"android":"levelo://app?vid=020d0ec9-e8cc-4fc2-be42-2947e6f108eb","ios":"levelo://app?vid=020d0ec9-e8cc-4fc2-be42-2947e6f108eb"},"vehicle_type_id":"4","last_reported":1749676213,"current_range_meters":9200,"station_id":"ce4bh292rcd13ifvqdg0","pricing_plan_id":"cebpf4jnsgd1na2vs0mg"},{"bike_id":"4741d0dc-11e3-4ecd-a86e-4d0577e490be","system_id":"levelo_inurba_marseille","lat":43.287109,"lon":5.37937,"is_reserved":false,"is_disabled":false,"rental_uris":{"android":"levelo://app?vid=4741d0dc-11e3-4ecd-a86e-4d0577e490be","ios":"levelo://app?vid=4741d0dc-11e3-4ecd-a86e-4d0577e490be"},"vehicle_type_id":"4","last_reported":1749676213,"current_range_meters":9200,"station_id":"ce4bh9p2rcd13ifvqec0","pricing_plan_id":"cebpf4jnsgd1na2vs0mg"},{"bike_id":"87b4f3e2-942c-42ab-a354-899809bdf0d4","system_id":"levelo_inurba_marseille","lat":43.27176,"lon":5.40993,"is_reserved":false,"is_disabled":false,"rental_uris":{"android":"levelo://app?vid=87b4f3e2-942c-42ab-a354-899809bdf0d4","ios":"levelo://app?vid=87b4f3e2-942c-42ab-a354-899809bdf0d4"},"vehicle_type_id":"4","last_reported":1749676213,"current_range_meters":9200,"station_id":"ce4bhl12rcd13ifvqgf0","pricing_plan_id":"cebpf4jnsgd1na2vs0mg"},{"bike_id":"ee3ec0a8-0543-4b97-93ad-ee37c49b4e16","system_id":"levelo_inurba_marseille","lat":43.29531,"lon":5.38544,"is_reserved":false,"is_disabled":false,"rental_uris":{"android":"levelo://app?vid=ee3ec0a8-0543-4b97-93ad-ee37c49b4e16","ios":"levelo://app?vid=ee3ec0a8-0543-4b97-93ad-ee37c49b4e16"},"vehicle_type_id":"4","last_reported":1749676213,"current_range_meters":9600,"station_id":"ce4bgih2rcd13ifvqba0","pricing_plan_id":"cebpf4jnsgd1na2vs0mg"},{"bike_id":"3bd97e4c-1b0e-49b2-91fc-7fad76aa5725","system_id":"levelo_inurba_marseille","lat":43.297791,"lon":5.371015,"is_reserved":false,"is_disabled":false,"rental_uris":{"android":"levelo://app?vid=3bd97e4c-1b0e-49b2-91fc-7fad76aa5725","ios":"levelo://app?vid=3bd97e4c-1b0e-49b2-91fc-7fad76aa5725"},"vehicle_type_id":"4","last_reported":1749676213,"current_range_meters":9600,"station_id":"ce4bgop2rcd13ifvqc1g","pricing_plan_id":"cebpf4jnsgd1na2vs0mg"},{"bike_id":"68a8b7e8-6e48-438d-b3af-80e75cf76c07","system_id":"levelo_inurba_marseille","lat":43.31359,"lon":5.38485,"is_reserved":false,"is_disabled":false,"rental_uris":{"android":"levelo://app?vid=68a8b7e8-6e48-438d-b3af-80e75cf76c07","ios":"levelo://app?vid=68a8b7e8-6e48-438d-b3af-80e75cf76c07"},"vehicle_type_id":"4","last_reported":1749676213,"current_range_meters":9600,"station_id":"ce4bgt92rcd13ifvqcf0","pricing_plan_id":"cebpf4jnsgd1na2vs0mg"},{"bike_id":"8d216b9a-d410-4bf4-9521-036cb9beb09b","system_id":"levelo_inurba_marseille","lat":43.29627,"lon":5.40596,"is_reserved":false,"is_disabled":false,"rental_uris":{"android":"levelo://app?vid=8d216b9a-d410-4bf4-9521-036cb9beb09b","ios":"levelo://app?vid=8d216b9a-d410-4bf4-9521-036cb9beb09b"},"vehicle_type_id":"4","last_reported":1749676213,"current_range_meters":10000,"station_id":"ce4bh0h2rcd13ifvqd60","pricing_plan_id":"cebpf4jnsgd1na2vs0mg"},{"bike_id":"59d9ca04-a5f8-4d0e-956c-f66b42d14578","system_id":"levelo_inurba_marseille","lat":43.29256,"lon":5.40905,"is_reserved":false,"is_disabled":false,"rental_uris":{"android":"levelo://app?vid=59d9ca04-a5f8-4d0e-956c-f66b42d14578","ios":"levelo://app?vid=59d9ca04-a5f8-4d0e-956c-f66b42d14578"},"vehicle_type_id":"4","last_reported":1749676213,"current_range_meters":10000,"station_id":"ce4bh192rcd13ifvqdc0","pricing_plan_id":"cebpf4jnsgd1na2vs0mg"},{"bike_id":"e99645b8-da36-4aa9-a97e-c7d901ad5dfd","system_id":"levelo_inurba_marseille","lat":43.28399,"lon":5.37508,"is_reserved":false,"is_disabled":false,"rental_uris":{"android":"levelo://app?vid=e99645b8-da36-4aa9-a97e-c7d901ad5dfd","ios":"levelo://app?vid=e99645b8-da36-4aa9-a97e-c7d901ad5dfd"},"vehicle_type_id":"4","last_reported":1749676213,"current_range_meters":10000,"station_id":"ce4bh412rcd13ifvqds0","pricing_plan_id":"cebpf4jnsgd1na2vs0mg"},{"bike_id":"85274a9d-a0fb-46c5-a828-b8a66650baa9","system_id":"levelo_inurba_marseille","lat":43.28408,"lon":5.37503,"is_reserved":false,"is_disabled":false,"rental_uris":{"android":"levelo://app?vid=85274a9d-a0fb-46c5-a828-b8a66650baa9","ios":"levelo://app?vid=85274a9d-a0fb-46c5-a828-b8a66650baa9"},"vehicle_type_id":"4","last_reported":1749676213,"current_range_meters":10000,"station_id":"ce4bh412rcd13ifvqds0","pricing_plan_id":"cebpf4jnsgd1na2vs0mg"},{"bike_id":"8856b757-c35e-416a-9a0f-d5dde677ea79","system_id":"levelo_inurba_marseille","lat":43.28154,"lon":5.42641,"is_reserved":false,"is_disabled":false,"rental_uris":{"android":"levelo://app?vid=8856b757-c35e-416a-9a0f-d5dde677ea79","ios":"levelo://app?vid=8856b757-c35e-416a-9a0f-d5dde677ea79"},"vehicle_type_id":"4","last_reported":1749676213,"current_range_meters":10000,"station_id":"ce4bhnh2rcd13ifvqgug","pricing_plan_id":"cebpf4jnsgd1na2vs0mg"},{"bike_id":"84f5a926-1dd6-4535-b647-2764ce0ca103","system_id":"levelo_inurba_marseille","lat":43.3214,"lon":5.36764,"is_reserved":false,"is_disabled":false,"rental_uris":{"android":"levelo://app?vid=84f5a926-1dd6-4535-b647-2764ce0ca103","ios":"levelo://app?vid=84f5a926-1dd6-4535-b647-2764ce0ca103"},"vehicle_type_id":"4","last_reported":1749676213,"current_range_meters":10000,"station_id":"ce4bhrh2rcd13ifvqhug","pricing_plan_id":"cebpf4jnsgd1na2vs0mg"},{"bike_id":"500320f2-e4bb-4906-a414-ca67470055ab","system_id":"levelo_inurba_marseille","lat":43.25648,"lon":5.38637,"is_reserved":false,"is_disabled":false,"rental_uris":{"android":"levelo://app?vid=500320f2-e4bb-4906-a414-ca67470055ab","ios":"levelo://app?vid=500320f2-e4bb-4906-a414-ca67470055ab"},"vehicle_type_id":"4","last_reported":1749676213,"current_range_meters":10800,"station_id":"","pricing_plan_id":"cebpf4jnsgd1na2vs0mg"},{"bike_id":"1fb3c089-7480-4105-aa5b-247daa629aab","system_id":"levelo_inurba_marseille","lat":43.31484,"lon":5.37314,"is_reserved":false,"is_disabled":false,"rental_uris":{"android":"levelo://app?vid=1fb3c089-7480-4105-aa5b-247daa629aab","ios":"levelo://app?vid=1fb3c089-7480-4105-aa5b-247daa629aab"},"vehicle_type_id":"4","last_reported":1749676213,"current_range_meters":10800,"station_id":"ce4bgt12rcd13ifvqcd0","pricing_plan_id":"cebpf4jnsgd1na2vs0mg"},{"bike_id":"ad166b06-df9f-4f4b-a5c2-8316b6c42dca","system_id":"levelo_inurba_marseille","lat":43.28717,"lon":5.37941,"is_reserved":false,"is_disabled":false,"rental_uris":{"android":"levelo://app?vid=ad166b06-df9f-4f4b-a5c2-8316b6c42dca","ios":"levelo://app?vid=ad166b06-df9f-4f4b-a5c2-8316b6c42dca"},"vehicle_type_id":"4","last_reported":1749676213,"current_range_meters":10800,"station_id":"ce4bh9p2rcd13ifvqec0","pricing_plan_id":"cebpf4jnsgd1na2vs0mg"},{"bike_id":"e72ceec1-1cdd-45c9-99dd-51391b6329bd","system_id":"levelo_inurba_marseille","lat":43.27168,"lon":5.40998,"is_reserved":false,"is_disabled":false,"rental_uris":{"android":"levelo://app?vid=e72ceec1-1cdd-45c9-99dd-51391b6329bd","ios":"levelo://app?vid=e72ceec1-1cdd-45c9-99dd-51391b6329bd"},"vehicle_type_id":"4","last_reported":1749676213,"current_range_meters":10800,"station_id":"ce4bhl12rcd13ifvqgf0","pricing_plan_id":"cebpf4jnsgd1na2vs0mg"},{"bike_id":"8105426e-eb6c-4b79-bfaa-254c1b037d55","system_id":"levelo_inurba_marseille","lat":43.32368,"lon":5.36771,"is_reserved":false,"is_disabled":false,"rental_uris":{"android":"levelo://app?vid=8105426e-eb6c-4b79-bfaa-254c1b037d55","ios":"levelo://app?vid=8105426e-eb6c-4b79-bfaa-254c1b037d55"},"vehicle_type_id":"4","last_reported":1749676213,"current_range_meters":10800,"station_id":"ce4bhsh2rcd13ifvqi2g","pricing_plan_id":"cebpf4jnsgd1na2vs0mg"},{"bike_id":"73fee522-78e6-42a9-8ef5-56e180625821","system_id":"levelo_inurba_marseille","lat":43.30894,"lon":5.37181,"is_reserved":false,"is_disabled":false,"rental_uris":{"android":"levelo://app?vid=73fee522-78e6-42a9-8ef5-56e180625821","ios":"levelo://app?vid=73fee522-78e6-42a9-8ef5-56e180625821"},"vehicle_type_id":"4","last_reported":1749676213,"current_range_meters":11200,"station_id":"ce4bguh2rcd13ifvqckg","pricing_plan_id":"cebpf4jnsgd1na2vs0mg"},{"bike_id":"50fe938f-a580-48ba-9868-a6c9a5734c0f","system_id":"levelo_inurba_marseille","lat":43.290216,"lon":5.386392,"is_reserved":false,"is_disabled":false,"rental_uris":{"android":"levelo://app?vid=50fe938f-a580-48ba-9868-a6c9a5734c0f","ios":"levelo://app?vid=50fe938f-a580-48ba-9868-a6c9a5734c0f"},"vehicle_type_id":"4","last_reported":1749676213,"current_range_meters":11200,"station_id":"ce4bh4p2rcd13ifvqe0g","pricing_plan_id":"cebpf4jnsgd1na2vs0mg"},{"bike_id":"a049cc29-1a2d-4106-a472-098d93da39ae","system_id":"levelo_inurba_marseille","lat":43.29257,"lon":5.38435,"is_reserved":false,"is_disabled":false,"rental_uris":{"android":"levelo://app?vid=a049cc29-1a2d-4106-a472-098d93da39ae","ios":"levelo://app?vid=a049cc29-1a2d-4106-a472-098d93da39ae"},"vehicle_type_id":"4","last_reported":1749676213,"current_range_meters":11200,"station_id":"ce4bh692rcd13ifvqea0","pricing_plan_id":"cebpf4jnsgd1na2vs0mg"},{"bike_id":"b68c7238-3e0d-49c4-941b-19c8398001cb","system_id":"levelo_inurba_marseille","lat":43.265599,"lon":5.372905,"is_reserved":false,"is_disabled":false,"rental_uris":{"android":"levelo://app?vid=b68c7238-3e0d-49c4-941b-19c8398001cb","ios":"levelo://app?vid=b68c7238-3e0d-49c4-941b-19c8398001cb"},"vehicle_type_id":"4","last_reported":1749676213,"current_range_meters":11200,"station_id":"ce4bhg12rcd13ifvqf70","pricing_plan_id":"cebpf4jnsgd1na2vs0mg"},{"bike_id":"542372c9-4912-4a31-b6fd-eccbdce7e9eb","system_id":"levelo_inurba_marseille","lat":43.25087,"lon":5.39529,"is_reserved":false,"is_disabled":false,"rental_uris":{"android":"levelo://app?vid=542372c9-4912-4a31-b6fd-eccbdce7e9eb","ios":"levelo://app?vid=542372c9-4912-4a31-b6fd-eccbdce7e9eb"},"vehicle_type_id":"4","last_reported":1749676213,"current_range_meters":11200,"station_id":"ce4bhm12rcd13ifvqgkg","pricing_plan_id":"cebpf4jnsgd1na2vs0mg"},{"bike_id":"b759b14d-ecb8-4e4d-b9a2-ea1c8b2483a9","system_id":"levelo_inurba_marseille","lat":43.31171,"lon":5.38717,"is_reserved":false,"is_disabled":false,"rental_uris":{"android":"levelo://app?vid=b759b14d-ecb8-4e4d-b9a2-ea1c8b2483a9","ios":"levelo://app?vid=b759b14d-ecb8-4e4d-b9a2-ea1c8b2483a9"},"vehicle_type_id":"4","last_reported":1749676213,"current_range_meters":11600,"station_id":"ce4bgv12rcd13ifvqcp0","pricing_plan_id":"cebpf4jnsgd1na2vs0mg"},{"bike_id":"bbf37f29-43ba-4888-abc8-83989b509a7e","system_id":"levelo_inurba_marseille","lat":43.30931,"lon":5.40142,"is_reserved":false,"is_disabled":false,"rental_uris":{"android":"levelo://app?vid=bbf37f29-43ba-4888-abc8-83989b509a7e","ios":"levelo://app?vid=bbf37f29-43ba-4888-abc8-83989b509a7e"},"vehicle_type_id":"4","last_reported":1749676213,"current_range_meters":11600,"station_id":"ce4bgvp2rcd13ifvqct0","pricing_plan_id":"cebpf4jnsgd1na2vs0mg"},{"bike_id":"5c8a3317-fec4-4c46-9157-500d9d52bb79","system_id":"levelo_inurba_marseille","lat":43.309291,"lon":5.401379,"is_reserved":false,"is_disabled":false,"rental_uris":{"android":"levelo://app?vid=5c8a3317-fec4-4c46-9157-500d9d52bb79","ios":"levelo://app?vid=5c8a3317-fec4-4c46-9157-500d9d52bb79"},"vehicle_type_id":"4","last_reported":1749676213,"current_range_meters":11600,"station_id":"ce4bgvp2rcd13ifvqct0","pricing_plan_id":"cebpf4jnsgd1na2vs0mg"},{"bike_id":"3cd3f9b0-a72b-40e9-9c43-8866fcbb7866","system_id":"levelo_inurba_marseille","lat":43.30588,"lon":5.39357,"is_reserved":false,"is_disabled":false,"rental_uris":{"android":"levelo://app?vid=3cd3f9b0-a72b-40e9-9c43-8866fcbb7866","ios":"levelo://app?vid=3cd3f9b0-a72b-40e9-9c43-8866fcbb7866"},"vehicle_type_id":"4","last_reported":1749676213,"current_range_meters":11600,"station_id":"ce4bh0p2rcd13ifvqd80","pricing_plan_id":"cebpf4jnsgd1na2vs0mg"},{"bike_id":"137b8f62-4c69-44de-ae31-a09d493bd06a","system_id":"levelo_inurba_marseille","lat":43.28931,"lon":5.36638,"is_reserved":false,"is_disabled":false,"rental_uris":{"android":"levelo://app?vid=137b8f62-4c69-44de-ae31-a09d493bd06a","ios":"levelo://app?vid=137b8f62-4c69-44de-ae31-a09d493bd06a"},"vehicle_type_id":"4","last_reported":1749676213,"current_range_meters":11600,"station_id":"ce4bhap2rcd13ifvqek0","pricing_plan_id":"cebpf4jnsgd1na2vs0mg"},{"bike_id":"33fa2eb4-31f5-4bbb-b99e-4822fe3b04d9","system_id":"levelo_inurba_marseille","lat":43.27816,"lon":5.40717,"is_reserved":false,"is_disabled":false,"rental_uris":{"android":"levelo://app?vid=33fa2eb4-31f5-4bbb-b99e-4822fe3b04d9","ios":"levelo://app?vid=33fa2eb4-31f5-4bbb-b99e-4822fe3b04d9"},"vehicle_type_id":"4","last_reported":1749676213,"current_range_meters":11600,"station_id":"ce4bhnh2rcd13ifvqgtg","pricing_plan_id":"cebpf4jnsgd1na2vs0mg"},{"bike_id":"c6edfdc3-cd6e-441f-a718-33721acd308d","system_id":"levelo_inurba_marseille","lat":43.32328,"lon":5.40636,"is_reserved":false,"is_disabled":false,"rental_uris":{"android":"levelo://app?vid=c6edfdc3-cd6e-441f-a718-33721acd308d","ios":"levelo://app?vid=c6edfdc3-cd6e-441f-a718-33721acd308d"},"vehicle_type_id":"4","last_reported":1749676213,"current_range_meters":11600,"station_id":"ce4bhq92rcd13ifvqhjg","pricing_plan_id":"cebpf4jnsgd1na2vs0mg"},{"bike_id":"04658abe-5e35-48bd-9c19-17843a60f13c","system_id":"levelo_inurba_marseille","lat":43.29782,"lon":5.39333,"is_reserved":false,"is_disabled":false,"rental_uris":{"android":"levelo://app?vid=04658abe-5e35-48bd-9c19-17843a60f13c","ios":"levelo://app?vid=04658abe-5e35-48bd-9c19-17843a60f13c"},"vehicle_type_id":"4","last_reported":1749676213,"current_range_meters":11600,"station_id":"chh1huq6cuj3fo74tm60","pricing_plan_id":"cebpf4jnsgd1na2vs0mg"},{"bike_id":"84f95689-8929-4d30-9dbe-bf08e8c0223c","system_id":"levelo_inurba_marseille","lat":43.29527,"lon":5.38547,"is_reserved":false,"is_disabled":false,"rental_uris":{"android":"levelo://app?vid=84f95689-8929-4d30-9dbe-bf08e8c0223c","ios":"levelo://app?vid=84f95689-8929-4d30-9dbe-bf08e8c0223c"},"vehicle_type_id":"4","last_reported":1749676213,"current_range_meters":12000,"station_id":"ce4bgih2rcd13ifvqba0","pricing_plan_id":"cebpf4jnsgd1na2vs0mg"},{"bike_id":"4c08da71-789e-49c5-8f5c-ef49abe67fb7","system_id":"levelo_inurba_marseille","lat":43.23152,"lon":5.43719,"is_reserved":false,"is_disabled":false,"rental_uris":{"android":"levelo://app?vid=4c08da71-789e-49c5-8f5c-ef49abe67fb7","ios":"levelo://app?vid=4c08da71-789e-49c5-8f5c-ef49abe67fb7"},"vehicle_type_id":"4","last_reported":1749676213,"current_range_meters":12000,"station_id":"ce4bhmp2rcd13ifvqgog","pricing_plan_id":"cebpf4jnsgd1na2vs0mg"},{"bike_id":"3b288e0d-f860-434b-ab76-2fa310b25a17","system_id":"levelo_inurba_marseille","lat":43.26813,"lon":5.40252,"is_reserved":false,"is_disabled":false,"rental_uris":{"android":"levelo://app?vid=3b288e0d-f860-434b-ab76-2fa310b25a17","ios":"levelo://app?vid=3b288e0d-f860-434b-ab76-2fa310b25a17"},"vehicle_type_id":"4","last_reported":1749676213,"current_range_meters":12000,"station_id":"ce501612rcd8frsf0b60","pricing_plan_id":"cebpf4jnsgd1na2vs0mg"},{"bike_id":"91252cb4-db98-4cff-ba49-0337a6eacf8f","system_id":"levelo_inurba_marseille","lat":43.31988,"lon":5.38766,"is_reserved":false,"is_disabled":false,"rental_uris":{"android":"levelo://app?vid=91252cb4-db98-4cff-ba49-0337a6eacf8f","ios":"levelo://app?vid=91252cb4-db98-4cff-ba49-0337a6eacf8f"},"vehicle_type_id":"4","last_reported":1749676213,"current_range_meters":12400,"station_id":"","pricing_plan_id":"cebpf4jnsgd1na2vs0mg"},{"bike_id":"36754c54-73e8-4ee7-a70a-26454a799f39","system_id":"levelo_inurba_marseille","lat":43.299294,"lon":5.365384,"is_reserved":false,"is_disabled":false,"rental_uris":{"android":"levelo://app?vid=36754c54-73e8-4ee7-a70a-26454a799f39","ios":"levelo://app?vid=36754c54-73e8-4ee7-a70a-26454a799f39"},"vehicle_type_id":"4","last_reported":1749676213,"current_range_meters":12400,"station_id":"ce4bgm92rcd13ifvqbr0","pricing_plan_id":"cebpf4jnsgd1na2vs0mg"},{"bike_id":"f48ab685-f7fc-46ff-aa77-d7432aec07ed","system_id":"levelo_inurba_marseille","lat":43.29208,"lon":5.39309,"is_reserved":false,"is_disabled":false,"rental_uris":{"android":"levelo://app?vid=f48ab685-f7fc-46ff-aa77-d7432aec07ed","ios":"levelo://app?vid=f48ab685-f7fc-46ff-aa77-d7432aec07ed"},"vehicle_type_id":"4","last_reported":1749676213,"current_range_meters":12400,"station_id":"ce4bh192rcd13ifvqdd0","pricing_plan_id":"cebpf4jnsgd1na2vs0mg"},{"bike_id":"ab577fe8-19b5-4aef-aff1-0ce8ebf6f3dc","system_id":"levelo_inurba_marseille","lat":43.29094,"lon":5.38132,"is_reserved":false,"is_disabled":false,"rental_uris":{"android":"levelo://app?vid=ab577fe8-19b5-4aef-aff1-0ce8ebf6f3dc","ios":"levelo://app?vid=ab577fe8-19b5-4aef-aff1-0ce8ebf6f3dc"},"vehicle_type_id":"4","last_reported":1749676213,"current_range_meters":12400,"station_id":"ce4bh512rcd13ifvqe2g","pricing_plan_id":"cebpf4jnsgd1na2vs0mg"},{"bike_id":"1424ca46-6afd-4bfb-b52e-a41fd4c73931","system_id":"levelo_inurba_marseille","lat":43.2927,"lon":5.38429,"is_reserved":false,"is_disabled":false,"rental_uris":{"android":"levelo://app?vid=1424ca46-6afd-4bfb-b52e-a41fd4c73931","ios":"levelo://app?vid=1424ca46-6afd-4bfb-b52e-a41fd4c73931"},"vehicle_type_id":"4","last_reported":1749676213,"current_range_meters":12400,"station_id":"ce4bh692rcd13ifvqea0","pricing_plan_id":"cebpf4jnsgd1na2vs0mg"},{"bike_id":"d10e37c2-83cd-444a-b4e7-7ba71ab26d18","system_id":"levelo_inurba_marseille","lat":43.28113,"lon":5.37838,"is_reserved":false,"is_disabled":false,"rental_uris":{"android":"levelo://app?vid=d10e37c2-83cd-444a-b4e7-7ba71ab26d18","ios":"levelo://app?vid=d10e37c2-83cd-444a-b4e7-7ba71ab26d18"},"vehicle_type_id":"4","last_reported":1749676213,"current_range_meters":12400,"station_id":"ce4bha12rcd13ifvqee0","pricing_plan_id":"cebpf4jnsgd1na2vs0mg"},{"bike_id":"95226295-390a-455e-8146-aad5f5245ed7","system_id":"levelo_inurba_marseille","lat":43.24071,"lon":5.37761,"is_reserved":false,"is_disabled":false,"rental_uris":{"android":"levelo://app?vid=95226295-390a-455e-8146-aad5f5245ed7","ios":"levelo://app?vid=95226295-390a-455e-8146-aad5f5245ed7"},"vehicle_type_id":"4","last_reported":1749676213,"current_range_meters":12400,"station_id":"ce4bhnp2rcd13ifvqgvg","pricing_plan_id":"cebpf4jnsgd1na2vs0mg"},{"bike_id":"a2421370-e442-436f-a98a-844d44299694","system_id":"levelo_inurba_marseille","lat":43.32362,"lon":5.36711,"is_reserved":false,"is_disabled":false,"rental_uris":{"android":"levelo://app?vid=a2421370-e442-436f-a98a-844d44299694","ios":"levelo://app?vid=a2421370-e442-436f-a98a-844d44299694"},"vehicle_type_id":"4","last_reported":1749676213,"current_range_meters":12800,"station_id":"","pricing_plan_id":"cebpf4jnsgd1na2vs0mg"},{"bike_id":"fddf2315-5f66-484b-b0d4-f045b002a25d","system_id":"levelo_inurba_marseille","lat":43.31359,"lon":5.38485,"is_reserved":false,"is_disabled":false,"rental_uris":{"android":"levelo://app?vid=fddf2315-5f66-484b-b0d4-f045b002a25d","ios":"levelo://app?vid=fddf2315-5f66-484b-b0d4-f045b002a25d"},"vehicle_type_id":"4","last_reported":1749676213,"current_range_meters":12800,"station_id":"ce4bgt92rcd13ifvqcf0","pricing_plan_id":"cebpf4jnsgd1na2vs0mg"},{"bike_id":"8da7d559-05bd-4788-8576-9e3f906cfb37","system_id":"levelo_inurba_marseille","lat":43.29025,"lon":5.38619,"is_reserved":false,"is_disabled":false,"rental_uris":{"android":"levelo://app?vid=8da7d559-05bd-4788-8576-9e3f906cfb37","ios":"levelo://app?vid=8da7d559-05bd-4788-8576-9e3f906cfb37"},"vehicle_type_id":"4","last_reported":1749676213,"current_range_meters":12800,"station_id":"ce4bh4p2rcd13ifvqe0g","pricing_plan_id":"cebpf4jnsgd1na2vs0mg"},{"bike_id":"9638801f-645e-4a0f-ab0c-a2818e13e548","system_id":"levelo_inurba_marseille","lat":43.28106,"lon":5.37832,"is_reserved":false,"is_disabled":false,"rental_uris":{"android":"levelo://app?vid=9638801f-645e-4a0f-ab0c-a2818e13e548","ios":"levelo://app?vid=9638801f-645e-4a0f-ab0c-a2818e13e548"},"vehicle_type_id":"4","last_reported":1749676213,"current_range_meters":12800,"station_id":"ce4bha12rcd13ifvqee0","pricing_plan_id":"cebpf4jnsgd1na2vs0mg"},{"bike_id":"c3a82885-2b55-459d-82d6-8e2407740dab","system_id":"levelo_inurba_marseille","lat":43.24821,"lon":5.3744,"is_reserved":false,"is_disabled":false,"rental_uris":{"android":"levelo://app?vid=c3a82885-2b55-459d-82d6-8e2407740dab","ios":"levelo://app?vid=c3a82885-2b55-459d-82d6-8e2407740dab"},"vehicle_type_id":"4","last_reported":1749676213,"current_range_meters":12800,"station_id":"ce4bhgh2rcd13ifvqfb0","pricing_plan_id":"cebpf4jnsgd1na2vs0mg"},{"bike_id":"ee81016d-ad9f-48d1-bb91-adbd39af694c","system_id":"levelo_inurba_marseille","lat":43.25112,"lon":5.40328,"is_reserved":false,"is_disabled":false,"rental_uris":{"android":"levelo://app?vid=ee81016d-ad9f-48d1-bb91-adbd39af694c","ios":"levelo://app?vid=ee81016d-ad9f-48d1-bb91-adbd39af694c"},"vehicle_type_id":"4","last_reported":1749676213,"current_range_meters":12800,"station_id":"ce4bhlh2rcd13ifvqgig","pricing_plan_id":"cebpf4jnsgd1na2vs0mg"},{"bike_id":"640c2017-86dc-487c-a9f4-f3964a220af0","system_id":"levelo_inurba_marseille","lat":43.2408,"lon":5.37743,"is_reserved":false,"is_disabled":false,"rental_uris":{"android":"levelo://app?vid=640c2017-86dc-487c-a9f4-f3964a220af0","ios":"levelo://app?vid=640c2017-86dc-487c-a9f4-f3964a220af0"},"vehicle_type_id":"4","last_reported":1749676213,"current_range_meters":12800,"station_id":"ce4bhnp2rcd13ifvqgvg","pricing_plan_id":"cebpf4jnsgd1na2vs0mg"},{"bike_id":"671c343d-355e-4cbd-a2c7-b341903c9965","system_id":"levelo_inurba_marseille","lat":43.28714,"lon":5.39995,"is_reserved":false,"is_disabled":false,"rental_uris":{"android":"levelo://app?vid=671c343d-355e-4cbd-a2c7-b341903c9965","ios":"levelo://app?vid=671c343d-355e-4cbd-a2c7-b341903c9965"},"vehicle_type_id":"4","last_reported":1749676213,"current_range_meters":12800,"station_id":"ce4bho92rcd13ifvqh3g","pricing_plan_id":"cebpf4jnsgd1na2vs0mg"},{"bike_id":"e5ff82fd-cc37-4e1f-aade-050998fb0f61","system_id":"levelo_inurba_marseille","lat":43.26259,"lon":5.37101,"is_reserved":false,"is_disabled":false,"rental_uris":{"android":"levelo://app?vid=e5ff82fd-cc37-4e1f-aade-050998fb0f61","ios":"levelo://app?vid=e5ff82fd-cc37-4e1f-aade-050998fb0f61"},"vehicle_type_id":"4","last_reported":1749676213,"current_range_meters":13600,"station_id":"","pricing_plan_id":"cebpf4jnsgd1na2vs0mg"},{"bike_id":"64fb63da-c8a1-4b07-bc53-c1f4246d8cbd","system_id":"levelo_inurba_marseille","lat":43.29545,"lon":5.38544,"is_reserved":false,"is_disabled":false,"rental_uris":{"android":"levelo://app?vid=64fb63da-c8a1-4b07-bc53-c1f4246d8cbd","ios":"levelo://app?vid=64fb63da-c8a1-4b07-bc53-c1f4246d8cbd"},"vehicle_type_id":"4","last_reported":1749676213,"current_range_meters":13600,"station_id":"ce4bgih2rcd13ifvqba0","pricing_plan_id":"cebpf4jnsgd1na2vs0mg"},{"bike_id":"a9ac56c8-9ea0-4087-bd60-93e32a572465","system_id":"levelo_inurba_marseille","lat":43.30134,"lon":5.39867,"is_reserved":false,"is_disabled":false,"rental_uris":{"android":"levelo://app?vid=a9ac56c8-9ea0-4087-bd60-93e32a572465","ios":"levelo://app?vid=a9ac56c8-9ea0-4087-bd60-93e32a572465"},"vehicle_type_id":"4","last_reported":1749676213,"current_range_meters":13600,"station_id":"ce4bh0h2rcd13ifvqd40","pricing_plan_id":"cebpf4jnsgd1na2vs0mg"},{"bike_id":"9703006c-3096-4535-b526-301aa1adc3e8","system_id":"levelo_inurba_marseille","lat":43.301,"lon":5.39046,"is_reserved":false,"is_disabled":false,"rental_uris":{"android":"levelo://app?vid=9703006c-3096-4535-b526-301aa1adc3e8","ios":"levelo://app?vid=9703006c-3096-4535-b526-301aa1adc3e8"},"vehicle_type_id":"4","last_reported":1749676213,"current_range_meters":13600,"station_id":"ce4bh192rcd13ifvqdb0","pricing_plan_id":"cebpf4jnsgd1na2vs0mg"},{"bike_id":"0ae4f5e6-b319-4c3b-901c-6610ac77ab83","system_id":"levelo_inurba_marseille","lat":43.28405,"lon":5.37524,"is_reserved":false,"is_disabled":false,"rental_uris":{"android":"levelo://app?vid=0ae4f5e6-b319-4c3b-901c-6610ac77ab83","ios":"levelo://app?vid=0ae4f5e6-b319-4c3b-901c-6610ac77ab83"},"vehicle_type_id":"4","last_reported":1749676213,"current_range_meters":13600,"station_id":"ce4bh412rcd13ifvqds0","pricing_plan_id":"cebpf4jnsgd1na2vs0mg"},{"bike_id":"5e2328c0-149c-49a4-a884-8e5262a1ebad","system_id":"levelo_inurba_marseille","lat":43.29289,"lon":5.38418,"is_reserved":false,"is_disabled":false,"rental_uris":{"android":"levelo://app?vid=5e2328c0-149c-49a4-a884-8e5262a1ebad","ios":"levelo://app?vid=5e2328c0-149c-49a4-a884-8e5262a1ebad"},"vehicle_type_id":"4","last_reported":1749676213,"current_range_meters":13600,"station_id":"ce4bh692rcd13ifvqea0","pricing_plan_id":"cebpf4jnsgd1na2vs0mg"},{"bike_id":"622fb8b6-0abf-4787-9418-d15270a460fa","system_id":"levelo_inurba_marseille","lat":43.27839,"lon":5.39199,"is_reserved":false,"is_disabled":false,"rental_uris":{"android":"levelo://app?vid=622fb8b6-0abf-4787-9418-d15270a460fa","ios":"levelo://app?vid=622fb8b6-0abf-4787-9418-d15270a460fa"},"vehicle_type_id":"4","last_reported":1749676213,"current_range_meters":14000,"station_id":"ce4bhjp2rcd13ifvqga0","pricing_plan_id":"cebpf4jnsgd1na2vs0mg"},{"bike_id":"c300b8d2-0b3f-4b2f-8211-1d5204009a02","system_id":"levelo_inurba_marseille","lat":43.25106,"lon":5.40323,"is_reserved":false,"is_disabled":false,"rental_uris":{"android":"levelo://app?vid=c300b8d2-0b3f-4b2f-8211-1d5204009a02","ios":"levelo://app?vid=c300b8d2-0b3f-4b2f-8211-1d5204009a02"},"vehicle_type_id":"4","last_reported":1749676213,"current_range_meters":14000,"station_id":"ce4bhlh2rcd13ifvqgig","pricing_plan_id":"cebpf4jnsgd1na2vs0mg"},{"bike_id":"b4dec724-3791-4400-8975-1fd00ab90545","system_id":"levelo_inurba_marseille","lat":43.29787,"lon":5.39338,"is_reserved":false,"is_disabled":false,"rental_uris":{"android":"levelo://app?vid=b4dec724-3791-4400-8975-1fd00ab90545","ios":"levelo://app?vid=b4dec724-3791-4400-8975-1fd00ab90545"},"vehicle_type_id":"4","last_reported":1749676213,"current_range_meters":14000,"station_id":"chh1huq6cuj3fo74tm60","pricing_plan_id":"cebpf4jnsgd1na2vs0mg"},{"bike_id":"6dfd5595-654e-42ee-8e58-2a5c3df13ff8","system_id":"levelo_inurba_marseille","lat":43.309391,"lon":5.372589,"is_reserved":false,"is_disabled":false,"rental_uris":{"android":"levelo://app?vid=6dfd5595-654e-42ee-8e58-2a5c3df13ff8","ios":"levelo://app?vid=6dfd5595-654e-42ee-8e58-2a5c3df13ff8"},"vehicle_type_id":"4","last_reported":1749676213,"current_range_meters":14400,"station_id":"","pricing_plan_id":"cebpf4jnsgd1na2vs0mg"},{"bike_id":"7e487999-e9de-4fcc-9894-153ae154d28c","system_id":"levelo_inurba_marseille","lat":43.31175,"lon":5.3871,"is_reserved":false,"is_disabled":false,"rental_uris":{"android":"levelo://app?vid=7e487999-e9de-4fcc-9894-153ae154d28c","ios":"levelo://app?vid=7e487999-e9de-4fcc-9894-153ae154d28c"},"vehicle_type_id":"4","last_reported":1749676213,"current_range_meters":14400,"station_id":"ce4bgv12rcd13ifvqcp0","pricing_plan_id":"cebpf4jnsgd1na2vs0mg"},{"bike_id":"c9bf68a9-3353-43a2-8402-1ef0d18dd3cb","system_id":"levelo_inurba_marseille","lat":43.30653,"lon":5.40075,"is_reserved":false,"is_disabled":false,"rental_uris":{"android":"levelo://app?vid=c9bf68a9-3353-43a2-8402-1ef0d18dd3cb","ios":"levelo://app?vid=c9bf68a9-3353-43a2-8402-1ef0d18dd3cb"},"vehicle_type_id":"4","last_reported":1749676213,"current_range_meters":14400,"station_id":"ce4bh112rcd13ifvqda0","pricing_plan_id":"cebpf4jnsgd1na2vs0mg"},{"bike_id":"abb5c0f5-fd2d-4a3e-a30a-87a97c294f9b","system_id":"levelo_inurba_marseille","lat":43.28344,"lon":5.38111,"is_reserved":false,"is_disabled":false,"rental_uris":{"android":"levelo://app?vid=abb5c0f5-fd2d-4a3e-a30a-87a97c294f9b","ios":"levelo://app?vid=abb5c0f5-fd2d-4a3e-a30a-87a97c294f9b"},"vehicle_type_id":"4","last_reported":1749676213,"current_range_meters":14400,"station_id":"ce4bh412rcd13ifvqdr0","pricing_plan_id":"cebpf4jnsgd1na2vs0mg"},{"bike_id":"3f758453-718d-4e31-98ff-9ab42e2d0678","system_id":"levelo_inurba_marseille","lat":43.2902,"lon":5.3813,"is_reserved":false,"is_disabled":false,"rental_uris":{"android":"levelo://app?vid=3f758453-718d-4e31-98ff-9ab42e2d0678","ios":"levelo://app?vid=3f758453-718d-4e31-98ff-9ab42e2d0678"},"vehicle_type_id":"4","last_reported":1749676213,"current_range_meters":14400,"station_id":"ce4bh4p2rcd13ifvqe1g","pricing_plan_id":"cebpf4jnsgd1na2vs0mg"},{"bike_id":"1cf093e0-3c5f-4310-a1b5-a8bd10fa660d","system_id":"levelo_inurba_marseille","lat":43.28101,"lon":5.37831,"is_reserved":false,"is_disabled":false,"rental_uris":{"android":"levelo://app?vid=1cf093e0-3c5f-4310-a1b5-a8bd10fa660d","ios":"levelo://app?vid=1cf093e0-3c5f-4310-a1b5-a8bd10fa660d"},"vehicle_type_id":"4","last_reported":1749676213,"current_range_meters":14400,"station_id":"ce4bha12rcd13ifvqee0","pricing_plan_id":"cebpf4jnsgd1na2vs0mg"},{"bike_id":"ff789d00-bb26-43da-8926-9ab1c4760ad1","system_id":"levelo_inurba_marseille","lat":43.30425,"lon":5.39746,"is_reserved":false,"is_disabled":false,"rental_uris":{"android":"levelo://app?vid=ff789d00-bb26-43da-8926-9ab1c4760ad1","ios":"levelo://app?vid=ff789d00-bb26-43da-8926-9ab1c4760ad1"},"vehicle_type_id":"4","last_reported":1749676213,"current_range_meters":14800,"station_id":"ce4bh092rcd13ifvqd20","pricing_plan_id":"cebpf4jnsgd1na2vs0mg"},{"bike_id":"f0b76815-ea78-4e3b-b029-53c5e40541f5","system_id":"levelo_inurba_marseille","lat":43.29032,"lon":5.38126,"is_reserved":false,"is_disabled":false,"rental_uris":{"android":"levelo://app?vid=f0b76815-ea78-4e3b-b029-53c5e40541f5","ios":"levelo://app?vid=f0b76815-ea78-4e3b-b029-53c5e40541f5"},"vehicle_type_id":"4","last_reported":1749676213,"current_range_meters":14800,"station_id":"ce4bh4p2rcd13ifvqe1g","pricing_plan_id":"cebpf4jnsgd1na2vs0mg"},{"bike_id":"b4066818-921b-4ded-a2e2-5e7e671ad7aa","system_id":"levelo_inurba_marseille","lat":43.25093,"lon":5.39497,"is_reserved":false,"is_disabled":false,"rental_uris":{"android":"levelo://app?vid=b4066818-921b-4ded-a2e2-5e7e671ad7aa","ios":"levelo://app?vid=b4066818-921b-4ded-a2e2-5e7e671ad7aa"},"vehicle_type_id":"4","last_reported":1749676213,"current_range_meters":14800,"station_id":"ce4bhm12rcd13ifvqgkg","pricing_plan_id":"cebpf4jnsgd1na2vs0mg"},{"bike_id":"0c22a90a-2316-471e-b970-b8b570fbae44","system_id":"levelo_inurba_marseille","lat":43.3176,"lon":5.3902,"is_reserved":false,"is_disabled":false,"rental_uris":{"android":"levelo://app?vid=0c22a90a-2316-471e-b970-b8b570fbae44","ios":"levelo://app?vid=0c22a90a-2316-471e-b970-b8b570fbae44"},"vehicle_type_id":"4","last_reported":1749676213,"current_range_meters":14800,"station_id":"ce4bhqp2rcd13ifvqhng","pricing_plan_id":"cebpf4jnsgd1na2vs0mg"},{"bike_id":"c8acc72b-5ece-4e56-907d-33af210c0702","system_id":"levelo_inurba_marseille","lat":43.26208,"lon":5.37039,"is_reserved":false,"is_disabled":false,"rental_uris":{"android":"levelo://app?vid=c8acc72b-5ece-4e56-907d-33af210c0702","ios":"levelo://app?vid=c8acc72b-5ece-4e56-907d-33af210c0702"},"vehicle_type_id":"4","last_reported":1749676213,"current_range_meters":15200,"station_id":"","pricing_plan_id":"cebpf4jnsgd1na2vs0mg"},{"bike_id":"b0ad9193-808e-4359-9c20-84d81e92d4fd","system_id":"levelo_inurba_marseille","lat":43.2903,"lon":5.38644,"is_reserved":false,"is_disabled":false,"rental_uris":{"android":"levelo://app?vid=b0ad9193-808e-4359-9c20-84d81e92d4fd","ios":"levelo://app?vid=b0ad9193-808e-4359-9c20-84d81e92d4fd"},"vehicle_type_id":"4","last_reported":1749676213,"current_range_meters":15200,"station_id":"ce4bh4p2rcd13ifvqe0g","pricing_plan_id":"cebpf4jnsgd1na2vs0mg"},{"bike_id":"048f2f2b-8e86-4fe8-80fa-0a30dafb1ed2","system_id":"levelo_inurba_marseille","lat":43.298596,"lon":5.362928,"is_reserved":false,"is_disabled":false,"rental_uris":{"android":"levelo://app?vid=048f2f2b-8e86-4fe8-80fa-0a30dafb1ed2","ios":"levelo://app?vid=048f2f2b-8e86-4fe8-80fa-0a30dafb1ed2"},"vehicle_type_id":"4","last_reported":1749676213,"current_range_meters":16000,"station_id":"","pricing_plan_id":"cebpf4jnsgd1na2vs0mg"},{"bike_id":"bd58138a-6dba-486f-9249-0e6d4bdf3d51","system_id":"levelo_inurba_marseille","lat":43.29213,"lon":5.38048,"is_reserved":false,"is_disabled":false,"rental_uris":{"android":"levelo://app?vid=bd58138a-6dba-486f-9249-0e6d4bdf3d51","ios":"levelo://app?vid=bd58138a-6dba-486f-9249-0e6d4bdf3d51"},"vehicle_type_id":"4","last_reported":1749676213,"current_range_meters":16000,"station_id":"","pricing_plan_id":"cebpf4jnsgd1na2vs0mg"},{"bike_id":"917121e5-f491-4863-b595-15ac60ec1a1a","system_id":"levelo_inurba_marseille","lat":43.29718,"lon":5.36611,"is_reserved":false,"is_disabled":false,"rental_uris":{"android":"levelo://app?vid=917121e5-f491-4863-b595-15ac60ec1a1a","ios":"levelo://app?vid=917121e5-f491-4863-b595-15ac60ec1a1a"},"vehicle_type_id":"4","last_reported":1749676213,"current_range_meters":16000,"station_id":"ce4bgn12rcd13ifvqbt0","pricing_plan_id":"cebpf4jnsgd1na2vs0mg"},{"bike_id":"c1f50d61-672b-4319-8e90-1ccaf3dfe250","system_id":"levelo_inurba_marseille","lat":43.31322,"lon":5.39711,"is_reserved":false,"is_disabled":false,"rental_uris":{"android":"levelo://app?vid=c1f50d61-672b-4319-8e90-1ccaf3dfe250","ios":"levelo://app?vid=c1f50d61-672b-4319-8e90-1ccaf3dfe250"},"vehicle_type_id":"4","last_reported":1749676213,"current_range_meters":16000,"station_id":"ce4bgvp2rcd13ifvqcu0","pricing_plan_id":"cebpf4jnsgd1na2vs0mg"},{"bike_id":"a09eab35-3951-48ed-8ba6-4778e465b83a","system_id":"levelo_inurba_marseille","lat":43.301307,"lon":5.39875,"is_reserved":false,"is_disabled":false,"rental_uris":{"android":"levelo://app?vid=a09eab35-3951-48ed-8ba6-4778e465b83a","ios":"levelo://app?vid=a09eab35-3951-48ed-8ba6-4778e465b83a"},"vehicle_type_id":"4","last_reported":1749676213,"current_range_meters":16000,"station_id":"ce4bh0h2rcd13ifvqd40","pricing_plan_id":"cebpf4jnsgd1na2vs0mg"},{"bike_id":"6a5a7c02-27fc-49e6-814f-c82310ca8afa","system_id":"levelo_inurba_marseille","lat":43.29274,"lon":5.38451,"is_reserved":false,"is_disabled":false,"rental_uris":{"android":"levelo://app?vid=6a5a7c02-27fc-49e6-814f-c82310ca8afa","ios":"levelo://app?vid=6a5a7c02-27fc-49e6-814f-c82310ca8afa"},"vehicle_type_id":"4","last_reported":1749676213,"current_range_meters":16000,"station_id":"ce4bh692rcd13ifvqea0","pricing_plan_id":"cebpf4jnsgd1na2vs0mg"},{"bike_id":"165ecccf-321b-45ee-abfd-553d9801aac0","system_id":"levelo_inurba_marseille","lat":43.29049,"lon":5.3559,"is_reserved":false,"is_disabled":false,"rental_uris":{"android":"levelo://app?vid=165ecccf-321b-45ee-abfd-553d9801aac0","ios":"levelo://app?vid=165ecccf-321b-45ee-abfd-553d9801aac0"},"vehicle_type_id":"4","last_reported":1749676213,"current_range_meters":16000,"station_id":"ce4bhb92rcd13ifvqen0","pricing_plan_id":"cebpf4jnsgd1na2vs0mg"},{"bike_id":"00e80b5b-9ba8-4d44-93ae-7aabaf6dc5c7","system_id":"levelo_inurba_marseille","lat":43.24808,"lon":5.37463,"is_reserved":false,"is_disabled":false,"rental_uris":{"android":"levelo://app?vid=00e80b5b-9ba8-4d44-93ae-7aabaf6dc5c7","ios":"levelo://app?vid=00e80b5b-9ba8-4d44-93ae-7aabaf6dc5c7"},"vehicle_type_id":"4","last_reported":1749676213,"current_range_meters":16000,"station_id":"ce4bhgh2rcd13ifvqfb0","pricing_plan_id":"cebpf4jnsgd1na2vs0mg"},{"bike_id":"743245d4-5457-49b9-9efc-d95c90d69b8e","system_id":"levelo_inurba_marseille","lat":43.314873,"lon":5.373081,"is_reserved":false,"is_disabled":false,"rental_uris":{"android":"levelo://app?vid=743245d4-5457-49b9-9efc-d95c90d69b8e","ios":"levelo://app?vid=743245d4-5457-49b9-9efc-d95c90d69b8e"},"vehicle_type_id":"4","last_reported":1749676213,"current_range_meters":16000,"station_id":"ce4bhip2rcd13ifvqft0","pricing_plan_id":"cebpf4jnsgd1na2vs0mg"},{"bike_id":"51c9c3d1-050f-47d1-8726-c1814cd19d79","system_id":"levelo_inurba_marseille","lat":43.31276,"lon":5.38899,"is_reserved":false,"is_disabled":false,"rental_uris":{"android":"levelo://app?vid=51c9c3d1-050f-47d1-8726-c1814cd19d79","ios":"levelo://app?vid=51c9c3d1-050f-47d1-8726-c1814cd19d79"},"vehicle_type_id":"4","last_reported":1749676213,"current_range_meters":16400,"station_id":"","pricing_plan_id":"cebpf4jnsgd1na2vs0mg"},{"bike_id":"467b65a4-5a46-49bd-b43b-f1752a867cb8","system_id":"levelo_inurba_marseille","lat":43.29702,"lon":5.36598,"is_reserved":false,"is_disabled":false,"rental_uris":{"android":"levelo://app?vid=467b65a4-5a46-49bd-b43b-f1752a867cb8","ios":"levelo://app?vid=467b65a4-5a46-49bd-b43b-f1752a867cb8"},"vehicle_type_id":"4","last_reported":1749676213,"current_range_meters":16400,"station_id":"ce4bgn12rcd13ifvqbt0","pricing_plan_id":"cebpf4jnsgd1na2vs0mg"},{"bike_id":"f9408c59-41fb-4165-bfb6-1758a26a1825","system_id":"levelo_inurba_marseille","lat":43.29787,"lon":5.37094,"is_reserved":false,"is_disabled":false,"rental_uris":{"android":"levelo://app?vid=f9408c59-41fb-4165-bfb6-1758a26a1825","ios":"levelo://app?vid=f9408c59-41fb-4165-bfb6-1758a26a1825"},"vehicle_type_id":"4","last_reported":1749676213,"current_range_meters":16400,"station_id":"ce4bgop2rcd13ifvqc1g","pricing_plan_id":"cebpf4jnsgd1na2vs0mg"},{"bike_id":"f59870a9-58ba-4502-93ba-1f1160ebd789","system_id":"levelo_inurba_marseille","lat":43.31073,"lon":5.38359,"is_reserved":false,"is_disabled":false,"rental_uris":{"android":"levelo://app?vid=f59870a9-58ba-4502-93ba-1f1160ebd789","ios":"levelo://app?vid=f59870a9-58ba-4502-93ba-1f1160ebd789"},"vehicle_type_id":"4","last_reported":1749676213,"current_range_meters":16400,"station_id":"ce4bgv92rcd13ifvqcr0","pricing_plan_id":"cebpf4jnsgd1na2vs0mg"},{"bike_id":"d66862e3-916a-4eff-a76a-9c66535ee9f9","system_id":"levelo_inurba_marseille","lat":43.30424,"lon":5.39751,"is_reserved":false,"is_disabled":false,"rental_uris":{"android":"levelo://app?vid=d66862e3-916a-4eff-a76a-9c66535ee9f9","ios":"levelo://app?vid=d66862e3-916a-4eff-a76a-9c66535ee9f9"},"vehicle_type_id":"4","last_reported":1749676213,"current_range_meters":16400,"station_id":"ce4bh092rcd13ifvqd20","pricing_plan_id":"cebpf4jnsgd1na2vs0mg"},{"bike_id":"ab845cfb-86e0-4f81-b2b4-9bd0ad11a336","system_id":"levelo_inurba_marseille","lat":43.31725,"lon":5.42395,"is_reserved":false,"is_disabled":false,"rental_uris":{"android":"levelo://app?vid=ab845cfb-86e0-4f81-b2b4-9bd0ad11a336","ios":"levelo://app?vid=ab845cfb-86e0-4f81-b2b4-9bd0ad11a336"},"vehicle_type_id":"4","last_reported":1749676213,"current_range_meters":16400,"station_id":"ce4bhp92rcd13ifvqhbg","pricing_plan_id":"cebpf4jnsgd1na2vs0mg"},{"bike_id":"ef4b3f6f-96f1-4234-a50d-b4c9dd787743","system_id":"levelo_inurba_marseille","lat":43.30868,"lon":5.39562,"is_reserved":false,"is_disabled":false,"rental_uris":{"android":"levelo://app?vid=ef4b3f6f-96f1-4234-a50d-b4c9dd787743","ios":"levelo://app?vid=ef4b3f6f-96f1-4234-a50d-b4c9dd787743"},"vehicle_type_id":"4","last_reported":1749676213,"current_range_meters":16800,"station_id":"","pricing_plan_id":"cebpf4jnsgd1na2vs0mg"},{"bike_id":"c0bd4251-d527-48a7-9378-e4e80c1c274f","system_id":"levelo_inurba_marseille","lat":43.318307,"lon":5.373573,"is_reserved":false,"is_disabled":false,"rental_uris":{"android":"levelo://app?vid=c0bd4251-d527-48a7-9378-e4e80c1c274f","ios":"levelo://app?vid=c0bd4251-d527-48a7-9378-e4e80c1c274f"},"vehicle_type_id":"4","last_reported":1749676213,"current_range_meters":16800,"station_id":"","pricing_plan_id":"cebpf4jnsgd1na2vs0mg"},{"bike_id":"501fe5cc-ec9f-4031-8e12-9c9a87dfd25d","system_id":"levelo_inurba_marseille","lat":43.31785,"lon":5.4061,"is_reserved":false,"is_disabled":false,"rental_uris":{"android":"levelo://app?vid=501fe5cc-ec9f-4031-8e12-9c9a87dfd25d","ios":"levelo://app?vid=501fe5cc-ec9f-4031-8e12-9c9a87dfd25d"},"vehicle_type_id":"4","last_reported":1749676213,"current_range_meters":16800,"station_id":"","pricing_plan_id":"cebpf4jnsgd1na2vs0mg"},{"bike_id":"10d685d8-b11c-42dc-91ae-a20021b01a2a","system_id":"levelo_inurba_marseille","lat":43.29025,"lon":5.38645,"is_reserved":false,"is_disabled":false,"rental_uris":{"android":"levelo://app?vid=10d685d8-b11c-42dc-91ae-a20021b01a2a","ios":"levelo://app?vid=10d685d8-b11c-42dc-91ae-a20021b01a2a"},"vehicle_type_id":"4","last_reported":1749676213,"current_range_meters":16800,"station_id":"ce4bh4p2rcd13ifvqe0g","pricing_plan_id":"cebpf4jnsgd1na2vs0mg"},{"bike_id":"f7c290e1-96e1-42d5-b979-5024967a17b9","system_id":"levelo_inurba_marseille","lat":43.29257,"lon":5.38437,"is_reserved":false,"is_disabled":false,"rental_uris":{"android":"levelo://app?vid=f7c290e1-96e1-42d5-b979-5024967a17b9","ios":"levelo://app?vid=f7c290e1-96e1-42d5-b979-5024967a17b9"},"vehicle_type_id":"4","last_reported":1749676213,"current_range_meters":16800,"station_id":"ce4bh692rcd13ifvqea0","pricing_plan_id":"cebpf4jnsgd1na2vs0mg"},{"bike_id":"d665cf93-d005-4a69-ade5-22d2ab25dd5a","system_id":"levelo_inurba_marseille","lat":43.25105,"lon":5.40324,"is_reserved":false,"is_disabled":false,"rental_uris":{"android":"levelo://app?vid=d665cf93-d005-4a69-ade5-22d2ab25dd5a","ios":"levelo://app?vid=d665cf93-d005-4a69-ade5-22d2ab25dd5a"},"vehicle_type_id":"4","last_reported":1749676213,"current_range_meters":16800,"station_id":"ce4bhlh2rcd13ifvqgig","pricing_plan_id":"cebpf4jnsgd1na2vs0mg"},{"bike_id":"a1ff6074-f159-4eaf-9b2e-24e3a3db1dc0","system_id":"levelo_inurba_marseille","lat":43.24073,"lon":5.3772,"is_reserved":false,"is_disabled":false,"rental_uris":{"android":"levelo://app?vid=a1ff6074-f159-4eaf-9b2e-24e3a3db1dc0","ios":"levelo://app?vid=a1ff6074-f159-4eaf-9b2e-24e3a3db1dc0"},"vehicle_type_id":"4","last_reported":1749676213,"current_range_meters":16800,"station_id":"ce4bhnp2rcd13ifvqgvg","pricing_plan_id":"cebpf4jnsgd1na2vs0mg"},{"bike_id":"cd0aaed2-0bcb-4c70-9ae5-22bb3661cc02","system_id":"levelo_inurba_marseille","lat":43.28453,"lon":5.39194,"is_reserved":false,"is_disabled":false,"rental_uris":{"android":"levelo://app?vid=cd0aaed2-0bcb-4c70-9ae5-22bb3661cc02","ios":"levelo://app?vid=cd0aaed2-0bcb-4c70-9ae5-22bb3661cc02"},"vehicle_type_id":"4","last_reported":1749676213,"current_range_meters":16800,"station_id":"ce4bhoh2rcd13ifvqh5g","pricing_plan_id":"cebpf4jnsgd1na2vs0mg"},{"bike_id":"e0249f4b-8d8b-4dc7-a224-9ea697947c37","system_id":"levelo_inurba_marseille","lat":43.31718,"lon":5.42404,"is_reserved":false,"is_disabled":false,"rental_uris":{"android":"levelo://app?vid=e0249f4b-8d8b-4dc7-a224-9ea697947c37","ios":"levelo://app?vid=e0249f4b-8d8b-4dc7-a224-9ea697947c37"},"vehicle_type_id":"4","last_reported":1749676213,"current_range_meters":16800,"station_id":"ce4bhp92rcd13ifvqhbg","pricing_plan_id":"cebpf4jnsgd1na2vs0mg"},{"bike_id":"ce81f804-a274-484f-a641-28706f036e77","system_id":"levelo_inurba_marseille","lat":43.3193,"lon":5.40745,"is_reserved":false,"is_disabled":false,"rental_uris":{"android":"levelo://app?vid=ce81f804-a274-484f-a641-28706f036e77","ios":"levelo://app?vid=ce81f804-a274-484f-a641-28706f036e77"},"vehicle_type_id":"4","last_reported":1749676213,"current_range_meters":16800,"station_id":"ce4bhq12rcd13ifvqhig","pricing_plan_id":"cebpf4jnsgd1na2vs0mg"},{"bike_id":"6fa832c6-ab61-40e4-801a-74d55b5f371f","system_id":"levelo_inurba_marseille","lat":43.30199,"lon":5.39446,"is_reserved":false,"is_disabled":false,"rental_uris":{"android":"levelo://app?vid=6fa832c6-ab61-40e4-801a-74d55b5f371f","ios":"levelo://app?vid=6fa832c6-ab61-40e4-801a-74d55b5f371f"},"vehicle_type_id":"4","last_reported":1749676213,"current_range_meters":17200,"station_id":"ce4bh0p2rcd13ifvqd70","pricing_plan_id":"cebpf4jnsgd1na2vs0mg"},{"bike_id":"ca83bbb4-281f-4712-ba16-b101725331cf","system_id":"levelo_inurba_marseille","lat":43.29095,"lon":5.38142,"is_reserved":false,"is_disabled":false,"rental_uris":{"android":"levelo://app?vid=ca83bbb4-281f-4712-ba16-b101725331cf","ios":"levelo://app?vid=ca83bbb4-281f-4712-ba16-b101725331cf"},"vehicle_type_id":"4","last_reported":1749676213,"current_range_meters":17200,"station_id":"ce4bh512rcd13ifvqe2g","pricing_plan_id":"cebpf4jnsgd1na2vs0mg"},{"bike_id":"451dbcf7-69ca-44c8-be22-8c32346dd0d2","system_id":"levelo_inurba_marseille","lat":43.28658,"lon":5.36354,"is_reserved":false,"is_disabled":false,"rental_uris":{"android":"levelo://app?vid=451dbcf7-69ca-44c8-be22-8c32346dd0d2","ios":"levelo://app?vid=451dbcf7-69ca-44c8-be22-8c32346dd0d2"},"vehicle_type_id":"4","last_reported":1749676213,"current_range_meters":17200,"station_id":"ce4bhah2rcd13ifvqej0","pricing_plan_id":"cebpf4jnsgd1na2vs0mg"},{"bike_id":"3fb0f4cd-11b5-47c9-834e-3c4e01cf6476","system_id":"levelo_inurba_marseille","lat":43.25721,"lon":5.4111,"is_reserved":false,"is_disabled":false,"rental_uris":{"android":"levelo://app?vid=3fb0f4cd-11b5-47c9-834e-3c4e01cf6476","ios":"levelo://app?vid=3fb0f4cd-11b5-47c9-834e-3c4e01cf6476"},"vehicle_type_id":"4","last_reported":1749676213,"current_range_meters":17200,"station_id":"ce4bhkp2rcd13ifvqgd0","pricing_plan_id":"cebpf4jnsgd1na2vs0mg"},{"bike_id":"193b7494-a9ae-4f97-a07c-7e631bf7f277","system_id":"levelo_inurba_marseille","lat":43.30797,"lon":5.43516,"is_reserved":false,"is_disabled":false,"rental_uris":{"android":"levelo://app?vid=193b7494-a9ae-4f97-a07c-7e631bf7f277","ios":"levelo://app?vid=193b7494-a9ae-4f97-a07c-7e631bf7f277"},"vehicle_type_id":"4","last_reported":1749676213,"current_range_meters":17200,"station_id":"ce4bhph2rcd13ifvqheg","pricing_plan_id":"cebpf4jnsgd1na2vs0mg"},{"bike_id":"ace934a9-bcf4-4893-9424-45ed938a1a49","system_id":"levelo_inurba_marseille","lat":43.24804,"lon":5.37455,"is_reserved":false,"is_disabled":false,"rental_uris":{"android":"levelo://app?vid=ace934a9-bcf4-4893-9424-45ed938a1a49","ios":"levelo://app?vid=ace934a9-bcf4-4893-9424-45ed938a1a49"},"vehicle_type_id":"4","last_reported":1749676213,"current_range_meters":17600,"station_id":"ce4bhgh2rcd13ifvqfb0","pricing_plan_id":"cebpf4jnsgd1na2vs0mg"},{"bike_id":"10690812-c8bd-45a6-b4d4-2dbcd5909337","system_id":"levelo_inurba_marseille","lat":43.25872,"lon":5.39906,"is_reserved":false,"is_disabled":false,"rental_uris":{"android":"levelo://app?vid=10690812-c8bd-45a6-b4d4-2dbcd5909337","ios":"levelo://app?vid=10690812-c8bd-45a6-b4d4-2dbcd5909337"},"vehicle_type_id":"4","last_reported":1749676213,"current_range_meters":17600,"station_id":"ce4bhl92rcd13ifvqghg","pricing_plan_id":"cebpf4jnsgd1na2vs0mg"},{"bike_id":"569ee613-7295-4d42-8497-75d2881c4406","system_id":"levelo_inurba_marseille","lat":43.27507,"lon":5.42469,"is_reserved":false,"is_disabled":false,"rental_uris":{"android":"levelo://app?vid=569ee613-7295-4d42-8497-75d2881c4406","ios":"levelo://app?vid=569ee613-7295-4d42-8497-75d2881c4406"},"vehicle_type_id":"4","last_reported":1749676213,"current_range_meters":17600,"station_id":"ce4bhn92rcd13ifvqgrg","pricing_plan_id":"cebpf4jnsgd1na2vs0mg"},{"bike_id":"9871dc12-477e-4af8-a4ca-d525f8106469","system_id":"levelo_inurba_marseille","lat":43.24072,"lon":5.37762,"is_reserved":false,"is_disabled":false,"rental_uris":{"android":"levelo://app?vid=9871dc12-477e-4af8-a4ca-d525f8106469","ios":"levelo://app?vid=9871dc12-477e-4af8-a4ca-d525f8106469"},"vehicle_type_id":"4","last_reported":1749676213,"current_range_meters":17600,"station_id":"ce4bhnp2rcd13ifvqgvg","pricing_plan_id":"cebpf4jnsgd1na2vs0mg"},{"bike_id":"45cb9171-bb7e-418e-bf45-5916b7d21e5e","system_id":"levelo_inurba_marseille","lat":43.32122,"lon":5.36752,"is_reserved":false,"is_disabled":false,"rental_uris":{"android":"levelo://app?vid=45cb9171-bb7e-418e-bf45-5916b7d21e5e","ios":"levelo://app?vid=45cb9171-bb7e-418e-bf45-5916b7d21e5e"},"vehicle_type_id":"4","last_reported":1749676213,"current_range_meters":17600,"station_id":"ce4bhrh2rcd13ifvqhug","pricing_plan_id":"cebpf4jnsgd1na2vs0mg"},{"bike_id":"7d7170dd-d55e-43db-a9c2-1ed74c433fd7","system_id":"levelo_inurba_marseille","lat":43.30989,"lon":5.41998,"is_reserved":false,"is_disabled":false,"rental_uris":{"android":"levelo://app?vid=7d7170dd-d55e-43db-a9c2-1ed74c433fd7","ios":"levelo://app?vid=7d7170dd-d55e-43db-a9c2-1ed74c433fd7"},"vehicle_type_id":"4","last_reported":1749676213,"current_range_meters":18000,"station_id":"","pricing_plan_id":"cebpf4jnsgd1na2vs0mg"},{"bike_id":"e5ef7447-82af-477b-846f-d44631249354","system_id":"levelo_inurba_marseille","lat":43.3253,"lon":5.38834,"is_reserved":false,"is_disabled":false,"rental_uris":{"android":"levelo://app?vid=e5ef7447-82af-477b-846f-d44631249354","ios":"levelo://app?vid=e5ef7447-82af-477b-846f-d44631249354"},"vehicle_type_id":"4","last_reported":1749676213,"current_range_meters":18000,"station_id":"","pricing_plan_id":"cebpf4jnsgd1na2vs0mg"},{"bike_id":"f85b2c50-4d2b-4d55-957c-2751e1f8c7c4","system_id":"levelo_inurba_marseille","lat":43.31335,"lon":5.39698,"is_reserved":false,"is_disabled":false,"rental_uris":{"android":"levelo://app?vid=f85b2c50-4d2b-4d55-957c-2751e1f8c7c4","ios":"levelo://app?vid=f85b2c50-4d2b-4d55-957c-2751e1f8c7c4"},"vehicle_type_id":"4","last_reported":1749676213,"current_range_meters":18000,"station_id":"ce4bgvp2rcd13ifvqcu0","pricing_plan_id":"cebpf4jnsgd1na2vs0mg"},{"bike_id":"d152427f-44a0-40b6-8807-dee7fdb74a77","system_id":"levelo_inurba_marseille","lat":43.30147,"lon":5.39857,"is_reserved":false,"is_disabled":false,"rental_uris":{"android":"levelo://app?vid=d152427f-44a0-40b6-8807-dee7fdb74a77","ios":"levelo://app?vid=d152427f-44a0-40b6-8807-dee7fdb74a77"},"vehicle_type_id":"4","last_reported":1749676213,"current_range_meters":18000,"station_id":"ce4bh0h2rcd13ifvqd40","pricing_plan_id":"cebpf4jnsgd1na2vs0mg"},{"bike_id":"e7f677e2-15f3-4e07-83e9-99513152b7ab","system_id":"levelo_inurba_marseille","lat":43.30642,"lon":5.40093,"is_reserved":false,"is_disabled":false,"rental_uris":{"android":"levelo://app?vid=e7f677e2-15f3-4e07-83e9-99513152b7ab","ios":"levelo://app?vid=e7f677e2-15f3-4e07-83e9-99513152b7ab"},"vehicle_type_id":"4","last_reported":1749676213,"current_range_meters":18000,"station_id":"ce4bh112rcd13ifvqda0","pricing_plan_id":"cebpf4jnsgd1na2vs0mg"},{"bike_id":"cafc2675-a592-4797-a344-8bf9db3dd97a","system_id":"levelo_inurba_marseille","lat":43.29021,"lon":5.39949,"is_reserved":false,"is_disabled":false,"rental_uris":{"android":"levelo://app?vid=cafc2675-a592-4797-a344-8bf9db3dd97a","ios":"levelo://app?vid=cafc2675-a592-4797-a344-8bf9db3dd97a"},"vehicle_type_id":"4","last_reported":1749676213,"current_range_meters":18000,"station_id":"ce4bh392rcd13ifvqdm0","pricing_plan_id":"cebpf4jnsgd1na2vs0mg"},{"bike_id":"5c530aba-f703-400e-86fd-e8c778778888","system_id":"levelo_inurba_marseille","lat":43.28671,"lon":5.38653,"is_reserved":false,"is_disabled":false,"rental_uris":{"android":"levelo://app?vid=5c530aba-f703-400e-86fd-e8c778778888","ios":"levelo://app?vid=5c530aba-f703-400e-86fd-e8c778778888"},"vehicle_type_id":"4","last_reported":1749676213,"current_range_meters":18000,"station_id":"ce4bh492rcd13ifvqdug","pricing_plan_id":"cebpf4jnsgd1na2vs0mg"},{"bike_id":"afd7c744-c063-415e-abc8-82568e138369","system_id":"levelo_inurba_marseille","lat":43.29047,"lon":5.38639,"is_reserved":false,"is_disabled":false,"rental_uris":{"android":"levelo://app?vid=afd7c744-c063-415e-abc8-82568e138369","ios":"levelo://app?vid=afd7c744-c063-415e-abc8-82568e138369"},"vehicle_type_id":"4","last_reported":1749676213,"current_range_meters":18000,"station_id":"ce4bh4p2rcd13ifvqe0g","pricing_plan_id":"cebpf4jnsgd1na2vs0mg"},{"bike_id":"ed53a5a1-21c3-4274-bf4a-9581f017f746","system_id":"levelo_inurba_marseille","lat":43.29112,"lon":5.38115,"is_reserved":false,"is_disabled":false,"rental_uris":{"android":"levelo://app?vid=ed53a5a1-21c3-4274-bf4a-9581f017f746","ios":"levelo://app?vid=ed53a5a1-21c3-4274-bf4a-9581f017f746"},"vehicle_type_id":"4","last_reported":1749676213,"current_range_meters":18000,"station_id":"ce4bh512rcd13ifvqe2g","pricing_plan_id":"cebpf4jnsgd1na2vs0mg"},{"bike_id":"0b657f3a-f03c-41cb-ac04-c6d366f32629","system_id":"levelo_inurba_marseille","lat":43.28968,"lon":5.37828,"is_reserved":false,"is_disabled":false,"rental_uris":{"android":"levelo://app?vid=0b657f3a-f03c-41cb-ac04-c6d366f32629","ios":"levelo://app?vid=0b657f3a-f03c-41cb-ac04-c6d366f32629"},"vehicle_type_id":"4","last_reported":1749676213,"current_range_meters":18000,"station_id":"ce4bh9p2rcd13ifvqed0","pricing_plan_id":"cebpf4jnsgd1na2vs0mg"},{"bike_id":"e19294ee-e08d-44e4-9efb-2430d688ccd0","system_id":"levelo_inurba_marseille","lat":43.27999,"lon":5.41663,"is_reserved":false,"is_disabled":false,"rental_uris":{"android":"levelo://app?vid=e19294ee-e08d-44e4-9efb-2430d688ccd0","ios":"levelo://app?vid=e19294ee-e08d-44e4-9efb-2430d688ccd0"},"vehicle_type_id":"4","last_reported":1749676213,"current_range_meters":18000,"station_id":"ce4bho12rcd13ifvqh1g","pricing_plan_id":"cebpf4jnsgd1na2vs0mg"},{"bike_id":"6e464720-93b0-4699-80fe-881649eb71cd","system_id":"levelo_inurba_marseille","lat":43.23232,"lon":5.35578,"is_reserved":false,"is_disabled":false,"rental_uris":{"android":"levelo://app?vid=6e464720-93b0-4699-80fe-881649eb71cd","ios":"levelo://app?vid=6e464720-93b0-4699-80fe-881649eb71cd"},"vehicle_type_id":"4","last_reported":1749676213,"current_range_meters":18000,"station_id":"ce4bhu92rcd13ifvqi70","pricing_plan_id":"cebpf4jnsgd1na2vs0mg"},{"bike_id":"7003b93c-725d-412e-9127-fbade718cbc3","system_id":"levelo_inurba_marseille","lat":43.212111,"lon":5.350858,"is_reserved":false,"is_disabled":false,"rental_uris":{"android":"levelo://app?vid=7003b93c-725d-412e-9127-fbade718cbc3","ios":"levelo://app?vid=7003b93c-725d-412e-9127-fbade718cbc3"},"vehicle_type_id":"4","last_reported":1749676213,"current_range_meters":18000,"station_id":"st_cvj6sg6p6f1abm77japg","pricing_plan_id":"cebpf4jnsgd1na2vs0mg"},{"bike_id":"39d96496-529e-4438-ac0b-4445af6bf0f5","system_id":"levelo_inurba_marseille","lat":43.2972,"lon":5.36602,"is_reserved":false,"is_disabled":false,"rental_uris":{"android":"levelo://app?vid=39d96496-529e-4438-ac0b-4445af6bf0f5","ios":"levelo://app?vid=39d96496-529e-4438-ac0b-4445af6bf0f5"},"vehicle_type_id":"4","last_reported":1749676213,"current_range_meters":18800,"station_id":"","pricing_plan_id":"cebpf4jnsgd1na2vs0mg"},{"bike_id":"1989215c-378c-442b-a262-e4741c2e9de7","system_id":"levelo_inurba_marseille","lat":43.30223,"lon":5.40349,"is_reserved":false,"is_disabled":false,"rental_uris":{"android":"levelo://app?vid=1989215c-378c-442b-a262-e4741c2e9de7","ios":"levelo://app?vid=1989215c-378c-442b-a262-e4741c2e9de7"},"vehicle_type_id":"4","last_reported":1749676213,"current_range_meters":18800,"station_id":"","pricing_plan_id":"cebpf4jnsgd1na2vs0mg"},{"bike_id":"a15aa3ab-66bc-492a-800c-d77f3fa188cb","system_id":"levelo_inurba_marseille","lat":43.27629,"lon":5.36096,"is_reserved":false,"is_disabled":false,"rental_uris":{"android":"levelo://app?vid=a15aa3ab-66bc-492a-800c-d77f3fa188cb","ios":"levelo://app?vid=a15aa3ab-66bc-492a-800c-d77f3fa188cb"},"vehicle_type_id":"4","last_reported":1749676213,"current_range_meters":18800,"station_id":"ce4bgj92rcd13ifvqbe0","pricing_plan_id":"cebpf4jnsgd1na2vs0mg"},{"bike_id":"d24133ff-b3b7-4bc8-975b-6c012903b7dd","system_id":"levelo_inurba_marseille","lat":43.31237,"lon":5.36896,"is_reserved":false,"is_disabled":false,"rental_uris":{"android":"levelo://app?vid=d24133ff-b3b7-4bc8-975b-6c012903b7dd","ios":"levelo://app?vid=d24133ff-b3b7-4bc8-975b-6c012903b7dd"},"vehicle_type_id":"4","last_reported":1749676213,"current_range_meters":18800,"station_id":"ce4bgl92rcd13ifvqbq0","pricing_plan_id":"cebpf4jnsgd1na2vs0mg"},{"bike_id":"a1262e7c-9798-4122-84e6-3d9c8dcf8a99","system_id":"levelo_inurba_marseille","lat":43.29985,"lon":5.37168,"is_reserved":false,"is_disabled":false,"rental_uris":{"android":"levelo://app?vid=a1262e7c-9798-4122-84e6-3d9c8dcf8a99","ios":"levelo://app?vid=a1262e7c-9798-4122-84e6-3d9c8dcf8a99"},"vehicle_type_id":"4","last_reported":1749676213,"current_range_meters":18800,"station_id":"ce4bgr92rcd13ifvqc7g","pricing_plan_id":"cebpf4jnsgd1na2vs0mg"},{"bike_id":"63c841b4-dd43-4cf7-88f9-e65452a9fc1e","system_id":"levelo_inurba_marseille","lat":43.28409,"lon":5.37502,"is_reserved":false,"is_disabled":false,"rental_uris":{"android":"levelo://app?vid=63c841b4-dd43-4cf7-88f9-e65452a9fc1e","ios":"levelo://app?vid=63c841b4-dd43-4cf7-88f9-e65452a9fc1e"},"vehicle_type_id":"4","last_reported":1749676213,"current_range_meters":18800,"station_id":"ce4bh412rcd13ifvqds0","pricing_plan_id":"cebpf4jnsgd1na2vs0mg"},{"bike_id":"7aadb33f-87aa-40f3-86ca-34d2886e1622","system_id":"levelo_inurba_marseille","lat":43.28234,"lon":5.35074,"is_reserved":false,"is_disabled":false,"rental_uris":{"android":"levelo://app?vid=7aadb33f-87aa-40f3-86ca-34d2886e1622","ios":"levelo://app?vid=7aadb33f-87aa-40f3-86ca-34d2886e1622"},"vehicle_type_id":"4","last_reported":1749676213,"current_range_meters":18800,"station_id":"ce4bhbp2rcd13ifvqerg","pricing_plan_id":"cebpf4jnsgd1na2vs0mg"},{"bike_id":"1268e070-f02d-4537-93df-0bfd5c4daa05","system_id":"levelo_inurba_marseille","lat":43.32703,"lon":5.37665,"is_reserved":false,"is_disabled":false,"rental_uris":{"android":"levelo://app?vid=1268e070-f02d-4537-93df-0bfd5c4daa05","ios":"levelo://app?vid=1268e070-f02d-4537-93df-0bfd5c4daa05"},"vehicle_type_id":"4","last_reported":1749676213,"current_range_meters":19200,"station_id":"","pricing_plan_id":"cebpf4jnsgd1na2vs0mg"},{"bike_id":"6394e037-668e-40b6-98fb-b0cdd54013c0","system_id":"levelo_inurba_marseille","lat":43.30134,"lon":5.38781,"is_reserved":false,"is_disabled":false,"rental_uris":{"android":"levelo://app?vid=6394e037-668e-40b6-98fb-b0cdd54013c0","ios":"levelo://app?vid=6394e037-668e-40b6-98fb-b0cdd54013c0"},"vehicle_type_id":"4","last_reported":1749676213,"current_range_meters":19200,"station_id":"ce4bghh2rcd13ifvqb60","pricing_plan_id":"cebpf4jnsgd1na2vs0mg"},{"bike_id":"af1b61f0-848c-4c56-aa2f-0980b6937680","system_id":"levelo_inurba_marseille","lat":43.29098,"lon":5.38143,"is_reserved":false,"is_disabled":false,"rental_uris":{"android":"levelo://app?vid=af1b61f0-848c-4c56-aa2f-0980b6937680","ios":"levelo://app?vid=af1b61f0-848c-4c56-aa2f-0980b6937680"},"vehicle_type_id":"4","last_reported":1749676213,"current_range_meters":19200,"station_id":"ce4bh512rcd13ifvqe2g","pricing_plan_id":"cebpf4jnsgd1na2vs0mg"},{"bike_id":"495012b1-992d-4fa9-b0a1-55f46aedda05","system_id":"levelo_inurba_marseille","lat":43.29277,"lon":5.38449,"is_reserved":false,"is_disabled":false,"rental_uris":{"android":"levelo://app?vid=495012b1-992d-4fa9-b0a1-55f46aedda05","ios":"levelo://app?vid=495012b1-992d-4fa9-b0a1-55f46aedda05"},"vehicle_type_id":"4","last_reported":1749676213,"current_range_meters":19200,"station_id":"ce4bh692rcd13ifvqea0","pricing_plan_id":"cebpf4jnsgd1na2vs0mg"},{"bike_id":"bc825332-6518-41f9-9026-19b416d1d0ee","system_id":"levelo_inurba_marseille","lat":43.2803,"lon":5.36939,"is_reserved":false,"is_disabled":false,"rental_uris":{"android":"levelo://app?vid=bc825332-6518-41f9-9026-19b416d1d0ee","ios":"levelo://app?vid=bc825332-6518-41f9-9026-19b416d1d0ee"},"vehicle_type_id":"4","last_reported":1749676213,"current_range_meters":19200,"station_id":"ce4bha12rcd13ifvqef0","pricing_plan_id":"cebpf4jnsgd1na2vs0mg"},{"bike_id":"fda8c9a5-12ba-444a-b338-669d2a7622ec","system_id":"levelo_inurba_marseille","lat":43.2407,"lon":5.37739,"is_reserved":false,"is_disabled":false,"rental_uris":{"android":"levelo://app?vid=fda8c9a5-12ba-444a-b338-669d2a7622ec","ios":"levelo://app?vid=fda8c9a5-12ba-444a-b338-669d2a7622ec"},"vehicle_type_id":"4","last_reported":1749676213,"current_range_meters":19200,"station_id":"ce4bhnp2rcd13ifvqgvg","pricing_plan_id":"cebpf4jnsgd1na2vs0mg"},{"bike_id":"4ccaa2ba-a346-480c-be21-84244adbd1d7","system_id":"levelo_inurba_marseille","lat":43.28695,"lon":5.3995,"is_reserved":false,"is_disabled":false,"rental_uris":{"android":"levelo://app?vid=4ccaa2ba-a346-480c-be21-84244adbd1d7","ios":"levelo://app?vid=4ccaa2ba-a346-480c-be21-84244adbd1d7"},"vehicle_type_id":"4","last_reported":1749676213,"current_range_meters":19200,"station_id":"ce4bho92rcd13ifvqh3g","pricing_plan_id":"cebpf4jnsgd1na2vs0mg"},{"bike_id":"35733ac5-1a87-435f-bdd3-fb5ec7a34be5","system_id":"levelo_inurba_marseille","lat":43.29552,"lon":5.42288,"is_reserved":false,"is_disabled":false,"rental_uris":{"android":"levelo://app?vid=35733ac5-1a87-435f-bdd3-fb5ec7a34be5","ios":"levelo://app?vid=35733ac5-1a87-435f-bdd3-fb5ec7a34be5"},"vehicle_type_id":"4","last_reported":1749676213,"current_range_meters":19200,"station_id":"ce4bhph2rcd13ifvqhdg","pricing_plan_id":"cebpf4jnsgd1na2vs0mg"},{"bike_id":"346f3f80-6b15-4406-b905-bb78596f5bac","system_id":"levelo_inurba_marseille","lat":43.3236,"lon":5.36756,"is_reserved":false,"is_disabled":false,"rental_uris":{"android":"levelo://app?vid=346f3f80-6b15-4406-b905-bb78596f5bac","ios":"levelo://app?vid=346f3f80-6b15-4406-b905-bb78596f5bac"},"vehicle_type_id":"4","last_reported":1749676213,"current_range_meters":19200,"station_id":"ce4bhsh2rcd13ifvqi2g","pricing_plan_id":"cebpf4jnsgd1na2vs0mg"},{"bike_id":"592dbed5-138e-47e5-8362-0eaa307ebc76","system_id":"levelo_inurba_marseille","lat":43.26809,"lon":5.40232,"is_reserved":false,"is_disabled":false,"rental_uris":{"android":"levelo://app?vid=592dbed5-138e-47e5-8362-0eaa307ebc76","ios":"levelo://app?vid=592dbed5-138e-47e5-8362-0eaa307ebc76"},"vehicle_type_id":"4","last_reported":1749676213,"current_range_meters":19200,"station_id":"ce501612rcd8frsf0b60","pricing_plan_id":"cebpf4jnsgd1na2vs0mg"},{"bike_id":"c81ce172-8397-4e94-b7fc-6ca6c456c4c8","system_id":"levelo_inurba_marseille","lat":43.29611,"lon":5.38078,"is_reserved":false,"is_disabled":false,"rental_uris":{"android":"levelo://app?vid=c81ce172-8397-4e94-b7fc-6ca6c456c4c8","ios":"levelo://app?vid=c81ce172-8397-4e94-b7fc-6ca6c456c4c8"},"vehicle_type_id":"4","last_reported":1749676213,"current_range_meters":19600,"station_id":"ce4bgl12rcd13ifvqbo0","pricing_plan_id":"cebpf4jnsgd1na2vs0mg"},{"bike_id":"cee85ad5-9f70-43fe-a608-87df4904a50f","system_id":"levelo_inurba_marseille","lat":43.29407,"lon":5.38583,"is_reserved":false,"is_disabled":false,"rental_uris":{"android":"levelo://app?vid=cee85ad5-9f70-43fe-a608-87df4904a50f","ios":"levelo://app?vid=cee85ad5-9f70-43fe-a608-87df4904a50f"},"vehicle_type_id":"4","last_reported":1749676213,"current_range_meters":19600,"station_id":"ce4bh2h2rcd13ifvqdh0","pricing_plan_id":"cebpf4jnsgd1na2vs0mg"},{"bike_id":"0cb25d4e-b3b0-4d94-ac29-deadffa9d47b","system_id":"levelo_inurba_marseille","lat":43.2953,"lon":5.39026,"is_reserved":false,"is_disabled":false,"rental_uris":{"android":"levelo://app?vid=0cb25d4e-b3b0-4d94-ac29-deadffa9d47b","ios":"levelo://app?vid=0cb25d4e-b3b0-4d94-ac29-deadffa9d47b"},"vehicle_type_id":"4","last_reported":1749676213,"current_range_meters":19600,"station_id":"ce4bh3p2rcd13ifvqdp0","pricing_plan_id":"cebpf4jnsgd1na2vs0mg"},{"bike_id":"19b3bfa4-0564-4f71-9cf5-4b3fa965529e","system_id":"levelo_inurba_marseille","lat":43.2834,"lon":5.38098,"is_reserved":false,"is_disabled":false,"rental_uris":{"android":"levelo://app?vid=19b3bfa4-0564-4f71-9cf5-4b3fa965529e","ios":"levelo://app?vid=19b3bfa4-0564-4f71-9cf5-4b3fa965529e"},"vehicle_type_id":"4","last_reported":1749676213,"current_range_meters":19600,"station_id":"ce4bh412rcd13ifvqdr0","pricing_plan_id":"cebpf4jnsgd1na2vs0mg"},{"bike_id":"6b7fc8a9-a90c-46ab-b6c8-7e64aac23b80","system_id":"levelo_inurba_marseille","lat":43.28929,"lon":5.36628,"is_reserved":false,"is_disabled":false,"rental_uris":{"android":"levelo://app?vid=6b7fc8a9-a90c-46ab-b6c8-7e64aac23b80","ios":"levelo://app?vid=6b7fc8a9-a90c-46ab-b6c8-7e64aac23b80"},"vehicle_type_id":"4","last_reported":1749676213,"current_range_meters":19600,"station_id":"ce4bhap2rcd13ifvqek0","pricing_plan_id":"cebpf4jnsgd1na2vs0mg"},{"bike_id":"4b029f1f-832a-4266-822d-2f0be0f047da","system_id":"levelo_inurba_marseille","lat":43.25078,"lon":5.39505,"is_reserved":false,"is_disabled":false,"rental_uris":{"android":"levelo://app?vid=4b029f1f-832a-4266-822d-2f0be0f047da","ios":"levelo://app?vid=4b029f1f-832a-4266-822d-2f0be0f047da"},"vehicle_type_id":"4","last_reported":1749676213,"current_range_meters":19600,"station_id":"ce4bhm12rcd13ifvqgkg","pricing_plan_id":"cebpf4jnsgd1na2vs0mg"},{"bike_id":"cb9fdb86-c5d3-4e7c-9894-6aefa2224ede","system_id":"levelo_inurba_marseille","lat":43.31758,"lon":5.39025,"is_reserved":false,"is_disabled":false,"rental_uris":{"android":"levelo://app?vid=cb9fdb86-c5d3-4e7c-9894-6aefa2224ede","ios":"levelo://app?vid=cb9fdb86-c5d3-4e7c-9894-6aefa2224ede"},"vehicle_type_id":"4","last_reported":1749676213,"current_range_meters":19600,"station_id":"ce4bhqp2rcd13ifvqhng","pricing_plan_id":"cebpf4jnsgd1na2vs0mg"},{"bike_id":"68dd3df2-0076-4258-8ce3-5e666f14ada8","system_id":"levelo_inurba_marseille","lat":43.31482,"lon":5.37306,"is_reserved":false,"is_disabled":false,"rental_uris":{"android":"levelo://app?vid=68dd3df2-0076-4258-8ce3-5e666f14ada8","ios":"levelo://app?vid=68dd3df2-0076-4258-8ce3-5e666f14ada8"},"vehicle_type_id":"4","last_reported":1749676213,"current_range_meters":20000,"station_id":"ce4bgt12rcd13ifvqcd0","pricing_plan_id":"cebpf4jnsgd1na2vs0mg"},{"bike_id":"6d977f5a-6678-4319-adac-6192fc41ee61","system_id":"levelo_inurba_marseille","lat":43.31177,"lon":5.38719,"is_reserved":false,"is_disabled":false,"rental_uris":{"android":"levelo://app?vid=6d977f5a-6678-4319-adac-6192fc41ee61","ios":"levelo://app?vid=6d977f5a-6678-4319-adac-6192fc41ee61"},"vehicle_type_id":"4","last_reported":1749676213,"current_range_meters":20000,"station_id":"ce4bgv12rcd13ifvqcp0","pricing_plan_id":"cebpf4jnsgd1na2vs0mg"},{"bike_id":"e911320c-9129-4112-977c-f21a8abd01a4","system_id":"levelo_inurba_marseille","lat":43.287056,"lon":5.379533,"is_reserved":false,"is_disabled":false,"rental_uris":{"android":"levelo://app?vid=e911320c-9129-4112-977c-f21a8abd01a4","ios":"levelo://app?vid=e911320c-9129-4112-977c-f21a8abd01a4"},"vehicle_type_id":"4","last_reported":1749676213,"current_range_meters":20000,"station_id":"ce4bh9p2rcd13ifvqec0","pricing_plan_id":"cebpf4jnsgd1na2vs0mg"},{"bike_id":"2efce1a4-a444-4201-aa6d-7fe797524a22","system_id":"levelo_inurba_marseille","lat":43.2572,"lon":5.41119,"is_reserved":false,"is_disabled":false,"rental_uris":{"android":"levelo://app?vid=2efce1a4-a444-4201-aa6d-7fe797524a22","ios":"levelo://app?vid=2efce1a4-a444-4201-aa6d-7fe797524a22"},"vehicle_type_id":"4","last_reported":1749676213,"current_range_meters":20000,"station_id":"ce4bhkp2rcd13ifvqgd0","pricing_plan_id":"cebpf4jnsgd1na2vs0mg"},{"bike_id":"cd935745-8c9c-47c1-9b2c-dda68cb8f6b1","system_id":"levelo_inurba_marseille","lat":43.23152,"lon":5.43725,"is_reserved":false,"is_disabled":false,"rental_uris":{"android":"levelo://app?vid=cd935745-8c9c-47c1-9b2c-dda68cb8f6b1","ios":"levelo://app?vid=cd935745-8c9c-47c1-9b2c-dda68cb8f6b1"},"vehicle_type_id":"4","last_reported":1749676213,"current_range_meters":20000,"station_id":"ce4bhmp2rcd13ifvqgog","pricing_plan_id":"cebpf4jnsgd1na2vs0mg"},