{"last_updated":1739729467,"ttl":60,"version":"2.2","data":{"bikes":[{"bike_id":"a5c5d78c-5269-49c1-8149-6a5a03f4f71c","system_id":"levelo_inurba_marseille","lat":43.30214,"lon":5.3744,"is_reserved":false,"is_disabled":false,"rental_uris":{"android":"levelo://app?vid=a5c5d78c-5269-49c1-8149-6a5a03f4f71c","ios":"levelo://app?vid=a5c5d78c-5269-49c1-8149-6a5a03f4f71c"},"vehicle_type_id":"4","last_reported":1739729468,"current_range_meters":22400,"station_id":"","pricing_plan_id":"cebpf4jnsgd1na2vs0mg"},{"bike_id":"f0e15311-7300-41c1-aa38-b0373ecc7e52","system_id":"levelo_inurba_marseille","lat":43.248,"lon":5.37452,"is_reserved":false,"is_disabled":false,"rental_uris":{"android":"levelo://app?vid=f0e15311-7300-41c1-aa38-b0373ecc7e52","ios":"levelo://app?vid=f0e15311-7300-41c1-aa38-b0373ecc7e52"},"vehicle_type_id":"4","last_reported":1739729468,"current_range_meters":35200,"station_id":"ce4bhgh2rcd13ifvqfb0","pricing_plan_id":"cebpf4jnsgd1na2vs0mg"},{"bike_id":"040bf6da-b374-40b3-b70a-0f85f37b58a3","system_id":"levelo_inurba_marseille","lat":43.2929,"lon":5.4008,"is_reserved":false,"is_disabled":true,"rental_uris":{"android":"levelo://app?vid=040bf6da-b374-40b3-b70a-0f85f37b58a3","ios":"levelo://app?vid=040bf6da-b374-40b3-b70a-0f85f37b58a3"},"vehicle_type_id":"4","last_reported":1739729468,"current_range_meters":32000,"station_id":"ce4bh312rcd13ifvqdk0","pricing_plan_id":"cebpf4jnsgd1na2vs0mg"},{"bike_id":"314ecb77-8b90-4fdb-aaf3-bbba8b437b8a","system_id":"levelo_inurba_marseille","lat":43.29075,"lon":5.38041,"is_reserved":false,"is_disabled":false,"rental_uris":{"android":"levelo://app?vid=314ecb77-8b90-4fdb-aaf3-bbba8b437b8a","ios":"levelo://app?vid=314ecb77-8b90-4fdb-aaf3-bbba8b437b8a"},"vehicle_type_id":"4","last_reported":1739729468,"current_range_meters":2800,"station_id":"","pricing_plan_id":"cebpf4jnsgd1na2vs0mg"},{"bike_id":"f661b7e0-1628-4b53-9b0f-1de5abd25562","system_id":"levelo_inurba_marseille","lat":43.30808,"lon":5.37449,"is_reserved":false,"is_disabled":false,"rental_uris":{"android":"levelo://app?vid=f661b7e0-1628-4b53-9b0f-1de5abd25562","ios":"levelo://app?vid=f661b7e0-1628-4b53-9b0f-1de5abd25562"},"vehicle_type_id":"4","last_reported":1739729468,"current_range_meters":30800,"station_id":"","pricing_plan_id":"cebpf4jnsgd1na2vs0mg"},{"bike_id":"567b455c-1da5-4f3d-80c2-de7da031e145","system_id":"levelo_inurba_marseille","lat":43.29788,"lon":5.39339,"is_reserved":false,"is_disabled":false,"rental_uris":{"android":"levelo://app?vid=567b455c-1da5-4f3d-80c2-de7da031e145","ios":"levelo://app?vid=567b455c-1da5-4f3d-80c2-de7da031e145"},"vehicle_type_id":"4","last_reported":1739729468,"current_range_meters":35200,"station_id":"chh1huq6cuj3fo74tm60","pricing_plan_id":"cebpf4jnsgd1na2vs0mg"},{"bike_id":"2ddb3d48-17a8-48b9-8aab-9c0e59556d8e","system_id":"levelo_inurba_marseille","lat":43.28908,"lon":5.38388,"is_reserved":false,"is_disabled":false,"rental_uris":{"android":"levelo://app?vid=2ddb3d48-17a8-48b9-8aab-9c0e59556d8e","ios":"levelo://app?vid=2ddb3d48-17a8-48b9-8aab-9c0e59556d8e"},"vehicle_type_id":"4","last_reported":1739729468,"current_range_meters":28000,"station_id":"ce4bh612rcd13ifvqe6g","pricing_plan_id":"cebpf4jnsgd1na2vs0mg"},{"bike_id":"bc007bf6-2b50-4e4e-ad91-35245fb0d88b","system_id":"levelo_inurba_marseille","lat":43.29529,"lon":5.39408,"is_reserved":false,"is_disabled":false,"rental_uris":{"android":"levelo://app?vid=bc007bf6-2b50-4e4e-ad91-35245fb0d88b","ios":"levelo://app?vid=bc007bf6-2b50-4e4e-ad91-35245fb0d88b"},"vehicle_type_id":"4","last_reported":1739729468,"current_range_meters":38400,"station_id":"ce4bh292rcd13ifvqdf0","pricing_plan_id":"cebpf4jnsgd1na2vs0mg"},{"bike_id":"d7fba254-ba2e-4330-9138-3fb8051f9e93","system_id":"levelo_inurba_marseille","lat":43.29465,"lon":5.38731,"is_reserved":false,"is_disabled":false,"rental_uris":{"android":"levelo://app?vid=d7fba254-ba2e-4330-9138-3fb8051f9e93","ios":"levelo://app?vid=d7fba254-ba2e-4330-9138-3fb8051f9e93"},"vehicle_type_id":"4","last_reported":1739729468,"current_range_meters":19200,"station_id":"","pricing_plan_id":"cebpf4jnsgd1na2vs0mg"},{"bike_id":"a8dbe794-3f0d-42e2-8ceb-54c44783ef6a","system_id":"levelo_inurba_marseille","lat":43.30178,"lon":5.36606,"is_reserved":false,"is_disabled":false,"rental_uris":{"android":"levelo://app?vid=a8dbe794-3f0d-42e2-8ceb-54c44783ef6a","ios":"levelo://app?vid=a8dbe794-3f0d-42e2-8ceb-54c44783ef6a"},"vehicle_type_id":"4","last_reported":1739729468,"current_range_meters":33600,"station_id":"ce4bgrh2rcd13ifvqc8g","pricing_plan_id":"cebpf4jnsgd1na2vs0mg"},{"bike_id":"ff426081-3726-4b6c-aa9f-0d0db0cbc7e6","system_id":"levelo_inurba_marseille","lat":43.28028,"lon":5.36943,"is_reserved":false,"is_disabled":false,"rental_uris":{"android":"levelo://app?vid=ff426081-3726-4b6c-aa9f-0d0db0cbc7e6","ios":"levelo://app?vid=ff426081-3726-4b6c-aa9f-0d0db0cbc7e6"},"vehicle_type_id":"4","last_reported":1739729468,"current_range_meters":38800,"station_id":"ce4bha12rcd13ifvqef0","pricing_plan_id":"cebpf4jnsgd1na2vs0mg"},{"bike_id":"9b8249b2-1b84-4367-af92-0d4b2e75f35f","system_id":"levelo_inurba_marseille","lat":43.30523,"lon":5.36535,"is_reserved":false,"is_disabled":false,"rental_uris":{"android":"levelo://app?vid=9b8249b2-1b84-4367-af92-0d4b2e75f35f","ios":"levelo://app?vid=9b8249b2-1b84-4367-af92-0d4b2e75f35f"},"vehicle_type_id":"4","last_reported":1739729468,"current_range_meters":27200,"station_id":"ce4bgs12rcd13ifvqcag","pricing_plan_id":"cebpf4jnsgd1na2vs0mg"},{"bike_id":"9b3bd754-5d80-498d-ac04-8b8008ca1c52","system_id":"levelo_inurba_marseille","lat":43.29164,"lon":5.37156,"is_reserved":false,"is_disabled":false,"rental_uris":{"android":"levelo://app?vid=9b3bd754-5d80-498d-ac04-8b8008ca1c52","ios":"levelo://app?vid=9b3bd754-5d80-498d-ac04-8b8008ca1c52"},"vehicle_type_id":"4","last_reported":1739729468,"current_range_meters":23200,"station_id":"ce4bha92rcd13ifvqeh0","pricing_plan_id":"cebpf4jnsgd1na2vs0mg"},{"bike_id":"cb68d408-2cf4-475d-ab74-faf23c0443f5","system_id":"levelo_inurba_marseille","lat":43.28422,"lon":5.34978,"is_reserved":false,"is_disabled":false,"rental_uris":{"android":"levelo://app?vid=cb68d408-2cf4-475d-ab74-faf23c0443f5","ios":"levelo://app?vid=cb68d408-2cf4-475d-ab74-faf23c0443f5"},"vehicle_type_id":"4","last_reported":1739729468,"current_range_meters":8400,"station_id":"ce4bhbh2rcd13ifvqepg","pricing_plan_id":"cebpf4jnsgd1na2vs0mg"},{"bike_id":"3a10bdca-5fff-419a-92d7-90d07ec273c0","system_id":"levelo_inurba_marseille","lat":43.29263,"lon":5.38427,"is_reserved":false,"is_disabled":false,"rental_uris":{"android":"levelo://app?vid=3a10bdca-5fff-419a-92d7-90d07ec273c0","ios":"levelo://app?vid=3a10bdca-5fff-419a-92d7-90d07ec273c0"},"vehicle_type_id":"4","last_reported":1739729468,"current_range_meters":28800,"station_id":"ce4bh692rcd13ifvqea0","pricing_plan_id":"cebpf4jnsgd1na2vs0mg"},{"bike_id":"39c21f6e-ce01-4ab3-ab42-7aab948d7134","system_id":"levelo_inurba_marseille","lat":43.2903,"lon":5.38648,"is_reserved":false,"is_disabled":false,"rental_uris":{"android":"levelo://app?vid=39c21f6e-ce01-4ab3-ab42-7aab948d7134","ios":"levelo://app?vid=39c21f6e-ce01-4ab3-ab42-7aab948d7134"},"vehicle_type_id":"4","last_reported":1739729468,"current_range_meters":34000,"station_id":"ce4bh4p2rcd13ifvqe0g","pricing_plan_id":"cebpf4jnsgd1na2vs0mg"},{"bike_id":"5a3b2cd0-ccc9-454b-bff6-e2068f75faf6","system_id":"levelo_inurba_marseille","lat":43.29676,"lon":5.37298,"is_reserved":false,"is_disabled":false,"rental_uris":{"android":"levelo://app?vid=5a3b2cd0-ccc9-454b-bff6-e2068f75faf6","ios":"levelo://app?vid=5a3b2cd0-ccc9-454b-bff6-e2068f75faf6"},"vehicle_type_id":"4","last_reported":1739729468,"current_range_meters":22800,"station_id":"ce4bgk12rcd13ifvqbj0","pricing_plan_id":"cebpf4jnsgd1na2vs0mg"},{"bike_id":"0594397e-5b4a-4bc1-9dae-734c570709eb","system_id":"levelo_inurba_marseille","lat":43.27805,"lon":5.40715,"is_reserved":false,"is_disabled":false,"rental_uris":{"android":"levelo://app?vid=0594397e-5b4a-4bc1-9dae-734c570709eb","ios":"levelo://app?vid=0594397e-5b4a-4bc1-9dae-734c570709eb"},"vehicle_type_id":"4","last_reported":1739729468,"current_range_meters":6000,"station_id":"ce4bhnh2rcd13ifvqgtg","pricing_plan_id":"cebpf4jnsgd1na2vs0mg"},{"bike_id":"a053548e-47c4-4a1d-b4f1-0f18e323a138","system_id":"levelo_inurba_marseille","lat":43.31725,"lon":5.40421,"is_reserved":false,"is_disabled":false,"rental_uris":{"android":"levelo://app?vid=a053548e-47c4-4a1d-b4f1-0f18e323a138","ios":"levelo://app?vid=a053548e-47c4-4a1d-b4f1-0f18e323a138"},"vehicle_type_id":"4","last_reported":1739729468,"current_range_meters":8400,"station_id":"","pricing_plan_id":"cebpf4jnsgd1na2vs0mg"},{"bike_id":"71eb45d4-83a0-49c5-aec9-e7993abd0a32","system_id":"levelo_inurba_marseille","lat":43.29216,"lon":5.40912,"is_reserved":false,"is_disabled":false,"rental_uris":{"android":"levelo://app?vid=71eb45d4-83a0-49c5-aec9-e7993abd0a32","ios":"levelo://app?vid=71eb45d4-83a0-49c5-aec9-e7993abd0a32"},"vehicle_type_id":"4","last_reported":1739729468,"current_range_meters":38000,"station_id":"ce4bh192rcd13ifvqdc0","pricing_plan_id":"cebpf4jnsgd1na2vs0mg"},{"bike_id":"3133017b-fa8e-40f7-948c-1cd7dcf187be","system_id":"levelo_inurba_marseille","lat":43.2981,"lon":5.38101,"is_reserved":false,"is_disabled":true,"rental_uris":{"android":"levelo://app?vid=3133017b-fa8e-40f7-948c-1cd7dcf187be","ios":"levelo://app?vid=3133017b-fa8e-40f7-948c-1cd7dcf187be"},"vehicle_type_id":"4","last_reported":1739729468,"current_range_meters":400,"station_id":"ce4bgip2rcd13ifvqbb0","pricing_plan_id":"cebpf4jnsgd1na2vs0mg"},{"bike_id":"7c94a5f9-3374-468c-9276-98882acb96a6","system_id":"levelo_inurba_marseille","lat":43.29978,"lon":5.38491,"is_reserved":false,"is_disabled":false,"rental_uris":{"android":"levelo://app?vid=7c94a5f9-3374-468c-9276-98882acb96a6","ios":"levelo://app?vid=7c94a5f9-3374-468c-9276-98882acb96a6"},"vehicle_type_id":"4","last_reported":1739729468,"current_range_meters":29600,"station_id":"ce4bgj92rcd13ifvqbd0","pricing_plan_id":"cebpf4jnsgd1na2vs0mg"},{"bike_id":"fab5bc09-3072-4253-9c2a-b7b62ab516b6","system_id":"levelo_inurba_marseille","lat":43.29783,"lon":5.39343,"is_reserved":false,"is_disabled":false,"rental_uris":{"android":"levelo://app?vid=fab5bc09-3072-4253-9c2a-b7b62ab516b6","ios":"levelo://app?vid=fab5bc09-3072-4253-9c2a-b7b62ab516b6"},"vehicle_type_id":"4","last_reported":1739729468,"current_range_meters":14800,"station_id":"chh1huq6cuj3fo74tm60","pricing_plan_id":"cebpf4jnsgd1na2vs0mg"},{"bike_id":"f7abcf74-16eb-4369-b6b8-ac0e795f9129","system_id":"levelo_inurba_marseille","lat":43.28165,"lon":5.4264,"is_reserved":false,"is_disabled":false,"rental_uris":{"android":"levelo://app?vid=f7abcf74-16eb-4369-b6b8-ac0e795f9129","ios":"levelo://app?vid=f7abcf74-16eb-4369-b6b8-ac0e795f9129"},"vehicle_type_id":"4","last_reported":1739729468,"current_range_meters":27600,"station_id":"ce4bhnh2rcd13ifvqgug","pricing_plan_id":"cebpf4jnsgd1na2vs0mg"},{"bike_id":"f2fb6423-d905-4b11-aa95-5974fd2f13f2","system_id":"levelo_inurba_marseille","lat":43.29871,"lon":5.3891,"is_reserved":false,"is_disabled":false,"rental_uris":{"android":"levelo://app?vid=f2fb6423-d905-4b11-aa95-5974fd2f13f2","ios":"levelo://app?vid=f2fb6423-d905-4b11-aa95-5974fd2f13f2"},"vehicle_type_id":"4","last_reported":1739729468,"current_range_meters":29600,"station_id":"ce4bh392rcd13ifvqdl0","pricing_plan_id":"cebpf4jnsgd1na2vs0mg"},{"bike_id":"bed4de35-ef09-4f9f-a13d-845fdf520d58","system_id":"levelo_inurba_marseille","lat":43.27452,"lon":5.41495,"is_reserved":false,"is_disabled":false,"rental_uris":{"android":"levelo://app?vid=bed4de35-ef09-4f9f-a13d-845fdf520d58","ios":"levelo://app?vid=bed4de35-ef09-4f9f-a13d-845fdf520d58"},"vehicle_type_id":"4","last_reported":1739729468,"current_range_meters":8000,"station_id":"","pricing_plan_id":"cebpf4jnsgd1na2vs0mg"},{"bike_id":"2821d2ff-3fc8-480e-81a3-1928b04e4a1d","system_id":"levelo_inurba_marseille","lat":43.31466,"lon":5.3737,"is_reserved":false,"is_disabled":false,"rental_uris":{"android":"levelo://app?vid=2821d2ff-3fc8-480e-81a3-1928b04e4a1d","ios":"levelo://app?vid=2821d2ff-3fc8-480e-81a3-1928b04e4a1d"},"vehicle_type_id":"4","last_reported":1739729468,"current_range_meters":5600,"station_id":"","pricing_plan_id":"cebpf4jnsgd1na2vs0mg"},{"bike_id":"fd5cebe6-4288-4379-bbb8-1e48a9a687ea","system_id":"levelo_inurba_marseille","lat":43.27959,"lon":5.41051,"is_reserved":false,"is_disabled":false,"rental_uris":{"android":"levelo://app?vid=fd5cebe6-4288-4379-bbb8-1e48a9a687ea","ios":"levelo://app?vid=fd5cebe6-4288-4379-bbb8-1e48a9a687ea"},"vehicle_type_id":"4","last_reported":1739729468,"current_range_meters":12000,"station_id":"ce4bhnp2rcd13ifvqh0g","pricing_plan_id":"cebpf4jnsgd1na2vs0mg"},{"bike_id":"d48b880c-5787-4eca-994b-610c9fc548ed","system_id":"levelo_inurba_marseille","lat":43.24155,"lon":5.36395,"is_reserved":false,"is_disabled":false,"rental_uris":{"android":"levelo://app?vid=d48b880c-5787-4eca-994b-610c9fc548ed","ios":"levelo://app?vid=d48b880c-5787-4eca-994b-610c9fc548ed"},"vehicle_type_id":"4","last_reported":1739729468,"current_range_meters":38800,"station_id":"cpo36qri1sfpv3e86is0","pricing_plan_id":"cebpf4jnsgd1na2vs0mg"},{"bike_id":"34c66d3d-b5aa-4bec-ab71-66b17e80e2a1","system_id":"levelo_inurba_marseille","lat":43.32288,"lon":5.38266,"is_reserved":false,"is_disabled":false,"rental_uris":{"android":"levelo://app?vid=34c66d3d-b5aa-4bec-ab71-66b17e80e2a1","ios":"levelo://app?vid=34c66d3d-b5aa-4bec-ab71-66b17e80e2a1"},"vehicle_type_id":"4","last_reported":1739729468,"current_range_meters":39200,"station_id":"ce4bhr12rcd13ifvqhqg","pricing_plan_id":"cebpf4jnsgd1na2vs0mg"},{"bike_id":"1fed5a11-905b-412f-9752-9c0235fb77b3","system_id":"levelo_inurba_marseille","lat":43.26495,"lon":5.39541,"is_reserved":false,"is_disabled":false,"rental_uris":{"android":"levelo://app?vid=1fed5a11-905b-412f-9752-9c0235fb77b3","ios":"levelo://app?vid=1fed5a11-905b-412f-9752-9c0235fb77b3"},"vehicle_type_id":"4","last_reported":1739729468,"current_range_meters":38000,"station_id":"ce4bhi12rcd13ifvqfq0","pricing_plan_id":"cebpf4jnsgd1na2vs0mg"},{"bike_id":"774aa35b-7586-499a-8da4-2aafd3322c92","system_id":"levelo_inurba_marseille","lat":43.26188,"lon":5.40436,"is_reserved":false,"is_disabled":false,"rental_uris":{"android":"levelo://app?vid=774aa35b-7586-499a-8da4-2aafd3322c92","ios":"levelo://app?vid=774aa35b-7586-499a-8da4-2aafd3322c92"},"vehicle_type_id":"4","last_reported":1739729468,"current_range_meters":6400,"station_id":"ce4bhmh2rcd13ifvqgmg","pricing_plan_id":"cebpf4jnsgd1na2vs0mg"},{"bike_id":"940ffad1-8d03-466c-a361-1bdb8859eb0e","system_id":"levelo_inurba_marseille","lat":43.28633,"lon":5.35096,"is_reserved":false,"is_disabled":true,"rental_uris":{"android":"levelo://app?vid=940ffad1-8d03-466c-a361-1bdb8859eb0e","ios":"levelo://app?vid=940ffad1-8d03-466c-a361-1bdb8859eb0e"},"vehicle_type_id":"4","last_reported":1739729468,"current_range_meters":0,"station_id":"ce4bhch2rcd13ifvqeug","pricing_plan_id":"cebpf4jnsgd1na2vs0mg"},{"bike_id":"71ee7552-6225-4f21-8301-72c964ebec2d","system_id":"levelo_inurba_marseille","lat":43.2667,"lon":5.38251,"is_reserved":false,"is_disabled":true,"rental_uris":{"android":"levelo://app?vid=71ee7552-6225-4f21-8301-72c964ebec2d","ios":"levelo://app?vid=71ee7552-6225-4f21-8301-72c964ebec2d"},"vehicle_type_id":"4","last_reported":1739729468,"current_range_meters":3200,"station_id":"ce4bhg92rcd13ifvqf90","pricing_plan_id":"cebpf4jnsgd1na2vs0mg"},{"bike_id":"91e20a00-0a61-4c4d-ac1e-de492ad0d12a","system_id":"levelo_inurba_marseille","lat":43.29554,"lon":5.37503,"is_reserved":false,"is_disabled":true,"rental_uris":{"android":"levelo://app?vid=91e20a00-0a61-4c4d-ac1e-de492ad0d12a","ios":"levelo://app?vid=91e20a00-0a61-4c4d-ac1e-de492ad0d12a"},"vehicle_type_id":"4","last_reported":1739729468,"current_range_meters":20800,"station_id":"ce4bgh92rcd13ifvqb50","pricing_plan_id":"cebpf4jnsgd1na2vs0mg"},{"bike_id":"86a75285-7243-40ee-925b-d20bf72a6a49","system_id":"levelo_inurba_marseille","lat":43.29819,"lon":5.36247,"is_reserved":false,"is_disabled":false,"rental_uris":{"android":"levelo://app?vid=86a75285-7243-40ee-925b-d20bf72a6a49","ios":"levelo://app?vid=86a75285-7243-40ee-925b-d20bf72a6a49"},"vehicle_type_id":"4","last_reported":1739729468,"current_range_meters":38800,"station_id":"ce4bgpp2rcd13ifvqc3g","pricing_plan_id":"cebpf4jnsgd1na2vs0mg"},{"bike_id":"1f0657bb-7196-41de-84fc-c834bbf90b28","system_id":"levelo_inurba_marseille","lat":43.28076,"lon":5.39641,"is_reserved":false,"is_disabled":true,"rental_uris":{"android":"levelo://app?vid=1f0657bb-7196-41de-84fc-c834bbf90b28","ios":"levelo://app?vid=1f0657bb-7196-41de-84fc-c834bbf90b28"},"vehicle_type_id":"4","last_reported":1739729468,"current_range_meters":38800,"station_id":"ce4bho12rcd13ifvqh2g","pricing_plan_id":"cebpf4jnsgd1na2vs0mg"},{"bike_id":"6a147fd4-f258-4898-9af6-000823cc5cf1","system_id":"levelo_inurba_marseille","lat":43.31217,"lon":5.36842,"is_reserved":false,"is_disabled":false,"rental_uris":{"android":"levelo://app?vid=6a147fd4-f258-4898-9af6-000823cc5cf1","ios":"levelo://app?vid=6a147fd4-f258-4898-9af6-000823cc5cf1"},"vehicle_type_id":"4","last_reported":1739729468,"current_range_meters":28000,"station_id":"ce4bgl92rcd13ifvqbq0","pricing_plan_id":"cebpf4jnsgd1na2vs0mg"},{"bike_id":"3ad53059-9aa4-49f8-9e6c-7fff04507d27","system_id":"levelo_inurba_marseille","lat":43.28613,"lon":5.35102,"is_reserved":false,"is_disabled":false,"rental_uris":{"android":"levelo://app?vid=3ad53059-9aa4-49f8-9e6c-7fff04507d27","ios":"levelo://app?vid=3ad53059-9aa4-49f8-9e6c-7fff04507d27"},"vehicle_type_id":"4","last_reported":1739729468,"current_range_meters":20000,"station_id":"ce4bhch2rcd13ifvqeug","pricing_plan_id":"cebpf4jnsgd1na2vs0mg"},{"bike_id":"edda1ad3-82ad-41f9-8e9c-88195b92dd49","system_id":"levelo_inurba_marseille","lat":43.31749,"lon":5.38808,"is_reserved":false,"is_disabled":false,"rental_uris":{"android":"levelo://app?vid=edda1ad3-82ad-41f9-8e9c-88195b92dd49","ios":"levelo://app?vid=edda1ad3-82ad-41f9-8e9c-88195b92dd49"},"vehicle_type_id":"4","last_reported":1739729468,"current_range_meters":13600,"station_id":"","pricing_plan_id":"cebpf4jnsgd1na2vs0mg"},{"bike_id":"6c2c1d95-3302-4ba8-942d-64ecaa7dbe03","system_id":"levelo_inurba_marseille","lat":43.25497,"lon":5.37672,"is_reserved":false,"is_disabled":true,"rental_uris":{"android":"levelo://app?vid=6c2c1d95-3302-4ba8-942d-64ecaa7dbe03","ios":"levelo://app?vid=6c2c1d95-3302-4ba8-942d-64ecaa7dbe03"},"vehicle_type_id":"4","last_reported":1739729468,"current_range_meters":16400,"station_id":"ce4bhh12rcd13ifvqff0","pricing_plan_id":"cebpf4jnsgd1na2vs0mg"},{"bike_id":"eefc27d8-676a-4c5c-a366-bc84419fd441","system_id":"levelo_inurba_marseille","lat":43.2481,"lon":5.37451,"is_reserved":false,"is_disabled":false,"rental_uris":{"android":"levelo://app?vid=eefc27d8-676a-4c5c-a366-bc84419fd441","ios":"levelo://app?vid=eefc27d8-676a-4c5c-a366-bc84419fd441"},"vehicle_type_id":"4","last_reported":1739729468,"current_range_meters":33600,"station_id":"ce4bhgh2rcd13ifvqfb0","pricing_plan_id":"cebpf4jnsgd1na2vs0mg"},{"bike_id":"9599b396-7358-4b49-bae1-0d7fc8539a36","system_id":"levelo_inurba_marseille","lat":43.28727,"lon":5.37936,"is_reserved":false,"is_disabled":false,"rental_uris":{"android":"levelo://app?vid=9599b396-7358-4b49-bae1-0d7fc8539a36","ios":"levelo://app?vid=9599b396-7358-4b49-bae1-0d7fc8539a36"},"vehicle_type_id":"4","last_reported":1739729468,"current_range_meters":33200,"station_id":"ce4bh9p2rcd13ifvqec0","pricing_plan_id":"cebpf4jnsgd1na2vs0mg"},{"bike_id":"f92e748a-9f9b-4e54-8084-07e33515f3d5","system_id":"levelo_inurba_marseille","lat":43.27071,"lon":5.39347,"is_reserved":false,"is_disabled":true,"rental_uris":{"android":"levelo://app?vid=f92e748a-9f9b-4e54-8084-07e33515f3d5","ios":"levelo://app?vid=f92e748a-9f9b-4e54-8084-07e33515f3d5"},"vehicle_type_id":"4","last_reported":1739729468,"current_range_meters":0,"station_id":"","pricing_plan_id":"cebpf4jnsgd1na2vs0mg"},{"bike_id":"1667c830-0cb3-464b-994b-b0f21c0b649e","system_id":"levelo_inurba_marseille","lat":43.29267,"lon":5.38443,"is_reserved":false,"is_disabled":false,"rental_uris":{"android":"levelo://app?vid=1667c830-0cb3-464b-994b-b0f21c0b649e","ios":"levelo://app?vid=1667c830-0cb3-464b-994b-b0f21c0b649e"},"vehicle_type_id":"4","last_reported":1739729468,"current_range_meters":34000,"station_id":"ce4bh692rcd13ifvqea0","pricing_plan_id":"cebpf4jnsgd1na2vs0mg"},{"bike_id":"bcecc5e4-cc7b-4177-9ff8-db3a19d83949","system_id":"levelo_inurba_marseille","lat":43.24816,"lon":5.37463,"is_reserved":false,"is_disabled":false,"rental_uris":{"android":"levelo://app?vid=bcecc5e4-cc7b-4177-9ff8-db3a19d83949","ios":"levelo://app?vid=bcecc5e4-cc7b-4177-9ff8-db3a19d83949"},"vehicle_type_id":"4","last_reported":1739729468,"current_range_meters":34000,"station_id":"ce4bhgh2rcd13ifvqfb0","pricing_plan_id":"cebpf4jnsgd1na2vs0mg"},{"bike_id":"7e3264bf-f524-4cb7-96c9-a699263ae840","system_id":"levelo_inurba_marseille","lat":43.28273,"lon":5.3507,"is_reserved":false,"is_disabled":false,"rental_uris":{"android":"levelo://app?vid=7e3264bf-f524-4cb7-96c9-a699263ae840","ios":"levelo://app?vid=7e3264bf-f524-4cb7-96c9-a699263ae840"},"vehicle_type_id":"4","last_reported":1739729468,"current_range_meters":18800,"station_id":"ce4bhbp2rcd13ifvqerg","pricing_plan_id":"cebpf4jnsgd1na2vs0mg"},{"bike_id":"47be1bb4-e20f-4038-888d-793b92888f90","system_id":"levelo_inurba_marseille","lat":43.25117,"lon":5.40327,"is_reserved":false,"is_disabled":false,"rental_uris":{"android":"levelo://app?vid=47be1bb4-e20f-4038-888d-793b92888f90","ios":"levelo://app?vid=47be1bb4-e20f-4038-888d-793b92888f90"},"vehicle_type_id":"4","last_reported":1739729468,"current_range_meters":5600,"station_id":"ce4bhlh2rcd13ifvqgig","pricing_plan_id":"cebpf4jnsgd1na2vs0mg"},{"bike_id":"ff5f001a-88da-407a-8314-a87b9702cb9d","system_id":"levelo_inurba_marseille","lat":43.2558,"lon":5.3824,"is_reserved":false,"is_disabled":false,"rental_uris":{"android":"levelo://app?vid=ff5f001a-88da-407a-8314-a87b9702cb9d","ios":"levelo://app?vid=ff5f001a-88da-407a-8314-a87b9702cb9d"},"vehicle_type_id":"4","last_reported":1739729468,"current_range_meters":34800,"station_id":"ce4bhih2rcd13ifvqfs0","pricing_plan_id":"cebpf4jnsgd1na2vs0mg"},{"bike_id":"22fd3db4-9fb8-46dd-bd60-878942f056ac","system_id":"levelo_inurba_marseille","lat":43.28712,"lon":5.37935,"is_reserved":false,"is_disabled":false,"rental_uris":{"android":"levelo://app?vid=22fd3db4-9fb8-46dd-bd60-878942f056ac","ios":"levelo://app?vid=22fd3db4-9fb8-46dd-bd60-878942f056ac"},"vehicle_type_id":"4","last_reported":1739729468,"current_range_meters":36400,"station_id":"ce4bh9p2rcd13ifvqec0","pricing_plan_id":"cebpf4jnsgd1na2vs0mg"},{"bike_id":"9cf8e6d9-67b8-441b-8ab4-08ef8560d2b0","system_id":"levelo_inurba_marseille","lat":43.33514,"lon":5.35585,"is_reserved":false,"is_disabled":true,"rental_uris":{"android":"levelo://app?vid=9cf8e6d9-67b8-441b-8ab4-08ef8560d2b0","ios":"levelo://app?vid=9cf8e6d9-67b8-441b-8ab4-08ef8560d2b0"},"vehicle_type_id":"4","last_reported":1739729468,"current_range_meters":0,"station_id":"","pricing_plan_id":"cebpf4jnsgd1na2vs0mg"},{"bike_id":"ef4e83ea-0d6e-404d-a102-5846ed4a4944","system_id":"levelo_inurba_marseille","lat":43.29092,"lon":5.37157,"is_reserved":false,"is_disabled":false,"rental_uris":{"android":"levelo://app?vid=ef4e83ea-0d6e-404d-a102-5846ed4a4944","ios":"levelo://app?vid=ef4e83ea-0d6e-404d-a102-5846ed4a4944"},"vehicle_type_id":"4","last_reported":1739729468,"current_range_meters":11600,"station_id":"ce4bh5p2rcd13ifvqe4g","pricing_plan_id":"cebpf4jnsgd1na2vs0mg"},{"bike_id":"b2386e7e-3270-407e-8b57-eb76a96aa001","system_id":"levelo_inurba_marseille","lat":43.30881,"lon":5.39644,"is_reserved":false,"is_disabled":false,"rental_uris":{"android":"levelo://app?vid=b2386e7e-3270-407e-8b57-eb76a96aa001","ios":"levelo://app?vid=b2386e7e-3270-407e-8b57-eb76a96aa001"},"vehicle_type_id":"4","last_reported":1739729468,"current_range_meters":35200,"station_id":"ce4bh012rcd13ifvqcv0","pricing_plan_id":"cebpf4jnsgd1na2vs0mg"},{"bike_id":"6c78b8dd-a446-427f-ad7f-5dabcc9c995c","system_id":"levelo_inurba_marseille","lat":43.29779,"lon":5.39327,"is_reserved":false,"is_disabled":false,"rental_uris":{"android":"levelo://app?vid=6c78b8dd-a446-427f-ad7f-5dabcc9c995c","ios":"levelo://app?vid=6c78b8dd-a446-427f-ad7f-5dabcc9c995c"},"vehicle_type_id":"4","last_reported":1739729468,"current_range_meters":38800,"station_id":"chh1huq6cuj3fo74tm60","pricing_plan_id":"cebpf4jnsgd1na2vs0mg"},{"bike_id":"009916d8-3eaf-461d-b9a7-ebe1c763dfd2","system_id":"levelo_inurba_marseille","lat":43.25504,"lon":5.3766,"is_reserved":false,"is_disabled":false,"rental_uris":{"android":"levelo://app?vid=009916d8-3eaf-461d-b9a7-ebe1c763dfd2","ios":"levelo://app?vid=009916d8-3eaf-461d-b9a7-ebe1c763dfd2"},"vehicle_type_id":"4","last_reported":1739729468,"current_range_meters":38800,"station_id":"ce4bhh12rcd13ifvqff0","pricing_plan_id":"cebpf4jnsgd1na2vs0mg"},{"bike_id":"9dfc1ba2-ff2b-463b-aec7-ebd5fd259047","system_id":"levelo_inurba_marseille","lat":43.27619,"lon":5.3611,"is_reserved":false,"is_disabled":false,"rental_uris":{"android":"levelo://app?vid=9dfc1ba2-ff2b-463b-aec7-ebd5fd259047","ios":"levelo://app?vid=9dfc1ba2-ff2b-463b-aec7-ebd5fd259047"},"vehicle_type_id":"4","last_reported":1739729468,"current_range_meters":30800,"station_id":"ce4bgj92rcd13ifvqbe0","pricing_plan_id":"cebpf4jnsgd1na2vs0mg"},{"bike_id":"699b4ead-7083-4b29-85c3-471cfd54f9e5","system_id":"levelo_inurba_marseille","lat":43.298,"lon":5.40405,"is_reserved":false,"is_disabled":true,"rental_uris":{"android":"levelo://app?vid=699b4ead-7083-4b29-85c3-471cfd54f9e5","ios":"levelo://app?vid=699b4ead-7083-4b29-85c3-471cfd54f9e5"},"vehicle_type_id":"4","last_reported":1739729468,"current_range_meters":35200,"station_id":"ce4bh112rcd13ifvqd90","pricing_plan_id":"cebpf4jnsgd1na2vs0mg"},{"bike_id":"0287f0d7-f1be-4f59-9230-c953775628db","system_id":"levelo_inurba_marseille","lat":43.32337,"lon":5.40616,"is_reserved":false,"is_disabled":false,"rental_uris":{"android":"levelo://app?vid=0287f0d7-f1be-4f59-9230-c953775628db","ios":"levelo://app?vid=0287f0d7-f1be-4f59-9230-c953775628db"},"vehicle_type_id":"4","last_reported":1739729468,"current_range_meters":39200,"station_id":"ce4bhq92rcd13ifvqhjg","pricing_plan_id":"cebpf4jnsgd1na2vs0mg"},{"bike_id":"51ab7186-5043-4bed-baca-73708608a302","system_id":"levelo_inurba_marseille","lat":43.29584,"lon":5.37026,"is_reserved":false,"is_disabled":true,"rental_uris":{"android":"levelo://app?vid=51ab7186-5043-4bed-baca-73708608a302","ios":"levelo://app?vid=51ab7186-5043-4bed-baca-73708608a302"},"vehicle_type_id":"4","last_reported":1739729468,"current_range_meters":0,"station_id":"","pricing_plan_id":"cebpf4jnsgd1na2vs0mg"},{"bike_id":"9760b051-4e9e-4125-bdb3-bbff49eb6279","system_id":"levelo_inurba_marseille","lat":43.31631,"lon":5.40464,"is_reserved":false,"is_disabled":false,"rental_uris":{"android":"levelo://app?vid=9760b051-4e9e-4125-bdb3-bbff49eb6279","ios":"levelo://app?vid=9760b051-4e9e-4125-bdb3-bbff49eb6279"},"vehicle_type_id":"4","last_reported":1739729468,"current_range_meters":9600,"station_id":"","pricing_plan_id":"cebpf4jnsgd1na2vs0mg"},{"bike_id":"ef1d4c74-2713-453f-aa59-65551529c49d","system_id":"levelo_inurba_marseille","lat":43.2318,"lon":5.3999,"is_reserved":false,"is_disabled":false,"rental_uris":{"android":"levelo://app?vid=ef1d4c74-2713-453f-aa59-65551529c49d","ios":"levelo://app?vid=ef1d4c74-2713-453f-aa59-65551529c49d"},"vehicle_type_id":"4","last_reported":1739729468,"current_range_meters":19600,"station_id":"ce4bhn12rcd13ifvqgqg","pricing_plan_id":"cebpf4jnsgd1na2vs0mg"},{"bike_id":"c5559994-20bc-48c5-9397-a0a5bf13f2e6","system_id":"levelo_inurba_marseille","lat":43.25851,"lon":5.399,"is_reserved":false,"is_disabled":true,"rental_uris":{"android":"levelo://app?vid=c5559994-20bc-48c5-9397-a0a5bf13f2e6","ios":"levelo://app?vid=c5559994-20bc-48c5-9397-a0a5bf13f2e6"},"vehicle_type_id":"4","last_reported":1739729468,"current_range_meters":8800,"station_id":"ce4bhl92rcd13ifvqghg","pricing_plan_id":"cebpf4jnsgd1na2vs0mg"},{"bike_id":"20aa5b23-fbe5-4790-ad90-ddc22f8f839f","system_id":"levelo_inurba_marseille","lat":43.24168,"lon":5.36385,"is_reserved":false,"is_disabled":false,"rental_uris":{"android":"levelo://app?vid=20aa5b23-fbe5-4790-ad90-ddc22f8f839f","ios":"levelo://app?vid=20aa5b23-fbe5-4790-ad90-ddc22f8f839f"},"vehicle_type_id":"4","last_reported":1739729468,"current_range_meters":27600,"station_id":"cpo36qri1sfpv3e86is0","pricing_plan_id":"cebpf4jnsgd1na2vs0mg"},{"bike_id":"3fb25178-0097-4c0d-aa7c-df7cf9b4f5f8","system_id":"levelo_inurba_marseille","lat":43.29218,"lon":5.3933,"is_reserved":false,"is_disabled":false,"rental_uris":{"android":"levelo://app?vid=3fb25178-0097-4c0d-aa7c-df7cf9b4f5f8","ios":"levelo://app?vid=3fb25178-0097-4c0d-aa7c-df7cf9b4f5f8"},"vehicle_type_id":"4","last_reported":1739729468,"current_range_meters":28000,"station_id":"ce4bh192rcd13ifvqdd0","pricing_plan_id":"cebpf4jnsgd1na2vs0mg"},{"bike_id":"8af874ea-b96a-4344-aa66-052ba17e3a96","system_id":"levelo_inurba_marseille","lat":43.27958,"lon":5.38736,"is_reserved":false,"is_disabled":false,"rental_uris":{"android":"levelo://app?vid=8af874ea-b96a-4344-aa66-052ba17e3a96","ios":"levelo://app?vid=8af874ea-b96a-4344-aa66-052ba17e3a96"},"vehicle_type_id":"4","last_reported":1739729468,"current_range_meters":19200,"station_id":"ce4bhg12rcd13ifvqf80","pricing_plan_id":"cebpf4jnsgd1na2vs0mg"},{"bike_id":"c40e2cb9-b89c-4dbd-956b-535ef79f1d37","system_id":"levelo_inurba_marseille","lat":43.24815,"lon":5.3746,"is_reserved":false,"is_disabled":false,"rental_uris":{"android":"levelo://app?vid=c40e2cb9-b89c-4dbd-956b-535ef79f1d37","ios":"levelo://app?vid=c40e2cb9-b89c-4dbd-956b-535ef79f1d37"},"vehicle_type_id":"4","last_reported":1739729468,"current_range_meters":17600,"station_id":"ce4bhgh2rcd13ifvqfb0","pricing_plan_id":"cebpf4jnsgd1na2vs0mg"},{"bike_id":"621aa48b-6d99-46c4-b886-2c6eb903854e","system_id":"levelo_inurba_marseille","lat":43.29261,"lon":5.36844,"is_reserved":false,"is_disabled":true,"rental_uris":{"android":"levelo://app?vid=621aa48b-6d99-46c4-b886-2c6eb903854e","ios":"levelo://app?vid=621aa48b-6d99-46c4-b886-2c6eb903854e"},"vehicle_type_id":"4","last_reported":1739729468,"current_range_meters":27600,"station_id":"ce4bhbp2rcd13ifvqesg","pricing_plan_id":"cebpf4jnsgd1na2vs0mg"},{"bike_id":"6c892c07-6f7e-4303-b497-57dd12074326","system_id":"levelo_inurba_marseille","lat":43.29192,"lon":5.39318,"is_reserved":false,"is_disabled":false,"rental_uris":{"android":"levelo://app?vid=6c892c07-6f7e-4303-b497-57dd12074326","ios":"levelo://app?vid=6c892c07-6f7e-4303-b497-57dd12074326"},"vehicle_type_id":"4","last_reported":1739729468,"current_range_meters":13600,"station_id":"ce4bh192rcd13ifvqdd0","pricing_plan_id":"cebpf4jnsgd1na2vs0mg"},{"bike_id":"206f1ce2-224a-4d1d-b6e4-199f90d3a887","system_id":"levelo_inurba_marseille","lat":43.32655,"lon":5.40995,"is_reserved":false,"is_disabled":false,"rental_uris":{"android":"levelo://app?vid=206f1ce2-224a-4d1d-b6e4-199f90d3a887","ios":"levelo://app?vid=206f1ce2-224a-4d1d-b6e4-199f90d3a887"},"vehicle_type_id":"4","last_reported":1739729468,"current_range_meters":38800,"station_id":"ce4bhpp2rcd13ifvqhgg","pricing_plan_id":"cebpf4jnsgd1na2vs0mg"},{"bike_id":"c4a02628-5bda-4dbb-9bd4-64e32cc52e35","system_id":"levelo_inurba_marseille","lat":43.24809,"lon":5.3746,"is_reserved":false,"is_disabled":false,"rental_uris":{"android":"levelo://app?vid=c4a02628-5bda-4dbb-9bd4-64e32cc52e35","ios":"levelo://app?vid=c4a02628-5bda-4dbb-9bd4-64e32cc52e35"},"vehicle_type_id":"4","last_reported":1739729468,"current_range_meters":28800,"station_id":"ce4bhgh2rcd13ifvqfb0","pricing_plan_id":"cebpf4jnsgd1na2vs0mg"},{"bike_id":"4afd05b5-41e1-4012-b907-304d88773920","system_id":"levelo_inurba_marseille","lat":43.23962,"lon":5.36642,"is_reserved":false,"is_disabled":false,"rental_uris":{"android":"levelo://app?vid=4afd05b5-41e1-4012-b907-304d88773920","ios":"levelo://app?vid=4afd05b5-41e1-4012-b907-304d88773920"},"vehicle_type_id":"4","last_reported":1739729468,"current_range_meters":36000,"station_id":"ce4bhi12rcd13ifvqfp0","pricing_plan_id":"cebpf4jnsgd1na2vs0mg"},{"bike_id":"b1c5c911-6ef2-449f-8d9f-d449ab1f4067","system_id":"levelo_inurba_marseille","lat":43.28404,"lon":5.34991,"is_reserved":false,"is_disabled":false,"rental_uris":{"android":"levelo://app?vid=b1c5c911-6ef2-449f-8d9f-d449ab1f4067","ios":"levelo://app?vid=b1c5c911-6ef2-449f-8d9f-d449ab1f4067"},"vehicle_type_id":"4","last_reported":1739729468,"current_range_meters":38800,"station_id":"ce4bhbh2rcd13ifvqepg","pricing_plan_id":"cebpf4jnsgd1na2vs0mg"},{"bike_id":"af02ac68-734a-4337-a76f-2d6f15936fdf","system_id":"levelo_inurba_marseille","lat":43.31742,"lon":5.38877,"is_reserved":false,"is_disabled":false,"rental_uris":{"android":"levelo://app?vid=af02ac68-734a-4337-a76f-2d6f15936fdf","ios":"levelo://app?vid=af02ac68-734a-4337-a76f-2d6f15936fdf"},"vehicle_type_id":"4","last_reported":1739729468,"current_range_meters":3600,"station_id":"","pricing_plan_id":"cebpf4jnsgd1na2vs0mg"},{"bike_id":"416962b9-a83b-4c0e-b66e-3aff3e519f99","system_id":"levelo_inurba_marseille","lat":43.28493,"lon":5.38419,"is_reserved":false,"is_disabled":false,"rental_uris":{"android":"levelo://app?vid=416962b9-a83b-4c0e-b66e-3aff3e519f99","ios":"levelo://app?vid=416962b9-a83b-4c0e-b66e-3aff3e519f99"},"vehicle_type_id":"4","last_reported":1739729468,"current_range_meters":22400,"station_id":"ce4bh512rcd13ifvqe3g","pricing_plan_id":"cebpf4jnsgd1na2vs0mg"},{"bike_id":"952c4ced-f4d5-4dda-a664-d7808e10078a","system_id":"levelo_inurba_marseille","lat":43.28287,"lon":5.35077,"is_reserved":false,"is_disabled":false,"rental_uris":{"android":"levelo://app?vid=952c4ced-f4d5-4dda-a664-d7808e10078a","ios":"levelo://app?vid=952c4ced-f4d5-4dda-a664-d7808e10078a"},"vehicle_type_id":"4","last_reported":1739729468,"current_range_meters":25200,"station_id":"ce4bhbp2rcd13ifvqerg","pricing_plan_id":"cebpf4jnsgd1na2vs0mg"},{"bike_id":"508fb97c-95dd-4647-bc1a-30a9af0749fd","system_id":"levelo_inurba_marseille","lat":43.29246,"lon":5.40903,"is_reserved":false,"is_disabled":false,"rental_uris":{"android":"levelo://app?vid=508fb97c-95dd-4647-bc1a-30a9af0749fd","ios":"levelo://app?vid=508fb97c-95dd-4647-bc1a-30a9af0749fd"},"vehicle_type_id":"4","last_reported":1739729468,"current_range_meters":21600,"station_id":"ce4bh192rcd13ifvqdc0","pricing_plan_id":"cebpf4jnsgd1na2vs0mg"},{"bike_id":"8e4a33b7-0ba2-4ab1-8ef8-c5a79405d262","system_id":"levelo_inurba_marseille","lat":43.30897,"lon":5.36848,"is_reserved":false,"is_disabled":false,"rental_uris":{"android":"levelo://app?vid=8e4a33b7-0ba2-4ab1-8ef8-c5a79405d262","ios":"levelo://app?vid=8e4a33b7-0ba2-4ab1-8ef8-c5a79405d262"},"vehicle_type_id":"4","last_reported":1739729468,"current_range_meters":38800,"station_id":"ce4bgn92rcd13ifvqbvg","pricing_plan_id":"cebpf4jnsgd1na2vs0mg"},{"bike_id":"3ce3dae2-ed5f-43cb-bad9-b317ce2471d9","system_id":"levelo_inurba_marseille","lat":43.24843,"lon":5.37437,"is_reserved":false,"is_disabled":false,"rental_uris":{"android":"levelo://app?vid=3ce3dae2-ed5f-43cb-bad9-b317ce2471d9","ios":"levelo://app?vid=3ce3dae2-ed5f-43cb-bad9-b317ce2471d9"},"vehicle_type_id":"4","last_reported":1739729468,"current_range_meters":36800,"station_id":"","pricing_plan_id":"cebpf4jnsgd1na2vs0mg"},{"bike_id":"46c5625c-e677-4ebe-a01c-a2751cf76e8e","system_id":"levelo_inurba_marseille","lat":43.31757,"lon":5.39018,"is_reserved":false,"is_disabled":false,"rental_uris":{"android":"levelo://app?vid=46c5625c-e677-4ebe-a01c-a2751cf76e8e","ios":"levelo://app?vid=46c5625c-e677-4ebe-a01c-a2751cf76e8e"},"vehicle_type_id":"4","last_reported":1739729468,"current_range_meters":18800,"station_id":"ce4bhqp2rcd13ifvqhng","pricing_plan_id":"cebpf4jnsgd1na2vs0mg"},{"bike_id":"397f7144-3e20-4f61-9149-2720265fc375","system_id":"levelo_inurba_marseille","lat":43.2407,"lon":5.37751,"is_reserved":false,"is_disabled":false,"rental_uris":{"android":"levelo://app?vid=397f7144-3e20-4f61-9149-2720265fc375","ios":"levelo://app?vid=397f7144-3e20-4f61-9149-2720265fc375"},"vehicle_type_id":"4","last_reported":1739729468,"current_range_meters":34000,"station_id":"ce4bhnp2rcd13ifvqgvg","pricing_plan_id":"cebpf4jnsgd1na2vs0mg"},{"bike_id":"400be24e-e882-461c-9b0c-bf1ea3cd56aa","system_id":"levelo_inurba_marseille","lat":43.28679,"lon":5.38662,"is_reserved":false,"is_disabled":false,"rental_uris":{"android":"levelo://app?vid=400be24e-e882-461c-9b0c-bf1ea3cd56aa","ios":"levelo://app?vid=400be24e-e882-461c-9b0c-bf1ea3cd56aa"},"vehicle_type_id":"4","last_reported":1739729468,"current_range_meters":36000,"station_id":"ce4bh492rcd13ifvqdug","pricing_plan_id":"cebpf4jnsgd1na2vs0mg"},{"bike_id":"cede1289-389f-43d9-bcd3-77c59f1eec85","system_id":"levelo_inurba_marseille","lat":43.24807,"lon":5.37459,"is_reserved":false,"is_disabled":false,"rental_uris":{"android":"levelo://app?vid=cede1289-389f-43d9-bcd3-77c59f1eec85","ios":"levelo://app?vid=cede1289-389f-43d9-bcd3-77c59f1eec85"},"vehicle_type_id":"4","last_reported":1739729468,"current_range_meters":32800,"station_id":"ce4bhgh2rcd13ifvqfb0","pricing_plan_id":"cebpf4jnsgd1na2vs0mg"},{"bike_id":"4b9395aa-43ce-496b-a9cc-b666d2d4fc09","system_id":"levelo_inurba_marseille","lat":43.28275,"lon":5.35065,"is_reserved":false,"is_disabled":false,"rental_uris":{"android":"levelo://app?vid=4b9395aa-43ce-496b-a9cc-b666d2d4fc09","ios":"levelo://app?vid=4b9395aa-43ce-496b-a9cc-b666d2d4fc09"},"vehicle_type_id":"4","last_reported":1739729468,"current_range_meters":35600,"station_id":"ce4bhbp2rcd13ifvqerg","pricing_plan_id":"cebpf4jnsgd1na2vs0mg"},{"bike_id":"4fb3f8f8-16a1-4d1d-8fc5-a5531f141d0a","system_id":"levelo_inurba_marseille","lat":43.2867,"lon":5.38661,"is_reserved":false,"is_disabled":false,"rental_uris":{"android":"levelo://app?vid=4fb3f8f8-16a1-4d1d-8fc5-a5531f141d0a","ios":"levelo://app?vid=4fb3f8f8-16a1-4d1d-8fc5-a5531f141d0a"},"vehicle_type_id":"4","last_reported":1739729468,"current_range_meters":36000,"station_id":"ce4bh492rcd13ifvqdug","pricing_plan_id":"cebpf4jnsgd1na2vs0mg"},{"bike_id":"6d65f654-7cd2-41b0-8138-8b4386831c2b","system_id":"levelo_inurba_marseille","lat":43.26782,"lon":5.39417,"is_reserved":false,"is_disabled":false,"rental_uris":{"android":"levelo://app?vid=6d65f654-7cd2-41b0-8138-8b4386831c2b","ios":"levelo://app?vid=6d65f654-7cd2-41b0-8138-8b4386831c2b"},"vehicle_type_id":"4","last_reported":1739729468,"current_range_meters":36800,"station_id":"ce4bhh12rcd13ifvqfg0","pricing_plan_id":"cebpf4jnsgd1na2vs0mg"},{"bike_id":"d505ae6b-8401-49d2-a7e3-85c98bc77f1c","system_id":"levelo_inurba_marseille","lat":43.32364,"lon":5.40614,"is_reserved":false,"is_disabled":false,"rental_uris":{"android":"levelo://app?vid=d505ae6b-8401-49d2-a7e3-85c98bc77f1c","ios":"levelo://app?vid=d505ae6b-8401-49d2-a7e3-85c98bc77f1c"},"vehicle_type_id":"4","last_reported":1739729468,"current_range_meters":18000,"station_id":"ce4bhq92rcd13ifvqhjg","pricing_plan_id":"cebpf4jnsgd1na2vs0mg"},{"bike_id":"9ef51e36-6b91-4370-b608-25268899d671","system_id":"levelo_inurba_marseille","lat":43.27814,"lon":5.40705,"is_reserved":false,"is_disabled":false,"rental_uris":{"android":"levelo://app?vid=9ef51e36-6b91-4370-b608-25268899d671","ios":"levelo://app?vid=9ef51e36-6b91-4370-b608-25268899d671"},"vehicle_type_id":"4","last_reported":1739729468,"current_range_meters":21600,"station_id":"ce4bhnh2rcd13ifvqgtg","pricing_plan_id":"cebpf4jnsgd1na2vs0mg"},{"bike_id":"6408b994-ae56-4e32-95b9-cb0502299b0f","system_id":"levelo_inurba_marseille","lat":43.29545,"lon":5.42283,"is_reserved":false,"is_disabled":false,"rental_uris":{"android":"levelo://app?vid=6408b994-ae56-4e32-95b9-cb0502299b0f","ios":"levelo://app?vid=6408b994-ae56-4e32-95b9-cb0502299b0f"},"vehicle_type_id":"4","last_reported":1739729468,"current_range_meters":37600,"station_id":"ce4bhph2rcd13ifvqhdg","pricing_plan_id":"cebpf4jnsgd1na2vs0mg"},{"bike_id":"4c27c000-7ca0-4713-a90c-95527282d6f0","system_id":"levelo_inurba_marseille","lat":43.25719,"lon":5.41111,"is_reserved":false,"is_disabled":false,"rental_uris":{"android":"levelo://app?vid=4c27c000-7ca0-4713-a90c-95527282d6f0","ios":"levelo://app?vid=4c27c000-7ca0-4713-a90c-95527282d6f0"},"vehicle_type_id":"4","last_reported":1739729468,"current_range_meters":20000,"station_id":"ce4bhkp2rcd13ifvqgd0","pricing_plan_id":"cebpf4jnsgd1na2vs0mg"},{"bike_id":"982c499f-f482-40de-b19f-0c738b7d10ae","system_id":"levelo_inurba_marseille","lat":43.24803,"lon":5.37452,"is_reserved":false,"is_disabled":false,"rental_uris":{"android":"levelo://app?vid=982c499f-f482-40de-b19f-0c738b7d10ae","ios":"levelo://app?vid=982c499f-f482-40de-b19f-0c738b7d10ae"},"vehicle_type_id":"4","last_reported":1739729468,"current_range_meters":38800,"station_id":"ce4bhgh2rcd13ifvqfb0","pricing_plan_id":"cebpf4jnsgd1na2vs0mg"},{"bike_id":"98f62326-8a26-4889-8233-3fa661e57e03","system_id":"levelo_inurba_marseille","lat":43.251068,"lon":5.403156,"is_reserved":false,"is_disabled":false,"rental_uris":{"android":"levelo://app?vid=98f62326-8a26-4889-8233-3fa661e57e03","ios":"levelo://app?vid=98f62326-8a26-4889-8233-3fa661e57e03"},"vehicle_type_id":"4","last_reported":1739729468,"current_range_meters":7200,"station_id":"ce4bhlh2rcd13ifvqgig","pricing_plan_id":"cebpf4jnsgd1na2vs0mg"},{"bike_id":"2a81c259-7cd9-4e28-a8b1-b76a53d761ae","system_id":"levelo_inurba_marseille","lat":43.28401,"lon":5.37507,"is_reserved":false,"is_disabled":false,"rental_uris":{"android":"levelo://app?vid=2a81c259-7cd9-4e28-a8b1-b76a53d761ae","ios":"levelo://app?vid=2a81c259-7cd9-4e28-a8b1-b76a53d761ae"},"vehicle_type_id":"4","last_reported":1739729468,"current_range_meters":2800,"station_id":"ce4bh412rcd13ifvqds0","pricing_plan_id":"cebpf4jnsgd1na2vs0mg"},{"bike_id":"f364e7fd-b7af-4331-9c85-154b4666d931","system_id":"levelo_inurba_marseille","lat":43.28419,"lon":5.349939,"is_reserved":false,"is_disabled":true,"rental_uris":{"android":"levelo://app?vid=f364e7fd-b7af-4331-9c85-154b4666d931","ios":"levelo://app?vid=f364e7fd-b7af-4331-9c85-154b4666d931"},"vehicle_type_id":"4","last_reported":1739729468,"current_range_meters":0,"station_id":"ce4bhbh2rcd13ifvqepg","pricing_plan_id":"cebpf4jnsgd1na2vs0mg"},{"bike_id":"7fdf9d59-bbd3-4b7a-a1f7-b353d0cd3d2f","system_id":"levelo_inurba_marseille","lat":43.26196,"lon":5.37932,"is_reserved":false,"is_disabled":false,"rental_uris":{"android":"levelo://app?vid=7fdf9d59-bbd3-4b7a-a1f7-b353d0cd3d2f","ios":"levelo://app?vid=7fdf9d59-bbd3-4b7a-a1f7-b353d0cd3d2f"},"vehicle_type_id":"4","last_reported":1739729468,"current_range_meters":39200,"station_id":"ce4bhjp2rcd13ifvqg90","pricing_plan_id":"cebpf4jnsgd1na2vs0mg"},{"bike_id":"6ae25489-ceaf-492d-82eb-c7bedd58a89f","system_id":"levelo_inurba_marseille","lat":43.29028,"lon":5.38649,"is_reserved":false,"is_disabled":false,"rental_uris":{"android":"levelo://app?vid=6ae25489-ceaf-492d-82eb-c7bedd58a89f","ios":"levelo://app?vid=6ae25489-ceaf-492d-82eb-c7bedd58a89f"},"vehicle_type_id":"4","last_reported":1739729468,"current_range_meters":36000,"station_id":"ce4bh4p2rcd13ifvqe0g","pricing_plan_id":"cebpf4jnsgd1na2vs0mg"},{"bike_id":"7df33989-9cd1-4583-a90f-25c190f648b5","system_id":"levelo_inurba_marseille","lat":43.293821,"lon":5.386136,"is_reserved":false,"is_disabled":false,"rental_uris":{"android":"levelo://app?vid=7df33989-9cd1-4583-a90f-25c190f648b5","ios":"levelo://app?vid=7df33989-9cd1-4583-a90f-25c190f648b5"},"vehicle_type_id":"4","last_reported":1739729468,"current_range_meters":28800,"station_id":"ce4bh2h2rcd13ifvqdh0","pricing_plan_id":"cebpf4jnsgd1na2vs0mg"},{"bike_id":"20dca62c-279f-4d77-befc-f9aa410b4d31","system_id":"levelo_inurba_marseille","lat":43.24687,"lon":5.38145,"is_reserved":false,"is_disabled":false,"rental_uris":{"android":"levelo://app?vid=20dca62c-279f-4d77-befc-f9aa410b4d31","ios":"levelo://app?vid=20dca62c-279f-4d77-befc-f9aa410b4d31"},"vehicle_type_id":"4","last_reported":1739729468,"current_range_meters":38800,"station_id":"ce4bhih2rcd13ifvqfr0","pricing_plan_id":"cebpf4jnsgd1na2vs0mg"},{"bike_id":"05f82d89-fa80-4f7f-95e3-de8829322c89","system_id":"levelo_inurba_marseille","lat":43.25493,"lon":5.37648,"is_reserved":false,"is_disabled":true,"rental_uris":{"android":"levelo://app?vid=05f82d89-fa80-4f7f-95e3-de8829322c89","ios":"levelo://app?vid=05f82d89-fa80-4f7f-95e3-de8829322c89"},"vehicle_type_id":"4","last_reported":1739729468,"current_range_meters":30800,"station_id":"ce4bhh12rcd13ifvqff0","pricing_plan_id":"cebpf4jnsgd1na2vs0mg"},{"bike_id":"30ea1aa1-f18a-46ba-baa0-81223557424e","system_id":"levelo_inurba_marseille","lat":43.27616,"lon":5.36111,"is_reserved":false,"is_disabled":false,"rental_uris":{"android":"levelo://app?vid=30ea1aa1-f18a-46ba-baa0-81223557424e","ios":"levelo://app?vid=30ea1aa1-f18a-46ba-baa0-81223557424e"},"vehicle_type_id":"4","last_reported":1739729468,"current_range_meters":28800,"station_id":"ce4bgj92rcd13ifvqbe0","pricing_plan_id":"cebpf4jnsgd1na2vs0mg"},{"bike_id":"23b444ef-90ed-4509-b4a2-cce013b96af6","system_id":"levelo_inurba_marseille","lat":43.28425,"lon":5.34986,"is_reserved":false,"is_disabled":false,"rental_uris":{"android":"levelo://app?vid=23b444ef-90ed-4509-b4a2-cce013b96af6","ios":"levelo://app?vid=23b444ef-90ed-4509-b4a2-cce013b96af6"},"vehicle_type_id":"4","last_reported":1739729468,"current_range_meters":28000,"station_id":"ce4bhbh2rcd13ifvqepg","pricing_plan_id":"cebpf4jnsgd1na2vs0mg"},{"bike_id":"281b84f3-58f9-4822-a666-06aa2e562366","system_id":"levelo_inurba_marseille","lat":43.24163,"lon":5.36395,"is_reserved":false,"is_disabled":false,"rental_uris":{"android":"levelo://app?vid=281b84f3-58f9-4822-a666-06aa2e562366","ios":"levelo://app?vid=281b84f3-58f9-4822-a666-06aa2e562366"},"vehicle_type_id":"4","last_reported":1739729468,"current_range_meters":25600,"station_id":"cpo36qri1sfpv3e86is0","pricing_plan_id":"cebpf4jnsgd1na2vs0mg"},{"bike_id":"f58c78ee-fb4b-4848-9574-1fd30425a15a","system_id":"levelo_inurba_marseille","lat":43.32486,"lon":5.36549,"is_reserved":false,"is_disabled":false,"rental_uris":{"android":"levelo://app?vid=f58c78ee-fb4b-4848-9574-1fd30425a15a","ios":"levelo://app?vid=f58c78ee-fb4b-4848-9574-1fd30425a15a"},"vehicle_type_id":"4","last_reported":1739729468,"current_range_meters":30000,"station_id":"ce4bhs12rcd13ifvqhvg","pricing_plan_id":"cebpf4jnsgd1na2vs0mg"},{"bike_id":"a3eebbb8-b174-4100-943b-0d9183acdce1","system_id":"levelo_inurba_marseille","lat":43.29772,"lon":5.38108,"is_reserved":false,"is_disabled":false,"rental_uris":{"android":"levelo://app?vid=a3eebbb8-b174-4100-943b-0d9183acdce1","ios":"levelo://app?vid=a3eebbb8-b174-4100-943b-0d9183acdce1"},"vehicle_type_id":"4","last_reported":1739729468,"current_range_meters":38800,"station_id":"ce4bgip2rcd13ifvqbb0","pricing_plan_id":"cebpf4jnsgd1na2vs0mg"},{"bike_id":"37e4b2ea-7872-40f3-ba3f-f68d4fa76227","system_id":"levelo_inurba_marseille","lat":43.29274,"lon":5.40127,"is_reserved":false,"is_disabled":false,"rental_uris":{"android":"levelo://app?vid=37e4b2ea-7872-40f3-ba3f-f68d4fa76227","ios":"levelo://app?vid=37e4b2ea-7872-40f3-ba3f-f68d4fa76227"},"vehicle_type_id":"4","last_reported":1739729468,"current_range_meters":34000,"station_id":"ce4bh312rcd13ifvqdk0","pricing_plan_id":"cebpf4jnsgd1na2vs0mg"},{"bike_id":"4c411cde-c9cf-4a15-9b86-1e3d66276070","system_id":"levelo_inurba_marseille","lat":43.29267,"lon":5.38438,"is_reserved":false,"is_disabled":false,"rental_uris":{"android":"levelo://app?vid=4c411cde-c9cf-4a15-9b86-1e3d66276070","ios":"levelo://app?vid=4c411cde-c9cf-4a15-9b86-1e3d66276070"},"vehicle_type_id":"4","last_reported":1739729468,"current_range_meters":32400,"station_id":"ce4bh692rcd13ifvqea0","pricing_plan_id":"cebpf4jnsgd1na2vs0mg"},{"bike_id":"917b1dc0-adb2-4903-84ef-22990e0daa55","system_id":"levelo_inurba_marseille","lat":43.30415,"lon":5.4128,"is_reserved":false,"is_disabled":false,"rental_uris":{"android":"levelo://app?vid=917b1dc0-adb2-4903-84ef-22990e0daa55","ios":"levelo://app?vid=917b1dc0-adb2-4903-84ef-22990e0daa55"},"vehicle_type_id":"4","last_reported":1739729468,"current_range_meters":32400,"station_id":"ce4bhop2rcd13ifvqh8g","pricing_plan_id":"cebpf4jnsgd1na2vs0mg"},{"bike_id":"fc0108f1-b763-4cd2-be7c-83ab0fa62f2c","system_id":"levelo_inurba_marseille","lat":43.28611,"lon":5.35108,"is_reserved":false,"is_disabled":false,"rental_uris":{"android":"levelo://app?vid=fc0108f1-b763-4cd2-be7c-83ab0fa62f2c","ios":"levelo://app?vid=fc0108f1-b763-4cd2-be7c-83ab0fa62f2c"},"vehicle_type_id":"4","last_reported":1739729468,"current_range_meters":8000,"station_id":"ce4bhch2rcd13ifvqeug","pricing_plan_id":"cebpf4jnsgd1na2vs0mg"},{"bike_id":"03eba1d0-92c1-4e6e-a4d0-7c546f2439c0","system_id":"levelo_inurba_marseille","lat":43.337444,"lon":5.374475,"is_reserved":false,"is_disabled":true,"rental_uris":{"android":"levelo://app?vid=03eba1d0-92c1-4e6e-a4d0-7c546f2439c0","ios":"levelo://app?vid=03eba1d0-92c1-4e6e-a4d0-7c546f2439c0"},"vehicle_type_id":"4","last_reported":1739729468,"current_range_meters":0,"station_id":"","pricing_plan_id":"cebpf4jnsgd1na2vs0mg"},{"bike_id":"7670b8ae-6f61-4d26-b077-17100b95f8ab","system_id":"levelo_inurba_marseille","lat":43.28438,"lon":5.39213,"is_reserved":false,"is_disabled":true,"rental_uris":{"android":"levelo://app?vid=7670b8ae-6f61-4d26-b077-17100b95f8ab","ios":"levelo://app?vid=7670b8ae-6f61-4d26-b077-17100b95f8ab"},"vehicle_type_id":"4","last_reported":1739729468,"current_range_meters":27600,"station_id":"ce4bhoh2rcd13ifvqh5g","pricing_plan_id":"cebpf4jnsgd1na2vs0mg"},{"bike_id":"496e0267-f4a3-4e46-98dc-aa633c403f12","system_id":"levelo_inurba_marseille","lat":43.2549,"lon":5.37648,"is_reserved":false,"is_disabled":true,"rental_uris":{"android":"levelo://app?vid=496e0267-f4a3-4e46-98dc-aa633c403f12","ios":"levelo://app?vid=496e0267-f4a3-4e46-98dc-aa633c403f12"},"vehicle_type_id":"4","last_reported":1739729468,"current_range_meters":31200,"station_id":"ce4bhh12rcd13ifvqff0","pricing_plan_id":"cebpf4jnsgd1na2vs0mg"},{"bike_id":"22d03988-cef2-4c32-901a-c2d50b43d3a9","system_id":"levelo_inurba_marseille","lat":43.29532,"lon":5.38556,"is_reserved":false,"is_disabled":true,"rental_uris":{"android":"levelo://app?vid=22d03988-cef2-4c32-901a-c2d50b43d3a9","ios":"levelo://app?vid=22d03988-cef2-4c32-901a-c2d50b43d3a9"},"vehicle_type_id":"4","last_reported":1739729468,"current_range_meters":38400,"station_id":"ce4bgih2rcd13ifvqba0","pricing_plan_id":"cebpf4jnsgd1na2vs0mg"},{"bike_id":"dc8f3a1c-f2fe-4b0d-b970-db9c4df9a40d","system_id":"levelo_inurba_marseille","lat":43.28412,"lon":5.34986,"is_reserved":false,"is_disabled":false,"rental_uris":{"android":"levelo://app?vid=dc8f3a1c-f2fe-4b0d-b970-db9c4df9a40d","ios":"levelo://app?vid=dc8f3a1c-f2fe-4b0d-b970-db9c4df9a40d"},"vehicle_type_id":"4","last_reported":1739729468,"current_range_meters":24800,"station_id":"ce4bhbh2rcd13ifvqepg","pricing_plan_id":"cebpf4jnsgd1na2vs0mg"},{"bike_id":"8c6e1647-a201-42d6-9e2c-07bf21681fa3","system_id":"levelo_inurba_marseille","lat":43.31902,"lon":5.40736,"is_reserved":false,"is_disabled":true,"rental_uris":{"android":"levelo://app?vid=8c6e1647-a201-42d6-9e2c-07bf21681fa3","ios":"levelo://app?vid=8c6e1647-a201-42d6-9e2c-07bf21681fa3"},"vehicle_type_id":"4","last_reported":1739729468,"current_range_meters":16800,"station_id":"ce4bhq12rcd13ifvqhig","pricing_plan_id":"cebpf4jnsgd1na2vs0mg"},{"bike_id":"f294a085-e191-4c66-8edd-fe79d347dea4","system_id":"levelo_inurba_marseille","lat":43.30351,"lon":5.41887,"is_reserved":false,"is_disabled":false,"rental_uris":{"android":"levelo://app?vid=f294a085-e191-4c66-8edd-fe79d347dea4","ios":"levelo://app?vid=f294a085-e191-4c66-8edd-fe79d347dea4"},"vehicle_type_id":"4","last_reported":1739729468,"current_range_meters":38000,"station_id":"ce4bhop2rcd13ifvqh7g","pricing_plan_id":"cebpf4jnsgd1na2vs0mg"},{"bike_id":"d7bb91c7-1e6c-4011-85a2-08678dbfba66","system_id":"levelo_inurba_marseille","lat":43.2439,"lon":5.37066,"is_reserved":false,"is_disabled":false,"rental_uris":{"android":"levelo://app?vid=d7bb91c7-1e6c-4011-85a2-08678dbfba66","ios":"levelo://app?vid=d7bb91c7-1e6c-4011-85a2-08678dbfba66"},"vehicle_type_id":"4","last_reported":1739729468,"current_range_meters":38000,"station_id":"ce4bhhh2rcd13ifvqfk0","pricing_plan_id":"cebpf4jnsgd1na2vs0mg"},{"bike_id":"36d3504e-5361-430c-b3be-ab96da17eb8b","system_id":"levelo_inurba_marseille","lat":43.248028,"lon":5.374556,"is_reserved":false,"is_disabled":false,"rental_uris":{"android":"levelo://app?vid=36d3504e-5361-430c-b3be-ab96da17eb8b","ios":"levelo://app?vid=36d3504e-5361-430c-b3be-ab96da17eb8b"},"vehicle_type_id":"4","last_reported":1739729468,"current_range_meters":32800,"station_id":"ce4bhgh2rcd13ifvqfb0","pricing_plan_id":"cebpf4jnsgd1na2vs0mg"},{"bike_id":"69212e97-c072-42e9-a25b-70fa634360c2","system_id":"levelo_inurba_marseille","lat":43.307965,"lon":5.435271,"is_reserved":false,"is_disabled":true,"rental_uris":{"android":"levelo://app?vid=69212e97-c072-42e9-a25b-70fa634360c2","ios":"levelo://app?vid=69212e97-c072-42e9-a25b-70fa634360c2"},"vehicle_type_id":"4","last_reported":1739729468,"current_range_meters":0,"station_id":"ce4bhph2rcd13ifvqheg","pricing_plan_id":"cebpf4jnsgd1na2vs0mg"},{"bike_id":"1f52f3b3-3e4c-4076-9fe5-f4b3bb4b252a","system_id":"levelo_inurba_marseille","lat":43.27511,"lon":5.43516,"is_reserved":false,"is_disabled":true,"rental_uris":{"android":"levelo://app?vid=1f52f3b3-3e4c-4076-9fe5-f4b3bb4b252a","ios":"levelo://app?vid=1f52f3b3-3e4c-4076-9fe5-f4b3bb4b252a"},"vehicle_type_id":"4","last_reported":1739729468,"current_range_meters":0,"station_id":"","pricing_plan_id":"cebpf4jnsgd1na2vs0mg"},{"bike_id":"4abd2fbf-4b83-494d-a562-d039b38e8a3b","system_id":"levelo_inurba_marseille","lat":43.2781,"lon":5.40714,"is_reserved":false,"is_disabled":false,"rental_uris":{"android":"levelo://app?vid=4abd2fbf-4b83-494d-a562-d039b38e8a3b","ios":"levelo://app?vid=4abd2fbf-4b83-494d-a562-d039b38e8a3b"},"vehicle_type_id":"4","last_reported":1739729468,"current_range_meters":31200,"station_id":"ce4bhnh2rcd13ifvqgtg","pricing_plan_id":"cebpf4jnsgd1na2vs0mg"},{"bike_id":"204d0c95-d245-41ee-a560-4718b8e41e4d","system_id":"levelo_inurba_marseille","lat":43.25085,"lon":5.39524,"is_reserved":false,"is_disabled":false,"rental_uris":{"android":"levelo://app?vid=204d0c95-d245-41ee-a560-4718b8e41e4d","ios":"levelo://app?vid=204d0c95-d245-41ee-a560-4718b8e41e4d"},"vehicle_type_id":"4","last_reported":1739729468,"current_range_meters":19200,"station_id":"ce4bhm12rcd13ifvqgkg","pricing_plan_id":"cebpf4jnsgd1na2vs0mg"},{"bike_id":"8c2cb4e7-cc7a-458e-beca-ed80b12306ff","system_id":"levelo_inurba_marseille","lat":43.30109,"lon":5.3987,"is_reserved":false,"is_disabled":true,"rental_uris":{"android":"levelo://app?vid=8c2cb4e7-cc7a-458e-beca-ed80b12306ff","ios":"levelo://app?vid=8c2cb4e7-cc7a-458e-beca-ed80b12306ff"},"vehicle_type_id":"4","last_reported":1739729468,"current_range_meters":0,"station_id":"ce4bh0h2rcd13ifvqd40","pricing_plan_id":"cebpf4jnsgd1na2vs0mg"},{"bike_id":"bd1fbd17-5ecd-4c2a-9290-d1ffd1a70214","system_id":"levelo_inurba_marseille","lat":43.29535,"lon":5.42296,"is_reserved":false,"is_disabled":false,"rental_uris":{"android":"levelo://app?vid=bd1fbd17-5ecd-4c2a-9290-d1ffd1a70214","ios":"levelo://app?vid=bd1fbd17-5ecd-4c2a-9290-d1ffd1a70214"},"vehicle_type_id":"4","last_reported":1739729468,"current_range_meters":28000,"station_id":"ce4bhph2rcd13ifvqhdg","pricing_plan_id":"cebpf4jnsgd1na2vs0mg"},{"bike_id":"8c74014a-8dc1-4e6e-96d0-e4be6e75992b","system_id":"levelo_inurba_marseille","lat":43.27994,"lon":5.41663,"is_reserved":false,"is_disabled":false,"rental_uris":{"android":"levelo://app?vid=8c74014a-8dc1-4e6e-96d0-e4be6e75992b","ios":"levelo://app?vid=8c74014a-8dc1-4e6e-96d0-e4be6e75992b"},"vehicle_type_id":"4","last_reported":1739729468,"current_range_meters":28800,"station_id":"ce4bho12rcd13ifvqh1g","pricing_plan_id":"cebpf4jnsgd1na2vs0mg"},{"bike_id":"dd548764-7d84-4656-8245-ec59f80c7eb7","system_id":"levelo_inurba_marseille","lat":43.30417,"lon":5.41281,"is_reserved":false,"is_disabled":false,"rental_uris":{"android":"levelo://app?vid=dd548764-7d84-4656-8245-ec59f80c7eb7","ios":"levelo://app?vid=dd548764-7d84-4656-8245-ec59f80c7eb7"},"vehicle_type_id":"4","last_reported":1739729468,"current_range_meters":38800,"station_id":"ce4bhop2rcd13ifvqh8g","pricing_plan_id":"cebpf4jnsgd1na2vs0mg"},{"bike_id":"d2e01317-2950-420e-b1aa-8f1e4398c1e8","system_id":"levelo_inurba_marseille","lat":43.23186,"lon":5.3556,"is_reserved":false,"is_disabled":false,"rental_uris":{"android":"levelo://app?vid=d2e01317-2950-420e-b1aa-8f1e4398c1e8","ios":"levelo://app?vid=d2e01317-2950-420e-b1aa-8f1e4398c1e8"},"vehicle_type_id":"4","last_reported":1739729468,"current_range_meters":38800,"station_id":"ce4bhu92rcd13ifvqi70","pricing_plan_id":"cebpf4jnsgd1na2vs0mg"},{"bike_id":"99b60497-417a-4e6c-9e27-ce3655ce5e57","system_id":"levelo_inurba_marseille","lat":43.30666,"lon":5.40092,"is_reserved":false,"is_disabled":true,"rental_uris":{"android":"levelo://app?vid=99b60497-417a-4e6c-9e27-ce3655ce5e57","ios":"levelo://app?vid=99b60497-417a-4e6c-9e27-ce3655ce5e57"},"vehicle_type_id":"4","last_reported":1739729468,"current_range_meters":24000,"station_id":"ce4bh112rcd13ifvqda0","pricing_plan_id":"cebpf4jnsgd1na2vs0mg"},{"bike_id":"eee00245-c37e-48c9-b977-6bc2b00874ec","system_id":"levelo_inurba_marseille","lat":43.27943,"lon":5.41038,"is_reserved":false,"is_disabled":false,"rental_uris":{"android":"levelo://app?vid=eee00245-c37e-48c9-b977-6bc2b00874ec","ios":"levelo://app?vid=eee00245-c37e-48c9-b977-6bc2b00874ec"},"vehicle_type_id":"4","last_reported":1739729468,"current_range_meters":8400,"station_id":"ce4bhnp2rcd13ifvqh0g","pricing_plan_id":"cebpf4jnsgd1na2vs0mg"},{"bike_id":"fdbe1c87-3470-4d42-a2f8-e6c80454708a","system_id":"levelo_inurba_marseille","lat":43.23963,"lon":5.36637,"is_reserved":false,"is_disabled":false,"rental_uris":{"android":"levelo://app?vid=fdbe1c87-3470-4d42-a2f8-e6c80454708a","ios":"levelo://app?vid=fdbe1c87-3470-4d42-a2f8-e6c80454708a"},"vehicle_type_id":"4","last_reported":1739729468,"current_range_meters":8800,"station_id":"ce4bhi12rcd13ifvqfp0","pricing_plan_id":"cebpf4jnsgd1na2vs0mg"},{"bike_id":"68e091eb-0298-4cb5-b5eb-8dfc36218da6","system_id":"levelo_inurba_marseille","lat":43.23191,"lon":5.39993,"is_reserved":false,"is_disabled":false,"rental_uris":{"android":"levelo://app?vid=68e091eb-0298-4cb5-b5eb-8dfc36218da6","ios":"levelo://app?vid=68e091eb-0298-4cb5-b5eb-8dfc36218da6"},"vehicle_type_id":"4","last_reported":1739729468,"current_range_meters":39200,"station_id":"ce4bhn12rcd13ifvqgqg","pricing_plan_id":"cebpf4jnsgd1na2vs0mg"},{"bike_id":"d63b7867-53a4-4bca-be72-b856d1cbea50","system_id":"levelo_inurba_marseille","lat":43.23976,"lon":5.36613,"is_reserved":false,"is_disabled":false,"rental_uris":{"android":"levelo://app?vid=d63b7867-53a4-4bca-be72-b856d1cbea50","ios":"levelo://app?vid=d63b7867-53a4-4bca-be72-b856d1cbea50"},"vehicle_type_id":"4","last_reported":1739729468,"current_range_meters":19200,"station_id":"ce4bhi12rcd13ifvqfp0","pricing_plan_id":"cebpf4jnsgd1na2vs0mg"},{"bike_id":"57a5c251-6123-470e-813e-a9340a0256fe","system_id":"levelo_inurba_marseille","lat":43.24172,"lon":5.36407,"is_reserved":false,"is_disabled":false,"rental_uris":{"android":"levelo://app?vid=57a5c251-6123-470e-813e-a9340a0256fe","ios":"levelo://app?vid=57a5c251-6123-470e-813e-a9340a0256fe"},"vehicle_type_id":"4","last_reported":1739729468,"current_range_meters":38800,"station_id":"cpo36qri1sfpv3e86is0","pricing_plan_id":"cebpf4jnsgd1na2vs0mg"},{"bike_id":"ef172359-3e68-4bf2-b045-8d26f74d9415","system_id":"levelo_inurba_marseille","lat":43.29546,"lon":5.39396,"is_reserved":false,"is_disabled":false,"rental_uris":{"android":"levelo://app?vid=ef172359-3e68-4bf2-b045-8d26f74d9415","ios":"levelo://app?vid=ef172359-3e68-4bf2-b045-8d26f74d9415"},"vehicle_type_id":"4","last_reported":1739729468,"current_range_meters":28800,"station_id":"ce4bh292rcd13ifvqdf0","pricing_plan_id":"cebpf4jnsgd1na2vs0mg"},{"bike_id":"5dc24113-d03e-436c-b053-abde5f7545fe","system_id":"levelo_inurba_marseille","lat":43.2909,"lon":5.37152,"is_reserved":false,"is_disabled":false,"rental_uris":{"android":"levelo://app?vid=5dc24113-d03e-436c-b053-abde5f7545fe","ios":"levelo://app?vid=5dc24113-d03e-436c-b053-abde5f7545fe"},"vehicle_type_id":"4","last_reported":1739729468,"current_range_meters":35600,"station_id":"ce4bh5p2rcd13ifvqe4g","pricing_plan_id":"cebpf4jnsgd1na2vs0mg"},{"bike_id":"4813ee22-90cf-424e-b26c-262f0f219463","system_id":"levelo_inurba_marseille","lat":43.28856,"lon":5.39639,"is_reserved":false,"is_disabled":false,"rental_uris":{"android":"levelo://app?vid=4813ee22-90cf-424e-b26c-262f0f219463","ios":"levelo://app?vid=4813ee22-90cf-424e-b26c-262f0f219463"},"vehicle_type_id":"4","last_reported":1739729468,"current_range_meters":17600,"station_id":"","pricing_plan_id":"cebpf4jnsgd1na2vs0mg"},{"bike_id":"02db7a28-fc2d-4a4a-92a0-cec040e64718","system_id":"levelo_inurba_marseille","lat":43.23966,"lon":5.36629,"is_reserved":false,"is_disabled":true,"rental_uris":{"android":"levelo://app?vid=02db7a28-fc2d-4a4a-92a0-cec040e64718","ios":"levelo://app?vid=02db7a28-fc2d-4a4a-92a0-cec040e64718"},"vehicle_type_id":"4","last_reported":1739729468,"current_range_meters":3200,"station_id":"ce4bhi12rcd13ifvqfp0","pricing_plan_id":"cebpf4jnsgd1na2vs0mg"},{"bike_id":"6e01e562-d2a0-4feb-8da0-c992f925ec3c","system_id":"levelo_inurba_marseille","lat":43.3014,"lon":5.38776,"is_reserved":false,"is_disabled":false,"rental_uris":{"android":"levelo://app?vid=6e01e562-d2a0-4feb-8da0-c992f925ec3c","ios":"levelo://app?vid=6e01e562-d2a0-4feb-8da0-c992f925ec3c"},"vehicle_type_id":"4","last_reported":1739729468,"current_range_meters":19600,"station_id":"ce4bhoh2rcd13ifvqh6g","pricing_plan_id":"cebpf4jnsgd1na2vs0mg"},{"bike_id":"6f820518-8b07-484a-8c43-5d5451e338e7","system_id":"levelo_inurba_marseille","lat":43.231995,"lon":5.355585,"is_reserved":false,"is_disabled":false,"rental_uris":{"android":"levelo://app?vid=6f820518-8b07-484a-8c43-5d5451e338e7","ios":"levelo://app?vid=6f820518-8b07-484a-8c43-5d5451e338e7"},"vehicle_type_id":"4","last_reported":1739729468,"current_range_meters":28400,"station_id":"ce4bhu92rcd13ifvqi70","pricing_plan_id":"cebpf4jnsgd1na2vs0mg"},{"bike_id":"e9df70a0-1b8c-4c51-a61c-68ff2e71de13","system_id":"levelo_inurba_marseille","lat":43.23064,"lon":5.35509,"is_reserved":false,"is_disabled":true,"rental_uris":{"android":"levelo://app?vid=e9df70a0-1b8c-4c51-a61c-68ff2e71de13","ios":"levelo://app?vid=e9df70a0-1b8c-4c51-a61c-68ff2e71de13"},"vehicle_type_id":"4","last_reported":1739729468,"current_range_meters":0,"station_id":"cpo3342slgdg3j2ifvpg","pricing_plan_id":"cebpf4jnsgd1na2vs0mg"},{"bike_id":"a3b76a23-e719-4cac-9132-63d31b15a8de","system_id":"levelo_inurba_marseille","lat":43.24159,"lon":5.36395,"is_reserved":false,"is_disabled":false,"rental_uris":{"android":"levelo://app?vid=a3b76a23-e719-4cac-9132-63d31b15a8de","ios":"levelo://app?vid=a3b76a23-e719-4cac-9132-63d31b15a8de"},"vehicle_type_id":"4","last_reported":1739729468,"current_range_meters":24800,"station_id":"cpo36qri1sfpv3e86is0","pricing_plan_id":"cebpf4jnsgd1na2vs0mg"},{"bike_id":"e10bdead-fd6c-49ba-84bb-67b4372d6c06","system_id":"levelo_inurba_marseille","lat":43.29893,"lon":5.3974,"is_reserved":false,"is_disabled":false,"rental_uris":{"android":"levelo://app?vid=e10bdead-fd6c-49ba-84bb-67b4372d6c06","ios":"levelo://app?vid=e10bdead-fd6c-49ba-84bb-67b4372d6c06"},"vehicle_type_id":"4","last_reported":1739729468,"current_range_meters":28400,"station_id":"ce4bh0h2rcd13ifvqd50","pricing_plan_id":"cebpf4jnsgd1na2vs0mg"},{"bike_id":"ec90772d-f71e-4fca-a945-9124afb4acb2","system_id":"levelo_inurba_marseille","lat":43.28355,"lon":5.3811,"is_reserved":false,"is_disabled":false,"rental_uris":{"android":"levelo://app?vid=ec90772d-f71e-4fca-a945-9124afb4acb2","ios":"levelo://app?vid=ec90772d-f71e-4fca-a945-9124afb4acb2"},"vehicle_type_id":"4","last_reported":1739729468,"current_range_meters":35200,"station_id":"ce4bh412rcd13ifvqdr0","pricing_plan_id":"cebpf4jnsgd1na2vs0mg"},{"bike_id":"fe0f12a8-8d62-4d79-b629-bda6901e6297","system_id":"levelo_inurba_marseille","lat":43.26965,"lon":5.4028,"is_reserved":false,"is_disabled":true,"rental_uris":{"android":"levelo://app?vid=fe0f12a8-8d62-4d79-b629-bda6901e6297","ios":"levelo://app?vid=fe0f12a8-8d62-4d79-b629-bda6901e6297"},"vehicle_type_id":"4","last_reported":1739729468,"current_range_meters":27200,"station_id":"cjm6bp8fraef2m0cb0m0","pricing_plan_id":"cebpf4jnsgd1na2vs0mg"},{"bike_id":"8f22ecce-c71c-4012-9dfa-2e3d6e010967","system_id":"levelo_inurba_marseille","lat":43.30133,"lon":5.38777,"is_reserved":false,"is_disabled":false,"rental_uris":{"android":"levelo://app?vid=8f22ecce-c71c-4012-9dfa-2e3d6e010967","ios":"levelo://app?vid=8f22ecce-c71c-4012-9dfa-2e3d6e010967"},"vehicle_type_id":"4","last_reported":1739729468,"current_range_meters":38800,"station_id":"ce4bhoh2rcd13ifvqh6g","pricing_plan_id":"cebpf4jnsgd1na2vs0mg"},{"bike_id":"cfbe67cf-6420-4945-9471-2d464aa6fcd4","system_id":"levelo_inurba_marseille","lat":43.27829,"lon":5.39194,"is_reserved":false,"is_disabled":true,"rental_uris":{"android":"levelo://app?vid=cfbe67cf-6420-4945-9471-2d464aa6fcd4","ios":"levelo://app?vid=cfbe67cf-6420-4945-9471-2d464aa6fcd4"},"vehicle_type_id":"4","last_reported":1739729468,"current_range_meters":2000,"station_id":"ce4bhjp2rcd13ifvqga0","pricing_plan_id":"cebpf4jnsgd1na2vs0mg"},{"bike_id":"8d92cdb5-7bf0-441c-8025-8793edbaa7ed","system_id":"levelo_inurba_marseille","lat":43.24545,"lon":5.39522,"is_reserved":false,"is_disabled":false,"rental_uris":{"android":"levelo://app?vid=8d92cdb5-7bf0-441c-8025-8793edbaa7ed","ios":"levelo://app?vid=8d92cdb5-7bf0-441c-8025-8793edbaa7ed"},"vehicle_type_id":"4","last_reported":1739729468,"current_range_meters":39200,"station_id":"ce4bhlp2rcd13ifvqgjg","pricing_plan_id":"cebpf4jnsgd1na2vs0mg"},{"bike_id":"2d1a0294-4315-4a6d-9042-006493c526cd","system_id":"levelo_inurba_marseille","lat":43.29562,"lon":5.4062,"is_reserved":false,"is_disabled":true,"rental_uris":{"android":"levelo://app?vid=2d1a0294-4315-4a6d-9042-006493c526cd","ios":"levelo://app?vid=2d1a0294-4315-4a6d-9042-006493c526cd"},"vehicle_type_id":"4","last_reported":1739729468,"current_range_meters":1600,"station_id":"","pricing_plan_id":"cebpf4jnsgd1na2vs0mg"},{"bike_id":"db3255f2-fc6d-4013-9497-7c41f9fd2663","system_id":"levelo_inurba_marseille","lat":43.31536,"lon":5.38035,"is_reserved":false,"is_disabled":false,"rental_uris":{"android":"levelo://app?vid=db3255f2-fc6d-4013-9497-7c41f9fd2663","ios":"levelo://app?vid=db3255f2-fc6d-4013-9497-7c41f9fd2663"},"vehicle_type_id":"4","last_reported":1739729468,"current_range_meters":38000,"station_id":"ce4bhsp2rcd13ifvqi50","pricing_plan_id":"cebpf4jnsgd1na2vs0mg"},{"bike_id":"7644e07f-d2a8-496a-ac13-d00b6b663f4c","system_id":"levelo_inurba_marseille","lat":43.32293,"lon":5.38266,"is_reserved":false,"is_disabled":false,"rental_uris":{"android":"levelo://app?vid=7644e07f-d2a8-496a-ac13-d00b6b663f4c","ios":"levelo://app?vid=7644e07f-d2a8-496a-ac13-d00b6b663f4c"},"vehicle_type_id":"4","last_reported":1739729468,"current_range_meters":3200,"station_id":"ce4bhr12rcd13ifvqhqg","pricing_plan_id":"cebpf4jnsgd1na2vs0mg"},{"bike_id":"5b108bca-0347-4ab1-ba07-2f8caf2d7e27","system_id":"levelo_inurba_marseille","lat":43.29424,"lon":5.38622,"is_reserved":false,"is_disabled":false,"rental_uris":{"android":"levelo://app?vid=5b108bca-0347-4ab1-ba07-2f8caf2d7e27","ios":"levelo://app?vid=5b108bca-0347-4ab1-ba07-2f8caf2d7e27"},"vehicle_type_id":"4","last_reported":1739729468,"current_range_meters":3200,"station_id":"ce4bh2h2rcd13ifvqdh0","pricing_plan_id":"cebpf4jnsgd1na2vs0mg"},{"bike_id":"744bc4ad-424c-41fd-a810-899680f40c1a","system_id":"levelo_inurba_marseille","lat":43.28274,"lon":5.35077,"is_reserved":false,"is_disabled":false,"rental_uris":{"android":"levelo://app?vid=744bc4ad-424c-41fd-a810-899680f40c1a","ios":"levelo://app?vid=744bc4ad-424c-41fd-a810-899680f40c1a"},"vehicle_type_id":"4","last_reported":1739729468,"current_range_meters":38800,"station_id":"ce4bhbp2rcd13ifvqerg","pricing_plan_id":"cebpf4jnsgd1na2vs0mg"},{"bike_id":"df6d8aa0-2733-42df-862b-3044c73a51b9","system_id":"levelo_inurba_marseille","lat":43.28446,"lon":5.39212,"is_reserved":false,"is_disabled":false,"rental_uris":{"android":"levelo://app?vid=df6d8aa0-2733-42df-862b-3044c73a51b9","ios":"levelo://app?vid=df6d8aa0-2733-42df-862b-3044c73a51b9"},"vehicle_type_id":"4","last_reported":1739729468,"current_range_meters":16000,"station_id":"ce4bhoh2rcd13ifvqh5g","pricing_plan_id":"cebpf4jnsgd1na2vs0mg"},{"bike_id":"b68f690d-d7fb-4496-83be-f7f7476c9224","system_id":"levelo_inurba_marseille","lat":43.28582,"lon":5.39491,"is_reserved":false,"is_disabled":false,"rental_uris":{"android":"levelo://app?vid=b68f690d-d7fb-4496-83be-f7f7476c9224","ios":"levelo://app?vid=b68f690d-d7fb-4496-83be-f7f7476c9224"},"vehicle_type_id":"4","last_reported":1739729468,"current_range_meters":17600,"station_id":"ce4bh292rcd13ifvqdg0","pricing_plan_id":"cebpf4jnsgd1na2vs0mg"},{"bike_id":"99c2a141-f96f-49ee-83cd-29e1e8ba23a6","system_id":"levelo_inurba_marseille","lat":43.28866,"lon":5.35874,"is_reserved":false,"is_disabled":false,"rental_uris":{"android":"levelo://app?vid=99c2a141-f96f-49ee-83cd-29e1e8ba23a6","ios":"levelo://app?vid=99c2a141-f96f-49ee-83cd-29e1e8ba23a6"},"vehicle_type_id":"4","last_reported":1739729468,"current_range_meters":29600,"station_id":"ce4bhb12rcd13ifvqem0","pricing_plan_id":"cebpf4jnsgd1na2vs0mg"},{"bike_id":"abd52a66-dd85-456a-b742-8bf2ac7f5f17","system_id":"levelo_inurba_marseille","lat":43.29456,"lon":5.38604,"is_reserved":false,"is_disabled":false,"rental_uris":{"android":"levelo://app?vid=abd52a66-dd85-456a-b742-8bf2ac7f5f17","ios":"levelo://app?vid=abd52a66-dd85-456a-b742-8bf2ac7f5f17"},"vehicle_type_id":"4","last_reported":1739729468,"current_range_meters":38000,"station_id":"ce4bh2h2rcd13ifvqdh0","pricing_plan_id":"cebpf4jnsgd1na2vs0mg"},{"bike_id":"8621d022-da1c-42eb-90b3-f13a75064284","system_id":"levelo_inurba_marseille","lat":43.300917,"lon":5.364117,"is_reserved":false,"is_disabled":false,"rental_uris":{"android":"levelo://app?vid=8621d022-da1c-42eb-90b3-f13a75064284","ios":"levelo://app?vid=8621d022-da1c-42eb-90b3-f13a75064284"},"vehicle_type_id":"4","last_reported":1739729468,"current_range_meters":38800,"station_id":"","pricing_plan_id":"cebpf4jnsgd1na2vs0mg"},{"bike_id":"88239476-a9c7-42bf-8442-ba6640f71416","system_id":"levelo_inurba_marseille","lat":43.29273,"lon":5.36843,"is_reserved":false,"is_disabled":false,"rental_uris":{"android":"levelo://app?vid=88239476-a9c7-42bf-8442-ba6640f71416","ios":"levelo://app?vid=88239476-a9c7-42bf-8442-ba6640f71416"},"vehicle_type_id":"4","last_reported":1739729468,"current_range_meters":38800,"station_id":"ce4bhbp2rcd13ifvqesg","pricing_plan_id":"cebpf4jnsgd1na2vs0mg"},{"bike_id":"1c43e987-d0a7-457b-9c08-6a8d2de13d8a","system_id":"levelo_inurba_marseille","lat":43.29258,"lon":5.38447,"is_reserved":false,"is_disabled":false,"rental_uris":{"android":"levelo://app?vid=1c43e987-d0a7-457b-9c08-6a8d2de13d8a","ios":"levelo://app?vid=1c43e987-d0a7-457b-9c08-6a8d2de13d8a"},"vehicle_type_id":"4","last_reported":1739729468,"current_range_meters":17200,"station_id":"ce4bh692rcd13ifvqea0","pricing_plan_id":"cebpf4jnsgd1na2vs0mg"},{"bike_id":"d511c3fa-d5f4-4a0f-91ee-268d02b5310f","system_id":"levelo_inurba_marseille","lat":43.28627,"lon":5.3511,"is_reserved":false,"is_disabled":true,"rental_uris":{"android":"levelo://app?vid=d511c3fa-d5f4-4a0f-91ee-268d02b5310f","ios":"levelo://app?vid=d511c3fa-d5f4-4a0f-91ee-268d02b5310f"},"vehicle_type_id":"4","last_reported":1739729468,"current_range_meters":16000,"station_id":"ce4bhch2rcd13ifvqeug","pricing_plan_id":"cebpf4jnsgd1na2vs0mg"},{"bike_id":"1688ff34-1aa5-4509-9163-944a0042ff0b","system_id":"levelo_inurba_marseille","lat":43.29208,"lon":5.39316,"is_reserved":false,"is_disabled":false,"rental_uris":{"android":"levelo://app?vid=1688ff34-1aa5-4509-9163-944a0042ff0b","ios":"levelo://app?vid=1688ff34-1aa5-4509-9163-944a0042ff0b"},"vehicle_type_id":"4","last_reported":1739729468,"current_range_meters":6800,"station_id":"ce4bh192rcd13ifvqdd0","pricing_plan_id":"cebpf4jnsgd1na2vs0mg"},{"bike_id":"c1070f1a-f3cb-4ad7-8bf2-2e0f3ad70cfd","system_id":"levelo_inurba_marseille","lat":43.27957,"lon":5.38727,"is_reserved":false,"is_disabled":false,"rental_uris":{"android":"levelo://app?vid=c1070f1a-f3cb-4ad7-8bf2-2e0f3ad70cfd","ios":"levelo://app?vid=c1070f1a-f3cb-4ad7-8bf2-2e0f3ad70cfd"},"vehicle_type_id":"4","last_reported":1739729468,"current_range_meters":39200,"station_id":"ce4bhg12rcd13ifvqf80","pricing_plan_id":"cebpf4jnsgd1na2vs0mg"},{"bike_id":"716b30b1-2da5-4177-a32d-2160da8cee36","system_id":"levelo_inurba_marseille","lat":43.25707,"lon":5.41106,"is_reserved":false,"is_disabled":false,"rental_uris":{"android":"levelo://app?vid=716b30b1-2da5-4177-a32d-2160da8cee36","ios":"levelo://app?vid=716b30b1-2da5-4177-a32d-2160da8cee36"},"vehicle_type_id":"4","last_reported":1739729468,"current_range_meters":4000,"station_id":"ce4bhkp2rcd13ifvqgd0","pricing_plan_id":"cebpf4jnsgd1na2vs0mg"},{"bike_id":"f00620ae-2110-4dbd-a2e7-cd7bf13fe429","system_id":"levelo_inurba_marseille","lat":43.23198,"lon":5.39989,"is_reserved":false,"is_disabled":true,"rental_uris":{"android":"levelo://app?vid=f00620ae-2110-4dbd-a2e7-cd7bf13fe429","ios":"levelo://app?vid=f00620ae-2110-4dbd-a2e7-cd7bf13fe429"},"vehicle_type_id":"4","last_reported":1739729468,"current_range_meters":36400,"station_id":"ce4bhn12rcd13ifvqgqg","pricing_plan_id":"cebpf4jnsgd1na2vs0mg"},{"bike_id":"05df7975-71a5-4cd7-9732-f6e0ff429d46","system_id":"levelo_inurba_marseille","lat":43.29552,"lon":5.42268,"is_reserved":false,"is_disabled":false,"rental_uris":{"android":"levelo://app?vid=05df7975-71a5-4cd7-9732-f6e0ff429d46","ios":"levelo://app?vid=05df7975-71a5-4cd7-9732-f6e0ff429d46"},"vehicle_type_id":"4","last_reported":1739729468,"current_range_meters":26800,"station_id":"ce4bhph2rcd13ifvqhdg","pricing_plan_id":"cebpf4jnsgd1na2vs0mg"},{"bike_id":"021392bf-2f20-4ad0-9f72-b53c342d7d65","system_id":"levelo_inurba_marseille","lat":43.28271,"lon":5.35079,"is_reserved":false,"is_disabled":false,"rental_uris":{"android":"levelo://app?vid=021392bf-2f20-4ad0-9f72-b53c342d7d65","ios":"levelo://app?vid=021392bf-2f20-4ad0-9f72-b53c342d7d65"},"vehicle_type_id":"4","last_reported":1739729468,"current_range_meters":22400,"station_id":"ce4bhbp2rcd13ifvqerg","pricing_plan_id":"cebpf4jnsgd1na2vs0mg"},{"bike_id":"ddf1d674-41d6-443f-b0f1-1da7df267862","system_id":"levelo_inurba_marseille","lat":43.230619,"lon":5.354976,"is_reserved":false,"is_disabled":false,"rental_uris":{"android":"levelo://app?vid=ddf1d674-41d6-443f-b0f1-1da7df267862","ios":"levelo://app?vid=ddf1d674-41d6-443f-b0f1-1da7df267862"},"vehicle_type_id":"4","last_reported":1739729468,"current_range_meters":14800,"station_id":"cpo3342slgdg3j2ifvpg","pricing_plan_id":"cebpf4jnsgd1na2vs0mg"},{"bike_id":"94729826-cfa5-4ed9-8abd-5e8e49cce84e","system_id":"levelo_inurba_marseille","lat":43.29091,"lon":5.43256,"is_reserved":false,"is_disabled":true,"rental_uris":{"android":"levelo://app?vid=94729826-cfa5-4ed9-8abd-5e8e49cce84e","ios":"levelo://app?vid=94729826-cfa5-4ed9-8abd-5e8e49cce84e"},"vehicle_type_id":"4","last_reported":1739729468,"current_range_meters":0,"station_id":"","pricing_plan_id":"cebpf4jnsgd1na2vs0mg"},{"bike_id":"59897d86-c0b3-4acb-bf89-133a9364e1f4","system_id":"levelo_inurba_marseille","lat":43.23056,"lon":5.35494,"is_reserved":false,"is_disabled":true,"rental_uris":{"android":"levelo://app?vid=59897d86-c0b3-4acb-bf89-133a9364e1f4","ios":"levelo://app?vid=59897d86-c0b3-4acb-bf89-133a9364e1f4"},"vehicle_type_id":"4","last_reported":1739729468,"current_range_meters":36800,"station_id":"cpo3342slgdg3j2ifvpg","pricing_plan_id":"cebpf4jnsgd1na2vs0mg"},{"bike_id":"00a048aa-4d6b-4720-93fd-79329e63929d","system_id":"levelo_inurba_marseille","lat":43.26775,"lon":5.39415,"is_reserved":false,"is_disabled":false,"rental_uris":{"android":"levelo://app?vid=00a048aa-4d6b-4720-93fd-79329e63929d","ios":"levelo://app?vid=00a048aa-4d6b-4720-93fd-79329e63929d"},"vehicle_type_id":"4","last_reported":1739729468,"current_range_meters":22000,"station_id":"ce4bhh12rcd13ifvqfg0","pricing_plan_id":"cebpf4jnsgd1na2vs0mg"},{"bike_id":"d341fae0-743e-4c17-8b54-f96f8c451a1c","system_id":"levelo_inurba_marseille","lat":43.26194,"lon":5.37929,"is_reserved":false,"is_disabled":false,"rental_uris":{"android":"levelo://app?vid=d341fae0-743e-4c17-8b54-f96f8c451a1c","ios":"levelo://app?vid=d341fae0-743e-4c17-8b54-f96f8c451a1c"},"vehicle_type_id":"4","last_reported":1739729468,"current_range_meters":39200,"station_id":"ce4bhjp2rcd13ifvqg90","pricing_plan_id":"cebpf4jnsgd1na2vs0mg"},{"bike_id":"0fb59475-e180-41d4-9327-9fb001ea6be6","system_id":"levelo_inurba_marseille","lat":43.29785,"lon":5.38085,"is_reserved":false,"is_disabled":false,"rental_uris":{"android":"levelo://app?vid=0fb59475-e180-41d4-9327-9fb001ea6be6","ios":"levelo://app?vid=0fb59475-e180-41d4-9327-9fb001ea6be6"},"vehicle_type_id":"4","last_reported":1739729468,"current_range_meters":38800,"station_id":"ce4bgip2rcd13ifvqbb0","pricing_plan_id":"cebpf4jnsgd1na2vs0mg"},{"bike_id":"9fb8bc15-8e90-4202-8c78-bdd7f74b7a16","system_id":"levelo_inurba_marseille","lat":43.30577,"lon":5.36725,"is_reserved":false,"is_disabled":false,"rental_uris":{"android":"levelo://app?vid=9fb8bc15-8e90-4202-8c78-bdd7f74b7a16","ios":"levelo://app?vid=9fb8bc15-8e90-4202-8c78-bdd7f74b7a16"},"vehicle_type_id":"4","last_reported":1739729468,"current_range_meters":38400,"station_id":"ce4bgrp2rcd13ifvqc9g","pricing_plan_id":"cebpf4jnsgd1na2vs0mg"},{"bike_id":"fddf9633-377f-489e-9c7d-38f1665ca695","system_id":"levelo_inurba_marseille","lat":43.29592,"lon":5.38114,"is_reserved":false,"is_disabled":true,"rental_uris":{"android":"levelo://app?vid=fddf9633-377f-489e-9c7d-38f1665ca695","ios":"levelo://app?vid=fddf9633-377f-489e-9c7d-38f1665ca695"},"vehicle_type_id":"4","last_reported":1739729468,"current_range_meters":19200,"station_id":"ce4bgl12rcd13ifvqbo0","pricing_plan_id":"cebpf4jnsgd1na2vs0mg"},{"bike_id":"40c4421e-be80-49b9-9035-ec8bd05923a2","system_id":"levelo_inurba_marseille","lat":43.28854,"lon":5.3933,"is_reserved":false,"is_disabled":true,"rental_uris":{"android":"levelo://app?vid=40c4421e-be80-49b9-9035-ec8bd05923a2","ios":"levelo://app?vid=40c4421e-be80-49b9-9035-ec8bd05923a2"},"vehicle_type_id":"4","last_reported":1739729468,"current_range_meters":17600,"station_id":"ce4bh2p2rcd13ifvqdi0","pricing_plan_id":"cebpf4jnsgd1na2vs0mg"},{"bike_id":"4bc50c17-9aeb-4487-a054-afb81c6c63dc","system_id":"levelo_inurba_marseille","lat":43.27613,"lon":5.36098,"is_reserved":false,"is_disabled":true,"rental_uris":{"android":"levelo://app?vid=4bc50c17-9aeb-4487-a054-afb81c6c63dc","ios":"levelo://app?vid=4bc50c17-9aeb-4487-a054-afb81c6c63dc"},"vehicle_type_id":"4","last_reported":1739729468,"current_range_meters":27600,"station_id":"ce4bgj92rcd13ifvqbe0","pricing_plan_id":"cebpf4jnsgd1na2vs0mg"},{"bike_id":"51d774c5-4f6e-40ae-9e29-11237bf9a403","system_id":"levelo_inurba_marseille","lat":43.29025,"lon":5.38652,"is_reserved":false,"is_disabled":false,"rental_uris":{"android":"levelo://app?vid=51d774c5-4f6e-40ae-9e29-11237bf9a403","ios":"levelo://app?vid=51d774c5-4f6e-40ae-9e29-11237bf9a403"},"vehicle_type_id":"4","last_reported":1739729468,"current_range_meters":30000,"station_id":"ce4bh4p2rcd13ifvqe0g","pricing_plan_id":"cebpf4jnsgd1na2vs0mg"},{"bike_id":"2c8b8a41-5401-4b3a-be72-574e3bbf0407","system_id":"levelo_inurba_marseille","lat":43.306269,"lon":5.365898,"is_reserved":false,"is_disabled":false,"rental_uris":{"android":"levelo://app?vid=2c8b8a41-5401-4b3a-be72-574e3bbf0407","ios":"levelo://app?vid=2c8b8a41-5401-4b3a-be72-574e3bbf0407"},"vehicle_type_id":"4","last_reported":1739729468,"current_range_meters":4400,"station_id":"","pricing_plan_id":"cebpf4jnsgd1na2vs0mg"},{"bike_id":"2a3dddcf-8543-4215-8c42-84e597ef8b47","system_id":"levelo_inurba_marseille","lat":43.307838,"lon":5.373652,"is_reserved":false,"is_disabled":false,"rental_uris":{"android":"levelo://app?vid=2a3dddcf-8543-4215-8c42-84e597ef8b47","ios":"levelo://app?vid=2a3dddcf-8543-4215-8c42-84e597ef8b47"},"vehicle_type_id":"4","last_reported":1739729468,"current_range_meters":37600,"station_id":"","pricing_plan_id":"cebpf4jnsgd1na2vs0mg"},{"bike_id":"6724e70a-a600-4154-a228-f2c755dbbc45","system_id":"levelo_inurba_marseille","lat":43.28673,"lon":5.36358,"is_reserved":false,"is_disabled":false,"rental_uris":{"android":"levelo://app?vid=6724e70a-a600-4154-a228-f2c755dbbc45","ios":"levelo://app?vid=6724e70a-a600-4154-a228-f2c755dbbc45"},"vehicle_type_id":"4","last_reported":1739729468,"current_range_meters":39200,"station_id":"ce4bhah2rcd13ifvqej0","pricing_plan_id":"cebpf4jnsgd1na2vs0mg"},{"bike_id":"2b79e944-42d8-45fc-9674-f78d7182b76a","system_id":"levelo_inurba_marseille","lat":43.25586,"lon":5.38233,"is_reserved":false,"is_disabled":false,"rental_uris":{"android":"levelo://app?vid=2b79e944-42d8-45fc-9674-f78d7182b76a","ios":"levelo://app?vid=2b79e944-42d8-45fc-9674-f78d7182b76a"},"vehicle_type_id":"4","last_reported":1739729468,"current_range_meters":38800,"station_id":"ce4bhih2rcd13ifvqfs0","pricing_plan_id":"cebpf4jnsgd1na2vs0mg"},{"bike_id":"3625836a-8a03-4572-80d5-fadff11603e7","system_id":"levelo_inurba_marseille","lat":43.28041,"lon":5.36941,"is_reserved":false,"is_disabled":false,"rental_uris":{"android":"levelo://app?vid=3625836a-8a03-4572-80d5-fadff11603e7","ios":"levelo://app?vid=3625836a-8a03-4572-80d5-fadff11603e7"},"vehicle_type_id":"4","last_reported":1739729468,"current_range_meters":39200,"station_id":"ce4bha12rcd13ifvqef0","pricing_plan_id":"cebpf4jnsgd1na2vs0mg"},{"bike_id":"c10896f7-92fd-4317-938f-64ca897d164f","system_id":"levelo_inurba_marseille","lat":43.29522,"lon":5.39024,"is_reserved":false,"is_disabled":false,"rental_uris":{"android":"levelo://app?vid=c10896f7-92fd-4317-938f-64ca897d164f","ios":"levelo://app?vid=c10896f7-92fd-4317-938f-64ca897d164f"},"vehicle_type_id":"4","last_reported":1739729468,"current_range_meters":28000,"station_id":"ce4bh3p2rcd13ifvqdp0","pricing_plan_id":"cebpf4jnsgd1na2vs0mg"},{"bike_id":"b7675672-ea91-4212-a3c2-1e75ea117425","system_id":"levelo_inurba_marseille","lat":43.28185,"lon":5.42617,"is_reserved":false,"is_disabled":true,"rental_uris":{"android":"levelo://app?vid=b7675672-ea91-4212-a3c2-1e75ea117425","ios":"levelo://app?vid=b7675672-ea91-4212-a3c2-1e75ea117425"},"vehicle_type_id":"4","last_reported":1739729468,"current_range_meters":0,"station_id":"ce4bhnh2rcd13ifvqgug","pricing_plan_id":"cebpf4jnsgd1na2vs0mg"},{"bike_id":"5a1e2f06-46a7-46c8-9816-066a2823428c","system_id":"levelo_inurba_marseille","lat":43.28916,"lon":5.38384,"is_reserved":false,"is_disabled":false,"rental_uris":{"android":"levelo://app?vid=5a1e2f06-46a7-46c8-9816-066a2823428c","ios":"levelo://app?vid=5a1e2f06-46a7-46c8-9816-066a2823428c"},"vehicle_type_id":"4","last_reported":1739729468,"current_range_meters":39200,"station_id":"ce4bh612rcd13ifvqe6g","pricing_plan_id":"cebpf4jnsgd1na2vs0mg"},{"bike_id":"91e27922-e676-45ea-94da-baf83d9c520d","system_id":"levelo_inurba_marseille","lat":43.28035,"lon":5.36914,"is_reserved":false,"is_disabled":true,"rental_uris":{"android":"levelo://app?vid=91e27922-e676-45ea-94da-baf83d9c520d","ios":"levelo://app?vid=91e27922-e676-45ea-94da-baf83d9c520d"},"vehicle_type_id":"4","last_reported":1739729468,"current_range_meters":33200,"station_id":"ce4bha12rcd13ifvqef0","pricing_plan_id":"cebpf4jnsgd1na2vs0mg"},{"bike_id":"defac2de-7fad-4cd4-b525-12ab6aa19c9d","system_id":"levelo_inurba_marseille","lat":43.28938,"lon":5.39636,"is_reserved":false,"is_disabled":false,"rental_uris":{"android":"levelo://app?vid=defac2de-7fad-4cd4-b525-12ab6aa19c9d","ios":"levelo://app?vid=defac2de-7fad-4cd4-b525-12ab6aa19c9d"},"vehicle_type_id":"4","last_reported":1739729468,"current_range_meters":25600,"station_id":"ce4bh3h2rcd13ifvqdn0","pricing_plan_id":"cebpf4jnsgd1na2vs0mg"},{"bike_id":"e4f088f9-e3e8-4f82-824b-eaedfe8505d4","system_id":"levelo_inurba_marseille","lat":43.26884,"lon":5.40382,"is_reserved":false,"is_disabled":true,"rental_uris":{"android":"levelo://app?vid=e4f088f9-e3e8-4f82-824b-eaedfe8505d4","ios":"levelo://app?vid=e4f088f9-e3e8-4f82-824b-eaedfe8505d4"},"vehicle_type_id":"4","last_reported":1739729468,"current_range_meters":28800,"station_id":"","pricing_plan_id":"cebpf4jnsgd1na2vs0mg"},{"bike_id":"25c06d87-f05a-433f-ad42-460938cc694b","system_id":"levelo_inurba_marseille","lat":43.28342,"lon":5.38108,"is_reserved":false,"is_disabled":true,"rental_uris":{"android":"levelo://app?vid=25c06d87-f05a-433f-ad42-460938cc694b","ios":"levelo://app?vid=25c06d87-f05a-433f-ad42-460938cc694b"},"vehicle_type_id":"4","last_reported":1739729468,"current_range_meters":400,"station_id":"ce4bh412rcd13ifvqdr0","pricing_plan_id":"cebpf4jnsgd1na2vs0mg"},{"bike_id":"9bcc3779-160f-4f11-a908-15bc41b1ac43","system_id":"levelo_inurba_marseille","lat":43.27987,"lon":5.40006,"is_reserved":false,"is_disabled":true,"rental_uris":{"android":"levelo://app?vid=9bcc3779-160f-4f11-a908-15bc41b1ac43","ios":"levelo://app?vid=9bcc3779-160f-4f11-a908-15bc41b1ac43"},"vehicle_type_id":"4","last_reported":1739729468,"current_range_meters":2000,"station_id":"ce4bho92rcd13ifvqh4g","pricing_plan_id":"cebpf4jnsgd1na2vs0mg"},{"bike_id":"3c64c24f-16f7-46ec-b068-15fe4ebda356","system_id":"levelo_inurba_marseille","lat":43.29493,"lon":5.36395,"is_reserved":false,"is_disabled":true,"rental_uris":{"android":"levelo://app?vid=3c64c24f-16f7-46ec-b068-15fe4ebda356","ios":"levelo://app?vid=3c64c24f-16f7-46ec-b068-15fe4ebda356"},"vehicle_type_id":"4","last_reported":1739729468,"current_range_meters":16400,"station_id":"","pricing_plan_id":"cebpf4jnsgd1na2vs0mg"},{"bike_id":"a404f886-9bad-4229-97a7-cf1714a36d2b","system_id":"levelo_inurba_marseille","lat":43.29419,"lon":5.39749,"is_reserved":false,"is_disabled":false,"rental_uris":{"android":"levelo://app?vid=a404f886-9bad-4229-97a7-cf1714a36d2b","ios":"levelo://app?vid=a404f886-9bad-4229-97a7-cf1714a36d2b"},"vehicle_type_id":"4","last_reported":1739729468,"current_range_meters":26800,"station_id":"ce4bh3h2rcd13ifvqdo0","pricing_plan_id":"cebpf4jnsgd1na2vs0mg"},{"bike_id":"953656e2-d7ea-4fff-8a74-23d2bfd52f55","system_id":"levelo_inurba_marseille","lat":43.28485,"lon":5.38423,"is_reserved":false,"is_disabled":false,"rental_uris":{"android":"levelo://app?vid=953656e2-d7ea-4fff-8a74-23d2bfd52f55","ios":"levelo://app?vid=953656e2-d7ea-4fff-8a74-23d2bfd52f55"},"vehicle_type_id":"4","last_reported":1739729468,"current_range_meters":38400,"station_id":"ce4bh512rcd13ifvqe3g","pricing_plan_id":"cebpf4jnsgd1na2vs0mg"},{"bike_id":"0a8131f0-8aa1-442f-a102-dd6461b5c6ed","system_id":"levelo_inurba_marseille","lat":43.24151,"lon":5.39736,"is_reserved":false,"is_disabled":true,"rental_uris":{"android":"levelo://app?vid=0a8131f0-8aa1-442f-a102-dd6461b5c6ed","ios":"levelo://app?vid=0a8131f0-8aa1-442f-a102-dd6461b5c6ed"},"vehicle_type_id":"4","last_reported":1739729468,"current_range_meters":800,"station_id":"ce4bhn12rcd13ifvqgpg","pricing_plan_id":"cebpf4jnsgd1na2vs0mg"},{"bike_id":"73bce4e6-9a0e-44ff-baeb-9bf51c390137","system_id":"levelo_inurba_marseille","lat":43.27303,"lon":5.39046,"is_reserved":false,"is_disabled":true,"rental_uris":{"android":"levelo://app?vid=73bce4e6-9a0e-44ff-baeb-9bf51c390137","ios":"levelo://app?vid=73bce4e6-9a0e-44ff-baeb-9bf51c390137"},"vehicle_type_id":"4","last_reported":1739729468,"current_range_meters":8000,"station_id":"ce4bhgp2rcd13ifvqfe0","pricing_plan_id":"cebpf4jnsgd1na2vs0mg"},{"bike_id":"453b5d03-74b1-4b80-b3f1-f8af80ba4690","system_id":"levelo_inurba_marseille","lat":43.24164,"lon":5.36393,"is_reserved":false,"is_disabled":false,"rental_uris":{"android":"levelo://app?vid=453b5d03-74b1-4b80-b3f1-f8af80ba4690","ios":"levelo://app?vid=453b5d03-74b1-4b80-b3f1-f8af80ba4690"},"vehicle_type_id":"4","last_reported":1739729468,"current_range_meters":12400,"station_id":"cpo36qri1sfpv3e86is0","pricing_plan_id":"cebpf4jnsgd1na2vs0mg"},{"bike_id":"a05779ff-184a-482c-bc5f-c499d4def9da","system_id":"levelo_inurba_marseille","lat":43.29533,"lon":5.38541,"is_reserved":false,"is_disabled":false,"rental_uris":{"android":"levelo://app?vid=a05779ff-184a-482c-bc5f-c499d4def9da","ios":"levelo://app?vid=a05779ff-184a-482c-bc5f-c499d4def9da"},"vehicle_type_id":"4","last_reported":1739729468,"current_range_meters":29600,"station_id":"ce4bgih2rcd13ifvqba0","pricing_plan_id":"cebpf4jnsgd1na2vs0mg"},{"bike_id":"2dea0667-1db6-4775-857f-894e60e0a4c7","system_id":"levelo_inurba_marseille","lat":43.30413,"lon":5.39742,"is_reserved":false,"is_disabled":true,"rental_uris":{"android":"levelo://app?vid=2dea0667-1db6-4775-857f-894e60e0a4c7","ios":"levelo://app?vid=2dea0667-1db6-4775-857f-894e60e0a4c7"},"vehicle_type_id":"4","last_reported":1739729468,"current_range_meters":27200,"station_id":"ce4bh092rcd13ifvqd20","pricing_plan_id":"cebpf4jnsgd1na2vs0mg"},{"bike_id":"ff2cbd59-5738-4b72-a212-196bf1e91733","system_id":"levelo_inurba_marseille","lat":43.27994,"lon":5.44138,"is_reserved":false,"is_disabled":false,"rental_uris":{"android":"levelo://app?vid=ff2cbd59-5738-4b72-a212-196bf1e91733","ios":"levelo://app?vid=ff2cbd59-5738-4b72-a212-196bf1e91733"},"vehicle_type_id":"4","last_reported":1739729468,"current_range_meters":14400,"station_id":"","pricing_plan_id":"cebpf4jnsgd1na2vs0mg"},{"bike_id":"2b0d6e74-7f87-42ce-84ac-ac519ebb9d15","system_id":"levelo_inurba_marseille","lat":43.29981,"lon":5.38489,"is_reserved":false,"is_disabled":false,"rental_uris":{"android":"levelo://app?vid=2b0d6e74-7f87-42ce-84ac-ac519ebb9d15","ios":"levelo://app?vid=2b0d6e74-7f87-42ce-84ac-ac519ebb9d15"},"vehicle_type_id":"4","last_reported":1739729468,"current_range_meters":24400,"station_id":"ce4bgj92rcd13ifvqbd0","pricing_plan_id":"cebpf4jnsgd1na2vs0mg"},{"bike_id":"f079d50f-80a9-4659-8e36-349033789400","system_id":"levelo_inurba_marseille","lat":43.29802,"lon":5.380903,"is_reserved":false,"is_disabled":false,"rental_uris":{"android":"levelo://app?vid=f079d50f-80a9-4659-8e36-349033789400","ios":"levelo://app?vid=f079d50f-80a9-4659-8e36-349033789400"},"vehicle_type_id":"4","last_reported":1739729468,"current_range_meters":37600,"station_id":"ce4bgip2rcd13ifvqbb0","pricing_plan_id":"cebpf4jnsgd1na2vs0mg"},{"bike_id":"7626ec52-a055-459b-be5f-90371c610139","system_id":"levelo_inurba_marseille","lat":43.29968,"lon":5.37178,"is_reserved":false,"is_disabled":false,"rental_uris":{"android":"levelo://app?vid=7626ec52-a055-459b-be5f-90371c610139","ios":"levelo://app?vid=7626ec52-a055-459b-be5f-90371c610139"},"vehicle_type_id":"4","last_reported":1739729468,"current_range_meters":21600,"station_id":"ce4bgr92rcd13ifvqc7g","pricing_plan_id":"cebpf4jnsgd1na2vs0mg"},{"bike_id":"ad4af932-f51b-41b8-983b-7e431dcc24a9","system_id":"levelo_inurba_marseille","lat":43.337444,"lon":5.374475,"is_reserved":false,"is_disabled":true,"rental_uris":{"android":"levelo://app?vid=ad4af932-f51b-41b8-983b-7e431dcc24a9","ios":"levelo://app?vid=ad4af932-f51b-41b8-983b-7e431dcc24a9"},"vehicle_type_id":"4","last_reported":1739729468,"current_range_meters":0,"station_id":"","pricing_plan_id":"cebpf4jnsgd1na2vs0mg"},{"bike_id":"95d42703-1a37-4cb4-8b06-69616f6b8e6d","system_id":"levelo_inurba_marseille","lat":43.27689,"lon":5.38911,"is_reserved":false,"is_disabled":true,"rental_uris":{"android":"levelo://app?vid=95d42703-1a37-4cb4-8b06-69616f6b8e6d","ios":"levelo://app?vid=95d42703-1a37-4cb4-8b06-69616f6b8e6d"},"vehicle_type_id":"4","last_reported":1739729468,"current_range_meters":31200,"station_id":"ce4bhi12rcd13ifvqfo0","pricing_plan_id":"cebpf4jnsgd1na2vs0mg"},{"bike_id":"81bec61a-1f2c-43a9-b162-eec1d41ccf13","system_id":"levelo_inurba_marseille","lat":43.28335,"lon":5.42997,"is_reserved":false,"is_disabled":false,"rental_uris":{"android":"levelo://app?vid=81bec61a-1f2c-43a9-b162-eec1d41ccf13","ios":"levelo://app?vid=81bec61a-1f2c-43a9-b162-eec1d41ccf13"},"vehicle_type_id":"4","last_reported":1739729468,"current_range_meters":16800,"station_id":"","pricing_plan_id":"cebpf4jnsgd1na2vs0mg"},{"bike_id":"dfb8b4bf-66b7-4f69-91ef-2703e7099d0d","system_id":"levelo_inurba_marseille","lat":43.26785,"lon":5.39426,"is_reserved":false,"is_disabled":true,"rental_uris":{"android":"levelo://app?vid=dfb8b4bf-66b7-4f69-91ef-2703e7099d0d","ios":"levelo://app?vid=dfb8b4bf-66b7-4f69-91ef-2703e7099d0d"},"vehicle_type_id":"4","last_reported":1739729468,"current_range_meters":0,"station_id":"ce4bhh12rcd13ifvqfg0","pricing_plan_id":"cebpf4jnsgd1na2vs0mg"},{"bike_id":"c418ff86-de07-49ef-a3b3-55181578987c","system_id":"levelo_inurba_marseille","lat":43.26196,"lon":5.37922,"is_reserved":false,"is_disabled":false,"rental_uris":{"android":"levelo://app?vid=c418ff86-de07-49ef-a3b3-55181578987c","ios":"levelo://app?vid=c418ff86-de07-49ef-a3b3-55181578987c"},"vehicle_type_id":"4","last_reported":1739729468,"current_range_meters":15200,"station_id":"ce4bhjp2rcd13ifvqg90","pricing_plan_id":"cebpf4jnsgd1na2vs0mg"},{"bike_id":"67e331d6-7e57-453c-99b0-7348ddb6fb19","system_id":"levelo_inurba_marseille","lat":43.29618,"lon":5.38095,"is_reserved":false,"is_disabled":false,"rental_uris":{"android":"levelo://app?vid=67e331d6-7e57-453c-99b0-7348ddb6fb19","ios":"levelo://app?vid=67e331d6-7e57-453c-99b0-7348ddb6fb19"},"vehicle_type_id":"4","last_reported":1739729468,"current_range_meters":25200,"station_id":"ce4bgl12rcd13ifvqbo0","pricing_plan_id":"cebpf4jnsgd1na2vs0mg"},{"bike_id":"e5d88acb-6b6e-4084-9c87-daf311c53977","system_id":"levelo_inurba_marseille","lat":43.30886,"lon":5.39655,"is_reserved":false,"is_disabled":false,"rental_uris":{"android":"levelo://app?vid=e5d88acb-6b6e-4084-9c87-daf311c53977","ios":"levelo://app?vid=e5d88acb-6b6e-4084-9c87-daf311c53977"},"vehicle_type_id":"4","last_reported":1739729468,"current_range_meters":14000,"station_id":"ce4bh012rcd13ifvqcv0","pricing_plan_id":"cebpf4jnsgd1na2vs0mg"},{"bike_id":"81ec488e-3038-4bdb-9b14-0cc70825f743","system_id":"levelo_inurba_marseille","lat":43.249969,"lon":5.389343,"is_reserved":false,"is_disabled":false,"rental_uris":{"android":"levelo://app?vid=81ec488e-3038-4bdb-9b14-0cc70825f743","ios":"levelo://app?vid=81ec488e-3038-4bdb-9b14-0cc70825f743"},"vehicle_type_id":"4","last_reported":1739729468,"current_range_meters":33600,"station_id":"","pricing_plan_id":"cebpf4jnsgd1na2vs0mg"},{"bike_id":"aeb403d4-9cef-44b2-b32c-cb912f49efa3","system_id":"levelo_inurba_marseille","lat":43.23202,"lon":5.35547,"is_reserved":false,"is_disabled":false,"rental_uris":{"android":"levelo://app?vid=aeb403d4-9cef-44b2-b32c-cb912f49efa3","ios":"levelo://app?vid=aeb403d4-9cef-44b2-b32c-cb912f49efa3"},"vehicle_type_id":"4","last_reported":1739729468,"current_range_meters":28400,"station_id":"ce4bhu92rcd13ifvqi70","pricing_plan_id":"cebpf4jnsgd1na2vs0mg"},{"bike_id":"f57307d6-5822-47dd-a705-bd009f420307","system_id":"levelo_inurba_marseille","lat":43.2743,"lon":5.39428,"is_reserved":false,"is_disabled":false,"rental_uris":{"android":"levelo://app?vid=f57307d6-5822-47dd-a705-bd009f420307","ios":"levelo://app?vid=f57307d6-5822-47dd-a705-bd009f420307"},"vehicle_type_id":"4","last_reported":1739729468,"current_range_meters":32000,"station_id":"ce4bhdp2rcd13ifvqf20","pricing_plan_id":"cebpf4jnsgd1na2vs0mg"},{"bike_id":"6e9279e1-a299-42cb-b26a-80dd0bd04fc9","system_id":"levelo_inurba_marseille","lat":43.31203,"lon":5.36765,"is_reserved":false,"is_disabled":false,"rental_uris":{"android":"levelo://app?vid=6e9279e1-a299-42cb-b26a-80dd0bd04fc9","ios":"levelo://app?vid=6e9279e1-a299-42cb-b26a-80dd0bd04fc9"},"vehicle_type_id":"4","last_reported":1739729468,"current_range_meters":16000,"station_id":"","pricing_plan_id":"cebpf4jnsgd1na2vs0mg"},{"bike_id":"51ad8f60-44b4-4b51-8860-a50504aad936","system_id":"levelo_inurba_marseille","lat":43.30541,"lon":5.36712,"is_reserved":false,"is_disabled":false,"rental_uris":{"android":"levelo://app?vid=51ad8f60-44b4-4b51-8860-a50504aad936","ios":"levelo://app?vid=51ad8f60-44b4-4b51-8860-a50504aad936"},"vehicle_type_id":"4","last_reported":1739729468,"current_range_meters":10000,"station_id":"ce4bgrp2rcd13ifvqc9g","pricing_plan_id":"cebpf4jnsgd1na2vs0mg"},{"bike_id":"79e513a7-e72f-499f-bfa1-5aa4a118bd38","system_id":"levelo_inurba_marseille","lat":43.29264,"lon":5.38444,"is_reserved":false,"is_disabled":false,"rental_uris":{"android":"levelo://app?vid=79e513a7-e72f-499f-bfa1-5aa4a118bd38","ios":"levelo://app?vid=79e513a7-e72f-499f-bfa1-5aa4a118bd38"},"vehicle_type_id":"4","last_reported":1739729468,"current_range_meters":32800,"station_id":"ce4bh692rcd13ifvqea0","pricing_plan_id":"cebpf4jnsgd1na2vs0mg"},{"bike_id":"7765337b-5c03-4ea0-be0e-f987da7b49d0","system_id":"levelo_inurba_marseille","lat":43.27612,"lon":5.3607,"is_reserved":false,"is_disabled":false,"rental_uris":{"android":"levelo://app?vid=7765337b-5c03-4ea0-be0e-f987da7b49d0","ios":"levelo://app?vid=7765337b-5c03-4ea0-be0e-f987da7b49d0"},"vehicle_type_id":"4","last_reported":1739729468,"current_range_meters":38800,"station_id":"ce4bgj92rcd13ifvqbe0","pricing_plan_id":"cebpf4jnsgd1na2vs0mg"},{"bike_id":"cf0c37b6-bef7-49a3-b137-60c7b09b0b40","system_id":"levelo_inurba_marseille","lat":43.28427,"lon":5.34999,"is_reserved":false,"is_disabled":false,"rental_uris":{"android":"levelo://app?vid=cf0c37b6-bef7-49a3-b137-60c7b09b0b40","ios":"levelo://app?vid=cf0c37b6-bef7-49a3-b137-60c7b09b0b40"},"vehicle_type_id":"4","last_reported":1739729468,"current_range_meters":32800,"station_id":"ce4bhbh2rcd13ifvqepg","pricing_plan_id":"cebpf4jnsgd1na2vs0mg"},{"bike_id":"bd922191-fc18-4a84-9939-c4b21712cfb8","system_id":"levelo_inurba_marseille","lat":43.29536,"lon":5.38542,"is_reserved":false,"is_disabled":true,"rental_uris":{"android":"levelo://app?vid=bd922191-fc18-4a84-9939-c4b21712cfb8","ios":"levelo://app?vid=bd922191-fc18-4a84-9939-c4b21712cfb8"},"vehicle_type_id":"4","last_reported":1739729468,"current_range_meters":1200,"station_id":"ce4bgih2rcd13ifvqba0","pricing_plan_id":"cebpf4jnsgd1na2vs0mg"},{"bike_id":"1cebccf2-1403-40a5-8c8c-f8c517cc46e4","system_id":"levelo_inurba_marseille","lat":43.2942,"lon":5.38625,"is_reserved":false,"is_disabled":false,"rental_uris":{"android":"levelo://app?vid=1cebccf2-1403-40a5-8c8c-f8c517cc46e4","ios":"levelo://app?vid=1cebccf2-1403-40a5-8c8c-f8c517cc46e4"},"vehicle_type_id":"4","last_reported":1739729468,"current_range_meters":17600,"station_id":"ce4bh2h2rcd13ifvqdh0","pricing_plan_id":"cebpf4jnsgd1na2vs0mg"},{"bike_id":"2e1ea3ec-5284-4631-8449-fb3cd1434ac5","system_id":"levelo_inurba_marseille","lat":43.231542,"lon":5.436945,"is_reserved":false,"is_disabled":true,"rental_uris":{"android":"levelo://app?vid=2e1ea3ec-5284-4631-8449-fb3cd1434ac5","ios":"levelo://app?vid=2e1ea3ec-5284-4631-8449-fb3cd1434ac5"},"vehicle_type_id":"4","last_reported":1739729468,"current_range_meters":0,"station_id":"ce4bhmp2rcd13ifvqgog","pricing_plan_id":"cebpf4jnsgd1na2vs0mg"},{"bike_id":"10423a32-8242-496a-aeaf-85742f90fc71","system_id":"levelo_inurba_marseille","lat":43.30933,"lon":5.40175,"is_reserved":false,"is_disabled":false,"rental_uris":{"android":"levelo://app?vid=10423a32-8242-496a-aeaf-85742f90fc71","ios":"levelo://app?vid=10423a32-8242-496a-aeaf-85742f90fc71"},"vehicle_type_id":"4","last_reported":1739729468,"current_range_meters":37600,"station_id":"ce4bgvp2rcd13ifvqct0","pricing_plan_id":"cebpf4jnsgd1na2vs0mg"},{"bike_id":"c0c44d00-6cff-4b52-b613-a720ae40ebbc","system_id":"levelo_inurba_marseille","lat":43.29789,"lon":5.38108,"is_reserved":false,"is_disabled":false,"rental_uris":{"android":"levelo://app?vid=c0c44d00-6cff-4b52-b613-a720ae40ebbc","ios":"levelo://app?vid=c0c44d00-6cff-4b52-b613-a720ae40ebbc"},"vehicle_type_id":"4","last_reported":1739729468,"current_range_meters":29600,"station_id":"ce4bgip2rcd13ifvqbb0","pricing_plan_id":"cebpf4jnsgd1na2vs0mg"},