{"last_updated":1761930605,"ttl":60,"version":"2.2","data":{"bikes":[{"bike_id":"7ed5812f-a73a-4b09-816b-4b9f1c3a83e9","system_id":"levelo_inurba_marseille","lat":43.2707,"lon":5.42284,"is_reserved":false,"is_disabled":false,"rental_uris":{"android":"levelo://app?vid=7ed5812f-a73a-4b09-816b-4b9f1c3a83e9","ios":"levelo://app?vid=7ed5812f-a73a-4b09-816b-4b9f1c3a83e9"},"vehicle_type_id":"4","last_reported":1761930605,"current_range_meters":2800,"station_id":"ce4bhk92rcd13ifvqgb0","pricing_plan_id":"cebpf4jnsgd1na2vs0mg"},{"bike_id":"fdd19c46-80ee-4cec-a7fe-cb2d926cac5c","system_id":"levelo_inurba_marseille","lat":43.29535,"lon":5.38552,"is_reserved":false,"is_disabled":false,"rental_uris":{"android":"levelo://app?vid=fdd19c46-80ee-4cec-a7fe-cb2d926cac5c","ios":"levelo://app?vid=fdd19c46-80ee-4cec-a7fe-cb2d926cac5c"},"vehicle_type_id":"4","last_reported":1761930605,"current_range_meters":2800,"station_id":"ce4bgih2rcd13ifvqba0","pricing_plan_id":"cebpf4jnsgd1na2vs0mg"},{"bike_id":"63115c0c-9ba8-4b22-a9e0-c03d6b851a04","system_id":"levelo_inurba_marseille","lat":43.31269,"lon":5.40166,"is_reserved":false,"is_disabled":false,"rental_uris":{"android":"levelo://app?vid=63115c0c-9ba8-4b22-a9e0-c03d6b851a04","ios":"levelo://app?vid=63115c0c-9ba8-4b22-a9e0-c03d6b851a04"},"vehicle_type_id":"4","last_reported":1761930605,"current_range_meters":2800,"station_id":"ce4bh092rcd13ifvqd30","pricing_plan_id":"cebpf4jnsgd1na2vs0mg"},{"bike_id":"0f65d847-3896-4e34-b4ac-08992331e122","system_id":"levelo_inurba_marseille","lat":43.3042,"lon":5.39745,"is_reserved":false,"is_disabled":false,"rental_uris":{"android":"levelo://app?vid=0f65d847-3896-4e34-b4ac-08992331e122","ios":"levelo://app?vid=0f65d847-3896-4e34-b4ac-08992331e122"},"vehicle_type_id":"4","last_reported":1761930605,"current_range_meters":2800,"station_id":"ce4bh092rcd13ifvqd20","pricing_plan_id":"cebpf4jnsgd1na2vs0mg"},{"bike_id":"09155159-fd47-4e1b-9d5e-4d62a4b63bc5","system_id":"levelo_inurba_marseille","lat":43.25334,"lon":5.42175,"is_reserved":false,"is_disabled":false,"rental_uris":{"android":"levelo://app?vid=09155159-fd47-4e1b-9d5e-4d62a4b63bc5","ios":"levelo://app?vid=09155159-fd47-4e1b-9d5e-4d62a4b63bc5"},"vehicle_type_id":"4","last_reported":1761930605,"current_range_meters":2800,"station_id":"","pricing_plan_id":"cebpf4jnsgd1na2vs0mg"},{"bike_id":"3017331a-02ef-4202-8047-8adba4e2156c","system_id":"levelo_inurba_marseille","lat":43.33723,"lon":5.39181,"is_reserved":false,"is_disabled":false,"rental_uris":{"android":"levelo://app?vid=3017331a-02ef-4202-8047-8adba4e2156c","ios":"levelo://app?vid=3017331a-02ef-4202-8047-8adba4e2156c"},"vehicle_type_id":"4","last_reported":1761930605,"current_range_meters":3200,"station_id":"ce4bhr92rcd13ifvqhsg","pricing_plan_id":"cebpf4jnsgd1na2vs0mg"},{"bike_id":"0fb00d34-fa21-4fc8-9b1a-e54f978b5cf3","system_id":"levelo_inurba_marseille","lat":43.29023,"lon":5.38637,"is_reserved":false,"is_disabled":false,"rental_uris":{"android":"levelo://app?vid=0fb00d34-fa21-4fc8-9b1a-e54f978b5cf3","ios":"levelo://app?vid=0fb00d34-fa21-4fc8-9b1a-e54f978b5cf3"},"vehicle_type_id":"4","last_reported":1761930605,"current_range_meters":3200,"station_id":"ce4bh4p2rcd13ifvqe0g","pricing_plan_id":"cebpf4jnsgd1na2vs0mg"},{"bike_id":"c90dc6cc-46be-4c16-8e72-705428ff54fe","system_id":"levelo_inurba_marseille","lat":43.307335,"lon":5.424507,"is_reserved":false,"is_disabled":false,"rental_uris":{"android":"levelo://app?vid=c90dc6cc-46be-4c16-8e72-705428ff54fe","ios":"levelo://app?vid=c90dc6cc-46be-4c16-8e72-705428ff54fe"},"vehicle_type_id":"4","last_reported":1761930605,"current_range_meters":3200,"station_id":"st_cvj6ca6bvosntc0bfgr0","pricing_plan_id":"cebpf4jnsgd1na2vs0mg"},{"bike_id":"80cde17b-197a-4666-8e1e-92c981f7a2d9","system_id":"levelo_inurba_marseille","lat":43.29564,"lon":5.42297,"is_reserved":false,"is_disabled":false,"rental_uris":{"android":"levelo://app?vid=80cde17b-197a-4666-8e1e-92c981f7a2d9","ios":"levelo://app?vid=80cde17b-197a-4666-8e1e-92c981f7a2d9"},"vehicle_type_id":"4","last_reported":1761930605,"current_range_meters":3600,"station_id":"ce4bhph2rcd13ifvqhdg","pricing_plan_id":"cebpf4jnsgd1na2vs0mg"},{"bike_id":"feb16a02-1071-47d4-a6ab-6f827ed03eb7","system_id":"levelo_inurba_marseille","lat":43.30547,"lon":5.36561,"is_reserved":false,"is_disabled":false,"rental_uris":{"android":"levelo://app?vid=feb16a02-1071-47d4-a6ab-6f827ed03eb7","ios":"levelo://app?vid=feb16a02-1071-47d4-a6ab-6f827ed03eb7"},"vehicle_type_id":"4","last_reported":1761930605,"current_range_meters":3600,"station_id":"ce4bgs12rcd13ifvqcag","pricing_plan_id":"cebpf4jnsgd1na2vs0mg"},{"bike_id":"e15aa430-1cf5-4ff8-9832-756dcd186a5c","system_id":"levelo_inurba_marseille","lat":43.296258,"lon":5.37719,"is_reserved":false,"is_disabled":false,"rental_uris":{"android":"levelo://app?vid=e15aa430-1cf5-4ff8-9832-756dcd186a5c","ios":"levelo://app?vid=e15aa430-1cf5-4ff8-9832-756dcd186a5c"},"vehicle_type_id":"4","last_reported":1761930605,"current_range_meters":3600,"station_id":"","pricing_plan_id":"cebpf4jnsgd1na2vs0mg"},{"bike_id":"d88e465c-4138-4ce4-a13f-0617e7354e03","system_id":"levelo_inurba_marseille","lat":43.30903,"lon":5.40141,"is_reserved":false,"is_disabled":false,"rental_uris":{"android":"levelo://app?vid=d88e465c-4138-4ce4-a13f-0617e7354e03","ios":"levelo://app?vid=d88e465c-4138-4ce4-a13f-0617e7354e03"},"vehicle_type_id":"4","last_reported":1761930605,"current_range_meters":4000,"station_id":"ce4bgvp2rcd13ifvqct0","pricing_plan_id":"cebpf4jnsgd1na2vs0mg"},{"bike_id":"de47016b-0c24-4fae-9417-8355b23e29ff","system_id":"levelo_inurba_marseille","lat":43.26192,"lon":5.37445,"is_reserved":false,"is_disabled":false,"rental_uris":{"android":"levelo://app?vid=de47016b-0c24-4fae-9417-8355b23e29ff","ios":"levelo://app?vid=de47016b-0c24-4fae-9417-8355b23e29ff"},"vehicle_type_id":"4","last_reported":1761930605,"current_range_meters":4000,"station_id":"ce4bhgp2rcd13ifvqfc0","pricing_plan_id":"cebpf4jnsgd1na2vs0mg"},{"bike_id":"22767027-dcb6-49c4-8b0f-e71be4fb2bce","system_id":"levelo_inurba_marseille","lat":43.25585,"lon":5.38228,"is_reserved":false,"is_disabled":false,"rental_uris":{"android":"levelo://app?vid=22767027-dcb6-49c4-8b0f-e71be4fb2bce","ios":"levelo://app?vid=22767027-dcb6-49c4-8b0f-e71be4fb2bce"},"vehicle_type_id":"4","last_reported":1761930605,"current_range_meters":4000,"station_id":"ce4bhih2rcd13ifvqfs0","pricing_plan_id":"cebpf4jnsgd1na2vs0mg"},{"bike_id":"eb001385-3d5e-4f1d-b525-04cbadbdba7d","system_id":"levelo_inurba_marseille","lat":43.29191,"lon":5.35814,"is_reserved":false,"is_disabled":false,"rental_uris":{"android":"levelo://app?vid=eb001385-3d5e-4f1d-b525-04cbadbdba7d","ios":"levelo://app?vid=eb001385-3d5e-4f1d-b525-04cbadbdba7d"},"vehicle_type_id":"4","last_reported":1761930605,"current_range_meters":4400,"station_id":"ce4bhb12rcd13ifvqel0","pricing_plan_id":"cebpf4jnsgd1na2vs0mg"},{"bike_id":"2994d018-154d-4226-8150-a281dd0eb3c5","system_id":"levelo_inurba_marseille","lat":43.31266,"lon":5.40172,"is_reserved":false,"is_disabled":false,"rental_uris":{"android":"levelo://app?vid=2994d018-154d-4226-8150-a281dd0eb3c5","ios":"levelo://app?vid=2994d018-154d-4226-8150-a281dd0eb3c5"},"vehicle_type_id":"4","last_reported":1761930605,"current_range_meters":4400,"station_id":"ce4bh092rcd13ifvqd30","pricing_plan_id":"cebpf4jnsgd1na2vs0mg"},{"bike_id":"f9b98ca3-1dbb-4b65-8e3e-429a3502cc22","system_id":"levelo_inurba_marseille","lat":43.30576,"lon":5.36552,"is_reserved":false,"is_disabled":false,"rental_uris":{"android":"levelo://app?vid=f9b98ca3-1dbb-4b65-8e3e-429a3502cc22","ios":"levelo://app?vid=f9b98ca3-1dbb-4b65-8e3e-429a3502cc22"},"vehicle_type_id":"4","last_reported":1761930605,"current_range_meters":4400,"station_id":"ce4bgs12rcd13ifvqcag","pricing_plan_id":"cebpf4jnsgd1na2vs0mg"},{"bike_id":"38f29bff-0981-4414-b59f-74788207aefc","system_id":"levelo_inurba_marseille","lat":43.29533,"lon":5.39401,"is_reserved":false,"is_disabled":false,"rental_uris":{"android":"levelo://app?vid=38f29bff-0981-4414-b59f-74788207aefc","ios":"levelo://app?vid=38f29bff-0981-4414-b59f-74788207aefc"},"vehicle_type_id":"4","last_reported":1761930605,"current_range_meters":4800,"station_id":"ce4bh292rcd13ifvqdf0","pricing_plan_id":"cebpf4jnsgd1na2vs0mg"},{"bike_id":"8ac9ef22-8ea0-49d6-8f64-0793384fbd9b","system_id":"levelo_inurba_marseille","lat":43.270466,"lon":5.402623,"is_reserved":false,"is_disabled":false,"rental_uris":{"android":"levelo://app?vid=8ac9ef22-8ea0-49d6-8f64-0793384fbd9b","ios":"levelo://app?vid=8ac9ef22-8ea0-49d6-8f64-0793384fbd9b"},"vehicle_type_id":"4","last_reported":1761930605,"current_range_meters":4800,"station_id":"ce4bhk92rcd13ifvqgc0","pricing_plan_id":"cebpf4jnsgd1na2vs0mg"},{"bike_id":"9cbe9914-3508-47f9-b224-301da5a35380","system_id":"levelo_inurba_marseille","lat":43.29708,"lon":5.37693,"is_reserved":false,"is_disabled":false,"rental_uris":{"android":"levelo://app?vid=9cbe9914-3508-47f9-b224-301da5a35380","ios":"levelo://app?vid=9cbe9914-3508-47f9-b224-301da5a35380"},"vehicle_type_id":"4","last_reported":1761930605,"current_range_meters":4800,"station_id":"ce4bgkh2rcd13ifvqbl0","pricing_plan_id":"cebpf4jnsgd1na2vs0mg"},{"bike_id":"83c3c30e-7d23-412d-9983-3da83d40d784","system_id":"levelo_inurba_marseille","lat":43.24166,"lon":5.36396,"is_reserved":false,"is_disabled":false,"rental_uris":{"android":"levelo://app?vid=83c3c30e-7d23-412d-9983-3da83d40d784","ios":"levelo://app?vid=83c3c30e-7d23-412d-9983-3da83d40d784"},"vehicle_type_id":"4","last_reported":1761930605,"current_range_meters":5600,"station_id":"cpo36qri1sfpv3e86is0","pricing_plan_id":"cebpf4jnsgd1na2vs0mg"},{"bike_id":"7d63b0fa-51d4-4448-a96b-51526bf8da24","system_id":"levelo_inurba_marseille","lat":43.2668,"lon":5.38272,"is_reserved":false,"is_disabled":false,"rental_uris":{"android":"levelo://app?vid=7d63b0fa-51d4-4448-a96b-51526bf8da24","ios":"levelo://app?vid=7d63b0fa-51d4-4448-a96b-51526bf8da24"},"vehicle_type_id":"4","last_reported":1761930605,"current_range_meters":5600,"station_id":"ce4bhg92rcd13ifvqf90","pricing_plan_id":"cebpf4jnsgd1na2vs0mg"},{"bike_id":"0510d1c2-13f9-4772-b376-54f21e86bbce","system_id":"levelo_inurba_marseille","lat":43.28357,"lon":5.38108,"is_reserved":false,"is_disabled":false,"rental_uris":{"android":"levelo://app?vid=0510d1c2-13f9-4772-b376-54f21e86bbce","ios":"levelo://app?vid=0510d1c2-13f9-4772-b376-54f21e86bbce"},"vehicle_type_id":"4","last_reported":1761930605,"current_range_meters":5600,"station_id":"ce4bh412rcd13ifvqdr0","pricing_plan_id":"cebpf4jnsgd1na2vs0mg"},{"bike_id":"2829c7de-14aa-4891-bee5-904e78845d87","system_id":"levelo_inurba_marseille","lat":43.312542,"lon":5.401617,"is_reserved":false,"is_disabled":false,"rental_uris":{"android":"levelo://app?vid=2829c7de-14aa-4891-bee5-904e78845d87","ios":"levelo://app?vid=2829c7de-14aa-4891-bee5-904e78845d87"},"vehicle_type_id":"4","last_reported":1761930605,"current_range_meters":5600,"station_id":"ce4bh092rcd13ifvqd30","pricing_plan_id":"cebpf4jnsgd1na2vs0mg"},{"bike_id":"137b5ebd-6460-4010-aeb9-d0fbe524a030","system_id":"levelo_inurba_marseille","lat":43.3091,"lon":5.37181,"is_reserved":false,"is_disabled":false,"rental_uris":{"android":"levelo://app?vid=137b5ebd-6460-4010-aeb9-d0fbe524a030","ios":"levelo://app?vid=137b5ebd-6460-4010-aeb9-d0fbe524a030"},"vehicle_type_id":"4","last_reported":1761930605,"current_range_meters":6000,"station_id":"ce4bguh2rcd13ifvqckg","pricing_plan_id":"cebpf4jnsgd1na2vs0mg"},{"bike_id":"6013560d-7e3c-4315-9d57-9b638f855078","system_id":"levelo_inurba_marseille","lat":43.256905,"lon":5.410622,"is_reserved":false,"is_disabled":false,"rental_uris":{"android":"levelo://app?vid=6013560d-7e3c-4315-9d57-9b638f855078","ios":"levelo://app?vid=6013560d-7e3c-4315-9d57-9b638f855078"},"vehicle_type_id":"4","last_reported":1761930605,"current_range_meters":6000,"station_id":"ce4bhkp2rcd13ifvqgd0","pricing_plan_id":"cebpf4jnsgd1na2vs0mg"},{"bike_id":"d20c4d30-7835-4848-ad1c-4a6356b1e6a5","system_id":"levelo_inurba_marseille","lat":43.31328,"lon":5.39726,"is_reserved":false,"is_disabled":false,"rental_uris":{"android":"levelo://app?vid=d20c4d30-7835-4848-ad1c-4a6356b1e6a5","ios":"levelo://app?vid=d20c4d30-7835-4848-ad1c-4a6356b1e6a5"},"vehicle_type_id":"4","last_reported":1761930605,"current_range_meters":6000,"station_id":"ce4bgvp2rcd13ifvqcu0","pricing_plan_id":"cebpf4jnsgd1na2vs0mg"},{"bike_id":"1bdb0524-fd2f-434a-9e83-4b7a1a09b5bb","system_id":"levelo_inurba_marseille","lat":43.33388,"lon":5.41127,"is_reserved":false,"is_disabled":false,"rental_uris":{"android":"levelo://app?vid=1bdb0524-fd2f-434a-9e83-4b7a1a09b5bb","ios":"levelo://app?vid=1bdb0524-fd2f-434a-9e83-4b7a1a09b5bb"},"vehicle_type_id":"4","last_reported":1761930605,"current_range_meters":6000,"station_id":"","pricing_plan_id":"cebpf4jnsgd1na2vs0mg"},{"bike_id":"7429e722-0140-4583-bd6d-6fc4e8aad56b","system_id":"levelo_inurba_marseille","lat":43.30541,"lon":5.37065,"is_reserved":false,"is_disabled":false,"rental_uris":{"android":"levelo://app?vid=7429e722-0140-4583-bd6d-6fc4e8aad56b","ios":"levelo://app?vid=7429e722-0140-4583-bd6d-6fc4e8aad56b"},"vehicle_type_id":"4","last_reported":1761930605,"current_range_meters":6000,"station_id":"","pricing_plan_id":"cebpf4jnsgd1na2vs0mg"},{"bike_id":"b596a0dd-e2c6-4ff9-be5a-5df37900b74a","system_id":"levelo_inurba_marseille","lat":43.28851,"lon":5.35869,"is_reserved":false,"is_disabled":false,"rental_uris":{"android":"levelo://app?vid=b596a0dd-e2c6-4ff9-be5a-5df37900b74a","ios":"levelo://app?vid=b596a0dd-e2c6-4ff9-be5a-5df37900b74a"},"vehicle_type_id":"4","last_reported":1761930605,"current_range_meters":6000,"station_id":"ce4bhb12rcd13ifvqem0","pricing_plan_id":"cebpf4jnsgd1na2vs0mg"},{"bike_id":"0181abcb-06db-4986-9ddd-609f8594ba25","system_id":"levelo_inurba_marseille","lat":43.29535,"lon":5.3902,"is_reserved":false,"is_disabled":false,"rental_uris":{"android":"levelo://app?vid=0181abcb-06db-4986-9ddd-609f8594ba25","ios":"levelo://app?vid=0181abcb-06db-4986-9ddd-609f8594ba25"},"vehicle_type_id":"4","last_reported":1761930605,"current_range_meters":6400,"station_id":"","pricing_plan_id":"cebpf4jnsgd1na2vs0mg"},{"bike_id":"a7b9ca80-ec54-4c86-a36c-11665a71fb9b","system_id":"levelo_inurba_marseille","lat":43.27814,"lon":5.40699,"is_reserved":false,"is_disabled":false,"rental_uris":{"android":"levelo://app?vid=a7b9ca80-ec54-4c86-a36c-11665a71fb9b","ios":"levelo://app?vid=a7b9ca80-ec54-4c86-a36c-11665a71fb9b"},"vehicle_type_id":"4","last_reported":1761930605,"current_range_meters":6400,"station_id":"ce4bhnh2rcd13ifvqgtg","pricing_plan_id":"cebpf4jnsgd1na2vs0mg"},{"bike_id":"0b98afdf-bcbb-4a6f-9fbd-160c710552b5","system_id":"levelo_inurba_marseille","lat":43.26211,"lon":5.37429,"is_reserved":false,"is_disabled":false,"rental_uris":{"android":"levelo://app?vid=0b98afdf-bcbb-4a6f-9fbd-160c710552b5","ios":"levelo://app?vid=0b98afdf-bcbb-4a6f-9fbd-160c710552b5"},"vehicle_type_id":"4","last_reported":1761930605,"current_range_meters":6400,"station_id":"ce4bhgp2rcd13ifvqfc0","pricing_plan_id":"cebpf4jnsgd1na2vs0mg"},{"bike_id":"b720c1ba-d3ab-41fa-818e-6051c3c3253b","system_id":"levelo_inurba_marseille","lat":43.286635,"lon":5.386639,"is_reserved":false,"is_disabled":false,"rental_uris":{"android":"levelo://app?vid=b720c1ba-d3ab-41fa-818e-6051c3c3253b","ios":"levelo://app?vid=b720c1ba-d3ab-41fa-818e-6051c3c3253b"},"vehicle_type_id":"4","last_reported":1761930605,"current_range_meters":6400,"station_id":"ce4bh492rcd13ifvqdug","pricing_plan_id":"cebpf4jnsgd1na2vs0mg"},{"bike_id":"557750aa-912f-4136-b013-12b329ffb61e","system_id":"levelo_inurba_marseille","lat":43.290725,"lon":5.37163,"is_reserved":false,"is_disabled":true,"rental_uris":{"android":"levelo://app?vid=557750aa-912f-4136-b013-12b329ffb61e","ios":"levelo://app?vid=557750aa-912f-4136-b013-12b329ffb61e"},"vehicle_type_id":"4","last_reported":1761930605,"current_range_meters":6400,"station_id":"ce4bh5p2rcd13ifvqe4g","pricing_plan_id":"cebpf4jnsgd1na2vs0mg"},{"bike_id":"4ea5c8d3-596b-4c15-9f77-2d54d14bff42","system_id":"levelo_inurba_marseille","lat":43.29875,"lon":5.3844,"is_reserved":false,"is_disabled":false,"rental_uris":{"android":"levelo://app?vid=4ea5c8d3-596b-4c15-9f77-2d54d14bff42","ios":"levelo://app?vid=4ea5c8d3-596b-4c15-9f77-2d54d14bff42"},"vehicle_type_id":"4","last_reported":1761930605,"current_range_meters":6800,"station_id":"","pricing_plan_id":"cebpf4jnsgd1na2vs0mg"},{"bike_id":"6fff56e2-dc33-4322-9554-e738206d1bc0","system_id":"levelo_inurba_marseille","lat":43.2119,"lon":5.35068,"is_reserved":false,"is_disabled":false,"rental_uris":{"android":"levelo://app?vid=6fff56e2-dc33-4322-9554-e738206d1bc0","ios":"levelo://app?vid=6fff56e2-dc33-4322-9554-e738206d1bc0"},"vehicle_type_id":"4","last_reported":1761930605,"current_range_meters":6800,"station_id":"st_cvj6sg6p6f1abm77japg","pricing_plan_id":"cebpf4jnsgd1na2vs0mg"},{"bike_id":"ea3226a7-c81d-4e16-bba3-18de37b288b2","system_id":"levelo_inurba_marseille","lat":43.29261,"lon":5.38444,"is_reserved":false,"is_disabled":false,"rental_uris":{"android":"levelo://app?vid=ea3226a7-c81d-4e16-bba3-18de37b288b2","ios":"levelo://app?vid=ea3226a7-c81d-4e16-bba3-18de37b288b2"},"vehicle_type_id":"4","last_reported":1761930605,"current_range_meters":6800,"station_id":"ce4bh692rcd13ifvqea0","pricing_plan_id":"cebpf4jnsgd1na2vs0mg"},{"bike_id":"8f2eb767-8f55-4624-b267-ea3c5034fdcf","system_id":"levelo_inurba_marseille","lat":43.2119,"lon":5.35073,"is_reserved":false,"is_disabled":false,"rental_uris":{"android":"levelo://app?vid=8f2eb767-8f55-4624-b267-ea3c5034fdcf","ios":"levelo://app?vid=8f2eb767-8f55-4624-b267-ea3c5034fdcf"},"vehicle_type_id":"4","last_reported":1761930605,"current_range_meters":7200,"station_id":"st_cvj6sg6p6f1abm77japg","pricing_plan_id":"cebpf4jnsgd1na2vs0mg"},{"bike_id":"6bbb21a4-fbad-46e2-885e-f02db75ceb47","system_id":"levelo_inurba_marseille","lat":43.27579,"lon":5.38417,"is_reserved":false,"is_disabled":false,"rental_uris":{"android":"levelo://app?vid=6bbb21a4-fbad-46e2-885e-f02db75ceb47","ios":"levelo://app?vid=6bbb21a4-fbad-46e2-885e-f02db75ceb47"},"vehicle_type_id":"4","last_reported":1761930605,"current_range_meters":7200,"station_id":"ce4bhh92rcd13ifvqfi0","pricing_plan_id":"cebpf4jnsgd1na2vs0mg"},{"bike_id":"3dab03ab-b250-4b40-b286-0668266ab52e","system_id":"levelo_inurba_marseille","lat":43.2886,"lon":5.4252,"is_reserved":false,"is_disabled":false,"rental_uris":{"android":"levelo://app?vid=3dab03ab-b250-4b40-b286-0668266ab52e","ios":"levelo://app?vid=3dab03ab-b250-4b40-b286-0668266ab52e"},"vehicle_type_id":"4","last_reported":1761930605,"current_range_meters":7200,"station_id":"st_d3b462108ojc7389ooeg","pricing_plan_id":"cebpf4jnsgd1na2vs0mg"},{"bike_id":"690fb9d4-58f9-45c9-aa24-e250c3131ea7","system_id":"levelo_inurba_marseille","lat":43.30546,"lon":5.36724,"is_reserved":false,"is_disabled":false,"rental_uris":{"android":"levelo://app?vid=690fb9d4-58f9-45c9-aa24-e250c3131ea7","ios":"levelo://app?vid=690fb9d4-58f9-45c9-aa24-e250c3131ea7"},"vehicle_type_id":"4","last_reported":1761930605,"current_range_meters":7200,"station_id":"ce4bgrp2rcd13ifvqc9g","pricing_plan_id":"cebpf4jnsgd1na2vs0mg"},{"bike_id":"2378d811-4751-4c45-98a7-ad95d6ffcaf4","system_id":"levelo_inurba_marseille","lat":43.30307,"lon":5.39209,"is_reserved":false,"is_disabled":false,"rental_uris":{"android":"levelo://app?vid=2378d811-4751-4c45-98a7-ad95d6ffcaf4","ios":"levelo://app?vid=2378d811-4751-4c45-98a7-ad95d6ffcaf4"},"vehicle_type_id":"4","last_reported":1761930605,"current_range_meters":8000,"station_id":"ce4bgkh2rcd13ifvqbk0","pricing_plan_id":"cebpf4jnsgd1na2vs0mg"},{"bike_id":"f20da353-baac-4d69-952c-3481b4a6f5ef","system_id":"levelo_inurba_marseille","lat":43.26497,"lon":5.39538,"is_reserved":false,"is_disabled":false,"rental_uris":{"android":"levelo://app?vid=f20da353-baac-4d69-952c-3481b4a6f5ef","ios":"levelo://app?vid=f20da353-baac-4d69-952c-3481b4a6f5ef"},"vehicle_type_id":"4","last_reported":1761930605,"current_range_meters":8000,"station_id":"ce4bhi12rcd13ifvqfq0","pricing_plan_id":"cebpf4jnsgd1na2vs0mg"},{"bike_id":"2236ae6c-12cb-4c09-aea5-db90408d4379","system_id":"levelo_inurba_marseille","lat":43.2799,"lon":5.38734,"is_reserved":false,"is_disabled":false,"rental_uris":{"android":"levelo://app?vid=2236ae6c-12cb-4c09-aea5-db90408d4379","ios":"levelo://app?vid=2236ae6c-12cb-4c09-aea5-db90408d4379"},"vehicle_type_id":"4","last_reported":1761930605,"current_range_meters":8000,"station_id":"ce4bhg12rcd13ifvqf80","pricing_plan_id":"cebpf4jnsgd1na2vs0mg"},{"bike_id":"688e0991-23bb-4f67-a97d-b9bb7704a66a","system_id":"levelo_inurba_marseille","lat":43.29255,"lon":5.39101,"is_reserved":false,"is_disabled":false,"rental_uris":{"android":"levelo://app?vid=688e0991-23bb-4f67-a97d-b9bb7704a66a","ios":"levelo://app?vid=688e0991-23bb-4f67-a97d-b9bb7704a66a"},"vehicle_type_id":"4","last_reported":1761930605,"current_range_meters":8400,"station_id":"","pricing_plan_id":"cebpf4jnsgd1na2vs0mg"},{"bike_id":"fcab4ddf-7c9a-4832-a957-af763c1f4abb","system_id":"levelo_inurba_marseille","lat":43.30379,"lon":5.42487,"is_reserved":false,"is_disabled":true,"rental_uris":{"android":"levelo://app?vid=fcab4ddf-7c9a-4832-a957-af763c1f4abb","ios":"levelo://app?vid=fcab4ddf-7c9a-4832-a957-af763c1f4abb"},"vehicle_type_id":"4","last_reported":1761930605,"current_range_meters":8400,"station_id":"ce4bhoh2rcd13ifvqh6g","pricing_plan_id":"cebpf4jnsgd1na2vs0mg"},{"bike_id":"e03d2d6a-f625-4013-abbd-98084ef56ae7","system_id":"levelo_inurba_marseille","lat":43.30732,"lon":5.42449,"is_reserved":false,"is_disabled":false,"rental_uris":{"android":"levelo://app?vid=e03d2d6a-f625-4013-abbd-98084ef56ae7","ios":"levelo://app?vid=e03d2d6a-f625-4013-abbd-98084ef56ae7"},"vehicle_type_id":"4","last_reported":1761930605,"current_range_meters":8400,"station_id":"st_cvj6ca6bvosntc0bfgr0","pricing_plan_id":"cebpf4jnsgd1na2vs0mg"},{"bike_id":"3c288d13-b6e7-436f-851a-67ca2f4274ef","system_id":"levelo_inurba_marseille","lat":43.29069,"lon":5.3717,"is_reserved":false,"is_disabled":false,"rental_uris":{"android":"levelo://app?vid=3c288d13-b6e7-436f-851a-67ca2f4274ef","ios":"levelo://app?vid=3c288d13-b6e7-436f-851a-67ca2f4274ef"},"vehicle_type_id":"4","last_reported":1761930605,"current_range_meters":8800,"station_id":"ce4bh5p2rcd13ifvqe4g","pricing_plan_id":"cebpf4jnsgd1na2vs0mg"},{"bike_id":"68f1a519-4d05-4498-a43b-cae9a0f09b0c","system_id":"levelo_inurba_marseille","lat":43.29538,"lon":5.39401,"is_reserved":false,"is_disabled":false,"rental_uris":{"android":"levelo://app?vid=68f1a519-4d05-4498-a43b-cae9a0f09b0c","ios":"levelo://app?vid=68f1a519-4d05-4498-a43b-cae9a0f09b0c"},"vehicle_type_id":"4","last_reported":1761930605,"current_range_meters":8800,"station_id":"ce4bh292rcd13ifvqdf0","pricing_plan_id":"cebpf4jnsgd1na2vs0mg"},{"bike_id":"9f8d350e-3116-42ed-a432-d650d47d5608","system_id":"levelo_inurba_marseille","lat":43.28863,"lon":5.4252,"is_reserved":false,"is_disabled":false,"rental_uris":{"android":"levelo://app?vid=9f8d350e-3116-42ed-a432-d650d47d5608","ios":"levelo://app?vid=9f8d350e-3116-42ed-a432-d650d47d5608"},"vehicle_type_id":"4","last_reported":1761930605,"current_range_meters":8800,"station_id":"st_d3b462108ojc7389ooeg","pricing_plan_id":"cebpf4jnsgd1na2vs0mg"},{"bike_id":"dbbf01d5-146c-4703-b0d4-a6fb876476cb","system_id":"levelo_inurba_marseille","lat":43.21187,"lon":5.35067,"is_reserved":false,"is_disabled":false,"rental_uris":{"android":"levelo://app?vid=dbbf01d5-146c-4703-b0d4-a6fb876476cb","ios":"levelo://app?vid=dbbf01d5-146c-4703-b0d4-a6fb876476cb"},"vehicle_type_id":"4","last_reported":1761930605,"current_range_meters":8800,"station_id":"st_cvj6sg6p6f1abm77japg","pricing_plan_id":"cebpf4jnsgd1na2vs0mg"},{"bike_id":"3c488c36-4b60-48e8-989f-ce8a683c7464","system_id":"levelo_inurba_marseille","lat":43.31997,"lon":5.38154,"is_reserved":false,"is_disabled":false,"rental_uris":{"android":"levelo://app?vid=3c488c36-4b60-48e8-989f-ce8a683c7464","ios":"levelo://app?vid=3c488c36-4b60-48e8-989f-ce8a683c7464"},"vehicle_type_id":"4","last_reported":1761930605,"current_range_meters":8800,"station_id":"ce4bhr12rcd13ifvqhpg","pricing_plan_id":"cebpf4jnsgd1na2vs0mg"},{"bike_id":"38c51db8-cd76-454c-b49e-40b7661963f0","system_id":"levelo_inurba_marseille","lat":43.305542,"lon":5.365437,"is_reserved":false,"is_disabled":false,"rental_uris":{"android":"levelo://app?vid=38c51db8-cd76-454c-b49e-40b7661963f0","ios":"levelo://app?vid=38c51db8-cd76-454c-b49e-40b7661963f0"},"vehicle_type_id":"4","last_reported":1761930605,"current_range_meters":8800,"station_id":"ce4bgs12rcd13ifvqcag","pricing_plan_id":"cebpf4jnsgd1na2vs0mg"},{"bike_id":"9c0ce726-b2d1-4fd8-a01c-ce6ae5395f47","system_id":"levelo_inurba_marseille","lat":43.30521,"lon":5.3669,"is_reserved":false,"is_disabled":false,"rental_uris":{"android":"levelo://app?vid=9c0ce726-b2d1-4fd8-a01c-ce6ae5395f47","ios":"levelo://app?vid=9c0ce726-b2d1-4fd8-a01c-ce6ae5395f47"},"vehicle_type_id":"4","last_reported":1761930605,"current_range_meters":8800,"station_id":"ce4bgrp2rcd13ifvqc9g","pricing_plan_id":"cebpf4jnsgd1na2vs0mg"},{"bike_id":"361ee3c9-8cf9-4ec5-a838-7b16a2208afc","system_id":"levelo_inurba_marseille","lat":43.269477,"lon":5.386443,"is_reserved":false,"is_disabled":false,"rental_uris":{"android":"levelo://app?vid=361ee3c9-8cf9-4ec5-a838-7b16a2208afc","ios":"levelo://app?vid=361ee3c9-8cf9-4ec5-a838-7b16a2208afc"},"vehicle_type_id":"4","last_reported":1761930605,"current_range_meters":9200,"station_id":"ce4bhh92rcd13ifvqfh0","pricing_plan_id":"cebpf4jnsgd1na2vs0mg"},{"bike_id":"b7bf08da-3155-4ebd-90f6-2c65138a1e9a","system_id":"levelo_inurba_marseille","lat":43.21203,"lon":5.35067,"is_reserved":false,"is_disabled":false,"rental_uris":{"android":"levelo://app?vid=b7bf08da-3155-4ebd-90f6-2c65138a1e9a","ios":"levelo://app?vid=b7bf08da-3155-4ebd-90f6-2c65138a1e9a"},"vehicle_type_id":"4","last_reported":1761930605,"current_range_meters":9200,"station_id":"st_cvj6sg6p6f1abm77japg","pricing_plan_id":"cebpf4jnsgd1na2vs0mg"},{"bike_id":"09e12912-3417-4326-b867-1749d869924f","system_id":"levelo_inurba_marseille","lat":43.29779,"lon":5.37104,"is_reserved":false,"is_disabled":false,"rental_uris":{"android":"levelo://app?vid=09e12912-3417-4326-b867-1749d869924f","ios":"levelo://app?vid=09e12912-3417-4326-b867-1749d869924f"},"vehicle_type_id":"4","last_reported":1761930605,"current_range_meters":9200,"station_id":"ce4bgop2rcd13ifvqc1g","pricing_plan_id":"cebpf4jnsgd1na2vs0mg"},{"bike_id":"0070e74c-237d-41a3-967a-a0d7439af9bf","system_id":"levelo_inurba_marseille","lat":43.21755,"lon":5.34602,"is_reserved":false,"is_disabled":false,"rental_uris":{"android":"levelo://app?vid=0070e74c-237d-41a3-967a-a0d7439af9bf","ios":"levelo://app?vid=0070e74c-237d-41a3-967a-a0d7439af9bf"},"vehicle_type_id":"4","last_reported":1761930605,"current_range_meters":9200,"station_id":"","pricing_plan_id":"cebpf4jnsgd1na2vs0mg"},{"bike_id":"49ea8242-a7b7-47f4-a836-a3c34ddffc02","system_id":"levelo_inurba_marseille","lat":43.28697,"lon":5.37393,"is_reserved":false,"is_disabled":false,"rental_uris":{"android":"levelo://app?vid=49ea8242-a7b7-47f4-a836-a3c34ddffc02","ios":"levelo://app?vid=49ea8242-a7b7-47f4-a836-a3c34ddffc02"},"vehicle_type_id":"4","last_reported":1761930605,"current_range_meters":9200,"station_id":"ce4bh3p2rcd13ifvqdq0","pricing_plan_id":"cebpf4jnsgd1na2vs0mg"},{"bike_id":"d99505fe-d7a7-4e44-b7f5-f0065cd01a03","system_id":"levelo_inurba_marseille","lat":43.33383,"lon":5.42914,"is_reserved":false,"is_disabled":false,"rental_uris":{"android":"levelo://app?vid=d99505fe-d7a7-4e44-b7f5-f0065cd01a03","ios":"levelo://app?vid=d99505fe-d7a7-4e44-b7f5-f0065cd01a03"},"vehicle_type_id":"4","last_reported":1761930605,"current_range_meters":9600,"station_id":"","pricing_plan_id":"cebpf4jnsgd1na2vs0mg"},{"bike_id":"7ece47e6-8fe7-4f53-9229-c5bbb7e6bcce","system_id":"levelo_inurba_marseille","lat":43.27422,"lon":5.39428,"is_reserved":false,"is_disabled":false,"rental_uris":{"android":"levelo://app?vid=7ece47e6-8fe7-4f53-9229-c5bbb7e6bcce","ios":"levelo://app?vid=7ece47e6-8fe7-4f53-9229-c5bbb7e6bcce"},"vehicle_type_id":"4","last_reported":1761930605,"current_range_meters":9600,"station_id":"ce4bhdp2rcd13ifvqf20","pricing_plan_id":"cebpf4jnsgd1na2vs0mg"},{"bike_id":"a18dbf48-2c4d-4fa4-a4c5-c9871d73c9a0","system_id":"levelo_inurba_marseille","lat":43.301994,"lon":5.383462,"is_reserved":false,"is_disabled":false,"rental_uris":{"android":"levelo://app?vid=a18dbf48-2c4d-4fa4-a4c5-c9871d73c9a0","ios":"levelo://app?vid=a18dbf48-2c4d-4fa4-a4c5-c9871d73c9a0"},"vehicle_type_id":"4","last_reported":1761930605,"current_range_meters":9600,"station_id":"ce4bgup2rcd13ifvqcn0","pricing_plan_id":"cebpf4jnsgd1na2vs0mg"},{"bike_id":"7b413409-80e1-4c27-8247-293f6220766e","system_id":"levelo_inurba_marseille","lat":43.23783,"lon":5.36635,"is_reserved":false,"is_disabled":false,"rental_uris":{"android":"levelo://app?vid=7b413409-80e1-4c27-8247-293f6220766e","ios":"levelo://app?vid=7b413409-80e1-4c27-8247-293f6220766e"},"vehicle_type_id":"4","last_reported":1761930605,"current_range_meters":9600,"station_id":"st_d3nk18o9ro0c73en2l3g","pricing_plan_id":"cebpf4jnsgd1na2vs0mg"},{"bike_id":"b71a70e2-d7de-4788-8127-2153a7b76538","system_id":"levelo_inurba_marseille","lat":43.26223,"lon":5.40447,"is_reserved":false,"is_disabled":false,"rental_uris":{"android":"levelo://app?vid=b71a70e2-d7de-4788-8127-2153a7b76538","ios":"levelo://app?vid=b71a70e2-d7de-4788-8127-2153a7b76538"},"vehicle_type_id":"4","last_reported":1761930605,"current_range_meters":9600,"station_id":"ce4bhmh2rcd13ifvqgmg","pricing_plan_id":"cebpf4jnsgd1na2vs0mg"},{"bike_id":"be2774ce-f14a-4c21-9e1e-be9ad70da433","system_id":"levelo_inurba_marseille","lat":43.32485,"lon":5.36559,"is_reserved":false,"is_disabled":false,"rental_uris":{"android":"levelo://app?vid=be2774ce-f14a-4c21-9e1e-be9ad70da433","ios":"levelo://app?vid=be2774ce-f14a-4c21-9e1e-be9ad70da433"},"vehicle_type_id":"4","last_reported":1761930605,"current_range_meters":9600,"station_id":"ce4bhs12rcd13ifvqhvg","pricing_plan_id":"cebpf4jnsgd1na2vs0mg"},{"bike_id":"b61e1e59-261f-4781-9885-10fc3dd1eaf7","system_id":"levelo_inurba_marseille","lat":43.30484,"lon":5.36851,"is_reserved":false,"is_disabled":false,"rental_uris":{"android":"levelo://app?vid=b61e1e59-261f-4781-9885-10fc3dd1eaf7","ios":"levelo://app?vid=b61e1e59-261f-4781-9885-10fc3dd1eaf7"},"vehicle_type_id":"4","last_reported":1761930605,"current_range_meters":9600,"station_id":"","pricing_plan_id":"cebpf4jnsgd1na2vs0mg"},{"bike_id":"190c1d27-6894-4453-b4de-8a93321586c3","system_id":"levelo_inurba_marseille","lat":43.23167,"lon":5.40007,"is_reserved":false,"is_disabled":false,"rental_uris":{"android":"levelo://app?vid=190c1d27-6894-4453-b4de-8a93321586c3","ios":"levelo://app?vid=190c1d27-6894-4453-b4de-8a93321586c3"},"vehicle_type_id":"4","last_reported":1761930605,"current_range_meters":9600,"station_id":"ce4bhn12rcd13ifvqgqg","pricing_plan_id":"cebpf4jnsgd1na2vs0mg"},{"bike_id":"ff80c186-bf89-4d44-b05c-527ca7a1211d","system_id":"levelo_inurba_marseille","lat":43.211795,"lon":5.351163,"is_reserved":false,"is_disabled":false,"rental_uris":{"android":"levelo://app?vid=ff80c186-bf89-4d44-b05c-527ca7a1211d","ios":"levelo://app?vid=ff80c186-bf89-4d44-b05c-527ca7a1211d"},"vehicle_type_id":"4","last_reported":1761930605,"current_range_meters":9600,"station_id":"ce4bhh12rcd13ifvqff0","pricing_plan_id":"cebpf4jnsgd1na2vs0mg"},{"bike_id":"9b93b5e1-c939-4745-bf85-2d21945442dc","system_id":"levelo_inurba_marseille","lat":43.29987,"lon":5.364,"is_reserved":false,"is_disabled":false,"rental_uris":{"android":"levelo://app?vid=9b93b5e1-c939-4745-bf85-2d21945442dc","ios":"levelo://app?vid=9b93b5e1-c939-4745-bf85-2d21945442dc"},"vehicle_type_id":"4","last_reported":1761930605,"current_range_meters":10000,"station_id":"","pricing_plan_id":"cebpf4jnsgd1na2vs0mg"},{"bike_id":"6d793f1a-bffd-4dca-8689-f30f1f050b48","system_id":"levelo_inurba_marseille","lat":43.28536,"lon":5.44105,"is_reserved":false,"is_disabled":false,"rental_uris":{"android":"levelo://app?vid=6d793f1a-bffd-4dca-8689-f30f1f050b48","ios":"levelo://app?vid=6d793f1a-bffd-4dca-8689-f30f1f050b48"},"vehicle_type_id":"4","last_reported":1761930605,"current_range_meters":10000,"station_id":"st_d3j3df2ikq2c7380ej80","pricing_plan_id":"cebpf4jnsgd1na2vs0mg"},{"bike_id":"acbe752e-349a-43de-be14-7865c3ef0730","system_id":"levelo_inurba_marseille","lat":43.27995,"lon":5.40016,"is_reserved":false,"is_disabled":false,"rental_uris":{"android":"levelo://app?vid=acbe752e-349a-43de-be14-7865c3ef0730","ios":"levelo://app?vid=acbe752e-349a-43de-be14-7865c3ef0730"},"vehicle_type_id":"4","last_reported":1761930605,"current_range_meters":10000,"station_id":"ce4bho92rcd13ifvqh4g","pricing_plan_id":"cebpf4jnsgd1na2vs0mg"},{"bike_id":"07994c72-bf44-43e1-8a8d-d1c2ed3fb617","system_id":"levelo_inurba_marseille","lat":43.29234,"lon":5.38329,"is_reserved":false,"is_disabled":false,"rental_uris":{"android":"levelo://app?vid=07994c72-bf44-43e1-8a8d-d1c2ed3fb617","ios":"levelo://app?vid=07994c72-bf44-43e1-8a8d-d1c2ed3fb617"},"vehicle_type_id":"4","last_reported":1761930605,"current_range_meters":10000,"station_id":"","pricing_plan_id":"cebpf4jnsgd1na2vs0mg"},{"bike_id":"3be15a2c-1a7e-4615-ae10-d7b01a2ea105","system_id":"levelo_inurba_marseille","lat":43.24805,"lon":5.37449,"is_reserved":false,"is_disabled":false,"rental_uris":{"android":"levelo://app?vid=3be15a2c-1a7e-4615-ae10-d7b01a2ea105","ios":"levelo://app?vid=3be15a2c-1a7e-4615-ae10-d7b01a2ea105"},"vehicle_type_id":"4","last_reported":1761930605,"current_range_meters":10800,"station_id":"ce4bhgh2rcd13ifvqfb0","pricing_plan_id":"cebpf4jnsgd1na2vs0mg"},{"bike_id":"f7203077-dd7c-4aee-847d-fd4b2947a5c5","system_id":"levelo_inurba_marseille","lat":43.28536,"lon":5.44108,"is_reserved":false,"is_disabled":false,"rental_uris":{"android":"levelo://app?vid=f7203077-dd7c-4aee-847d-fd4b2947a5c5","ios":"levelo://app?vid=f7203077-dd7c-4aee-847d-fd4b2947a5c5"},"vehicle_type_id":"4","last_reported":1761930605,"current_range_meters":10800,"station_id":"st_d3j3df2ikq2c7380ej80","pricing_plan_id":"cebpf4jnsgd1na2vs0mg"},{"bike_id":"603c8609-6792-49e8-ad71-3bcf1cdcb274","system_id":"levelo_inurba_marseille","lat":43.301,"lon":5.39075,"is_reserved":false,"is_disabled":false,"rental_uris":{"android":"levelo://app?vid=603c8609-6792-49e8-ad71-3bcf1cdcb274","ios":"levelo://app?vid=603c8609-6792-49e8-ad71-3bcf1cdcb274"},"vehicle_type_id":"4","last_reported":1761930605,"current_range_meters":10800,"station_id":"ce4bh192rcd13ifvqdb0","pricing_plan_id":"cebpf4jnsgd1na2vs0mg"},{"bike_id":"8810c74e-d2d5-4d0f-bed4-02c9284497d7","system_id":"levelo_inurba_marseille","lat":43.29937,"lon":5.3655,"is_reserved":false,"is_disabled":false,"rental_uris":{"android":"levelo://app?vid=8810c74e-d2d5-4d0f-bed4-02c9284497d7","ios":"levelo://app?vid=8810c74e-d2d5-4d0f-bed4-02c9284497d7"},"vehicle_type_id":"4","last_reported":1761930605,"current_range_meters":10800,"station_id":"ce4bgm92rcd13ifvqbr0","pricing_plan_id":"cebpf4jnsgd1na2vs0mg"},{"bike_id":"b8f404d3-62c4-4489-a471-d37212346558","system_id":"levelo_inurba_marseille","lat":43.31074,"lon":5.37853,"is_reserved":false,"is_disabled":false,"rental_uris":{"android":"levelo://app?vid=b8f404d3-62c4-4489-a471-d37212346558","ios":"levelo://app?vid=b8f404d3-62c4-4489-a471-d37212346558"},"vehicle_type_id":"4","last_reported":1761930605,"current_range_meters":10800,"station_id":"","pricing_plan_id":"cebpf4jnsgd1na2vs0mg"},{"bike_id":"37aec337-3e4b-492e-adbe-e737bed2770f","system_id":"levelo_inurba_marseille","lat":43.28728,"lon":5.36083,"is_reserved":false,"is_disabled":false,"rental_uris":{"android":"levelo://app?vid=37aec337-3e4b-492e-adbe-e737bed2770f","ios":"levelo://app?vid=37aec337-3e4b-492e-adbe-e737bed2770f"},"vehicle_type_id":"4","last_reported":1761930605,"current_range_meters":10800,"station_id":"cki0cbj6b192h4jlfktg","pricing_plan_id":"cebpf4jnsgd1na2vs0mg"},{"bike_id":"37316b59-783c-4c99-ac42-41d94668ddc9","system_id":"levelo_inurba_marseille","lat":43.30145,"lon":5.38086,"is_reserved":false,"is_disabled":false,"rental_uris":{"android":"levelo://app?vid=37316b59-783c-4c99-ac42-41d94668ddc9","ios":"levelo://app?vid=37316b59-783c-4c99-ac42-41d94668ddc9"},"vehicle_type_id":"4","last_reported":1761930605,"current_range_meters":11200,"station_id":"ce4bgjp2rcd13ifvqbh0","pricing_plan_id":"cebpf4jnsgd1na2vs0mg"},{"bike_id":"02ab884f-cd1d-4795-9937-2eff6de586cf","system_id":"levelo_inurba_marseille","lat":43.29508,"lon":5.3907,"is_reserved":false,"is_disabled":false,"rental_uris":{"android":"levelo://app?vid=02ab884f-cd1d-4795-9937-2eff6de586cf","ios":"levelo://app?vid=02ab884f-cd1d-4795-9937-2eff6de586cf"},"vehicle_type_id":"4","last_reported":1761930605,"current_range_meters":11200,"station_id":"ce4bh3p2rcd13ifvqdp0","pricing_plan_id":"cebpf4jnsgd1na2vs0mg"},{"bike_id":"2f477f8f-972b-406c-841a-14096d9c76ee","system_id":"levelo_inurba_marseille","lat":43.29742,"lon":5.42781,"is_reserved":false,"is_disabled":false,"rental_uris":{"android":"levelo://app?vid=2f477f8f-972b-406c-841a-14096d9c76ee","ios":"levelo://app?vid=2f477f8f-972b-406c-841a-14096d9c76ee"},"vehicle_type_id":"4","last_reported":1761930605,"current_range_meters":11600,"station_id":"st_d3md5207bmas73dh9klg","pricing_plan_id":"cebpf4jnsgd1na2vs0mg"},{"bike_id":"80c53fab-d9fd-4b9a-94e7-e3f3183e35da","system_id":"levelo_inurba_marseille","lat":43.33019,"lon":5.39045,"is_reserved":false,"is_disabled":false,"rental_uris":{"android":"levelo://app?vid=80c53fab-d9fd-4b9a-94e7-e3f3183e35da","ios":"levelo://app?vid=80c53fab-d9fd-4b9a-94e7-e3f3183e35da"},"vehicle_type_id":"4","last_reported":1761930605,"current_range_meters":11600,"station_id":"ce4bhr92rcd13ifvqhrg","pricing_plan_id":"cebpf4jnsgd1na2vs0mg"},{"bike_id":"52c9906d-aae6-424f-acd9-5d23ab6ce71f","system_id":"levelo_inurba_marseille","lat":43.24657,"lon":5.38177,"is_reserved":false,"is_disabled":false,"rental_uris":{"android":"levelo://app?vid=52c9906d-aae6-424f-acd9-5d23ab6ce71f","ios":"levelo://app?vid=52c9906d-aae6-424f-acd9-5d23ab6ce71f"},"vehicle_type_id":"4","last_reported":1761930605,"current_range_meters":11600,"station_id":"ce4bhih2rcd13ifvqfr0","pricing_plan_id":"cebpf4jnsgd1na2vs0mg"},{"bike_id":"70b7527d-67eb-4818-84c6-51aae343ca97","system_id":"levelo_inurba_marseille","lat":43.2849,"lon":5.48402,"is_reserved":false,"is_disabled":false,"rental_uris":{"android":"levelo://app?vid=70b7527d-67eb-4818-84c6-51aae343ca97","ios":"levelo://app?vid=70b7527d-67eb-4818-84c6-51aae343ca97"},"vehicle_type_id":"4","last_reported":1761930605,"current_range_meters":11600,"station_id":"st_d3svhcjqgbts73a3dn0g","pricing_plan_id":"cebpf4jnsgd1na2vs0mg"},{"bike_id":"2a64bed2-4bc3-415e-a62e-a2f8f8bd36d6","system_id":"levelo_inurba_marseille","lat":43.28417,"lon":5.37523,"is_reserved":false,"is_disabled":false,"rental_uris":{"android":"levelo://app?vid=2a64bed2-4bc3-415e-a62e-a2f8f8bd36d6","ios":"levelo://app?vid=2a64bed2-4bc3-415e-a62e-a2f8f8bd36d6"},"vehicle_type_id":"4","last_reported":1761930605,"current_range_meters":11600,"station_id":"ce4bh412rcd13ifvqds0","pricing_plan_id":"cebpf4jnsgd1na2vs0mg"},{"bike_id":"0cce5814-a6c8-43a8-96e9-37f297aa621e","system_id":"levelo_inurba_marseille","lat":43.28456,"lon":5.48378,"is_reserved":false,"is_disabled":false,"rental_uris":{"android":"levelo://app?vid=0cce5814-a6c8-43a8-96e9-37f297aa621e","ios":"levelo://app?vid=0cce5814-a6c8-43a8-96e9-37f297aa621e"},"vehicle_type_id":"4","last_reported":1761930605,"current_range_meters":11600,"station_id":"st_d3svhcjqgbts73a3dn0g","pricing_plan_id":"cebpf4jnsgd1na2vs0mg"},{"bike_id":"901aaa8e-6d95-4dde-8396-6e3d5435f0bd","system_id":"levelo_inurba_marseille","lat":43.286941,"lon":5.363791,"is_reserved":false,"is_disabled":false,"rental_uris":{"android":"levelo://app?vid=901aaa8e-6d95-4dde-8396-6e3d5435f0bd","ios":"levelo://app?vid=901aaa8e-6d95-4dde-8396-6e3d5435f0bd"},"vehicle_type_id":"4","last_reported":1761930605,"current_range_meters":12000,"station_id":"ce4bhah2rcd13ifvqei0","pricing_plan_id":"cebpf4jnsgd1na2vs0mg"},{"bike_id":"1213ff01-604d-4b83-b3a2-60440c4b245e","system_id":"levelo_inurba_marseille","lat":43.23793,"lon":5.36634,"is_reserved":false,"is_disabled":false,"rental_uris":{"android":"levelo://app?vid=1213ff01-604d-4b83-b3a2-60440c4b245e","ios":"levelo://app?vid=1213ff01-604d-4b83-b3a2-60440c4b245e"},"vehicle_type_id":"4","last_reported":1761930605,"current_range_meters":12000,"station_id":"st_d3nk18o9ro0c73en2l3g","pricing_plan_id":"cebpf4jnsgd1na2vs0mg"},{"bike_id":"56a2b1d6-6636-4ad8-9dd8-535b69e6622f","system_id":"levelo_inurba_marseille","lat":43.28613,"lon":5.35108,"is_reserved":false,"is_disabled":false,"rental_uris":{"android":"levelo://app?vid=56a2b1d6-6636-4ad8-9dd8-535b69e6622f","ios":"levelo://app?vid=56a2b1d6-6636-4ad8-9dd8-535b69e6622f"},"vehicle_type_id":"4","last_reported":1761930605,"current_range_meters":12000,"station_id":"ce4bhch2rcd13ifvqeug","pricing_plan_id":"cebpf4jnsgd1na2vs0mg"},{"bike_id":"1b727c94-5686-4e69-a92e-6d1f91603b89","system_id":"levelo_inurba_marseille","lat":43.281532,"lon":5.426482,"is_reserved":false,"is_disabled":false,"rental_uris":{"android":"levelo://app?vid=1b727c94-5686-4e69-a92e-6d1f91603b89","ios":"levelo://app?vid=1b727c94-5686-4e69-a92e-6d1f91603b89"},"vehicle_type_id":"4","last_reported":1761930605,"current_range_meters":12000,"station_id":"ce4bhnh2rcd13ifvqgug","pricing_plan_id":"cebpf4jnsgd1na2vs0mg"},{"bike_id":"5390cf75-8bd4-4263-8864-fd20a0a1db26","system_id":"levelo_inurba_marseille","lat":43.28724,"lon":5.36091,"is_reserved":false,"is_disabled":false,"rental_uris":{"android":"levelo://app?vid=5390cf75-8bd4-4263-8864-fd20a0a1db26","ios":"levelo://app?vid=5390cf75-8bd4-4263-8864-fd20a0a1db26"},"vehicle_type_id":"4","last_reported":1761930605,"current_range_meters":12000,"station_id":"cki0cbj6b192h4jlfktg","pricing_plan_id":"cebpf4jnsgd1na2vs0mg"},{"bike_id":"5a1a3f29-649a-4e51-8569-c7c858695985","system_id":"levelo_inurba_marseille","lat":43.29275,"lon":5.3845,"is_reserved":false,"is_disabled":false,"rental_uris":{"android":"levelo://app?vid=5a1a3f29-649a-4e51-8569-c7c858695985","ios":"levelo://app?vid=5a1a3f29-649a-4e51-8569-c7c858695985"},"vehicle_type_id":"4","last_reported":1761930605,"current_range_meters":12400,"station_id":"ce4bh692rcd13ifvqea0","pricing_plan_id":"cebpf4jnsgd1na2vs0mg"},{"bike_id":"e1374d14-ca8c-4d30-bf7a-1e91101e2cee","system_id":"levelo_inurba_marseille","lat":43.28547,"lon":5.44118,"is_reserved":false,"is_disabled":false,"rental_uris":{"android":"levelo://app?vid=e1374d14-ca8c-4d30-bf7a-1e91101e2cee","ios":"levelo://app?vid=e1374d14-ca8c-4d30-bf7a-1e91101e2cee"},"vehicle_type_id":"4","last_reported":1761930605,"current_range_meters":12400,"station_id":"st_d3j3df2ikq2c7380ej80","pricing_plan_id":"cebpf4jnsgd1na2vs0mg"},{"bike_id":"ee261a32-9de1-4b9e-a923-6c91e1e26176","system_id":"levelo_inurba_marseille","lat":43.28483,"lon":5.48392,"is_reserved":false,"is_disabled":false,"rental_uris":{"android":"levelo://app?vid=ee261a32-9de1-4b9e-a923-6c91e1e26176","ios":"levelo://app?vid=ee261a32-9de1-4b9e-a923-6c91e1e26176"},"vehicle_type_id":"4","last_reported":1761930605,"current_range_meters":12400,"station_id":"st_d3svhcjqgbts73a3dn0g","pricing_plan_id":"cebpf4jnsgd1na2vs0mg"},{"bike_id":"96ad2f8e-1ff0-415a-a84a-9186f2a5baf6","system_id":"levelo_inurba_marseille","lat":43.29606,"lon":5.37672,"is_reserved":false,"is_disabled":false,"rental_uris":{"android":"levelo://app?vid=96ad2f8e-1ff0-415a-a84a-9186f2a5baf6","ios":"levelo://app?vid=96ad2f8e-1ff0-415a-a84a-9186f2a5baf6"},"vehicle_type_id":"4","last_reported":1761930605,"current_range_meters":12400,"station_id":"ce4bgi12rcd13ifvqb80","pricing_plan_id":"cebpf4jnsgd1na2vs0mg"},{"bike_id":"46835159-5dd5-4fc9-a732-591f6a5307e4","system_id":"levelo_inurba_marseille","lat":43.31351,"lon":5.37912,"is_reserved":false,"is_disabled":false,"rental_uris":{"android":"levelo://app?vid=46835159-5dd5-4fc9-a732-591f6a5307e4","ios":"levelo://app?vid=46835159-5dd5-4fc9-a732-591f6a5307e4"},"vehicle_type_id":"4","last_reported":1761930605,"current_range_meters":12400,"station_id":"","pricing_plan_id":"cebpf4jnsgd1na2vs0mg"},{"bike_id":"43f2ae69-6fe3-4cfb-bc5a-9331751b4d17","system_id":"levelo_inurba_marseille","lat":43.28704,"lon":5.37397,"is_reserved":false,"is_disabled":false,"rental_uris":{"android":"levelo://app?vid=43f2ae69-6fe3-4cfb-bc5a-9331751b4d17","ios":"levelo://app?vid=43f2ae69-6fe3-4cfb-bc5a-9331751b4d17"},"vehicle_type_id":"4","last_reported":1761930605,"current_range_meters":12400,"station_id":"ce4bh3p2rcd13ifvqdq0","pricing_plan_id":"cebpf4jnsgd1na2vs0mg"},{"bike_id":"7af2ea98-ce20-4954-bebb-ba5a49308a55","system_id":"levelo_inurba_marseille","lat":43.23789,"lon":5.36629,"is_reserved":false,"is_disabled":false,"rental_uris":{"android":"levelo://app?vid=7af2ea98-ce20-4954-bebb-ba5a49308a55","ios":"levelo://app?vid=7af2ea98-ce20-4954-bebb-ba5a49308a55"},"vehicle_type_id":"4","last_reported":1761930605,"current_range_meters":12400,"station_id":"st_d3nk18o9ro0c73en2l3g","pricing_plan_id":"cebpf4jnsgd1na2vs0mg"},{"bike_id":"a4dac4fa-66e6-48be-a654-6e17cdc7ca0b","system_id":"levelo_inurba_marseille","lat":43.337571,"lon":5.374323,"is_reserved":false,"is_disabled":false,"rental_uris":{"android":"levelo://app?vid=a4dac4fa-66e6-48be-a654-6e17cdc7ca0b","ios":"levelo://app?vid=a4dac4fa-66e6-48be-a654-6e17cdc7ca0b"},"vehicle_type_id":"4","last_reported":1761930605,"current_range_meters":12800,"station_id":"","pricing_plan_id":"cebpf4jnsgd1na2vs0mg"},{"bike_id":"3bb1c6a8-e91f-4e7b-a1c0-4da840b8016c","system_id":"levelo_inurba_marseille","lat":43.305302,"lon":5.367168,"is_reserved":false,"is_disabled":false,"rental_uris":{"android":"levelo://app?vid=3bb1c6a8-e91f-4e7b-a1c0-4da840b8016c","ios":"levelo://app?vid=3bb1c6a8-e91f-4e7b-a1c0-4da840b8016c"},"vehicle_type_id":"4","last_reported":1761930605,"current_range_meters":13600,"station_id":"ce4bgrp2rcd13ifvqc9g","pricing_plan_id":"cebpf4jnsgd1na2vs0mg"},{"bike_id":"a4411a31-dc75-48de-8b4a-eee0e7dbe4d1","system_id":"levelo_inurba_marseille","lat":43.28149,"lon":5.4264,"is_reserved":false,"is_disabled":false,"rental_uris":{"android":"levelo://app?vid=a4411a31-dc75-48de-8b4a-eee0e7dbe4d1","ios":"levelo://app?vid=a4411a31-dc75-48de-8b4a-eee0e7dbe4d1"},"vehicle_type_id":"4","last_reported":1761930605,"current_range_meters":13600,"station_id":"ce4bhnh2rcd13ifvqgug","pricing_plan_id":"cebpf4jnsgd1na2vs0mg"},{"bike_id":"8a632559-d61b-4289-915b-e6215ea4bf27","system_id":"levelo_inurba_marseille","lat":43.32365,"lon":5.36745,"is_reserved":false,"is_disabled":false,"rental_uris":{"android":"levelo://app?vid=8a632559-d61b-4289-915b-e6215ea4bf27","ios":"levelo://app?vid=8a632559-d61b-4289-915b-e6215ea4bf27"},"vehicle_type_id":"4","last_reported":1761930605,"current_range_meters":13600,"station_id":"ce4bhsh2rcd13ifvqi2g","pricing_plan_id":"cebpf4jnsgd1na2vs0mg"},{"bike_id":"c7b91593-34a4-46b5-8a87-4efa90732fc3","system_id":"levelo_inurba_marseille","lat":43.29598,"lon":5.38103,"is_reserved":false,"is_disabled":false,"rental_uris":{"android":"levelo://app?vid=c7b91593-34a4-46b5-8a87-4efa90732fc3","ios":"levelo://app?vid=c7b91593-34a4-46b5-8a87-4efa90732fc3"},"vehicle_type_id":"4","last_reported":1761930605,"current_range_meters":13600,"station_id":"ce4bgl12rcd13ifvqbo0","pricing_plan_id":"cebpf4jnsgd1na2vs0mg"},{"bike_id":"65b74a09-ca21-47cd-a089-1f1f9daa9aea","system_id":"levelo_inurba_marseille","lat":43.29932,"lon":5.36554,"is_reserved":false,"is_disabled":false,"rental_uris":{"android":"levelo://app?vid=65b74a09-ca21-47cd-a089-1f1f9daa9aea","ios":"levelo://app?vid=65b74a09-ca21-47cd-a089-1f1f9daa9aea"},"vehicle_type_id":"4","last_reported":1761930605,"current_range_meters":14000,"station_id":"ce4bgm92rcd13ifvqbr0","pricing_plan_id":"cebpf4jnsgd1na2vs0mg"},{"bike_id":"aad6a064-c048-4ba9-a156-1745b89548aa","system_id":"levelo_inurba_marseille","lat":43.28315,"lon":5.41108,"is_reserved":false,"is_disabled":false,"rental_uris":{"android":"levelo://app?vid=aad6a064-c048-4ba9-a156-1745b89548aa","ios":"levelo://app?vid=aad6a064-c048-4ba9-a156-1745b89548aa"},"vehicle_type_id":"4","last_reported":1761930605,"current_range_meters":14000,"station_id":"","pricing_plan_id":"cebpf4jnsgd1na2vs0mg"},{"bike_id":"3ffbae57-8ecd-4e3d-96ad-932247e3fe54","system_id":"levelo_inurba_marseille","lat":43.30291,"lon":5.37697,"is_reserved":false,"is_disabled":false,"rental_uris":{"android":"levelo://app?vid=3ffbae57-8ecd-4e3d-96ad-932247e3fe54","ios":"levelo://app?vid=3ffbae57-8ecd-4e3d-96ad-932247e3fe54"},"vehicle_type_id":"4","last_reported":1761930605,"current_range_meters":14000,"station_id":"ce4bguh2rcd13ifvqcj0","pricing_plan_id":"cebpf4jnsgd1na2vs0mg"},{"bike_id":"d3b96a45-0c36-482a-b421-c63df9f9d284","system_id":"levelo_inurba_marseille","lat":43.292641,"lon":5.384345,"is_reserved":false,"is_disabled":false,"rental_uris":{"android":"levelo://app?vid=d3b96a45-0c36-482a-b421-c63df9f9d284","ios":"levelo://app?vid=d3b96a45-0c36-482a-b421-c63df9f9d284"},"vehicle_type_id":"4","last_reported":1761930605,"current_range_meters":14000,"station_id":"ce4bh692rcd13ifvqea0","pricing_plan_id":"cebpf4jnsgd1na2vs0mg"},{"bike_id":"ea026366-bc0e-4c94-9d28-6400e68b55bf","system_id":"levelo_inurba_marseille","lat":43.317,"lon":5.43711,"is_reserved":false,"is_disabled":false,"rental_uris":{"android":"levelo://app?vid=ea026366-bc0e-4c94-9d28-6400e68b55bf","ios":"levelo://app?vid=ea026366-bc0e-4c94-9d28-6400e68b55bf"},"vehicle_type_id":"4","last_reported":1761930605,"current_range_meters":14000,"station_id":"ce4bhp92rcd13ifvqhcg","pricing_plan_id":"cebpf4jnsgd1na2vs0mg"},{"bike_id":"319b8584-93f2-449c-b056-ea3f20ebc971","system_id":"levelo_inurba_marseille","lat":43.28514,"lon":5.43032,"is_reserved":false,"is_disabled":false,"rental_uris":{"android":"levelo://app?vid=319b8584-93f2-449c-b056-ea3f20ebc971","ios":"levelo://app?vid=319b8584-93f2-449c-b056-ea3f20ebc971"},"vehicle_type_id":"4","last_reported":1761930605,"current_range_meters":14000,"station_id":"","pricing_plan_id":"cebpf4jnsgd1na2vs0mg"},{"bike_id":"167bf511-0b1b-4c39-bd17-ff0507dd1d5c","system_id":"levelo_inurba_marseille","lat":43.29539,"lon":5.39398,"is_reserved":false,"is_disabled":false,"rental_uris":{"android":"levelo://app?vid=167bf511-0b1b-4c39-bd17-ff0507dd1d5c","ios":"levelo://app?vid=167bf511-0b1b-4c39-bd17-ff0507dd1d5c"},"vehicle_type_id":"4","last_reported":1761930605,"current_range_meters":14400,"station_id":"ce4bh292rcd13ifvqdf0","pricing_plan_id":"cebpf4jnsgd1na2vs0mg"},{"bike_id":"d9873fee-6220-45fb-8fbc-7e15d718b3f3","system_id":"levelo_inurba_marseille","lat":43.25583,"lon":5.38253,"is_reserved":false,"is_disabled":false,"rental_uris":{"android":"levelo://app?vid=d9873fee-6220-45fb-8fbc-7e15d718b3f3","ios":"levelo://app?vid=d9873fee-6220-45fb-8fbc-7e15d718b3f3"},"vehicle_type_id":"4","last_reported":1761930605,"current_range_meters":14400,"station_id":"ce4bhih2rcd13ifvqfs0","pricing_plan_id":"cebpf4jnsgd1na2vs0mg"},{"bike_id":"198d4f9c-92f3-44ca-899b-a91cfd2da75d","system_id":"levelo_inurba_marseille","lat":43.25576,"lon":5.38236,"is_reserved":false,"is_disabled":false,"rental_uris":{"android":"levelo://app?vid=198d4f9c-92f3-44ca-899b-a91cfd2da75d","ios":"levelo://app?vid=198d4f9c-92f3-44ca-899b-a91cfd2da75d"},"vehicle_type_id":"4","last_reported":1761930605,"current_range_meters":14400,"station_id":"ce4bhih2rcd13ifvqfs0","pricing_plan_id":"cebpf4jnsgd1na2vs0mg"},{"bike_id":"6cd59db7-cb12-4301-8385-22b87d7a5cfd","system_id":"levelo_inurba_marseille","lat":43.28543,"lon":5.44061,"is_reserved":false,"is_disabled":false,"rental_uris":{"android":"levelo://app?vid=6cd59db7-cb12-4301-8385-22b87d7a5cfd","ios":"levelo://app?vid=6cd59db7-cb12-4301-8385-22b87d7a5cfd"},"vehicle_type_id":"4","last_reported":1761930605,"current_range_meters":14400,"station_id":"st_d3j3df2ikq2c7380ej80","pricing_plan_id":"cebpf4jnsgd1na2vs0mg"},{"bike_id":"b585d35c-f947-4561-b4ae-fcc0fa1a3243","system_id":"levelo_inurba_marseille","lat":43.2927,"lon":5.38456,"is_reserved":false,"is_disabled":false,"rental_uris":{"android":"levelo://app?vid=b585d35c-f947-4561-b4ae-fcc0fa1a3243","ios":"levelo://app?vid=b585d35c-f947-4561-b4ae-fcc0fa1a3243"},"vehicle_type_id":"4","last_reported":1761930605,"current_range_meters":14400,"station_id":"ce4bh692rcd13ifvqea0","pricing_plan_id":"cebpf4jnsgd1na2vs0mg"},{"bike_id":"bf81aa08-1c64-448a-b6aa-dd4dc9784f5e","system_id":"levelo_inurba_marseille","lat":43.30142,"lon":5.38782,"is_reserved":false,"is_disabled":false,"rental_uris":{"android":"levelo://app?vid=bf81aa08-1c64-448a-b6aa-dd4dc9784f5e","ios":"levelo://app?vid=bf81aa08-1c64-448a-b6aa-dd4dc9784f5e"},"vehicle_type_id":"4","last_reported":1761930605,"current_range_meters":14400,"station_id":"ce4bghh2rcd13ifvqb60","pricing_plan_id":"cebpf4jnsgd1na2vs0mg"},{"bike_id":"864330ac-9e38-4e96-9890-bcd9914b5b09","system_id":"levelo_inurba_marseille","lat":43.23186,"lon":5.39979,"is_reserved":false,"is_disabled":false,"rental_uris":{"android":"levelo://app?vid=864330ac-9e38-4e96-9890-bcd9914b5b09","ios":"levelo://app?vid=864330ac-9e38-4e96-9890-bcd9914b5b09"},"vehicle_type_id":"4","last_reported":1761930605,"current_range_meters":14400,"station_id":"ce4bhn12rcd13ifvqgqg","pricing_plan_id":"cebpf4jnsgd1na2vs0mg"},{"bike_id":"a74ca4e6-9019-4ce4-a364-7a22bd8e206a","system_id":"levelo_inurba_marseille","lat":43.26501,"lon":5.38529,"is_reserved":false,"is_disabled":false,"rental_uris":{"android":"levelo://app?vid=a74ca4e6-9019-4ce4-a364-7a22bd8e206a","ios":"levelo://app?vid=a74ca4e6-9019-4ce4-a364-7a22bd8e206a"},"vehicle_type_id":"4","last_reported":1761930605,"current_range_meters":14400,"station_id":"","pricing_plan_id":"cebpf4jnsgd1na2vs0mg"},{"bike_id":"400880ee-f0a1-4337-b2d0-b6771fc24163","system_id":"levelo_inurba_marseille","lat":43.24822,"lon":5.37446,"is_reserved":false,"is_disabled":false,"rental_uris":{"android":"levelo://app?vid=400880ee-f0a1-4337-b2d0-b6771fc24163","ios":"levelo://app?vid=400880ee-f0a1-4337-b2d0-b6771fc24163"},"vehicle_type_id":"4","last_reported":1761930605,"current_range_meters":14800,"station_id":"ce4bhgh2rcd13ifvqfb0","pricing_plan_id":"cebpf4jnsgd1na2vs0mg"},{"bike_id":"58a5d9bd-5712-4626-8452-1832fa27c460","system_id":"levelo_inurba_marseille","lat":43.265719,"lon":5.3903,"is_reserved":false,"is_disabled":false,"rental_uris":{"android":"levelo://app?vid=58a5d9bd-5712-4626-8452-1832fa27c460","ios":"levelo://app?vid=58a5d9bd-5712-4626-8452-1832fa27c460"},"vehicle_type_id":"4","last_reported":1761930605,"current_range_meters":14800,"station_id":"","pricing_plan_id":"cebpf4jnsgd1na2vs0mg"},{"bike_id":"2fd0268e-570d-49c4-9ab3-6e4e42f567a2","system_id":"levelo_inurba_marseille","lat":43.262283,"lon":5.404519,"is_reserved":false,"is_disabled":false,"rental_uris":{"android":"levelo://app?vid=2fd0268e-570d-49c4-9ab3-6e4e42f567a2","ios":"levelo://app?vid=2fd0268e-570d-49c4-9ab3-6e4e42f567a2"},"vehicle_type_id":"4","last_reported":1761930605,"current_range_meters":14800,"station_id":"ce4bhmh2rcd13ifvqgmg","pricing_plan_id":"cebpf4jnsgd1na2vs0mg"},{"bike_id":"2c4e1a83-6a82-460a-8ff3-aa5e8934541f","system_id":"levelo_inurba_marseille","lat":43.26058,"lon":5.39395,"is_reserved":false,"is_disabled":false,"rental_uris":{"android":"levelo://app?vid=2c4e1a83-6a82-460a-8ff3-aa5e8934541f","ios":"levelo://app?vid=2c4e1a83-6a82-460a-8ff3-aa5e8934541f"},"vehicle_type_id":"4","last_reported":1761930605,"current_range_meters":15200,"station_id":"ce4bhh92rcd13ifvqfj0","pricing_plan_id":"cebpf4jnsgd1na2vs0mg"},{"bike_id":"0dc930ae-88e6-493c-ab95-8df0b3ac1f8b","system_id":"levelo_inurba_marseille","lat":43.29879,"lon":5.43673,"is_reserved":false,"is_disabled":false,"rental_uris":{"android":"levelo://app?vid=0dc930ae-88e6-493c-ab95-8df0b3ac1f8b","ios":"levelo://app?vid=0dc930ae-88e6-493c-ab95-8df0b3ac1f8b"},"vehicle_type_id":"4","last_reported":1761930605,"current_range_meters":15200,"station_id":"ce4bhpp2rcd13ifvqhfg","pricing_plan_id":"cebpf4jnsgd1na2vs0mg"},{"bike_id":"8cd03ddb-c0f2-48fd-8994-7130a98ed03a","system_id":"levelo_inurba_marseille","lat":43.260035,"lon":5.398036,"is_reserved":false,"is_disabled":false,"rental_uris":{"android":"levelo://app?vid=8cd03ddb-c0f2-48fd-8994-7130a98ed03a","ios":"levelo://app?vid=8cd03ddb-c0f2-48fd-8994-7130a98ed03a"},"vehicle_type_id":"4","last_reported":1761930605,"current_range_meters":15200,"station_id":"ce4bhip2rcd13ifvqft0","pricing_plan_id":"cebpf4jnsgd1na2vs0mg"},{"bike_id":"b2ce8e73-e59b-4d30-b8e2-e59e2e1e3b22","system_id":"levelo_inurba_marseille","lat":43.33775,"lon":5.37482,"is_reserved":false,"is_disabled":false,"rental_uris":{"android":"levelo://app?vid=b2ce8e73-e59b-4d30-b8e2-e59e2e1e3b22","ios":"levelo://app?vid=b2ce8e73-e59b-4d30-b8e2-e59e2e1e3b22"},"vehicle_type_id":"4","last_reported":1761930605,"current_range_meters":15200,"station_id":"","pricing_plan_id":"cebpf4jnsgd1na2vs0mg"},{"bike_id":"e7ead618-cc2b-4c53-bc61-330caff21889","system_id":"levelo_inurba_marseille","lat":43.25338,"lon":5.42181,"is_reserved":false,"is_disabled":false,"rental_uris":{"android":"levelo://app?vid=e7ead618-cc2b-4c53-bc61-330caff21889","ios":"levelo://app?vid=e7ead618-cc2b-4c53-bc61-330caff21889"},"vehicle_type_id":"4","last_reported":1761930605,"current_range_meters":15200,"station_id":"st_d2m65c5bi1j21697t3ng","pricing_plan_id":"cebpf4jnsgd1na2vs0mg"},{"bike_id":"aad731fe-f402-47a2-a9e2-d1ab53621c21","system_id":"levelo_inurba_marseille","lat":43.23791,"lon":5.36631,"is_reserved":false,"is_disabled":false,"rental_uris":{"android":"levelo://app?vid=aad731fe-f402-47a2-a9e2-d1ab53621c21","ios":"levelo://app?vid=aad731fe-f402-47a2-a9e2-d1ab53621c21"},"vehicle_type_id":"4","last_reported":1761930605,"current_range_meters":15200,"station_id":"st_d3nk18o9ro0c73en2l3g","pricing_plan_id":"cebpf4jnsgd1na2vs0mg"},{"bike_id":"e6c9af99-4d07-4efc-bc98-99f722172a66","system_id":"levelo_inurba_marseille","lat":43.28894,"lon":5.35945,"is_reserved":false,"is_disabled":false,"rental_uris":{"android":"levelo://app?vid=e6c9af99-4d07-4efc-bc98-99f722172a66","ios":"levelo://app?vid=e6c9af99-4d07-4efc-bc98-99f722172a66"},"vehicle_type_id":"4","last_reported":1761930605,"current_range_meters":15200,"station_id":"ce4bhb12rcd13ifvqem0","pricing_plan_id":"cebpf4jnsgd1na2vs0mg"},{"bike_id":"1efe91f2-751a-4974-9809-36dfcb4d93be","system_id":"levelo_inurba_marseille","lat":43.31494,"lon":5.37314,"is_reserved":false,"is_disabled":false,"rental_uris":{"android":"levelo://app?vid=1efe91f2-751a-4974-9809-36dfcb4d93be","ios":"levelo://app?vid=1efe91f2-751a-4974-9809-36dfcb4d93be"},"vehicle_type_id":"4","last_reported":1761930605,"current_range_meters":15200,"station_id":"ce4bgt12rcd13ifvqcd0","pricing_plan_id":"cebpf4jnsgd1na2vs0mg"},{"bike_id":"b0852786-bfa9-4864-916a-b4fd4b2d1be0","system_id":"levelo_inurba_marseille","lat":43.2552,"lon":5.37636,"is_reserved":false,"is_disabled":false,"rental_uris":{"android":"levelo://app?vid=b0852786-bfa9-4864-916a-b4fd4b2d1be0","ios":"levelo://app?vid=b0852786-bfa9-4864-916a-b4fd4b2d1be0"},"vehicle_type_id":"4","last_reported":1761930605,"current_range_meters":16000,"station_id":"ce4bhh12rcd13ifvqff0","pricing_plan_id":"cebpf4jnsgd1na2vs0mg"},{"bike_id":"a75d1733-e924-4164-ac68-b9098c601cf7","system_id":"levelo_inurba_marseille","lat":43.269395,"lon":5.402528,"is_reserved":false,"is_disabled":false,"rental_uris":{"android":"levelo://app?vid=a75d1733-e924-4164-ac68-b9098c601cf7","ios":"levelo://app?vid=a75d1733-e924-4164-ac68-b9098c601cf7"},"vehicle_type_id":"4","last_reported":1761930605,"current_range_meters":16000,"station_id":"cjm6bp8fraef2m0cb0m0","pricing_plan_id":"cebpf4jnsgd1na2vs0mg"},{"bike_id":"b1e81361-2b17-4ef1-8a58-6def5753471b","system_id":"levelo_inurba_marseille","lat":43.33753,"lon":5.37484,"is_reserved":false,"is_disabled":false,"rental_uris":{"android":"levelo://app?vid=b1e81361-2b17-4ef1-8a58-6def5753471b","ios":"levelo://app?vid=b1e81361-2b17-4ef1-8a58-6def5753471b"},"vehicle_type_id":"4","last_reported":1761930605,"current_range_meters":16000,"station_id":"","pricing_plan_id":"cebpf4jnsgd1na2vs0mg"},{"bike_id":"b0549528-3892-4d0c-980f-77875c19c975","system_id":"levelo_inurba_marseille","lat":43.306,"lon":5.37214,"is_reserved":false,"is_disabled":false,"rental_uris":{"android":"levelo://app?vid=b0549528-3892-4d0c-980f-77875c19c975","ios":"levelo://app?vid=b0549528-3892-4d0c-980f-77875c19c975"},"vehicle_type_id":"4","last_reported":1761930605,"current_range_meters":16000,"station_id":"ce4bgqh2rcd13ifvqc4g","pricing_plan_id":"cebpf4jnsgd1na2vs0mg"},{"bike_id":"52b117f2-4c01-4f66-887d-006722496528","system_id":"levelo_inurba_marseille","lat":43.30874,"lon":5.37142,"is_reserved":false,"is_disabled":false,"rental_uris":{"android":"levelo://app?vid=52b117f2-4c01-4f66-887d-006722496528","ios":"levelo://app?vid=52b117f2-4c01-4f66-887d-006722496528"},"vehicle_type_id":"4","last_reported":1761930605,"current_range_meters":16000,"station_id":"ce4bguh2rcd13ifvqckg","pricing_plan_id":"cebpf4jnsgd1na2vs0mg"},{"bike_id":"6ca06aef-8021-451f-972b-d955051fb340","system_id":"levelo_inurba_marseille","lat":43.30137,"lon":5.37405,"is_reserved":false,"is_disabled":false,"rental_uris":{"android":"levelo://app?vid=6ca06aef-8021-451f-972b-d955051fb340","ios":"levelo://app?vid=6ca06aef-8021-451f-972b-d955051fb340"},"vehicle_type_id":"4","last_reported":1761930605,"current_range_meters":16000,"station_id":"ce4bgs92rcd13ifvqcc0","pricing_plan_id":"cebpf4jnsgd1na2vs0mg"},{"bike_id":"b763d509-3665-488d-b29d-e564cdd66a56","system_id":"levelo_inurba_marseille","lat":43.29056,"lon":5.37145,"is_reserved":false,"is_disabled":false,"rental_uris":{"android":"levelo://app?vid=b763d509-3665-488d-b29d-e564cdd66a56","ios":"levelo://app?vid=b763d509-3665-488d-b29d-e564cdd66a56"},"vehicle_type_id":"4","last_reported":1761930605,"current_range_meters":16000,"station_id":"ce4bh5p2rcd13ifvqe4g","pricing_plan_id":"cebpf4jnsgd1na2vs0mg"},{"bike_id":"d437dfbc-8590-4fac-8e0d-a2c113af094b","system_id":"levelo_inurba_marseille","lat":43.27056,"lon":5.40261,"is_reserved":false,"is_disabled":false,"rental_uris":{"android":"levelo://app?vid=d437dfbc-8590-4fac-8e0d-a2c113af094b","ios":"levelo://app?vid=d437dfbc-8590-4fac-8e0d-a2c113af094b"},"vehicle_type_id":"4","last_reported":1761930605,"current_range_meters":16000,"station_id":"ce4bhk92rcd13ifvqgc0","pricing_plan_id":"cebpf4jnsgd1na2vs0mg"},{"bike_id":"7eecfec4-9486-4798-bcc8-beee8aad3152","system_id":"levelo_inurba_marseille","lat":43.305538,"lon":5.365525,"is_reserved":false,"is_disabled":false,"rental_uris":{"android":"levelo://app?vid=7eecfec4-9486-4798-bcc8-beee8aad3152","ios":"levelo://app?vid=7eecfec4-9486-4798-bcc8-beee8aad3152"},"vehicle_type_id":"4","last_reported":1761930605,"current_range_meters":16400,"station_id":"ce4bgs12rcd13ifvqcag","pricing_plan_id":"cebpf4jnsgd1na2vs0mg"},{"bike_id":"719cab00-fc05-4a10-b7e7-f67576adad60","system_id":"levelo_inurba_marseille","lat":43.23162,"lon":5.43689,"is_reserved":false,"is_disabled":false,"rental_uris":{"android":"levelo://app?vid=719cab00-fc05-4a10-b7e7-f67576adad60","ios":"levelo://app?vid=719cab00-fc05-4a10-b7e7-f67576adad60"},"vehicle_type_id":"4","last_reported":1761930605,"current_range_meters":16400,"station_id":"ce4bhmp2rcd13ifvqgog","pricing_plan_id":"cebpf4jnsgd1na2vs0mg"},{"bike_id":"0a45e206-cb9c-4814-a99a-ac4e6c1f2534","system_id":"levelo_inurba_marseille","lat":43.31999,"lon":5.38167,"is_reserved":false,"is_disabled":false,"rental_uris":{"android":"levelo://app?vid=0a45e206-cb9c-4814-a99a-ac4e6c1f2534","ios":"levelo://app?vid=0a45e206-cb9c-4814-a99a-ac4e6c1f2534"},"vehicle_type_id":"4","last_reported":1761930605,"current_range_meters":16400,"station_id":"ce4bhr12rcd13ifvqhpg","pricing_plan_id":"cebpf4jnsgd1na2vs0mg"},{"bike_id":"ee689b6d-b417-4e03-aace-a8c95ae60700","system_id":"levelo_inurba_marseille","lat":43.30891,"lon":5.37218,"is_reserved":false,"is_disabled":false,"rental_uris":{"android":"levelo://app?vid=ee689b6d-b417-4e03-aace-a8c95ae60700","ios":"levelo://app?vid=ee689b6d-b417-4e03-aace-a8c95ae60700"},"vehicle_type_id":"4","last_reported":1761930605,"current_range_meters":16400,"station_id":"ce4bguh2rcd13ifvqckg","pricing_plan_id":"cebpf4jnsgd1na2vs0mg"},{"bike_id":"7706a1eb-2457-4a86-a54c-de9a5adc11d8","system_id":"levelo_inurba_marseille","lat":43.337444,"lon":5.374475,"is_reserved":false,"is_disabled":false,"rental_uris":{"android":"levelo://app?vid=7706a1eb-2457-4a86-a54c-de9a5adc11d8","ios":"levelo://app?vid=7706a1eb-2457-4a86-a54c-de9a5adc11d8"},"vehicle_type_id":"4","last_reported":1761930605,"current_range_meters":16800,"station_id":"ce4bhnh2rcd13ifvqgug","pricing_plan_id":"cebpf4jnsgd1na2vs0mg"},{"bike_id":"8b032cc8-c06d-4881-a24b-2ba32be757e9","system_id":"levelo_inurba_marseille","lat":43.24659,"lon":5.38156,"is_reserved":false,"is_disabled":false,"rental_uris":{"android":"levelo://app?vid=8b032cc8-c06d-4881-a24b-2ba32be757e9","ios":"levelo://app?vid=8b032cc8-c06d-4881-a24b-2ba32be757e9"},"vehicle_type_id":"4","last_reported":1761930605,"current_range_meters":16800,"station_id":"ce4bhih2rcd13ifvqfr0","pricing_plan_id":"cebpf4jnsgd1na2vs0mg"},{"bike_id":"472a1028-9e29-4e6f-b089-eae1dc72cf56","system_id":"levelo_inurba_marseille","lat":43.23066,"lon":5.35502,"is_reserved":false,"is_disabled":false,"rental_uris":{"android":"levelo://app?vid=472a1028-9e29-4e6f-b089-eae1dc72cf56","ios":"levelo://app?vid=472a1028-9e29-4e6f-b089-eae1dc72cf56"},"vehicle_type_id":"4","last_reported":1761930605,"current_range_meters":16800,"station_id":"cpo3342slgdg3j2ifvpg","pricing_plan_id":"cebpf4jnsgd1na2vs0mg"},{"bike_id":"29add79c-b4eb-482f-a0cb-a703c21fff90","system_id":"levelo_inurba_marseille","lat":43.2945,"lon":5.39744,"is_reserved":false,"is_disabled":false,"rental_uris":{"android":"levelo://app?vid=29add79c-b4eb-482f-a0cb-a703c21fff90","ios":"levelo://app?vid=29add79c-b4eb-482f-a0cb-a703c21fff90"},"vehicle_type_id":"4","last_reported":1761930605,"current_range_meters":16800,"station_id":"ce4bh3h2rcd13ifvqdo0","pricing_plan_id":"cebpf4jnsgd1na2vs0mg"},{"bike_id":"436c5184-4206-42f3-89dc-e8288cae5c96","system_id":"levelo_inurba_marseille","lat":43.25342,"lon":5.4218,"is_reserved":false,"is_disabled":false,"rental_uris":{"android":"levelo://app?vid=436c5184-4206-42f3-89dc-e8288cae5c96","ios":"levelo://app?vid=436c5184-4206-42f3-89dc-e8288cae5c96"},"vehicle_type_id":"4","last_reported":1761930605,"current_range_meters":17200,"station_id":"st_d2m65c5bi1j21697t3ng","pricing_plan_id":"cebpf4jnsgd1na2vs0mg"},{"bike_id":"1525da43-bbbc-4540-8b2b-73a267e8c237","system_id":"levelo_inurba_marseille","lat":43.28953,"lon":5.364,"is_reserved":false,"is_disabled":false,"rental_uris":{"android":"levelo://app?vid=1525da43-bbbc-4540-8b2b-73a267e8c237","ios":"levelo://app?vid=1525da43-bbbc-4540-8b2b-73a267e8c237"},"vehicle_type_id":"4","last_reported":1761930605,"current_range_meters":17200,"station_id":"ce4bhc92rcd13ifvqetg","pricing_plan_id":"cebpf4jnsgd1na2vs0mg"},{"bike_id":"d6bad775-05fe-4492-914a-5060a4cb4f91","system_id":"levelo_inurba_marseille","lat":43.245493,"lon":5.395248,"is_reserved":false,"is_disabled":false,"rental_uris":{"android":"levelo://app?vid=d6bad775-05fe-4492-914a-5060a4cb4f91","ios":"levelo://app?vid=d6bad775-05fe-4492-914a-5060a4cb4f91"},"vehicle_type_id":"4","last_reported":1761930605,"current_range_meters":17200,"station_id":"ce4bhlp2rcd13ifvqgjg","pricing_plan_id":"cebpf4jnsgd1na2vs0mg"},{"bike_id":"e04f332d-b41c-47fd-b12f-6fdc7d63f429","system_id":"levelo_inurba_marseille","lat":43.30844,"lon":5.38282,"is_reserved":false,"is_disabled":false,"rental_uris":{"android":"levelo://app?vid=e04f332d-b41c-47fd-b12f-6fdc7d63f429","ios":"levelo://app?vid=e04f332d-b41c-47fd-b12f-6fdc7d63f429"},"vehicle_type_id":"4","last_reported":1761930605,"current_range_meters":17200,"station_id":"","pricing_plan_id":"cebpf4jnsgd1na2vs0mg"},{"bike_id":"4fb69541-ee29-49d4-bd95-b443c944071c","system_id":"levelo_inurba_marseille","lat":43.29519,"lon":5.39042,"is_reserved":false,"is_disabled":false,"rental_uris":{"android":"levelo://app?vid=4fb69541-ee29-49d4-bd95-b443c944071c","ios":"levelo://app?vid=4fb69541-ee29-49d4-bd95-b443c944071c"},"vehicle_type_id":"4","last_reported":1761930605,"current_range_meters":17200,"station_id":"ce4bh3p2rcd13ifvqdp0","pricing_plan_id":"cebpf4jnsgd1na2vs0mg"},{"bike_id":"5329277d-b696-4f32-9412-95d13ccb7cbb","system_id":"levelo_inurba_marseille","lat":43.29817,"lon":5.44074,"is_reserved":false,"is_disabled":false,"rental_uris":{"android":"levelo://app?vid=5329277d-b696-4f32-9412-95d13ccb7cbb","ios":"levelo://app?vid=5329277d-b696-4f32-9412-95d13ccb7cbb"},"vehicle_type_id":"4","last_reported":1761930605,"current_range_meters":17200,"station_id":"st_d3jp68qikq2c7381ktn0","pricing_plan_id":"cebpf4jnsgd1na2vs0mg"},{"bike_id":"c2807477-fd8d-44ed-9bdc-b3f90f0cbde0","system_id":"levelo_inurba_marseille","lat":43.31877,"lon":5.39998,"is_reserved":false,"is_disabled":false,"rental_uris":{"android":"levelo://app?vid=c2807477-fd8d-44ed-9bdc-b3f90f0cbde0","ios":"levelo://app?vid=c2807477-fd8d-44ed-9bdc-b3f90f0cbde0"},"vehicle_type_id":"4","last_reported":1761930605,"current_range_meters":17200,"station_id":"","pricing_plan_id":"cebpf4jnsgd1na2vs0mg"},{"bike_id":"45b1e147-9b3f-461c-a002-a4981475e30b","system_id":"levelo_inurba_marseille","lat":43.32366,"lon":5.38889,"is_reserved":false,"is_disabled":false,"rental_uris":{"android":"levelo://app?vid=45b1e147-9b3f-461c-a002-a4981475e30b","ios":"levelo://app?vid=45b1e147-9b3f-461c-a002-a4981475e30b"},"vehicle_type_id":"4","last_reported":1761930605,"current_range_meters":17200,"station_id":"ce4bhqp2rcd13ifvqhog","pricing_plan_id":"cebpf4jnsgd1na2vs0mg"},{"bike_id":"9cbcd6ff-847f-4159-95f1-7aa4063d3ed3","system_id":"levelo_inurba_marseille","lat":43.28376,"lon":5.3811,"is_reserved":false,"is_disabled":false,"rental_uris":{"android":"levelo://app?vid=9cbcd6ff-847f-4159-95f1-7aa4063d3ed3","ios":"levelo://app?vid=9cbcd6ff-847f-4159-95f1-7aa4063d3ed3"},"vehicle_type_id":"4","last_reported":1761930605,"current_range_meters":17200,"station_id":"ce4bh412rcd13ifvqdr0","pricing_plan_id":"cebpf4jnsgd1na2vs0mg"},{"bike_id":"a5e0a9e7-2930-4ebf-aa40-5e9ef3fa0368","system_id":"levelo_inurba_marseille","lat":43.23146,"lon":5.43713,"is_reserved":false,"is_disabled":false,"rental_uris":{"android":"levelo://app?vid=a5e0a9e7-2930-4ebf-aa40-5e9ef3fa0368","ios":"levelo://app?vid=a5e0a9e7-2930-4ebf-aa40-5e9ef3fa0368"},"vehicle_type_id":"4","last_reported":1761930605,"current_range_meters":17200,"station_id":"ce4bhmp2rcd13ifvqgog","pricing_plan_id":"cebpf4jnsgd1na2vs0mg"},{"bike_id":"c2e6cc84-3800-479a-8ca8-3397d51ecf24","system_id":"levelo_inurba_marseille","lat":43.296265,"lon":5.377171,"is_reserved":false,"is_disabled":false,"rental_uris":{"android":"levelo://app?vid=c2e6cc84-3800-479a-8ca8-3397d51ecf24","ios":"levelo://app?vid=c2e6cc84-3800-479a-8ca8-3397d51ecf24"},"vehicle_type_id":"4","last_reported":1761930605,"current_range_meters":17200,"station_id":"ce4bgi92rcd13ifvqb90","pricing_plan_id":"cebpf4jnsgd1na2vs0mg"},{"bike_id":"7c33a778-4ea3-4b88-be12-617478392c35","system_id":"levelo_inurba_marseille","lat":43.28925,"lon":5.38408,"is_reserved":false,"is_disabled":false,"rental_uris":{"android":"levelo://app?vid=7c33a778-4ea3-4b88-be12-617478392c35","ios":"levelo://app?vid=7c33a778-4ea3-4b88-be12-617478392c35"},"vehicle_type_id":"4","last_reported":1761930605,"current_range_meters":17200,"station_id":"ce4bh612rcd13ifvqe6g","pricing_plan_id":"cebpf4jnsgd1na2vs0mg"},{"bike_id":"e97bd841-a757-4f02-af2a-2c6920cfa105","system_id":"levelo_inurba_marseille","lat":43.28151,"lon":5.42638,"is_reserved":false,"is_disabled":false,"rental_uris":{"android":"levelo://app?vid=e97bd841-a757-4f02-af2a-2c6920cfa105","ios":"levelo://app?vid=e97bd841-a757-4f02-af2a-2c6920cfa105"},"vehicle_type_id":"4","last_reported":1761930605,"current_range_meters":17600,"station_id":"ce4bhnh2rcd13ifvqgug","pricing_plan_id":"cebpf4jnsgd1na2vs0mg"},{"bike_id":"ced8b747-e5ab-4e7a-b1f4-22a1ebc20f6f","system_id":"levelo_inurba_marseille","lat":43.30792,"lon":5.37655,"is_reserved":false,"is_disabled":true,"rental_uris":{"android":"levelo://app?vid=ced8b747-e5ab-4e7a-b1f4-22a1ebc20f6f","ios":"levelo://app?vid=ced8b747-e5ab-4e7a-b1f4-22a1ebc20f6f"},"vehicle_type_id":"4","last_reported":1761930605,"current_range_meters":17600,"station_id":"ce4bgv92rcd13ifvqcq0","pricing_plan_id":"cebpf4jnsgd1na2vs0mg"},{"bike_id":"09530a09-1150-44dd-83b6-74f680af0c3d","system_id":"levelo_inurba_marseille","lat":43.28698,"lon":5.37395,"is_reserved":false,"is_disabled":false,"rental_uris":{"android":"levelo://app?vid=09530a09-1150-44dd-83b6-74f680af0c3d","ios":"levelo://app?vid=09530a09-1150-44dd-83b6-74f680af0c3d"},"vehicle_type_id":"4","last_reported":1761930605,"current_range_meters":17600,"station_id":"ce4bh3p2rcd13ifvqdq0","pricing_plan_id":"cebpf4jnsgd1na2vs0mg"},{"bike_id":"c04ea6ec-c85d-4b9a-aa74-f0de2415a6d2","system_id":"levelo_inurba_marseille","lat":43.31552,"lon":5.3838,"is_reserved":false,"is_disabled":false,"rental_uris":{"android":"levelo://app?vid=c04ea6ec-c85d-4b9a-aa74-f0de2415a6d2","ios":"levelo://app?vid=c04ea6ec-c85d-4b9a-aa74-f0de2415a6d2"},"vehicle_type_id":"4","last_reported":1761930605,"current_range_meters":17600,"station_id":"","pricing_plan_id":"cebpf4jnsgd1na2vs0mg"},{"bike_id":"becbc939-b35d-42dc-9c44-eff774fe6eaf","system_id":"levelo_inurba_marseille","lat":43.30373,"lon":5.42482,"is_reserved":false,"is_disabled":false,"rental_uris":{"android":"levelo://app?vid=becbc939-b35d-42dc-9c44-eff774fe6eaf","ios":"levelo://app?vid=becbc939-b35d-42dc-9c44-eff774fe6eaf"},"vehicle_type_id":"4","last_reported":1761930605,"current_range_meters":17600,"station_id":"ce4bhoh2rcd13ifvqh6g","pricing_plan_id":"cebpf4jnsgd1na2vs0mg"},{"bike_id":"4fd9f5aa-a2d3-48e0-aee2-704d6db584ac","system_id":"levelo_inurba_marseille","lat":43.254997,"lon":5.376498,"is_reserved":false,"is_disabled":false,"rental_uris":{"android":"levelo://app?vid=4fd9f5aa-a2d3-48e0-aee2-704d6db584ac","ios":"levelo://app?vid=4fd9f5aa-a2d3-48e0-aee2-704d6db584ac"},"vehicle_type_id":"4","last_reported":1761930605,"current_range_meters":17600,"station_id":"ce4bhh12rcd13ifvqff0","pricing_plan_id":"cebpf4jnsgd1na2vs0mg"},{"bike_id":"77a2e215-27c9-4728-a0ea-fe9a128124ac","system_id":"levelo_inurba_marseille","lat":43.29701,"lon":5.376811,"is_reserved":false,"is_disabled":false,"rental_uris":{"android":"levelo://app?vid=77a2e215-27c9-4728-a0ea-fe9a128124ac","ios":"levelo://app?vid=77a2e215-27c9-4728-a0ea-fe9a128124ac"},"vehicle_type_id":"4","last_reported":1761930605,"current_range_meters":17600,"station_id":"ce4bgkh2rcd13ifvqbl0","pricing_plan_id":"cebpf4jnsgd1na2vs0mg"},{"bike_id":"6e47d07f-a213-4ab9-be32-be9f167e419b","system_id":"levelo_inurba_marseille","lat":43.279418,"lon":5.410508,"is_reserved":false,"is_disabled":false,"rental_uris":{"android":"levelo://app?vid=6e47d07f-a213-4ab9-be32-be9f167e419b","ios":"levelo://app?vid=6e47d07f-a213-4ab9-be32-be9f167e419b"},"vehicle_type_id":"4","last_reported":1761930605,"current_range_meters":18000,"station_id":"ce4bhnp2rcd13ifvqh0g","pricing_plan_id":"cebpf4jnsgd1na2vs0mg"},{"bike_id":"f4138efc-7778-4d94-abf8-053b4cd27475","system_id":"levelo_inurba_marseille","lat":43.23202,"lon":5.35552,"is_reserved":false,"is_disabled":false,"rental_uris":{"android":"levelo://app?vid=f4138efc-7778-4d94-abf8-053b4cd27475","ios":"levelo://app?vid=f4138efc-7778-4d94-abf8-053b4cd27475"},"vehicle_type_id":"4","last_reported":1761930605,"current_range_meters":18000,"station_id":"ce4bhu92rcd13ifvqi70","pricing_plan_id":"cebpf4jnsgd1na2vs0mg"},{"bike_id":"2dd8674b-f416-441c-b99c-92b52121bd0a","system_id":"levelo_inurba_marseille","lat":43.29771,"lon":5.3702,"is_reserved":false,"is_disabled":false,"rental_uris":{"android":"levelo://app?vid=2dd8674b-f416-441c-b99c-92b52121bd0a","ios":"levelo://app?vid=2dd8674b-f416-441c-b99c-92b52121bd0a"},"vehicle_type_id":"4","last_reported":1761930605,"current_range_meters":18000,"station_id":"","pricing_plan_id":"cebpf4jnsgd1na2vs0mg"},{"bike_id":"8e24cd7d-b761-40a6-9518-fdce8867abba","system_id":"levelo_inurba_marseille","lat":43.3136,"lon":5.38496,"is_reserved":false,"is_disabled":false,"rental_uris":{"android":"levelo://app?vid=8e24cd7d-b761-40a6-9518-fdce8867abba","ios":"levelo://app?vid=8e24cd7d-b761-40a6-9518-fdce8867abba"},"vehicle_type_id":"4","last_reported":1761930605,"current_range_meters":18000,"station_id":"ce4bgt92rcd13ifvqcf0","pricing_plan_id":"cebpf4jnsgd1na2vs0mg"},{"bike_id":"9b7a1d3b-205d-4638-a9e0-37cf69894eae","system_id":"levelo_inurba_marseille","lat":43.28143,"lon":5.42633,"is_reserved":false,"is_disabled":false,"rental_uris":{"android":"levelo://app?vid=9b7a1d3b-205d-4638-a9e0-37cf69894eae","ios":"levelo://app?vid=9b7a1d3b-205d-4638-a9e0-37cf69894eae"},"vehicle_type_id":"4","last_reported":1761930605,"current_range_meters":18000,"station_id":"ce4bhnh2rcd13ifvqgug","pricing_plan_id":"cebpf4jnsgd1na2vs0mg"},{"bike_id":"7a2fb602-aae8-4a11-8a3f-739de3062312","system_id":"levelo_inurba_marseille","lat":43.26209,"lon":5.37439,"is_reserved":false,"is_disabled":false,"rental_uris":{"android":"levelo://app?vid=7a2fb602-aae8-4a11-8a3f-739de3062312","ios":"levelo://app?vid=7a2fb602-aae8-4a11-8a3f-739de3062312"},"vehicle_type_id":"4","last_reported":1761930605,"current_range_meters":18000,"station_id":"ce4bhgp2rcd13ifvqfc0","pricing_plan_id":"cebpf4jnsgd1na2vs0mg"},{"bike_id":"6463223a-42f8-4992-8b0f-1506866e054e","system_id":"levelo_inurba_marseille","lat":43.24676,"lon":5.38158,"is_reserved":false,"is_disabled":false,"rental_uris":{"android":"levelo://app?vid=6463223a-42f8-4992-8b0f-1506866e054e","ios":"levelo://app?vid=6463223a-42f8-4992-8b0f-1506866e054e"},"vehicle_type_id":"4","last_reported":1761930605,"current_range_meters":18000,"station_id":"ce4bhih2rcd13ifvqfr0","pricing_plan_id":"cebpf4jnsgd1na2vs0mg"},{"bike_id":"ebfb452f-d953-4d55-89f1-158485ccc478","system_id":"levelo_inurba_marseille","lat":43.29287,"lon":5.36847,"is_reserved":false,"is_disabled":false,"rental_uris":{"android":"levelo://app?vid=ebfb452f-d953-4d55-89f1-158485ccc478","ios":"levelo://app?vid=ebfb452f-d953-4d55-89f1-158485ccc478"},"vehicle_type_id":"4","last_reported":1761930605,"current_range_meters":18000,"station_id":"ce4bhbp2rcd13ifvqesg","pricing_plan_id":"cebpf4jnsgd1na2vs0mg"},{"bike_id":"6da830a8-111a-4fc5-a34c-ced64d9d2dc3","system_id":"levelo_inurba_marseille","lat":43.30605,"lon":5.3936,"is_reserved":false,"is_disabled":true,"rental_uris":{"android":"levelo://app?vid=6da830a8-111a-4fc5-a34c-ced64d9d2dc3","ios":"levelo://app?vid=6da830a8-111a-4fc5-a34c-ced64d9d2dc3"},"vehicle_type_id":"4","last_reported":1761930605,"current_range_meters":18000,"station_id":"ce4bh0p2rcd13ifvqd80","pricing_plan_id":"cebpf4jnsgd1na2vs0mg"},{"bike_id":"fbcc5886-69e3-488f-96fd-e45314a075e6","system_id":"levelo_inurba_marseille","lat":43.288622,"lon":5.425231,"is_reserved":false,"is_disabled":false,"rental_uris":{"android":"levelo://app?vid=fbcc5886-69e3-488f-96fd-e45314a075e6","ios":"levelo://app?vid=fbcc5886-69e3-488f-96fd-e45314a075e6"},"vehicle_type_id":"4","last_reported":1761930605,"current_range_meters":18000,"station_id":"st_d3b462108ojc7389ooeg","pricing_plan_id":"cebpf4jnsgd1na2vs0mg"},{"bike_id":"1139417e-afdd-463e-a8ae-f1421cd09249","system_id":"levelo_inurba_marseille","lat":43.2953,"lon":5.385401,"is_reserved":false,"is_disabled":false,"rental_uris":{"android":"levelo://app?vid=1139417e-afdd-463e-a8ae-f1421cd09249","ios":"levelo://app?vid=1139417e-afdd-463e-a8ae-f1421cd09249"},"vehicle_type_id":"4","last_reported":1761930605,"current_range_meters":18000,"station_id":"ce4bgih2rcd13ifvqba0","pricing_plan_id":"cebpf4jnsgd1na2vs0mg"},{"bike_id":"9e32e8fe-f609-4380-85af-3a009f0c35e8","system_id":"levelo_inurba_marseille","lat":43.23183,"lon":5.39992,"is_reserved":false,"is_disabled":false,"rental_uris":{"android":"levelo://app?vid=9e32e8fe-f609-4380-85af-3a009f0c35e8","ios":"levelo://app?vid=9e32e8fe-f609-4380-85af-3a009f0c35e8"},"vehicle_type_id":"4","last_reported":1761930605,"current_range_meters":18800,"station_id":"ce4bhn12rcd13ifvqgqg","pricing_plan_id":"cebpf4jnsgd1na2vs0mg"},{"bike_id":"ab317b96-30d0-46ca-bbf5-30dabb1d91eb","system_id":"levelo_inurba_marseille","lat":43.305411,"lon":5.365374,"is_reserved":false,"is_disabled":false,"rental_uris":{"android":"levelo://app?vid=ab317b96-30d0-46ca-bbf5-30dabb1d91eb","ios":"levelo://app?vid=ab317b96-30d0-46ca-bbf5-30dabb1d91eb"},"vehicle_type_id":"4","last_reported":1761930605,"current_range_meters":18800,"station_id":"ce4bgs12rcd13ifvqcag","pricing_plan_id":"cebpf4jnsgd1na2vs0mg"},{"bike_id":"b6c2280b-9197-4364-9d1c-a34e9ebf69e1","system_id":"levelo_inurba_marseille","lat":43.294379,"lon":5.397318,"is_reserved":false,"is_disabled":false,"rental_uris":{"android":"levelo://app?vid=b6c2280b-9197-4364-9d1c-a34e9ebf69e1","ios":"levelo://app?vid=b6c2280b-9197-4364-9d1c-a34e9ebf69e1"},"vehicle_type_id":"4","last_reported":1761930605,"current_range_meters":18800,"station_id":"ce4bh3h2rcd13ifvqdo0","pricing_plan_id":"cebpf4jnsgd1na2vs0mg"},{"bike_id":"3fc33beb-0ec0-47c6-acb2-a952e43c09df","system_id":"levelo_inurba_marseille","lat":43.29874,"lon":5.39734,"is_reserved":false,"is_disabled":false,"rental_uris":{"android":"levelo://app?vid=3fc33beb-0ec0-47c6-acb2-a952e43c09df","ios":"levelo://app?vid=3fc33beb-0ec0-47c6-acb2-a952e43c09df"},"vehicle_type_id":"4","last_reported":1761930605,"current_range_meters":18800,"station_id":"ce4bh0h2rcd13ifvqd50","pricing_plan_id":"cebpf4jnsgd1na2vs0mg"},{"bike_id":"534b0760-5149-434a-8dfc-6afa51c23136","system_id":"levelo_inurba_marseille","lat":43.23186,"lon":5.39986,"is_reserved":false,"is_disabled":false,"rental_uris":{"android":"levelo://app?vid=534b0760-5149-434a-8dfc-6afa51c23136","ios":"levelo://app?vid=534b0760-5149-434a-8dfc-6afa51c23136"},"vehicle_type_id":"4","last_reported":1761930605,"current_range_meters":18800,"station_id":"ce4bhn12rcd13ifvqgqg","pricing_plan_id":"cebpf4jnsgd1na2vs0mg"},{"bike_id":"26651986-1d25-45cd-b392-1917e3850370","system_id":"levelo_inurba_marseille","lat":43.28,"lon":5.40019,"is_reserved":false,"is_disabled":false,"rental_uris":{"android":"levelo://app?vid=26651986-1d25-45cd-b392-1917e3850370","ios":"levelo://app?vid=26651986-1d25-45cd-b392-1917e3850370"},"vehicle_type_id":"4","last_reported":1761930605,"current_range_meters":18800,"station_id":"ce4bho92rcd13ifvqh4g","pricing_plan_id":"cebpf4jnsgd1na2vs0mg"},{"bike_id":"0089665c-d050-4f0d-8d27-e9a6af9208fc","system_id":"levelo_inurba_marseille","lat":43.3019,"lon":5.38047,"is_reserved":false,"is_disabled":false,"rental_uris":{"android":"levelo://app?vid=0089665c-d050-4f0d-8d27-e9a6af9208fc","ios":"levelo://app?vid=0089665c-d050-4f0d-8d27-e9a6af9208fc"},"vehicle_type_id":"4","last_reported":1761930605,"current_range_meters":18800,"station_id":"","pricing_plan_id":"cebpf4jnsgd1na2vs0mg"},{"bike_id":"252ff558-e70b-4ae0-9044-acc668b445bb","system_id":"levelo_inurba_marseille","lat":43.21192,"lon":5.35072,"is_reserved":false,"is_disabled":false,"rental_uris":{"android":"levelo://app?vid=252ff558-e70b-4ae0-9044-acc668b445bb","ios":"levelo://app?vid=252ff558-e70b-4ae0-9044-acc668b445bb"},"vehicle_type_id":"4","last_reported":1761930605,"current_range_meters":18800,"station_id":"st_cvj6sg6p6f1abm77japg","pricing_plan_id":"cebpf4jnsgd1na2vs0mg"},{"bike_id":"24ca76ae-b04d-4a2e-8a7e-638101e2ad8f","system_id":"levelo_inurba_marseille","lat":43.26502,"lon":5.39539,"is_reserved":false,"is_disabled":false,"rental_uris":{"android":"levelo://app?vid=24ca76ae-b04d-4a2e-8a7e-638101e2ad8f","ios":"levelo://app?vid=24ca76ae-b04d-4a2e-8a7e-638101e2ad8f"},"vehicle_type_id":"4","last_reported":1761930605,"current_range_meters":19200,"station_id":"ce4bhi12rcd13ifvqfq0","pricing_plan_id":"cebpf4jnsgd1na2vs0mg"},{"bike_id":"2819da96-e74b-4499-817d-c62867e34f4e","system_id":"levelo_inurba_marseille","lat":43.29846,"lon":5.36276,"is_reserved":false,"is_disabled":false,"rental_uris":{"android":"levelo://app?vid=2819da96-e74b-4499-817d-c62867e34f4e","ios":"levelo://app?vid=2819da96-e74b-4499-817d-c62867e34f4e"},"vehicle_type_id":"4","last_reported":1761930605,"current_range_meters":19200,"station_id":"ce4bgpp2rcd13ifvqc3g","pricing_plan_id":"cebpf4jnsgd1na2vs0mg"},{"bike_id":"c01b5bce-5f6b-46d4-9559-1b2e60662819","system_id":"levelo_inurba_marseille","lat":43.295258,"lon":5.393954,"is_reserved":false,"is_disabled":false,"rental_uris":{"android":"levelo://app?vid=c01b5bce-5f6b-46d4-9559-1b2e60662819","ios":"levelo://app?vid=c01b5bce-5f6b-46d4-9559-1b2e60662819"},"vehicle_type_id":"4","last_reported":1761930605,"current_range_meters":19200,"station_id":"ce4bh292rcd13ifvqdf0","pricing_plan_id":"cebpf4jnsgd1na2vs0mg"},{"bike_id":"f4a661b0-35bc-4923-95ca-e3cfd27ab2e3","system_id":"levelo_inurba_marseille","lat":43.31181,"lon":5.38715,"is_reserved":false,"is_disabled":false,"rental_uris":{"android":"levelo://app?vid=f4a661b0-35bc-4923-95ca-e3cfd27ab2e3","ios":"levelo://app?vid=f4a661b0-35bc-4923-95ca-e3cfd27ab2e3"},"vehicle_type_id":"4","last_reported":1761930605,"current_range_meters":19200,"station_id":"ce4bgv12rcd13ifvqcp0","pricing_plan_id":"cebpf4jnsgd1na2vs0mg"},{"bike_id":"0c3bfe72-1bfa-4fe4-8ec1-abc531b0b6c5","system_id":"levelo_inurba_marseille","lat":43.26553,"lon":5.37287,"is_reserved":false,"is_disabled":true,"rental_uris":{"android":"levelo://app?vid=0c3bfe72-1bfa-4fe4-8ec1-abc531b0b6c5","ios":"levelo://app?vid=0c3bfe72-1bfa-4fe4-8ec1-abc531b0b6c5"},"vehicle_type_id":"4","last_reported":1761930605,"current_range_meters":19200,"station_id":"ce4bhg12rcd13ifvqf70","pricing_plan_id":"cebpf4jnsgd1na2vs0mg"},{"bike_id":"42e0ba4a-7bd7-45d6-847c-f3f3e0d3d4f3","system_id":"levelo_inurba_marseille","lat":43.309193,"lon":5.36734,"is_reserved":false,"is_disabled":false,"rental_uris":{"android":"levelo://app?vid=42e0ba4a-7bd7-45d6-847c-f3f3e0d3d4f3","ios":"levelo://app?vid=42e0ba4a-7bd7-45d6-847c-f3f3e0d3d4f3"},"vehicle_type_id":"4","last_reported":1761930605,"current_range_meters":19200,"station_id":"ce4bgn92rcd13ifvqbvg","pricing_plan_id":"cebpf4jnsgd1na2vs0mg"},{"bike_id":"cd863979-95f7-4e5c-a2c4-d0799c22e8f1","system_id":"levelo_inurba_marseille","lat":43.28862,"lon":5.42521,"is_reserved":false,"is_disabled":false,"rental_uris":{"android":"levelo://app?vid=cd863979-95f7-4e5c-a2c4-d0799c22e8f1","ios":"levelo://app?vid=cd863979-95f7-4e5c-a2c4-d0799c22e8f1"},"vehicle_type_id":"4","last_reported":1761930605,"current_range_meters":19200,"station_id":"st_d3b462108ojc7389ooeg","pricing_plan_id":"cebpf4jnsgd1na2vs0mg"},{"bike_id":"dca126c0-edcc-40e0-9eaa-49d012c5fab2","system_id":"levelo_inurba_marseille","lat":43.31329,"lon":5.39697,"is_reserved":false,"is_disabled":false,"rental_uris":{"android":"levelo://app?vid=dca126c0-edcc-40e0-9eaa-49d012c5fab2","ios":"levelo://app?vid=dca126c0-edcc-40e0-9eaa-49d012c5fab2"},"vehicle_type_id":"4","last_reported":1761930605,"current_range_meters":19600,"station_id":"ce4bgvp2rcd13ifvqcu0","pricing_plan_id":"cebpf4jnsgd1na2vs0mg"},{"bike_id":"e3fb49f5-399b-4d6f-8db8-5b0bff4d385f","system_id":"levelo_inurba_marseille","lat":43.33767,"lon":5.37428,"is_reserved":false,"is_disabled":false,"rental_uris":{"android":"levelo://app?vid=e3fb49f5-399b-4d6f-8db8-5b0bff4d385f","ios":"levelo://app?vid=e3fb49f5-399b-4d6f-8db8-5b0bff4d385f"},"vehicle_type_id":"4","last_reported":1761930605,"current_range_meters":19600,"station_id":"ce4bh612rcd13ifvqe6g","pricing_plan_id":"cebpf4jnsgd1na2vs0mg"},{"bike_id":"ebf009a1-9035-4f21-95cc-ecac1b35d1de","system_id":"levelo_inurba_marseille","lat":43.2929,"lon":5.3844,"is_reserved":false,"is_disabled":false,"rental_uris":{"android":"levelo://app?vid=ebf009a1-9035-4f21-95cc-ecac1b35d1de","ios":"levelo://app?vid=ebf009a1-9035-4f21-95cc-ecac1b35d1de"},"vehicle_type_id":"4","last_reported":1761930605,"current_range_meters":19600,"station_id":"ce4bh692rcd13ifvqea0","pricing_plan_id":"cebpf4jnsgd1na2vs0mg"},{"bike_id":"49990b43-70ac-436a-b9da-30bec94c85c9","system_id":"levelo_inurba_marseille","lat":43.30431,"lon":5.38903,"is_reserved":false,"is_disabled":false,"rental_uris":{"android":"levelo://app?vid=49990b43-70ac-436a-b9da-30bec94c85c9","ios":"levelo://app?vid=49990b43-70ac-436a-b9da-30bec94c85c9"},"vehicle_type_id":"4","last_reported":1761930605,"current_range_meters":19600,"station_id":"ce4bgk12rcd13ifvqbi0","pricing_plan_id":"cebpf4jnsgd1na2vs0mg"},{"bike_id":"94084d75-b1ec-4cf5-8736-b1d0c7eed7ce","system_id":"levelo_inurba_marseille","lat":43.33024,"lon":5.39041,"is_reserved":false,"is_disabled":false,"rental_uris":{"android":"levelo://app?vid=94084d75-b1ec-4cf5-8736-b1d0c7eed7ce","ios":"levelo://app?vid=94084d75-b1ec-4cf5-8736-b1d0c7eed7ce"},"vehicle_type_id":"4","last_reported":1761930605,"current_range_meters":19600,"station_id":"ce4bhr92rcd13ifvqhrg","pricing_plan_id":"cebpf4jnsgd1na2vs0mg"},{"bike_id":"06bde4a7-497c-469a-9516-37b9f9755e65","system_id":"levelo_inurba_marseille","lat":43.337444,"lon":5.374475,"is_reserved":false,"is_disabled":false,"rental_uris":{"android":"levelo://app?vid=06bde4a7-497c-469a-9516-37b9f9755e65","ios":"levelo://app?vid=06bde4a7-497c-469a-9516-37b9f9755e65"},"vehicle_type_id":"4","last_reported":1761930605,"current_range_meters":19600,"station_id":"ce4bhnh2rcd13ifvqgug","pricing_plan_id":"cebpf4jnsgd1na2vs0mg"},{"bike_id":"32632625-b281-4348-990f-071d78c42b84","system_id":"levelo_inurba_marseille","lat":43.26569,"lon":5.39014,"is_reserved":false,"is_disabled":false,"rental_uris":{"android":"levelo://app?vid=32632625-b281-4348-990f-071d78c42b84","ios":"levelo://app?vid=32632625-b281-4348-990f-071d78c42b84"},"vehicle_type_id":"4","last_reported":1761930605,"current_range_meters":19600,"station_id":"","pricing_plan_id":"cebpf4jnsgd1na2vs0mg"},{"bike_id":"3150b169-6d8b-4786-81cd-4b890da98702","system_id":"levelo_inurba_marseille","lat":43.23791,"lon":5.36627,"is_reserved":false,"is_disabled":false,"rental_uris":{"android":"levelo://app?vid=3150b169-6d8b-4786-81cd-4b890da98702","ios":"levelo://app?vid=3150b169-6d8b-4786-81cd-4b890da98702"},"vehicle_type_id":"4","last_reported":1761930605,"current_range_meters":19600,"station_id":"st_d3nk18o9ro0c73en2l3g","pricing_plan_id":"cebpf4jnsgd1na2vs0mg"},{"bike_id":"bb46de7d-8200-42eb-adab-7d0f8e65cc6f","system_id":"levelo_inurba_marseille","lat":43.31723,"lon":5.42391,"is_reserved":false,"is_disabled":false,"rental_uris":{"android":"levelo://app?vid=bb46de7d-8200-42eb-adab-7d0f8e65cc6f","ios":"levelo://app?vid=bb46de7d-8200-42eb-adab-7d0f8e65cc6f"},"vehicle_type_id":"4","last_reported":1761930605,"current_range_meters":19600,"station_id":"ce4bhp92rcd13ifvqhbg","pricing_plan_id":"cebpf4jnsgd1na2vs0mg"},{"bike_id":"a5f9d115-2eb0-463d-bf65-9070eaddf3fb","system_id":"levelo_inurba_marseille","lat":43.23961,"lon":5.36604,"is_reserved":false,"is_disabled":false,"rental_uris":{"android":"levelo://app?vid=a5f9d115-2eb0-463d-bf65-9070eaddf3fb","ios":"levelo://app?vid=a5f9d115-2eb0-463d-bf65-9070eaddf3fb"},"vehicle_type_id":"4","last_reported":1761930605,"current_range_meters":19600,"station_id":"ce4bhi12rcd13ifvqfp0","pricing_plan_id":"cebpf4jnsgd1na2vs0mg"},{"bike_id":"50c2c89c-4a9b-41f6-af05-b4e430e07029","system_id":"levelo_inurba_marseille","lat":43.24634,"lon":5.43146,"is_reserved":false,"is_disabled":false,"rental_uris":{"android":"levelo://app?vid=50c2c89c-4a9b-41f6-af05-b4e430e07029","ios":"levelo://app?vid=50c2c89c-4a9b-41f6-af05-b4e430e07029"},"vehicle_type_id":"4","last_reported":1761930605,"current_range_meters":19600,"station_id":"st_d2m6c4gdas8pm72e190g","pricing_plan_id":"cebpf4jnsgd1na2vs0mg"},{"bike_id":"601ab938-44ff-4a76-8916-2d5178c1eb2a","system_id":"levelo_inurba_marseille","lat":43.27815,"lon":5.40721,"is_reserved":false,"is_disabled":false,"rental_uris":{"android":"levelo://app?vid=601ab938-44ff-4a76-8916-2d5178c1eb2a","ios":"levelo://app?vid=601ab938-44ff-4a76-8916-2d5178c1eb2a"},"vehicle_type_id":"4","last_reported":1761930605,"current_range_meters":19600,"station_id":"ce4bhnh2rcd13ifvqgtg","pricing_plan_id":"cebpf4jnsgd1na2vs0mg"},{"bike_id":"ded40096-29d4-4fab-86c1-507e302c0ee7","system_id":"levelo_inurba_marseille","lat":43.25337,"lon":5.422,"is_reserved":false,"is_disabled":false,"rental_uris":{"android":"levelo://app?vid=ded40096-29d4-4fab-86c1-507e302c0ee7","ios":"levelo://app?vid=ded40096-29d4-4fab-86c1-507e302c0ee7"},"vehicle_type_id":"4","last_reported":1761930605,"current_range_meters":20000,"station_id":"st_d2m65c5bi1j21697t3ng","pricing_plan_id":"cebpf4jnsgd1na2vs0mg"},{"bike_id":"42986280-bf26-4811-a9b2-0a8ec80f97c8","system_id":"levelo_inurba_marseille","lat":43.30316,"lon":5.40443,"is_reserved":false,"is_disabled":false,"rental_uris":{"android":"levelo://app?vid=42986280-bf26-4811-a9b2-0a8ec80f97c8","ios":"levelo://app?vid=42986280-bf26-4811-a9b2-0a8ec80f97c8"},"vehicle_type_id":"4","last_reported":1761930605,"current_range_meters":20000,"station_id":"ce4bh012rcd13ifvqd10","pricing_plan_id":"cebpf4jnsgd1na2vs0mg"},{"bike_id":"41598790-345d-414f-9e87-720cb432f278","system_id":"levelo_inurba_marseille","lat":43.29477,"lon":5.36227,"is_reserved":false,"is_disabled":false,"rental_uris":{"android":"levelo://app?vid=41598790-345d-414f-9e87-720cb432f278","ios":"levelo://app?vid=41598790-345d-414f-9e87-720cb432f278"},"vehicle_type_id":"4","last_reported":1761930605,"current_range_meters":20000,"station_id":"","pricing_plan_id":"cebpf4jnsgd1na2vs0mg"},{"bike_id":"7715c1d5-4556-43e0-bbfe-3d36e2e44dd3","system_id":"levelo_inurba_marseille","lat":43.28286,"lon":5.35094,"is_reserved":false,"is_disabled":false,"rental_uris":{"android":"levelo://app?vid=7715c1d5-4556-43e0-bbfe-3d36e2e44dd3","ios":"levelo://app?vid=7715c1d5-4556-43e0-bbfe-3d36e2e44dd3"},"vehicle_type_id":"4","last_reported":1761930605,"current_range_meters":20000,"station_id":"ce4bhbp2rcd13ifvqerg","pricing_plan_id":"cebpf4jnsgd1na2vs0mg"},{"bike_id":"b20c261c-0fe7-43f2-88df-0edc8eec5a18","system_id":"levelo_inurba_marseille","lat":43.31272,"lon":5.41205,"is_reserved":false,"is_disabled":false,"rental_uris":{"android":"levelo://app?vid=b20c261c-0fe7-43f2-88df-0edc8eec5a18","ios":"levelo://app?vid=b20c261c-0fe7-43f2-88df-0edc8eec5a18"},"vehicle_type_id":"4","last_reported":1761930605,"current_range_meters":20000,"station_id":"ce4bhp92rcd13ifvqhcg","pricing_plan_id":"cebpf4jnsgd1na2vs0mg"},{"bike_id":"7c19b7e9-393b-4fa2-b057-4dd7dff08f6d","system_id":"levelo_inurba_marseille","lat":43.21208,"lon":5.35075,"is_reserved":false,"is_disabled":false,"rental_uris":{"android":"levelo://app?vid=7c19b7e9-393b-4fa2-b057-4dd7dff08f6d","ios":"levelo://app?vid=7c19b7e9-393b-4fa2-b057-4dd7dff08f6d"},"vehicle_type_id":"4","last_reported":1761930605,"current_range_meters":20000,"station_id":"st_cvj6sg6p6f1abm77japg","pricing_plan_id":"cebpf4jnsgd1na2vs0mg"},{"bike_id":"cc0d6697-bf7c-4001-828f-c5cf42c80c59","system_id":"levelo_inurba_marseille","lat":43.21199,"lon":5.35081,"is_reserved":false,"is_disabled":false,"rental_uris":{"android":"levelo://app?vid=cc0d6697-bf7c-4001-828f-c5cf42c80c59","ios":"levelo://app?vid=cc0d6697-bf7c-4001-828f-c5cf42c80c59"},"vehicle_type_id":"4","last_reported":1761930605,"current_range_meters":20000,"station_id":"","pricing_plan_id":"cebpf4jnsgd1na2vs0mg"},{"bike_id":"1d29646a-da1f-4f66-b008-0838ffb2fa84","system_id":"levelo_inurba_marseille","lat":43.2999,"lon":5.3723,"is_reserved":false,"is_disabled":false,"rental_uris":{"android":"levelo://app?vid=1d29646a-da1f-4f66-b008-0838ffb2fa84","ios":"levelo://app?vid=1d29646a-da1f-4f66-b008-0838ffb2fa84"},"vehicle_type_id":"4","last_reported":1761930605,"current_range_meters":20000,"station_id":"ce4bgr92rcd13ifvqc7g","pricing_plan_id":"cebpf4jnsgd1na2vs0mg"},{"bike_id":"1510912d-5500-4029-8c52-09b2dbc632be","system_id":"levelo_inurba_marseille","lat":43.29444,"lon":5.40129,"is_reserved":false,"is_disabled":true,"rental_uris":{"android":"levelo://app?vid=1510912d-5500-4029-8c52-09b2dbc632be","ios":"levelo://app?vid=1510912d-5500-4029-8c52-09b2dbc632be"},"vehicle_type_id":"4","last_reported":1761930605,"current_range_meters":20400,"station_id":"","pricing_plan_id":"cebpf4jnsgd1na2vs0mg"},{"bike_id":"52b04612-cd38-411f-a68e-6bb9cb24a90a","system_id":"levelo_inurba_marseille","lat":43.24167,"lon":5.36405,"is_reserved":false,"is_disabled":false,"rental_uris":{"android":"levelo://app?vid=52b04612-cd38-411f-a68e-6bb9cb24a90a","ios":"levelo://app?vid=52b04612-cd38-411f-a68e-6bb9cb24a90a"},"vehicle_type_id":"4","last_reported":1761930605,"current_range_meters":20400,"station_id":"cpo36qri1sfpv3e86is0","pricing_plan_id":"cebpf4jnsgd1na2vs0mg"},{"bike_id":"8876d2d9-1520-4be1-adfe-c385e1fa9299","system_id":"levelo_inurba_marseille","lat":43.29906,"lon":5.38154,"is_reserved":false,"is_disabled":false,"rental_uris":{"android":"levelo://app?vid=8876d2d9-1520-4be1-adfe-c385e1fa9299","ios":"levelo://app?vid=8876d2d9-1520-4be1-adfe-c385e1fa9299"},"vehicle_type_id":"4","last_reported":1761930605,"current_range_meters":20400,"station_id":"ce4bgj12rcd13ifvqbc0","pricing_plan_id":"cebpf4jnsgd1na2vs0mg"},{"bike_id":"99136012-266c-4cf9-a2b0-a55c42a68bf7","system_id":"levelo_inurba_marseille","lat":43.28846,"lon":5.39313,"is_reserved":false,"is_disabled":false,"rental_uris":{"android":"levelo://app?vid=99136012-266c-4cf9-a2b0-a55c42a68bf7","ios":"levelo://app?vid=99136012-266c-4cf9-a2b0-a55c42a68bf7"},"vehicle_type_id":"4","last_reported":1761930605,"current_range_meters":20400,"station_id":"ce4bh2p2rcd13ifvqdi0","pricing_plan_id":"cebpf4jnsgd1na2vs0mg"},{"bike_id":"e931acf7-06b2-4617-be79-71126f710e27","system_id":"levelo_inurba_marseille","lat":43.30568,"lon":5.3654,"is_reserved":false,"is_disabled":false,"rental_uris":{"android":"levelo://app?vid=e931acf7-06b2-4617-be79-71126f710e27","ios":"levelo://app?vid=e931acf7-06b2-4617-be79-71126f710e27"},"vehicle_type_id":"4","last_reported":1761930605,"current_range_meters":20400,"station_id":"ce4bgs12rcd13ifvqcag","pricing_plan_id":"cebpf4jnsgd1na2vs0mg"},{"bike_id":"f4c38a56-4a35-49a9-bdea-5d14ae1ba768","system_id":"levelo_inurba_marseille","lat":43.29744,"lon":5.42768,"is_reserved":false,"is_disabled":false,"rental_uris":{"android":"levelo://app?vid=f4c38a56-4a35-49a9-bdea-5d14ae1ba768","ios":"levelo://app?vid=f4c38a56-4a35-49a9-bdea-5d14ae1ba768"},"vehicle_type_id":"4","last_reported":1761930605,"current_range_meters":20400,"station_id":"st_d3md5207bmas73dh9klg","pricing_plan_id":"cebpf4jnsgd1na2vs0mg"},{"bike_id":"7776d34e-6db1-4a95-b64a-dfa1faf6c280","system_id":"levelo_inurba_marseille","lat":43.30194,"lon":5.36998,"is_reserved":false,"is_disabled":false,"rental_uris":{"android":"levelo://app?vid=7776d34e-6db1-4a95-b64a-dfa1faf6c280","ios":"levelo://app?vid=7776d34e-6db1-4a95-b64a-dfa1faf6c280"},"vehicle_type_id":"4","last_reported":1761930605,"current_range_meters":20400,"station_id":"","pricing_plan_id":"cebpf4jnsgd1na2vs0mg"},{"bike_id":"b4a09c0d-7b1e-4054-98f9-e5bf1a00e19e","system_id":"levelo_inurba_marseille","lat":43.30589,"lon":5.3653,"is_reserved":false,"is_disabled":false,"rental_uris":{"android":"levelo://app?vid=b4a09c0d-7b1e-4054-98f9-e5bf1a00e19e","ios":"levelo://app?vid=b4a09c0d-7b1e-4054-98f9-e5bf1a00e19e"},"vehicle_type_id":"4","last_reported":1761930605,"current_range_meters":20400,"station_id":"ce4bgs12rcd13ifvqcag","pricing_plan_id":"cebpf4jnsgd1na2vs0mg"},{"bike_id":"dffa0343-306b-400d-ac58-61eef9e6d6c6","system_id":"levelo_inurba_marseille","lat":43.31727,"lon":5.42397,"is_reserved":false,"is_disabled":false,"rental_uris":{"android":"levelo://app?vid=dffa0343-306b-400d-ac58-61eef9e6d6c6","ios":"levelo://app?vid=dffa0343-306b-400d-ac58-61eef9e6d6c6"},"vehicle_type_id":"4","last_reported":1761930605,"current_range_meters":20400,"station_id":"ce4bhp92rcd13ifvqhbg","pricing_plan_id":"cebpf4jnsgd1na2vs0mg"},{"bike_id":"af7e63a3-f071-4be5-aa2a-93d9085c6cb1","system_id":"levelo_inurba_marseille","lat":43.26028,"lon":5.37554,"is_reserved":false,"is_disabled":false,"rental_uris":{"android":"levelo://app?vid=af7e63a3-f071-4be5-aa2a-93d9085c6cb1","ios":"levelo://app?vid=af7e63a3-f071-4be5-aa2a-93d9085c6cb1"},