{"last_updated":1701814017,"ttl":30,"version":"2.2","data":{"bikes":[{"bike_id":"a0843529-3ea1-4879-ba35-02b5af42f8f3","system_id":"levelo_inurba_marseille","lat":43.309076,"lon":5.368465,"is_reserved":false,"is_disabled":false,"rental_uris":{"android":"levelo://app?vid=a0843529-3ea1-4879-ba35-02b5af42f8f3","ios":"levelo://app?vid=a0843529-3ea1-4879-ba35-02b5af42f8f3"},"vehicle_type_id":"4","last_reported":1701814017,"current_range_meters":1200,"station_id":"ce4bgn92rcd13ifvqbvg","pricing_plan_id":"free"},{"bike_id":"1913bd3d-b906-4748-8c6a-e440cb35796d","system_id":"levelo_inurba_marseille","lat":43.314706,"lon":5.371596,"is_reserved":false,"is_disabled":false,"rental_uris":{"android":"levelo://app?vid=1913bd3d-b906-4748-8c6a-e440cb35796d","ios":"levelo://app?vid=1913bd3d-b906-4748-8c6a-e440cb35796d"},"vehicle_type_id":"4","last_reported":1701814017,"current_range_meters":0,"station_id":"","pricing_plan_id":"free"},{"bike_id":"5f27c924-e3b9-4809-82b0-7611a46791ac","system_id":"levelo_inurba_marseille","lat":43.309039,"lon":5.371797,"is_reserved":false,"is_disabled":false,"rental_uris":{"android":"levelo://app?vid=5f27c924-e3b9-4809-82b0-7611a46791ac","ios":"levelo://app?vid=5f27c924-e3b9-4809-82b0-7611a46791ac"},"vehicle_type_id":"4","last_reported":1701814017,"current_range_meters":14400,"station_id":"ce4bguh2rcd13ifvqckg","pricing_plan_id":"free"},{"bike_id":"15c6e4c7-34fd-47bc-b7c5-c72bb47c608a","system_id":"levelo_inurba_marseille","lat":43.308962,"lon":5.371956,"is_reserved":false,"is_disabled":false,"rental_uris":{"android":"levelo://app?vid=15c6e4c7-34fd-47bc-b7c5-c72bb47c608a","ios":"levelo://app?vid=15c6e4c7-34fd-47bc-b7c5-c72bb47c608a"},"vehicle_type_id":"4","last_reported":1701814017,"current_range_meters":0,"station_id":"ce4bguh2rcd13ifvqckg","pricing_plan_id":"free"},{"bike_id":"c664e7a2-744a-4ab1-adf9-f661384ab5bb","system_id":"levelo_inurba_marseille","lat":43.309039,"lon":5.371797,"is_reserved":false,"is_disabled":false,"rental_uris":{"android":"levelo://app?vid=c664e7a2-744a-4ab1-adf9-f661384ab5bb","ios":"levelo://app?vid=c664e7a2-744a-4ab1-adf9-f661384ab5bb"},"vehicle_type_id":"4","last_reported":1701814017,"current_range_meters":25600,"station_id":"ce4bguh2rcd13ifvqckg","pricing_plan_id":"free"},{"bike_id":"a2317451-2f29-47a3-b11d-9875ae844f8d","system_id":"levelo_inurba_marseille","lat":43.309039,"lon":5.371797,"is_reserved":false,"is_disabled":false,"rental_uris":{"android":"levelo://app?vid=a2317451-2f29-47a3-b11d-9875ae844f8d","ios":"levelo://app?vid=a2317451-2f29-47a3-b11d-9875ae844f8d"},"vehicle_type_id":"4","last_reported":1701814017,"current_range_meters":20800,"station_id":"ce4bguh2rcd13ifvqckg","pricing_plan_id":"free"},{"bike_id":"299c1eda-a86c-4f2c-a320-58b4e01cd6b9","system_id":"levelo_inurba_marseille","lat":43.30557,"lon":5.36542,"is_reserved":false,"is_disabled":false,"rental_uris":{"android":"levelo://app?vid=299c1eda-a86c-4f2c-a320-58b4e01cd6b9","ios":"levelo://app?vid=299c1eda-a86c-4f2c-a320-58b4e01cd6b9"},"vehicle_type_id":"4","last_reported":1701814017,"current_range_meters":0,"station_id":"ce4bgs12rcd13ifvqcag","pricing_plan_id":"free"},{"bike_id":"c813e93c-7afd-49fc-811a-d961a2182c66","system_id":"levelo_inurba_marseille","lat":43.305989,"lon":5.37225,"is_reserved":false,"is_disabled":false,"rental_uris":{"android":"levelo://app?vid=c813e93c-7afd-49fc-811a-d961a2182c66","ios":"levelo://app?vid=c813e93c-7afd-49fc-811a-d961a2182c66"},"vehicle_type_id":"4","last_reported":1701814017,"current_range_meters":4400,"station_id":"ce4bgqh2rcd13ifvqc4g","pricing_plan_id":"free"},{"bike_id":"b065b12a-ef87-47d8-8ac6-a38844050d40","system_id":"levelo_inurba_marseille","lat":43.319338,"lon":5.372928,"is_reserved":false,"is_disabled":false,"rental_uris":{"android":"levelo://app?vid=b065b12a-ef87-47d8-8ac6-a38844050d40","ios":"levelo://app?vid=b065b12a-ef87-47d8-8ac6-a38844050d40"},"vehicle_type_id":"4","last_reported":1701814017,"current_range_meters":0,"station_id":"","pricing_plan_id":"free"},{"bike_id":"3a2dda2e-3aab-4d0e-a954-793f1706ec09","system_id":"levelo_inurba_marseille","lat":43.304833,"lon":5.368025,"is_reserved":false,"is_disabled":false,"rental_uris":{"android":"levelo://app?vid=3a2dda2e-3aab-4d0e-a954-793f1706ec09","ios":"levelo://app?vid=3a2dda2e-3aab-4d0e-a954-793f1706ec09"},"vehicle_type_id":"4","last_reported":1701814017,"current_range_meters":22400,"station_id":"","pricing_plan_id":"free"},{"bike_id":"78327b85-9a64-480d-829f-3b205566167f","system_id":"levelo_inurba_marseille","lat":43.311125,"lon":5.377624,"is_reserved":false,"is_disabled":false,"rental_uris":{"android":"levelo://app?vid=78327b85-9a64-480d-829f-3b205566167f","ios":"levelo://app?vid=78327b85-9a64-480d-829f-3b205566167f"},"vehicle_type_id":"4","last_reported":1701814017,"current_range_meters":13200,"station_id":"ce4bgt92rcd13ifvqcg0","pricing_plan_id":"free"},{"bike_id":"dfd0ad29-97a2-485d-ad77-77c32b01b460","system_id":"levelo_inurba_marseille","lat":43.311131,"lon":5.377651,"is_reserved":false,"is_disabled":false,"rental_uris":{"android":"levelo://app?vid=dfd0ad29-97a2-485d-ad77-77c32b01b460","ios":"levelo://app?vid=dfd0ad29-97a2-485d-ad77-77c32b01b460"},"vehicle_type_id":"4","last_reported":1701814017,"current_range_meters":12800,"station_id":"ce4bgt92rcd13ifvqcg0","pricing_plan_id":"free"},{"bike_id":"5760ab19-f255-48c6-8a9b-2fbf9321214c","system_id":"levelo_inurba_marseille","lat":43.311125,"lon":5.377624,"is_reserved":false,"is_disabled":false,"rental_uris":{"android":"levelo://app?vid=5760ab19-f255-48c6-8a9b-2fbf9321214c","ios":"levelo://app?vid=5760ab19-f255-48c6-8a9b-2fbf9321214c"},"vehicle_type_id":"4","last_reported":1701814017,"current_range_meters":20000,"station_id":"ce4bgt92rcd13ifvqcg0","pricing_plan_id":"free"},{"bike_id":"fb6fd937-527b-4585-9058-0dfdc6436ac8","system_id":"levelo_inurba_marseille","lat":43.31351,"lon":5.37909,"is_reserved":false,"is_disabled":false,"rental_uris":{"android":"levelo://app?vid=fb6fd937-527b-4585-9058-0dfdc6436ac8","ios":"levelo://app?vid=fb6fd937-527b-4585-9058-0dfdc6436ac8"},"vehicle_type_id":"4","last_reported":1701814017,"current_range_meters":8800,"station_id":"","pricing_plan_id":"free"},{"bike_id":"e107dfe8-e831-4037-96a5-e6cc08c46a10","system_id":"levelo_inurba_marseille","lat":43.303046,"lon":5.368981,"is_reserved":false,"is_disabled":false,"rental_uris":{"android":"levelo://app?vid=e107dfe8-e831-4037-96a5-e6cc08c46a10","ios":"levelo://app?vid=e107dfe8-e831-4037-96a5-e6cc08c46a10"},"vehicle_type_id":"4","last_reported":1701814017,"current_range_meters":10000,"station_id":"ce4bgqh2rcd13ifvqc5g","pricing_plan_id":"free"},{"bike_id":"747bcfe6-f318-4551-b8f6-593658939d5f","system_id":"levelo_inurba_marseille","lat":43.303046,"lon":5.368981,"is_reserved":false,"is_disabled":false,"rental_uris":{"android":"levelo://app?vid=747bcfe6-f318-4551-b8f6-593658939d5f","ios":"levelo://app?vid=747bcfe6-f318-4551-b8f6-593658939d5f"},"vehicle_type_id":"4","last_reported":1701814017,"current_range_meters":22000,"station_id":"ce4bgqh2rcd13ifvqc5g","pricing_plan_id":"free"},{"bike_id":"989a01d2-f2a9-4c11-8a79-9792d64b5413","system_id":"levelo_inurba_marseille","lat":43.32183,"lon":5.37494,"is_reserved":false,"is_disabled":false,"rental_uris":{"android":"levelo://app?vid=989a01d2-f2a9-4c11-8a79-9792d64b5413","ios":"levelo://app?vid=989a01d2-f2a9-4c11-8a79-9792d64b5413"},"vehicle_type_id":"4","last_reported":1701814017,"current_range_meters":15600,"station_id":"","pricing_plan_id":"free"},{"bike_id":"a6691109-b6b5-408c-ba43-8e995cf35333","system_id":"levelo_inurba_marseille","lat":43.308012,"lon":5.381511,"is_reserved":false,"is_disabled":false,"rental_uris":{"android":"levelo://app?vid=a6691109-b6b5-408c-ba43-8e995cf35333","ios":"levelo://app?vid=a6691109-b6b5-408c-ba43-8e995cf35333"},"vehicle_type_id":"4","last_reported":1701814017,"current_range_meters":0,"station_id":"ce4bgt12rcd13ifvqce0","pricing_plan_id":"free"},{"bike_id":"e13e43bc-3c90-429f-a062-4ab68ebd9410","system_id":"levelo_inurba_marseille","lat":43.304606,"lon":5.379026,"is_reserved":false,"is_disabled":false,"rental_uris":{"android":"levelo://app?vid=e13e43bc-3c90-429f-a062-4ab68ebd9410","ios":"levelo://app?vid=e13e43bc-3c90-429f-a062-4ab68ebd9410"},"vehicle_type_id":"4","last_reported":1701814017,"current_range_meters":0,"station_id":"ce4bgup2rcd13ifvqcn0","pricing_plan_id":"free"},{"bike_id":"ab542b0a-b258-4b62-baed-c4ff4b3a7961","system_id":"levelo_inurba_marseille","lat":43.324773,"lon":5.36568,"is_reserved":false,"is_disabled":false,"rental_uris":{"android":"levelo://app?vid=ab542b0a-b258-4b62-baed-c4ff4b3a7961","ios":"levelo://app?vid=ab542b0a-b258-4b62-baed-c4ff4b3a7961"},"vehicle_type_id":"4","last_reported":1701814017,"current_range_meters":31200,"station_id":"ce4bhs12rcd13ifvqhvg","pricing_plan_id":"free"},{"bike_id":"bbbf1040-25df-4928-b4eb-70ad54d87f6a","system_id":"levelo_inurba_marseille","lat":43.30143,"lon":5.37413,"is_reserved":false,"is_disabled":false,"rental_uris":{"android":"levelo://app?vid=bbbf1040-25df-4928-b4eb-70ad54d87f6a","ios":"levelo://app?vid=bbbf1040-25df-4928-b4eb-70ad54d87f6a"},"vehicle_type_id":"4","last_reported":1701814017,"current_range_meters":13600,"station_id":"ce4bgs92rcd13ifvqcc0","pricing_plan_id":"free"},{"bike_id":"a7503af2-3416-42b0-89b3-360ea5b90ea2","system_id":"levelo_inurba_marseille","lat":43.319943,"lon":5.381441,"is_reserved":false,"is_disabled":false,"rental_uris":{"android":"levelo://app?vid=a7503af2-3416-42b0-89b3-360ea5b90ea2","ios":"levelo://app?vid=a7503af2-3416-42b0-89b3-360ea5b90ea2"},"vehicle_type_id":"4","last_reported":1701814017,"current_range_meters":27200,"station_id":"ce4bhr12rcd13ifvqhpg","pricing_plan_id":"free"},{"bike_id":"1e44eb00-5254-457d-b804-b536ef4db324","system_id":"levelo_inurba_marseille","lat":43.31995,"lon":5.38144,"is_reserved":false,"is_disabled":false,"rental_uris":{"android":"levelo://app?vid=1e44eb00-5254-457d-b804-b536ef4db324","ios":"levelo://app?vid=1e44eb00-5254-457d-b804-b536ef4db324"},"vehicle_type_id":"4","last_reported":1701814017,"current_range_meters":14000,"station_id":"ce4bhr12rcd13ifvqhpg","pricing_plan_id":"free"},{"bike_id":"65f8fa65-6ae7-4e94-86fb-6a8a6a019c04","system_id":"levelo_inurba_marseille","lat":43.319957,"lon":5.381486,"is_reserved":false,"is_disabled":false,"rental_uris":{"android":"levelo://app?vid=65f8fa65-6ae7-4e94-86fb-6a8a6a019c04","ios":"levelo://app?vid=65f8fa65-6ae7-4e94-86fb-6a8a6a019c04"},"vehicle_type_id":"4","last_reported":1701814017,"current_range_meters":12400,"station_id":"ce4bhr12rcd13ifvqhpg","pricing_plan_id":"free"},{"bike_id":"062c9487-5458-4221-af20-eb36aa552b3c","system_id":"levelo_inurba_marseille","lat":43.32,"lon":5.38165,"is_reserved":false,"is_disabled":false,"rental_uris":{"android":"levelo://app?vid=062c9487-5458-4221-af20-eb36aa552b3c","ios":"levelo://app?vid=062c9487-5458-4221-af20-eb36aa552b3c"},"vehicle_type_id":"4","last_reported":1701814017,"current_range_meters":0,"station_id":"ce4bhr12rcd13ifvqhpg","pricing_plan_id":"free"},{"bike_id":"c76d68d9-2c83-49cf-aa18-ff9dce30c25e","system_id":"levelo_inurba_marseille","lat":43.313571,"lon":5.384829,"is_reserved":false,"is_disabled":false,"rental_uris":{"android":"levelo://app?vid=c76d68d9-2c83-49cf-aa18-ff9dce30c25e","ios":"levelo://app?vid=c76d68d9-2c83-49cf-aa18-ff9dce30c25e"},"vehicle_type_id":"4","last_reported":1701814017,"current_range_meters":29200,"station_id":"ce4bgt92rcd13ifvqcf0","pricing_plan_id":"free"},{"bike_id":"96a50488-726c-45cc-b484-a5022842dac2","system_id":"levelo_inurba_marseille","lat":43.313571,"lon":5.384829,"is_reserved":false,"is_disabled":false,"rental_uris":{"android":"levelo://app?vid=96a50488-726c-45cc-b484-a5022842dac2","ios":"levelo://app?vid=96a50488-726c-45cc-b484-a5022842dac2"},"vehicle_type_id":"4","last_reported":1701814017,"current_range_meters":26400,"station_id":"ce4bgt92rcd13ifvqcf0","pricing_plan_id":"free"},{"bike_id":"25ec18b1-6adc-4aa6-82fc-9479d41028c5","system_id":"levelo_inurba_marseille","lat":43.29977,"lon":5.3718,"is_reserved":false,"is_disabled":false,"rental_uris":{"android":"levelo://app?vid=25ec18b1-6adc-4aa6-82fc-9479d41028c5","ios":"levelo://app?vid=25ec18b1-6adc-4aa6-82fc-9479d41028c5"},"vehicle_type_id":"4","last_reported":1701814017,"current_range_meters":20800,"station_id":"ce4bgr92rcd13ifvqc7g","pricing_plan_id":"free"},{"bike_id":"1f7d8db0-c533-4cb3-ac10-2c1a7db1cf59","system_id":"levelo_inurba_marseille","lat":43.2997,"lon":5.37173,"is_reserved":false,"is_disabled":false,"rental_uris":{"android":"levelo://app?vid=1f7d8db0-c533-4cb3-ac10-2c1a7db1cf59","ios":"levelo://app?vid=1f7d8db0-c533-4cb3-ac10-2c1a7db1cf59"},"vehicle_type_id":"4","last_reported":1701814017,"current_range_meters":4800,"station_id":"ce4bgr92rcd13ifvqc7g","pricing_plan_id":"free"},{"bike_id":"5ca457cb-b5e6-4a28-97ea-d8bc25420337","system_id":"levelo_inurba_marseille","lat":43.299155,"lon":5.374595,"is_reserved":false,"is_disabled":false,"rental_uris":{"android":"levelo://app?vid=5ca457cb-b5e6-4a28-97ea-d8bc25420337","ios":"levelo://app?vid=5ca457cb-b5e6-4a28-97ea-d8bc25420337"},"vehicle_type_id":"4","last_reported":1701814017,"current_range_meters":0,"station_id":"ce4bgjh2rcd13ifvqbg0","pricing_plan_id":"free"},{"bike_id":"2e76f4ec-4c49-4885-84df-273462419ffe","system_id":"levelo_inurba_marseille","lat":43.311722,"lon":5.387247,"is_reserved":false,"is_disabled":false,"rental_uris":{"android":"levelo://app?vid=2e76f4ec-4c49-4885-84df-273462419ffe","ios":"levelo://app?vid=2e76f4ec-4c49-4885-84df-273462419ffe"},"vehicle_type_id":"4","last_reported":1701814017,"current_range_meters":15200,"station_id":"ce4bgv12rcd13ifvqcp0","pricing_plan_id":"free"},{"bike_id":"b07e9eb8-9f3c-4333-9dcc-1fdd05ca7509","system_id":"levelo_inurba_marseille","lat":43.31173,"lon":5.38718,"is_reserved":false,"is_disabled":false,"rental_uris":{"android":"levelo://app?vid=b07e9eb8-9f3c-4333-9dcc-1fdd05ca7509","ios":"levelo://app?vid=b07e9eb8-9f3c-4333-9dcc-1fdd05ca7509"},"vehicle_type_id":"4","last_reported":1701814017,"current_range_meters":16000,"station_id":"ce4bgv12rcd13ifvqcp0","pricing_plan_id":"free"},{"bike_id":"7d8005c6-46e4-426f-b718-71bb16b59421","system_id":"levelo_inurba_marseille","lat":43.311722,"lon":5.387247,"is_reserved":false,"is_disabled":false,"rental_uris":{"android":"levelo://app?vid=7d8005c6-46e4-426f-b718-71bb16b59421","ios":"levelo://app?vid=7d8005c6-46e4-426f-b718-71bb16b59421"},"vehicle_type_id":"4","last_reported":1701814017,"current_range_meters":13200,"station_id":"ce4bgv12rcd13ifvqcp0","pricing_plan_id":"free"},{"bike_id":"c591e47b-b453-49bb-8a54-18d732d15761","system_id":"levelo_inurba_marseille","lat":43.311722,"lon":5.387247,"is_reserved":false,"is_disabled":false,"rental_uris":{"android":"levelo://app?vid=c591e47b-b453-49bb-8a54-18d732d15761","ios":"levelo://app?vid=c591e47b-b453-49bb-8a54-18d732d15761"},"vehicle_type_id":"4","last_reported":1701814017,"current_range_meters":26400,"station_id":"ce4bgv12rcd13ifvqcp0","pricing_plan_id":"free"},{"bike_id":"fdcc7f9c-f556-4d83-b4db-a16acbc4cf2f","system_id":"levelo_inurba_marseille","lat":43.297794,"lon":5.370888,"is_reserved":false,"is_disabled":false,"rental_uris":{"android":"levelo://app?vid=fdcc7f9c-f556-4d83-b4db-a16acbc4cf2f","ios":"levelo://app?vid=fdcc7f9c-f556-4d83-b4db-a16acbc4cf2f"},"vehicle_type_id":"4","last_reported":1701814017,"current_range_meters":0,"station_id":"ce4bgop2rcd13ifvqc1g","pricing_plan_id":"free"},{"bike_id":"3611eab9-ed88-408f-b94d-b09812a4463e","system_id":"levelo_inurba_marseille","lat":43.32289,"lon":5.3827,"is_reserved":false,"is_disabled":false,"rental_uris":{"android":"levelo://app?vid=3611eab9-ed88-408f-b94d-b09812a4463e","ios":"levelo://app?vid=3611eab9-ed88-408f-b94d-b09812a4463e"},"vehicle_type_id":"4","last_reported":1701814017,"current_range_meters":24800,"station_id":"ce4bhr12rcd13ifvqhqg","pricing_plan_id":"free"},{"bike_id":"b4879a0b-f87c-476b-ba9f-57011b8686d8","system_id":"levelo_inurba_marseille","lat":43.298218,"lon":5.374416,"is_reserved":false,"is_disabled":false,"rental_uris":{"android":"levelo://app?vid=b4879a0b-f87c-476b-ba9f-57011b8686d8","ios":"levelo://app?vid=b4879a0b-f87c-476b-ba9f-57011b8686d8"},"vehicle_type_id":"4","last_reported":1701814017,"current_range_meters":16000,"station_id":"","pricing_plan_id":"free"},{"bike_id":"f5ed0569-90b1-452a-9153-d29eb7cdc9d6","system_id":"levelo_inurba_marseille","lat":43.328371,"lon":5.366912,"is_reserved":false,"is_disabled":false,"rental_uris":{"android":"levelo://app?vid=f5ed0569-90b1-452a-9153-d29eb7cdc9d6","ios":"levelo://app?vid=f5ed0569-90b1-452a-9153-d29eb7cdc9d6"},"vehicle_type_id":"4","last_reported":1701814017,"current_range_meters":8400,"station_id":"ce4bhs92rcd13ifvqi0g","pricing_plan_id":"free"},{"bike_id":"8146f9b5-b15a-4a68-934b-8d7fdd7ab4e5","system_id":"levelo_inurba_marseille","lat":43.315847,"lon":5.387961,"is_reserved":false,"is_disabled":false,"rental_uris":{"android":"levelo://app?vid=8146f9b5-b15a-4a68-934b-8d7fdd7ab4e5","ios":"levelo://app?vid=8146f9b5-b15a-4a68-934b-8d7fdd7ab4e5"},"vehicle_type_id":"4","last_reported":1701814017,"current_range_meters":20400,"station_id":"","pricing_plan_id":"free"},{"bike_id":"d750d82e-395a-4902-8872-a62e0d37e6ef","system_id":"levelo_inurba_marseille","lat":43.32838,"lon":5.36695,"is_reserved":false,"is_disabled":false,"rental_uris":{"android":"levelo://app?vid=d750d82e-395a-4902-8872-a62e0d37e6ef","ios":"levelo://app?vid=d750d82e-395a-4902-8872-a62e0d37e6ef"},"vehicle_type_id":"4","last_reported":1701814017,"current_range_meters":3600,"station_id":"ce4bhs92rcd13ifvqi0g","pricing_plan_id":"free"},{"bike_id":"376bb2dd-4264-45c4-a059-844e1abb8000","system_id":"levelo_inurba_marseille","lat":43.29687,"lon":5.37294,"is_reserved":false,"is_disabled":false,"rental_uris":{"android":"levelo://app?vid=376bb2dd-4264-45c4-a059-844e1abb8000","ios":"levelo://app?vid=376bb2dd-4264-45c4-a059-844e1abb8000"},"vehicle_type_id":"4","last_reported":1701814017,"current_range_meters":17600,"station_id":"ce4bgk12rcd13ifvqbj0","pricing_plan_id":"free"},{"bike_id":"d0e3dd59-0f60-4e4e-993e-967a9d97ad75","system_id":"levelo_inurba_marseille","lat":43.2968,"lon":5.37291,"is_reserved":false,"is_disabled":false,"rental_uris":{"android":"levelo://app?vid=d0e3dd59-0f60-4e4e-993e-967a9d97ad75","ios":"levelo://app?vid=d0e3dd59-0f60-4e4e-993e-967a9d97ad75"},"vehicle_type_id":"4","last_reported":1701814017,"current_range_meters":28000,"station_id":"ce4bgk12rcd13ifvqbj0","pricing_plan_id":"free"},{"bike_id":"fad051df-9150-4866-a68e-71dc1b88d26f","system_id":"levelo_inurba_marseille","lat":43.316538,"lon":5.38954,"is_reserved":false,"is_disabled":false,"rental_uris":{"android":"levelo://app?vid=fad051df-9150-4866-a68e-71dc1b88d26f","ios":"levelo://app?vid=fad051df-9150-4866-a68e-71dc1b88d26f"},"vehicle_type_id":"4","last_reported":1701814017,"current_range_meters":11600,"station_id":"","pricing_plan_id":"free"},{"bike_id":"abf41e86-7cb3-488c-9a9e-6b3b73d96f51","system_id":"levelo_inurba_marseille","lat":43.309589,"lon":5.390258,"is_reserved":false,"is_disabled":false,"rental_uris":{"android":"levelo://app?vid=abf41e86-7cb3-488c-9a9e-6b3b73d96f51","ios":"levelo://app?vid=abf41e86-7cb3-488c-9a9e-6b3b73d96f51"},"vehicle_type_id":"4","last_reported":1701814017,"current_range_meters":29600,"station_id":"ce4bgup2rcd13ifvqco0","pricing_plan_id":"free"},{"bike_id":"6b06cc57-06d6-4dc8-94d3-2a3dbdb86d2d","system_id":"levelo_inurba_marseille","lat":43.317593,"lon":5.39,"is_reserved":false,"is_disabled":false,"rental_uris":{"android":"levelo://app?vid=6b06cc57-06d6-4dc8-94d3-2a3dbdb86d2d","ios":"levelo://app?vid=6b06cc57-06d6-4dc8-94d3-2a3dbdb86d2d"},"vehicle_type_id":"4","last_reported":1701814017,"current_range_meters":27200,"station_id":"ce4bhqp2rcd13ifvqhng","pricing_plan_id":"free"},{"bike_id":"5042a46e-8b93-4018-8fdd-4a48bc3c8436","system_id":"levelo_inurba_marseille","lat":43.317557,"lon":5.390173,"is_reserved":false,"is_disabled":false,"rental_uris":{"android":"levelo://app?vid=5042a46e-8b93-4018-8fdd-4a48bc3c8436","ios":"levelo://app?vid=5042a46e-8b93-4018-8fdd-4a48bc3c8436"},"vehicle_type_id":"4","last_reported":1701814017,"current_range_meters":24000,"station_id":"ce4bhqp2rcd13ifvqhng","pricing_plan_id":"free"},{"bike_id":"4a7d648e-4869-45ed-9885-42883cc8e914","system_id":"levelo_inurba_marseille","lat":43.317557,"lon":5.390173,"is_reserved":false,"is_disabled":false,"rental_uris":{"android":"levelo://app?vid=4a7d648e-4869-45ed-9885-42883cc8e914","ios":"levelo://app?vid=4a7d648e-4869-45ed-9885-42883cc8e914"},"vehicle_type_id":"4","last_reported":1701814017,"current_range_meters":30000,"station_id":"ce4bhqp2rcd13ifvqhng","pricing_plan_id":"free"},{"bike_id":"901ad813-d661-4663-aa13-7d18a5f786a4","system_id":"levelo_inurba_marseille","lat":43.304274,"lon":5.388873,"is_reserved":false,"is_disabled":false,"rental_uris":{"android":"levelo://app?vid=901ad813-d661-4663-aa13-7d18a5f786a4","ios":"levelo://app?vid=901ad813-d661-4663-aa13-7d18a5f786a4"},"vehicle_type_id":"4","last_reported":1701814017,"current_range_meters":30400,"station_id":"ce4bgk12rcd13ifvqbi0","pricing_plan_id":"free"},{"bike_id":"995524ed-f242-4e89-b0a4-7aff402f3738","system_id":"levelo_inurba_marseille","lat":43.296263,"lon":5.377094,"is_reserved":false,"is_disabled":false,"rental_uris":{"android":"levelo://app?vid=995524ed-f242-4e89-b0a4-7aff402f3738","ios":"levelo://app?vid=995524ed-f242-4e89-b0a4-7aff402f3738"},"vehicle_type_id":"4","last_reported":1701814017,"current_range_meters":6000,"station_id":"ce4bgi92rcd13ifvqb90","pricing_plan_id":"free"},{"bike_id":"faffbf37-839d-4599-adfc-3ab50b6f35a2","system_id":"levelo_inurba_marseille","lat":43.296263,"lon":5.377094,"is_reserved":false,"is_disabled":false,"rental_uris":{"android":"levelo://app?vid=faffbf37-839d-4599-adfc-3ab50b6f35a2","ios":"levelo://app?vid=faffbf37-839d-4599-adfc-3ab50b6f35a2"},"vehicle_type_id":"4","last_reported":1701814017,"current_range_meters":9200,"station_id":"ce4bgi92rcd13ifvqb90","pricing_plan_id":"free"},{"bike_id":"1c433e38-1d0f-4bb9-803b-63e96e0f3ccc","system_id":"levelo_inurba_marseille","lat":43.296263,"lon":5.377094,"is_reserved":false,"is_disabled":false,"rental_uris":{"android":"levelo://app?vid=1c433e38-1d0f-4bb9-803b-63e96e0f3ccc","ios":"levelo://app?vid=1c433e38-1d0f-4bb9-803b-63e96e0f3ccc"},"vehicle_type_id":"4","last_reported":1701814017,"current_range_meters":31200,"station_id":"ce4bgi92rcd13ifvqb90","pricing_plan_id":"free"},{"bike_id":"c3643ac2-cdd1-4bd1-99e6-62e33012d634","system_id":"levelo_inurba_marseille","lat":43.32367,"lon":5.388836,"is_reserved":false,"is_disabled":false,"rental_uris":{"android":"levelo://app?vid=c3643ac2-cdd1-4bd1-99e6-62e33012d634","ios":"levelo://app?vid=c3643ac2-cdd1-4bd1-99e6-62e33012d634"},"vehicle_type_id":"4","last_reported":1701814017,"current_range_meters":10400,"station_id":"ce4bhqp2rcd13ifvqhog","pricing_plan_id":"free"},{"bike_id":"07967f1e-00b3-4d63-8ab5-24c06e141a86","system_id":"levelo_inurba_marseille","lat":43.323647,"lon":5.388863,"is_reserved":false,"is_disabled":false,"rental_uris":{"android":"levelo://app?vid=07967f1e-00b3-4d63-8ab5-24c06e141a86","ios":"levelo://app?vid=07967f1e-00b3-4d63-8ab5-24c06e141a86"},"vehicle_type_id":"4","last_reported":1701814017,"current_range_meters":15600,"station_id":"ce4bhqp2rcd13ifvqhog","pricing_plan_id":"free"},{"bike_id":"abe84497-fb17-455f-b511-71d1ec1fd3ce","system_id":"levelo_inurba_marseille","lat":43.32367,"lon":5.388836,"is_reserved":false,"is_disabled":false,"rental_uris":{"android":"levelo://app?vid=abe84497-fb17-455f-b511-71d1ec1fd3ce","ios":"levelo://app?vid=abe84497-fb17-455f-b511-71d1ec1fd3ce"},"vehicle_type_id":"4","last_reported":1701814017,"current_range_meters":7600,"station_id":"ce4bhqp2rcd13ifvqhog","pricing_plan_id":"free"},{"bike_id":"b6573dd1-6652-4fd8-89bf-c6043cd2a53b","system_id":"levelo_inurba_marseille","lat":43.28856,"lon":5.358371,"is_reserved":false,"is_disabled":false,"rental_uris":{"android":"levelo://app?vid=b6573dd1-6652-4fd8-89bf-c6043cd2a53b","ios":"levelo://app?vid=b6573dd1-6652-4fd8-89bf-c6043cd2a53b"},"vehicle_type_id":"4","last_reported":1701814017,"current_range_meters":8000,"station_id":"ce4bhb12rcd13ifvqem0","pricing_plan_id":"free"},{"bike_id":"7f730568-85d3-4281-95de-877a6ac2df6d","system_id":"levelo_inurba_marseille","lat":43.292749,"lon":5.368398,"is_reserved":false,"is_disabled":false,"rental_uris":{"android":"levelo://app?vid=7f730568-85d3-4281-95de-877a6ac2df6d","ios":"levelo://app?vid=7f730568-85d3-4281-95de-877a6ac2df6d"},"vehicle_type_id":"4","last_reported":1701814017,"current_range_meters":0,"station_id":"ce4bhbp2rcd13ifvqesg","pricing_plan_id":"free"},{"bike_id":"2b5c1b68-81e3-47ef-876b-101cf2b4d0ce","system_id":"levelo_inurba_marseille","lat":43.30592,"lon":5.39356,"is_reserved":false,"is_disabled":false,"rental_uris":{"android":"levelo://app?vid=2b5c1b68-81e3-47ef-876b-101cf2b4d0ce","ios":"levelo://app?vid=2b5c1b68-81e3-47ef-876b-101cf2b4d0ce"},"vehicle_type_id":"4","last_reported":1701814017,"current_range_meters":9600,"station_id":"ce4bh0p2rcd13ifvqd80","pricing_plan_id":"free"},{"bike_id":"1ec1ad68-61b4-4d63-9c88-c99408122556","system_id":"levelo_inurba_marseille","lat":43.303002,"lon":5.392142,"is_reserved":false,"is_disabled":false,"rental_uris":{"android":"levelo://app?vid=1ec1ad68-61b4-4d63-9c88-c99408122556","ios":"levelo://app?vid=1ec1ad68-61b4-4d63-9c88-c99408122556"},"vehicle_type_id":"4","last_reported":1701814017,"current_range_meters":17200,"station_id":"ce4bgkh2rcd13ifvqbk0","pricing_plan_id":"free"},{"bike_id":"78ea6990-f686-4c61-82c7-eaebb75e942e","system_id":"levelo_inurba_marseille","lat":43.291987,"lon":5.358083,"is_reserved":false,"is_disabled":false,"rental_uris":{"android":"levelo://app?vid=78ea6990-f686-4c61-82c7-eaebb75e942e","ios":"levelo://app?vid=78ea6990-f686-4c61-82c7-eaebb75e942e"},"vehicle_type_id":"4","last_reported":1701814017,"current_range_meters":0,"station_id":"ce4bhb12rcd13ifvqel0","pricing_plan_id":"free"},{"bike_id":"946b83b1-6594-4ba2-b0ee-6e46c88d93c7","system_id":"levelo_inurba_marseille","lat":43.309047,"lon":5.396551,"is_reserved":false,"is_disabled":false,"rental_uris":{"android":"levelo://app?vid=946b83b1-6594-4ba2-b0ee-6e46c88d93c7","ios":"levelo://app?vid=946b83b1-6594-4ba2-b0ee-6e46c88d93c7"},"vehicle_type_id":"4","last_reported":1701814017,"current_range_meters":23600,"station_id":"ce4bh012rcd13ifvqcv0","pricing_plan_id":"free"},{"bike_id":"a2e9d989-58ac-448f-b34c-d1eae8e4d3cc","system_id":"levelo_inurba_marseille","lat":43.31316,"lon":5.39692,"is_reserved":false,"is_disabled":false,"rental_uris":{"android":"levelo://app?vid=a2e9d989-58ac-448f-b34c-d1eae8e4d3cc","ios":"levelo://app?vid=a2e9d989-58ac-448f-b34c-d1eae8e4d3cc"},"vehicle_type_id":"4","last_reported":1701814017,"current_range_meters":30400,"station_id":"ce4bgvp2rcd13ifvqcu0","pricing_plan_id":"free"},{"bike_id":"8493695c-d658-4c40-aaf3-a1a15ec6025b","system_id":"levelo_inurba_marseille","lat":43.308843,"lon":5.396453,"is_reserved":false,"is_disabled":false,"rental_uris":{"android":"levelo://app?vid=8493695c-d658-4c40-aaf3-a1a15ec6025b","ios":"levelo://app?vid=8493695c-d658-4c40-aaf3-a1a15ec6025b"},"vehicle_type_id":"4","last_reported":1701814017,"current_range_meters":0,"station_id":"ce4bh012rcd13ifvqcv0","pricing_plan_id":"free"},{"bike_id":"dcf78b65-3e86-440b-ae31-04c90c01f226","system_id":"levelo_inurba_marseille","lat":43.31324,"lon":5.39693,"is_reserved":false,"is_disabled":false,"rental_uris":{"android":"levelo://app?vid=dcf78b65-3e86-440b-ae31-04c90c01f226","ios":"levelo://app?vid=dcf78b65-3e86-440b-ae31-04c90c01f226"},"vehicle_type_id":"4","last_reported":1701814017,"current_range_meters":20400,"station_id":"ce4bgvp2rcd13ifvqcu0","pricing_plan_id":"free"},{"bike_id":"f287bc70-d05d-423d-9328-888c011300a7","system_id":"levelo_inurba_marseille","lat":43.3133,"lon":5.39697,"is_reserved":false,"is_disabled":false,"rental_uris":{"android":"levelo://app?vid=f287bc70-d05d-423d-9328-888c011300a7","ios":"levelo://app?vid=f287bc70-d05d-423d-9328-888c011300a7"},"vehicle_type_id":"4","last_reported":1701814017,"current_range_meters":29200,"station_id":"ce4bgvp2rcd13ifvqcu0","pricing_plan_id":"free"},{"bike_id":"8ce91b26-a046-42c6-8925-f25f5ce5a055","system_id":"levelo_inurba_marseille","lat":43.31327,"lon":5.39699,"is_reserved":false,"is_disabled":false,"rental_uris":{"android":"levelo://app?vid=8ce91b26-a046-42c6-8925-f25f5ce5a055","ios":"levelo://app?vid=8ce91b26-a046-42c6-8925-f25f5ce5a055"},"vehicle_type_id":"4","last_reported":1701814017,"current_range_meters":31200,"station_id":"ce4bgvp2rcd13ifvqcu0","pricing_plan_id":"free"},{"bike_id":"ffb926bb-ab7d-4119-918a-65388cc15d78","system_id":"levelo_inurba_marseille","lat":43.309038,"lon":5.396546,"is_reserved":false,"is_disabled":false,"rental_uris":{"android":"levelo://app?vid=ffb926bb-ab7d-4119-918a-65388cc15d78","ios":"levelo://app?vid=ffb926bb-ab7d-4119-918a-65388cc15d78"},"vehicle_type_id":"4","last_reported":1701814017,"current_range_meters":16800,"station_id":"ce4bh012rcd13ifvqcv0","pricing_plan_id":"free"},{"bike_id":"7862bd4a-dd35-4c0f-ade2-adedba5a8ab4","system_id":"levelo_inurba_marseille","lat":43.290345,"lon":5.38646,"is_reserved":false,"is_disabled":false,"rental_uris":{"android":"levelo://app?vid=7862bd4a-dd35-4c0f-ade2-adedba5a8ab4","ios":"levelo://app?vid=7862bd4a-dd35-4c0f-ade2-adedba5a8ab4"},"vehicle_type_id":"4","last_reported":1701814017,"current_range_meters":12800,"station_id":"ce4bh4p2rcd13ifvqe0g","pricing_plan_id":"free"},{"bike_id":"5ddd3795-1600-47c4-9622-aa9614ab99b9","system_id":"levelo_inurba_marseille","lat":43.290624,"lon":5.359245,"is_reserved":false,"is_disabled":false,"rental_uris":{"android":"levelo://app?vid=5ddd3795-1600-47c4-9622-aa9614ab99b9","ios":"levelo://app?vid=5ddd3795-1600-47c4-9622-aa9614ab99b9"},"vehicle_type_id":"4","last_reported":1701814017,"current_range_meters":0,"station_id":"ce4bha92rcd13ifvqeg0","pricing_plan_id":"free"},{"bike_id":"49d76309-f87e-4dea-ace7-3bd66f3ad5bc","system_id":"levelo_inurba_marseille","lat":43.289184,"lon":5.366408,"is_reserved":false,"is_disabled":false,"rental_uris":{"android":"levelo://app?vid=49d76309-f87e-4dea-ace7-3bd66f3ad5bc","ios":"levelo://app?vid=49d76309-f87e-4dea-ace7-3bd66f3ad5bc"},"vehicle_type_id":"4","last_reported":1701814017,"current_range_meters":2000,"station_id":"ce4bhap2rcd13ifvqek0","pricing_plan_id":"free"},{"bike_id":"da949e0c-7bdd-40e6-afc4-9df31e2fc333","system_id":"levelo_inurba_marseille","lat":43.289184,"lon":5.366408,"is_reserved":false,"is_disabled":false,"rental_uris":{"android":"levelo://app?vid=da949e0c-7bdd-40e6-afc4-9df31e2fc333","ios":"levelo://app?vid=da949e0c-7bdd-40e6-afc4-9df31e2fc333"},"vehicle_type_id":"4","last_reported":1701814017,"current_range_meters":12400,"station_id":"ce4bhap2rcd13ifvqek0","pricing_plan_id":"free"},{"bike_id":"f68e2c8b-de08-4ad7-b342-74483183b5be","system_id":"levelo_inurba_marseille","lat":43.33034,"lon":5.38938,"is_reserved":false,"is_disabled":false,"rental_uris":{"android":"levelo://app?vid=f68e2c8b-de08-4ad7-b342-74483183b5be","ios":"levelo://app?vid=f68e2c8b-de08-4ad7-b342-74483183b5be"},"vehicle_type_id":"4","last_reported":1701814017,"current_range_meters":29600,"station_id":"ce4bhr92rcd13ifvqhrg","pricing_plan_id":"free"},{"bike_id":"7925158e-5e18-4ee2-84dd-65581ca14743","system_id":"levelo_inurba_marseille","lat":43.290104,"lon":5.356111,"is_reserved":false,"is_disabled":false,"rental_uris":{"android":"levelo://app?vid=7925158e-5e18-4ee2-84dd-65581ca14743","ios":"levelo://app?vid=7925158e-5e18-4ee2-84dd-65581ca14743"},"vehicle_type_id":"4","last_reported":1701814017,"current_range_meters":4000,"station_id":"ce4bhb92rcd13ifvqen0","pricing_plan_id":"free"},{"bike_id":"0a4c6193-2337-4427-89f6-1f621b91284e","system_id":"levelo_inurba_marseille","lat":43.28856,"lon":5.358371,"is_reserved":false,"is_disabled":false,"rental_uris":{"android":"levelo://app?vid=0a4c6193-2337-4427-89f6-1f621b91284e","ios":"levelo://app?vid=0a4c6193-2337-4427-89f6-1f621b91284e"},"vehicle_type_id":"4","last_reported":1701814017,"current_range_meters":13200,"station_id":"ce4bhb12rcd13ifvqem0","pricing_plan_id":"free"},{"bike_id":"f3ed1ae1-6ef9-4e2a-8152-8fec3a85d615","system_id":"levelo_inurba_marseille","lat":43.28847,"lon":5.35843,"is_reserved":false,"is_disabled":false,"rental_uris":{"android":"levelo://app?vid=f3ed1ae1-6ef9-4e2a-8152-8fec3a85d615","ios":"levelo://app?vid=f3ed1ae1-6ef9-4e2a-8152-8fec3a85d615"},"vehicle_type_id":"4","last_reported":1701814017,"current_range_meters":0,"station_id":"ce4bhb12rcd13ifvqem0","pricing_plan_id":"free"},{"bike_id":"94559e2c-f22c-4ac5-af24-05076ed30144","system_id":"levelo_inurba_marseille","lat":43.3375,"lon":5.37431,"is_reserved":false,"is_disabled":false,"rental_uris":{"android":"levelo://app?vid=94559e2c-f22c-4ac5-af24-05076ed30144","ios":"levelo://app?vid=94559e2c-f22c-4ac5-af24-05076ed30144"},"vehicle_type_id":"4","last_reported":1701814017,"current_range_meters":29600,"station_id":"","pricing_plan_id":"free"},{"bike_id":"2fbea006-0d22-445c-bfc1-d379dcddc1c1","system_id":"levelo_inurba_marseille","lat":43.337463,"lon":5.374712,"is_reserved":false,"is_disabled":false,"rental_uris":{"android":"levelo://app?vid=2fbea006-0d22-445c-bfc1-d379dcddc1c1","ios":"levelo://app?vid=2fbea006-0d22-445c-bfc1-d379dcddc1c1"},"vehicle_type_id":"4","last_reported":1701814017,"current_range_meters":27200,"station_id":"","pricing_plan_id":"free"},{"bike_id":"61e94894-252e-4e6e-9735-b09eceabfad5","system_id":"levelo_inurba_marseille","lat":43.337474,"lon":5.374809,"is_reserved":false,"is_disabled":false,"rental_uris":{"android":"levelo://app?vid=61e94894-252e-4e6e-9735-b09eceabfad5","ios":"levelo://app?vid=61e94894-252e-4e6e-9735-b09eceabfad5"},"vehicle_type_id":"4","last_reported":1701814017,"current_range_meters":31200,"station_id":"","pricing_plan_id":"free"},{"bike_id":"376fbb16-6c89-4795-ba83-ccf191a96044","system_id":"levelo_inurba_marseille","lat":43.309287,"lon":5.4015,"is_reserved":false,"is_disabled":false,"rental_uris":{"android":"levelo://app?vid=376fbb16-6c89-4795-ba83-ccf191a96044","ios":"levelo://app?vid=376fbb16-6c89-4795-ba83-ccf191a96044"},"vehicle_type_id":"4","last_reported":1701814017,"current_range_meters":5200,"station_id":"","pricing_plan_id":"free"},{"bike_id":"b1da507f-59bc-4bfa-9de7-dd18b0d37739","system_id":"levelo_inurba_marseille","lat":43.337532,"lon":5.374486,"is_reserved":false,"is_disabled":false,"rental_uris":{"android":"levelo://app?vid=b1da507f-59bc-4bfa-9de7-dd18b0d37739","ios":"levelo://app?vid=b1da507f-59bc-4bfa-9de7-dd18b0d37739"},"vehicle_type_id":"4","last_reported":1701814017,"current_range_meters":30000,"station_id":"","pricing_plan_id":"free"},{"bike_id":"7e9f8813-b183-46de-aa95-17724b50fd89","system_id":"levelo_inurba_marseille","lat":43.30929,"lon":5.40152,"is_reserved":false,"is_disabled":false,"rental_uris":{"android":"levelo://app?vid=7e9f8813-b183-46de-aa95-17724b50fd89","ios":"levelo://app?vid=7e9f8813-b183-46de-aa95-17724b50fd89"},"vehicle_type_id":"4","last_reported":1701814017,"current_range_meters":10800,"station_id":"ce4bgvp2rcd13ifvqct0","pricing_plan_id":"free"},{"bike_id":"a01a8d62-3f82-430f-8cbf-bf5e5048b82c","system_id":"levelo_inurba_marseille","lat":43.337535,"lon":5.374572,"is_reserved":false,"is_disabled":false,"rental_uris":{"android":"levelo://app?vid=a01a8d62-3f82-430f-8cbf-bf5e5048b82c","ios":"levelo://app?vid=a01a8d62-3f82-430f-8cbf-bf5e5048b82c"},"vehicle_type_id":"4","last_reported":1701814017,"current_range_meters":25600,"station_id":"","pricing_plan_id":"free"},{"bike_id":"f0464f50-e84c-41e8-8839-9b31e220379c","system_id":"levelo_inurba_marseille","lat":43.337556,"lon":5.374646,"is_reserved":false,"is_disabled":false,"rental_uris":{"android":"levelo://app?vid=f0464f50-e84c-41e8-8839-9b31e220379c","ios":"levelo://app?vid=f0464f50-e84c-41e8-8839-9b31e220379c"},"vehicle_type_id":"4","last_reported":1701814017,"current_range_meters":30800,"station_id":"","pricing_plan_id":"free"},{"bike_id":"9a1e2a86-2307-443e-8986-35b02223d9a7","system_id":"levelo_inurba_marseille","lat":43.33759,"lon":5.3748,"is_reserved":false,"is_disabled":false,"rental_uris":{"android":"levelo://app?vid=9a1e2a86-2307-443e-8986-35b02223d9a7","ios":"levelo://app?vid=9a1e2a86-2307-443e-8986-35b02223d9a7"},"vehicle_type_id":"4","last_reported":1701814017,"current_range_meters":18400,"station_id":"","pricing_plan_id":"free"},{"bike_id":"dc8a7487-5d8c-4b9a-b199-dd6d36dc7383","system_id":"levelo_inurba_marseille","lat":43.306412,"lon":5.401035,"is_reserved":false,"is_disabled":false,"rental_uris":{"android":"levelo://app?vid=dc8a7487-5d8c-4b9a-b199-dd6d36dc7383","ios":"levelo://app?vid=dc8a7487-5d8c-4b9a-b199-dd6d36dc7383"},"vehicle_type_id":"4","last_reported":1701814017,"current_range_meters":23200,"station_id":"ce4bh112rcd13ifvqda0","pricing_plan_id":"free"},{"bike_id":"1fe99cf3-0500-4767-8fa7-0ca5b9e65ba2","system_id":"levelo_inurba_marseille","lat":43.306412,"lon":5.401035,"is_reserved":false,"is_disabled":false,"rental_uris":{"android":"levelo://app?vid=1fe99cf3-0500-4767-8fa7-0ca5b9e65ba2","ios":"levelo://app?vid=1fe99cf3-0500-4767-8fa7-0ca5b9e65ba2"},"vehicle_type_id":"4","last_reported":1701814017,"current_range_meters":1200,"station_id":"ce4bh112rcd13ifvqda0","pricing_plan_id":"free"},{"bike_id":"5376b66c-ef5f-4a6e-b6eb-13040305bf9f","system_id":"levelo_inurba_marseille","lat":43.33769,"lon":5.3747,"is_reserved":false,"is_disabled":false,"rental_uris":{"android":"levelo://app?vid=5376b66c-ef5f-4a6e-b6eb-13040305bf9f","ios":"levelo://app?vid=5376b66c-ef5f-4a6e-b6eb-13040305bf9f"},"vehicle_type_id":"4","last_reported":1701814017,"current_range_meters":0,"station_id":"","pricing_plan_id":"free"},{"bike_id":"053e96a7-e398-4a99-ae07-b85253a3d4c4","system_id":"levelo_inurba_marseille","lat":43.306412,"lon":5.401035,"is_reserved":false,"is_disabled":false,"rental_uris":{"android":"levelo://app?vid=053e96a7-e398-4a99-ae07-b85253a3d4c4","ios":"levelo://app?vid=053e96a7-e398-4a99-ae07-b85253a3d4c4"},"vehicle_type_id":"4","last_reported":1701814017,"current_range_meters":7200,"station_id":"ce4bh112rcd13ifvqda0","pricing_plan_id":"free"},{"bike_id":"7219e02c-5e23-48ee-8dc7-5a2658fa9e15","system_id":"levelo_inurba_marseille","lat":43.33773,"lon":5.37474,"is_reserved":false,"is_disabled":false,"rental_uris":{"android":"levelo://app?vid=7219e02c-5e23-48ee-8dc7-5a2658fa9e15","ios":"levelo://app?vid=7219e02c-5e23-48ee-8dc7-5a2658fa9e15"},"vehicle_type_id":"4","last_reported":1701814017,"current_range_meters":2000,"station_id":"","pricing_plan_id":"free"},{"bike_id":"5835fa53-e99e-4426-850c-2c1fdb1dc507","system_id":"levelo_inurba_marseille","lat":43.301117,"lon":5.398795,"is_reserved":false,"is_disabled":false,"rental_uris":{"android":"levelo://app?vid=5835fa53-e99e-4426-850c-2c1fdb1dc507","ios":"levelo://app?vid=5835fa53-e99e-4426-850c-2c1fdb1dc507"},"vehicle_type_id":"4","last_reported":1701814017,"current_range_meters":2800,"station_id":"ce4bh0h2rcd13ifvqd40","pricing_plan_id":"free"},{"bike_id":"b1c44fb3-b780-4346-9631-da6afb4f789a","system_id":"levelo_inurba_marseille","lat":43.28727,"lon":5.36078,"is_reserved":false,"is_disabled":false,"rental_uris":{"android":"levelo://app?vid=b1c44fb3-b780-4346-9631-da6afb4f789a","ios":"levelo://app?vid=b1c44fb3-b780-4346-9631-da6afb4f789a"},"vehicle_type_id":"4","last_reported":1701814017,"current_range_meters":15600,"station_id":"cki0cbj6b192h4jlfktg","pricing_plan_id":"free"},{"bike_id":"3bc4e755-50b2-4f94-97bc-8e003e63d446","system_id":"levelo_inurba_marseille","lat":43.28727,"lon":5.36078,"is_reserved":false,"is_disabled":false,"rental_uris":{"android":"levelo://app?vid=3bc4e755-50b2-4f94-97bc-8e003e63d446","ios":"levelo://app?vid=3bc4e755-50b2-4f94-97bc-8e003e63d446"},"vehicle_type_id":"4","last_reported":1701814017,"current_range_meters":18800,"station_id":"cki0cbj6b192h4jlfktg","pricing_plan_id":"free"},{"bike_id":"1658dd3b-9f05-49bc-82a4-60882e063b01","system_id":"levelo_inurba_marseille","lat":43.28727,"lon":5.36078,"is_reserved":false,"is_disabled":false,"rental_uris":{"android":"levelo://app?vid=1658dd3b-9f05-49bc-82a4-60882e063b01","ios":"levelo://app?vid=1658dd3b-9f05-49bc-82a4-60882e063b01"},"vehicle_type_id":"4","last_reported":1701814017,"current_range_meters":21600,"station_id":"cki0cbj6b192h4jlfktg","pricing_plan_id":"free"},{"bike_id":"05b9f037-9b98-4f3e-b7f5-f037052989da","system_id":"levelo_inurba_marseille","lat":43.287203,"lon":5.360935,"is_reserved":false,"is_disabled":false,"rental_uris":{"android":"levelo://app?vid=05b9f037-9b98-4f3e-b7f5-f037052989da","ios":"levelo://app?vid=05b9f037-9b98-4f3e-b7f5-f037052989da"},"vehicle_type_id":"4","last_reported":1701814017,"current_range_meters":19200,"station_id":"cki0cbj6b192h4jlfktg","pricing_plan_id":"free"},{"bike_id":"9b501635-88a4-472d-8ffa-8ee0f6c887d4","system_id":"levelo_inurba_marseille","lat":43.28727,"lon":5.36078,"is_reserved":false,"is_disabled":false,"rental_uris":{"android":"levelo://app?vid=9b501635-88a4-472d-8ffa-8ee0f6c887d4","ios":"levelo://app?vid=9b501635-88a4-472d-8ffa-8ee0f6c887d4"},"vehicle_type_id":"4","last_reported":1701814017,"current_range_meters":10000,"station_id":"cki0cbj6b192h4jlfktg","pricing_plan_id":"free"},{"bike_id":"5aae1273-2dfe-42da-a13d-5000a1ac4ee7","system_id":"levelo_inurba_marseille","lat":43.283498,"lon":5.380948,"is_reserved":false,"is_disabled":false,"rental_uris":{"android":"levelo://app?vid=5aae1273-2dfe-42da-a13d-5000a1ac4ee7","ios":"levelo://app?vid=5aae1273-2dfe-42da-a13d-5000a1ac4ee7"},"vehicle_type_id":"4","last_reported":1701814017,"current_range_meters":12800,"station_id":"ce4bh412rcd13ifvqdr0","pricing_plan_id":"free"},{"bike_id":"07bb7c2d-8e5f-4f0d-91b6-752ee4c647c7","system_id":"levelo_inurba_marseille","lat":43.286591,"lon":5.363346,"is_reserved":false,"is_disabled":false,"rental_uris":{"android":"levelo://app?vid=07bb7c2d-8e5f-4f0d-91b6-752ee4c647c7","ios":"levelo://app?vid=07bb7c2d-8e5f-4f0d-91b6-752ee4c647c7"},"vehicle_type_id":"4","last_reported":1701814017,"current_range_meters":13200,"station_id":"ce4bhah2rcd13ifvqej0","pricing_plan_id":"free"},{"bike_id":"d450a2ff-4dce-4747-85b1-e54070503b90","system_id":"levelo_inurba_marseille","lat":43.286593,"lon":5.363346,"is_reserved":false,"is_disabled":false,"rental_uris":{"android":"levelo://app?vid=d450a2ff-4dce-4747-85b1-e54070503b90","ios":"levelo://app?vid=d450a2ff-4dce-4747-85b1-e54070503b90"},"vehicle_type_id":"4","last_reported":1701814017,"current_range_meters":12400,"station_id":"ce4bhah2rcd13ifvqej0","pricing_plan_id":"free"},{"bike_id":"1fbd3ca7-eb6e-41e3-85f0-c65b53cd56fd","system_id":"levelo_inurba_marseille","lat":43.286591,"lon":5.363346,"is_reserved":false,"is_disabled":false,"rental_uris":{"android":"levelo://app?vid=1fbd3ca7-eb6e-41e3-85f0-c65b53cd56fd","ios":"levelo://app?vid=1fbd3ca7-eb6e-41e3-85f0-c65b53cd56fd"},"vehicle_type_id":"4","last_reported":1701814017,"current_range_meters":24000,"station_id":"ce4bhah2rcd13ifvqej0","pricing_plan_id":"free"},{"bike_id":"19e8cf46-de88-4dd7-98a1-63aa7e5df212","system_id":"levelo_inurba_marseille","lat":43.298672,"lon":5.397348,"is_reserved":false,"is_disabled":false,"rental_uris":{"android":"levelo://app?vid=19e8cf46-de88-4dd7-98a1-63aa7e5df212","ios":"levelo://app?vid=19e8cf46-de88-4dd7-98a1-63aa7e5df212"},"vehicle_type_id":"4","last_reported":1701814017,"current_range_meters":0,"station_id":"ce4bh0h2rcd13ifvqd50","pricing_plan_id":"free"},{"bike_id":"fd1307ec-f816-4c49-ace4-f060394290ad","system_id":"levelo_inurba_marseille","lat":43.298681,"lon":5.397225,"is_reserved":false,"is_disabled":false,"rental_uris":{"android":"levelo://app?vid=fd1307ec-f816-4c49-ace4-f060394290ad","ios":"levelo://app?vid=fd1307ec-f816-4c49-ace4-f060394290ad"},"vehicle_type_id":"4","last_reported":1701814017,"current_range_meters":0,"station_id":"ce4bh0h2rcd13ifvqd50","pricing_plan_id":"free"},{"bike_id":"e05a83b2-96e5-473c-9425-25592f028f13","system_id":"levelo_inurba_marseille","lat":43.289307,"lon":5.38406,"is_reserved":false,"is_disabled":false,"rental_uris":{"android":"levelo://app?vid=e05a83b2-96e5-473c-9425-25592f028f13","ios":"levelo://app?vid=e05a83b2-96e5-473c-9425-25592f028f13"},"vehicle_type_id":"4","last_reported":1701814017,"current_range_meters":31200,"station_id":"ce4bh612rcd13ifvqe6g","pricing_plan_id":"free"},{"bike_id":"c1234f69-b40c-4296-8d6f-c46a18cd5171","system_id":"levelo_inurba_marseille","lat":43.302759,"lon":5.400793,"is_reserved":false,"is_disabled":false,"rental_uris":{"android":"levelo://app?vid=c1234f69-b40c-4296-8d6f-c46a18cd5171","ios":"levelo://app?vid=c1234f69-b40c-4296-8d6f-c46a18cd5171"},"vehicle_type_id":"4","last_reported":1701814017,"current_range_meters":16000,"station_id":"ce4bgvh2rcd13ifvqcs0","pricing_plan_id":"free"},{"bike_id":"aa06daff-a19e-4948-a992-de064484db8e","system_id":"levelo_inurba_marseille","lat":43.29023,"lon":5.38655,"is_reserved":false,"is_disabled":false,"rental_uris":{"android":"levelo://app?vid=aa06daff-a19e-4948-a992-de064484db8e","ios":"levelo://app?vid=aa06daff-a19e-4948-a992-de064484db8e"},"vehicle_type_id":"4","last_reported":1701814017,"current_range_meters":2400,"station_id":"ce4bh4p2rcd13ifvqe0g","pricing_plan_id":"free"},{"bike_id":"4c69c6a8-c5eb-4909-89ba-fb0488a8f1ad","system_id":"levelo_inurba_marseille","lat":43.302759,"lon":5.400793,"is_reserved":false,"is_disabled":false,"rental_uris":{"android":"levelo://app?vid=4c69c6a8-c5eb-4909-89ba-fb0488a8f1ad","ios":"levelo://app?vid=4c69c6a8-c5eb-4909-89ba-fb0488a8f1ad"},"vehicle_type_id":"4","last_reported":1701814017,"current_range_meters":22800,"station_id":"ce4bgvh2rcd13ifvqcs0","pricing_plan_id":"free"},{"bike_id":"8ecdd6d8-318d-48d6-b323-0a270a0205b8","system_id":"levelo_inurba_marseille","lat":43.284538,"lon":5.358657,"is_reserved":false,"is_disabled":false,"rental_uris":{"android":"levelo://app?vid=8ecdd6d8-318d-48d6-b323-0a270a0205b8","ios":"levelo://app?vid=8ecdd6d8-318d-48d6-b323-0a270a0205b8"},"vehicle_type_id":"4","last_reported":1701814017,"current_range_meters":23600,"station_id":"ce4bhah2rcd13ifvqei0","pricing_plan_id":"free"},{"bike_id":"23e20ab3-3c32-4bb8-b269-6448f0753884","system_id":"levelo_inurba_marseille","lat":43.284534,"lon":5.358662,"is_reserved":false,"is_disabled":false,"rental_uris":{"android":"levelo://app?vid=23e20ab3-3c32-4bb8-b269-6448f0753884","ios":"levelo://app?vid=23e20ab3-3c32-4bb8-b269-6448f0753884"},"vehicle_type_id":"4","last_reported":1701814017,"current_range_meters":28800,"station_id":"ce4bhah2rcd13ifvqei0","pricing_plan_id":"free"},{"bike_id":"f56f8be2-ebde-4d23-8461-f7a6797dcf91","system_id":"levelo_inurba_marseille","lat":43.284538,"lon":5.358657,"is_reserved":false,"is_disabled":false,"rental_uris":{"android":"levelo://app?vid=f56f8be2-ebde-4d23-8461-f7a6797dcf91","ios":"levelo://app?vid=f56f8be2-ebde-4d23-8461-f7a6797dcf91"},"vehicle_type_id":"4","last_reported":1701814017,"current_range_meters":24400,"station_id":"ce4bhah2rcd13ifvqei0","pricing_plan_id":"free"},{"bike_id":"51c79b9f-7d85-4db7-b30c-7d97acf8cc13","system_id":"levelo_inurba_marseille","lat":43.284538,"lon":5.358657,"is_reserved":false,"is_disabled":false,"rental_uris":{"android":"levelo://app?vid=51c79b9f-7d85-4db7-b30c-7d97acf8cc13","ios":"levelo://app?vid=51c79b9f-7d85-4db7-b30c-7d97acf8cc13"},"vehicle_type_id":"4","last_reported":1701814017,"current_range_meters":21200,"station_id":"ce4bhah2rcd13ifvqei0","pricing_plan_id":"free"},{"bike_id":"2abedbcc-388c-48ad-a06d-cc82bfc9c312","system_id":"levelo_inurba_marseille","lat":43.284538,"lon":5.358657,"is_reserved":false,"is_disabled":false,"rental_uris":{"android":"levelo://app?vid=2abedbcc-388c-48ad-a06d-cc82bfc9c312","ios":"levelo://app?vid=2abedbcc-388c-48ad-a06d-cc82bfc9c312"},"vehicle_type_id":"4","last_reported":1701814017,"current_range_meters":19200,"station_id":"ce4bhah2rcd13ifvqei0","pricing_plan_id":"free"},{"bike_id":"8666040e-b6eb-4b35-8626-e4aaade3e572","system_id":"levelo_inurba_marseille","lat":43.284534,"lon":5.358662,"is_reserved":false,"is_disabled":false,"rental_uris":{"android":"levelo://app?vid=8666040e-b6eb-4b35-8626-e4aaade3e572","ios":"levelo://app?vid=8666040e-b6eb-4b35-8626-e4aaade3e572"},"vehicle_type_id":"4","last_reported":1701814017,"current_range_meters":18000,"station_id":"ce4bhah2rcd13ifvqei0","pricing_plan_id":"free"},{"bike_id":"15a282c0-db38-4075-8cbb-b8ce32797b67","system_id":"levelo_inurba_marseille","lat":43.284534,"lon":5.358662,"is_reserved":false,"is_disabled":false,"rental_uris":{"android":"levelo://app?vid=15a282c0-db38-4075-8cbb-b8ce32797b67","ios":"levelo://app?vid=15a282c0-db38-4075-8cbb-b8ce32797b67"},"vehicle_type_id":"4","last_reported":1701814017,"current_range_meters":23600,"station_id":"ce4bhah2rcd13ifvqei0","pricing_plan_id":"free"},{"bike_id":"377edaf2-a03f-485e-8dfc-662d69a5852c","system_id":"levelo_inurba_marseille","lat":43.284538,"lon":5.358657,"is_reserved":false,"is_disabled":false,"rental_uris":{"android":"levelo://app?vid=377edaf2-a03f-485e-8dfc-662d69a5852c","ios":"levelo://app?vid=377edaf2-a03f-485e-8dfc-662d69a5852c"},"vehicle_type_id":"4","last_reported":1701814017,"current_range_meters":30800,"station_id":"ce4bhah2rcd13ifvqei0","pricing_plan_id":"free"},{"bike_id":"2c0a492b-091c-456e-8699-d46e88668379","system_id":"levelo_inurba_marseille","lat":43.284538,"lon":5.358657,"is_reserved":false,"is_disabled":false,"rental_uris":{"android":"levelo://app?vid=2c0a492b-091c-456e-8699-d46e88668379","ios":"levelo://app?vid=2c0a492b-091c-456e-8699-d46e88668379"},"vehicle_type_id":"4","last_reported":1701814017,"current_range_meters":18800,"station_id":"ce4bhah2rcd13ifvqei0","pricing_plan_id":"free"},{"bike_id":"7a06ab4c-8b62-445b-ad43-db0a2b6fd706","system_id":"levelo_inurba_marseille","lat":43.286595,"lon":5.386795,"is_reserved":false,"is_disabled":false,"rental_uris":{"android":"levelo://app?vid=7a06ab4c-8b62-445b-ad43-db0a2b6fd706","ios":"levelo://app?vid=7a06ab4c-8b62-445b-ad43-db0a2b6fd706"},"vehicle_type_id":"4","last_reported":1701814017,"current_range_meters":0,"station_id":"ce4bh492rcd13ifvqdug","pricing_plan_id":"free"},{"bike_id":"6f23328e-17b3-462f-9706-e98611f2cd75","system_id":"levelo_inurba_marseille","lat":43.284793,"lon":5.384119,"is_reserved":false,"is_disabled":false,"rental_uris":{"android":"levelo://app?vid=6f23328e-17b3-462f-9706-e98611f2cd75","ios":"levelo://app?vid=6f23328e-17b3-462f-9706-e98611f2cd75"},"vehicle_type_id":"4","last_reported":1701814017,"current_range_meters":6800,"station_id":"ce4bh512rcd13ifvqe3g","pricing_plan_id":"free"},{"bike_id":"3734231e-d673-4404-b15d-d7a23ba8c854","system_id":"levelo_inurba_marseille","lat":43.288052,"lon":5.391437,"is_reserved":false,"is_disabled":false,"rental_uris":{"android":"levelo://app?vid=3734231e-d673-4404-b15d-d7a23ba8c854","ios":"levelo://app?vid=3734231e-d673-4404-b15d-d7a23ba8c854"},"vehicle_type_id":"4","last_reported":1701814017,"current_range_meters":0,"station_id":"","pricing_plan_id":"free"},{"bike_id":"db920be0-fb0f-4fdb-91ad-92736490ed79","system_id":"levelo_inurba_marseille","lat":43.323464,"lon":5.406297,"is_reserved":false,"is_disabled":false,"rental_uris":{"android":"levelo://app?vid=db920be0-fb0f-4fdb-91ad-92736490ed79","ios":"levelo://app?vid=db920be0-fb0f-4fdb-91ad-92736490ed79"},"vehicle_type_id":"4","last_reported":1701814017,"current_range_meters":27200,"station_id":"ce4bhq92rcd13ifvqhjg","pricing_plan_id":"free"},{"bike_id":"61baa979-f851-421c-9689-3325cdc21bd2","system_id":"levelo_inurba_marseille","lat":43.284787,"lon":5.384116,"is_reserved":false,"is_disabled":false,"rental_uris":{"android":"levelo://app?vid=61baa979-f851-421c-9689-3325cdc21bd2","ios":"levelo://app?vid=61baa979-f851-421c-9689-3325cdc21bd2"},"vehicle_type_id":"4","last_reported":1701814017,"current_range_meters":21600,"station_id":"ce4bh512rcd13ifvqe3g","pricing_plan_id":"free"},{"bike_id":"999b5247-b96f-43d2-b60b-9bb8152c2b7f","system_id":"levelo_inurba_marseille","lat":43.284793,"lon":5.384113,"is_reserved":false,"is_disabled":false,"rental_uris":{"android":"levelo://app?vid=999b5247-b96f-43d2-b60b-9bb8152c2b7f","ios":"levelo://app?vid=999b5247-b96f-43d2-b60b-9bb8152c2b7f"},"vehicle_type_id":"4","last_reported":1701814017,"current_range_meters":12400,"station_id":"ce4bh512rcd13ifvqe3g","pricing_plan_id":"free"},{"bike_id":"5050b9ff-74f9-4a14-8513-e3a7b57aae00","system_id":"levelo_inurba_marseille","lat":43.297946,"lon":5.404063,"is_reserved":false,"is_disabled":false,"rental_uris":{"android":"levelo://app?vid=5050b9ff-74f9-4a14-8513-e3a7b57aae00","ios":"levelo://app?vid=5050b9ff-74f9-4a14-8513-e3a7b57aae00"},"vehicle_type_id":"4","last_reported":1701814017,"current_range_meters":27600,"station_id":"ce4bh112rcd13ifvqd90","pricing_plan_id":"free"},{"bike_id":"026cb359-160b-42ed-baba-f14b0dbc84b7","system_id":"levelo_inurba_marseille","lat":43.288501,"lon":5.393087,"is_reserved":false,"is_disabled":false,"rental_uris":{"android":"levelo://app?vid=026cb359-160b-42ed-baba-f14b0dbc84b7","ios":"levelo://app?vid=026cb359-160b-42ed-baba-f14b0dbc84b7"},"vehicle_type_id":"4","last_reported":1701814017,"current_range_meters":24800,"station_id":"ce4bh2p2rcd13ifvqdi0","pricing_plan_id":"free"},{"bike_id":"611aa79a-0a83-4ab7-a112-13ee77ddbdf2","system_id":"levelo_inurba_marseille","lat":43.283494,"lon":5.380945,"is_reserved":false,"is_disabled":false,"rental_uris":{"android":"levelo://app?vid=611aa79a-0a83-4ab7-a112-13ee77ddbdf2","ios":"levelo://app?vid=611aa79a-0a83-4ab7-a112-13ee77ddbdf2"},"vehicle_type_id":"4","last_reported":1701814017,"current_range_meters":27200,"station_id":"ce4bh412rcd13ifvqdr0","pricing_plan_id":"free"},{"bike_id":"6902b0f0-4e25-40c7-adcf-a2ec95e4ee7f","system_id":"levelo_inurba_marseille","lat":43.284219,"lon":5.3497,"is_reserved":false,"is_disabled":false,"rental_uris":{"android":"levelo://app?vid=6902b0f0-4e25-40c7-adcf-a2ec95e4ee7f","ios":"levelo://app?vid=6902b0f0-4e25-40c7-adcf-a2ec95e4ee7f"},"vehicle_type_id":"4","last_reported":1701814017,"current_range_meters":9600,"station_id":"ce4bhbh2rcd13ifvqepg","pricing_plan_id":"free"},{"bike_id":"18cf44bf-f3c4-4ca7-8c5a-9dac8c5c9a94","system_id":"levelo_inurba_marseille","lat":43.289363,"lon":5.396322,"is_reserved":false,"is_disabled":false,"rental_uris":{"android":"levelo://app?vid=18cf44bf-f3c4-4ca7-8c5a-9dac8c5c9a94","ios":"levelo://app?vid=18cf44bf-f3c4-4ca7-8c5a-9dac8c5c9a94"},"vehicle_type_id":"4","last_reported":1701814017,"current_range_meters":30000,"station_id":"ce4bh3h2rcd13ifvqdn0","pricing_plan_id":"free"},{"bike_id":"26176591-63bb-4528-85ef-fff9e51fe26a","system_id":"levelo_inurba_marseille","lat":43.292724,"lon":5.401131,"is_reserved":false,"is_disabled":false,"rental_uris":{"android":"levelo://app?vid=26176591-63bb-4528-85ef-fff9e51fe26a","ios":"levelo://app?vid=26176591-63bb-4528-85ef-fff9e51fe26a"},"vehicle_type_id":"4","last_reported":1701814017,"current_range_meters":1600,"station_id":"ce4bh312rcd13ifvqdk0","pricing_plan_id":"free"},{"bike_id":"bce71c12-22d6-45da-b79d-1da2154b978f","system_id":"levelo_inurba_marseille","lat":43.282744,"lon":5.350533,"is_reserved":false,"is_disabled":false,"rental_uris":{"android":"levelo://app?vid=bce71c12-22d6-45da-b79d-1da2154b978f","ios":"levelo://app?vid=bce71c12-22d6-45da-b79d-1da2154b978f"},"vehicle_type_id":"4","last_reported":1701814017,"current_range_meters":17200,"station_id":"ce4bhbp2rcd13ifvqerg","pricing_plan_id":"free"},{"bike_id":"a19aa61e-072b-40a9-aa91-b6a4e3a9be8f","system_id":"levelo_inurba_marseille","lat":43.282754,"lon":5.350519,"is_reserved":false,"is_disabled":false,"rental_uris":{"android":"levelo://app?vid=a19aa61e-072b-40a9-aa91-b6a4e3a9be8f","ios":"levelo://app?vid=a19aa61e-072b-40a9-aa91-b6a4e3a9be8f"},"vehicle_type_id":"4","last_reported":1701814017,"current_range_meters":16800,"station_id":"ce4bhbp2rcd13ifvqerg","pricing_plan_id":"free"},{"bike_id":"756c4df3-0640-4aee-84c9-9bd41f9503ab","system_id":"levelo_inurba_marseille","lat":43.282744,"lon":5.350533,"is_reserved":false,"is_disabled":false,"rental_uris":{"android":"levelo://app?vid=756c4df3-0640-4aee-84c9-9bd41f9503ab","ios":"levelo://app?vid=756c4df3-0640-4aee-84c9-9bd41f9503ab"},"vehicle_type_id":"4","last_reported":1701814017,"current_range_meters":7200,"station_id":"ce4bhbp2rcd13ifvqerg","pricing_plan_id":"free"},{"bike_id":"75972282-15cc-44bc-b5ff-d20e6063f1de","system_id":"levelo_inurba_marseille","lat":43.28039,"lon":5.369297,"is_reserved":false,"is_disabled":false,"rental_uris":{"android":"levelo://app?vid=75972282-15cc-44bc-b5ff-d20e6063f1de","ios":"levelo://app?vid=75972282-15cc-44bc-b5ff-d20e6063f1de"},"vehicle_type_id":"4","last_reported":1701814017,"current_range_meters":20800,"station_id":"ce4bha12rcd13ifvqef0","pricing_plan_id":"free"},{"bike_id":"54ed5a7f-9259-47f8-a381-3ea9ad9e4f00","system_id":"levelo_inurba_marseille","lat":43.28039,"lon":5.369297,"is_reserved":false,"is_disabled":false,"rental_uris":{"android":"levelo://app?vid=54ed5a7f-9259-47f8-a381-3ea9ad9e4f00","ios":"levelo://app?vid=54ed5a7f-9259-47f8-a381-3ea9ad9e4f00"},"vehicle_type_id":"4","last_reported":1701814017,"current_range_meters":13600,"station_id":"ce4bha12rcd13ifvqef0","pricing_plan_id":"free"},{"bike_id":"3e63bd18-083f-433f-90d8-accbcf1dd2cc","system_id":"levelo_inurba_marseille","lat":43.28039,"lon":5.369297,"is_reserved":false,"is_disabled":false,"rental_uris":{"android":"levelo://app?vid=3e63bd18-083f-433f-90d8-accbcf1dd2cc","ios":"levelo://app?vid=3e63bd18-083f-433f-90d8-accbcf1dd2cc"},"vehicle_type_id":"4","last_reported":1701814017,"current_range_meters":12800,"station_id":"ce4bha12rcd13ifvqef0","pricing_plan_id":"free"},{"bike_id":"183f539f-3181-4fd4-82d7-e1df942ed36d","system_id":"levelo_inurba_marseille","lat":43.28039,"lon":5.369297,"is_reserved":false,"is_disabled":false,"rental_uris":{"android":"levelo://app?vid=183f539f-3181-4fd4-82d7-e1df942ed36d","ios":"levelo://app?vid=183f539f-3181-4fd4-82d7-e1df942ed36d"},"vehicle_type_id":"4","last_reported":1701814017,"current_range_meters":3200,"station_id":"ce4bha12rcd13ifvqef0","pricing_plan_id":"free"},{"bike_id":"f7c3d316-f2ac-4533-b71f-5d4c74ddef5c","system_id":"levelo_inurba_marseille","lat":43.290412,"lon":5.399633,"is_reserved":false,"is_disabled":false,"rental_uris":{"android":"levelo://app?vid=f7c3d316-f2ac-4533-b71f-5d4c74ddef5c","ios":"levelo://app?vid=f7c3d316-f2ac-4533-b71f-5d4c74ddef5c"},"vehicle_type_id":"4","last_reported":1701814017,"current_range_meters":17600,"station_id":"ce4bh392rcd13ifvqdm0","pricing_plan_id":"free"},{"bike_id":"c81ecbe4-e7d7-4d91-b762-91a88fcc9b4e","system_id":"levelo_inurba_marseille","lat":43.290412,"lon":5.399633,"is_reserved":false,"is_disabled":false,"rental_uris":{"android":"levelo://app?vid=c81ecbe4-e7d7-4d91-b762-91a88fcc9b4e","ios":"levelo://app?vid=c81ecbe4-e7d7-4d91-b762-91a88fcc9b4e"},"vehicle_type_id":"4","last_reported":1701814017,"current_range_meters":7200,"station_id":"ce4bh392rcd13ifvqdm0","pricing_plan_id":"free"},{"bike_id":"44809a93-d473-4ee2-a992-d4bd8c0ddcfd","system_id":"levelo_inurba_marseille","lat":43.296263,"lon":5.40601,"is_reserved":false,"is_disabled":false,"rental_uris":{"android":"levelo://app?vid=44809a93-d473-4ee2-a992-d4bd8c0ddcfd","ios":"levelo://app?vid=44809a93-d473-4ee2-a992-d4bd8c0ddcfd"},"vehicle_type_id":"4","last_reported":1701814017,"current_range_meters":26400,"station_id":"ce4bh0h2rcd13ifvqd60","pricing_plan_id":"free"},{"bike_id":"3b4ac1c6-6cbf-4e90-b601-9d8596040740","system_id":"levelo_inurba_marseille","lat":43.28447,"lon":5.39195,"is_reserved":false,"is_disabled":false,"rental_uris":{"android":"levelo://app?vid=3b4ac1c6-6cbf-4e90-b601-9d8596040740","ios":"levelo://app?vid=3b4ac1c6-6cbf-4e90-b601-9d8596040740"},"vehicle_type_id":"4","last_reported":1701814017,"current_range_meters":12000,"station_id":"ce4bhoh2rcd13ifvqh5g","pricing_plan_id":"free"},{"bike_id":"c1e27a33-181e-4a5d-8f16-b8e469d2e9ab","system_id":"levelo_inurba_marseille","lat":43.286961,"lon":5.373785,"is_reserved":false,"is_disabled":false,"rental_uris":{"android":"levelo://app?vid=c1e27a33-181e-4a5d-8f16-b8e469d2e9ab","ios":"levelo://app?vid=c1e27a33-181e-4a5d-8f16-b8e469d2e9ab"},"vehicle_type_id":"4","last_reported":1701814017,"current_range_meters":17600,"station_id":"ce4bh3p2rcd13ifvqdq0","pricing_plan_id":"free"},{"bike_id":"637deae7-4759-4b7d-a073-f6bd4e4da490","system_id":"levelo_inurba_marseille","lat":43.28573,"lon":5.394992,"is_reserved":false,"is_disabled":false,"rental_uris":{"android":"levelo://app?vid=637deae7-4759-4b7d-a073-f6bd4e4da490","ios":"levelo://app?vid=637deae7-4759-4b7d-a073-f6bd4e4da490"},"vehicle_type_id":"4","last_reported":1701814017,"current_range_meters":11200,"station_id":"ce4bh292rcd13ifvqdg0","pricing_plan_id":"free"},{"bike_id":"537b6760-696d-4ecd-93fb-02bd18532c61","system_id":"levelo_inurba_marseille","lat":43.28573,"lon":5.394992,"is_reserved":false,"is_disabled":false,"rental_uris":{"android":"levelo://app?vid=537b6760-696d-4ecd-93fb-02bd18532c61","ios":"levelo://app?vid=537b6760-696d-4ecd-93fb-02bd18532c61"},"vehicle_type_id":"4","last_reported":1701814017,"current_range_meters":27200,"station_id":"ce4bh292rcd13ifvqdg0","pricing_plan_id":"free"},{"bike_id":"2f5c4560-0878-4aff-b74b-f90e1e833532","system_id":"levelo_inurba_marseille","lat":43.326605,"lon":5.409903,"is_reserved":false,"is_disabled":false,"rental_uris":{"android":"levelo://app?vid=2f5c4560-0878-4aff-b74b-f90e1e833532","ios":"levelo://app?vid=2f5c4560-0878-4aff-b74b-f90e1e833532"},"vehicle_type_id":"4","last_reported":1701814017,"current_range_meters":6400,"station_id":"ce4bhpp2rcd13ifvqhgg","pricing_plan_id":"free"},{"bike_id":"486efaf5-0116-4223-967f-075be4dc6679","system_id":"levelo_inurba_marseille","lat":43.279087,"lon":5.380114,"is_reserved":false,"is_disabled":false,"rental_uris":{"android":"levelo://app?vid=486efaf5-0116-4223-967f-075be4dc6679","ios":"levelo://app?vid=486efaf5-0116-4223-967f-075be4dc6679"},"vehicle_type_id":"4","last_reported":1701814017,"current_range_meters":27200,"station_id":"ce4bhf92rcd13ifvqf50","pricing_plan_id":"free"},{"bike_id":"5bdf052e-fe2c-47ce-ac13-84edc28fef3b","system_id":"levelo_inurba_marseille","lat":43.287154,"lon":5.399979,"is_reserved":false,"is_disabled":false,"rental_uris":{"android":"levelo://app?vid=5bdf052e-fe2c-47ce-ac13-84edc28fef3b","ios":"levelo://app?vid=5bdf052e-fe2c-47ce-ac13-84edc28fef3b"},"vehicle_type_id":"4","last_reported":1701814017,"current_range_meters":29200,"station_id":"ce4bho92rcd13ifvqh3g","pricing_plan_id":"free"},{"bike_id":"22ca2933-8ce1-4d84-ab41-cfc1e2e6ee6d","system_id":"levelo_inurba_marseille","lat":43.287154,"lon":5.399979,"is_reserved":false,"is_disabled":false,"rental_uris":{"android":"levelo://app?vid=22ca2933-8ce1-4d84-ab41-cfc1e2e6ee6d","ios":"levelo://app?vid=22ca2933-8ce1-4d84-ab41-cfc1e2e6ee6d"},"vehicle_type_id":"4","last_reported":1701814017,"current_range_meters":2800,"station_id":"ce4bho92rcd13ifvqh3g","pricing_plan_id":"free"},{"bike_id":"d46ebe5f-53fd-402a-975e-a6661698e060","system_id":"levelo_inurba_marseille","lat":43.320045,"lon":5.415048,"is_reserved":false,"is_disabled":false,"rental_uris":{"android":"levelo://app?vid=d46ebe5f-53fd-402a-975e-a6661698e060","ios":"levelo://app?vid=d46ebe5f-53fd-402a-975e-a6661698e060"},"vehicle_type_id":"4","last_reported":1701814017,"current_range_meters":16800,"station_id":"ce4bhq92rcd13ifvqhkg","pricing_plan_id":"free"},{"bike_id":"d5f6e73f-c04b-4893-aaf5-d187974d0a2d","system_id":"levelo_inurba_marseille","lat":43.27971,"lon":5.38732,"is_reserved":false,"is_disabled":false,"rental_uris":{"android":"levelo://app?vid=d5f6e73f-c04b-4893-aaf5-d187974d0a2d","ios":"levelo://app?vid=d5f6e73f-c04b-4893-aaf5-d187974d0a2d"},"vehicle_type_id":"4","last_reported":1701814017,"current_range_meters":5600,"station_id":"ce4bhg12rcd13ifvqf80","pricing_plan_id":"free"},{"bike_id":"d2ab3a38-6fad-41ec-b12a-6d372ba03be8","system_id":"levelo_inurba_marseille","lat":43.320045,"lon":5.415048,"is_reserved":false,"is_disabled":false,"rental_uris":{"android":"levelo://app?vid=d2ab3a38-6fad-41ec-b12a-6d372ba03be8","ios":"levelo://app?vid=d2ab3a38-6fad-41ec-b12a-6d372ba03be8"},"vehicle_type_id":"4","last_reported":1701814017,"current_range_meters":24000,"station_id":"ce4bhq92rcd13ifvqhkg","pricing_plan_id":"free"},{"bike_id":"e5d6c46c-88df-4016-89e2-55665425c00c","system_id":"levelo_inurba_marseille","lat":43.320045,"lon":5.415046,"is_reserved":false,"is_disabled":false,"rental_uris":{"android":"levelo://app?vid=e5d6c46c-88df-4016-89e2-55665425c00c","ios":"levelo://app?vid=e5d6c46c-88df-4016-89e2-55665425c00c"},"vehicle_type_id":"4","last_reported":1701814017,"current_range_meters":20800,"station_id":"ce4bhq92rcd13ifvqhkg","pricing_plan_id":"free"},{"bike_id":"ed9165b6-9343-4194-b429-02400d728936","system_id":"levelo_inurba_marseille","lat":43.279742,"lon":5.38744,"is_reserved":false,"is_disabled":false,"rental_uris":{"android":"levelo://app?vid=ed9165b6-9343-4194-b429-02400d728936","ios":"levelo://app?vid=ed9165b6-9343-4194-b429-02400d728936"},"vehicle_type_id":"4","last_reported":1701814017,"current_range_meters":14400,"station_id":"ce4bhg12rcd13ifvqf80","pricing_plan_id":"free"},{"bike_id":"09f96b1e-b265-4141-9721-8ee9a5ff0178","system_id":"levelo_inurba_marseille","lat":43.292571,"lon":5.409107,"is_reserved":false,"is_disabled":false,"rental_uris":{"android":"levelo://app?vid=09f96b1e-b265-4141-9721-8ee9a5ff0178","ios":"levelo://app?vid=09f96b1e-b265-4141-9721-8ee9a5ff0178"},"vehicle_type_id":"4","last_reported":1701814017,"current_range_meters":14800,"station_id":"ce4bh192rcd13ifvqdc0","pricing_plan_id":"free"},{"bike_id":"9c8367b4-6c5e-43c8-abd9-d0986feb60cc","system_id":"levelo_inurba_marseille","lat":43.292569,"lon":5.409107,"is_reserved":false,"is_disabled":false,"rental_uris":{"android":"levelo://app?vid=9c8367b4-6c5e-43c8-abd9-d0986feb60cc","ios":"levelo://app?vid=9c8367b4-6c5e-43c8-abd9-d0986feb60cc"},"vehicle_type_id":"4","last_reported":1701814017,"current_range_meters":16400,"station_id":"ce4bh192rcd13ifvqdc0","pricing_plan_id":"free"},{"bike_id":"8d37f3f3-cafe-41b3-93ac-86502e716d0e","system_id":"levelo_inurba_marseille","lat":43.292569,"lon":5.409107,"is_reserved":false,"is_disabled":false,"rental_uris":{"android":"levelo://app?vid=8d37f3f3-cafe-41b3-93ac-86502e716d0e","ios":"levelo://app?vid=8d37f3f3-cafe-41b3-93ac-86502e716d0e"},"vehicle_type_id":"4","last_reported":1701814017,"current_range_meters":14400,"station_id":"ce4bh192rcd13ifvqdc0","pricing_plan_id":"free"},{"bike_id":"140b8ec6-aa09-43f1-9b46-72dda8328aa4","system_id":"levelo_inurba_marseille","lat":43.292571,"lon":5.409107,"is_reserved":false,"is_disabled":false,"rental_uris":{"android":"levelo://app?vid=140b8ec6-aa09-43f1-9b46-72dda8328aa4","ios":"levelo://app?vid=140b8ec6-aa09-43f1-9b46-72dda8328aa4"},"vehicle_type_id":"4","last_reported":1701814017,"current_range_meters":12000,"station_id":"ce4bh192rcd13ifvqdc0","pricing_plan_id":"free"},{"bike_id":"1b7ddf39-3262-4dfa-b92a-c089db7658f1","system_id":"levelo_inurba_marseille","lat":43.292569,"lon":5.409107,"is_reserved":false,"is_disabled":false,"rental_uris":{"android":"levelo://app?vid=1b7ddf39-3262-4dfa-b92a-c089db7658f1","ios":"levelo://app?vid=1b7ddf39-3262-4dfa-b92a-c089db7658f1"},"vehicle_type_id":"4","last_reported":1701814017,"current_range_meters":22800,"station_id":"ce4bh192rcd13ifvqdc0","pricing_plan_id":"free"},{"bike_id":"4fcc6f08-3b05-4a6c-a797-d66e356cfa7c","system_id":"levelo_inurba_marseille","lat":43.292569,"lon":5.409107,"is_reserved":false,"is_disabled":false,"rental_uris":{"android":"levelo://app?vid=4fcc6f08-3b05-4a6c-a797-d66e356cfa7c","ios":"levelo://app?vid=4fcc6f08-3b05-4a6c-a797-d66e356cfa7c"},"vehicle_type_id":"4","last_reported":1701814017,"current_range_meters":26800,"station_id":"ce4bh192rcd13ifvqdc0","pricing_plan_id":"free"},{"bike_id":"e653648a-b829-4301-bab0-7c830288dee0","system_id":"levelo_inurba_marseille","lat":43.303837,"lon":5.418724,"is_reserved":false,"is_disabled":false,"rental_uris":{"android":"levelo://app?vid=e653648a-b829-4301-bab0-7c830288dee0","ios":"levelo://app?vid=e653648a-b829-4301-bab0-7c830288dee0"},"vehicle_type_id":"4","last_reported":1701814017,"current_range_meters":22400,"station_id":"ce4bhop2rcd13ifvqh7g","pricing_plan_id":"free"},{"bike_id":"8d3318de-ae70-4d4c-a0c3-af014cb01a56","system_id":"levelo_inurba_marseille","lat":43.278401,"lon":5.392152,"is_reserved":false,"is_disabled":false,"rental_uris":{"android":"levelo://app?vid=8d3318de-ae70-4d4c-a0c3-af014cb01a56","ios":"levelo://app?vid=8d3318de-ae70-4d4c-a0c3-af014cb01a56"},"vehicle_type_id":"4","last_reported":1701814017,"current_range_meters":12400,"station_id":"ce4bhjp2rcd13ifvqga0","pricing_plan_id":"free"},{"bike_id":"17db11e9-ff6b-4265-a772-9fca0f8a787a","system_id":"levelo_inurba_marseille","lat":43.28503,"lon":5.40457,"is_reserved":false,"is_disabled":false,"rental_uris":{"android":"levelo://app?vid=17db11e9-ff6b-4265-a772-9fca0f8a787a","ios":"levelo://app?vid=17db11e9-ff6b-4265-a772-9fca0f8a787a"},"vehicle_type_id":"4","last_reported":1701814017,"current_range_meters":0,"station_id":"","pricing_plan_id":"free"},{"bike_id":"f6def740-c529-48fa-9ea7-749c5a705d12","system_id":"levelo_inurba_marseille","lat":43.278401,"lon":5.392152,"is_reserved":false,"is_disabled":false,"rental_uris":{"android":"levelo://app?vid=f6def740-c529-48fa-9ea7-749c5a705d12","ios":"levelo://app?vid=f6def740-c529-48fa-9ea7-749c5a705d12"},"vehicle_type_id":"4","last_reported":1701814017,"current_range_meters":15200,"station_id":"ce4bhjp2rcd13ifvqga0","pricing_plan_id":"free"},{"bike_id":"836698bf-0593-4c6f-a29c-25959d245d4a","system_id":"levelo_inurba_marseille","lat":43.273613,"lon":5.362705,"is_reserved":false,"is_disabled":false,"rental_uris":{"android":"levelo://app?vid=836698bf-0593-4c6f-a29c-25959d245d4a","ios":"levelo://app?vid=836698bf-0593-4c6f-a29c-25959d245d4a"},"vehicle_type_id":"4","last_reported":1701814017,"current_range_meters":26800,"station_id":"ce4bhbh2rcd13ifvqeo0","pricing_plan_id":"free"},{"bike_id":"cca4c3ca-721c-44a8-8769-897e17e43867","system_id":"levelo_inurba_marseille","lat":43.275625,"lon":5.384392,"is_reserved":false,"is_disabled":false,"rental_uris":{"android":"levelo://app?vid=cca4c3ca-721c-44a8-8769-897e17e43867","ios":"levelo://app?vid=cca4c3ca-721c-44a8-8769-897e17e43867"},"vehicle_type_id":"4","last_reported":1701814017,"current_range_meters":14800,"station_id":"ce4bhh92rcd13ifvqfi0","pricing_plan_id":"free"},{"bike_id":"b1e0d68f-b5ce-4efc-a11d-bb9890d3062f","system_id":"levelo_inurba_marseille","lat":43.27871,"lon":5.394922,"is_reserved":false,"is_disabled":false,"rental_uris":{"android":"levelo://app?vid=b1e0d68f-b5ce-4efc-a11d-bb9890d3062f","ios":"levelo://app?vid=b1e0d68f-b5ce-4efc-a11d-bb9890d3062f"},"vehicle_type_id":"4","last_reported":1701814017,"current_range_meters":27600,"station_id":"","pricing_plan_id":"free"},{"bike_id":"2c337d2b-cceb-4a65-b16d-e1c20cfe6466","system_id":"levelo_inurba_marseille","lat":43.279975,"lon":5.40009,"is_reserved":false,"is_disabled":false,"rental_uris":{"android":"levelo://app?vid=2c337d2b-cceb-4a65-b16d-e1c20cfe6466","ios":"levelo://app?vid=2c337d2b-cceb-4a65-b16d-e1c20cfe6466"},"vehicle_type_id":"4","last_reported":1701814017,"current_range_meters":30800,"station_id":"ce4bho92rcd13ifvqh4g","pricing_plan_id":"free"},{"bike_id":"4f3c361f-dc39-4eb2-8cb4-572b7625ae11","system_id":"levelo_inurba_marseille","lat":43.279941,"lon":5.400214,"is_reserved":false,"is_disabled":false,"rental_uris":{"android":"levelo://app?vid=4f3c361f-dc39-4eb2-8cb4-572b7625ae11","ios":"levelo://app?vid=4f3c361f-dc39-4eb2-8cb4-572b7625ae11"},"vehicle_type_id":"4","last_reported":1701814017,"current_range_meters":11200,"station_id":"ce4bho92rcd13ifvqh4g","pricing_plan_id":"free"},{"bike_id":"dd6b756e-3032-4bf3-8729-0e0248edbc6c","system_id":"levelo_inurba_marseille","lat":43.317121,"lon":5.423936,"is_reserved":false,"is_disabled":false,"rental_uris":{"android":"levelo://app?vid=dd6b756e-3032-4bf3-8729-0e0248edbc6c","ios":"levelo://app?vid=dd6b756e-3032-4bf3-8729-0e0248edbc6c"},"vehicle_type_id":"4","last_reported":1701814017,"current_range_meters":27600,"station_id":"ce4bhp92rcd13ifvqhbg","pricing_plan_id":"free"},{"bike_id":"5c10bde1-24aa-4e39-bdd5-9dcf98042632","system_id":"levelo_inurba_marseille","lat":43.317121,"lon":5.423936,"is_reserved":false,"is_disabled":false,"rental_uris":{"android":"levelo://app?vid=5c10bde1-24aa-4e39-bdd5-9dcf98042632","ios":"levelo://app?vid=5c10bde1-24aa-4e39-bdd5-9dcf98042632"},"vehicle_type_id":"4","last_reported":1701814017,"current_range_meters":15200,"station_id":"ce4bhp92rcd13ifvqhbg","pricing_plan_id":"free"},{"bike_id":"354d4287-7d7e-4bcb-93a2-6e310ddd5d92","system_id":"levelo_inurba_marseille","lat":43.310785,"lon":5.424305,"is_reserved":false,"is_disabled":false,"rental_uris":{"android":"levelo://app?vid=354d4287-7d7e-4bcb-93a2-6e310ddd5d92","ios":"levelo://app?vid=354d4287-7d7e-4bcb-93a2-6e310ddd5d92"},"vehicle_type_id":"4","last_reported":1701814017,"current_range_meters":14400,"station_id":"ce4bhp92rcd13ifvqhag","pricing_plan_id":"free"},{"bike_id":"910fd3aa-d2e0-4553-894a-6161d41c7fcd","system_id":"levelo_inurba_marseille","lat":43.27568,"lon":5.39542,"is_reserved":false,"is_disabled":false,"rental_uris":{"android":"levelo://app?vid=910fd3aa-d2e0-4553-894a-6161d41c7fcd","ios":"levelo://app?vid=910fd3aa-d2e0-4553-894a-6161d41c7fcd"},"vehicle_type_id":"4","last_reported":1701814017,"current_range_meters":4800,"station_id":"","pricing_plan_id":"free"},{"bike_id":"8e6c03ab-3d95-4647-9347-859334921d66","system_id":"levelo_inurba_marseille","lat":43.274099,"lon":5.394019,"is_reserved":false,"is_disabled":false,"rental_uris":{"android":"levelo://app?vid=8e6c03ab-3d95-4647-9347-859334921d66","ios":"levelo://app?vid=8e6c03ab-3d95-4647-9347-859334921d66"},"vehicle_type_id":"4","last_reported":1701814017,"current_range_meters":27200,"station_id":"ce4bhdp2rcd13ifvqf20","pricing_plan_id":"free"},{"bike_id":"f260e719-2c7a-4462-9fef-55bbbaae44fa","system_id":"levelo_inurba_marseille","lat":43.272116,"lon":5.391747,"is_reserved":false,"is_disabled":false,"rental_uris":{"android":"levelo://app?vid=f260e719-2c7a-4462-9fef-55bbbaae44fa","ios":"levelo://app?vid=f260e719-2c7a-4462-9fef-55bbbaae44fa"},"vehicle_type_id":"4","last_reported":1701814017,"current_range_meters":27200,"station_id":"ce4bhhp2rcd13ifvqfm0","pricing_plan_id":"free"},{"bike_id":"4aaafaa4-5992-4d41-aca4-45ea537c3e9e","system_id":"levelo_inurba_marseille","lat":43.27214,"lon":5.3925,"is_reserved":false,"is_disabled":false,"rental_uris":{"android":"levelo://app?vid=4aaafaa4-5992-4d41-aca4-45ea537c3e9e","ios":"levelo://app?vid=4aaafaa4-5992-4d41-aca4-45ea537c3e9e"},"vehicle_type_id":"4","last_reported":1701814017,"current_range_meters":15600,"station_id":"","pricing_plan_id":"free"},{"bike_id":"8fa35e1f-33e5-456f-b4d9-88ba076c838b","system_id":"levelo_inurba_marseille","lat":43.269467,"lon":5.386439,"is_reserved":false,"is_disabled":false,"rental_uris":{"android":"levelo://app?vid=8fa35e1f-33e5-456f-b4d9-88ba076c838b","ios":"levelo://app?vid=8fa35e1f-33e5-456f-b4d9-88ba076c838b"},"vehicle_type_id":"4","last_reported":1701814017,"current_range_meters":17600,"station_id":"ce4bhh92rcd13ifvqfh0","pricing_plan_id":"free"},{"bike_id":"a6f33f78-b9bb-4932-80af-5b43dd5bb9d9","system_id":"levelo_inurba_marseille","lat":43.269319,"lon":5.389397,"is_reserved":false,"is_disabled":false,"rental_uris":{"android":"levelo://app?vid=a6f33f78-b9bb-4932-80af-5b43dd5bb9d9","ios":"levelo://app?vid=a6f33f78-b9bb-4932-80af-5b43dd5bb9d9"},"vehicle_type_id":"4","last_reported":1701814017,"current_range_meters":1200,"station_id":"ce4bhhh2rcd13ifvqfl0","pricing_plan_id":"free"},{"bike_id":"49959198-6e99-490a-8583-e532d74c5d82","system_id":"levelo_inurba_marseille","lat":43.27996,"lon":5.416624,"is_reserved":false,"is_disabled":false,"rental_uris":{"android":"levelo://app?vid=49959198-6e99-490a-8583-e532d74c5d82","ios":"levelo://app?vid=49959198-6e99-490a-8583-e532d74c5d82"},"vehicle_type_id":"4","last_reported":1701814017,"current_range_meters":17200,"station_id":"ce4bho12rcd13ifvqh1g","pricing_plan_id":"free"},{"bike_id":"8e50a2a3-63a6-454e-bfc7-0d30cf65c822","system_id":"levelo_inurba_marseille","lat":43.308051,"lon":5.43527,"is_reserved":false,"is_disabled":false,"rental_uris":{"android":"levelo://app?vid=8e50a2a3-63a6-454e-bfc7-0d30cf65c822","ios":"levelo://app?vid=8e50a2a3-63a6-454e-bfc7-0d30cf65c822"},"vehicle_type_id":"4","last_reported":1701814017,"current_range_meters":30000,"station_id":"ce4bhph2rcd13ifvqheg","pricing_plan_id":"free"},{"bike_id":"8813dbba-e27a-4b7d-8a9d-a2969baa525d","system_id":"levelo_inurba_marseille","lat":43.265569,"lon":5.390047,"is_reserved":false,"is_disabled":false,"rental_uris":{"android":"levelo://app?vid=8813dbba-e27a-4b7d-8a9d-a2969baa525d","ios":"levelo://app?vid=8813dbba-e27a-4b7d-8a9d-a2969baa525d"},"vehicle_type_id":"4","last_reported":1701814017,"current_range_meters":8000,"station_id":"ce4bhe12rcd13ifvqf30","pricing_plan_id":"free"},{"bike_id":"4f34044e-b6b5-4f45-aa26-16b610aacef7","system_id":"levelo_inurba_marseille","lat":43.317104,"lon":5.436818,"is_reserved":false,"is_disabled":false,"rental_uris":{"android":"levelo://app?vid=4f34044e-b6b5-4f45-aa26-16b610aacef7","ios":"levelo://app?vid=4f34044e-b6b5-4f45-aa26-16b610aacef7"},"vehicle_type_id":"4","last_reported":1701814017,"current_range_meters":30400,"station_id":"ce4bhp92rcd13ifvqhcg","pricing_plan_id":"free"},{"bike_id":"9ac7abeb-89e8-41a4-9fbb-7ef51af7ee65","system_id":"levelo_inurba_marseille","lat":43.317104,"lon":5.436818,"is_reserved":false,"is_disabled":false,"rental_uris":{"android":"levelo://app?vid=9ac7abeb-89e8-41a4-9fbb-7ef51af7ee65","ios":"levelo://app?vid=9ac7abeb-89e8-41a4-9fbb-7ef51af7ee65"},"vehicle_type_id":"4","last_reported":1701814017,"current_range_meters":18800,"station_id":"ce4bhp92rcd13ifvqhcg","pricing_plan_id":"free"},{"bike_id":"37038aca-97ca-4cb2-81d0-9a4826818ca5","system_id":"levelo_inurba_marseille","lat":43.26202,"lon":5.379299,"is_reserved":false,"is_disabled":false,"rental_uris":{"android":"levelo://app?vid=37038aca-97ca-4cb2-81d0-9a4826818ca5","ios":"levelo://app?vid=37038aca-97ca-4cb2-81d0-9a4826818ca5"},"vehicle_type_id":"4","last_reported":1701814017,"current_range_meters":27600,"station_id":"ce4bhjp2rcd13ifvqg90","pricing_plan_id":"free"},{"bike_id":"ce63206a-4c55-4867-9ae3-5b995ed6f84c","system_id":"levelo_inurba_marseille","lat":43.271368,"lon":5.40928,"is_reserved":false,"is_disabled":false,"rental_uris":{"android":"levelo://app?vid=ce63206a-4c55-4867-9ae3-5b995ed6f84c","ios":"levelo://app?vid=ce63206a-4c55-4867-9ae3-5b995ed6f84c"},"vehicle_type_id":"4","last_reported":1701814017,"current_range_meters":14400,"station_id":"ce4bhl12rcd13ifvqgf0","pricing_plan_id":"free"},{"bike_id":"c767e99e-1927-4c14-b7fe-3da9a58a3d73","system_id":"levelo_inurba_marseille","lat":43.267959,"lon":5.402687,"is_reserved":false,"is_disabled":false,"rental_uris":{"android":"levelo://app?vid=c767e99e-1927-4c14-b7fe-3da9a58a3d73","ios":"levelo://app?vid=c767e99e-1927-4c14-b7fe-3da9a58a3d73"},"vehicle_type_id":"4","last_reported":1701814017,"current_range_meters":5600,"station_id":"ce501612rcd8frsf0b60","pricing_plan_id":"free"},{"bike_id":"c54cd023-a6f2-4d68-aabc-4be9f862ccbb","system_id":"levelo_inurba_marseille","lat":43.298768,"lon":5.43643,"is_reserved":false,"is_disabled":false,"rental_uris":{"android":"levelo://app?vid=c54cd023-a6f2-4d68-aabc-4be9f862ccbb","ios":"levelo://app?vid=c54cd023-a6f2-4d68-aabc-4be9f862ccbb"},"vehicle_type_id":"4","last_reported":1701814017,"current_range_meters":31200,"station_id":"ce4bhpp2rcd13ifvqhfg","pricing_plan_id":"free"},{"bike_id":"16076b9d-08c1-4b78-aef5-4c8ec51413f4","system_id":"levelo_inurba_marseille","lat":43.298768,"lon":5.43643,"is_reserved":false,"is_disabled":false,"rental_uris":{"android":"levelo://app?vid=16076b9d-08c1-4b78-aef5-4c8ec51413f4","ios":"levelo://app?vid=16076b9d-08c1-4b78-aef5-4c8ec51413f4"},"vehicle_type_id":"4","last_reported":1701814017,"current_range_meters":16800,"station_id":"ce4bhpp2rcd13ifvqhfg","pricing_plan_id":"free"},{"bike_id":"ee3f0752-b275-4948-a5e5-3ea20bb15c3f","system_id":"levelo_inurba_marseille","lat":43.26065,"lon":5.39398,"is_reserved":false,"is_disabled":false,"rental_uris":{"android":"levelo://app?vid=ee3f0752-b275-4948-a5e5-3ea20bb15c3f","ios":"levelo://app?vid=ee3f0752-b275-4948-a5e5-3ea20bb15c3f"},"vehicle_type_id":"4","last_reported":1701814017,"current_range_meters":24400,"station_id":"ce4bhh92rcd13ifvqfj0","pricing_plan_id":"free"},{"bike_id":"91852822-9465-44ae-bc81-8d0b04aac4c1","system_id":"levelo_inurba_marseille","lat":43.2607,"lon":5.393983,"is_reserved":false,"is_disabled":false,"rental_uris":{"android":"levelo://app?vid=91852822-9465-44ae-bc81-8d0b04aac4c1","ios":"levelo://app?vid=91852822-9465-44ae-bc81-8d0b04aac4c1"},"vehicle_type_id":"4","last_reported":1701814017,"current_range_meters":0,"station_id":"ce4bhh92rcd13ifvqfj0","pricing_plan_id":"free"},{"bike_id":"975e0b10-ac13-4585-8057-827f9694c26d","system_id":"levelo_inurba_marseille","lat":43.25584,"lon":5.3823,"is_reserved":false,"is_disabled":false,"rental_uris":{"android":"levelo://app?vid=975e0b10-ac13-4585-8057-827f9694c26d","ios":"levelo://app?vid=975e0b10-ac13-4585-8057-827f9694c26d"},"vehicle_type_id":"4","last_reported":1701814017,"current_range_meters":0,"station_id":"ce4bhih2rcd13ifvqfs0","pricing_plan_id":"free"},{"bike_id":"17f04a7c-4c0d-410b-8b98-175b327b84b8","system_id":"levelo_inurba_marseille","lat":43.258224,"lon":5.394369,"is_reserved":false,"is_disabled":false,"rental_uris":{"android":"levelo://app?vid=17f04a7c-4c0d-410b-8b98-175b327b84b8","ios":"levelo://app?vid=17f04a7c-4c0d-410b-8b98-175b327b84b8"},"vehicle_type_id":"4","last_reported":1701814017,"current_range_meters":30800,"station_id":"ce4bhip2rcd13ifvqft0","pricing_plan_id":"free"},{"bike_id":"247af584-b3f4-42a0-9236-07d89794d35d","system_id":"levelo_inurba_marseille","lat":43.270721,"lon":5.422764,"is_reserved":false,"is_disabled":false,"rental_uris":{"android":"levelo://app?vid=247af584-b3f4-42a0-9236-07d89794d35d","ios":"levelo://app?vid=247af584-b3f4-42a0-9236-07d89794d35d"},"vehicle_type_id":"4","last_reported":1701814017,"current_range_meters":27600,"station_id":"ce4bhk92rcd13ifvqgb0","pricing_plan_id":"free"},{"bike_id":"c808fd05-3396-47eb-a8be-22cb6b8a77b4","system_id":"levelo_inurba_marseille","lat":43.2707,"lon":5.4228,"is_reserved":false,"is_disabled":false,"rental_uris":{"android":"levelo://app?vid=c808fd05-3396-47eb-a8be-22cb6b8a77b4","ios":"levelo://app?vid=c808fd05-3396-47eb-a8be-22cb6b8a77b4"},"vehicle_type_id":"4","last_reported":1701814017,"current_range_meters":21600,"station_id":"ce4bhk92rcd13ifvqgb0","pricing_plan_id":"free"},{"bike_id":"8b3d6b5e-cefe-45c0-903d-452bb75449c8","system_id":"levelo_inurba_marseille","lat":43.259013,"lon":5.409301,"is_reserved":false,"is_disabled":false,"rental_uris":{"android":"levelo://app?vid=8b3d6b5e-cefe-45c0-903d-452bb75449c8","ios":"levelo://app?vid=8b3d6b5e-cefe-45c0-903d-452bb75449c8"},"vehicle_type_id":"4","last_reported":1701814017,"current_range_meters":15200,"station_id":"ce4bhm92rcd13ifvqglg","pricing_plan_id":"free"},{"bike_id":"85461d52-108f-4674-9751-e4e6d032a0f3","system_id":"levelo_inurba_marseille","lat":43.25726,"lon":5.41119,"is_reserved":false,"is_disabled":false,"rental_uris":{"android":"levelo://app?vid=85461d52-108f-4674-9751-e4e6d032a0f3","ios":"levelo://app?vid=85461d52-108f-4674-9751-e4e6d032a0f3"},"vehicle_type_id":"4","last_reported":1701814017,"current_range_meters":13200,"station_id":"ce4bhkp2rcd13ifvqgd0","pricing_plan_id":"free"},{"bike_id":"fe139a46-b394-4f90-a721-da43cd164fb5","system_id":"levelo_inurba_marseille","lat":43.250009,"lon":5.389195,"is_reserved":false,"is_disabled":false,"rental_uris":{"android":"levelo://app?vid=fe139a46-b394-4f90-a721-da43cd164fb5","ios":"levelo://app?vid=fe139a46-b394-4f90-a721-da43cd164fb5"},"vehicle_type_id":"4","last_reported":1701814017,"current_range_meters":21600,"station_id":"ce4bhgp2rcd13ifvqfd0","pricing_plan_id":"free"},{"bike_id":"5c40c72f-cb5d-40d0-89e0-dade894dc1b0","system_id":"levelo_inurba_marseille","lat":43.250009,"lon":5.389195,"is_reserved":false,"is_disabled":false,"rental_uris":{"android":"levelo://app?vid=5c40c72f-cb5d-40d0-89e0-dade894dc1b0","ios":"levelo://app?vid=5c40c72f-cb5d-40d0-89e0-dade894dc1b0"},"vehicle_type_id":"4","last_reported":1701814017,"current_range_meters":18400,"station_id":"ce4bhgp2rcd13ifvqfd0","pricing_plan_id":"free"},{"bike_id":"12cbe630-05b0-4088-92e4-99c0ab782742","system_id":"levelo_inurba_marseille","lat":43.2509,"lon":5.39524,"is_reserved":false,"is_disabled":false,"rental_uris":{"android":"levelo://app?vid=12cbe630-05b0-4088-92e4-99c0ab782742","ios":"levelo://app?vid=12cbe630-05b0-4088-92e4-99c0ab782742"},"vehicle_type_id":"4","last_reported":1701814017,"current_range_meters":19200,"station_id":"ce4bhm12rcd13ifvqgkg","pricing_plan_id":"free"},{"bike_id":"96da180c-7b6f-4c60-8c7c-dbf05c2d449c","system_id":"levelo_inurba_marseille","lat":43.250966,"lon":5.395186,"is_reserved":false,"is_disabled":false,"rental_uris":{"android":"levelo://app?vid=96da180c-7b6f-4c60-8c7c-dbf05c2d449c","ios":"levelo://app?vid=96da180c-7b6f-4c60-8c7c-dbf05c2d449c"},"vehicle_type_id":"4","last_reported":1701814017,"current_range_meters":25200,"station_id":"ce4bhm12rcd13ifvqgkg","pricing_plan_id":"free"},{"bike_id":"e68cfafb-784c-4d25-b8a5-401a4f504e08","system_id":"levelo_inurba_marseille","lat":43.24678,"lon":5.38176,"is_reserved":false,"is_disabled":false,"rental_uris":{"android":"levelo://app?vid=e68cfafb-784c-4d25-b8a5-401a4f504e08","ios":"levelo://app?vid=e68cfafb-784c-4d25-b8a5-401a4f504e08"},"vehicle_type_id":"4","last_reported":1701814017,"current_range_meters":10000,"station_id":"ce4bhih2rcd13ifvqfr0","pricing_plan_id":"free"},{"bike_id":"2d806185-ffad-417a-84b3-a2e69bec5c0e","system_id":"levelo_inurba_marseille","lat":43.24693,"lon":5.382096,"is_reserved":false,"is_disabled":false,"rental_uris":{"android":"levelo://app?vid=2d806185-ffad-417a-84b3-a2e69bec5c0e","ios":"levelo://app?vid=2d806185-ffad-417a-84b3-a2e69bec5c0e"},"vehicle_type_id":"4","last_reported":1701814017,"current_range_meters":2000,"station_id":"ce4bhih2rcd13ifvqfr0","pricing_plan_id":"free"},{"bike_id":"7fa12c18-a7c6-491a-85c1-eafba9158c72","system_id":"levelo_inurba_marseille","lat":43.24666,"lon":5.38157,"is_reserved":false,"is_disabled":false,"rental_uris":{"android":"levelo://app?vid=7fa12c18-a7c6-491a-85c1-eafba9158c72","ios":"levelo://app?vid=7fa12c18-a7c6-491a-85c1-eafba9158c72"},"vehicle_type_id":"4","last_reported":1701814017,"current_range_meters":24800,"station_id":"ce4bhih2rcd13ifvqfr0","pricing_plan_id":"free"},{"bike_id":"c403e136-25ea-4b1e-bfc3-ca48b6becec5","system_id":"levelo_inurba_marseille","lat":43.24693,"lon":5.382096,"is_reserved":false,"is_disabled":false,"rental_uris":{"android":"levelo://app?vid=c403e136-25ea-4b1e-bfc3-ca48b6becec5","ios":"levelo://app?vid=c403e136-25ea-4b1e-bfc3-ca48b6becec5"},"vehicle_type_id":"4","last_reported":1701814017,"current_range_meters":16400,"station_id":"ce4bhih2rcd13ifvqfr0","pricing_plan_id":"free"},{"bike_id":"9a2a2f65-0290-461d-a0b6-5cc226abfd72","system_id":"levelo_inurba_marseille","lat":43.25102,"lon":5.403214,"is_reserved":false,"is_disabled":false,"rental_uris":{"android":"levelo://app?vid=9a2a2f65-0290-461d-a0b6-5cc226abfd72","ios":"levelo://app?vid=9a2a2f65-0290-461d-a0b6-5cc226abfd72"},"vehicle_type_id":"4","last_reported":1701814017,"current_range_meters":20000,"station_id":"ce4bhlh2rcd13ifvqgig","pricing_plan_id":"free"},{"bike_id":"9604456b-7edc-4a91-b91c-eca3cb9c0e41","system_id":"levelo_inurba_marseille","lat":43.25102,"lon":5.403214,"is_reserved":false,"is_disabled":false,"rental_uris":{"android":"levelo://app?vid=9604456b-7edc-4a91-b91c-eca3cb9c0e41","ios":"levelo://app?vid=9604456b-7edc-4a91-b91c-eca3cb9c0e41"},"vehicle_type_id":"4","last_reported":1701814017,"current_range_meters":11600,"station_id":"ce4bhlh2rcd13ifvqgig","pricing_plan_id":"free"},{"bike_id":"419609ae-83af-494c-adfe-6c348b157580","system_id":"levelo_inurba_marseille","lat":43.245581,"lon":5.395069,"is_reserved":false,"is_disabled":false,"rental_uris":{"android":"levelo://app?vid=419609ae-83af-494c-adfe-6c348b157580","ios":"levelo://app?vid=419609ae-83af-494c-adfe-6c348b157580"},"vehicle_type_id":"4","last_reported":1701814017,"current_range_meters":29600,"station_id":"ce4bhlp2rcd13ifvqgjg","pricing_plan_id":"free"},{"bike_id":"64819e8f-fad6-4526-a500-f457e33e6bfa","system_id":"levelo_inurba_marseille","lat":43.245581,"lon":5.395069,"is_reserved":false,"is_disabled":false,"rental_uris":{"android":"levelo://app?vid=64819e8f-fad6-4526-a500-f457e33e6bfa","ios":"levelo://app?vid=64819e8f-fad6-4526-a500-f457e33e6bfa"},"vehicle_type_id":"4","last_reported":1701814017,"current_range_meters":29200,"station_id":"ce4bhlp2rcd13ifvqgjg","pricing_plan_id":"free"},{"bike_id":"d4d564c2-4686-4acc-9212-d330934a2983","system_id":"levelo_inurba_marseille","lat":43.245581,"lon":5.395069,"is_reserved":false,"is_disabled":false,"rental_uris":{"android":"levelo://app?vid=d4d564c2-4686-4acc-9212-d330934a2983","ios":"levelo://app?vid=d4d564c2-4686-4acc-9212-d330934a2983"},"vehicle_type_id":"4","last_reported":1701814017,"current_range_meters":18800,"station_id":"ce4bhlp2rcd13ifvqgjg","pricing_plan_id":"free"},{"bike_id":"997fd2e8-a739-42e8-907b-cbaffd16bd36","system_id":"levelo_inurba_marseille","lat":43.240623,"lon":5.377642,"is_reserved":false,"is_disabled":false,"rental_uris":{"android":"levelo://app?vid=997fd2e8-a739-42e8-907b-cbaffd16bd36","ios":"levelo://app?vid=997fd2e8-a739-42e8-907b-cbaffd16bd36"},"vehicle_type_id":"4","last_reported":1701814017,"current_range_meters":31200,"station_id":"ce4bhnp2rcd13ifvqgvg","pricing_plan_id":"free"},{"bike_id":"ee8c0082-cb54-4c25-8ad0-88221a3ae898","system_id":"levelo_inurba_marseille","lat":43.240623,"lon":5.377642,"is_reserved":false,"is_disabled":false,"rental_uris":{"android":"levelo://app?vid=ee8c0082-cb54-4c25-8ad0-88221a3ae898","ios":"levelo://app?vid=ee8c0082-cb54-4c25-8ad0-88221a3ae898"},"vehicle_type_id":"4","last_reported":1701814017,"current_range_meters":20400,"station_id":"ce4bhnp2rcd13ifvqgvg","pricing_plan_id":"free"},{"bike_id":"d7cdcc88-c2b1-419f-87e2-d0246c5882a9","system_id":"levelo_inurba_marseille","lat":43.239588,"lon":5.366238,"is_reserved":false,"is_disabled":false,"rental_uris":{"android":"levelo://app?vid=d7cdcc88-c2b1-419f-87e2-d0246c5882a9","ios":"levelo://app?vid=d7cdcc88-c2b1-419f-87e2-d0246c5882a9"},"vehicle_type_id":"4","last_reported":1701814017,"current_range_meters":26400,"station_id":"ce4bhi12rcd13ifvqfp0","pricing_plan_id":"free"},{"bike_id":"352f574b-c452-4c3b-8642-6864ebc083d1","system_id":"levelo_inurba_marseille","lat":43.239588,"lon":5.366287,"is_reserved":false,"is_disabled":false,"rental_uris":{"android":"levelo://app?vid=352f574b-c452-4c3b-8642-6864ebc083d1","ios":"levelo://app?vid=352f574b-c452-4c3b-8642-6864ebc083d1"},"vehicle_type_id":"4","last_reported":1701814017,"current_range_meters":0,"station_id":"ce4bhi12rcd13ifvqfp0","pricing_plan_id":"free"},{"bike_id":"04b00323-44dc-4556-add8-5a131157a4f0","system_id":"levelo_inurba_marseille","lat":43.243989,"lon":5.401643,"is_reserved":false,"is_disabled":false,"rental_uris":{"android":"levelo://app?vid=04b00323-44dc-4556-add8-5a131157a4f0","ios":"levelo://app?vid=04b00323-44dc-4556-add8-5a131157a4f0"},"vehicle_type_id":"4","last_reported":1701814017,"current_range_meters":800,"station_id":"","pricing_plan_id":"free"},{"bike_id":"e2fb0602-0025-4bc2-a80e-ca4c6079bddc","system_id":"levelo_inurba_marseille","lat":43.231923,"lon":5.355545,"is_reserved":false,"is_disabled":false,"rental_uris":{"android":"levelo://app?vid=e2fb0602-0025-4bc2-a80e-ca4c6079bddc","ios":"levelo://app?vid=e2fb0602-0025-4bc2-a80e-ca4c6079bddc"},"vehicle_type_id":"4","last_reported":1701814017,"current_range_meters":5200,"station_id":"ce4bhu92rcd13ifvqi70","pricing_plan_id":"free"},{"bike_id":"d868c0b5-242c-4b9f-b108-cbde91aaec79","system_id":"levelo_inurba_marseille","lat":43.231923,"lon":5.355545,"is_reserved":false,"is_disabled":false,"rental_uris":{"android":"levelo://app?vid=d868c0b5-242c-4b9f-b108-cbde91aaec79","ios":"levelo://app?vid=d868c0b5-242c-4b9f-b108-cbde91aaec79"},"vehicle_type_id":"4","last_reported":1701814017,"current_range_meters":23200,"station_id":"ce4bhu92rcd13ifvqi70","pricing_plan_id":"free"},{"bike_id":"7ae9092d-f687-4103-895b-5b378b9914a3","system_id":"levelo_inurba_marseille","lat":43.231933,"lon":5.35558,"is_reserved":false,"is_disabled":false,"rental_uris":{"android":"levelo://app?vid=7ae9092d-f687-4103-895b-5b378b9914a3","ios":"levelo://app?vid=7ae9092d-f687-4103-895b-5b378b9914a3"},"vehicle_type_id":"4","last_reported":1701814017,"current_range_meters":400,"station_id":"ce4bhu92rcd13ifvqi70","pricing_plan_id":"free"},{"bike_id":"cf3102c4-88e0-4a41-86b7-69a76932d3e6","system_id":"levelo_inurba_marseille","lat":43.231923,"lon":5.355545,"is_reserved":false,"is_disabled":false,"rental_uris":{"android":"levelo://app?vid=cf3102c4-88e0-4a41-86b7-69a76932d3e6","ios":"levelo://app?vid=cf3102c4-88e0-4a41-86b7-69a76932d3e6"},"vehicle_type_id":"4","last_reported":1701814017,"current_range_meters":31200,"station_id":"ce4bhu92rcd13ifvqi70","pricing_plan_id":"free"},{"bike_id":"b647ae29-4a45-4e8d-986c-9155e46c40e4","system_id":"levelo_inurba_marseille","lat":43.231923,"lon":5.355545,"is_reserved":false,"is_disabled":false,"rental_uris":{"android":"levelo://app?vid=b647ae29-4a45-4e8d-986c-9155e46c40e4","ios":"levelo://app?vid=b647ae29-4a45-4e8d-986c-9155e46c40e4"},"vehicle_type_id":"4","last_reported":1701814017,"current_range_meters":19600,"station_id":"ce4bhu92rcd13ifvqi70","pricing_plan_id":"free"},{"bike_id":"b988d3fe-c649-4089-ae26-b7efbdfc136a","system_id":"levelo_inurba_marseille","lat":43.231794,"lon":5.400052,"is_reserved":false,"is_disabled":false,"rental_uris":{"android":"levelo://app?vid=b988d3fe-c649-4089-ae26-b7efbdfc136a","ios":"levelo://app?vid=b988d3fe-c649-4089-ae26-b7efbdfc136a"},"vehicle_type_id":"4","last_reported":1701814017,"current_range_meters":31200,"station_id":"ce4bhn12rcd13ifvqgqg","pricing_plan_id":"free"},{"bike_id":"db400c51-e35e-4f62-a493-369a291a0fc1","system_id":"levelo_inurba_marseille","lat":43.231793,"lon":5.400044,"is_reserved":false,"is_disabled":false,"rental_uris":{"android":"levelo://app?vid=db400c51-e35e-4f62-a493-369a291a0fc1","ios":"levelo://app?vid=db400c51-e35e-4f62-a493-369a291a0fc1"},"vehicle_type_id":"4","last_reported":1701814017,"current_range_meters":10400,"station_id":"ce4bhn12rcd13ifvqgqg","pricing_plan_id":"free"}]}}