{"last_updated":1742656091,"ttl":60,"version":"2.2","data":{"bikes":[{"bike_id":"7bb3f52e-b7fc-4983-b740-35f21060d410","system_id":"levelo_inurba_marseille","lat":43.29535,"lon":5.38539,"is_reserved":false,"is_disabled":false,"rental_uris":{"android":"levelo://app?vid=7bb3f52e-b7fc-4983-b740-35f21060d410","ios":"levelo://app?vid=7bb3f52e-b7fc-4983-b740-35f21060d410"},"vehicle_type_id":"4","last_reported":1742656091,"current_range_meters":2800,"station_id":"ce4bgih2rcd13ifvqba0","pricing_plan_id":"cebpf4jnsgd1na2vs0mg"},{"bike_id":"e2bc5318-a588-4a29-89f6-ccf0ac9c5c37","system_id":"levelo_inurba_marseille","lat":43.3096,"lon":5.39023,"is_reserved":false,"is_disabled":false,"rental_uris":{"android":"levelo://app?vid=e2bc5318-a588-4a29-89f6-ccf0ac9c5c37","ios":"levelo://app?vid=e2bc5318-a588-4a29-89f6-ccf0ac9c5c37"},"vehicle_type_id":"4","last_reported":1742656091,"current_range_meters":2800,"station_id":"ce4bgup2rcd13ifvqco0","pricing_plan_id":"cebpf4jnsgd1na2vs0mg"},{"bike_id":"49db28d3-a884-4b82-8d69-edbe7b9691f6","system_id":"levelo_inurba_marseille","lat":43.23944,"lon":5.36652,"is_reserved":false,"is_disabled":true,"rental_uris":{"android":"levelo://app?vid=49db28d3-a884-4b82-8d69-edbe7b9691f6","ios":"levelo://app?vid=49db28d3-a884-4b82-8d69-edbe7b9691f6"},"vehicle_type_id":"4","last_reported":1742656091,"current_range_meters":2800,"station_id":"ce4bhi12rcd13ifvqfp0","pricing_plan_id":"cebpf4jnsgd1na2vs0mg"},{"bike_id":"ec03188f-c37c-4e14-84be-09cc1f686e33","system_id":"levelo_inurba_marseille","lat":43.29226,"lon":5.36069,"is_reserved":false,"is_disabled":false,"rental_uris":{"android":"levelo://app?vid=ec03188f-c37c-4e14-84be-09cc1f686e33","ios":"levelo://app?vid=ec03188f-c37c-4e14-84be-09cc1f686e33"},"vehicle_type_id":"4","last_reported":1742656091,"current_range_meters":2800,"station_id":"ce4bhbh2rcd13ifvqeqg","pricing_plan_id":"cebpf4jnsgd1na2vs0mg"},{"bike_id":"df25dee7-0db0-41e5-b928-2fc4d2e04675","system_id":"levelo_inurba_marseille","lat":43.27075,"lon":5.42275,"is_reserved":false,"is_disabled":false,"rental_uris":{"android":"levelo://app?vid=df25dee7-0db0-41e5-b928-2fc4d2e04675","ios":"levelo://app?vid=df25dee7-0db0-41e5-b928-2fc4d2e04675"},"vehicle_type_id":"4","last_reported":1742656091,"current_range_meters":2800,"station_id":"ce4bhk92rcd13ifvqgb0","pricing_plan_id":"cebpf4jnsgd1na2vs0mg"},{"bike_id":"9270b720-6406-4f1a-ade5-c317de34a05e","system_id":"levelo_inurba_marseille","lat":43.28697,"lon":5.37312,"is_reserved":false,"is_disabled":false,"rental_uris":{"android":"levelo://app?vid=9270b720-6406-4f1a-ade5-c317de34a05e","ios":"levelo://app?vid=9270b720-6406-4f1a-ade5-c317de34a05e"},"vehicle_type_id":"4","last_reported":1742656091,"current_range_meters":2800,"station_id":"ce4bh3p2rcd13ifvqdq0","pricing_plan_id":"cebpf4jnsgd1na2vs0mg"},{"bike_id":"b165db7a-7a35-4d49-b4ac-290858df270c","system_id":"levelo_inurba_marseille","lat":43.25693,"lon":5.39045,"is_reserved":false,"is_disabled":false,"rental_uris":{"android":"levelo://app?vid=b165db7a-7a35-4d49-b4ac-290858df270c","ios":"levelo://app?vid=b165db7a-7a35-4d49-b4ac-290858df270c"},"vehicle_type_id":"4","last_reported":1742656091,"current_range_meters":2800,"station_id":"","pricing_plan_id":"cebpf4jnsgd1na2vs0mg"},{"bike_id":"62bf2f5c-9819-4816-afad-4a268d7a76b8","system_id":"levelo_inurba_marseille","lat":43.24187,"lon":5.36374,"is_reserved":false,"is_disabled":true,"rental_uris":{"android":"levelo://app?vid=62bf2f5c-9819-4816-afad-4a268d7a76b8","ios":"levelo://app?vid=62bf2f5c-9819-4816-afad-4a268d7a76b8"},"vehicle_type_id":"4","last_reported":1742656091,"current_range_meters":3200,"station_id":"cpo36qri1sfpv3e86is0","pricing_plan_id":"cebpf4jnsgd1na2vs0mg"},{"bike_id":"527463a9-7cf9-462b-b20a-c7ac15f97e4b","system_id":"levelo_inurba_marseille","lat":43.29611,"lon":5.36701,"is_reserved":false,"is_disabled":false,"rental_uris":{"android":"levelo://app?vid=527463a9-7cf9-462b-b20a-c7ac15f97e4b","ios":"levelo://app?vid=527463a9-7cf9-462b-b20a-c7ac15f97e4b"},"vehicle_type_id":"4","last_reported":1742656091,"current_range_meters":3200,"station_id":"ce4bgph2rcd13ifvqc2g","pricing_plan_id":"cebpf4jnsgd1na2vs0mg"},{"bike_id":"747d4c6c-efdd-4b30-9a02-37536ea556f9","system_id":"levelo_inurba_marseille","lat":43.305936,"lon":5.393627,"is_reserved":false,"is_disabled":false,"rental_uris":{"android":"levelo://app?vid=747d4c6c-efdd-4b30-9a02-37536ea556f9","ios":"levelo://app?vid=747d4c6c-efdd-4b30-9a02-37536ea556f9"},"vehicle_type_id":"4","last_reported":1742656091,"current_range_meters":3200,"station_id":"ce4bhpp2rcd13ifvqhfg","pricing_plan_id":"cebpf4jnsgd1na2vs0mg"},{"bike_id":"5a9bb75d-7ff8-4dbe-ad05-812345fd52f4","system_id":"levelo_inurba_marseille","lat":43.29303,"lon":5.37455,"is_reserved":false,"is_disabled":false,"rental_uris":{"android":"levelo://app?vid=5a9bb75d-7ff8-4dbe-ad05-812345fd52f4","ios":"levelo://app?vid=5a9bb75d-7ff8-4dbe-ad05-812345fd52f4"},"vehicle_type_id":"4","last_reported":1742656091,"current_range_meters":3600,"station_id":"ce4bgi12rcd13ifvqb70","pricing_plan_id":"cebpf4jnsgd1na2vs0mg"},{"bike_id":"961a87d8-d2f4-4c1d-8077-b95ca638542a","system_id":"levelo_inurba_marseille","lat":43.29424,"lon":5.38615,"is_reserved":false,"is_disabled":false,"rental_uris":{"android":"levelo://app?vid=961a87d8-d2f4-4c1d-8077-b95ca638542a","ios":"levelo://app?vid=961a87d8-d2f4-4c1d-8077-b95ca638542a"},"vehicle_type_id":"4","last_reported":1742656091,"current_range_meters":3600,"station_id":"ce4bh2h2rcd13ifvqdh0","pricing_plan_id":"cebpf4jnsgd1na2vs0mg"},{"bike_id":"332b25a4-b064-4cde-8641-7a2c42c51867","system_id":"levelo_inurba_marseille","lat":43.30526,"lon":5.36522,"is_reserved":false,"is_disabled":false,"rental_uris":{"android":"levelo://app?vid=332b25a4-b064-4cde-8641-7a2c42c51867","ios":"levelo://app?vid=332b25a4-b064-4cde-8641-7a2c42c51867"},"vehicle_type_id":"4","last_reported":1742656091,"current_range_meters":2000,"station_id":"","pricing_plan_id":"cebpf4jnsgd1na2vs0mg"},{"bike_id":"867c64f7-f635-47d4-a5c0-5f20772a49d0","system_id":"levelo_inurba_marseille","lat":43.28574,"lon":5.39497,"is_reserved":false,"is_disabled":false,"rental_uris":{"android":"levelo://app?vid=867c64f7-f635-47d4-a5c0-5f20772a49d0","ios":"levelo://app?vid=867c64f7-f635-47d4-a5c0-5f20772a49d0"},"vehicle_type_id":"4","last_reported":1742656091,"current_range_meters":4000,"station_id":"ce4bh292rcd13ifvqdg0","pricing_plan_id":"cebpf4jnsgd1na2vs0mg"},{"bike_id":"293b063d-01ff-4c36-89a9-c91d83dbff17","system_id":"levelo_inurba_marseille","lat":43.30301,"lon":5.39201,"is_reserved":false,"is_disabled":false,"rental_uris":{"android":"levelo://app?vid=293b063d-01ff-4c36-89a9-c91d83dbff17","ios":"levelo://app?vid=293b063d-01ff-4c36-89a9-c91d83dbff17"},"vehicle_type_id":"4","last_reported":1742656091,"current_range_meters":4000,"station_id":"ce4bgkh2rcd13ifvqbk0","pricing_plan_id":"cebpf4jnsgd1na2vs0mg"},{"bike_id":"b25c16cc-fcf3-4005-ae0f-e8353c1178cb","system_id":"levelo_inurba_marseille","lat":43.24677,"lon":5.38158,"is_reserved":false,"is_disabled":true,"rental_uris":{"android":"levelo://app?vid=b25c16cc-fcf3-4005-ae0f-e8353c1178cb","ios":"levelo://app?vid=b25c16cc-fcf3-4005-ae0f-e8353c1178cb"},"vehicle_type_id":"4","last_reported":1742656091,"current_range_meters":4000,"station_id":"ce4bhih2rcd13ifvqfr0","pricing_plan_id":"cebpf4jnsgd1na2vs0mg"},{"bike_id":"1c3b5361-695c-4ccc-94f9-aca7f37b6d45","system_id":"levelo_inurba_marseille","lat":43.23192,"lon":5.35564,"is_reserved":false,"is_disabled":false,"rental_uris":{"android":"levelo://app?vid=1c3b5361-695c-4ccc-94f9-aca7f37b6d45","ios":"levelo://app?vid=1c3b5361-695c-4ccc-94f9-aca7f37b6d45"},"vehicle_type_id":"4","last_reported":1742656091,"current_range_meters":4400,"station_id":"ce4bhu92rcd13ifvqi70","pricing_plan_id":"cebpf4jnsgd1na2vs0mg"},{"bike_id":"3c2a7dcf-f6cd-4a5b-ac2d-0c447364948d","system_id":"levelo_inurba_marseille","lat":43.29726,"lon":5.37698,"is_reserved":false,"is_disabled":false,"rental_uris":{"android":"levelo://app?vid=3c2a7dcf-f6cd-4a5b-ac2d-0c447364948d","ios":"levelo://app?vid=3c2a7dcf-f6cd-4a5b-ac2d-0c447364948d"},"vehicle_type_id":"4","last_reported":1742656091,"current_range_meters":4400,"station_id":"ce4bgkh2rcd13ifvqbl0","pricing_plan_id":"cebpf4jnsgd1na2vs0mg"},{"bike_id":"800e1746-2de4-4ca0-b933-e3b9abf3d92e","system_id":"levelo_inurba_marseille","lat":43.21968,"lon":5.34539,"is_reserved":false,"is_disabled":false,"rental_uris":{"android":"levelo://app?vid=800e1746-2de4-4ca0-b933-e3b9abf3d92e","ios":"levelo://app?vid=800e1746-2de4-4ca0-b933-e3b9abf3d92e"},"vehicle_type_id":"4","last_reported":1742656091,"current_range_meters":4400,"station_id":"","pricing_plan_id":"cebpf4jnsgd1na2vs0mg"},{"bike_id":"2d09920e-6b07-4eb7-b9cf-bfb7cc6b9dbb","system_id":"levelo_inurba_marseille","lat":43.28709,"lon":5.37389,"is_reserved":false,"is_disabled":false,"rental_uris":{"android":"levelo://app?vid=2d09920e-6b07-4eb7-b9cf-bfb7cc6b9dbb","ios":"levelo://app?vid=2d09920e-6b07-4eb7-b9cf-bfb7cc6b9dbb"},"vehicle_type_id":"4","last_reported":1742656091,"current_range_meters":4400,"station_id":"ce4bh3p2rcd13ifvqdq0","pricing_plan_id":"cebpf4jnsgd1na2vs0mg"},{"bike_id":"a565168a-01e6-44c1-8baa-7253c08cdc6c","system_id":"levelo_inurba_marseille","lat":43.28349,"lon":5.38098,"is_reserved":false,"is_disabled":false,"rental_uris":{"android":"levelo://app?vid=a565168a-01e6-44c1-8baa-7253c08cdc6c","ios":"levelo://app?vid=a565168a-01e6-44c1-8baa-7253c08cdc6c"},"vehicle_type_id":"4","last_reported":1742656091,"current_range_meters":4400,"station_id":"ce4bh412rcd13ifvqdr0","pricing_plan_id":"cebpf4jnsgd1na2vs0mg"},{"bike_id":"ae2435f2-6a00-4247-92af-bc7a2c57348e","system_id":"levelo_inurba_marseille","lat":43.31334,"lon":5.39685,"is_reserved":false,"is_disabled":false,"rental_uris":{"android":"levelo://app?vid=ae2435f2-6a00-4247-92af-bc7a2c57348e","ios":"levelo://app?vid=ae2435f2-6a00-4247-92af-bc7a2c57348e"},"vehicle_type_id":"4","last_reported":1742656091,"current_range_meters":4000,"station_id":"ce4bgvp2rcd13ifvqcu0","pricing_plan_id":"cebpf4jnsgd1na2vs0mg"},{"bike_id":"144b5921-303d-43ea-a1fd-346fd4a63973","system_id":"levelo_inurba_marseille","lat":43.26594,"lon":5.39028,"is_reserved":false,"is_disabled":false,"rental_uris":{"android":"levelo://app?vid=144b5921-303d-43ea-a1fd-346fd4a63973","ios":"levelo://app?vid=144b5921-303d-43ea-a1fd-346fd4a63973"},"vehicle_type_id":"4","last_reported":1742656091,"current_range_meters":4800,"station_id":"ce4bhe12rcd13ifvqf30","pricing_plan_id":"cebpf4jnsgd1na2vs0mg"},{"bike_id":"fe38c2dc-be0d-49d8-b1d1-c178c0533a55","system_id":"levelo_inurba_marseille","lat":43.29712,"lon":5.36603,"is_reserved":false,"is_disabled":false,"rental_uris":{"android":"levelo://app?vid=fe38c2dc-be0d-49d8-b1d1-c178c0533a55","ios":"levelo://app?vid=fe38c2dc-be0d-49d8-b1d1-c178c0533a55"},"vehicle_type_id":"4","last_reported":1742656091,"current_range_meters":4800,"station_id":"ce4bgn12rcd13ifvqbt0","pricing_plan_id":"cebpf4jnsgd1na2vs0mg"},{"bike_id":"cb94ba51-1130-4a74-8f5a-d9d76a9ecfd5","system_id":"levelo_inurba_marseille","lat":43.2396,"lon":5.36634,"is_reserved":false,"is_disabled":false,"rental_uris":{"android":"levelo://app?vid=cb94ba51-1130-4a74-8f5a-d9d76a9ecfd5","ios":"levelo://app?vid=cb94ba51-1130-4a74-8f5a-d9d76a9ecfd5"},"vehicle_type_id":"4","last_reported":1742656091,"current_range_meters":4800,"station_id":"ce4bhi12rcd13ifvqfp0","pricing_plan_id":"cebpf4jnsgd1na2vs0mg"},{"bike_id":"db47e442-fffa-4e89-8c2e-39b5c678bc15","system_id":"levelo_inurba_marseille","lat":43.28369,"lon":5.38635,"is_reserved":false,"is_disabled":false,"rental_uris":{"android":"levelo://app?vid=db47e442-fffa-4e89-8c2e-39b5c678bc15","ios":"levelo://app?vid=db47e442-fffa-4e89-8c2e-39b5c678bc15"},"vehicle_type_id":"4","last_reported":1742656091,"current_range_meters":5600,"station_id":"ce4bh492rcd13ifvqdvg","pricing_plan_id":"cebpf4jnsgd1na2vs0mg"},{"bike_id":"c0d1e1b7-f8d8-4bac-9232-314143f60827","system_id":"levelo_inurba_marseille","lat":43.307219,"lon":5.399822,"is_reserved":false,"is_disabled":false,"rental_uris":{"android":"levelo://app?vid=c0d1e1b7-f8d8-4bac-9232-314143f60827","ios":"levelo://app?vid=c0d1e1b7-f8d8-4bac-9232-314143f60827"},"vehicle_type_id":"4","last_reported":1742656091,"current_range_meters":5600,"station_id":"ce4bh092rcd13ifvqd30","pricing_plan_id":"cebpf4jnsgd1na2vs0mg"},{"bike_id":"8fd3ff6c-97a3-4499-9ba0-d6e2d5179e53","system_id":"levelo_inurba_marseille","lat":43.29624,"lon":5.37731,"is_reserved":false,"is_disabled":false,"rental_uris":{"android":"levelo://app?vid=8fd3ff6c-97a3-4499-9ba0-d6e2d5179e53","ios":"levelo://app?vid=8fd3ff6c-97a3-4499-9ba0-d6e2d5179e53"},"vehicle_type_id":"4","last_reported":1742656091,"current_range_meters":2800,"station_id":"ce4bgi92rcd13ifvqb90","pricing_plan_id":"cebpf4jnsgd1na2vs0mg"},{"bike_id":"d88cea05-07f2-4b49-8251-4b7225fe0f9e","system_id":"levelo_inurba_marseille","lat":43.29532,"lon":5.37506,"is_reserved":false,"is_disabled":false,"rental_uris":{"android":"levelo://app?vid=d88cea05-07f2-4b49-8251-4b7225fe0f9e","ios":"levelo://app?vid=d88cea05-07f2-4b49-8251-4b7225fe0f9e"},"vehicle_type_id":"4","last_reported":1742656091,"current_range_meters":5600,"station_id":"ce4bgkp2rcd13ifvqbmg","pricing_plan_id":"cebpf4jnsgd1na2vs0mg"},{"bike_id":"896a1529-3771-4123-8f00-dde2c032c768","system_id":"levelo_inurba_marseille","lat":43.26062,"lon":5.39391,"is_reserved":false,"is_disabled":false,"rental_uris":{"android":"levelo://app?vid=896a1529-3771-4123-8f00-dde2c032c768","ios":"levelo://app?vid=896a1529-3771-4123-8f00-dde2c032c768"},"vehicle_type_id":"4","last_reported":1742656091,"current_range_meters":6000,"station_id":"ce4bhh92rcd13ifvqfj0","pricing_plan_id":"cebpf4jnsgd1na2vs0mg"},{"bike_id":"f1b93224-1d11-4b39-bc06-8b21b0c20218","system_id":"levelo_inurba_marseille","lat":43.28665,"lon":5.38658,"is_reserved":false,"is_disabled":false,"rental_uris":{"android":"levelo://app?vid=f1b93224-1d11-4b39-bc06-8b21b0c20218","ios":"levelo://app?vid=f1b93224-1d11-4b39-bc06-8b21b0c20218"},"vehicle_type_id":"4","last_reported":1742656091,"current_range_meters":6000,"station_id":"ce4bh492rcd13ifvqdug","pricing_plan_id":"cebpf4jnsgd1na2vs0mg"},{"bike_id":"19e62f91-fa39-428d-be2d-848df0caa603","system_id":"levelo_inurba_marseille","lat":43.29961,"lon":5.38493,"is_reserved":false,"is_disabled":false,"rental_uris":{"android":"levelo://app?vid=19e62f91-fa39-428d-be2d-848df0caa603","ios":"levelo://app?vid=19e62f91-fa39-428d-be2d-848df0caa603"},"vehicle_type_id":"4","last_reported":1742656091,"current_range_meters":5600,"station_id":"ce4bgj92rcd13ifvqbd0","pricing_plan_id":"cebpf4jnsgd1na2vs0mg"},{"bike_id":"5598a285-a859-428b-94b8-9502fa251890","system_id":"levelo_inurba_marseille","lat":43.25589,"lon":5.38226,"is_reserved":false,"is_disabled":false,"rental_uris":{"android":"levelo://app?vid=5598a285-a859-428b-94b8-9502fa251890","ios":"levelo://app?vid=5598a285-a859-428b-94b8-9502fa251890"},"vehicle_type_id":"4","last_reported":1742656091,"current_range_meters":6000,"station_id":"ce4bhih2rcd13ifvqfs0","pricing_plan_id":"cebpf4jnsgd1na2vs0mg"},{"bike_id":"5d93c2ba-8cd7-4cba-be86-cf638d999967","system_id":"levelo_inurba_marseille","lat":43.28417,"lon":5.37505,"is_reserved":false,"is_disabled":false,"rental_uris":{"android":"levelo://app?vid=5d93c2ba-8cd7-4cba-be86-cf638d999967","ios":"levelo://app?vid=5d93c2ba-8cd7-4cba-be86-cf638d999967"},"vehicle_type_id":"4","last_reported":1742656091,"current_range_meters":6000,"station_id":"ce4bh412rcd13ifvqds0","pricing_plan_id":"cebpf4jnsgd1na2vs0mg"},{"bike_id":"1f4b5356-d265-454a-aa48-2f7dec9d4d2a","system_id":"levelo_inurba_marseille","lat":43.33752,"lon":5.3919,"is_reserved":false,"is_disabled":false,"rental_uris":{"android":"levelo://app?vid=1f4b5356-d265-454a-aa48-2f7dec9d4d2a","ios":"levelo://app?vid=1f4b5356-d265-454a-aa48-2f7dec9d4d2a"},"vehicle_type_id":"4","last_reported":1742656091,"current_range_meters":6000,"station_id":"ce4bhr92rcd13ifvqhsg","pricing_plan_id":"cebpf4jnsgd1na2vs0mg"},{"bike_id":"132a1f8f-1b8d-42f6-acfe-766370ce6a50","system_id":"levelo_inurba_marseille","lat":43.29594,"lon":5.37719,"is_reserved":false,"is_disabled":false,"rental_uris":{"android":"levelo://app?vid=132a1f8f-1b8d-42f6-acfe-766370ce6a50","ios":"levelo://app?vid=132a1f8f-1b8d-42f6-acfe-766370ce6a50"},"vehicle_type_id":"4","last_reported":1742656091,"current_range_meters":6400,"station_id":"ce4bgi92rcd13ifvqb90","pricing_plan_id":"cebpf4jnsgd1na2vs0mg"},{"bike_id":"9689a4b5-b9bb-45af-815b-74c4658ab903","system_id":"levelo_inurba_marseille","lat":43.25903,"lon":5.40898,"is_reserved":false,"is_disabled":false,"rental_uris":{"android":"levelo://app?vid=9689a4b5-b9bb-45af-815b-74c4658ab903","ios":"levelo://app?vid=9689a4b5-b9bb-45af-815b-74c4658ab903"},"vehicle_type_id":"4","last_reported":1742656091,"current_range_meters":6400,"station_id":"ce4bhm92rcd13ifvqglg","pricing_plan_id":"cebpf4jnsgd1na2vs0mg"},{"bike_id":"470a6f1d-18a2-44be-b94b-d3b94abe1f91","system_id":"levelo_inurba_marseille","lat":43.26191,"lon":5.37917,"is_reserved":false,"is_disabled":false,"rental_uris":{"android":"levelo://app?vid=470a6f1d-18a2-44be-b94b-d3b94abe1f91","ios":"levelo://app?vid=470a6f1d-18a2-44be-b94b-d3b94abe1f91"},"vehicle_type_id":"4","last_reported":1742656091,"current_range_meters":6400,"station_id":"ce4bhjp2rcd13ifvqg90","pricing_plan_id":"cebpf4jnsgd1na2vs0mg"},{"bike_id":"26ce4f5e-e20f-4e4c-b0fc-d65d85128c02","system_id":"levelo_inurba_marseille","lat":43.26575,"lon":5.38985,"is_reserved":false,"is_disabled":false,"rental_uris":{"android":"levelo://app?vid=26ce4f5e-e20f-4e4c-b0fc-d65d85128c02","ios":"levelo://app?vid=26ce4f5e-e20f-4e4c-b0fc-d65d85128c02"},"vehicle_type_id":"4","last_reported":1742656091,"current_range_meters":6400,"station_id":"ce4bhe12rcd13ifvqf30","pricing_plan_id":"cebpf4jnsgd1na2vs0mg"},{"bike_id":"26247666-dc43-4f8c-badb-1dca18145970","system_id":"levelo_inurba_marseille","lat":43.24081,"lon":5.37755,"is_reserved":false,"is_disabled":false,"rental_uris":{"android":"levelo://app?vid=26247666-dc43-4f8c-badb-1dca18145970","ios":"levelo://app?vid=26247666-dc43-4f8c-badb-1dca18145970"},"vehicle_type_id":"4","last_reported":1742656091,"current_range_meters":6400,"station_id":"ce4bhnp2rcd13ifvqgvg","pricing_plan_id":"cebpf4jnsgd1na2vs0mg"},{"bike_id":"8a65ab7e-e973-4002-85c1-600898cb4e4a","system_id":"levelo_inurba_marseille","lat":43.31332,"lon":5.39687,"is_reserved":false,"is_disabled":false,"rental_uris":{"android":"levelo://app?vid=8a65ab7e-e973-4002-85c1-600898cb4e4a","ios":"levelo://app?vid=8a65ab7e-e973-4002-85c1-600898cb4e4a"},"vehicle_type_id":"4","last_reported":1742656091,"current_range_meters":6400,"station_id":"ce4bgvp2rcd13ifvqcu0","pricing_plan_id":"cebpf4jnsgd1na2vs0mg"},{"bike_id":"66afcf19-ec21-46e1-83fe-9134cef14611","system_id":"levelo_inurba_marseille","lat":43.27842,"lon":5.39209,"is_reserved":false,"is_disabled":false,"rental_uris":{"android":"levelo://app?vid=66afcf19-ec21-46e1-83fe-9134cef14611","ios":"levelo://app?vid=66afcf19-ec21-46e1-83fe-9134cef14611"},"vehicle_type_id":"4","last_reported":1742656091,"current_range_meters":6400,"station_id":"ce4bhjp2rcd13ifvqga0","pricing_plan_id":"cebpf4jnsgd1na2vs0mg"},{"bike_id":"52c16ac5-3447-4053-956c-78fc8bf0dc7c","system_id":"levelo_inurba_marseille","lat":43.32322,"lon":5.36683,"is_reserved":false,"is_disabled":false,"rental_uris":{"android":"levelo://app?vid=52c16ac5-3447-4053-956c-78fc8bf0dc7c","ios":"levelo://app?vid=52c16ac5-3447-4053-956c-78fc8bf0dc7c"},"vehicle_type_id":"4","last_reported":1742656091,"current_range_meters":6800,"station_id":"ce4bhsh2rcd13ifvqi2g","pricing_plan_id":"cebpf4jnsgd1na2vs0mg"},{"bike_id":"9fca1e30-a31d-493d-bbb6-8ecf0da1bd7c","system_id":"levelo_inurba_marseille","lat":43.30123,"lon":5.38105,"is_reserved":false,"is_disabled":false,"rental_uris":{"android":"levelo://app?vid=9fca1e30-a31d-493d-bbb6-8ecf0da1bd7c","ios":"levelo://app?vid=9fca1e30-a31d-493d-bbb6-8ecf0da1bd7c"},"vehicle_type_id":"4","last_reported":1742656091,"current_range_meters":6800,"station_id":"ce4bgjp2rcd13ifvqbh0","pricing_plan_id":"cebpf4jnsgd1na2vs0mg"},{"bike_id":"2d5e883e-efef-4ef7-8912-19631d170cc2","system_id":"levelo_inurba_marseille","lat":43.29572,"lon":5.39972,"is_reserved":false,"is_disabled":false,"rental_uris":{"android":"levelo://app?vid=2d5e883e-efef-4ef7-8912-19631d170cc2","ios":"levelo://app?vid=2d5e883e-efef-4ef7-8912-19631d170cc2"},"vehicle_type_id":"4","last_reported":1742656091,"current_range_meters":6400,"station_id":"ce4bh312rcd13ifvqdj0","pricing_plan_id":"cebpf4jnsgd1na2vs0mg"},{"bike_id":"c5fee7ce-e99b-41d7-bf02-104474486b07","system_id":"levelo_inurba_marseille","lat":43.23201,"lon":5.35547,"is_reserved":false,"is_disabled":false,"rental_uris":{"android":"levelo://app?vid=c5fee7ce-e99b-41d7-bf02-104474486b07","ios":"levelo://app?vid=c5fee7ce-e99b-41d7-bf02-104474486b07"},"vehicle_type_id":"4","last_reported":1742656091,"current_range_meters":6800,"station_id":"ce4bhu92rcd13ifvqi70","pricing_plan_id":"cebpf4jnsgd1na2vs0mg"},{"bike_id":"bf5d7bdb-65a8-4310-b955-6a76e2cbd7fe","system_id":"levelo_inurba_marseille","lat":43.33724,"lon":5.39178,"is_reserved":false,"is_disabled":false,"rental_uris":{"android":"levelo://app?vid=bf5d7bdb-65a8-4310-b955-6a76e2cbd7fe","ios":"levelo://app?vid=bf5d7bdb-65a8-4310-b955-6a76e2cbd7fe"},"vehicle_type_id":"4","last_reported":1742656091,"current_range_meters":6800,"station_id":"ce4bhr92rcd13ifvqhsg","pricing_plan_id":"cebpf4jnsgd1na2vs0mg"},{"bike_id":"617c7a8e-46f8-4063-8841-6dfbf4829ffb","system_id":"levelo_inurba_marseille","lat":43.29614,"lon":5.37173,"is_reserved":false,"is_disabled":false,"rental_uris":{"android":"levelo://app?vid=617c7a8e-46f8-4063-8841-6dfbf4829ffb","ios":"levelo://app?vid=617c7a8e-46f8-4063-8841-6dfbf4829ffb"},"vehicle_type_id":"4","last_reported":1742656091,"current_range_meters":6800,"station_id":"ce4bgnh2rcd13ifvqc0g","pricing_plan_id":"cebpf4jnsgd1na2vs0mg"},{"bike_id":"f2febf95-7fbd-4da1-9b57-8310b0487b2d","system_id":"levelo_inurba_marseille","lat":43.28154,"lon":5.42637,"is_reserved":false,"is_disabled":false,"rental_uris":{"android":"levelo://app?vid=f2febf95-7fbd-4da1-9b57-8310b0487b2d","ios":"levelo://app?vid=f2febf95-7fbd-4da1-9b57-8310b0487b2d"},"vehicle_type_id":"4","last_reported":1742656091,"current_range_meters":6800,"station_id":"ce4bhnh2rcd13ifvqgug","pricing_plan_id":"cebpf4jnsgd1na2vs0mg"},{"bike_id":"ecd05c9b-ea33-4b1b-9884-1e02a56f1c9f","system_id":"levelo_inurba_marseille","lat":43.29534,"lon":5.38537,"is_reserved":false,"is_disabled":false,"rental_uris":{"android":"levelo://app?vid=ecd05c9b-ea33-4b1b-9884-1e02a56f1c9f","ios":"levelo://app?vid=ecd05c9b-ea33-4b1b-9884-1e02a56f1c9f"},"vehicle_type_id":"4","last_reported":1742656091,"current_range_meters":1600,"station_id":"ce4bgih2rcd13ifvqba0","pricing_plan_id":"cebpf4jnsgd1na2vs0mg"},{"bike_id":"a84c54e0-1968-431f-b212-fafd63102f83","system_id":"levelo_inurba_marseille","lat":43.30538,"lon":5.38413,"is_reserved":false,"is_disabled":false,"rental_uris":{"android":"levelo://app?vid=a84c54e0-1968-431f-b212-fafd63102f83","ios":"levelo://app?vid=a84c54e0-1968-431f-b212-fafd63102f83"},"vehicle_type_id":"4","last_reported":1742656091,"current_range_meters":6800,"station_id":"ce4bgg92rcd13ifvqb30","pricing_plan_id":"cebpf4jnsgd1na2vs0mg"},{"bike_id":"4e130c3f-1e9a-4e1a-a546-fa10a03dc915","system_id":"levelo_inurba_marseille","lat":43.24658,"lon":5.38177,"is_reserved":false,"is_disabled":false,"rental_uris":{"android":"levelo://app?vid=4e130c3f-1e9a-4e1a-a546-fa10a03dc915","ios":"levelo://app?vid=4e130c3f-1e9a-4e1a-a546-fa10a03dc915"},"vehicle_type_id":"4","last_reported":1742656091,"current_range_meters":6800,"station_id":"ce4bhih2rcd13ifvqfr0","pricing_plan_id":"cebpf4jnsgd1na2vs0mg"},{"bike_id":"0dd1f5a4-2433-4246-ba29-90bd5970266c","system_id":"levelo_inurba_marseille","lat":43.3054,"lon":5.36541,"is_reserved":false,"is_disabled":false,"rental_uris":{"android":"levelo://app?vid=0dd1f5a4-2433-4246-ba29-90bd5970266c","ios":"levelo://app?vid=0dd1f5a4-2433-4246-ba29-90bd5970266c"},"vehicle_type_id":"4","last_reported":1742656091,"current_range_meters":7200,"station_id":"ce4bgs12rcd13ifvqcag","pricing_plan_id":"cebpf4jnsgd1na2vs0mg"},{"bike_id":"78235b24-7324-4d19-8405-156b70ee0069","system_id":"levelo_inurba_marseille","lat":43.2992,"lon":5.37456,"is_reserved":false,"is_disabled":false,"rental_uris":{"android":"levelo://app?vid=78235b24-7324-4d19-8405-156b70ee0069","ios":"levelo://app?vid=78235b24-7324-4d19-8405-156b70ee0069"},"vehicle_type_id":"4","last_reported":1742656091,"current_range_meters":7200,"station_id":"ce4bgjh2rcd13ifvqbg0","pricing_plan_id":"cebpf4jnsgd1na2vs0mg"},{"bike_id":"b00605e3-b50e-457e-a9d6-59adef6bb5fb","system_id":"levelo_inurba_marseille","lat":43.28148,"lon":5.42625,"is_reserved":false,"is_disabled":false,"rental_uris":{"android":"levelo://app?vid=b00605e3-b50e-457e-a9d6-59adef6bb5fb","ios":"levelo://app?vid=b00605e3-b50e-457e-a9d6-59adef6bb5fb"},"vehicle_type_id":"4","last_reported":1742656091,"current_range_meters":7200,"station_id":"ce4bhnh2rcd13ifvqgug","pricing_plan_id":"cebpf4jnsgd1na2vs0mg"},{"bike_id":"a90cac6d-25f5-4467-83f2-05609bbda941","system_id":"levelo_inurba_marseille","lat":43.284876,"lon":5.384148,"is_reserved":false,"is_disabled":false,"rental_uris":{"android":"levelo://app?vid=a90cac6d-25f5-4467-83f2-05609bbda941","ios":"levelo://app?vid=a90cac6d-25f5-4467-83f2-05609bbda941"},"vehicle_type_id":"4","last_reported":1742656091,"current_range_meters":7200,"station_id":"ce4bhgp2rcd13ifvqfe0","pricing_plan_id":"cebpf4jnsgd1na2vs0mg"},{"bike_id":"7872f180-f75b-4e9d-8f04-12e6c17037a5","system_id":"levelo_inurba_marseille","lat":43.32484,"lon":5.3655,"is_reserved":false,"is_disabled":false,"rental_uris":{"android":"levelo://app?vid=7872f180-f75b-4e9d-8f04-12e6c17037a5","ios":"levelo://app?vid=7872f180-f75b-4e9d-8f04-12e6c17037a5"},"vehicle_type_id":"4","last_reported":1742656091,"current_range_meters":7200,"station_id":"ce4bhs12rcd13ifvqhvg","pricing_plan_id":"cebpf4jnsgd1na2vs0mg"},{"bike_id":"10e8ca3e-8415-4db2-bd99-6d8438c9a57a","system_id":"levelo_inurba_marseille","lat":43.29922,"lon":5.37488,"is_reserved":false,"is_disabled":false,"rental_uris":{"android":"levelo://app?vid=10e8ca3e-8415-4db2-bd99-6d8438c9a57a","ios":"levelo://app?vid=10e8ca3e-8415-4db2-bd99-6d8438c9a57a"},"vehicle_type_id":"4","last_reported":1742656091,"current_range_meters":8000,"station_id":"ce4bgjh2rcd13ifvqbg0","pricing_plan_id":"cebpf4jnsgd1na2vs0mg"},{"bike_id":"0faeda17-87f9-4308-b369-97acc6c5068b","system_id":"levelo_inurba_marseille","lat":43.24546,"lon":5.39525,"is_reserved":false,"is_disabled":false,"rental_uris":{"android":"levelo://app?vid=0faeda17-87f9-4308-b369-97acc6c5068b","ios":"levelo://app?vid=0faeda17-87f9-4308-b369-97acc6c5068b"},"vehicle_type_id":"4","last_reported":1742656091,"current_range_meters":8000,"station_id":"ce4bhlp2rcd13ifvqgjg","pricing_plan_id":"cebpf4jnsgd1na2vs0mg"},{"bike_id":"2c34c7ba-981b-4202-88af-49e64bf63709","system_id":"levelo_inurba_marseille","lat":43.24812,"lon":5.37461,"is_reserved":false,"is_disabled":false,"rental_uris":{"android":"levelo://app?vid=2c34c7ba-981b-4202-88af-49e64bf63709","ios":"levelo://app?vid=2c34c7ba-981b-4202-88af-49e64bf63709"},"vehicle_type_id":"4","last_reported":1742656091,"current_range_meters":8000,"station_id":"ce4bhgh2rcd13ifvqfb0","pricing_plan_id":"cebpf4jnsgd1na2vs0mg"},{"bike_id":"f9c1eaa4-3b8f-4097-ab68-d3209b3d0672","system_id":"levelo_inurba_marseille","lat":43.3088,"lon":5.39627,"is_reserved":false,"is_disabled":false,"rental_uris":{"android":"levelo://app?vid=f9c1eaa4-3b8f-4097-ab68-d3209b3d0672","ios":"levelo://app?vid=f9c1eaa4-3b8f-4097-ab68-d3209b3d0672"},"vehicle_type_id":"4","last_reported":1742656091,"current_range_meters":8000,"station_id":"ce4bh012rcd13ifvqcv0","pricing_plan_id":"cebpf4jnsgd1na2vs0mg"},{"bike_id":"b374433f-888f-4636-8f9e-e665bf72ff29","system_id":"levelo_inurba_marseille","lat":43.27556,"lon":5.38427,"is_reserved":false,"is_disabled":false,"rental_uris":{"android":"levelo://app?vid=b374433f-888f-4636-8f9e-e665bf72ff29","ios":"levelo://app?vid=b374433f-888f-4636-8f9e-e665bf72ff29"},"vehicle_type_id":"4","last_reported":1742656091,"current_range_meters":7200,"station_id":"ce4bhh92rcd13ifvqfi0","pricing_plan_id":"cebpf4jnsgd1na2vs0mg"},{"bike_id":"276613ec-3310-44d6-ae3f-44328dd4fd15","system_id":"levelo_inurba_marseille","lat":43.25808,"lon":5.39406,"is_reserved":false,"is_disabled":false,"rental_uris":{"android":"levelo://app?vid=276613ec-3310-44d6-ae3f-44328dd4fd15","ios":"levelo://app?vid=276613ec-3310-44d6-ae3f-44328dd4fd15"},"vehicle_type_id":"4","last_reported":1742656091,"current_range_meters":8000,"station_id":"ce4bhip2rcd13ifvqft0","pricing_plan_id":"cebpf4jnsgd1na2vs0mg"},{"bike_id":"c2d17b81-332c-4ea0-8daf-44fc66625efc","system_id":"levelo_inurba_marseille","lat":43.2696,"lon":5.3862,"is_reserved":false,"is_disabled":false,"rental_uris":{"android":"levelo://app?vid=c2d17b81-332c-4ea0-8daf-44fc66625efc","ios":"levelo://app?vid=c2d17b81-332c-4ea0-8daf-44fc66625efc"},"vehicle_type_id":"4","last_reported":1742656091,"current_range_meters":8000,"station_id":"ce4bhh92rcd13ifvqfh0","pricing_plan_id":"cebpf4jnsgd1na2vs0mg"},{"bike_id":"551b893c-b2f0-4f1f-8a5b-06699a2a4fdc","system_id":"levelo_inurba_marseille","lat":43.31652,"lon":5.40412,"is_reserved":false,"is_disabled":false,"rental_uris":{"android":"levelo://app?vid=551b893c-b2f0-4f1f-8a5b-06699a2a4fdc","ios":"levelo://app?vid=551b893c-b2f0-4f1f-8a5b-06699a2a4fdc"},"vehicle_type_id":"4","last_reported":1742656091,"current_range_meters":8000,"station_id":"ce4bh012rcd13ifvqd00","pricing_plan_id":"cebpf4jnsgd1na2vs0mg"},{"bike_id":"a6d6a801-e8a2-4a79-94ba-3402e2e8f551","system_id":"levelo_inurba_marseille","lat":43.29727,"lon":5.3771,"is_reserved":false,"is_disabled":false,"rental_uris":{"android":"levelo://app?vid=a6d6a801-e8a2-4a79-94ba-3402e2e8f551","ios":"levelo://app?vid=a6d6a801-e8a2-4a79-94ba-3402e2e8f551"},"vehicle_type_id":"4","last_reported":1742656091,"current_range_meters":8000,"station_id":"ce4bgkh2rcd13ifvqbl0","pricing_plan_id":"cebpf4jnsgd1na2vs0mg"},{"bike_id":"bae1f0f9-e296-46cc-9c8a-e1929ffae5e5","system_id":"levelo_inurba_marseille","lat":43.29418,"lon":5.38613,"is_reserved":false,"is_disabled":false,"rental_uris":{"android":"levelo://app?vid=bae1f0f9-e296-46cc-9c8a-e1929ffae5e5","ios":"levelo://app?vid=bae1f0f9-e296-46cc-9c8a-e1929ffae5e5"},"vehicle_type_id":"4","last_reported":1742656091,"current_range_meters":8000,"station_id":"ce4bh2h2rcd13ifvqdh0","pricing_plan_id":"cebpf4jnsgd1na2vs0mg"},{"bike_id":"34791d82-19d8-45ce-83b9-0d4f19bcc6ae","system_id":"levelo_inurba_marseille","lat":43.28171,"lon":5.4261,"is_reserved":false,"is_disabled":false,"rental_uris":{"android":"levelo://app?vid=34791d82-19d8-45ce-83b9-0d4f19bcc6ae","ios":"levelo://app?vid=34791d82-19d8-45ce-83b9-0d4f19bcc6ae"},"vehicle_type_id":"4","last_reported":1742656091,"current_range_meters":8000,"station_id":"ce4bhnh2rcd13ifvqgug","pricing_plan_id":"cebpf4jnsgd1na2vs0mg"},{"bike_id":"b95dd8b3-8b42-4b01-a436-eb7561400e51","system_id":"levelo_inurba_marseille","lat":43.29568,"lon":5.3751,"is_reserved":false,"is_disabled":false,"rental_uris":{"android":"levelo://app?vid=b95dd8b3-8b42-4b01-a436-eb7561400e51","ios":"levelo://app?vid=b95dd8b3-8b42-4b01-a436-eb7561400e51"},"vehicle_type_id":"4","last_reported":1742656091,"current_range_meters":8000,"station_id":"ce4bgh92rcd13ifvqb50","pricing_plan_id":"cebpf4jnsgd1na2vs0mg"},{"bike_id":"295b2b96-8a22-4b6f-a45b-df5a7ed58969","system_id":"levelo_inurba_marseille","lat":43.33709,"lon":5.39177,"is_reserved":false,"is_disabled":false,"rental_uris":{"android":"levelo://app?vid=295b2b96-8a22-4b6f-a45b-df5a7ed58969","ios":"levelo://app?vid=295b2b96-8a22-4b6f-a45b-df5a7ed58969"},"vehicle_type_id":"4","last_reported":1742656091,"current_range_meters":8400,"station_id":"ce4bhr92rcd13ifvqhsg","pricing_plan_id":"cebpf4jnsgd1na2vs0mg"},{"bike_id":"1c2bf6f3-5198-42cd-b19a-dfcf4cc29a6e","system_id":"levelo_inurba_marseille","lat":43.3014,"lon":5.3742,"is_reserved":false,"is_disabled":false,"rental_uris":{"android":"levelo://app?vid=1c2bf6f3-5198-42cd-b19a-dfcf4cc29a6e","ios":"levelo://app?vid=1c2bf6f3-5198-42cd-b19a-dfcf4cc29a6e"},"vehicle_type_id":"4","last_reported":1742656091,"current_range_meters":8400,"station_id":"ce4bgs92rcd13ifvqcc0","pricing_plan_id":"cebpf4jnsgd1na2vs0mg"},{"bike_id":"7eca6224-5a2c-4279-beef-b32fd8b65b85","system_id":"levelo_inurba_marseille","lat":43.24544,"lon":5.39523,"is_reserved":false,"is_disabled":false,"rental_uris":{"android":"levelo://app?vid=7eca6224-5a2c-4279-beef-b32fd8b65b85","ios":"levelo://app?vid=7eca6224-5a2c-4279-beef-b32fd8b65b85"},"vehicle_type_id":"4","last_reported":1742656091,"current_range_meters":8400,"station_id":"ce4bhlp2rcd13ifvqgjg","pricing_plan_id":"cebpf4jnsgd1na2vs0mg"},{"bike_id":"5dd81119-aa6c-46d9-84b7-0c4a2cf3a209","system_id":"levelo_inurba_marseille","lat":43.24652,"lon":5.38891,"is_reserved":false,"is_disabled":false,"rental_uris":{"android":"levelo://app?vid=5dd81119-aa6c-46d9-84b7-0c4a2cf3a209","ios":"levelo://app?vid=5dd81119-aa6c-46d9-84b7-0c4a2cf3a209"},"vehicle_type_id":"4","last_reported":1742656091,"current_range_meters":8800,"station_id":"ce4bhg12rcd13ifvqf60","pricing_plan_id":"cebpf4jnsgd1na2vs0mg"},{"bike_id":"30f74d27-9970-4afa-b900-f9accdc2d04a","system_id":"levelo_inurba_marseille","lat":43.26194,"lon":5.40447,"is_reserved":false,"is_disabled":false,"rental_uris":{"android":"levelo://app?vid=30f74d27-9970-4afa-b900-f9accdc2d04a","ios":"levelo://app?vid=30f74d27-9970-4afa-b900-f9accdc2d04a"},"vehicle_type_id":"4","last_reported":1742656091,"current_range_meters":8400,"station_id":"ce4bhmh2rcd13ifvqgmg","pricing_plan_id":"cebpf4jnsgd1na2vs0mg"},{"bike_id":"65b642d2-4bbc-47bd-9c36-3f213e795fd7","system_id":"levelo_inurba_marseille","lat":43.25855,"lon":5.39423,"is_reserved":false,"is_disabled":false,"rental_uris":{"android":"levelo://app?vid=65b642d2-4bbc-47bd-9c36-3f213e795fd7","ios":"levelo://app?vid=65b642d2-4bbc-47bd-9c36-3f213e795fd7"},"vehicle_type_id":"4","last_reported":1742656091,"current_range_meters":8400,"station_id":"ce4bhip2rcd13ifvqft0","pricing_plan_id":"cebpf4jnsgd1na2vs0mg"},{"bike_id":"0b88f75b-34bf-4d3e-91d1-52330410ff50","system_id":"levelo_inurba_marseille","lat":43.29623,"lon":5.37721,"is_reserved":false,"is_disabled":false,"rental_uris":{"android":"levelo://app?vid=0b88f75b-34bf-4d3e-91d1-52330410ff50","ios":"levelo://app?vid=0b88f75b-34bf-4d3e-91d1-52330410ff50"},"vehicle_type_id":"4","last_reported":1742656091,"current_range_meters":8400,"station_id":"ce4bgi92rcd13ifvqb90","pricing_plan_id":"cebpf4jnsgd1na2vs0mg"},{"bike_id":"a0803fc7-7c01-4615-afb9-e1e35a6349e8","system_id":"levelo_inurba_marseille","lat":43.28148,"lon":5.42646,"is_reserved":false,"is_disabled":false,"rental_uris":{"android":"levelo://app?vid=a0803fc7-7c01-4615-afb9-e1e35a6349e8","ios":"levelo://app?vid=a0803fc7-7c01-4615-afb9-e1e35a6349e8"},"vehicle_type_id":"4","last_reported":1742656091,"current_range_meters":8400,"station_id":"ce4bhnh2rcd13ifvqgug","pricing_plan_id":"cebpf4jnsgd1na2vs0mg"},{"bike_id":"7a80749b-56dc-4ab1-a2d7-268dfcb799e2","system_id":"levelo_inurba_marseille","lat":43.23964,"lon":5.36614,"is_reserved":false,"is_disabled":false,"rental_uris":{"android":"levelo://app?vid=7a80749b-56dc-4ab1-a2d7-268dfcb799e2","ios":"levelo://app?vid=7a80749b-56dc-4ab1-a2d7-268dfcb799e2"},"vehicle_type_id":"4","last_reported":1742656091,"current_range_meters":8800,"station_id":"ce4bhi12rcd13ifvqfp0","pricing_plan_id":"cebpf4jnsgd1na2vs0mg"},{"bike_id":"98ccc432-9b2a-43af-a5bc-519131c0a420","system_id":"levelo_inurba_marseille","lat":43.24547,"lon":5.39527,"is_reserved":false,"is_disabled":false,"rental_uris":{"android":"levelo://app?vid=98ccc432-9b2a-43af-a5bc-519131c0a420","ios":"levelo://app?vid=98ccc432-9b2a-43af-a5bc-519131c0a420"},"vehicle_type_id":"4","last_reported":1742656091,"current_range_meters":8800,"station_id":"ce4bhlp2rcd13ifvqgjg","pricing_plan_id":"cebpf4jnsgd1na2vs0mg"},{"bike_id":"e1e493b8-6ddd-477f-a5c7-ce583728c84a","system_id":"levelo_inurba_marseille","lat":43.29038,"lon":5.38137,"is_reserved":false,"is_disabled":false,"rental_uris":{"android":"levelo://app?vid=e1e493b8-6ddd-477f-a5c7-ce583728c84a","ios":"levelo://app?vid=e1e493b8-6ddd-477f-a5c7-ce583728c84a"},"vehicle_type_id":"4","last_reported":1742656091,"current_range_meters":8800,"station_id":"ce4bh4p2rcd13ifvqe1g","pricing_plan_id":"cebpf4jnsgd1na2vs0mg"},{"bike_id":"0007fce5-562c-4dc0-afc3-21cf7828d9fe","system_id":"levelo_inurba_marseille","lat":43.30139,"lon":5.37407,"is_reserved":false,"is_disabled":false,"rental_uris":{"android":"levelo://app?vid=0007fce5-562c-4dc0-afc3-21cf7828d9fe","ios":"levelo://app?vid=0007fce5-562c-4dc0-afc3-21cf7828d9fe"},"vehicle_type_id":"4","last_reported":1742656091,"current_range_meters":8800,"station_id":"ce4bgs92rcd13ifvqcc0","pricing_plan_id":"cebpf4jnsgd1na2vs0mg"},{"bike_id":"85ee9b58-17b4-4a2f-a01a-ddc173465a87","system_id":"levelo_inurba_marseille","lat":43.23197,"lon":5.3555,"is_reserved":false,"is_disabled":false,"rental_uris":{"android":"levelo://app?vid=85ee9b58-17b4-4a2f-a01a-ddc173465a87","ios":"levelo://app?vid=85ee9b58-17b4-4a2f-a01a-ddc173465a87"},"vehicle_type_id":"4","last_reported":1742656091,"current_range_meters":8800,"station_id":"ce4bhu92rcd13ifvqi70","pricing_plan_id":"cebpf4jnsgd1na2vs0mg"},{"bike_id":"a6b4a942-f9e2-44a9-9659-5da44569eba1","system_id":"levelo_inurba_marseille","lat":43.260674,"lon":5.394016,"is_reserved":false,"is_disabled":false,"rental_uris":{"android":"levelo://app?vid=a6b4a942-f9e2-44a9-9659-5da44569eba1","ios":"levelo://app?vid=a6b4a942-f9e2-44a9-9659-5da44569eba1"},"vehicle_type_id":"4","last_reported":1742656091,"current_range_meters":8800,"station_id":"ce4bgi12rcd13ifvqb70","pricing_plan_id":"cebpf4jnsgd1na2vs0mg"},{"bike_id":"41f865e5-8519-409d-b0d7-727a304f0bb7","system_id":"levelo_inurba_marseille","lat":43.30139,"lon":5.37413,"is_reserved":false,"is_disabled":false,"rental_uris":{"android":"levelo://app?vid=41f865e5-8519-409d-b0d7-727a304f0bb7","ios":"levelo://app?vid=41f865e5-8519-409d-b0d7-727a304f0bb7"},"vehicle_type_id":"4","last_reported":1742656091,"current_range_meters":8800,"station_id":"ce4bgs92rcd13ifvqcc0","pricing_plan_id":"cebpf4jnsgd1na2vs0mg"},{"bike_id":"5c61952f-5ccf-41c4-ba4b-5426f33f0d01","system_id":"levelo_inurba_marseille","lat":43.30882,"lon":5.39652,"is_reserved":false,"is_disabled":false,"rental_uris":{"android":"levelo://app?vid=5c61952f-5ccf-41c4-ba4b-5426f33f0d01","ios":"levelo://app?vid=5c61952f-5ccf-41c4-ba4b-5426f33f0d01"},"vehicle_type_id":"4","last_reported":1742656091,"current_range_meters":8800,"station_id":"ce4bh012rcd13ifvqcv0","pricing_plan_id":"cebpf4jnsgd1na2vs0mg"},{"bike_id":"b5fcb98a-c8d5-4f1a-a9b4-b3362af2a9c7","system_id":"levelo_inurba_marseille","lat":43.23065,"lon":5.35469,"is_reserved":false,"is_disabled":false,"rental_uris":{"android":"levelo://app?vid=b5fcb98a-c8d5-4f1a-a9b4-b3362af2a9c7","ios":"levelo://app?vid=b5fcb98a-c8d5-4f1a-a9b4-b3362af2a9c7"},"vehicle_type_id":"4","last_reported":1742656091,"current_range_meters":8800,"station_id":"cpo3342slgdg3j2ifvpg","pricing_plan_id":"cebpf4jnsgd1na2vs0mg"},{"bike_id":"84f44fa9-ac79-46e0-9019-b8125ec3ae03","system_id":"levelo_inurba_marseille","lat":43.26568,"lon":5.39029,"is_reserved":false,"is_disabled":false,"rental_uris":{"android":"levelo://app?vid=84f44fa9-ac79-46e0-9019-b8125ec3ae03","ios":"levelo://app?vid=84f44fa9-ac79-46e0-9019-b8125ec3ae03"},"vehicle_type_id":"4","last_reported":1742656091,"current_range_meters":8800,"station_id":"ce4bhe12rcd13ifvqf30","pricing_plan_id":"cebpf4jnsgd1na2vs0mg"},{"bike_id":"ac71b277-037f-4bc4-858b-78dc29abbbd5","system_id":"levelo_inurba_marseille","lat":43.24669,"lon":5.38167,"is_reserved":false,"is_disabled":false,"rental_uris":{"android":"levelo://app?vid=ac71b277-037f-4bc4-858b-78dc29abbbd5","ios":"levelo://app?vid=ac71b277-037f-4bc4-858b-78dc29abbbd5"},"vehicle_type_id":"4","last_reported":1742656091,"current_range_meters":8800,"station_id":"ce4bhih2rcd13ifvqfr0","pricing_plan_id":"cebpf4jnsgd1na2vs0mg"},{"bike_id":"6df70f7e-8851-446f-ade0-cf846575c268","system_id":"levelo_inurba_marseille","lat":43.27917,"lon":5.39584,"is_reserved":false,"is_disabled":false,"rental_uris":{"android":"levelo://app?vid=6df70f7e-8851-446f-ade0-cf846575c268","ios":"levelo://app?vid=6df70f7e-8851-446f-ade0-cf846575c268"},"vehicle_type_id":"4","last_reported":1742656091,"current_range_meters":8800,"station_id":"ce4bhf92rcd13ifvqf40","pricing_plan_id":"cebpf4jnsgd1na2vs0mg"},{"bike_id":"395a6abc-4d8a-435b-8e3d-758afed4d7b6","system_id":"levelo_inurba_marseille","lat":43.25572,"lon":5.38226,"is_reserved":false,"is_disabled":false,"rental_uris":{"android":"levelo://app?vid=395a6abc-4d8a-435b-8e3d-758afed4d7b6","ios":"levelo://app?vid=395a6abc-4d8a-435b-8e3d-758afed4d7b6"},"vehicle_type_id":"4","last_reported":1742656091,"current_range_meters":8800,"station_id":"ce4bhih2rcd13ifvqfs0","pricing_plan_id":"cebpf4jnsgd1na2vs0mg"},{"bike_id":"6a3f44b0-ae7f-4b7e-86d0-d4199ebd6a85","system_id":"levelo_inurba_marseille","lat":43.31525,"lon":5.38054,"is_reserved":false,"is_disabled":false,"rental_uris":{"android":"levelo://app?vid=6a3f44b0-ae7f-4b7e-86d0-d4199ebd6a85","ios":"levelo://app?vid=6a3f44b0-ae7f-4b7e-86d0-d4199ebd6a85"},"vehicle_type_id":"4","last_reported":1742656091,"current_range_meters":8800,"station_id":"ce4bhsp2rcd13ifvqi50","pricing_plan_id":"cebpf4jnsgd1na2vs0mg"},{"bike_id":"7f396ae9-244b-4126-bc7a-2312f6e4d9ee","system_id":"levelo_inurba_marseille","lat":43.33723,"lon":5.3919,"is_reserved":false,"is_disabled":false,"rental_uris":{"android":"levelo://app?vid=7f396ae9-244b-4126-bc7a-2312f6e4d9ee","ios":"levelo://app?vid=7f396ae9-244b-4126-bc7a-2312f6e4d9ee"},"vehicle_type_id":"4","last_reported":1742656091,"current_range_meters":9200,"station_id":"ce4bhr92rcd13ifvqhsg","pricing_plan_id":"cebpf4jnsgd1na2vs0mg"},{"bike_id":"a564807e-5bd6-4a71-b02f-5054fff067f9","system_id":"levelo_inurba_marseille","lat":43.2466,"lon":5.38164,"is_reserved":false,"is_disabled":false,"rental_uris":{"android":"levelo://app?vid=a564807e-5bd6-4a71-b02f-5054fff067f9","ios":"levelo://app?vid=a564807e-5bd6-4a71-b02f-5054fff067f9"},"vehicle_type_id":"4","last_reported":1742656091,"current_range_meters":9200,"station_id":"ce4bhih2rcd13ifvqfr0","pricing_plan_id":"cebpf4jnsgd1na2vs0mg"},{"bike_id":"b0b2b118-5db8-4b2a-838f-fcf30962e045","system_id":"levelo_inurba_marseille","lat":43.25522,"lon":5.37661,"is_reserved":false,"is_disabled":false,"rental_uris":{"android":"levelo://app?vid=b0b2b118-5db8-4b2a-838f-fcf30962e045","ios":"levelo://app?vid=b0b2b118-5db8-4b2a-838f-fcf30962e045"},"vehicle_type_id":"4","last_reported":1742656091,"current_range_meters":9200,"station_id":"ce4bhh12rcd13ifvqff0","pricing_plan_id":"cebpf4jnsgd1na2vs0mg"},{"bike_id":"592af5a9-2361-415d-8802-df60b01982cc","system_id":"levelo_inurba_marseille","lat":43.28271,"lon":5.35061,"is_reserved":false,"is_disabled":true,"rental_uris":{"android":"levelo://app?vid=592af5a9-2361-415d-8802-df60b01982cc","ios":"levelo://app?vid=592af5a9-2361-415d-8802-df60b01982cc"},"vehicle_type_id":"4","last_reported":1742656091,"current_range_meters":9200,"station_id":"ce4bhbp2rcd13ifvqerg","pricing_plan_id":"cebpf4jnsgd1na2vs0mg"},{"bike_id":"fe239f3d-5c83-42bd-8b99-e0b3f3784fb5","system_id":"levelo_inurba_marseille","lat":43.24607,"lon":5.38415,"is_reserved":false,"is_disabled":false,"rental_uris":{"android":"levelo://app?vid=fe239f3d-5c83-42bd-8b99-e0b3f3784fb5","ios":"levelo://app?vid=fe239f3d-5c83-42bd-8b99-e0b3f3784fb5"},"vehicle_type_id":"4","last_reported":1742656091,"current_range_meters":9200,"station_id":"","pricing_plan_id":"cebpf4jnsgd1na2vs0mg"},{"bike_id":"3476276f-3fbc-442a-98f8-e958d3f486e8","system_id":"levelo_inurba_marseille","lat":43.26556,"lon":5.39039,"is_reserved":false,"is_disabled":false,"rental_uris":{"android":"levelo://app?vid=3476276f-3fbc-442a-98f8-e958d3f486e8","ios":"levelo://app?vid=3476276f-3fbc-442a-98f8-e958d3f486e8"},"vehicle_type_id":"4","last_reported":1742656091,"current_range_meters":9600,"station_id":"ce4bhe12rcd13ifvqf30","pricing_plan_id":"cebpf4jnsgd1na2vs0mg"},{"bike_id":"598a68e0-1d30-4a77-a087-0d5c856706a2","system_id":"levelo_inurba_marseille","lat":43.25869,"lon":5.39888,"is_reserved":false,"is_disabled":false,"rental_uris":{"android":"levelo://app?vid=598a68e0-1d30-4a77-a087-0d5c856706a2","ios":"levelo://app?vid=598a68e0-1d30-4a77-a087-0d5c856706a2"},"vehicle_type_id":"4","last_reported":1742656091,"current_range_meters":9600,"station_id":"ce4bhl92rcd13ifvqghg","pricing_plan_id":"cebpf4jnsgd1na2vs0mg"},{"bike_id":"b2e9dee8-e85b-4097-bad4-e93b919991c2","system_id":"levelo_inurba_marseille","lat":43.26219,"lon":5.37435,"is_reserved":false,"is_disabled":false,"rental_uris":{"android":"levelo://app?vid=b2e9dee8-e85b-4097-bad4-e93b919991c2","ios":"levelo://app?vid=b2e9dee8-e85b-4097-bad4-e93b919991c2"},"vehicle_type_id":"4","last_reported":1742656091,"current_range_meters":9600,"station_id":"ce4bhgp2rcd13ifvqfc0","pricing_plan_id":"cebpf4jnsgd1na2vs0mg"},{"bike_id":"570ca7f7-c781-4413-9f44-805c4b424605","system_id":"levelo_inurba_marseille","lat":43.29961,"lon":5.384983,"is_reserved":false,"is_disabled":false,"rental_uris":{"android":"levelo://app?vid=570ca7f7-c781-4413-9f44-805c4b424605","ios":"levelo://app?vid=570ca7f7-c781-4413-9f44-805c4b424605"},"vehicle_type_id":"4","last_reported":1742656091,"current_range_meters":9200,"station_id":"ce4bgk12rcd13ifvqbi0","pricing_plan_id":"cebpf4jnsgd1na2vs0mg"},{"bike_id":"c0159179-e3ed-4866-a4b6-7e101e7df434","system_id":"levelo_inurba_marseille","lat":43.30143,"lon":5.37403,"is_reserved":false,"is_disabled":false,"rental_uris":{"android":"levelo://app?vid=c0159179-e3ed-4866-a4b6-7e101e7df434","ios":"levelo://app?vid=c0159179-e3ed-4866-a4b6-7e101e7df434"},"vehicle_type_id":"4","last_reported":1742656091,"current_range_meters":9600,"station_id":"ce4bgs92rcd13ifvqcc0","pricing_plan_id":"cebpf4jnsgd1na2vs0mg"},{"bike_id":"bad3c289-bb6d-41eb-848f-88e1eb743e7d","system_id":"levelo_inurba_marseille","lat":43.29709,"lon":5.36604,"is_reserved":false,"is_disabled":false,"rental_uris":{"android":"levelo://app?vid=bad3c289-bb6d-41eb-848f-88e1eb743e7d","ios":"levelo://app?vid=bad3c289-bb6d-41eb-848f-88e1eb743e7d"},"vehicle_type_id":"4","last_reported":1742656091,"current_range_meters":10000,"station_id":"ce4bgn12rcd13ifvqbt0","pricing_plan_id":"cebpf4jnsgd1na2vs0mg"},{"bike_id":"d459651c-b15f-4ece-9ae9-49dce789e945","system_id":"levelo_inurba_marseille","lat":43.30522,"lon":5.3652,"is_reserved":false,"is_disabled":false,"rental_uris":{"android":"levelo://app?vid=d459651c-b15f-4ece-9ae9-49dce789e945","ios":"levelo://app?vid=d459651c-b15f-4ece-9ae9-49dce789e945"},"vehicle_type_id":"4","last_reported":1742656091,"current_range_meters":10000,"station_id":"","pricing_plan_id":"cebpf4jnsgd1na2vs0mg"},{"bike_id":"c4f89292-9fc9-4465-a81d-35a9f9b71dd4","system_id":"levelo_inurba_marseille","lat":43.28068,"lon":5.39612,"is_reserved":false,"is_disabled":false,"rental_uris":{"android":"levelo://app?vid=c4f89292-9fc9-4465-a81d-35a9f9b71dd4","ios":"levelo://app?vid=c4f89292-9fc9-4465-a81d-35a9f9b71dd4"},"vehicle_type_id":"4","last_reported":1742656091,"current_range_meters":10000,"station_id":"ce4bho12rcd13ifvqh2g","pricing_plan_id":"cebpf4jnsgd1na2vs0mg"},{"bike_id":"8153b67f-1145-405c-b1dd-e3a2350a69a2","system_id":"levelo_inurba_marseille","lat":43.2815,"lon":5.42643,"is_reserved":false,"is_disabled":false,"rental_uris":{"android":"levelo://app?vid=8153b67f-1145-405c-b1dd-e3a2350a69a2","ios":"levelo://app?vid=8153b67f-1145-405c-b1dd-e3a2350a69a2"},"vehicle_type_id":"4","last_reported":1742656091,"current_range_meters":10000,"station_id":"ce4bhnh2rcd13ifvqgug","pricing_plan_id":"cebpf4jnsgd1na2vs0mg"},{"bike_id":"1611e791-0512-4b0f-bfc0-5ec9d54cb6da","system_id":"levelo_inurba_marseille","lat":43.2306,"lon":5.35494,"is_reserved":false,"is_disabled":false,"rental_uris":{"android":"levelo://app?vid=1611e791-0512-4b0f-bfc0-5ec9d54cb6da","ios":"levelo://app?vid=1611e791-0512-4b0f-bfc0-5ec9d54cb6da"},"vehicle_type_id":"4","last_reported":1742656091,"current_range_meters":10000,"station_id":"cpo3342slgdg3j2ifvpg","pricing_plan_id":"cebpf4jnsgd1na2vs0mg"},{"bike_id":"a347e11c-2cd1-4d70-91d7-1519614a036d","system_id":"levelo_inurba_marseille","lat":43.25075,"lon":5.39507,"is_reserved":false,"is_disabled":false,"rental_uris":{"android":"levelo://app?vid=a347e11c-2cd1-4d70-91d7-1519614a036d","ios":"levelo://app?vid=a347e11c-2cd1-4d70-91d7-1519614a036d"},"vehicle_type_id":"4","last_reported":1742656091,"current_range_meters":10000,"station_id":"ce4bhm12rcd13ifvqgkg","pricing_plan_id":"cebpf4jnsgd1na2vs0mg"},{"bike_id":"da2ad5f6-0ada-4cac-a1cd-a0584cc7c0f8","system_id":"levelo_inurba_marseille","lat":43.29582,"lon":5.3751,"is_reserved":false,"is_disabled":false,"rental_uris":{"android":"levelo://app?vid=da2ad5f6-0ada-4cac-a1cd-a0584cc7c0f8","ios":"levelo://app?vid=da2ad5f6-0ada-4cac-a1cd-a0584cc7c0f8"},"vehicle_type_id":"4","last_reported":1742656091,"current_range_meters":10000,"station_id":"ce4bgh92rcd13ifvqb50","pricing_plan_id":"cebpf4jnsgd1na2vs0mg"},{"bike_id":"cb84301e-6bbb-45cc-a8a1-e98e6ea60c01","system_id":"levelo_inurba_marseille","lat":43.25121,"lon":5.40318,"is_reserved":false,"is_disabled":false,"rental_uris":{"android":"levelo://app?vid=cb84301e-6bbb-45cc-a8a1-e98e6ea60c01","ios":"levelo://app?vid=cb84301e-6bbb-45cc-a8a1-e98e6ea60c01"},"vehicle_type_id":"4","last_reported":1742656091,"current_range_meters":9600,"station_id":"ce4bhlh2rcd13ifvqgig","pricing_plan_id":"cebpf4jnsgd1na2vs0mg"},{"bike_id":"5435a57b-817c-47c6-abc9-2bb945d54314","system_id":"levelo_inurba_marseille","lat":43.29405,"lon":5.37833,"is_reserved":false,"is_disabled":false,"rental_uris":{"android":"levelo://app?vid=5435a57b-817c-47c6-abc9-2bb945d54314","ios":"levelo://app?vid=5435a57b-817c-47c6-abc9-2bb945d54314"},"vehicle_type_id":"4","last_reported":1742656091,"current_range_meters":10800,"station_id":"ce4bgjh2rcd13ifvqbf0","pricing_plan_id":"cebpf4jnsgd1na2vs0mg"},{"bike_id":"1c7a37db-dbe3-46a1-942f-096d457fc162","system_id":"levelo_inurba_marseille","lat":43.23163,"lon":5.43701,"is_reserved":false,"is_disabled":false,"rental_uris":{"android":"levelo://app?vid=1c7a37db-dbe3-46a1-942f-096d457fc162","ios":"levelo://app?vid=1c7a37db-dbe3-46a1-942f-096d457fc162"},"vehicle_type_id":"4","last_reported":1742656091,"current_range_meters":10000,"station_id":"ce4bhmp2rcd13ifvqgog","pricing_plan_id":"cebpf4jnsgd1na2vs0mg"},{"bike_id":"6a7e6ea3-0dea-4fb5-9495-8803ab0e1523","system_id":"levelo_inurba_marseille","lat":43.30461,"lon":5.37901,"is_reserved":false,"is_disabled":false,"rental_uris":{"android":"levelo://app?vid=6a7e6ea3-0dea-4fb5-9495-8803ab0e1523","ios":"levelo://app?vid=6a7e6ea3-0dea-4fb5-9495-8803ab0e1523"},"vehicle_type_id":"4","last_reported":1742656091,"current_range_meters":10800,"station_id":"ce4bgup2rcd13ifvqcn0","pricing_plan_id":"cebpf4jnsgd1na2vs0mg"},{"bike_id":"634418dd-5af8-4f0a-bbfd-8dd4dc04978c","system_id":"levelo_inurba_marseille","lat":43.29054,"lon":5.35915,"is_reserved":false,"is_disabled":false,"rental_uris":{"android":"levelo://app?vid=634418dd-5af8-4f0a-bbfd-8dd4dc04978c","ios":"levelo://app?vid=634418dd-5af8-4f0a-bbfd-8dd4dc04978c"},"vehicle_type_id":"4","last_reported":1742656091,"current_range_meters":10800,"station_id":"ce4bha92rcd13ifvqeg0","pricing_plan_id":"cebpf4jnsgd1na2vs0mg"},{"bike_id":"fc2e0247-33ba-42af-b5d7-500ceacd193e","system_id":"levelo_inurba_marseille","lat":43.28477,"lon":5.38421,"is_reserved":false,"is_disabled":false,"rental_uris":{"android":"levelo://app?vid=fc2e0247-33ba-42af-b5d7-500ceacd193e","ios":"levelo://app?vid=fc2e0247-33ba-42af-b5d7-500ceacd193e"},"vehicle_type_id":"4","last_reported":1742656091,"current_range_meters":10800,"station_id":"ce4bh512rcd13ifvqe3g","pricing_plan_id":"cebpf4jnsgd1na2vs0mg"},{"bike_id":"c782ebe3-9d3d-4a53-9a08-cf586f0c7e08","system_id":"levelo_inurba_marseille","lat":43.27419,"lon":5.39414,"is_reserved":false,"is_disabled":false,"rental_uris":{"android":"levelo://app?vid=c782ebe3-9d3d-4a53-9a08-cf586f0c7e08","ios":"levelo://app?vid=c782ebe3-9d3d-4a53-9a08-cf586f0c7e08"},"vehicle_type_id":"4","last_reported":1742656091,"current_range_meters":10800,"station_id":"ce4bhdp2rcd13ifvqf20","pricing_plan_id":"cebpf4jnsgd1na2vs0mg"},{"bike_id":"76aa3ab6-e832-45f1-aa00-eb8b0f02f1e4","system_id":"levelo_inurba_marseille","lat":43.28153,"lon":5.42633,"is_reserved":false,"is_disabled":false,"rental_uris":{"android":"levelo://app?vid=76aa3ab6-e832-45f1-aa00-eb8b0f02f1e4","ios":"levelo://app?vid=76aa3ab6-e832-45f1-aa00-eb8b0f02f1e4"},"vehicle_type_id":"4","last_reported":1742656091,"current_range_meters":10800,"station_id":"ce4bhnh2rcd13ifvqgug","pricing_plan_id":"cebpf4jnsgd1na2vs0mg"},{"bike_id":"f6ab120a-eb36-455b-b3a5-0b60ffaf2a44","system_id":"levelo_inurba_marseille","lat":43.30216,"lon":5.3946,"is_reserved":false,"is_disabled":false,"rental_uris":{"android":"levelo://app?vid=f6ab120a-eb36-455b-b3a5-0b60ffaf2a44","ios":"levelo://app?vid=f6ab120a-eb36-455b-b3a5-0b60ffaf2a44"},"vehicle_type_id":"4","last_reported":1742656091,"current_range_meters":10800,"station_id":"ce4bh0p2rcd13ifvqd70","pricing_plan_id":"cebpf4jnsgd1na2vs0mg"},{"bike_id":"dd89ae27-2fe0-48ae-9a86-c058e65d1d1a","system_id":"levelo_inurba_marseille","lat":43.28473,"lon":5.38527,"is_reserved":false,"is_disabled":false,"rental_uris":{"android":"levelo://app?vid=dd89ae27-2fe0-48ae-9a86-c058e65d1d1a","ios":"levelo://app?vid=dd89ae27-2fe0-48ae-9a86-c058e65d1d1a"},"vehicle_type_id":"4","last_reported":1742656091,"current_range_meters":10800,"station_id":"ce4bh8p2rcd13ifvqeb0","pricing_plan_id":"cebpf4jnsgd1na2vs0mg"},{"bike_id":"a7a03330-0851-4e6a-8686-56aac52a54d5","system_id":"levelo_inurba_marseille","lat":43.23152,"lon":5.43699,"is_reserved":false,"is_disabled":false,"rental_uris":{"android":"levelo://app?vid=a7a03330-0851-4e6a-8686-56aac52a54d5","ios":"levelo://app?vid=a7a03330-0851-4e6a-8686-56aac52a54d5"},"vehicle_type_id":"4","last_reported":1742656091,"current_range_meters":10800,"station_id":"ce4bhmp2rcd13ifvqgog","pricing_plan_id":"cebpf4jnsgd1na2vs0mg"},{"bike_id":"16784492-6bb0-4dfd-a37c-0b309868075c","system_id":"levelo_inurba_marseille","lat":43.30643,"lon":5.3657,"is_reserved":false,"is_disabled":false,"rental_uris":{"android":"levelo://app?vid=16784492-6bb0-4dfd-a37c-0b309868075c","ios":"levelo://app?vid=16784492-6bb0-4dfd-a37c-0b309868075c"},"vehicle_type_id":"4","last_reported":1742656091,"current_range_meters":11200,"station_id":"","pricing_plan_id":"cebpf4jnsgd1na2vs0mg"},{"bike_id":"f4e6c8dd-1568-40f1-81d1-25d671d49a75","system_id":"levelo_inurba_marseille","lat":43.29918,"lon":5.37467,"is_reserved":false,"is_disabled":false,"rental_uris":{"android":"levelo://app?vid=f4e6c8dd-1568-40f1-81d1-25d671d49a75","ios":"levelo://app?vid=f4e6c8dd-1568-40f1-81d1-25d671d49a75"},"vehicle_type_id":"4","last_reported":1742656091,"current_range_meters":11200,"station_id":"ce4bgjh2rcd13ifvqbg0","pricing_plan_id":"cebpf4jnsgd1na2vs0mg"},{"bike_id":"e89f52be-c8f1-4809-8bb4-bce082030875","system_id":"levelo_inurba_marseille","lat":43.23961,"lon":5.36635,"is_reserved":false,"is_disabled":false,"rental_uris":{"android":"levelo://app?vid=e89f52be-c8f1-4809-8bb4-bce082030875","ios":"levelo://app?vid=e89f52be-c8f1-4809-8bb4-bce082030875"},"vehicle_type_id":"4","last_reported":1742656091,"current_range_meters":11200,"station_id":"ce4bhi12rcd13ifvqfp0","pricing_plan_id":"cebpf4jnsgd1na2vs0mg"},{"bike_id":"f69362bc-0155-4b4d-9f1d-a28b56376023","system_id":"levelo_inurba_marseille","lat":43.28593,"lon":5.3878,"is_reserved":false,"is_disabled":false,"rental_uris":{"android":"levelo://app?vid=f69362bc-0155-4b4d-9f1d-a28b56376023","ios":"levelo://app?vid=f69362bc-0155-4b4d-9f1d-a28b56376023"},"vehicle_type_id":"4","last_reported":1742656091,"current_range_meters":11200,"station_id":"","pricing_plan_id":"cebpf4jnsgd1na2vs0mg"},{"bike_id":"411f319a-b6e8-48db-a813-292e7cd14006","system_id":"levelo_inurba_marseille","lat":43.28361,"lon":5.38622,"is_reserved":false,"is_disabled":false,"rental_uris":{"android":"levelo://app?vid=411f319a-b6e8-48db-a813-292e7cd14006","ios":"levelo://app?vid=411f319a-b6e8-48db-a813-292e7cd14006"},"vehicle_type_id":"4","last_reported":1742656091,"current_range_meters":11200,"station_id":"ce4bh492rcd13ifvqdvg","pricing_plan_id":"cebpf4jnsgd1na2vs0mg"},{"bike_id":"3f3f99da-6673-441e-a5b3-6857219a400e","system_id":"levelo_inurba_marseille","lat":43.25006,"lon":5.38916,"is_reserved":false,"is_disabled":false,"rental_uris":{"android":"levelo://app?vid=3f3f99da-6673-441e-a5b3-6857219a400e","ios":"levelo://app?vid=3f3f99da-6673-441e-a5b3-6857219a400e"},"vehicle_type_id":"4","last_reported":1742656091,"current_range_meters":11200,"station_id":"ce4bhgp2rcd13ifvqfd0","pricing_plan_id":"cebpf4jnsgd1na2vs0mg"},{"bike_id":"8ed1ac19-a2dd-4532-af16-423d1df5a6d4","system_id":"levelo_inurba_marseille","lat":43.23119,"lon":5.41386,"is_reserved":false,"is_disabled":false,"rental_uris":{"android":"levelo://app?vid=8ed1ac19-a2dd-4532-af16-423d1df5a6d4","ios":"levelo://app?vid=8ed1ac19-a2dd-4532-af16-423d1df5a6d4"},"vehicle_type_id":"4","last_reported":1742656091,"current_range_meters":11200,"station_id":"","pricing_plan_id":"cebpf4jnsgd1na2vs0mg"},{"bike_id":"e9648a16-9e7a-499a-a056-0763c4703c18","system_id":"levelo_inurba_marseille","lat":43.27686,"lon":5.38871,"is_reserved":false,"is_disabled":false,"rental_uris":{"android":"levelo://app?vid=e9648a16-9e7a-499a-a056-0763c4703c18","ios":"levelo://app?vid=e9648a16-9e7a-499a-a056-0763c4703c18"},"vehicle_type_id":"4","last_reported":1742656091,"current_range_meters":10800,"station_id":"ce4bhi12rcd13ifvqfo0","pricing_plan_id":"cebpf4jnsgd1na2vs0mg"},{"bike_id":"8cbc2c39-8eea-4680-b488-3adae242f8be","system_id":"levelo_inurba_marseille","lat":43.24175,"lon":5.39728,"is_reserved":false,"is_disabled":false,"rental_uris":{"android":"levelo://app?vid=8cbc2c39-8eea-4680-b488-3adae242f8be","ios":"levelo://app?vid=8cbc2c39-8eea-4680-b488-3adae242f8be"},"vehicle_type_id":"4","last_reported":1742656091,"current_range_meters":11200,"station_id":"ce4bhn12rcd13ifvqgpg","pricing_plan_id":"cebpf4jnsgd1na2vs0mg"},{"bike_id":"82e83c60-a4c6-4c3a-91fd-a9a6509ceafa","system_id":"levelo_inurba_marseille","lat":43.30144,"lon":5.37409,"is_reserved":false,"is_disabled":false,"rental_uris":{"android":"levelo://app?vid=82e83c60-a4c6-4c3a-91fd-a9a6509ceafa","ios":"levelo://app?vid=82e83c60-a4c6-4c3a-91fd-a9a6509ceafa"},"vehicle_type_id":"4","last_reported":1742656091,"current_range_meters":11600,"station_id":"ce4bgs92rcd13ifvqcc0","pricing_plan_id":"cebpf4jnsgd1na2vs0mg"},{"bike_id":"50e21f21-7bcc-41a3-aeaa-efc6ef7e8f16","system_id":"levelo_inurba_marseille","lat":43.29421,"lon":5.38625,"is_reserved":false,"is_disabled":false,"rental_uris":{"android":"levelo://app?vid=50e21f21-7bcc-41a3-aeaa-efc6ef7e8f16","ios":"levelo://app?vid=50e21f21-7bcc-41a3-aeaa-efc6ef7e8f16"},"vehicle_type_id":"4","last_reported":1742656091,"current_range_meters":11600,"station_id":"ce4bh2h2rcd13ifvqdh0","pricing_plan_id":"cebpf4jnsgd1na2vs0mg"},{"bike_id":"72503a27-a949-4a46-b139-c44d4f416a58","system_id":"levelo_inurba_marseille","lat":43.23187,"lon":5.35572,"is_reserved":false,"is_disabled":false,"rental_uris":{"android":"levelo://app?vid=72503a27-a949-4a46-b139-c44d4f416a58","ios":"levelo://app?vid=72503a27-a949-4a46-b139-c44d4f416a58"},"vehicle_type_id":"4","last_reported":1742656091,"current_range_meters":11600,"station_id":"ce4bhu92rcd13ifvqi70","pricing_plan_id":"cebpf4jnsgd1na2vs0mg"},{"bike_id":"96ae3f08-db6b-4eb6-a986-b845acbcf30f","system_id":"levelo_inurba_marseille","lat":43.26188,"lon":5.37463,"is_reserved":false,"is_disabled":false,"rental_uris":{"android":"levelo://app?vid=96ae3f08-db6b-4eb6-a986-b845acbcf30f","ios":"levelo://app?vid=96ae3f08-db6b-4eb6-a986-b845acbcf30f"},"vehicle_type_id":"4","last_reported":1742656091,"current_range_meters":11600,"station_id":"ce4bhgp2rcd13ifvqfc0","pricing_plan_id":"cebpf4jnsgd1na2vs0mg"},{"bike_id":"ba0a9964-ab62-4807-b18d-12500e496f19","system_id":"levelo_inurba_marseille","lat":43.28615,"lon":5.35096,"is_reserved":false,"is_disabled":true,"rental_uris":{"android":"levelo://app?vid=ba0a9964-ab62-4807-b18d-12500e496f19","ios":"levelo://app?vid=ba0a9964-ab62-4807-b18d-12500e496f19"},"vehicle_type_id":"4","last_reported":1742656091,"current_range_meters":11600,"station_id":"ce4bhch2rcd13ifvqeug","pricing_plan_id":"cebpf4jnsgd1na2vs0mg"},{"bike_id":"a7c93346-0d29-422c-b6a5-5bb9c3e4d0e4","system_id":"levelo_inurba_marseille","lat":43.267796,"lon":5.394135,"is_reserved":false,"is_disabled":false,"rental_uris":{"android":"levelo://app?vid=a7c93346-0d29-422c-b6a5-5bb9c3e4d0e4","ios":"levelo://app?vid=a7c93346-0d29-422c-b6a5-5bb9c3e4d0e4"},"vehicle_type_id":"4","last_reported":1742656091,"current_range_meters":11600,"station_id":"ce4bhh12rcd13ifvqfg0","pricing_plan_id":"cebpf4jnsgd1na2vs0mg"},{"bike_id":"d16d5ae2-a108-44f8-a226-14fecf4f3137","system_id":"levelo_inurba_marseille","lat":43.27997,"lon":5.40005,"is_reserved":false,"is_disabled":false,"rental_uris":{"android":"levelo://app?vid=d16d5ae2-a108-44f8-a226-14fecf4f3137","ios":"levelo://app?vid=d16d5ae2-a108-44f8-a226-14fecf4f3137"},"vehicle_type_id":"4","last_reported":1742656091,"current_range_meters":12000,"station_id":"ce4bho92rcd13ifvqh4g","pricing_plan_id":"cebpf4jnsgd1na2vs0mg"},{"bike_id":"d0f4a8ea-0418-4c34-ad6f-e2b25894c468","system_id":"levelo_inurba_marseille","lat":43.301641,"lon":5.374292,"is_reserved":false,"is_disabled":false,"rental_uris":{"android":"levelo://app?vid=d0f4a8ea-0418-4c34-ad6f-e2b25894c468","ios":"levelo://app?vid=d0f4a8ea-0418-4c34-ad6f-e2b25894c468"},"vehicle_type_id":"4","last_reported":1742656091,"current_range_meters":12000,"station_id":"ce4bgs92rcd13ifvqcc0","pricing_plan_id":"cebpf4jnsgd1na2vs0mg"},{"bike_id":"a8951652-8f8f-4fc6-96ac-b2afdd64bfbd","system_id":"levelo_inurba_marseille","lat":43.28927,"lon":5.384,"is_reserved":false,"is_disabled":false,"rental_uris":{"android":"levelo://app?vid=a8951652-8f8f-4fc6-96ac-b2afdd64bfbd","ios":"levelo://app?vid=a8951652-8f8f-4fc6-96ac-b2afdd64bfbd"},"vehicle_type_id":"4","last_reported":1742656091,"current_range_meters":12000,"station_id":"ce4bh612rcd13ifvqe6g","pricing_plan_id":"cebpf4jnsgd1na2vs0mg"},{"bike_id":"2e0142cd-10c1-4c7b-95b4-4a73438496ea","system_id":"levelo_inurba_marseille","lat":43.28948,"lon":5.36637,"is_reserved":false,"is_disabled":false,"rental_uris":{"android":"levelo://app?vid=2e0142cd-10c1-4c7b-95b4-4a73438496ea","ios":"levelo://app?vid=2e0142cd-10c1-4c7b-95b4-4a73438496ea"},"vehicle_type_id":"4","last_reported":1742656091,"current_range_meters":12400,"station_id":"ce4bhap2rcd13ifvqek0","pricing_plan_id":"cebpf4jnsgd1na2vs0mg"},{"bike_id":"72123cf2-9d2b-41b8-9bee-4f35b0be3549","system_id":"levelo_inurba_marseille","lat":43.23058,"lon":5.35485,"is_reserved":false,"is_disabled":true,"rental_uris":{"android":"levelo://app?vid=72123cf2-9d2b-41b8-9bee-4f35b0be3549","ios":"levelo://app?vid=72123cf2-9d2b-41b8-9bee-4f35b0be3549"},"vehicle_type_id":"4","last_reported":1742656091,"current_range_meters":12400,"station_id":"cpo3342slgdg3j2ifvpg","pricing_plan_id":"cebpf4jnsgd1na2vs0mg"},{"bike_id":"7d9bf2d2-5153-499c-a1fb-dcb365a9e566","system_id":"levelo_inurba_marseille","lat":43.24161,"lon":5.39714,"is_reserved":false,"is_disabled":false,"rental_uris":{"android":"levelo://app?vid=7d9bf2d2-5153-499c-a1fb-dcb365a9e566","ios":"levelo://app?vid=7d9bf2d2-5153-499c-a1fb-dcb365a9e566"},"vehicle_type_id":"4","last_reported":1742656091,"current_range_meters":12800,"station_id":"ce4bhn12rcd13ifvqgpg","pricing_plan_id":"cebpf4jnsgd1na2vs0mg"},{"bike_id":"a8072900-b5dc-4c67-9659-70fd58ad7ebd","system_id":"levelo_inurba_marseille","lat":43.29421,"lon":5.38625,"is_reserved":false,"is_disabled":false,"rental_uris":{"android":"levelo://app?vid=a8072900-b5dc-4c67-9659-70fd58ad7ebd","ios":"levelo://app?vid=a8072900-b5dc-4c67-9659-70fd58ad7ebd"},"vehicle_type_id":"4","last_reported":1742656091,"current_range_meters":12800,"station_id":"ce4bh2h2rcd13ifvqdh0","pricing_plan_id":"cebpf4jnsgd1na2vs0mg"},{"bike_id":"2032e81a-8d24-4036-9cc6-bf67698b8322","system_id":"levelo_inurba_marseille","lat":43.24182,"lon":5.39736,"is_reserved":false,"is_disabled":false,"rental_uris":{"android":"levelo://app?vid=2032e81a-8d24-4036-9cc6-bf67698b8322","ios":"levelo://app?vid=2032e81a-8d24-4036-9cc6-bf67698b8322"},"vehicle_type_id":"4","last_reported":1742656091,"current_range_meters":12800,"station_id":"ce4bhn12rcd13ifvqgpg","pricing_plan_id":"cebpf4jnsgd1na2vs0mg"},{"bike_id":"93cf0f72-793c-4c82-8c8d-7d96defc34a6","system_id":"levelo_inurba_marseille","lat":43.30136,"lon":5.37396,"is_reserved":false,"is_disabled":false,"rental_uris":{"android":"levelo://app?vid=93cf0f72-793c-4c82-8c8d-7d96defc34a6","ios":"levelo://app?vid=93cf0f72-793c-4c82-8c8d-7d96defc34a6"},"vehicle_type_id":"4","last_reported":1742656091,"current_range_meters":12800,"station_id":"ce4bgs92rcd13ifvqcc0","pricing_plan_id":"cebpf4jnsgd1na2vs0mg"},{"bike_id":"2066bcb9-0f59-4fd1-a30a-f7b97073d23a","system_id":"levelo_inurba_marseille","lat":43.29622,"lon":5.37162,"is_reserved":false,"is_disabled":false,"rental_uris":{"android":"levelo://app?vid=2066bcb9-0f59-4fd1-a30a-f7b97073d23a","ios":"levelo://app?vid=2066bcb9-0f59-4fd1-a30a-f7b97073d23a"},"vehicle_type_id":"4","last_reported":1742656091,"current_range_meters":12800,"station_id":"ce4bgnh2rcd13ifvqc0g","pricing_plan_id":"cebpf4jnsgd1na2vs0mg"},{"bike_id":"272bd483-3c2c-49ec-b30d-44ac080cfd01","system_id":"levelo_inurba_marseille","lat":43.32357,"lon":5.40624,"is_reserved":false,"is_disabled":false,"rental_uris":{"android":"levelo://app?vid=272bd483-3c2c-49ec-b30d-44ac080cfd01","ios":"levelo://app?vid=272bd483-3c2c-49ec-b30d-44ac080cfd01"},"vehicle_type_id":"4","last_reported":1742656091,"current_range_meters":12800,"station_id":"ce4bhq92rcd13ifvqhjg","pricing_plan_id":"cebpf4jnsgd1na2vs0mg"},{"bike_id":"2af67c4a-796a-44a3-a3a7-06a86622bfab","system_id":"levelo_inurba_marseille","lat":43.299,"lon":5.37473,"is_reserved":false,"is_disabled":false,"rental_uris":{"android":"levelo://app?vid=2af67c4a-796a-44a3-a3a7-06a86622bfab","ios":"levelo://app?vid=2af67c4a-796a-44a3-a3a7-06a86622bfab"},"vehicle_type_id":"4","last_reported":1742656091,"current_range_meters":12800,"station_id":"ce4bgjh2rcd13ifvqbg0","pricing_plan_id":"cebpf4jnsgd1na2vs0mg"},{"bike_id":"041746e8-f612-4f02-ba2c-e784ef31f6c4","system_id":"levelo_inurba_marseille","lat":43.23155,"lon":5.4371,"is_reserved":false,"is_disabled":false,"rental_uris":{"android":"levelo://app?vid=041746e8-f612-4f02-ba2c-e784ef31f6c4","ios":"levelo://app?vid=041746e8-f612-4f02-ba2c-e784ef31f6c4"},"vehicle_type_id":"4","last_reported":1742656091,"current_range_meters":13600,"station_id":"ce4bhmp2rcd13ifvqgog","pricing_plan_id":"cebpf4jnsgd1na2vs0mg"},{"bike_id":"140d1708-b02b-4f3d-8b67-ad95553b03f4","system_id":"levelo_inurba_marseille","lat":43.30147,"lon":5.37414,"is_reserved":false,"is_disabled":false,"rental_uris":{"android":"levelo://app?vid=140d1708-b02b-4f3d-8b67-ad95553b03f4","ios":"levelo://app?vid=140d1708-b02b-4f3d-8b67-ad95553b03f4"},"vehicle_type_id":"4","last_reported":1742656091,"current_range_meters":13600,"station_id":"ce4bgs92rcd13ifvqcc0","pricing_plan_id":"cebpf4jnsgd1na2vs0mg"},{"bike_id":"f59e8ccc-3d11-4abb-a202-d29b5975c3c0","system_id":"levelo_inurba_marseille","lat":43.31222,"lon":5.36855,"is_reserved":false,"is_disabled":false,"rental_uris":{"android":"levelo://app?vid=f59e8ccc-3d11-4abb-a202-d29b5975c3c0","ios":"levelo://app?vid=f59e8ccc-3d11-4abb-a202-d29b5975c3c0"},"vehicle_type_id":"4","last_reported":1742656091,"current_range_meters":13600,"station_id":"ce4bgl92rcd13ifvqbq0","pricing_plan_id":"cebpf4jnsgd1na2vs0mg"},{"bike_id":"93c79749-a42a-4ec9-9323-9b842c98ff15","system_id":"levelo_inurba_marseille","lat":43.28617,"lon":5.35106,"is_reserved":false,"is_disabled":false,"rental_uris":{"android":"levelo://app?vid=93c79749-a42a-4ec9-9323-9b842c98ff15","ios":"levelo://app?vid=93c79749-a42a-4ec9-9323-9b842c98ff15"},"vehicle_type_id":"4","last_reported":1742656091,"current_range_meters":13600,"station_id":"ce4bhch2rcd13ifvqeug","pricing_plan_id":"cebpf4jnsgd1na2vs0mg"},{"bike_id":"b31c40e2-6a54-4114-a6bc-9b6ae43fcc22","system_id":"levelo_inurba_marseille","lat":43.29939,"lon":5.36564,"is_reserved":false,"is_disabled":false,"rental_uris":{"android":"levelo://app?vid=b31c40e2-6a54-4114-a6bc-9b6ae43fcc22","ios":"levelo://app?vid=b31c40e2-6a54-4114-a6bc-9b6ae43fcc22"},"vehicle_type_id":"4","last_reported":1742656091,"current_range_meters":14000,"station_id":"ce4bgm92rcd13ifvqbr0","pricing_plan_id":"cebpf4jnsgd1na2vs0mg"},{"bike_id":"d82e75af-b6bf-45a6-a675-499a58b552bf","system_id":"levelo_inurba_marseille","lat":43.29845,"lon":5.36281,"is_reserved":false,"is_disabled":false,"rental_uris":{"android":"levelo://app?vid=d82e75af-b6bf-45a6-a675-499a58b552bf","ios":"levelo://app?vid=d82e75af-b6bf-45a6-a675-499a58b552bf"},"vehicle_type_id":"4","last_reported":1742656091,"current_range_meters":14000,"station_id":"ce4bgpp2rcd13ifvqc3g","pricing_plan_id":"cebpf4jnsgd1na2vs0mg"},{"bike_id":"9594d733-630e-4802-adf2-9164528264b0","system_id":"levelo_inurba_marseille","lat":43.2928,"lon":5.36854,"is_reserved":false,"is_disabled":false,"rental_uris":{"android":"levelo://app?vid=9594d733-630e-4802-adf2-9164528264b0","ios":"levelo://app?vid=9594d733-630e-4802-adf2-9164528264b0"},"vehicle_type_id":"4","last_reported":1742656091,"current_range_meters":14000,"station_id":"ce4bhbp2rcd13ifvqesg","pricing_plan_id":"cebpf4jnsgd1na2vs0mg"},{"bike_id":"d1f0837a-eb5b-436e-bd16-7802f559b20e","system_id":"levelo_inurba_marseille","lat":43.26501,"lon":5.39535,"is_reserved":false,"is_disabled":false,"rental_uris":{"android":"levelo://app?vid=d1f0837a-eb5b-436e-bd16-7802f559b20e","ios":"levelo://app?vid=d1f0837a-eb5b-436e-bd16-7802f559b20e"},"vehicle_type_id":"4","last_reported":1742656091,"current_range_meters":14000,"station_id":"ce4bhi12rcd13ifvqfq0","pricing_plan_id":"cebpf4jnsgd1na2vs0mg"},{"bike_id":"878e0693-50f3-4294-b8a1-90538cae066e","system_id":"levelo_inurba_marseille","lat":43.301433,"lon":5.374294,"is_reserved":false,"is_disabled":false,"rental_uris":{"android":"levelo://app?vid=878e0693-50f3-4294-b8a1-90538cae066e","ios":"levelo://app?vid=878e0693-50f3-4294-b8a1-90538cae066e"},"vehicle_type_id":"4","last_reported":1742656091,"current_range_meters":9200,"station_id":"ce4bguh2rcd13ifvqcj0","pricing_plan_id":"cebpf4jnsgd1na2vs0mg"},{"bike_id":"8d60df78-2095-4996-b602-33d166884f0c","system_id":"levelo_inurba_marseille","lat":43.31688,"lon":5.40487,"is_reserved":false,"is_disabled":false,"rental_uris":{"android":"levelo://app?vid=8d60df78-2095-4996-b602-33d166884f0c","ios":"levelo://app?vid=8d60df78-2095-4996-b602-33d166884f0c"},"vehicle_type_id":"4","last_reported":1742656091,"current_range_meters":14000,"station_id":"ce4bh012rcd13ifvqd00","pricing_plan_id":"cebpf4jnsgd1na2vs0mg"},{"bike_id":"4755b4b7-4591-4177-9fb2-7e5eca9ce8a6","system_id":"levelo_inurba_marseille","lat":43.30887,"lon":5.39655,"is_reserved":false,"is_disabled":false,"rental_uris":{"android":"levelo://app?vid=4755b4b7-4591-4177-9fb2-7e5eca9ce8a6","ios":"levelo://app?vid=4755b4b7-4591-4177-9fb2-7e5eca9ce8a6"},"vehicle_type_id":"4","last_reported":1742656091,"current_range_meters":14400,"station_id":"ce4bh012rcd13ifvqcv0","pricing_plan_id":"cebpf4jnsgd1na2vs0mg"},{"bike_id":"f10ffc7b-b8f0-47de-9cca-72a9c8fa0ee6","system_id":"levelo_inurba_marseille","lat":43.30183,"lon":5.36624,"is_reserved":false,"is_disabled":false,"rental_uris":{"android":"levelo://app?vid=f10ffc7b-b8f0-47de-9cca-72a9c8fa0ee6","ios":"levelo://app?vid=f10ffc7b-b8f0-47de-9cca-72a9c8fa0ee6"},"vehicle_type_id":"4","last_reported":1742656091,"current_range_meters":14000,"station_id":"ce4bgrh2rcd13ifvqc8g","pricing_plan_id":"cebpf4jnsgd1na2vs0mg"},{"bike_id":"83b2fa8f-58aa-48ec-a515-76e210cfe62a","system_id":"levelo_inurba_marseille","lat":43.24811,"lon":5.3745,"is_reserved":false,"is_disabled":false,"rental_uris":{"android":"levelo://app?vid=83b2fa8f-58aa-48ec-a515-76e210cfe62a","ios":"levelo://app?vid=83b2fa8f-58aa-48ec-a515-76e210cfe62a"},"vehicle_type_id":"4","last_reported":1742656091,"current_range_meters":14400,"station_id":"ce4bhgh2rcd13ifvqfb0","pricing_plan_id":"cebpf4jnsgd1na2vs0mg"},{"bike_id":"729b0037-2b7c-43ee-871c-a25bf43da53a","system_id":"levelo_inurba_marseille","lat":43.26232,"lon":5.40451,"is_reserved":false,"is_disabled":false,"rental_uris":{"android":"levelo://app?vid=729b0037-2b7c-43ee-871c-a25bf43da53a","ios":"levelo://app?vid=729b0037-2b7c-43ee-871c-a25bf43da53a"},"vehicle_type_id":"4","last_reported":1742656091,"current_range_meters":14400,"station_id":"ce4bhmh2rcd13ifvqgmg","pricing_plan_id":"cebpf4jnsgd1na2vs0mg"},{"bike_id":"2d23e34d-44d2-4db8-a27c-c28786ac74ae","system_id":"levelo_inurba_marseille","lat":43.27312,"lon":5.39078,"is_reserved":false,"is_disabled":false,"rental_uris":{"android":"levelo://app?vid=2d23e34d-44d2-4db8-a27c-c28786ac74ae","ios":"levelo://app?vid=2d23e34d-44d2-4db8-a27c-c28786ac74ae"},"vehicle_type_id":"4","last_reported":1742656091,"current_range_meters":14800,"station_id":"ce4bhgp2rcd13ifvqfe0","pricing_plan_id":"cebpf4jnsgd1na2vs0mg"},{"bike_id":"17796039-a31e-4e20-80d1-f039611beaa7","system_id":"levelo_inurba_marseille","lat":43.31488,"lon":5.37306,"is_reserved":false,"is_disabled":false,"rental_uris":{"android":"levelo://app?vid=17796039-a31e-4e20-80d1-f039611beaa7","ios":"levelo://app?vid=17796039-a31e-4e20-80d1-f039611beaa7"},"vehicle_type_id":"4","last_reported":1742656091,"current_range_meters":14800,"station_id":"ce4bgt12rcd13ifvqcd0","pricing_plan_id":"cebpf4jnsgd1na2vs0mg"},{"bike_id":"8a858ea1-7bd2-46ea-89e0-0e3881916363","system_id":"levelo_inurba_marseille","lat":43.25114,"lon":5.40319,"is_reserved":false,"is_disabled":true,"rental_uris":{"android":"levelo://app?vid=8a858ea1-7bd2-46ea-89e0-0e3881916363","ios":"levelo://app?vid=8a858ea1-7bd2-46ea-89e0-0e3881916363"},"vehicle_type_id":"4","last_reported":1742656091,"current_range_meters":15200,"station_id":"ce4bhlh2rcd13ifvqgig","pricing_plan_id":"cebpf4jnsgd1na2vs0mg"},{"bike_id":"d8878601-3ef9-4b69-ae9e-1dde88f059ac","system_id":"levelo_inurba_marseille","lat":43.24176,"lon":5.36393,"is_reserved":false,"is_disabled":false,"rental_uris":{"android":"levelo://app?vid=d8878601-3ef9-4b69-ae9e-1dde88f059ac","ios":"levelo://app?vid=d8878601-3ef9-4b69-ae9e-1dde88f059ac"},"vehicle_type_id":"4","last_reported":1742656091,"current_range_meters":14800,"station_id":"cpo36qri1sfpv3e86is0","pricing_plan_id":"cebpf4jnsgd1na2vs0mg"},{"bike_id":"7f999fe2-90db-4c13-be76-0a6e065357fa","system_id":"levelo_inurba_marseille","lat":43.24798,"lon":5.37465,"is_reserved":false,"is_disabled":false,"rental_uris":{"android":"levelo://app?vid=7f999fe2-90db-4c13-be76-0a6e065357fa","ios":"levelo://app?vid=7f999fe2-90db-4c13-be76-0a6e065357fa"},"vehicle_type_id":"4","last_reported":1742656091,"current_range_meters":14800,"station_id":"ce4bhgh2rcd13ifvqfb0","pricing_plan_id":"cebpf4jnsgd1na2vs0mg"},{"bike_id":"8e7e6c41-21fa-43ea-ac45-0b1f62c08311","system_id":"levelo_inurba_marseille","lat":43.30134,"lon":5.39871,"is_reserved":false,"is_disabled":false,"rental_uris":{"android":"levelo://app?vid=8e7e6c41-21fa-43ea-ac45-0b1f62c08311","ios":"levelo://app?vid=8e7e6c41-21fa-43ea-ac45-0b1f62c08311"},"vehicle_type_id":"4","last_reported":1742656091,"current_range_meters":14800,"station_id":"ce4bh0h2rcd13ifvqd40","pricing_plan_id":"cebpf4jnsgd1na2vs0mg"},{"bike_id":"3a08c2ea-0f42-4ad4-ae9c-3ab4a60d2506","system_id":"levelo_inurba_marseille","lat":43.3109,"lon":5.42421,"is_reserved":false,"is_disabled":false,"rental_uris":{"android":"levelo://app?vid=3a08c2ea-0f42-4ad4-ae9c-3ab4a60d2506","ios":"levelo://app?vid=3a08c2ea-0f42-4ad4-ae9c-3ab4a60d2506"},"vehicle_type_id":"4","last_reported":1742656091,"current_range_meters":14400,"station_id":"ce4bhp92rcd13ifvqhag","pricing_plan_id":"cebpf4jnsgd1na2vs0mg"},{"bike_id":"05196e82-2b3b-46d7-ab3e-37cd98e7884a","system_id":"levelo_inurba_marseille","lat":43.32653,"lon":5.41004,"is_reserved":false,"is_disabled":false,"rental_uris":{"android":"levelo://app?vid=05196e82-2b3b-46d7-ab3e-37cd98e7884a","ios":"levelo://app?vid=05196e82-2b3b-46d7-ab3e-37cd98e7884a"},"vehicle_type_id":"4","last_reported":1742656091,"current_range_meters":15200,"station_id":"ce4bhpp2rcd13ifvqhgg","pricing_plan_id":"cebpf4jnsgd1na2vs0mg"},{"bike_id":"4258e938-383f-48f5-9f74-7f7cf207c8c4","system_id":"levelo_inurba_marseille","lat":43.30532,"lon":5.36713,"is_reserved":false,"is_disabled":false,"rental_uris":{"android":"levelo://app?vid=4258e938-383f-48f5-9f74-7f7cf207c8c4","ios":"levelo://app?vid=4258e938-383f-48f5-9f74-7f7cf207c8c4"},"vehicle_type_id":"4","last_reported":1742656091,"current_range_meters":14800,"station_id":"ce4bgrp2rcd13ifvqc9g","pricing_plan_id":"cebpf4jnsgd1na2vs0mg"},{"bike_id":"7b75d449-7c71-498f-b2ce-f002530eba03","system_id":"levelo_inurba_marseille","lat":43.30143,"lon":5.3741,"is_reserved":false,"is_disabled":false,"rental_uris":{"android":"levelo://app?vid=7b75d449-7c71-498f-b2ce-f002530eba03","ios":"levelo://app?vid=7b75d449-7c71-498f-b2ce-f002530eba03"},"vehicle_type_id":"4","last_reported":1742656091,"current_range_meters":15200,"station_id":"ce4bgs92rcd13ifvqcc0","pricing_plan_id":"cebpf4jnsgd1na2vs0mg"},{"bike_id":"54835c02-6158-4aac-b2e9-f6650d514f97","system_id":"levelo_inurba_marseille","lat":43.24068,"lon":5.37754,"is_reserved":false,"is_disabled":false,"rental_uris":{"android":"levelo://app?vid=54835c02-6158-4aac-b2e9-f6650d514f97","ios":"levelo://app?vid=54835c02-6158-4aac-b2e9-f6650d514f97"},"vehicle_type_id":"4","last_reported":1742656091,"current_range_meters":15200,"station_id":"ce4bhnp2rcd13ifvqgvg","pricing_plan_id":"cebpf4jnsgd1na2vs0mg"},{"bike_id":"751ff1ed-b498-4578-9bd4-943bf6c9d8eb","system_id":"levelo_inurba_marseille","lat":43.23204,"lon":5.35558,"is_reserved":false,"is_disabled":false,"rental_uris":{"android":"levelo://app?vid=751ff1ed-b498-4578-9bd4-943bf6c9d8eb","ios":"levelo://app?vid=751ff1ed-b498-4578-9bd4-943bf6c9d8eb"},"vehicle_type_id":"4","last_reported":1742656091,"current_range_meters":15200,"station_id":"ce4bhu92rcd13ifvqi70","pricing_plan_id":"cebpf4jnsgd1na2vs0mg"},{"bike_id":"9c925518-bd06-464f-b496-61a614b3c478","system_id":"levelo_inurba_marseille","lat":43.28618,"lon":5.351,"is_reserved":false,"is_disabled":false,"rental_uris":{"android":"levelo://app?vid=9c925518-bd06-464f-b496-61a614b3c478","ios":"levelo://app?vid=9c925518-bd06-464f-b496-61a614b3c478"},"vehicle_type_id":"4","last_reported":1742656091,"current_range_meters":15200,"station_id":"ce4bhch2rcd13ifvqeug","pricing_plan_id":"cebpf4jnsgd1na2vs0mg"},{"bike_id":"7260ef41-21bd-42ad-909b-1d7940f964ee","system_id":"levelo_inurba_marseille","lat":43.30546,"lon":5.3654,"is_reserved":false,"is_disabled":false,"rental_uris":{"android":"levelo://app?vid=7260ef41-21bd-42ad-909b-1d7940f964ee","ios":"levelo://app?vid=7260ef41-21bd-42ad-909b-1d7940f964ee"},"vehicle_type_id":"4","last_reported":1742656091,"current_range_meters":15200,"station_id":"ce4bgs12rcd13ifvqcag","pricing_plan_id":"cebpf4jnsgd1na2vs0mg"},{"bike_id":"5d4cc92c-eafe-478c-8820-ef016b1e9d02","system_id":"levelo_inurba_marseille","lat":43.29884,"lon":5.43655,"is_reserved":false,"is_disabled":false,"rental_uris":{"android":"levelo://app?vid=5d4cc92c-eafe-478c-8820-ef016b1e9d02","ios":"levelo://app?vid=5d4cc92c-eafe-478c-8820-ef016b1e9d02"},"vehicle_type_id":"4","last_reported":1742656091,"current_range_meters":15200,"station_id":"ce4bhpp2rcd13ifvqhfg","pricing_plan_id":"cebpf4jnsgd1na2vs0mg"},{"bike_id":"a7c269ac-750b-4e61-a0a4-f774b818338f","system_id":"levelo_inurba_marseille","lat":43.281,"lon":5.39649,"is_reserved":false,"is_disabled":false,"rental_uris":{"android":"levelo://app?vid=a7c269ac-750b-4e61-a0a4-f774b818338f","ios":"levelo://app?vid=a7c269ac-750b-4e61-a0a4-f774b818338f"},"vehicle_type_id":"4","last_reported":1742656091,"current_range_meters":15200,"station_id":"ce4bho12rcd13ifvqh2g","pricing_plan_id":"cebpf4jnsgd1na2vs0mg"},{"bike_id":"d954b141-3cee-4de0-9c29-d5babd11cd82","system_id":"levelo_inurba_marseille","lat":43.25093,"lon":5.39521,"is_reserved":false,"is_disabled":false,"rental_uris":{"android":"levelo://app?vid=d954b141-3cee-4de0-9c29-d5babd11cd82","ios":"levelo://app?vid=d954b141-3cee-4de0-9c29-d5babd11cd82"},"vehicle_type_id":"4","last_reported":1742656091,"current_range_meters":15200,"station_id":"ce4bhm12rcd13ifvqgkg","pricing_plan_id":"cebpf4jnsgd1na2vs0mg"},{"bike_id":"36edecc2-21d3-471d-8518-62668b302f89","system_id":"levelo_inurba_marseille","lat":43.26788,"lon":5.39408,"is_reserved":false,"is_disabled":false,"rental_uris":{"android":"levelo://app?vid=36edecc2-21d3-471d-8518-62668b302f89","ios":"levelo://app?vid=36edecc2-21d3-471d-8518-62668b302f89"},"vehicle_type_id":"4","last_reported":1742656091,"current_range_meters":16000,"station_id":"ce4bhh12rcd13ifvqfg0","pricing_plan_id":"cebpf4jnsgd1na2vs0mg"},{"bike_id":"7051d748-e354-4caa-9702-afa8b6d4747c","system_id":"levelo_inurba_marseille","lat":43.29586,"lon":5.36736,"is_reserved":false,"is_disabled":false,"rental_uris":{"android":"levelo://app?vid=7051d748-e354-4caa-9702-afa8b6d4747c","ios":"levelo://app?vid=7051d748-e354-4caa-9702-afa8b6d4747c"},"vehicle_type_id":"4","last_reported":1742656091,"current_range_meters":16000,"station_id":"ce4bgph2rcd13ifvqc2g","pricing_plan_id":"cebpf4jnsgd1na2vs0mg"},{"bike_id":"f160fbe8-2553-4ae3-b49b-5277cf022880","system_id":"levelo_inurba_marseille","lat":43.3014,"lon":5.37402,"is_reserved":false,"is_disabled":false,"rental_uris":{"android":"levelo://app?vid=f160fbe8-2553-4ae3-b49b-5277cf022880","ios":"levelo://app?vid=f160fbe8-2553-4ae3-b49b-5277cf022880"},"vehicle_type_id":"4","last_reported":1742656091,"current_range_meters":16000,"station_id":"ce4bgs92rcd13ifvqcc0","pricing_plan_id":"cebpf4jnsgd1na2vs0mg"},{"bike_id":"0af74a1a-d6e1-4579-b1c6-27467ba405fe","system_id":"levelo_inurba_marseille","lat":43.29881,"lon":5.39741,"is_reserved":false,"is_disabled":true,"rental_uris":{"android":"levelo://app?vid=0af74a1a-d6e1-4579-b1c6-27467ba405fe","ios":"levelo://app?vid=0af74a1a-d6e1-4579-b1c6-27467ba405fe"},"vehicle_type_id":"4","last_reported":1742656091,"current_range_meters":16000,"station_id":"ce4bh0h2rcd13ifvqd50","pricing_plan_id":"cebpf4jnsgd1na2vs0mg"},{"bike_id":"dd5d6d06-0e34-4684-b128-c77a8d50ab86","system_id":"levelo_inurba_marseille","lat":43.30134,"lon":5.37404,"is_reserved":false,"is_disabled":false,"rental_uris":{"android":"levelo://app?vid=dd5d6d06-0e34-4684-b128-c77a8d50ab86","ios":"levelo://app?vid=dd5d6d06-0e34-4684-b128-c77a8d50ab86"},"vehicle_type_id":"4","last_reported":1742656091,"current_range_meters":16000,"station_id":"ce4bgs92rcd13ifvqcc0","pricing_plan_id":"cebpf4jnsgd1na2vs0mg"},{"bike_id":"b6481d08-2d72-4e43-b8a6-7e58f8f29bc4","system_id":"levelo_inurba_marseille","lat":43.30374,"lon":5.42477,"is_reserved":false,"is_disabled":false,"rental_uris":{"android":"levelo://app?vid=b6481d08-2d72-4e43-b8a6-7e58f8f29bc4","ios":"levelo://app?vid=b6481d08-2d72-4e43-b8a6-7e58f8f29bc4"},"vehicle_type_id":"4","last_reported":1742656091,"current_range_meters":16000,"station_id":"ce4bhoh2rcd13ifvqh6g","pricing_plan_id":"cebpf4jnsgd1na2vs0mg"},{"bike_id":"9694aed1-f1a4-4d6f-a6e5-fb006029c59e","system_id":"levelo_inurba_marseille","lat":43.29923,"lon":5.37466,"is_reserved":false,"is_disabled":false,"rental_uris":{"android":"levelo://app?vid=9694aed1-f1a4-4d6f-a6e5-fb006029c59e","ios":"levelo://app?vid=9694aed1-f1a4-4d6f-a6e5-fb006029c59e"},"vehicle_type_id":"4","last_reported":1742656091,"current_range_meters":16000,"station_id":"ce4bgjh2rcd13ifvqbg0","pricing_plan_id":"cebpf4jnsgd1na2vs0mg"},{"bike_id":"07541760-82c4-4d38-b58c-85ffff07e965","system_id":"levelo_inurba_marseille","lat":43.23957,"lon":5.36628,"is_reserved":false,"is_disabled":false,"rental_uris":{"android":"levelo://app?vid=07541760-82c4-4d38-b58c-85ffff07e965","ios":"levelo://app?vid=07541760-82c4-4d38-b58c-85ffff07e965"},"vehicle_type_id":"4","last_reported":1742656091,"current_range_meters":16000,"station_id":"ce4bhi12rcd13ifvqfp0","pricing_plan_id":"cebpf4jnsgd1na2vs0mg"},{"bike_id":"fee627d6-fccd-4c70-86d9-065488f95938","system_id":"levelo_inurba_marseille","lat":43.27062,"lon":5.40257,"is_reserved":false,"is_disabled":false,"rental_uris":{"android":"levelo://app?vid=fee627d6-fccd-4c70-86d9-065488f95938","ios":"levelo://app?vid=fee627d6-fccd-4c70-86d9-065488f95938"},"vehicle_type_id":"4","last_reported":1742656091,"current_range_meters":16000,"station_id":"ce4bhk92rcd13ifvqgc0","pricing_plan_id":"cebpf4jnsgd1na2vs0mg"},{"bike_id":"f8772fbf-787b-444a-9d0e-e34012984b61","system_id":"levelo_inurba_marseille","lat":43.29537,"lon":5.38534,"is_reserved":false,"is_disabled":false,"rental_uris":{"android":"levelo://app?vid=f8772fbf-787b-444a-9d0e-e34012984b61","ios":"levelo://app?vid=f8772fbf-787b-444a-9d0e-e34012984b61"},"vehicle_type_id":"4","last_reported":1742656091,"current_range_meters":16000,"station_id":"ce4bgih2rcd13ifvqba0","pricing_plan_id":"cebpf4jnsgd1na2vs0mg"},{"bike_id":"eccb5a6b-f2e3-4968-a9c1-2149f61849e9","system_id":"levelo_inurba_marseille","lat":43.31325,"lon":5.39689,"is_reserved":false,"is_disabled":false,"rental_uris":{"android":"levelo://app?vid=eccb5a6b-f2e3-4968-a9c1-2149f61849e9","ios":"levelo://app?vid=eccb5a6b-f2e3-4968-a9c1-2149f61849e9"},"vehicle_type_id":"4","last_reported":1742656091,"current_range_meters":15200,"station_id":"ce4bgvp2rcd13ifvqcu0","pricing_plan_id":"cebpf4jnsgd1na2vs0mg"},{"bike_id":"4c406a29-ee9e-4446-b3db-6d7899ff79a2","system_id":"levelo_inurba_marseille","lat":43.24176,"lon":5.36378,"is_reserved":false,"is_disabled":false,"rental_uris":{"android":"levelo://app?vid=4c406a29-ee9e-4446-b3db-6d7899ff79a2","ios":"levelo://app?vid=4c406a29-ee9e-4446-b3db-6d7899ff79a2"},"vehicle_type_id":"4","last_reported":1742656091,"current_range_meters":16000,"station_id":"cpo36qri1sfpv3e86is0","pricing_plan_id":"cebpf4jnsgd1na2vs0mg"},{"bike_id":"5ef453d6-bfcf-4361-8797-0df17dcb5fe0","system_id":"levelo_inurba_marseille","lat":43.29294,"lon":5.37462,"is_reserved":false,"is_disabled":false,"rental_uris":{"android":"levelo://app?vid=5ef453d6-bfcf-4361-8797-0df17dcb5fe0","ios":"levelo://app?vid=5ef453d6-bfcf-4361-8797-0df17dcb5fe0"},"vehicle_type_id":"4","last_reported":1742656091,"current_range_meters":16000,"station_id":"ce4bgi12rcd13ifvqb70","pricing_plan_id":"cebpf4jnsgd1na2vs0mg"},{"bike_id":"1fee47b5-fab4-4ec1-a11f-e919827cdddc","system_id":"levelo_inurba_marseille","lat":43.32357,"lon":5.36753,"is_reserved":false,"is_disabled":false,"rental_uris":{"android":"levelo://app?vid=1fee47b5-fab4-4ec1-a11f-e919827cdddc","ios":"levelo://app?vid=1fee47b5-fab4-4ec1-a11f-e919827cdddc"},"vehicle_type_id":"4","last_reported":1742656091,"current_range_meters":16000,"station_id":"ce4bhsh2rcd13ifvqi2g","pricing_plan_id":"cebpf4jnsgd1na2vs0mg"},{"bike_id":"c3da2355-e925-4519-baaf-25cdd0800626","system_id":"levelo_inurba_marseille","lat":43.29589,"lon":5.36742,"is_reserved":false,"is_disabled":false,"rental_uris":{"android":"levelo://app?vid=c3da2355-e925-4519-baaf-25cdd0800626","ios":"levelo://app?vid=c3da2355-e925-4519-baaf-25cdd0800626"},"vehicle_type_id":"4","last_reported":1742656091,"current_range_meters":16000,"station_id":"ce4bgph2rcd13ifvqc2g","pricing_plan_id":"cebpf4jnsgd1na2vs0mg"},{"bike_id":"b6da0cea-b960-4652-be57-f2bb8065fb68","system_id":"levelo_inurba_marseille","lat":43.23155,"lon":5.43704,"is_reserved":false,"is_disabled":false,"rental_uris":{"android":"levelo://app?vid=b6da0cea-b960-4652-be57-f2bb8065fb68","ios":"levelo://app?vid=b6da0cea-b960-4652-be57-f2bb8065fb68"},"vehicle_type_id":"4","last_reported":1742656091,"current_range_meters":16000,"station_id":"ce4bhmp2rcd13ifvqgog","pricing_plan_id":"cebpf4jnsgd1na2vs0mg"},{"bike_id":"0a040448-b8a4-44c3-8931-064cc2f17f22","system_id":"levelo_inurba_marseille","lat":43.30208,"lon":5.39475,"is_reserved":false,"is_disabled":false,"rental_uris":{"android":"levelo://app?vid=0a040448-b8a4-44c3-8931-064cc2f17f22","ios":"levelo://app?vid=0a040448-b8a4-44c3-8931-064cc2f17f22"},"vehicle_type_id":"4","last_reported":1742656091,"current_range_meters":16000,"station_id":"ce4bh0p2rcd13ifvqd70","pricing_plan_id":"cebpf4jnsgd1na2vs0mg"},{"bike_id":"e41bf9f2-5cdf-4a27-9e19-85dd8eb5dce8","system_id":"levelo_inurba_marseille","lat":43.30137,"lon":5.3741,"is_reserved":false,"is_disabled":false,"rental_uris":{"android":"levelo://app?vid=e41bf9f2-5cdf-4a27-9e19-85dd8eb5dce8","ios":"levelo://app?vid=e41bf9f2-5cdf-4a27-9e19-85dd8eb5dce8"},"vehicle_type_id":"4","last_reported":1742656091,"current_range_meters":16400,"station_id":"ce4bgs92rcd13ifvqcc0","pricing_plan_id":"cebpf4jnsgd1na2vs0mg"},{"bike_id":"56c26c0f-e706-493c-a8b3-a516ae04688f","system_id":"levelo_inurba_marseille","lat":43.25124,"lon":5.40314,"is_reserved":false,"is_disabled":false,"rental_uris":{"android":"levelo://app?vid=56c26c0f-e706-493c-a8b3-a516ae04688f","ios":"levelo://app?vid=56c26c0f-e706-493c-a8b3-a516ae04688f"},"vehicle_type_id":"4","last_reported":1742656091,"current_range_meters":16400,"station_id":"ce4bhlh2rcd13ifvqgig","pricing_plan_id":"cebpf4jnsgd1na2vs0mg"},{"bike_id":"060a0e9c-6037-40c4-9285-a1778211c1ad","system_id":"levelo_inurba_marseille","lat":43.29803,"lon":5.40407,"is_reserved":false,"is_disabled":false,"rental_uris":{"android":"levelo://app?vid=060a0e9c-6037-40c4-9285-a1778211c1ad","ios":"levelo://app?vid=060a0e9c-6037-40c4-9285-a1778211c1ad"},"vehicle_type_id":"4","last_reported":1742656091,"current_range_meters":16000,"station_id":"ce4bh112rcd13ifvqd90","pricing_plan_id":"cebpf4jnsgd1na2vs0mg"},{"bike_id":"49fdd48e-4dc4-4b35-80df-70aa2ce98d67","system_id":"levelo_inurba_marseille","lat":43.30144,"lon":5.37412,"is_reserved":false,"is_disabled":false,"rental_uris":{"android":"levelo://app?vid=49fdd48e-4dc4-4b35-80df-70aa2ce98d67","ios":"levelo://app?vid=49fdd48e-4dc4-4b35-80df-70aa2ce98d67"},"vehicle_type_id":"4","last_reported":1742656091,"current_range_meters":16400,"station_id":"ce4bgs92rcd13ifvqcc0","pricing_plan_id":"cebpf4jnsgd1na2vs0mg"},{"bike_id":"dc48b248-ccee-4808-9383-7059f967375c","system_id":"levelo_inurba_marseille","lat":43.24178,"lon":5.39723,"is_reserved":false,"is_disabled":false,"rental_uris":{"android":"levelo://app?vid=dc48b248-ccee-4808-9383-7059f967375c","ios":"levelo://app?vid=dc48b248-ccee-4808-9383-7059f967375c"},"vehicle_type_id":"4","last_reported":1742656091,"current_range_meters":16400,"station_id":"ce4bhn12rcd13ifvqgpg","pricing_plan_id":"cebpf4jnsgd1na2vs0mg"},{"bike_id":"1b5e4322-ccd2-4075-8a15-786b60cecad2","system_id":"levelo_inurba_marseille","lat":43.30151,"lon":5.37366,"is_reserved":false,"is_disabled":false,"rental_uris":{"android":"levelo://app?vid=1b5e4322-ccd2-4075-8a15-786b60cecad2","ios":"levelo://app?vid=1b5e4322-ccd2-4075-8a15-786b60cecad2"},"vehicle_type_id":"4","last_reported":1742656091,"current_range_meters":16400,"station_id":"ce4bgs92rcd13ifvqcc0","pricing_plan_id":"cebpf4jnsgd1na2vs0mg"},{"bike_id":"f5e67df2-634b-4b3a-b33a-d1730d5d5b54","system_id":"levelo_inurba_marseille","lat":43.33729,"lon":5.39178,"is_reserved":false,"is_disabled":false,"rental_uris":{"android":"levelo://app?vid=f5e67df2-634b-4b3a-b33a-d1730d5d5b54","ios":"levelo://app?vid=f5e67df2-634b-4b3a-b33a-d1730d5d5b54"},"vehicle_type_id":"4","last_reported":1742656091,"current_range_meters":16400,"station_id":"ce4bhr92rcd13ifvqhsg","pricing_plan_id":"cebpf4jnsgd1na2vs0mg"},{"bike_id":"f8ff41b7-94c3-4164-990c-0c31908da696","system_id":"levelo_inurba_marseille","lat":43.23058,"lon":5.35488,"is_reserved":false,"is_disabled":false,"rental_uris":{"android":"levelo://app?vid=f8ff41b7-94c3-4164-990c-0c31908da696","ios":"levelo://app?vid=f8ff41b7-94c3-4164-990c-0c31908da696"},"vehicle_type_id":"4","last_reported":1742656091,"current_range_meters":16400,"station_id":"cpo3342slgdg3j2ifvpg","pricing_plan_id":"cebpf4jnsgd1na2vs0mg"},{"bike_id":"1c051a37-61e3-4ebb-bc56-e148af81a499","system_id":"levelo_inurba_marseille","lat":43.28613,"lon":5.37062,"is_reserved":false,"is_disabled":false,"rental_uris":{"android":"levelo://app?vid=1c051a37-61e3-4ebb-bc56-e148af81a499","ios":"levelo://app?vid=1c051a37-61e3-4ebb-bc56-e148af81a499"},"vehicle_type_id":"4","last_reported":1742656091,"current_range_meters":16800,"station_id":"ce4bht12rcd13ifvqi60","pricing_plan_id":"cebpf4jnsgd1na2vs0mg"},{"bike_id":"5f057e05-88ef-43f2-a315-beafe07070d0","system_id":"levelo_inurba_marseille","lat":43.23209,"lon":5.39955,"is_reserved":false,"is_disabled":false,"rental_uris":{"android":"levelo://app?vid=5f057e05-88ef-43f2-a315-beafe07070d0","ios":"levelo://app?vid=5f057e05-88ef-43f2-a315-beafe07070d0"},"vehicle_type_id":"4","last_reported":1742656091,"current_range_meters":16800,"station_id":"","pricing_plan_id":"cebpf4jnsgd1na2vs0mg"},{"bike_id":"70dda4c0-95f0-47d6-9008-96d63c3f2ca7","system_id":"levelo_inurba_marseille","lat":43.26568,"lon":5.39016,"is_reserved":false,"is_disabled":false,"rental_uris":{"android":"levelo://app?vid=70dda4c0-95f0-47d6-9008-96d63c3f2ca7","ios":"levelo://app?vid=70dda4c0-95f0-47d6-9008-96d63c3f2ca7"},"vehicle_type_id":"4","last_reported":1742656091,"current_range_meters":16800,"station_id":"ce4bhe12rcd13ifvqf30","pricing_plan_id":"cebpf4jnsgd1na2vs0mg"},{"bike_id":"6171e8d5-9420-4b0e-a163-46efda627f5e","system_id":"levelo_inurba_marseille","lat":43.28713,"lon":5.36074,"is_reserved":false,"is_disabled":false,"rental_uris":{"android":"levelo://app?vid=6171e8d5-9420-4b0e-a163-46efda627f5e","ios":"levelo://app?vid=6171e8d5-9420-4b0e-a163-46efda627f5e"},"vehicle_type_id":"4","last_reported":1742656091,"current_range_meters":16800,"station_id":"cki0cbj6b192h4jlfktg","pricing_plan_id":"cebpf4jnsgd1na2vs0mg"},{"bike_id":"b91aaf52-183b-4c84-8ba6-391415d92a9a","system_id":"levelo_inurba_marseille","lat":43.30273,"lon":5.37716,"is_reserved":false,"is_disabled":false,"rental_uris":{"android":"levelo://app?vid=b91aaf52-183b-4c84-8ba6-391415d92a9a","ios":"levelo://app?vid=b91aaf52-183b-4c84-8ba6-391415d92a9a"},"vehicle_type_id":"4","last_reported":1742656091,"current_range_meters":16800,"station_id":"ce4bguh2rcd13ifvqcj0","pricing_plan_id":"cebpf4jnsgd1na2vs0mg"},{"bike_id":"cd897869-d51d-467c-9826-c044773d3f8c","system_id":"levelo_inurba_marseille","lat":43.24167,"lon":5.36405,"is_reserved":false,"is_disabled":false,"rental_uris":{"android":"levelo://app?vid=cd897869-d51d-467c-9826-c044773d3f8c","ios":"levelo://app?vid=cd897869-d51d-467c-9826-c044773d3f8c"},"vehicle_type_id":"4","last_reported":1742656091,"current_range_meters":16800,"station_id":"cpo36qri1sfpv3e86is0","pricing_plan_id":"cebpf4jnsgd1na2vs0mg"},{"bike_id":"9b0392c0-63f4-4a65-bc75-85417b5ebec5","system_id":"levelo_inurba_marseille","lat":43.29918,"lon":5.37486,"is_reserved":false,"is_disabled":false,"rental_uris":{"android":"levelo://app?vid=9b0392c0-63f4-4a65-bc75-85417b5ebec5","ios":"levelo://app?vid=9b0392c0-63f4-4a65-bc75-85417b5ebec5"},"vehicle_type_id":"4","last_reported":1742656091,"current_range_meters":16800,"station_id":"ce4bgjh2rcd13ifvqbg0","pricing_plan_id":"cebpf4jnsgd1na2vs0mg"},{"bike_id":"e2b68c00-ea55-4d0f-ae98-6403b351276c","system_id":"levelo_inurba_marseille","lat":43.2304,"lon":5.35468,"is_reserved":false,"is_disabled":false,"rental_uris":{"android":"levelo://app?vid=e2b68c00-ea55-4d0f-ae98-6403b351276c","ios":"levelo://app?vid=e2b68c00-ea55-4d0f-ae98-6403b351276c"},"vehicle_type_id":"4","last_reported":1742656091,"current_range_meters":16800,"station_id":"cpo3342slgdg3j2ifvpg","pricing_plan_id":"cebpf4jnsgd1na2vs0mg"},{"bike_id":"0edca28e-bb2a-4eed-a9fd-458177a3a120","system_id":"levelo_inurba_marseille","lat":43.2956,"lon":5.37525,"is_reserved":false,"is_disabled":false,"rental_uris":{"android":"levelo://app?vid=0edca28e-bb2a-4eed-a9fd-458177a3a120","ios":"levelo://app?vid=0edca28e-bb2a-4eed-a9fd-458177a3a120"},"vehicle_type_id":"4","last_reported":1742656091,"current_range_meters":16800,"station_id":"ce4bgh92rcd13ifvqb50","pricing_plan_id":"cebpf4jnsgd1na2vs0mg"},{"bike_id":"5c223777-549b-4d09-9654-1b617afc66e4","system_id":"levelo_inurba_marseille","lat":43.29841,"lon":5.36306,"is_reserved":false,"is_disabled":false,"rental_uris":{"android":"levelo://app?vid=5c223777-549b-4d09-9654-1b617afc66e4","ios":"levelo://app?vid=5c223777-549b-4d09-9654-1b617afc66e4"},"vehicle_type_id":"4","last_reported":1742656091,"current_range_meters":16800,"station_id":"ce4bgpp2rcd13ifvqc3g","pricing_plan_id":"cebpf4jnsgd1na2vs0mg"},{"bike_id":"00b31ba5-63d3-408c-b830-e093cfd7257b","system_id":"levelo_inurba_marseille","lat":43.29572,"lon":5.37521,"is_reserved":false,"is_disabled":false,"rental_uris":{"android":"levelo://app?vid=00b31ba5-63d3-408c-b830-e093cfd7257b","ios":"levelo://app?vid=00b31ba5-63d3-408c-b830-e093cfd7257b"},"vehicle_type_id":"4","last_reported":1742656091,"current_range_meters":17200,"station_id":"ce4bgh92rcd13ifvqb50","pricing_plan_id":"cebpf4jnsgd1na2vs0mg"},{"bike_id":"9b1b3ba0-8419-49f6-8593-925ab239e593","system_id":"levelo_inurba_marseille","lat":43.28408,"lon":5.3751,"is_reserved":false,"is_disabled":false,"rental_uris":{"android":"levelo://app?vid=9b1b3ba0-8419-49f6-8593-925ab239e593","ios":"levelo://app?vid=9b1b3ba0-8419-49f6-8593-925ab239e593"},"vehicle_type_id":"4","last_reported":1742656091,"current_range_meters":16800,"station_id":"ce4bh412rcd13ifvqds0","pricing_plan_id":"cebpf4jnsgd1na2vs0mg"},{"bike_id":"187ee00f-667c-4b11-8b7f-760baea85169","system_id":"levelo_inurba_marseille","lat":43.29849,"lon":5.36286,"is_reserved":false,"is_disabled":false,"rental_uris":{"android":"levelo://app?vid=187ee00f-667c-4b11-8b7f-760baea85169","ios":"levelo://app?vid=187ee00f-667c-4b11-8b7f-760baea85169"},"vehicle_type_id":"4","last_reported":1742656091,"current_range_meters":16800,"station_id":"ce4bgpp2rcd13ifvqc3g","pricing_plan_id":"cebpf4jnsgd1na2vs0mg"},{"bike_id":"ed66e5a9-80a0-4895-8101-180a6e79cce7","system_id":"levelo_inurba_marseille","lat":43.26792,"lon":5.39409,"is_reserved":false,"is_disabled":false,"rental_uris":{"android":"levelo://app?vid=ed66e5a9-80a0-4895-8101-180a6e79cce7","ios":"levelo://app?vid=ed66e5a9-80a0-4895-8101-180a6e79cce7"},"vehicle_type_id":"4","last_reported":1742656091,"current_range_meters":16800,"station_id":"ce4bhh12rcd13ifvqfg0","pricing_plan_id":"cebpf4jnsgd1na2vs0mg"},{"bike_id":"f657da43-9a05-4822-9c77-ad8671579423","system_id":"levelo_inurba_marseille","lat":43.29569,"lon":5.39954,"is_reserved":false,"is_disabled":true,"rental_uris":{"android":"levelo://app?vid=f657da43-9a05-4822-9c77-ad8671579423","ios":"levelo://app?vid=f657da43-9a05-4822-9c77-ad8671579423"},"vehicle_type_id":"4","last_reported":1742656091,"current_range_meters":16800,"station_id":"ce4bh312rcd13ifvqdj0","pricing_plan_id":"cebpf4jnsgd1na2vs0mg"},{"bike_id":"e7f36315-33b7-4281-a35b-834987bb0230","system_id":"levelo_inurba_marseille","lat":43.29568,"lon":5.37505,"is_reserved":false,"is_disabled":false,"rental_uris":{"android":"levelo://app?vid=e7f36315-33b7-4281-a35b-834987bb0230","ios":"levelo://app?vid=e7f36315-33b7-4281-a35b-834987bb0230"},"vehicle_type_id":"4","last_reported":1742656091,"current_range_meters":16800,"station_id":"ce4bgh92rcd13ifvqb50","pricing_plan_id":"cebpf4jnsgd1na2vs0mg"},{"bike_id":"7319a7c3-bd09-4f73-8e1c-199b32707fab","system_id":"levelo_inurba_marseille","lat":43.29688,"lon":5.36576,"is_reserved":false,"is_disabled":false,"rental_uris":{"android":"levelo://app?vid=7319a7c3-bd09-4f73-8e1c-199b32707fab","ios":"levelo://app?vid=7319a7c3-bd09-4f73-8e1c-199b32707fab"},"vehicle_type_id":"4","last_reported":1742656091,"current_range_meters":17200,"station_id":"ce4bgn12rcd13ifvqbt0","pricing_plan_id":"cebpf4jnsgd1na2vs0mg"},