{"last_updated":1732972592,"ttl":60,"version":"2.2","data":{"bikes":[{"bike_id":"c154376e-81a4-4c09-89dd-3a6cf12029e1","system_id":"levelo_inurba_marseille","lat":43.23055,"lon":5.35487,"is_reserved":false,"is_disabled":false,"rental_uris":{"android":"levelo://app?vid=c154376e-81a4-4c09-89dd-3a6cf12029e1","ios":"levelo://app?vid=c154376e-81a4-4c09-89dd-3a6cf12029e1"},"vehicle_type_id":"4","last_reported":1732972592,"current_range_meters":12400,"station_id":"cpo3342slgdg3j2ifvpg","pricing_plan_id":"cebpf4jnsgd1na2vs0mg"},{"bike_id":"e303fb5e-5c3b-4f78-b808-2433ae61a8f0","system_id":"levelo_inurba_marseille","lat":43.30794,"lon":5.38157,"is_reserved":false,"is_disabled":false,"rental_uris":{"android":"levelo://app?vid=e303fb5e-5c3b-4f78-b808-2433ae61a8f0","ios":"levelo://app?vid=e303fb5e-5c3b-4f78-b808-2433ae61a8f0"},"vehicle_type_id":"4","last_reported":1732972592,"current_range_meters":38000,"station_id":"ce4bgt12rcd13ifvqce0","pricing_plan_id":"cebpf4jnsgd1na2vs0mg"},{"bike_id":"eda49a19-2d4a-4589-ada5-f68a13a20082","system_id":"levelo_inurba_marseille","lat":43.2315,"lon":5.43718,"is_reserved":false,"is_disabled":false,"rental_uris":{"android":"levelo://app?vid=eda49a19-2d4a-4589-ada5-f68a13a20082","ios":"levelo://app?vid=eda49a19-2d4a-4589-ada5-f68a13a20082"},"vehicle_type_id":"4","last_reported":1732972592,"current_range_meters":6400,"station_id":"ce4bhmp2rcd13ifvqgog","pricing_plan_id":"cebpf4jnsgd1na2vs0mg"},{"bike_id":"307f9d19-69fd-4d07-a22c-8a6f2d71ab51","system_id":"levelo_inurba_marseille","lat":43.29044,"lon":5.35915,"is_reserved":false,"is_disabled":false,"rental_uris":{"android":"levelo://app?vid=307f9d19-69fd-4d07-a22c-8a6f2d71ab51","ios":"levelo://app?vid=307f9d19-69fd-4d07-a22c-8a6f2d71ab51"},"vehicle_type_id":"4","last_reported":1732972592,"current_range_meters":4000,"station_id":"ce4bha92rcd13ifvqeg0","pricing_plan_id":"cebpf4jnsgd1na2vs0mg"},{"bike_id":"b856c8b4-412d-4c25-bdd4-e6b29aed04cb","system_id":"levelo_inurba_marseille","lat":43.22933,"lon":5.35379,"is_reserved":false,"is_disabled":false,"rental_uris":{"android":"levelo://app?vid=b856c8b4-412d-4c25-bdd4-e6b29aed04cb","ios":"levelo://app?vid=b856c8b4-412d-4c25-bdd4-e6b29aed04cb"},"vehicle_type_id":"4","last_reported":1732972592,"current_range_meters":40000,"station_id":"cpo3532slgdg3j2ikp40","pricing_plan_id":"cebpf4jnsgd1na2vs0mg"},{"bike_id":"74ce301d-bc9b-4903-8332-e52296324e70","system_id":"levelo_inurba_marseille","lat":43.31753,"lon":5.39019,"is_reserved":false,"is_disabled":false,"rental_uris":{"android":"levelo://app?vid=74ce301d-bc9b-4903-8332-e52296324e70","ios":"levelo://app?vid=74ce301d-bc9b-4903-8332-e52296324e70"},"vehicle_type_id":"4","last_reported":1732972592,"current_range_meters":36000,"station_id":"ce4bhqp2rcd13ifvqhng","pricing_plan_id":"cebpf4jnsgd1na2vs0mg"},{"bike_id":"7ab5ca07-c9c4-44c3-b1bf-a9fe940ac72c","system_id":"levelo_inurba_marseille","lat":43.23054,"lon":5.35486,"is_reserved":false,"is_disabled":false,"rental_uris":{"android":"levelo://app?vid=7ab5ca07-c9c4-44c3-b1bf-a9fe940ac72c","ios":"levelo://app?vid=7ab5ca07-c9c4-44c3-b1bf-a9fe940ac72c"},"vehicle_type_id":"4","last_reported":1732972592,"current_range_meters":8000,"station_id":"cpo3342slgdg3j2ifvpg","pricing_plan_id":"cebpf4jnsgd1na2vs0mg"},{"bike_id":"ed481fc3-574e-44ef-a0c2-0d6c243a1514","system_id":"levelo_inurba_marseille","lat":43.30461,"lon":5.3791,"is_reserved":false,"is_disabled":false,"rental_uris":{"android":"levelo://app?vid=ed481fc3-574e-44ef-a0c2-0d6c243a1514","ios":"levelo://app?vid=ed481fc3-574e-44ef-a0c2-0d6c243a1514"},"vehicle_type_id":"4","last_reported":1732972592,"current_range_meters":37600,"station_id":"ce4bgup2rcd13ifvqcn0","pricing_plan_id":"cebpf4jnsgd1na2vs0mg"},{"bike_id":"c1ed25c6-6a58-40d7-8065-b7aa29b58592","system_id":"levelo_inurba_marseille","lat":43.29601,"lon":5.37739,"is_reserved":false,"is_disabled":false,"rental_uris":{"android":"levelo://app?vid=c1ed25c6-6a58-40d7-8065-b7aa29b58592","ios":"levelo://app?vid=c1ed25c6-6a58-40d7-8065-b7aa29b58592"},"vehicle_type_id":"4","last_reported":1732972592,"current_range_meters":38800,"station_id":"ce4bgi92rcd13ifvqb90","pricing_plan_id":"cebpf4jnsgd1na2vs0mg"},{"bike_id":"6134bcd2-0137-4a1a-987b-97bc591c1219","system_id":"levelo_inurba_marseille","lat":43.29572,"lon":5.37528,"is_reserved":false,"is_disabled":false,"rental_uris":{"android":"levelo://app?vid=6134bcd2-0137-4a1a-987b-97bc591c1219","ios":"levelo://app?vid=6134bcd2-0137-4a1a-987b-97bc591c1219"},"vehicle_type_id":"4","last_reported":1732972592,"current_range_meters":22800,"station_id":"ce4bgh92rcd13ifvqb50","pricing_plan_id":"cebpf4jnsgd1na2vs0mg"},{"bike_id":"3a743138-f599-49b8-959d-76d06b77b5c3","system_id":"levelo_inurba_marseille","lat":43.31223,"lon":5.36857,"is_reserved":false,"is_disabled":false,"rental_uris":{"android":"levelo://app?vid=3a743138-f599-49b8-959d-76d06b77b5c3","ios":"levelo://app?vid=3a743138-f599-49b8-959d-76d06b77b5c3"},"vehicle_type_id":"4","last_reported":1732972592,"current_range_meters":38400,"station_id":"ce4bgl92rcd13ifvqbq0","pricing_plan_id":"cebpf4jnsgd1na2vs0mg"},{"bike_id":"966791e8-cdff-4838-a42b-c9b609a533a7","system_id":"levelo_inurba_marseille","lat":43.29528,"lon":5.37497,"is_reserved":false,"is_disabled":false,"rental_uris":{"android":"levelo://app?vid=966791e8-cdff-4838-a42b-c9b609a533a7","ios":"levelo://app?vid=966791e8-cdff-4838-a42b-c9b609a533a7"},"vehicle_type_id":"4","last_reported":1732972592,"current_range_meters":10800,"station_id":"","pricing_plan_id":"cebpf4jnsgd1na2vs0mg"},{"bike_id":"6f692286-d8f1-47d7-afbe-9c21dd6c9ff2","system_id":"levelo_inurba_marseille","lat":43.23191,"lon":5.35549,"is_reserved":false,"is_disabled":false,"rental_uris":{"android":"levelo://app?vid=6f692286-d8f1-47d7-afbe-9c21dd6c9ff2","ios":"levelo://app?vid=6f692286-d8f1-47d7-afbe-9c21dd6c9ff2"},"vehicle_type_id":"4","last_reported":1732972592,"current_range_meters":10000,"station_id":"ce4bhu92rcd13ifvqi70","pricing_plan_id":"cebpf4jnsgd1na2vs0mg"},{"bike_id":"7974306f-50f1-4979-96e6-42a3a669c81a","system_id":"levelo_inurba_marseille","lat":43.32006,"lon":5.38157,"is_reserved":false,"is_disabled":false,"rental_uris":{"android":"levelo://app?vid=7974306f-50f1-4979-96e6-42a3a669c81a","ios":"levelo://app?vid=7974306f-50f1-4979-96e6-42a3a669c81a"},"vehicle_type_id":"4","last_reported":1732972592,"current_range_meters":10000,"station_id":"ce4bhr12rcd13ifvqhpg","pricing_plan_id":"cebpf4jnsgd1na2vs0mg"},{"bike_id":"32910786-5518-43e3-8702-d33e2f317cdf","system_id":"levelo_inurba_marseille","lat":43.24167,"lon":5.36397,"is_reserved":false,"is_disabled":false,"rental_uris":{"android":"levelo://app?vid=32910786-5518-43e3-8702-d33e2f317cdf","ios":"levelo://app?vid=32910786-5518-43e3-8702-d33e2f317cdf"},"vehicle_type_id":"4","last_reported":1732972592,"current_range_meters":35600,"station_id":"cpo36qri1sfpv3e86is0","pricing_plan_id":"cebpf4jnsgd1na2vs0mg"},{"bike_id":"7a2a6315-7c28-47e6-8241-ba435943a7e3","system_id":"levelo_inurba_marseille","lat":43.30461,"lon":5.37917,"is_reserved":false,"is_disabled":false,"rental_uris":{"android":"levelo://app?vid=7a2a6315-7c28-47e6-8241-ba435943a7e3","ios":"levelo://app?vid=7a2a6315-7c28-47e6-8241-ba435943a7e3"},"vehicle_type_id":"4","last_reported":1732972592,"current_range_meters":26800,"station_id":"ce4bgup2rcd13ifvqcn0","pricing_plan_id":"cebpf4jnsgd1na2vs0mg"},{"bike_id":"0527a17a-367c-44c9-99b3-4ef2e59a476a","system_id":"levelo_inurba_marseille","lat":43.2961,"lon":5.37717,"is_reserved":false,"is_disabled":false,"rental_uris":{"android":"levelo://app?vid=0527a17a-367c-44c9-99b3-4ef2e59a476a","ios":"levelo://app?vid=0527a17a-367c-44c9-99b3-4ef2e59a476a"},"vehicle_type_id":"4","last_reported":1732972592,"current_range_meters":36000,"station_id":"ce4bgi92rcd13ifvqb90","pricing_plan_id":"cebpf4jnsgd1na2vs0mg"},{"bike_id":"2c1a3127-a502-4c56-b570-60c43eb99f2c","system_id":"levelo_inurba_marseille","lat":43.31754,"lon":5.39022,"is_reserved":false,"is_disabled":false,"rental_uris":{"android":"levelo://app?vid=2c1a3127-a502-4c56-b570-60c43eb99f2c","ios":"levelo://app?vid=2c1a3127-a502-4c56-b570-60c43eb99f2c"},"vehicle_type_id":"4","last_reported":1732972592,"current_range_meters":36800,"station_id":"ce4bhqp2rcd13ifvqhng","pricing_plan_id":"cebpf4jnsgd1na2vs0mg"},{"bike_id":"25252f80-95ae-4dde-bb9f-49e43bd91eb9","system_id":"levelo_inurba_marseille","lat":43.28407,"lon":5.37516,"is_reserved":false,"is_disabled":false,"rental_uris":{"android":"levelo://app?vid=25252f80-95ae-4dde-bb9f-49e43bd91eb9","ios":"levelo://app?vid=25252f80-95ae-4dde-bb9f-49e43bd91eb9"},"vehicle_type_id":"4","last_reported":1732972592,"current_range_meters":28000,"station_id":"ce4bh412rcd13ifvqds0","pricing_plan_id":"cebpf4jnsgd1na2vs0mg"},{"bike_id":"1f27cb14-e510-4c6b-8b02-e9355dbdcd4e","system_id":"levelo_inurba_marseille","lat":43.29552,"lon":5.4229,"is_reserved":false,"is_disabled":false,"rental_uris":{"android":"levelo://app?vid=1f27cb14-e510-4c6b-8b02-e9355dbdcd4e","ios":"levelo://app?vid=1f27cb14-e510-4c6b-8b02-e9355dbdcd4e"},"vehicle_type_id":"4","last_reported":1732972592,"current_range_meters":30800,"station_id":"ce4bhph2rcd13ifvqhdg","pricing_plan_id":"cebpf4jnsgd1na2vs0mg"},{"bike_id":"58a29e13-4734-43ad-8e2e-6c9dae0a5a0c","system_id":"levelo_inurba_marseille","lat":43.28654,"lon":5.36337,"is_reserved":false,"is_disabled":false,"rental_uris":{"android":"levelo://app?vid=58a29e13-4734-43ad-8e2e-6c9dae0a5a0c","ios":"levelo://app?vid=58a29e13-4734-43ad-8e2e-6c9dae0a5a0c"},"vehicle_type_id":"4","last_reported":1732972592,"current_range_meters":8400,"station_id":"ce4bhah2rcd13ifvqej0","pricing_plan_id":"cebpf4jnsgd1na2vs0mg"},{"bike_id":"d77c8fa8-9230-4eda-bc9a-5b066cfdd6cc","system_id":"levelo_inurba_marseille","lat":43.25714,"lon":5.41109,"is_reserved":false,"is_disabled":false,"rental_uris":{"android":"levelo://app?vid=d77c8fa8-9230-4eda-bc9a-5b066cfdd6cc","ios":"levelo://app?vid=d77c8fa8-9230-4eda-bc9a-5b066cfdd6cc"},"vehicle_type_id":"4","last_reported":1732972592,"current_range_meters":22400,"station_id":"ce4bhkp2rcd13ifvqgd0","pricing_plan_id":"cebpf4jnsgd1na2vs0mg"},{"bike_id":"132c1aa2-f6cc-4cde-9bda-2bd4f12da939","system_id":"levelo_inurba_marseille","lat":43.30884,"lon":5.39644,"is_reserved":false,"is_disabled":false,"rental_uris":{"android":"levelo://app?vid=132c1aa2-f6cc-4cde-9bda-2bd4f12da939","ios":"levelo://app?vid=132c1aa2-f6cc-4cde-9bda-2bd4f12da939"},"vehicle_type_id":"4","last_reported":1732972592,"current_range_meters":39200,"station_id":"ce4bh012rcd13ifvqcv0","pricing_plan_id":"cebpf4jnsgd1na2vs0mg"},{"bike_id":"b0bd4cdf-7308-45f0-8e99-a0d5811907ff","system_id":"levelo_inurba_marseille","lat":43.2551,"lon":5.38125,"is_reserved":false,"is_disabled":true,"rental_uris":{"android":"levelo://app?vid=b0bd4cdf-7308-45f0-8e99-a0d5811907ff","ios":"levelo://app?vid=b0bd4cdf-7308-45f0-8e99-a0d5811907ff"},"vehicle_type_id":"4","last_reported":1732972592,"current_range_meters":0,"station_id":"","pricing_plan_id":"cebpf4jnsgd1na2vs0mg"},{"bike_id":"c4a53c78-5239-4533-9cc7-6224f0957fc2","system_id":"levelo_inurba_marseille","lat":43.31224,"lon":5.36854,"is_reserved":false,"is_disabled":false,"rental_uris":{"android":"levelo://app?vid=c4a53c78-5239-4533-9cc7-6224f0957fc2","ios":"levelo://app?vid=c4a53c78-5239-4533-9cc7-6224f0957fc2"},"vehicle_type_id":"4","last_reported":1732972592,"current_range_meters":39200,"station_id":"ce4bgl92rcd13ifvqbq0","pricing_plan_id":"cebpf4jnsgd1na2vs0mg"},{"bike_id":"3c241112-0e96-425e-8646-c6f08bf02411","system_id":"levelo_inurba_marseille","lat":43.24654,"lon":5.38892,"is_reserved":false,"is_disabled":false,"rental_uris":{"android":"levelo://app?vid=3c241112-0e96-425e-8646-c6f08bf02411","ios":"levelo://app?vid=3c241112-0e96-425e-8646-c6f08bf02411"},"vehicle_type_id":"4","last_reported":1732972592,"current_range_meters":38800,"station_id":"ce4bhg12rcd13ifvqf60","pricing_plan_id":"cebpf4jnsgd1na2vs0mg"},{"bike_id":"6f7949e1-de87-4a49-8620-fec27e04447f","system_id":"levelo_inurba_marseille","lat":43.33725,"lon":5.39202,"is_reserved":false,"is_disabled":false,"rental_uris":{"android":"levelo://app?vid=6f7949e1-de87-4a49-8620-fec27e04447f","ios":"levelo://app?vid=6f7949e1-de87-4a49-8620-fec27e04447f"},"vehicle_type_id":"4","last_reported":1732972592,"current_range_meters":27600,"station_id":"ce4bhr92rcd13ifvqhsg","pricing_plan_id":"cebpf4jnsgd1na2vs0mg"},{"bike_id":"440cb15e-33be-4df8-8721-48d188434d9c","system_id":"levelo_inurba_marseille","lat":43.2466,"lon":5.38165,"is_reserved":false,"is_disabled":false,"rental_uris":{"android":"levelo://app?vid=440cb15e-33be-4df8-8721-48d188434d9c","ios":"levelo://app?vid=440cb15e-33be-4df8-8721-48d188434d9c"},"vehicle_type_id":"4","last_reported":1732972592,"current_range_meters":16400,"station_id":"ce4bhih2rcd13ifvqfr0","pricing_plan_id":"cebpf4jnsgd1na2vs0mg"},{"bike_id":"7066298c-8444-4dbb-8e5a-afa45f0890f5","system_id":"levelo_inurba_marseille","lat":43.28858,"lon":5.39316,"is_reserved":false,"is_disabled":true,"rental_uris":{"android":"levelo://app?vid=7066298c-8444-4dbb-8e5a-afa45f0890f5","ios":"levelo://app?vid=7066298c-8444-4dbb-8e5a-afa45f0890f5"},"vehicle_type_id":"4","last_reported":1732972592,"current_range_meters":12400,"station_id":"ce4bh2p2rcd13ifvqdi0","pricing_plan_id":"cebpf4jnsgd1na2vs0mg"},{"bike_id":"79da6e11-068f-4f85-891a-bf5d6033ae1b","system_id":"levelo_inurba_marseille","lat":43.2919,"lon":5.39316,"is_reserved":false,"is_disabled":true,"rental_uris":{"android":"levelo://app?vid=79da6e11-068f-4f85-891a-bf5d6033ae1b","ios":"levelo://app?vid=79da6e11-068f-4f85-891a-bf5d6033ae1b"},"vehicle_type_id":"4","last_reported":1732972592,"current_range_meters":24400,"station_id":"ce4bh192rcd13ifvqdd0","pricing_plan_id":"cebpf4jnsgd1na2vs0mg"},{"bike_id":"a7f9aab2-2875-4caa-a3df-7dff5869dc7d","system_id":"levelo_inurba_marseille","lat":43.29529,"lon":5.38538,"is_reserved":false,"is_disabled":true,"rental_uris":{"android":"levelo://app?vid=a7f9aab2-2875-4caa-a3df-7dff5869dc7d","ios":"levelo://app?vid=a7f9aab2-2875-4caa-a3df-7dff5869dc7d"},"vehicle_type_id":"4","last_reported":1732972592,"current_range_meters":0,"station_id":"ce4bgih2rcd13ifvqba0","pricing_plan_id":"cebpf4jnsgd1na2vs0mg"},{"bike_id":"97fccab1-871a-4b39-8449-591920141fc6","system_id":"levelo_inurba_marseille","lat":43.31711,"lon":5.4371,"is_reserved":false,"is_disabled":false,"rental_uris":{"android":"levelo://app?vid=97fccab1-871a-4b39-8449-591920141fc6","ios":"levelo://app?vid=97fccab1-871a-4b39-8449-591920141fc6"},"vehicle_type_id":"4","last_reported":1732972592,"current_range_meters":33600,"station_id":"ce4bhp92rcd13ifvqhcg","pricing_plan_id":"cebpf4jnsgd1na2vs0mg"},{"bike_id":"835d153f-e532-46c5-8589-d6e611faf784","system_id":"levelo_inurba_marseille","lat":43.27612,"lon":5.36109,"is_reserved":false,"is_disabled":false,"rental_uris":{"android":"levelo://app?vid=835d153f-e532-46c5-8589-d6e611faf784","ios":"levelo://app?vid=835d153f-e532-46c5-8589-d6e611faf784"},"vehicle_type_id":"4","last_reported":1732972592,"current_range_meters":8000,"station_id":"ce4bgj92rcd13ifvqbe0","pricing_plan_id":"cebpf4jnsgd1na2vs0mg"},{"bike_id":"f26bfa4f-1b03-4d40-bd8a-9396393c620d","system_id":"levelo_inurba_marseille","lat":43.25579,"lon":5.38239,"is_reserved":false,"is_disabled":false,"rental_uris":{"android":"levelo://app?vid=f26bfa4f-1b03-4d40-bd8a-9396393c620d","ios":"levelo://app?vid=f26bfa4f-1b03-4d40-bd8a-9396393c620d"},"vehicle_type_id":"4","last_reported":1732972592,"current_range_meters":38800,"station_id":"ce4bhih2rcd13ifvqfs0","pricing_plan_id":"cebpf4jnsgd1na2vs0mg"},{"bike_id":"d27024f1-36c2-4dec-a703-8d85f1ce9659","system_id":"levelo_inurba_marseille","lat":43.29633,"lon":5.40603,"is_reserved":false,"is_disabled":false,"rental_uris":{"android":"levelo://app?vid=d27024f1-36c2-4dec-a703-8d85f1ce9659","ios":"levelo://app?vid=d27024f1-36c2-4dec-a703-8d85f1ce9659"},"vehicle_type_id":"4","last_reported":1732972592,"current_range_meters":24000,"station_id":"ce4bh0h2rcd13ifvqd60","pricing_plan_id":"cebpf4jnsgd1na2vs0mg"},{"bike_id":"86e46f7d-e914-4b59-8f61-c184a90472f3","system_id":"levelo_inurba_marseille","lat":43.2961,"lon":5.37722,"is_reserved":false,"is_disabled":false,"rental_uris":{"android":"levelo://app?vid=86e46f7d-e914-4b59-8f61-c184a90472f3","ios":"levelo://app?vid=86e46f7d-e914-4b59-8f61-c184a90472f3"},"vehicle_type_id":"4","last_reported":1732972592,"current_range_meters":36000,"station_id":"ce4bgi92rcd13ifvqb90","pricing_plan_id":"cebpf4jnsgd1na2vs0mg"},{"bike_id":"6997376a-0d63-4285-ae25-a184dbbb6572","system_id":"levelo_inurba_marseille","lat":43.28934,"lon":5.39635,"is_reserved":false,"is_disabled":false,"rental_uris":{"android":"levelo://app?vid=6997376a-0d63-4285-ae25-a184dbbb6572","ios":"levelo://app?vid=6997376a-0d63-4285-ae25-a184dbbb6572"},"vehicle_type_id":"4","last_reported":1732972592,"current_range_meters":18800,"station_id":"ce4bh3h2rcd13ifvqdn0","pricing_plan_id":"cebpf4jnsgd1na2vs0mg"},{"bike_id":"8fc41d74-9629-4800-9712-ea7a43dd0f0c","system_id":"levelo_inurba_marseille","lat":43.28615,"lon":5.35103,"is_reserved":false,"is_disabled":false,"rental_uris":{"android":"levelo://app?vid=8fc41d74-9629-4800-9712-ea7a43dd0f0c","ios":"levelo://app?vid=8fc41d74-9629-4800-9712-ea7a43dd0f0c"},"vehicle_type_id":"4","last_reported":1732972592,"current_range_meters":12400,"station_id":"ce4bhch2rcd13ifvqeug","pricing_plan_id":"cebpf4jnsgd1na2vs0mg"},{"bike_id":"4cd0fae9-9b96-4c08-80a7-0987ebb39a57","system_id":"levelo_inurba_marseille","lat":43.28989,"lon":5.35617,"is_reserved":false,"is_disabled":false,"rental_uris":{"android":"levelo://app?vid=4cd0fae9-9b96-4c08-80a7-0987ebb39a57","ios":"levelo://app?vid=4cd0fae9-9b96-4c08-80a7-0987ebb39a57"},"vehicle_type_id":"4","last_reported":1732972592,"current_range_meters":38800,"station_id":"ce4bhb92rcd13ifvqen0","pricing_plan_id":"cebpf4jnsgd1na2vs0mg"},{"bike_id":"98037c3a-9b2c-4fc3-b5c9-984ee3607601","system_id":"levelo_inurba_marseille","lat":43.3236,"lon":5.36765,"is_reserved":false,"is_disabled":false,"rental_uris":{"android":"levelo://app?vid=98037c3a-9b2c-4fc3-b5c9-984ee3607601","ios":"levelo://app?vid=98037c3a-9b2c-4fc3-b5c9-984ee3607601"},"vehicle_type_id":"4","last_reported":1732972592,"current_range_meters":8400,"station_id":"ce4bhsh2rcd13ifvqi2g","pricing_plan_id":"cebpf4jnsgd1na2vs0mg"},{"bike_id":"772b46d4-4c9c-490d-b252-fa3243a38fbe","system_id":"levelo_inurba_marseille","lat":43.28266,"lon":5.3507,"is_reserved":false,"is_disabled":false,"rental_uris":{"android":"levelo://app?vid=772b46d4-4c9c-490d-b252-fa3243a38fbe","ios":"levelo://app?vid=772b46d4-4c9c-490d-b252-fa3243a38fbe"},"vehicle_type_id":"4","last_reported":1732972592,"current_range_meters":24400,"station_id":"ce4bhbp2rcd13ifvqerg","pricing_plan_id":"cebpf4jnsgd1na2vs0mg"},{"bike_id":"daae3d9a-9063-4da9-81dd-2c3aafd97d80","system_id":"levelo_inurba_marseille","lat":43.24167,"lon":5.364,"is_reserved":false,"is_disabled":false,"rental_uris":{"android":"levelo://app?vid=daae3d9a-9063-4da9-81dd-2c3aafd97d80","ios":"levelo://app?vid=daae3d9a-9063-4da9-81dd-2c3aafd97d80"},"vehicle_type_id":"4","last_reported":1732972592,"current_range_meters":33600,"station_id":"cpo36qri1sfpv3e86is0","pricing_plan_id":"cebpf4jnsgd1na2vs0mg"},{"bike_id":"8d04f02f-d227-4755-8001-37a91b33121e","system_id":"levelo_inurba_marseille","lat":43.25578,"lon":5.3827,"is_reserved":false,"is_disabled":false,"rental_uris":{"android":"levelo://app?vid=8d04f02f-d227-4755-8001-37a91b33121e","ios":"levelo://app?vid=8d04f02f-d227-4755-8001-37a91b33121e"},"vehicle_type_id":"4","last_reported":1732972592,"current_range_meters":30400,"station_id":"ce4bhih2rcd13ifvqfs0","pricing_plan_id":"cebpf4jnsgd1na2vs0mg"},{"bike_id":"d350231d-a46d-4666-ba51-f12c2e69a01c","system_id":"levelo_inurba_marseille","lat":43.25718,"lon":5.41113,"is_reserved":false,"is_disabled":false,"rental_uris":{"android":"levelo://app?vid=d350231d-a46d-4666-ba51-f12c2e69a01c","ios":"levelo://app?vid=d350231d-a46d-4666-ba51-f12c2e69a01c"},"vehicle_type_id":"4","last_reported":1732972592,"current_range_meters":39200,"station_id":"ce4bhkp2rcd13ifvqgd0","pricing_plan_id":"cebpf4jnsgd1na2vs0mg"},{"bike_id":"4cc51928-ab12-448d-b317-faa6404044c3","system_id":"levelo_inurba_marseille","lat":43.26199,"lon":5.37931,"is_reserved":false,"is_disabled":false,"rental_uris":{"android":"levelo://app?vid=4cc51928-ab12-448d-b317-faa6404044c3","ios":"levelo://app?vid=4cc51928-ab12-448d-b317-faa6404044c3"},"vehicle_type_id":"4","last_reported":1732972592,"current_range_meters":16400,"station_id":"ce4bhjp2rcd13ifvqg90","pricing_plan_id":"cebpf4jnsgd1na2vs0mg"},{"bike_id":"1b9d6586-57d2-41ae-a557-b4794a67a371","system_id":"levelo_inurba_marseille","lat":43.337444,"lon":5.374475,"is_reserved":false,"is_disabled":false,"rental_uris":{"android":"levelo://app?vid=1b9d6586-57d2-41ae-a557-b4794a67a371","ios":"levelo://app?vid=1b9d6586-57d2-41ae-a557-b4794a67a371"},"vehicle_type_id":"4","last_reported":1732972592,"current_range_meters":15200,"station_id":"ce4bhq92rcd13ifvqhkg","pricing_plan_id":"cebpf4jnsgd1na2vs0mg"},{"bike_id":"973568af-5e1b-4076-bd26-32e4e284fced","system_id":"levelo_inurba_marseille","lat":43.27175,"lon":5.40996,"is_reserved":false,"is_disabled":true,"rental_uris":{"android":"levelo://app?vid=973568af-5e1b-4076-bd26-32e4e284fced","ios":"levelo://app?vid=973568af-5e1b-4076-bd26-32e4e284fced"},"vehicle_type_id":"4","last_reported":1732972592,"current_range_meters":0,"station_id":"ce4bhl12rcd13ifvqgf0","pricing_plan_id":"cebpf4jnsgd1na2vs0mg"},{"bike_id":"9d22430f-206f-4dac-a138-8e0c20ce2558","system_id":"levelo_inurba_marseille","lat":43.2549,"lon":5.37647,"is_reserved":false,"is_disabled":false,"rental_uris":{"android":"levelo://app?vid=9d22430f-206f-4dac-a138-8e0c20ce2558","ios":"levelo://app?vid=9d22430f-206f-4dac-a138-8e0c20ce2558"},"vehicle_type_id":"4","last_reported":1732972592,"current_range_meters":33600,"station_id":"ce4bhh12rcd13ifvqff0","pricing_plan_id":"cebpf4jnsgd1na2vs0mg"},{"bike_id":"80d2731f-b906-4617-8ebf-25c514f46b29","system_id":"levelo_inurba_marseille","lat":43.22929,"lon":5.35379,"is_reserved":false,"is_disabled":false,"rental_uris":{"android":"levelo://app?vid=80d2731f-b906-4617-8ebf-25c514f46b29","ios":"levelo://app?vid=80d2731f-b906-4617-8ebf-25c514f46b29"},"vehicle_type_id":"4","last_reported":1732972592,"current_range_meters":23200,"station_id":"cpo3532slgdg3j2ikp40","pricing_plan_id":"cebpf4jnsgd1na2vs0mg"},{"bike_id":"8f41f0b4-b138-481b-9f18-f91850571565","system_id":"levelo_inurba_marseille","lat":43.31884,"lon":5.40729,"is_reserved":false,"is_disabled":false,"rental_uris":{"android":"levelo://app?vid=8f41f0b4-b138-481b-9f18-f91850571565","ios":"levelo://app?vid=8f41f0b4-b138-481b-9f18-f91850571565"},"vehicle_type_id":"4","last_reported":1732972592,"current_range_meters":37600,"station_id":"ce4bhq12rcd13ifvqhig","pricing_plan_id":"cebpf4jnsgd1na2vs0mg"},{"bike_id":"67fa2a9e-eed8-4ed6-bdd8-7d1023a52b4e","system_id":"levelo_inurba_marseille","lat":43.26937,"lon":5.38925,"is_reserved":false,"is_disabled":true,"rental_uris":{"android":"levelo://app?vid=67fa2a9e-eed8-4ed6-bdd8-7d1023a52b4e","ios":"levelo://app?vid=67fa2a9e-eed8-4ed6-bdd8-7d1023a52b4e"},"vehicle_type_id":"4","last_reported":1732972592,"current_range_meters":9600,"station_id":"ce4bhhh2rcd13ifvqfl0","pricing_plan_id":"cebpf4jnsgd1na2vs0mg"},{"bike_id":"3def1c4a-9fa4-45c4-9376-bb46467cbc83","system_id":"levelo_inurba_marseille","lat":43.2993,"lon":5.36554,"is_reserved":false,"is_disabled":false,"rental_uris":{"android":"levelo://app?vid=3def1c4a-9fa4-45c4-9376-bb46467cbc83","ios":"levelo://app?vid=3def1c4a-9fa4-45c4-9376-bb46467cbc83"},"vehicle_type_id":"4","last_reported":1732972592,"current_range_meters":11200,"station_id":"ce4bgm92rcd13ifvqbr0","pricing_plan_id":"cebpf4jnsgd1na2vs0mg"},{"bike_id":"caabbbf0-b981-4301-a0a2-6a9eacc0bbe8","system_id":"levelo_inurba_marseille","lat":43.29527,"lon":5.37514,"is_reserved":false,"is_disabled":false,"rental_uris":{"android":"levelo://app?vid=caabbbf0-b981-4301-a0a2-6a9eacc0bbe8","ios":"levelo://app?vid=caabbbf0-b981-4301-a0a2-6a9eacc0bbe8"},"vehicle_type_id":"4","last_reported":1732972592,"current_range_meters":21600,"station_id":"ce4bgkp2rcd13ifvqbmg","pricing_plan_id":"cebpf4jnsgd1na2vs0mg"},{"bike_id":"668e2ee9-a198-4160-90ec-b474472e7019","system_id":"levelo_inurba_marseille","lat":43.3234,"lon":5.40614,"is_reserved":false,"is_disabled":false,"rental_uris":{"android":"levelo://app?vid=668e2ee9-a198-4160-90ec-b474472e7019","ios":"levelo://app?vid=668e2ee9-a198-4160-90ec-b474472e7019"},"vehicle_type_id":"4","last_reported":1732972592,"current_range_meters":26800,"station_id":"ce4bhq92rcd13ifvqhjg","pricing_plan_id":"cebpf4jnsgd1na2vs0mg"},{"bike_id":"94ddd20c-e5b2-4c73-a61a-2ac668abc7d2","system_id":"levelo_inurba_marseille","lat":43.32,"lon":5.38134,"is_reserved":false,"is_disabled":false,"rental_uris":{"android":"levelo://app?vid=94ddd20c-e5b2-4c73-a61a-2ac668abc7d2","ios":"levelo://app?vid=94ddd20c-e5b2-4c73-a61a-2ac668abc7d2"},"vehicle_type_id":"4","last_reported":1732972592,"current_range_meters":38800,"station_id":"ce4bhr12rcd13ifvqhpg","pricing_plan_id":"cebpf4jnsgd1na2vs0mg"},{"bike_id":"a117daaa-32b4-4aab-8852-2bd429df895d","system_id":"levelo_inurba_marseille","lat":43.32882,"lon":5.36547,"is_reserved":false,"is_disabled":false,"rental_uris":{"android":"levelo://app?vid=a117daaa-32b4-4aab-8852-2bd429df895d","ios":"levelo://app?vid=a117daaa-32b4-4aab-8852-2bd429df895d"},"vehicle_type_id":"4","last_reported":1732972592,"current_range_meters":30400,"station_id":"","pricing_plan_id":"cebpf4jnsgd1na2vs0mg"},{"bike_id":"a2ac41da-6096-4fe3-9a6c-690722f4702a","system_id":"levelo_inurba_marseille","lat":43.24388,"lon":5.37065,"is_reserved":false,"is_disabled":false,"rental_uris":{"android":"levelo://app?vid=a2ac41da-6096-4fe3-9a6c-690722f4702a","ios":"levelo://app?vid=a2ac41da-6096-4fe3-9a6c-690722f4702a"},"vehicle_type_id":"4","last_reported":1732972592,"current_range_meters":7200,"station_id":"ce4bhhh2rcd13ifvqfk0","pricing_plan_id":"cebpf4jnsgd1na2vs0mg"},{"bike_id":"fe2c00d6-fab6-472b-887d-35960cae9038","system_id":"levelo_inurba_marseille","lat":43.25939,"lon":5.409,"is_reserved":false,"is_disabled":false,"rental_uris":{"android":"levelo://app?vid=fe2c00d6-fab6-472b-887d-35960cae9038","ios":"levelo://app?vid=fe2c00d6-fab6-472b-887d-35960cae9038"},"vehicle_type_id":"4","last_reported":1732972592,"current_range_meters":36800,"station_id":"ce4bhm92rcd13ifvqglg","pricing_plan_id":"cebpf4jnsgd1na2vs0mg"},{"bike_id":"41caa9ee-86f5-464c-8b22-d4d7c535acc8","system_id":"levelo_inurba_marseille","lat":43.2846,"lon":5.35879,"is_reserved":false,"is_disabled":true,"rental_uris":{"android":"levelo://app?vid=41caa9ee-86f5-464c-8b22-d4d7c535acc8","ios":"levelo://app?vid=41caa9ee-86f5-464c-8b22-d4d7c535acc8"},"vehicle_type_id":"4","last_reported":1732972592,"current_range_meters":6000,"station_id":"ce4bhah2rcd13ifvqei0","pricing_plan_id":"cebpf4jnsgd1na2vs0mg"},{"bike_id":"bc749360-3ce4-4dd6-a0ac-83aa82c323a7","system_id":"levelo_inurba_marseille","lat":43.28157,"lon":5.42641,"is_reserved":false,"is_disabled":true,"rental_uris":{"android":"levelo://app?vid=bc749360-3ce4-4dd6-a0ac-83aa82c323a7","ios":"levelo://app?vid=bc749360-3ce4-4dd6-a0ac-83aa82c323a7"},"vehicle_type_id":"4","last_reported":1732972592,"current_range_meters":35600,"station_id":"ce4bhnh2rcd13ifvqgug","pricing_plan_id":"cebpf4jnsgd1na2vs0mg"},{"bike_id":"a5083c7e-4a01-446d-8f78-53cc7c6d43ce","system_id":"levelo_inurba_marseille","lat":43.2319,"lon":5.35551,"is_reserved":false,"is_disabled":false,"rental_uris":{"android":"levelo://app?vid=a5083c7e-4a01-446d-8f78-53cc7c6d43ce","ios":"levelo://app?vid=a5083c7e-4a01-446d-8f78-53cc7c6d43ce"},"vehicle_type_id":"4","last_reported":1732972592,"current_range_meters":39200,"station_id":"ce4bhu92rcd13ifvqi70","pricing_plan_id":"cebpf4jnsgd1na2vs0mg"},{"bike_id":"4d4c884f-6933-49c0-8899-f9856d90f44d","system_id":"levelo_inurba_marseille","lat":43.29748,"lon":5.37971,"is_reserved":false,"is_disabled":true,"rental_uris":{"android":"levelo://app?vid=4d4c884f-6933-49c0-8899-f9856d90f44d","ios":"levelo://app?vid=4d4c884f-6933-49c0-8899-f9856d90f44d"},"vehicle_type_id":"4","last_reported":1732972592,"current_range_meters":0,"station_id":"","pricing_plan_id":"cebpf4jnsgd1na2vs0mg"},{"bike_id":"49383f8c-5e0c-4bb5-aa2b-e1c81f4536f3","system_id":"levelo_inurba_marseille","lat":43.32286,"lon":5.38267,"is_reserved":false,"is_disabled":false,"rental_uris":{"android":"levelo://app?vid=49383f8c-5e0c-4bb5-aa2b-e1c81f4536f3","ios":"levelo://app?vid=49383f8c-5e0c-4bb5-aa2b-e1c81f4536f3"},"vehicle_type_id":"4","last_reported":1732972592,"current_range_meters":30400,"station_id":"ce4bhr12rcd13ifvqhqg","pricing_plan_id":"cebpf4jnsgd1na2vs0mg"},{"bike_id":"d1aec432-d9bc-4694-bfd7-252a619ff2e1","system_id":"levelo_inurba_marseille","lat":43.30467,"lon":5.37912,"is_reserved":false,"is_disabled":false,"rental_uris":{"android":"levelo://app?vid=d1aec432-d9bc-4694-bfd7-252a619ff2e1","ios":"levelo://app?vid=d1aec432-d9bc-4694-bfd7-252a619ff2e1"},"vehicle_type_id":"4","last_reported":1732972592,"current_range_meters":16400,"station_id":"ce4bgup2rcd13ifvqcn0","pricing_plan_id":"cebpf4jnsgd1na2vs0mg"},{"bike_id":"9c26b95f-dec5-4ded-b867-63aa9ed49e04","system_id":"levelo_inurba_marseille","lat":43.25495,"lon":5.37661,"is_reserved":false,"is_disabled":false,"rental_uris":{"android":"levelo://app?vid=9c26b95f-dec5-4ded-b867-63aa9ed49e04","ios":"levelo://app?vid=9c26b95f-dec5-4ded-b867-63aa9ed49e04"},"vehicle_type_id":"4","last_reported":1732972592,"current_range_meters":39200,"station_id":"ce4bhh12rcd13ifvqff0","pricing_plan_id":"cebpf4jnsgd1na2vs0mg"},{"bike_id":"48ddb7b0-f160-4c58-a5e2-50d069fa2a5d","system_id":"levelo_inurba_marseille","lat":43.29271,"lon":5.36851,"is_reserved":false,"is_disabled":false,"rental_uris":{"android":"levelo://app?vid=48ddb7b0-f160-4c58-a5e2-50d069fa2a5d","ios":"levelo://app?vid=48ddb7b0-f160-4c58-a5e2-50d069fa2a5d"},"vehicle_type_id":"4","last_reported":1732972592,"current_range_meters":38800,"station_id":"ce4bhbp2rcd13ifvqesg","pricing_plan_id":"cebpf4jnsgd1na2vs0mg"},{"bike_id":"9009be37-c6b1-406b-b0a8-fbab355f715e","system_id":"levelo_inurba_marseille","lat":43.33763,"lon":5.37495,"is_reserved":false,"is_disabled":false,"rental_uris":{"android":"levelo://app?vid=9009be37-c6b1-406b-b0a8-fbab355f715e","ios":"levelo://app?vid=9009be37-c6b1-406b-b0a8-fbab355f715e"},"vehicle_type_id":"4","last_reported":1732972592,"current_range_meters":36400,"station_id":"","pricing_plan_id":"cebpf4jnsgd1na2vs0mg"},{"bike_id":"55dffb90-07a0-4e63-87d2-29e241facdc9","system_id":"levelo_inurba_marseille","lat":43.251167,"lon":5.40326,"is_reserved":false,"is_disabled":true,"rental_uris":{"android":"levelo://app?vid=55dffb90-07a0-4e63-87d2-29e241facdc9","ios":"levelo://app?vid=55dffb90-07a0-4e63-87d2-29e241facdc9"},"vehicle_type_id":"4","last_reported":1732972592,"current_range_meters":0,"station_id":"ce4bhlh2rcd13ifvqgig","pricing_plan_id":"cebpf4jnsgd1na2vs0mg"},{"bike_id":"536df34d-9ce1-4498-9877-b6041b737582","system_id":"levelo_inurba_marseille","lat":43.305305,"lon":5.384355,"is_reserved":false,"is_disabled":false,"rental_uris":{"android":"levelo://app?vid=536df34d-9ce1-4498-9877-b6041b737582","ios":"levelo://app?vid=536df34d-9ce1-4498-9877-b6041b737582"},"vehicle_type_id":"4","last_reported":1732972592,"current_range_meters":38800,"station_id":"ce4bgg92rcd13ifvqb30","pricing_plan_id":"cebpf4jnsgd1na2vs0mg"},{"bike_id":"ac49fba4-30df-4893-b052-7d9d76fd86a2","system_id":"levelo_inurba_marseille","lat":43.29249,"lon":5.38432,"is_reserved":false,"is_disabled":true,"rental_uris":{"android":"levelo://app?vid=ac49fba4-30df-4893-b052-7d9d76fd86a2","ios":"levelo://app?vid=ac49fba4-30df-4893-b052-7d9d76fd86a2"},"vehicle_type_id":"4","last_reported":1732972592,"current_range_meters":18000,"station_id":"ce4bh692rcd13ifvqea0","pricing_plan_id":"cebpf4jnsgd1na2vs0mg"},{"bike_id":"e5d13301-b1b5-4f4c-b0b9-0e0ce528717b","system_id":"levelo_inurba_marseille","lat":43.30946,"lon":5.39025,"is_reserved":false,"is_disabled":true,"rental_uris":{"android":"levelo://app?vid=e5d13301-b1b5-4f4c-b0b9-0e0ce528717b","ios":"levelo://app?vid=e5d13301-b1b5-4f4c-b0b9-0e0ce528717b"},"vehicle_type_id":"4","last_reported":1732972592,"current_range_meters":11600,"station_id":"ce4bgup2rcd13ifvqco0","pricing_plan_id":"cebpf4jnsgd1na2vs0mg"},{"bike_id":"d49f0354-df91-421f-a2f1-446df265c607","system_id":"levelo_inurba_marseille","lat":43.30458,"lon":5.37908,"is_reserved":false,"is_disabled":false,"rental_uris":{"android":"levelo://app?vid=d49f0354-df91-421f-a2f1-446df265c607","ios":"levelo://app?vid=d49f0354-df91-421f-a2f1-446df265c607"},"vehicle_type_id":"4","last_reported":1732972592,"current_range_meters":37600,"station_id":"ce4bgup2rcd13ifvqcn0","pricing_plan_id":"cebpf4jnsgd1na2vs0mg"},{"bike_id":"56a51390-ab43-4f44-9c27-9ff36621ac39","system_id":"levelo_inurba_marseille","lat":43.337444,"lon":5.374475,"is_reserved":false,"is_disabled":false,"rental_uris":{"android":"levelo://app?vid=56a51390-ab43-4f44-9c27-9ff36621ac39","ios":"levelo://app?vid=56a51390-ab43-4f44-9c27-9ff36621ac39"},"vehicle_type_id":"4","last_reported":1732972592,"current_range_meters":32000,"station_id":"","pricing_plan_id":"cebpf4jnsgd1na2vs0mg"},{"bike_id":"be1ea8ae-bb6c-4cc9-9878-4dd6e7c328d6","system_id":"levelo_inurba_marseille","lat":43.3211,"lon":5.36781,"is_reserved":false,"is_disabled":false,"rental_uris":{"android":"levelo://app?vid=be1ea8ae-bb6c-4cc9-9878-4dd6e7c328d6","ios":"levelo://app?vid=be1ea8ae-bb6c-4cc9-9878-4dd6e7c328d6"},"vehicle_type_id":"4","last_reported":1732972592,"current_range_meters":30400,"station_id":"ce4bhrh2rcd13ifvqhug","pricing_plan_id":"cebpf4jnsgd1na2vs0mg"},{"bike_id":"3abdb507-aca9-41cf-ab5c-c13fb795c3a0","system_id":"levelo_inurba_marseille","lat":43.284054,"lon":5.349836,"is_reserved":false,"is_disabled":true,"rental_uris":{"android":"levelo://app?vid=3abdb507-aca9-41cf-ab5c-c13fb795c3a0","ios":"levelo://app?vid=3abdb507-aca9-41cf-ab5c-c13fb795c3a0"},"vehicle_type_id":"4","last_reported":1732972592,"current_range_meters":38400,"station_id":"ce4bhbh2rcd13ifvqepg","pricing_plan_id":"cebpf4jnsgd1na2vs0mg"},{"bike_id":"659c3713-9f69-48d4-ab56-f16999acb99a","system_id":"levelo_inurba_marseille","lat":43.33019,"lon":5.39033,"is_reserved":false,"is_disabled":false,"rental_uris":{"android":"levelo://app?vid=659c3713-9f69-48d4-ab56-f16999acb99a","ios":"levelo://app?vid=659c3713-9f69-48d4-ab56-f16999acb99a"},"vehicle_type_id":"4","last_reported":1732972592,"current_range_meters":27200,"station_id":"ce4bhr92rcd13ifvqhrg","pricing_plan_id":"cebpf4jnsgd1na2vs0mg"},{"bike_id":"97b35c0e-7e77-4f0a-83fa-58fbc99a2959","system_id":"levelo_inurba_marseille","lat":43.337444,"lon":5.374475,"is_reserved":false,"is_disabled":false,"rental_uris":{"android":"levelo://app?vid=97b35c0e-7e77-4f0a-83fa-58fbc99a2959","ios":"levelo://app?vid=97b35c0e-7e77-4f0a-83fa-58fbc99a2959"},"vehicle_type_id":"4","last_reported":1732972592,"current_range_meters":35200,"station_id":"","pricing_plan_id":"cebpf4jnsgd1na2vs0mg"},{"bike_id":"57516422-900b-4fee-adbc-7ea31a53a248","system_id":"levelo_inurba_marseille","lat":43.25725,"lon":5.41108,"is_reserved":false,"is_disabled":false,"rental_uris":{"android":"levelo://app?vid=57516422-900b-4fee-adbc-7ea31a53a248","ios":"levelo://app?vid=57516422-900b-4fee-adbc-7ea31a53a248"},"vehicle_type_id":"4","last_reported":1732972592,"current_range_meters":38800,"station_id":"ce4bhkp2rcd13ifvqgd0","pricing_plan_id":"cebpf4jnsgd1na2vs0mg"},{"bike_id":"bd592188-d898-4edf-9253-c06b88f51b1b","system_id":"levelo_inurba_marseille","lat":43.3045,"lon":5.37918,"is_reserved":false,"is_disabled":false,"rental_uris":{"android":"levelo://app?vid=bd592188-d898-4edf-9253-c06b88f51b1b","ios":"levelo://app?vid=bd592188-d898-4edf-9253-c06b88f51b1b"},"vehicle_type_id":"4","last_reported":1732972592,"current_range_meters":25200,"station_id":"ce4bgup2rcd13ifvqcn0","pricing_plan_id":"cebpf4jnsgd1na2vs0mg"},{"bike_id":"d8893ea1-0749-47d0-bcb7-133a48050ff5","system_id":"levelo_inurba_marseille","lat":43.24651,"lon":5.38903,"is_reserved":false,"is_disabled":false,"rental_uris":{"android":"levelo://app?vid=d8893ea1-0749-47d0-bcb7-133a48050ff5","ios":"levelo://app?vid=d8893ea1-0749-47d0-bcb7-133a48050ff5"},"vehicle_type_id":"4","last_reported":1732972592,"current_range_meters":9600,"station_id":"ce4bhg12rcd13ifvqf60","pricing_plan_id":"cebpf4jnsgd1na2vs0mg"},{"bike_id":"886ec63f-d5a1-4a1a-ba68-c525d37258f9","system_id":"levelo_inurba_marseille","lat":43.27376,"lon":5.3626,"is_reserved":false,"is_disabled":true,"rental_uris":{"android":"levelo://app?vid=886ec63f-d5a1-4a1a-ba68-c525d37258f9","ios":"levelo://app?vid=886ec63f-d5a1-4a1a-ba68-c525d37258f9"},"vehicle_type_id":"4","last_reported":1732972592,"current_range_meters":0,"station_id":"ce4bhbh2rcd13ifvqeo0","pricing_plan_id":"cebpf4jnsgd1na2vs0mg"},{"bike_id":"b2d953f4-eb10-4545-acc8-7f2058a172db","system_id":"levelo_inurba_marseille","lat":43.24805,"lon":5.3746,"is_reserved":false,"is_disabled":false,"rental_uris":{"android":"levelo://app?vid=b2d953f4-eb10-4545-acc8-7f2058a172db","ios":"levelo://app?vid=b2d953f4-eb10-4545-acc8-7f2058a172db"},"vehicle_type_id":"4","last_reported":1732972592,"current_range_meters":38800,"station_id":"ce4bhgh2rcd13ifvqfb0","pricing_plan_id":"cebpf4jnsgd1na2vs0mg"},{"bike_id":"064861a6-5a15-4e22-bc40-26ea165590ab","system_id":"levelo_inurba_marseille","lat":43.29194,"lon":5.39325,"is_reserved":false,"is_disabled":true,"rental_uris":{"android":"levelo://app?vid=064861a6-5a15-4e22-bc40-26ea165590ab","ios":"levelo://app?vid=064861a6-5a15-4e22-bc40-26ea165590ab"},"vehicle_type_id":"4","last_reported":1732972592,"current_range_meters":28000,"station_id":"ce4bh192rcd13ifvqdd0","pricing_plan_id":"cebpf4jnsgd1na2vs0mg"},{"bike_id":"29b17d16-8059-4d5f-aa02-4f146ebf8cd6","system_id":"levelo_inurba_marseille","lat":43.26931,"lon":5.38918,"is_reserved":false,"is_disabled":false,"rental_uris":{"android":"levelo://app?vid=29b17d16-8059-4d5f-aa02-4f146ebf8cd6","ios":"levelo://app?vid=29b17d16-8059-4d5f-aa02-4f146ebf8cd6"},"vehicle_type_id":"4","last_reported":1732972592,"current_range_meters":30400,"station_id":"ce4bhhh2rcd13ifvqfl0","pricing_plan_id":"cebpf4jnsgd1na2vs0mg"},{"bike_id":"46507057-863b-4762-9275-3f3b81fccf53","system_id":"levelo_inurba_marseille","lat":43.25002,"lon":5.38933,"is_reserved":false,"is_disabled":false,"rental_uris":{"android":"levelo://app?vid=46507057-863b-4762-9275-3f3b81fccf53","ios":"levelo://app?vid=46507057-863b-4762-9275-3f3b81fccf53"},"vehicle_type_id":"4","last_reported":1732972592,"current_range_meters":24400,"station_id":"ce4bhgp2rcd13ifvqfd0","pricing_plan_id":"cebpf4jnsgd1na2vs0mg"},{"bike_id":"e8fa7be1-2407-41a7-b843-e7c70f1917ef","system_id":"levelo_inurba_marseille","lat":43.27611,"lon":5.36109,"is_reserved":false,"is_disabled":true,"rental_uris":{"android":"levelo://app?vid=e8fa7be1-2407-41a7-b843-e7c70f1917ef","ios":"levelo://app?vid=e8fa7be1-2407-41a7-b843-e7c70f1917ef"},"vehicle_type_id":"4","last_reported":1732972592,"current_range_meters":0,"station_id":"ce4bgj92rcd13ifvqbe0","pricing_plan_id":"cebpf4jnsgd1na2vs0mg"},{"bike_id":"86798679-2d11-4f7c-88f2-6fb22d206b65","system_id":"levelo_inurba_marseille","lat":43.33756,"lon":5.37464,"is_reserved":false,"is_disabled":false,"rental_uris":{"android":"levelo://app?vid=86798679-2d11-4f7c-88f2-6fb22d206b65","ios":"levelo://app?vid=86798679-2d11-4f7c-88f2-6fb22d206b65"},"vehicle_type_id":"4","last_reported":1732972592,"current_range_meters":38400,"station_id":"","pricing_plan_id":"cebpf4jnsgd1na2vs0mg"},{"bike_id":"d5132631-967e-4498-a424-303b577b53b0","system_id":"levelo_inurba_marseille","lat":43.27555,"lon":5.38436,"is_reserved":false,"is_disabled":false,"rental_uris":{"android":"levelo://app?vid=d5132631-967e-4498-a424-303b577b53b0","ios":"levelo://app?vid=d5132631-967e-4498-a424-303b577b53b0"},"vehicle_type_id":"4","last_reported":1732972592,"current_range_meters":27600,"station_id":"ce4bhh92rcd13ifvqfi0","pricing_plan_id":"cebpf4jnsgd1na2vs0mg"},{"bike_id":"90b5ec6c-7e76-4bc5-9c69-d45e978f7740","system_id":"levelo_inurba_marseille","lat":43.27997,"lon":5.40067,"is_reserved":false,"is_disabled":false,"rental_uris":{"android":"levelo://app?vid=90b5ec6c-7e76-4bc5-9c69-d45e978f7740","ios":"levelo://app?vid=90b5ec6c-7e76-4bc5-9c69-d45e978f7740"},"vehicle_type_id":"4","last_reported":1732972592,"current_range_meters":33600,"station_id":"ce4bho92rcd13ifvqh4g","pricing_plan_id":"cebpf4jnsgd1na2vs0mg"},{"bike_id":"d1c14465-e9b9-4998-b181-afd90e823947","system_id":"levelo_inurba_marseille","lat":43.28935,"lon":5.39631,"is_reserved":false,"is_disabled":false,"rental_uris":{"android":"levelo://app?vid=d1c14465-e9b9-4998-b181-afd90e823947","ios":"levelo://app?vid=d1c14465-e9b9-4998-b181-afd90e823947"},"vehicle_type_id":"4","last_reported":1732972592,"current_range_meters":24400,"station_id":"ce4bh3h2rcd13ifvqdn0","pricing_plan_id":"cebpf4jnsgd1na2vs0mg"},{"bike_id":"9700beae-0fbf-4e58-beda-d02b6fed27fe","system_id":"levelo_inurba_marseille","lat":43.337444,"lon":5.374475,"is_reserved":false,"is_disabled":false,"rental_uris":{"android":"levelo://app?vid=9700beae-0fbf-4e58-beda-d02b6fed27fe","ios":"levelo://app?vid=9700beae-0fbf-4e58-beda-d02b6fed27fe"},"vehicle_type_id":"4","last_reported":1732972592,"current_range_meters":38400,"station_id":"","pricing_plan_id":"cebpf4jnsgd1na2vs0mg"},{"bike_id":"c2959a3a-3838-4b11-aa32-9b46c1106777","system_id":"levelo_inurba_marseille","lat":43.31176,"lon":5.38716,"is_reserved":false,"is_disabled":false,"rental_uris":{"android":"levelo://app?vid=c2959a3a-3838-4b11-aa32-9b46c1106777","ios":"levelo://app?vid=c2959a3a-3838-4b11-aa32-9b46c1106777"},"vehicle_type_id":"4","last_reported":1732972592,"current_range_meters":8800,"station_id":"ce4bgv12rcd13ifvqcp0","pricing_plan_id":"cebpf4jnsgd1na2vs0mg"},{"bike_id":"0fa1a0ee-35c1-4ef4-95ba-73f88ec1db30","system_id":"levelo_inurba_marseille","lat":43.23193,"lon":5.3555,"is_reserved":false,"is_disabled":false,"rental_uris":{"android":"levelo://app?vid=0fa1a0ee-35c1-4ef4-95ba-73f88ec1db30","ios":"levelo://app?vid=0fa1a0ee-35c1-4ef4-95ba-73f88ec1db30"},"vehicle_type_id":"4","last_reported":1732972592,"current_range_meters":8800,"station_id":"ce4bhu92rcd13ifvqi70","pricing_plan_id":"cebpf4jnsgd1na2vs0mg"},{"bike_id":"58cc47a8-7400-4783-8e9f-bef56208b81d","system_id":"levelo_inurba_marseille","lat":43.25577,"lon":5.38244,"is_reserved":false,"is_disabled":false,"rental_uris":{"android":"levelo://app?vid=58cc47a8-7400-4783-8e9f-bef56208b81d","ios":"levelo://app?vid=58cc47a8-7400-4783-8e9f-bef56208b81d"},"vehicle_type_id":"4","last_reported":1732972592,"current_range_meters":11200,"station_id":"ce4bhih2rcd13ifvqfs0","pricing_plan_id":"cebpf4jnsgd1na2vs0mg"},{"bike_id":"0b8d2dd3-2ad4-4d56-807f-dd43464a6cec","system_id":"levelo_inurba_marseille","lat":43.2315,"lon":5.43726,"is_reserved":false,"is_disabled":false,"rental_uris":{"android":"levelo://app?vid=0b8d2dd3-2ad4-4d56-807f-dd43464a6cec","ios":"levelo://app?vid=0b8d2dd3-2ad4-4d56-807f-dd43464a6cec"},"vehicle_type_id":"4","last_reported":1732972592,"current_range_meters":26800,"station_id":"ce4bhmp2rcd13ifvqgog","pricing_plan_id":"cebpf4jnsgd1na2vs0mg"},{"bike_id":"92de0aec-7fd7-4b0f-836a-d45b7677365d","system_id":"levelo_inurba_marseille","lat":43.24977,"lon":5.38945,"is_reserved":false,"is_disabled":false,"rental_uris":{"android":"levelo://app?vid=92de0aec-7fd7-4b0f-836a-d45b7677365d","ios":"levelo://app?vid=92de0aec-7fd7-4b0f-836a-d45b7677365d"},"vehicle_type_id":"4","last_reported":1732972592,"current_range_meters":38800,"station_id":"ce4bhgp2rcd13ifvqfd0","pricing_plan_id":"cebpf4jnsgd1na2vs0mg"},{"bike_id":"41412b62-c83b-41fc-8ec9-40e17320741b","system_id":"levelo_inurba_marseille","lat":43.28035,"lon":5.36948,"is_reserved":false,"is_disabled":false,"rental_uris":{"android":"levelo://app?vid=41412b62-c83b-41fc-8ec9-40e17320741b","ios":"levelo://app?vid=41412b62-c83b-41fc-8ec9-40e17320741b"},"vehicle_type_id":"4","last_reported":1732972592,"current_range_meters":22400,"station_id":"ce4bha12rcd13ifvqef0","pricing_plan_id":"cebpf4jnsgd1na2vs0mg"},{"bike_id":"c254f6a2-7ff1-4f96-adb7-8a7ee1b965ce","system_id":"levelo_inurba_marseille","lat":43.29607,"lon":5.37724,"is_reserved":false,"is_disabled":false,"rental_uris":{"android":"levelo://app?vid=c254f6a2-7ff1-4f96-adb7-8a7ee1b965ce","ios":"levelo://app?vid=c254f6a2-7ff1-4f96-adb7-8a7ee1b965ce"},"vehicle_type_id":"4","last_reported":1732972592,"current_range_meters":28800,"station_id":"ce4bgi92rcd13ifvqb90","pricing_plan_id":"cebpf4jnsgd1na2vs0mg"},{"bike_id":"9479c120-4416-4600-a55b-d1dd48b031d8","system_id":"levelo_inurba_marseille","lat":43.29619,"lon":5.37158,"is_reserved":false,"is_disabled":false,"rental_uris":{"android":"levelo://app?vid=9479c120-4416-4600-a55b-d1dd48b031d8","ios":"levelo://app?vid=9479c120-4416-4600-a55b-d1dd48b031d8"},"vehicle_type_id":"4","last_reported":1732972592,"current_range_meters":38800,"station_id":"ce4bgnh2rcd13ifvqc0g","pricing_plan_id":"cebpf4jnsgd1na2vs0mg"},{"bike_id":"4a2be555-d056-454c-bed3-fe781ba86f8e","system_id":"levelo_inurba_marseille","lat":43.25886,"lon":5.39954,"is_reserved":false,"is_disabled":true,"rental_uris":{"android":"levelo://app?vid=4a2be555-d056-454c-bed3-fe781ba86f8e","ios":"levelo://app?vid=4a2be555-d056-454c-bed3-fe781ba86f8e"},"vehicle_type_id":"4","last_reported":1732972592,"current_range_meters":0,"station_id":"","pricing_plan_id":"cebpf4jnsgd1na2vs0mg"},{"bike_id":"0762035b-11a6-43b1-906c-953817361917","system_id":"levelo_inurba_marseille","lat":43.3248,"lon":5.36571,"is_reserved":false,"is_disabled":false,"rental_uris":{"android":"levelo://app?vid=0762035b-11a6-43b1-906c-953817361917","ios":"levelo://app?vid=0762035b-11a6-43b1-906c-953817361917"},"vehicle_type_id":"4","last_reported":1732972592,"current_range_meters":37600,"station_id":"ce4bhs12rcd13ifvqhvg","pricing_plan_id":"cebpf4jnsgd1na2vs0mg"},{"bike_id":"7d79770d-b92a-4905-85cb-392661a1a6d5","system_id":"levelo_inurba_marseille","lat":43.29024,"lon":5.3814,"is_reserved":false,"is_disabled":true,"rental_uris":{"android":"levelo://app?vid=7d79770d-b92a-4905-85cb-392661a1a6d5","ios":"levelo://app?vid=7d79770d-b92a-4905-85cb-392661a1a6d5"},"vehicle_type_id":"4","last_reported":1732972592,"current_range_meters":33200,"station_id":"ce4bh4p2rcd13ifvqe1g","pricing_plan_id":"cebpf4jnsgd1na2vs0mg"},{"bike_id":"80ee5806-271f-4b24-a602-2dc27d804313","system_id":"levelo_inurba_marseille","lat":43.32117,"lon":5.3677,"is_reserved":false,"is_disabled":false,"rental_uris":{"android":"levelo://app?vid=80ee5806-271f-4b24-a602-2dc27d804313","ios":"levelo://app?vid=80ee5806-271f-4b24-a602-2dc27d804313"},"vehicle_type_id":"4","last_reported":1732972592,"current_range_meters":9600,"station_id":"ce4bhrh2rcd13ifvqhug","pricing_plan_id":"cebpf4jnsgd1na2vs0mg"},{"bike_id":"ecf1e66b-6523-444c-9803-2cf081efc422","system_id":"levelo_inurba_marseille","lat":43.29435,"lon":5.39744,"is_reserved":false,"is_disabled":false,"rental_uris":{"android":"levelo://app?vid=ecf1e66b-6523-444c-9803-2cf081efc422","ios":"levelo://app?vid=ecf1e66b-6523-444c-9803-2cf081efc422"},"vehicle_type_id":"4","last_reported":1732972592,"current_range_meters":21600,"station_id":"ce4bh3h2rcd13ifvqdo0","pricing_plan_id":"cebpf4jnsgd1na2vs0mg"},{"bike_id":"d57620ec-7a06-414e-bcf9-c2f145dfa256","system_id":"levelo_inurba_marseille","lat":43.28359,"lon":5.38106,"is_reserved":false,"is_disabled":false,"rental_uris":{"android":"levelo://app?vid=d57620ec-7a06-414e-bcf9-c2f145dfa256","ios":"levelo://app?vid=d57620ec-7a06-414e-bcf9-c2f145dfa256"},"vehicle_type_id":"4","last_reported":1732972592,"current_range_meters":31200,"station_id":"ce4bh412rcd13ifvqdr0","pricing_plan_id":"cebpf4jnsgd1na2vs0mg"},{"bike_id":"a9ca3b2a-8ad8-42e0-a6f4-4d5ff8e743b6","system_id":"levelo_inurba_marseille","lat":43.24993,"lon":5.38942,"is_reserved":false,"is_disabled":false,"rental_uris":{"android":"levelo://app?vid=a9ca3b2a-8ad8-42e0-a6f4-4d5ff8e743b6","ios":"levelo://app?vid=a9ca3b2a-8ad8-42e0-a6f4-4d5ff8e743b6"},"vehicle_type_id":"4","last_reported":1732972592,"current_range_meters":18800,"station_id":"ce4bhgp2rcd13ifvqfd0","pricing_plan_id":"cebpf4jnsgd1na2vs0mg"},{"bike_id":"5f888019-5cf8-4ab9-b1c6-e4d40982705e","system_id":"levelo_inurba_marseille","lat":43.28846,"lon":5.39312,"is_reserved":false,"is_disabled":false,"rental_uris":{"android":"levelo://app?vid=5f888019-5cf8-4ab9-b1c6-e4d40982705e","ios":"levelo://app?vid=5f888019-5cf8-4ab9-b1c6-e4d40982705e"},"vehicle_type_id":"4","last_reported":1732972592,"current_range_meters":37600,"station_id":"ce4bh2p2rcd13ifvqdi0","pricing_plan_id":"cebpf4jnsgd1na2vs0mg"},{"bike_id":"489fc078-53ba-46cd-9b33-a7c9c289306b","system_id":"levelo_inurba_marseille","lat":43.26942,"lon":5.40246,"is_reserved":false,"is_disabled":true,"rental_uris":{"android":"levelo://app?vid=489fc078-53ba-46cd-9b33-a7c9c289306b","ios":"levelo://app?vid=489fc078-53ba-46cd-9b33-a7c9c289306b"},"vehicle_type_id":"4","last_reported":1732972592,"current_range_meters":0,"station_id":"cjm6bp8fraef2m0cb0m0","pricing_plan_id":"cebpf4jnsgd1na2vs0mg"},{"bike_id":"981f5323-76ee-4aff-abdb-308b2ece5ca8","system_id":"levelo_inurba_marseille","lat":43.3372,"lon":5.39192,"is_reserved":false,"is_disabled":false,"rental_uris":{"android":"levelo://app?vid=981f5323-76ee-4aff-abdb-308b2ece5ca8","ios":"levelo://app?vid=981f5323-76ee-4aff-abdb-308b2ece5ca8"},"vehicle_type_id":"4","last_reported":1732972592,"current_range_meters":38800,"station_id":"ce4bhr92rcd13ifvqhsg","pricing_plan_id":"cebpf4jnsgd1na2vs0mg"},{"bike_id":"e0c8064b-a869-4cfa-9c7e-2b58a1c9881f","system_id":"levelo_inurba_marseille","lat":43.32366,"lon":5.38887,"is_reserved":false,"is_disabled":false,"rental_uris":{"android":"levelo://app?vid=e0c8064b-a869-4cfa-9c7e-2b58a1c9881f","ios":"levelo://app?vid=e0c8064b-a869-4cfa-9c7e-2b58a1c9881f"},"vehicle_type_id":"4","last_reported":1732972592,"current_range_meters":30800,"station_id":"ce4bhqp2rcd13ifvqhog","pricing_plan_id":"cebpf4jnsgd1na2vs0mg"},{"bike_id":"50675776-1743-470d-933b-79f137358b44","system_id":"levelo_inurba_marseille","lat":43.30427,"lon":5.41291,"is_reserved":false,"is_disabled":false,"rental_uris":{"android":"levelo://app?vid=50675776-1743-470d-933b-79f137358b44","ios":"levelo://app?vid=50675776-1743-470d-933b-79f137358b44"},"vehicle_type_id":"4","last_reported":1732972592,"current_range_meters":34800,"station_id":"ce4bhop2rcd13ifvqh8g","pricing_plan_id":"cebpf4jnsgd1na2vs0mg"},{"bike_id":"f4bab823-6098-405a-9dc8-d38864d091bd","system_id":"levelo_inurba_marseille","lat":43.29543,"lon":5.4229,"is_reserved":false,"is_disabled":false,"rental_uris":{"android":"levelo://app?vid=f4bab823-6098-405a-9dc8-d38864d091bd","ios":"levelo://app?vid=f4bab823-6098-405a-9dc8-d38864d091bd"},"vehicle_type_id":"4","last_reported":1732972592,"current_range_meters":32400,"station_id":"ce4bhph2rcd13ifvqhdg","pricing_plan_id":"cebpf4jnsgd1na2vs0mg"},{"bike_id":"dae9bce3-d7db-484c-97ba-720e2b213986","system_id":"levelo_inurba_marseille","lat":43.30912,"lon":5.36848,"is_reserved":false,"is_disabled":false,"rental_uris":{"android":"levelo://app?vid=dae9bce3-d7db-484c-97ba-720e2b213986","ios":"levelo://app?vid=dae9bce3-d7db-484c-97ba-720e2b213986"},"vehicle_type_id":"4","last_reported":1732972592,"current_range_meters":40000,"station_id":"ce4bgn92rcd13ifvqbvg","pricing_plan_id":"cebpf4jnsgd1na2vs0mg"},{"bike_id":"a675910e-bba3-4160-8614-6e336b9611d0","system_id":"levelo_inurba_marseille","lat":43.27997,"lon":5.40018,"is_reserved":false,"is_disabled":false,"rental_uris":{"android":"levelo://app?vid=a675910e-bba3-4160-8614-6e336b9611d0","ios":"levelo://app?vid=a675910e-bba3-4160-8614-6e336b9611d0"},"vehicle_type_id":"4","last_reported":1732972592,"current_range_meters":38800,"station_id":"ce4bho92rcd13ifvqh4g","pricing_plan_id":"cebpf4jnsgd1na2vs0mg"},{"bike_id":"6ac46c74-f72e-4606-8d62-d611ade7330f","system_id":"levelo_inurba_marseille","lat":43.29778,"lon":5.37098,"is_reserved":false,"is_disabled":false,"rental_uris":{"android":"levelo://app?vid=6ac46c74-f72e-4606-8d62-d611ade7330f","ios":"levelo://app?vid=6ac46c74-f72e-4606-8d62-d611ade7330f"},"vehicle_type_id":"4","last_reported":1732972592,"current_range_meters":38800,"station_id":"ce4bgop2rcd13ifvqc1g","pricing_plan_id":"cebpf4jnsgd1na2vs0mg"},{"bike_id":"e2b51d6b-cb0b-4fbd-ba8e-ca7faa50fcce","system_id":"levelo_inurba_marseille","lat":43.23185,"lon":5.39985,"is_reserved":false,"is_disabled":false,"rental_uris":{"android":"levelo://app?vid=e2b51d6b-cb0b-4fbd-ba8e-ca7faa50fcce","ios":"levelo://app?vid=e2b51d6b-cb0b-4fbd-ba8e-ca7faa50fcce"},"vehicle_type_id":"4","last_reported":1732972592,"current_range_meters":38800,"station_id":"ce4bhn12rcd13ifvqgqg","pricing_plan_id":"cebpf4jnsgd1na2vs0mg"},{"bike_id":"ab1db49f-701c-4711-8b20-531372b5e60f","system_id":"levelo_inurba_marseille","lat":43.32632,"lon":5.3756,"is_reserved":false,"is_disabled":false,"rental_uris":{"android":"levelo://app?vid=ab1db49f-701c-4711-8b20-531372b5e60f","ios":"levelo://app?vid=ab1db49f-701c-4711-8b20-531372b5e60f"},"vehicle_type_id":"4","last_reported":1732972592,"current_range_meters":33200,"station_id":"","pricing_plan_id":"cebpf4jnsgd1na2vs0mg"},{"bike_id":"29a80c71-9648-4a26-b6c9-5f69092eaa01","system_id":"levelo_inurba_marseille","lat":43.2707,"lon":5.42279,"is_reserved":false,"is_disabled":false,"rental_uris":{"android":"levelo://app?vid=29a80c71-9648-4a26-b6c9-5f69092eaa01","ios":"levelo://app?vid=29a80c71-9648-4a26-b6c9-5f69092eaa01"},"vehicle_type_id":"4","last_reported":1732972592,"current_range_meters":40000,"station_id":"ce4bhk92rcd13ifvqgb0","pricing_plan_id":"cebpf4jnsgd1na2vs0mg"},{"bike_id":"4c546fcc-ffba-43ce-8681-cdb538f035b0","system_id":"levelo_inurba_marseille","lat":43.29199,"lon":5.358,"is_reserved":false,"is_disabled":false,"rental_uris":{"android":"levelo://app?vid=4c546fcc-ffba-43ce-8681-cdb538f035b0","ios":"levelo://app?vid=4c546fcc-ffba-43ce-8681-cdb538f035b0"},"vehicle_type_id":"4","last_reported":1732972592,"current_range_meters":8000,"station_id":"ce4bhb12rcd13ifvqel0","pricing_plan_id":"cebpf4jnsgd1na2vs0mg"},{"bike_id":"73c872b6-b245-4557-afe2-6504b31215d2","system_id":"levelo_inurba_marseille","lat":43.30867,"lon":5.39673,"is_reserved":false,"is_disabled":false,"rental_uris":{"android":"levelo://app?vid=73c872b6-b245-4557-afe2-6504b31215d2","ios":"levelo://app?vid=73c872b6-b245-4557-afe2-6504b31215d2"},"vehicle_type_id":"4","last_reported":1732972592,"current_range_meters":38800,"station_id":"ce4bh012rcd13ifvqcv0","pricing_plan_id":"cebpf4jnsgd1na2vs0mg"},{"bike_id":"1f1695f6-28c7-4290-9cae-9ab214f50f69","system_id":"levelo_inurba_marseille","lat":43.2803,"lon":5.36952,"is_reserved":false,"is_disabled":false,"rental_uris":{"android":"levelo://app?vid=1f1695f6-28c7-4290-9cae-9ab214f50f69","ios":"levelo://app?vid=1f1695f6-28c7-4290-9cae-9ab214f50f69"},"vehicle_type_id":"4","last_reported":1732972592,"current_range_meters":39200,"station_id":"ce4bha12rcd13ifvqef0","pricing_plan_id":"cebpf4jnsgd1na2vs0mg"},{"bike_id":"0174841e-8011-4a7b-bd18-480101bee765","system_id":"levelo_inurba_marseille","lat":43.23952,"lon":5.36639,"is_reserved":false,"is_disabled":true,"rental_uris":{"android":"levelo://app?vid=0174841e-8011-4a7b-bd18-480101bee765","ios":"levelo://app?vid=0174841e-8011-4a7b-bd18-480101bee765"},"vehicle_type_id":"4","last_reported":1732972592,"current_range_meters":0,"station_id":"ce4bhi12rcd13ifvqfp0","pricing_plan_id":"cebpf4jnsgd1na2vs0mg"},{"bike_id":"22a9f54b-7703-4896-932f-a5372ffc42ab","system_id":"levelo_inurba_marseille","lat":43.24166,"lon":5.36399,"is_reserved":false,"is_disabled":false,"rental_uris":{"android":"levelo://app?vid=22a9f54b-7703-4896-932f-a5372ffc42ab","ios":"levelo://app?vid=22a9f54b-7703-4896-932f-a5372ffc42ab"},"vehicle_type_id":"4","last_reported":1732972592,"current_range_meters":16000,"station_id":"cpo36qri1sfpv3e86is0","pricing_plan_id":"cebpf4jnsgd1na2vs0mg"},{"bike_id":"fd405db4-6f5b-4763-b335-7a51479a2ea9","system_id":"levelo_inurba_marseille","lat":43.25578,"lon":5.38254,"is_reserved":false,"is_disabled":false,"rental_uris":{"android":"levelo://app?vid=fd405db4-6f5b-4763-b335-7a51479a2ea9","ios":"levelo://app?vid=fd405db4-6f5b-4763-b335-7a51479a2ea9"},"vehicle_type_id":"4","last_reported":1732972592,"current_range_meters":40000,"station_id":"ce4bhih2rcd13ifvqfs0","pricing_plan_id":"cebpf4jnsgd1na2vs0mg"},{"bike_id":"0cff04d7-ac42-44fe-8172-e6b3f4744a1b","system_id":"levelo_inurba_marseille","lat":43.3172,"lon":5.42403,"is_reserved":false,"is_disabled":false,"rental_uris":{"android":"levelo://app?vid=0cff04d7-ac42-44fe-8172-e6b3f4744a1b","ios":"levelo://app?vid=0cff04d7-ac42-44fe-8172-e6b3f4744a1b"},"vehicle_type_id":"4","last_reported":1732972592,"current_range_meters":10800,"station_id":"ce4bhp92rcd13ifvqhbg","pricing_plan_id":"cebpf4jnsgd1na2vs0mg"},{"bike_id":"00b5e211-7497-40e0-9a48-4abd0dd8f0c1","system_id":"levelo_inurba_marseille","lat":43.2396,"lon":5.36644,"is_reserved":false,"is_disabled":false,"rental_uris":{"android":"levelo://app?vid=00b5e211-7497-40e0-9a48-4abd0dd8f0c1","ios":"levelo://app?vid=00b5e211-7497-40e0-9a48-4abd0dd8f0c1"},"vehicle_type_id":"4","last_reported":1732972592,"current_range_meters":40000,"station_id":"ce4bhi12rcd13ifvqfp0","pricing_plan_id":"cebpf4jnsgd1na2vs0mg"},{"bike_id":"a233b25b-869e-422b-bf5e-63d3d8ff686f","system_id":"levelo_inurba_marseille","lat":43.30923,"lon":5.40151,"is_reserved":false,"is_disabled":true,"rental_uris":{"android":"levelo://app?vid=a233b25b-869e-422b-bf5e-63d3d8ff686f","ios":"levelo://app?vid=a233b25b-869e-422b-bf5e-63d3d8ff686f"},"vehicle_type_id":"4","last_reported":1732972592,"current_range_meters":24800,"station_id":"ce4bgvp2rcd13ifvqct0","pricing_plan_id":"cebpf4jnsgd1na2vs0mg"},{"bike_id":"74732efd-fe50-46de-8193-da37e7752e16","system_id":"levelo_inurba_marseille","lat":43.30462,"lon":5.37903,"is_reserved":false,"is_disabled":false,"rental_uris":{"android":"levelo://app?vid=74732efd-fe50-46de-8193-da37e7752e16","ios":"levelo://app?vid=74732efd-fe50-46de-8193-da37e7752e16"},"vehicle_type_id":"4","last_reported":1732972592,"current_range_meters":36800,"station_id":"ce4bgup2rcd13ifvqcn0","pricing_plan_id":"cebpf4jnsgd1na2vs0mg"},{"bike_id":"12ba7dd0-6a56-48af-8971-129f9405fb29","system_id":"levelo_inurba_marseille","lat":43.33752,"lon":5.37408,"is_reserved":false,"is_disabled":false,"rental_uris":{"android":"levelo://app?vid=12ba7dd0-6a56-48af-8971-129f9405fb29","ios":"levelo://app?vid=12ba7dd0-6a56-48af-8971-129f9405fb29"},"vehicle_type_id":"4","last_reported":1732972592,"current_range_meters":18000,"station_id":"","pricing_plan_id":"cebpf4jnsgd1na2vs0mg"},{"bike_id":"4bbe0f1d-7716-4f2b-8c5c-be4502e44632","system_id":"levelo_inurba_marseille","lat":43.30526,"lon":5.38433,"is_reserved":false,"is_disabled":false,"rental_uris":{"android":"levelo://app?vid=4bbe0f1d-7716-4f2b-8c5c-be4502e44632","ios":"levelo://app?vid=4bbe0f1d-7716-4f2b-8c5c-be4502e44632"},"vehicle_type_id":"4","last_reported":1732972592,"current_range_meters":38800,"station_id":"ce4bgg92rcd13ifvqb30","pricing_plan_id":"cebpf4jnsgd1na2vs0mg"},{"bike_id":"6e914fb7-e6d2-4357-b161-70e1de222ef2","system_id":"levelo_inurba_marseille","lat":43.25728,"lon":5.41109,"is_reserved":false,"is_disabled":false,"rental_uris":{"android":"levelo://app?vid=6e914fb7-e6d2-4357-b161-70e1de222ef2","ios":"levelo://app?vid=6e914fb7-e6d2-4357-b161-70e1de222ef2"},"vehicle_type_id":"4","last_reported":1732972592,"current_range_meters":40000,"station_id":"ce4bhkp2rcd13ifvqgd0","pricing_plan_id":"cebpf4jnsgd1na2vs0mg"},{"bike_id":"2b9d9585-a53d-4965-bd09-7c45625305fe","system_id":"levelo_inurba_marseille","lat":43.297072,"lon":5.376934,"is_reserved":false,"is_disabled":false,"rental_uris":{"android":"levelo://app?vid=2b9d9585-a53d-4965-bd09-7c45625305fe","ios":"levelo://app?vid=2b9d9585-a53d-4965-bd09-7c45625305fe"},"vehicle_type_id":"4","last_reported":1732972592,"current_range_meters":38800,"station_id":"ce4bgkh2rcd13ifvqbl0","pricing_plan_id":"cebpf4jnsgd1na2vs0mg"},{"bike_id":"f9c188c9-e4c0-4251-9629-0faf58a36ea2","system_id":"levelo_inurba_marseille","lat":43.29929,"lon":5.36556,"is_reserved":false,"is_disabled":false,"rental_uris":{"android":"levelo://app?vid=f9c188c9-e4c0-4251-9629-0faf58a36ea2","ios":"levelo://app?vid=f9c188c9-e4c0-4251-9629-0faf58a36ea2"},"vehicle_type_id":"4","last_reported":1732972592,"current_range_meters":24800,"station_id":"ce4bgm92rcd13ifvqbr0","pricing_plan_id":"cebpf4jnsgd1na2vs0mg"},{"bike_id":"c53456cf-9ecd-48ab-bd70-22a06cf80d9a","system_id":"levelo_inurba_marseille","lat":43.25496,"lon":5.37649,"is_reserved":false,"is_disabled":false,"rental_uris":{"android":"levelo://app?vid=c53456cf-9ecd-48ab-bd70-22a06cf80d9a","ios":"levelo://app?vid=c53456cf-9ecd-48ab-bd70-22a06cf80d9a"},"vehicle_type_id":"4","last_reported":1732972592,"current_range_meters":40000,"station_id":"ce4bhh12rcd13ifvqff0","pricing_plan_id":"cebpf4jnsgd1na2vs0mg"},{"bike_id":"b7abca2a-5b1e-4003-bffb-45a49defd92d","system_id":"levelo_inurba_marseille","lat":43.28365,"lon":5.38645,"is_reserved":false,"is_disabled":false,"rental_uris":{"android":"levelo://app?vid=b7abca2a-5b1e-4003-bffb-45a49defd92d","ios":"levelo://app?vid=b7abca2a-5b1e-4003-bffb-45a49defd92d"},"vehicle_type_id":"4","last_reported":1732972592,"current_range_meters":39200,"station_id":"ce4bh492rcd13ifvqdvg","pricing_plan_id":"cebpf4jnsgd1na2vs0mg"},{"bike_id":"c2d172e1-98e6-4a29-80b6-476b9c5f1669","system_id":"levelo_inurba_marseille","lat":43.27617,"lon":5.36137,"is_reserved":false,"is_disabled":false,"rental_uris":{"android":"levelo://app?vid=c2d172e1-98e6-4a29-80b6-476b9c5f1669","ios":"levelo://app?vid=c2d172e1-98e6-4a29-80b6-476b9c5f1669"},"vehicle_type_id":"4","last_reported":1732972592,"current_range_meters":38400,"station_id":"ce4bgj92rcd13ifvqbe0","pricing_plan_id":"cebpf4jnsgd1na2vs0mg"},{"bike_id":"2166ca2c-b5d4-41ea-8575-d0ef8eea559d","system_id":"levelo_inurba_marseille","lat":43.28847,"lon":5.35853,"is_reserved":false,"is_disabled":false,"rental_uris":{"android":"levelo://app?vid=2166ca2c-b5d4-41ea-8575-d0ef8eea559d","ios":"levelo://app?vid=2166ca2c-b5d4-41ea-8575-d0ef8eea559d"},"vehicle_type_id":"4","last_reported":1732972592,"current_range_meters":23200,"station_id":"ce4bhb12rcd13ifvqem0","pricing_plan_id":"cebpf4jnsgd1na2vs0mg"},{"bike_id":"eec69a7d-2180-49cd-8de7-0502da6ab253","system_id":"levelo_inurba_marseille","lat":43.33766,"lon":5.37427,"is_reserved":false,"is_disabled":false,"rental_uris":{"android":"levelo://app?vid=eec69a7d-2180-49cd-8de7-0502da6ab253","ios":"levelo://app?vid=eec69a7d-2180-49cd-8de7-0502da6ab253"},"vehicle_type_id":"4","last_reported":1732972592,"current_range_meters":38000,"station_id":"","pricing_plan_id":"cebpf4jnsgd1na2vs0mg"},{"bike_id":"2acf3c00-9adf-448c-a9a4-10d6de2d7879","system_id":"levelo_inurba_marseille","lat":43.30649,"lon":5.40065,"is_reserved":false,"is_disabled":false,"rental_uris":{"android":"levelo://app?vid=2acf3c00-9adf-448c-a9a4-10d6de2d7879","ios":"levelo://app?vid=2acf3c00-9adf-448c-a9a4-10d6de2d7879"},"vehicle_type_id":"4","last_reported":1732972592,"current_range_meters":38800,"station_id":"ce4bh112rcd13ifvqda0","pricing_plan_id":"cebpf4jnsgd1na2vs0mg"},{"bike_id":"527e9215-5e4e-41d1-879f-857f198e8537","system_id":"levelo_inurba_marseille","lat":43.28413,"lon":5.34992,"is_reserved":false,"is_disabled":false,"rental_uris":{"android":"levelo://app?vid=527e9215-5e4e-41d1-879f-857f198e8537","ios":"levelo://app?vid=527e9215-5e4e-41d1-879f-857f198e8537"},"vehicle_type_id":"4","last_reported":1732972592,"current_range_meters":7200,"station_id":"ce4bhbh2rcd13ifvqepg","pricing_plan_id":"cebpf4jnsgd1na2vs0mg"},{"bike_id":"a2d8ce41-d661-4657-8d20-fbf5e3216c56","system_id":"levelo_inurba_marseille","lat":43.27203,"lon":5.39182,"is_reserved":false,"is_disabled":false,"rental_uris":{"android":"levelo://app?vid=a2d8ce41-d661-4657-8d20-fbf5e3216c56","ios":"levelo://app?vid=a2d8ce41-d661-4657-8d20-fbf5e3216c56"},"vehicle_type_id":"4","last_reported":1732972592,"current_range_meters":20000,"station_id":"ce4bhhp2rcd13ifvqfm0","pricing_plan_id":"cebpf4jnsgd1na2vs0mg"},{"bike_id":"cf9f3a3f-ec66-4a92-abcd-f016e9c0310b","system_id":"levelo_inurba_marseille","lat":43.33022,"lon":5.39039,"is_reserved":false,"is_disabled":false,"rental_uris":{"android":"levelo://app?vid=cf9f3a3f-ec66-4a92-abcd-f016e9c0310b","ios":"levelo://app?vid=cf9f3a3f-ec66-4a92-abcd-f016e9c0310b"},"vehicle_type_id":"4","last_reported":1732972592,"current_range_meters":22000,"station_id":"ce4bhr92rcd13ifvqhrg","pricing_plan_id":"cebpf4jnsgd1na2vs0mg"},{"bike_id":"359629e5-f43f-4ff3-8806-0c935e3f2798","system_id":"levelo_inurba_marseille","lat":43.29032,"lon":5.38649,"is_reserved":false,"is_disabled":true,"rental_uris":{"android":"levelo://app?vid=359629e5-f43f-4ff3-8806-0c935e3f2798","ios":"levelo://app?vid=359629e5-f43f-4ff3-8806-0c935e3f2798"},"vehicle_type_id":"4","last_reported":1732972592,"current_range_meters":1600,"station_id":"ce4bh4p2rcd13ifvqe0g","pricing_plan_id":"cebpf4jnsgd1na2vs0mg"},{"bike_id":"06448cf4-5db2-4556-ae15-36018f41ecec","system_id":"levelo_inurba_marseille","lat":43.3088,"lon":5.39643,"is_reserved":false,"is_disabled":false,"rental_uris":{"android":"levelo://app?vid=06448cf4-5db2-4556-ae15-36018f41ecec","ios":"levelo://app?vid=06448cf4-5db2-4556-ae15-36018f41ecec"},"vehicle_type_id":"4","last_reported":1732972592,"current_range_meters":39200,"station_id":"ce4bh012rcd13ifvqcv0","pricing_plan_id":"cebpf4jnsgd1na2vs0mg"},{"bike_id":"67062cd3-da08-4a18-90ad-a635ef174fbe","system_id":"levelo_inurba_marseille","lat":43.2621,"lon":5.3744,"is_reserved":false,"is_disabled":false,"rental_uris":{"android":"levelo://app?vid=67062cd3-da08-4a18-90ad-a635ef174fbe","ios":"levelo://app?vid=67062cd3-da08-4a18-90ad-a635ef174fbe"},"vehicle_type_id":"4","last_reported":1732972592,"current_range_meters":38000,"station_id":"ce4bhgp2rcd13ifvqfc0","pricing_plan_id":"cebpf4jnsgd1na2vs0mg"},{"bike_id":"ae7276f4-0867-48f1-b28f-b95e39e0658e","system_id":"levelo_inurba_marseille","lat":43.30281,"lon":5.37699,"is_reserved":false,"is_disabled":false,"rental_uris":{"android":"levelo://app?vid=ae7276f4-0867-48f1-b28f-b95e39e0658e","ios":"levelo://app?vid=ae7276f4-0867-48f1-b28f-b95e39e0658e"},"vehicle_type_id":"4","last_reported":1732972592,"current_range_meters":23200,"station_id":"ce4bguh2rcd13ifvqcj0","pricing_plan_id":"cebpf4jnsgd1na2vs0mg"},{"bike_id":"6784c319-478f-4fdb-8ee2-dc66e5fb4d39","system_id":"levelo_inurba_marseille","lat":43.30539,"lon":5.36557,"is_reserved":false,"is_disabled":false,"rental_uris":{"android":"levelo://app?vid=6784c319-478f-4fdb-8ee2-dc66e5fb4d39","ios":"levelo://app?vid=6784c319-478f-4fdb-8ee2-dc66e5fb4d39"},"vehicle_type_id":"4","last_reported":1732972592,"current_range_meters":38400,"station_id":"ce4bgs12rcd13ifvqcag","pricing_plan_id":"cebpf4jnsgd1na2vs0mg"},{"bike_id":"fe1c6c60-0f4f-4b5c-a7ea-9f2ff8347245","system_id":"levelo_inurba_marseille","lat":43.27621,"lon":5.36128,"is_reserved":false,"is_disabled":false,"rental_uris":{"android":"levelo://app?vid=fe1c6c60-0f4f-4b5c-a7ea-9f2ff8347245","ios":"levelo://app?vid=fe1c6c60-0f4f-4b5c-a7ea-9f2ff8347245"},"vehicle_type_id":"4","last_reported":1732972592,"current_range_meters":39200,"station_id":"ce4bgj92rcd13ifvqbe0","pricing_plan_id":"cebpf4jnsgd1na2vs0mg"},{"bike_id":"4abebe2b-dec7-442c-a6a0-da33deb742de","system_id":"levelo_inurba_marseille","lat":43.32098,"lon":5.36798,"is_reserved":false,"is_disabled":false,"rental_uris":{"android":"levelo://app?vid=4abebe2b-dec7-442c-a6a0-da33deb742de","ios":"levelo://app?vid=4abebe2b-dec7-442c-a6a0-da33deb742de"},"vehicle_type_id":"4","last_reported":1732972592,"current_range_meters":37600,"station_id":"ce4bhrh2rcd13ifvqhug","pricing_plan_id":"cebpf4jnsgd1na2vs0mg"},{"bike_id":"e8761c76-5abe-46ec-a02e-5c1eaaf3ecfa","system_id":"levelo_inurba_marseille","lat":43.2416,"lon":5.3641,"is_reserved":false,"is_disabled":false,"rental_uris":{"android":"levelo://app?vid=e8761c76-5abe-46ec-a02e-5c1eaaf3ecfa","ios":"levelo://app?vid=e8761c76-5abe-46ec-a02e-5c1eaaf3ecfa"},"vehicle_type_id":"4","last_reported":1732972592,"current_range_meters":30000,"station_id":"cpo36qri1sfpv3e86is0","pricing_plan_id":"cebpf4jnsgd1na2vs0mg"},{"bike_id":"94c7ef9a-ec0a-4aea-920b-162ae2bfcd60","system_id":"levelo_inurba_marseille","lat":43.30275,"lon":5.37717,"is_reserved":false,"is_disabled":false,"rental_uris":{"android":"levelo://app?vid=94c7ef9a-ec0a-4aea-920b-162ae2bfcd60","ios":"levelo://app?vid=94c7ef9a-ec0a-4aea-920b-162ae2bfcd60"},"vehicle_type_id":"4","last_reported":1732972592,"current_range_meters":39200,"station_id":"ce4bguh2rcd13ifvqcj0","pricing_plan_id":"cebpf4jnsgd1na2vs0mg"},{"bike_id":"048a5b9e-befd-4e9e-a97c-f931a23386af","system_id":"levelo_inurba_marseille","lat":43.27613,"lon":5.36104,"is_reserved":false,"is_disabled":true,"rental_uris":{"android":"levelo://app?vid=048a5b9e-befd-4e9e-a97c-f931a23386af","ios":"levelo://app?vid=048a5b9e-befd-4e9e-a97c-f931a23386af"},"vehicle_type_id":"4","last_reported":1732972592,"current_range_meters":1200,"station_id":"ce4bgj92rcd13ifvqbe0","pricing_plan_id":"cebpf4jnsgd1na2vs0mg"},{"bike_id":"a50175e2-0545-488d-8a8a-b14e9750e54c","system_id":"levelo_inurba_marseille","lat":43.30461,"lon":5.37906,"is_reserved":false,"is_disabled":false,"rental_uris":{"android":"levelo://app?vid=a50175e2-0545-488d-8a8a-b14e9750e54c","ios":"levelo://app?vid=a50175e2-0545-488d-8a8a-b14e9750e54c"},"vehicle_type_id":"4","last_reported":1732972592,"current_range_meters":38800,"station_id":"ce4bgup2rcd13ifvqcn0","pricing_plan_id":"cebpf4jnsgd1na2vs0mg"},{"bike_id":"ad66a11a-b911-454d-b6df-17d752256e2a","system_id":"levelo_inurba_marseille","lat":43.29935,"lon":5.36557,"is_reserved":false,"is_disabled":false,"rental_uris":{"android":"levelo://app?vid=ad66a11a-b911-454d-b6df-17d752256e2a","ios":"levelo://app?vid=ad66a11a-b911-454d-b6df-17d752256e2a"},"vehicle_type_id":"4","last_reported":1732972592,"current_range_meters":22000,"station_id":"ce4bgm92rcd13ifvqbr0","pricing_plan_id":"cebpf4jnsgd1na2vs0mg"},{"bike_id":"0bab6015-08f5-4e71-a39c-ebe1ec0d6a21","system_id":"levelo_inurba_marseille","lat":43.24165,"lon":5.36401,"is_reserved":false,"is_disabled":false,"rental_uris":{"android":"levelo://app?vid=0bab6015-08f5-4e71-a39c-ebe1ec0d6a21","ios":"levelo://app?vid=0bab6015-08f5-4e71-a39c-ebe1ec0d6a21"},"vehicle_type_id":"4","last_reported":1732972592,"current_range_meters":22000,"station_id":"cpo36qri1sfpv3e86is0","pricing_plan_id":"cebpf4jnsgd1na2vs0mg"},{"bike_id":"a67de241-6a70-4044-84f4-40aba86e4110","system_id":"levelo_inurba_marseille","lat":43.31709,"lon":5.4371,"is_reserved":false,"is_disabled":false,"rental_uris":{"android":"levelo://app?vid=a67de241-6a70-4044-84f4-40aba86e4110","ios":"levelo://app?vid=a67de241-6a70-4044-84f4-40aba86e4110"},"vehicle_type_id":"4","last_reported":1732972592,"current_range_meters":18000,"station_id":"ce4bhp92rcd13ifvqhcg","pricing_plan_id":"cebpf4jnsgd1na2vs0mg"},{"bike_id":"50083385-87a7-4059-b9fe-3253996030c6","system_id":"levelo_inurba_marseille","lat":43.2962,"lon":5.37724,"is_reserved":false,"is_disabled":false,"rental_uris":{"android":"levelo://app?vid=50083385-87a7-4059-b9fe-3253996030c6","ios":"levelo://app?vid=50083385-87a7-4059-b9fe-3253996030c6"},"vehicle_type_id":"4","last_reported":1732972592,"current_range_meters":39200,"station_id":"ce4bgi92rcd13ifvqb90","pricing_plan_id":"cebpf4jnsgd1na2vs0mg"},{"bike_id":"9dd1fc98-a89e-437a-b707-6eb8b3c899e8","system_id":"levelo_inurba_marseille","lat":43.290377,"lon":5.359163,"is_reserved":false,"is_disabled":true,"rental_uris":{"android":"levelo://app?vid=9dd1fc98-a89e-437a-b707-6eb8b3c899e8","ios":"levelo://app?vid=9dd1fc98-a89e-437a-b707-6eb8b3c899e8"},"vehicle_type_id":"4","last_reported":1732972592,"current_range_meters":0,"station_id":"ce4bha92rcd13ifvqeg0","pricing_plan_id":"cebpf4jnsgd1na2vs0mg"},{"bike_id":"aea6b7a8-fa3c-4842-89c6-693b08a99724","system_id":"levelo_inurba_marseille","lat":43.33752,"lon":5.37428,"is_reserved":false,"is_disabled":false,"rental_uris":{"android":"levelo://app?vid=aea6b7a8-fa3c-4842-89c6-693b08a99724","ios":"levelo://app?vid=aea6b7a8-fa3c-4842-89c6-693b08a99724"},"vehicle_type_id":"4","last_reported":1732972592,"current_range_meters":38800,"station_id":"","pricing_plan_id":"cebpf4jnsgd1na2vs0mg"},{"bike_id":"873fd052-9978-4f27-b782-8807a1f3aba0","system_id":"levelo_inurba_marseille","lat":43.33741,"lon":5.37453,"is_reserved":false,"is_disabled":false,"rental_uris":{"android":"levelo://app?vid=873fd052-9978-4f27-b782-8807a1f3aba0","ios":"levelo://app?vid=873fd052-9978-4f27-b782-8807a1f3aba0"},"vehicle_type_id":"4","last_reported":1732972592,"current_range_meters":30000,"station_id":"","pricing_plan_id":"cebpf4jnsgd1na2vs0mg"},{"bike_id":"a1da46ac-0823-493f-ac56-218330798636","system_id":"levelo_inurba_marseille","lat":43.24393,"lon":5.37073,"is_reserved":false,"is_disabled":false,"rental_uris":{"android":"levelo://app?vid=a1da46ac-0823-493f-ac56-218330798636","ios":"levelo://app?vid=a1da46ac-0823-493f-ac56-218330798636"},"vehicle_type_id":"4","last_reported":1732972592,"current_range_meters":38800,"station_id":"ce4bhhh2rcd13ifvqfk0","pricing_plan_id":"cebpf4jnsgd1na2vs0mg"},{"bike_id":"a5909545-3e09-4859-9fda-9ffe4e6e4883","system_id":"levelo_inurba_marseille","lat":43.23066,"lon":5.35492,"is_reserved":false,"is_disabled":false,"rental_uris":{"android":"levelo://app?vid=a5909545-3e09-4859-9fda-9ffe4e6e4883","ios":"levelo://app?vid=a5909545-3e09-4859-9fda-9ffe4e6e4883"},"vehicle_type_id":"4","last_reported":1732972592,"current_range_meters":11600,"station_id":"cpo3342slgdg3j2ifvpg","pricing_plan_id":"cebpf4jnsgd1na2vs0mg"},{"bike_id":"01dd0f6c-5d7c-4e63-a161-668f65657b81","system_id":"levelo_inurba_marseille","lat":43.22931,"lon":5.35376,"is_reserved":false,"is_disabled":false,"rental_uris":{"android":"levelo://app?vid=01dd0f6c-5d7c-4e63-a161-668f65657b81","ios":"levelo://app?vid=01dd0f6c-5d7c-4e63-a161-668f65657b81"},"vehicle_type_id":"4","last_reported":1732972592,"current_range_meters":37600,"station_id":"cpo3532slgdg3j2ikp40","pricing_plan_id":"cebpf4jnsgd1na2vs0mg"},{"bike_id":"2b7e49eb-0c8e-435e-9969-2d8145ea2c92","system_id":"levelo_inurba_marseille","lat":43.31325,"lon":5.39694,"is_reserved":false,"is_disabled":false,"rental_uris":{"android":"levelo://app?vid=2b7e49eb-0c8e-435e-9969-2d8145ea2c92","ios":"levelo://app?vid=2b7e49eb-0c8e-435e-9969-2d8145ea2c92"},"vehicle_type_id":"4","last_reported":1732972592,"current_range_meters":38800,"station_id":"ce4bgvp2rcd13ifvqcu0","pricing_plan_id":"cebpf4jnsgd1na2vs0mg"},{"bike_id":"5bc9d9cf-df24-4e03-a64c-e5379f67945a","system_id":"levelo_inurba_marseille","lat":43.27496,"lon":5.42447,"is_reserved":false,"is_disabled":false,"rental_uris":{"android":"levelo://app?vid=5bc9d9cf-df24-4e03-a64c-e5379f67945a","ios":"levelo://app?vid=5bc9d9cf-df24-4e03-a64c-e5379f67945a"},"vehicle_type_id":"4","last_reported":1732972592,"current_range_meters":39200,"station_id":"ce4bhn92rcd13ifvqgrg","pricing_plan_id":"cebpf4jnsgd1na2vs0mg"},{"bike_id":"645c606c-68ed-422b-af50-4155f76d4c2c","system_id":"levelo_inurba_marseille","lat":43.3013,"lon":5.38088,"is_reserved":false,"is_disabled":false,"rental_uris":{"android":"levelo://app?vid=645c606c-68ed-422b-af50-4155f76d4c2c","ios":"levelo://app?vid=645c606c-68ed-422b-af50-4155f76d4c2c"},"vehicle_type_id":"4","last_reported":1732972592,"current_range_meters":22400,"station_id":"ce4bgjp2rcd13ifvqbh0","pricing_plan_id":"cebpf4jnsgd1na2vs0mg"},{"bike_id":"e5951ee3-4a5a-4ebb-b469-096c5188dfa3","system_id":"levelo_inurba_marseille","lat":43.23192,"lon":5.35564,"is_reserved":false,"is_disabled":false,"rental_uris":{"android":"levelo://app?vid=e5951ee3-4a5a-4ebb-b469-096c5188dfa3","ios":"levelo://app?vid=e5951ee3-4a5a-4ebb-b469-096c5188dfa3"},"vehicle_type_id":"4","last_reported":1732972592,"current_range_meters":19600,"station_id":"ce4bhu92rcd13ifvqi70","pricing_plan_id":"cebpf4jnsgd1na2vs0mg"},{"bike_id":"f9a63393-5401-4f98-ae5a-dfbb8291ab6d","system_id":"levelo_inurba_marseille","lat":43.3004,"lon":5.37551,"is_reserved":false,"is_disabled":true,"rental_uris":{"android":"levelo://app?vid=f9a63393-5401-4f98-ae5a-dfbb8291ab6d","ios":"levelo://app?vid=f9a63393-5401-4f98-ae5a-dfbb8291ab6d"},"vehicle_type_id":"4","last_reported":1732972592,"current_range_meters":0,"station_id":"","pricing_plan_id":"cebpf4jnsgd1na2vs0mg"},{"bike_id":"d2300a67-e59d-4c6d-84e8-89c1777cddcc","system_id":"levelo_inurba_marseille","lat":43.31994,"lon":5.38146,"is_reserved":false,"is_disabled":false,"rental_uris":{"android":"levelo://app?vid=d2300a67-e59d-4c6d-84e8-89c1777cddcc","ios":"levelo://app?vid=d2300a67-e59d-4c6d-84e8-89c1777cddcc"},"vehicle_type_id":"4","last_reported":1732972592,"current_range_meters":38800,"station_id":"ce4bhr12rcd13ifvqhpg","pricing_plan_id":"cebpf4jnsgd1na2vs0mg"},{"bike_id":"b38c09bb-a215-4e8b-b764-0091f548550c","system_id":"levelo_inurba_marseille","lat":43.22929,"lon":5.35396,"is_reserved":false,"is_disabled":false,"rental_uris":{"android":"levelo://app?vid=b38c09bb-a215-4e8b-b764-0091f548550c","ios":"levelo://app?vid=b38c09bb-a215-4e8b-b764-0091f548550c"},"vehicle_type_id":"4","last_reported":1732972592,"current_range_meters":29600,"station_id":"cpo3532slgdg3j2ikp40","pricing_plan_id":"cebpf4jnsgd1na2vs0mg"},{"bike_id":"e7e80914-fcda-42d5-bed4-93e784de9dd7","system_id":"levelo_inurba_marseille","lat":43.27808,"lon":5.40737,"is_reserved":false,"is_disabled":false,"rental_uris":{"android":"levelo://app?vid=e7e80914-fcda-42d5-bed4-93e784de9dd7","ios":"levelo://app?vid=e7e80914-fcda-42d5-bed4-93e784de9dd7"},"vehicle_type_id":"4","last_reported":1732972592,"current_range_meters":11600,"station_id":"ce4bhnh2rcd13ifvqgtg","pricing_plan_id":"cebpf4jnsgd1na2vs0mg"},{"bike_id":"42062f9d-6c85-4a6b-8d48-4233b22428d6","system_id":"levelo_inurba_marseille","lat":43.22932,"lon":5.35376,"is_reserved":false,"is_disabled":false,"rental_uris":{"android":"levelo://app?vid=42062f9d-6c85-4a6b-8d48-4233b22428d6","ios":"levelo://app?vid=42062f9d-6c85-4a6b-8d48-4233b22428d6"},"vehicle_type_id":"4","last_reported":1732972592,"current_range_meters":17200,"station_id":"cpo3532slgdg3j2ikp40","pricing_plan_id":"cebpf4jnsgd1na2vs0mg"},{"bike_id":"209edce5-94bd-42b7-894c-233f806592a5","system_id":"levelo_inurba_marseille","lat":43.32362,"lon":5.36755,"is_reserved":false,"is_disabled":false,"rental_uris":{"android":"levelo://app?vid=209edce5-94bd-42b7-894c-233f806592a5","ios":"levelo://app?vid=209edce5-94bd-42b7-894c-233f806592a5"},"vehicle_type_id":"4","last_reported":1732972592,"current_range_meters":28400,"station_id":"ce4bhsh2rcd13ifvqi2g","pricing_plan_id":"cebpf4jnsgd1na2vs0mg"},{"bike_id":"0eaa03eb-eed7-4926-80a8-68beee9f8548","system_id":"levelo_inurba_marseille","lat":43.337444,"lon":5.374475,"is_reserved":false,"is_disabled":false,"rental_uris":{"android":"levelo://app?vid=0eaa03eb-eed7-4926-80a8-68beee9f8548","ios":"levelo://app?vid=0eaa03eb-eed7-4926-80a8-68beee9f8548"},"vehicle_type_id":"4","last_reported":1732972592,"current_range_meters":34800,"station_id":"","pricing_plan_id":"cebpf4jnsgd1na2vs0mg"},{"bike_id":"04791269-9bad-451a-a252-9b63a8db9660","system_id":"levelo_inurba_marseille","lat":43.28033,"lon":5.36947,"is_reserved":false,"is_disabled":false,"rental_uris":{"android":"levelo://app?vid=04791269-9bad-451a-a252-9b63a8db9660","ios":"levelo://app?vid=04791269-9bad-451a-a252-9b63a8db9660"},"vehicle_type_id":"4","last_reported":1732972592,"current_range_meters":7200,"station_id":"ce4bha12rcd13ifvqef0","pricing_plan_id":"cebpf4jnsgd1na2vs0mg"},{"bike_id":"efbc4d20-bdec-45eb-8f74-c8ad3b7ba3bb","system_id":"levelo_inurba_marseille","lat":43.23043,"lon":5.35514,"is_reserved":false,"is_disabled":false,"rental_uris":{"android":"levelo://app?vid=efbc4d20-bdec-45eb-8f74-c8ad3b7ba3bb","ios":"levelo://app?vid=efbc4d20-bdec-45eb-8f74-c8ad3b7ba3bb"},"vehicle_type_id":"4","last_reported":1732972592,"current_range_meters":29600,"station_id":"cpo3342slgdg3j2ifvpg","pricing_plan_id":"cebpf4jnsgd1na2vs0mg"},{"bike_id":"2f912621-5ca1-46ff-9674-4fff9f98c56b","system_id":"levelo_inurba_marseille","lat":43.2992,"lon":5.37483,"is_reserved":false,"is_disabled":false,"rental_uris":{"android":"levelo://app?vid=2f912621-5ca1-46ff-9674-4fff9f98c56b","ios":"levelo://app?vid=2f912621-5ca1-46ff-9674-4fff9f98c56b"},"vehicle_type_id":"4","last_reported":1732972592,"current_range_meters":18800,"station_id":"ce4bgjh2rcd13ifvqbg0","pricing_plan_id":"cebpf4jnsgd1na2vs0mg"},{"bike_id":"213bf158-be68-4d7e-b8cc-c5dc1c5b6312","system_id":"levelo_inurba_marseille","lat":43.33741,"lon":5.37464,"is_reserved":false,"is_disabled":false,"rental_uris":{"android":"levelo://app?vid=213bf158-be68-4d7e-b8cc-c5dc1c5b6312","ios":"levelo://app?vid=213bf158-be68-4d7e-b8cc-c5dc1c5b6312"},"vehicle_type_id":"4","last_reported":1732972592,"current_range_meters":35200,"station_id":"","pricing_plan_id":"cebpf4jnsgd1na2vs0mg"},{"bike_id":"ffee92d3-4119-470f-811e-5a167fe07917","system_id":"levelo_inurba_marseille","lat":43.33024,"lon":5.39039,"is_reserved":false,"is_disabled":false,"rental_uris":{"android":"levelo://app?vid=ffee92d3-4119-470f-811e-5a167fe07917","ios":"levelo://app?vid=ffee92d3-4119-470f-811e-5a167fe07917"},"vehicle_type_id":"4","last_reported":1732972592,"current_range_meters":39200,"station_id":"ce4bhr92rcd13ifvqhrg","pricing_plan_id":"cebpf4jnsgd1na2vs0mg"},{"bike_id":"38798db8-5bd5-4792-b41b-6f809d1b1c45","system_id":"levelo_inurba_marseille","lat":43.31991,"lon":5.3816,"is_reserved":false,"is_disabled":false,"rental_uris":{"android":"levelo://app?vid=38798db8-5bd5-4792-b41b-6f809d1b1c45","ios":"levelo://app?vid=38798db8-5bd5-4792-b41b-6f809d1b1c45"},"vehicle_type_id":"4","last_reported":1732972592,"current_range_meters":18800,"station_id":"ce4bhr12rcd13ifvqhpg","pricing_plan_id":"cebpf4jnsgd1na2vs0mg"},{"bike_id":"e1ebf7cc-49b3-47c3-b832-a2b8322c1169","system_id":"levelo_inurba_marseille","lat":43.2962,"lon":5.37168,"is_reserved":false,"is_disabled":false,"rental_uris":{"android":"levelo://app?vid=e1ebf7cc-49b3-47c3-b832-a2b8322c1169","ios":"levelo://app?vid=e1ebf7cc-49b3-47c3-b832-a2b8322c1169"},"vehicle_type_id":"4","last_reported":1732972592,"current_range_meters":22000,"station_id":"ce4bgnh2rcd13ifvqc0g","pricing_plan_id":"cebpf4jnsgd1na2vs0mg"},{"bike_id":"375f3ff8-f817-4dea-ba6a-e7f3d0cf2b56","system_id":"levelo_inurba_marseille","lat":43.28033,"lon":5.36955,"is_reserved":false,"is_disabled":false,"rental_uris":{"android":"levelo://app?vid=375f3ff8-f817-4dea-ba6a-e7f3d0cf2b56","ios":"levelo://app?vid=375f3ff8-f817-4dea-ba6a-e7f3d0cf2b56"},"vehicle_type_id":"4","last_reported":1732972592,"current_range_meters":40000,"station_id":"ce4bha12rcd13ifvqef0","pricing_plan_id":"cebpf4jnsgd1na2vs0mg"},{"bike_id":"8a4c2d4e-1120-4a44-aa6a-b97a693b8a01","system_id":"levelo_inurba_marseille","lat":43.337444,"lon":5.374475,"is_reserved":false,"is_disabled":false,"rental_uris":{"android":"levelo://app?vid=8a4c2d4e-1120-4a44-aa6a-b97a693b8a01","ios":"levelo://app?vid=8a4c2d4e-1120-4a44-aa6a-b97a693b8a01"},"vehicle_type_id":"4","last_reported":1732972592,"current_range_meters":38000,"station_id":"","pricing_plan_id":"cebpf4jnsgd1na2vs0mg"},{"bike_id":"e05ac5be-d807-4203-8b20-bdb26cceefb0","system_id":"levelo_inurba_marseille","lat":43.31754,"lon":5.39011,"is_reserved":false,"is_disabled":false,"rental_uris":{"android":"levelo://app?vid=e05ac5be-d807-4203-8b20-bdb26cceefb0","ios":"levelo://app?vid=e05ac5be-d807-4203-8b20-bdb26cceefb0"},"vehicle_type_id":"4","last_reported":1732972592,"current_range_meters":35200,"station_id":"ce4bhqp2rcd13ifvqhng","pricing_plan_id":"cebpf4jnsgd1na2vs0mg"},{"bike_id":"925f3b51-6fab-43b7-8f3f-91d2233f4dda","system_id":"levelo_inurba_marseille","lat":43.27995,"lon":5.4001,"is_reserved":false,"is_disabled":true,"rental_uris":{"android":"levelo://app?vid=925f3b51-6fab-43b7-8f3f-91d2233f4dda","ios":"levelo://app?vid=925f3b51-6fab-43b7-8f3f-91d2233f4dda"},"vehicle_type_id":"4","last_reported":1732972592,"current_range_meters":0,"station_id":"ce4bho92rcd13ifvqh4g","pricing_plan_id":"cebpf4jnsgd1na2vs0mg"},{"bike_id":"c43fffd1-108f-4493-9c53-d2971d2b16a2","system_id":"levelo_inurba_marseille","lat":43.32908,"lon":5.41566,"is_reserved":false,"is_disabled":false,"rental_uris":{"android":"levelo://app?vid=c43fffd1-108f-4493-9c53-d2971d2b16a2","ios":"levelo://app?vid=c43fffd1-108f-4493-9c53-d2971d2b16a2"},"vehicle_type_id":"4","last_reported":1732972592,"current_range_meters":20800,"station_id":"","pricing_plan_id":"cebpf4jnsgd1na2vs0mg"},{"bike_id":"8c2e4f0b-60ad-4acd-8853-2ade75dfd58a","system_id":"levelo_inurba_marseille","lat":43.33774,"lon":5.37417,"is_reserved":false,"is_disabled":false,"rental_uris":{"android":"levelo://app?vid=8c2e4f0b-60ad-4acd-8853-2ade75dfd58a","ios":"levelo://app?vid=8c2e4f0b-60ad-4acd-8853-2ade75dfd58a"},"vehicle_type_id":"4","last_reported":1732972592,"current_range_meters":34000,"station_id":"","pricing_plan_id":"cebpf4jnsgd1na2vs0mg"},{"bike_id":"b497e3c8-1700-4bac-be26-e6b9b009e640","system_id":"levelo_inurba_marseille","lat":43.28396,"lon":5.37514,"is_reserved":false,"is_disabled":false,"rental_uris":{"android":"levelo://app?vid=b497e3c8-1700-4bac-be26-e6b9b009e640","ios":"levelo://app?vid=b497e3c8-1700-4bac-be26-e6b9b009e640"},"vehicle_type_id":"4","last_reported":1732972592,"current_range_meters":5600,"station_id":"ce4bh412rcd13ifvqds0","pricing_plan_id":"cebpf4jnsgd1na2vs0mg"},{"bike_id":"f42db6f5-885d-4a2d-a32b-c236a85340df","system_id":"levelo_inurba_marseille","lat":43.31684,"lon":5.40481,"is_reserved":false,"is_disabled":false,"rental_uris":{"android":"levelo://app?vid=f42db6f5-885d-4a2d-a32b-c236a85340df","ios":"levelo://app?vid=f42db6f5-885d-4a2d-a32b-c236a85340df"},"vehicle_type_id":"4","last_reported":1732972592,"current_range_meters":36000,"station_id":"ce4bh012rcd13ifvqd00","pricing_plan_id":"cebpf4jnsgd1na2vs0mg"},{"bike_id":"ce7585dc-97ad-42e9-aab6-cedc1b8dfa1c","system_id":"levelo_inurba_marseille","lat":43.30644,"lon":5.40101,"is_reserved":false,"is_disabled":false,"rental_uris":{"android":"levelo://app?vid=ce7585dc-97ad-42e9-aab6-cedc1b8dfa1c","ios":"levelo://app?vid=ce7585dc-97ad-42e9-aab6-cedc1b8dfa1c"},"vehicle_type_id":"4","last_reported":1732972592,"current_range_meters":24400,"station_id":"ce4bh112rcd13ifvqda0","pricing_plan_id":"cebpf4jnsgd1na2vs0mg"},{"bike_id":"9f2cb427-4ad7-4355-b2ea-d2bbf4f235af","system_id":"levelo_inurba_marseille","lat":43.30129,"lon":5.39847,"is_reserved":false,"is_disabled":false,"rental_uris":{"android":"levelo://app?vid=9f2cb427-4ad7-4355-b2ea-d2bbf4f235af","ios":"levelo://app?vid=9f2cb427-4ad7-4355-b2ea-d2bbf4f235af"},"vehicle_type_id":"4","last_reported":1732972592,"current_range_meters":20400,"station_id":"ce4bh0h2rcd13ifvqd40","pricing_plan_id":"cebpf4jnsgd1na2vs0mg"},{"bike_id":"43746d86-8a13-4845-9faf-ae69b548d714","system_id":"levelo_inurba_marseille","lat":43.29459,"lon":5.37917,"is_reserved":false,"is_disabled":true,"rental_uris":{"android":"levelo://app?vid=43746d86-8a13-4845-9faf-ae69b548d714","ios":"levelo://app?vid=43746d86-8a13-4845-9faf-ae69b548d714"},"vehicle_type_id":"4","last_reported":1732972592,"current_range_meters":0,"station_id":"","pricing_plan_id":"cebpf4jnsgd1na2vs0mg"},{"bike_id":"b99d912f-5dc0-4792-8912-e0c60fda2b57","system_id":"levelo_inurba_marseille","lat":43.23055,"lon":5.35496,"is_reserved":false,"is_disabled":false,"rental_uris":{"android":"levelo://app?vid=b99d912f-5dc0-4792-8912-e0c60fda2b57","ios":"levelo://app?vid=b99d912f-5dc0-4792-8912-e0c60fda2b57"},"vehicle_type_id":"4","last_reported":1732972592,"current_range_meters":27600,"station_id":"cpo3342slgdg3j2ifvpg","pricing_plan_id":"cebpf4jnsgd1na2vs0mg"},{"bike_id":"7f22ee2c-d398-4e8b-b4d2-44176f5c1ee0","system_id":"levelo_inurba_marseille","lat":43.29579,"lon":5.37506,"is_reserved":false,"is_disabled":false,"rental_uris":{"android":"levelo://app?vid=7f22ee2c-d398-4e8b-b4d2-44176f5c1ee0","ios":"levelo://app?vid=7f22ee2c-d398-4e8b-b4d2-44176f5c1ee0"},"vehicle_type_id":"4","last_reported":1732972592,"current_range_meters":38000,"station_id":"ce4bgh92rcd13ifvqb50","pricing_plan_id":"cebpf4jnsgd1na2vs0mg"},{"bike_id":"39caf1c7-0a9a-4160-9cfd-47aa0709e40d","system_id":"levelo_inurba_marseille","lat":43.28845,"lon":5.39313,"is_reserved":false,"is_disabled":false,"rental_uris":{"android":"levelo://app?vid=39caf1c7-0a9a-4160-9cfd-47aa0709e40d","ios":"levelo://app?vid=39caf1c7-0a9a-4160-9cfd-47aa0709e40d"},"vehicle_type_id":"4","last_reported":1732972592,"current_range_meters":38000,"station_id":"ce4bh2p2rcd13ifvqdi0","pricing_plan_id":"cebpf4jnsgd1na2vs0mg"},{"bike_id":"47a90437-acbe-44e5-ba57-0be28e485092","system_id":"levelo_inurba_marseille","lat":43.30104,"lon":5.39087,"is_reserved":false,"is_disabled":false,"rental_uris":{"android":"levelo://app?vid=47a90437-acbe-44e5-ba57-0be28e485092","ios":"levelo://app?vid=47a90437-acbe-44e5-ba57-0be28e485092"},"vehicle_type_id":"4","last_reported":1732972592,"current_range_meters":27200,"station_id":"ce4bh192rcd13ifvqdb0","pricing_plan_id":"cebpf4jnsgd1na2vs0mg"},{"bike_id":"0e2bc4f3-f01e-4b38-84be-d567d1968ff1","system_id":"levelo_inurba_marseille","lat":43.29284,"lon":5.4013,"is_reserved":false,"is_disabled":false,"rental_uris":{"android":"levelo://app?vid=0e2bc4f3-f01e-4b38-84be-d567d1968ff1","ios":"levelo://app?vid=0e2bc4f3-f01e-4b38-84be-d567d1968ff1"},"vehicle_type_id":"4","last_reported":1732972592,"current_range_meters":38400,"station_id":"ce4bh312rcd13ifvqdk0","pricing_plan_id":"cebpf4jnsgd1na2vs0mg"},{"bike_id":"7f673855-a40b-45fc-a998-51b1035c8353","system_id":"levelo_inurba_marseille","lat":43.25495,"lon":5.37658,"is_reserved":false,"is_disabled":false,"rental_uris":{"android":"levelo://app?vid=7f673855-a40b-45fc-a998-51b1035c8353","ios":"levelo://app?vid=7f673855-a40b-45fc-a998-51b1035c8353"},"vehicle_type_id":"4","last_reported":1732972592,"current_range_meters":30400,"station_id":"ce4bhh12rcd13ifvqff0","pricing_plan_id":"cebpf4jnsgd1na2vs0mg"},{"bike_id":"9e2dae0c-4997-4761-9c82-eeabee0ca3bb","system_id":"levelo_inurba_marseille","lat":43.28153,"lon":5.42645,"is_reserved":false,"is_disabled":false,"rental_uris":{"android":"levelo://app?vid=9e2dae0c-4997-4761-9c82-eeabee0ca3bb","ios":"levelo://app?vid=9e2dae0c-4997-4761-9c82-eeabee0ca3bb"},"vehicle_type_id":"4","last_reported":1732972592,"current_range_meters":29600,"station_id":"ce4bhnh2rcd13ifvqgug","pricing_plan_id":"cebpf4jnsgd1na2vs0mg"},{"bike_id":"15e24c31-4292-4084-bcd3-e24f0a31685e","system_id":"levelo_inurba_marseille","lat":43.28419,"lon":5.3499,"is_reserved":false,"is_disabled":true,"rental_uris":{"android":"levelo://app?vid=15e24c31-4292-4084-bcd3-e24f0a31685e","ios":"levelo://app?vid=15e24c31-4292-4084-bcd3-e24f0a31685e"},"vehicle_type_id":"4","last_reported":1732972592,"current_range_meters":35200,"station_id":"ce4bhbh2rcd13ifvqepg","pricing_plan_id":"cebpf4jnsgd1na2vs0mg"},{"bike_id":"ed2e18cb-6b73-482a-997d-872d2e2185a6","system_id":"levelo_inurba_marseille","lat":43.22931,"lon":5.35372,"is_reserved":false,"is_disabled":false,"rental_uris":{"android":"levelo://app?vid=ed2e18cb-6b73-482a-997d-872d2e2185a6","ios":"levelo://app?vid=ed2e18cb-6b73-482a-997d-872d2e2185a6"},"vehicle_type_id":"4","last_reported":1732972592,"current_range_meters":39200,"station_id":"cpo3532slgdg3j2ikp40","pricing_plan_id":"cebpf4jnsgd1na2vs0mg"},{"bike_id":"10abe4b6-26e4-45e3-b0b0-8edd299bef5f","system_id":"levelo_inurba_marseille","lat":43.29579,"lon":5.37505,"is_reserved":false,"is_disabled":false,"rental_uris":{"android":"levelo://app?vid=10abe4b6-26e4-45e3-b0b0-8edd299bef5f","ios":"levelo://app?vid=10abe4b6-26e4-45e3-b0b0-8edd299bef5f"},"vehicle_type_id":"4","last_reported":1732972592,"current_range_meters":36800,"station_id":"ce4bgh92rcd13ifvqb50","pricing_plan_id":"cebpf4jnsgd1na2vs0mg"},{"bike_id":"16f4b83b-e20d-43ea-851a-da81676ec098","system_id":"levelo_inurba_marseille","lat":43.33771,"lon":5.37404,"is_reserved":false,"is_disabled":false,"rental_uris":{"android":"levelo://app?vid=16f4b83b-e20d-43ea-851a-da81676ec098","ios":"levelo://app?vid=16f4b83b-e20d-43ea-851a-da81676ec098"},"vehicle_type_id":"4","last_reported":1732972592,"current_range_meters":16800,"station_id":"","pricing_plan_id":"cebpf4jnsgd1na2vs0mg"},{"bike_id":"388ee0ac-07d6-4c67-8950-f92c942cde51","system_id":"levelo_inurba_marseille","lat":43.30895,"lon":5.37183,"is_reserved":false,"is_disabled":false,"rental_uris":{"android":"levelo://app?vid=388ee0ac-07d6-4c67-8950-f92c942cde51","ios":"levelo://app?vid=388ee0ac-07d6-4c67-8950-f92c942cde51"},"vehicle_type_id":"4","last_reported":1732972592,"current_range_meters":11200,"station_id":"ce4bguh2rcd13ifvqckg","pricing_plan_id":"cebpf4jnsgd1na2vs0mg"},{"bike_id":"fc4d15f5-6256-45a3-90d6-77bb4c676955","system_id":"levelo_inurba_marseille","lat":43.296284,"lon":5.377877,"is_reserved":false,"is_disabled":true,"rental_uris":{"android":"levelo://app?vid=fc4d15f5-6256-45a3-90d6-77bb4c676955","ios":"levelo://app?vid=fc4d15f5-6256-45a3-90d6-77bb4c676955"},"vehicle_type_id":"4","last_reported":1732972592,"current_range_meters":24800,"station_id":"","pricing_plan_id":"cebpf4jnsgd1na2vs0mg"},{"bike_id":"c88f8730-1176-4717-97e2-17c27b15274f","system_id":"levelo_inurba_marseille","lat":43.23192,"lon":5.35543,"is_reserved":false,"is_disabled":false,"rental_uris":{"android":"levelo://app?vid=c88f8730-1176-4717-97e2-17c27b15274f","ios":"levelo://app?vid=c88f8730-1176-4717-97e2-17c27b15274f"},"vehicle_type_id":"4","last_reported":1732972592,"current_range_meters":39200,"station_id":"ce4bhu92rcd13ifvqi70","pricing_plan_id":"cebpf4jnsgd1na2vs0mg"},{"bike_id":"a16afe75-0fd4-4a69-b96a-bb6ed635780c","system_id":"levelo_inurba_marseille","lat":43.31116,"lon":5.37779,"is_reserved":false,"is_disabled":true,"rental_uris":{"android":"levelo://app?vid=a16afe75-0fd4-4a69-b96a-bb6ed635780c","ios":"levelo://app?vid=a16afe75-0fd4-4a69-b96a-bb6ed635780c"},"vehicle_type_id":"4","last_reported":1732972592,"current_range_meters":22000,"station_id":"ce4bgt92rcd13ifvqcg0","pricing_plan_id":"cebpf4jnsgd1na2vs0mg"},{"bike_id":"479fcb6f-d5c9-4eb3-a005-e862b08e88d1","system_id":"levelo_inurba_marseille","lat":43.32884,"lon":5.36548,"is_reserved":false,"is_disabled":false,"rental_uris":{"android":"levelo://app?vid=479fcb6f-d5c9-4eb3-a005-e862b08e88d1","ios":"levelo://app?vid=479fcb6f-d5c9-4eb3-a005-e862b08e88d1"},"vehicle_type_id":"4","last_reported":1732972592,"current_range_meters":36800,"station_id":"","pricing_plan_id":"cebpf4jnsgd1na2vs0mg"},{"bike_id":"da719756-3742-4209-8d60-b3804f08c501","system_id":"levelo_inurba_marseille","lat":43.29796,"lon":5.37992,"is_reserved":false,"is_disabled":false,"rental_uris":{"android":"levelo://app?vid=da719756-3742-4209-8d60-b3804f08c501","ios":"levelo://app?vid=da719756-3742-4209-8d60-b3804f08c501"},"vehicle_type_id":"4","last_reported":1732972592,"current_range_meters":27600,"station_id":"","pricing_plan_id":"cebpf4jnsgd1na2vs0mg"},{"bike_id":"cd79a5f5-da8f-43bb-a104-c2323e745e42","system_id":"levelo_inurba_marseille","lat":43.30876,"lon":5.39653,"is_reserved":false,"is_disabled":false,"rental_uris":{"android":"levelo://app?vid=cd79a5f5-da8f-43bb-a104-c2323e745e42","ios":"levelo://app?vid=cd79a5f5-da8f-43bb-a104-c2323e745e42"},"vehicle_type_id":"4","last_reported":1732972592,"current_range_meters":30000,"station_id":"ce4bh012rcd13ifvqcv0","pricing_plan_id":"cebpf4jnsgd1na2vs0mg"},{"bike_id":"5547a441-9653-482c-905c-97a54076438b","system_id":"levelo_inurba_marseille","lat":43.3236,"lon":5.36759,"is_reserved":false,"is_disabled":false,"rental_uris":{"android":"levelo://app?vid=5547a441-9653-482c-905c-97a54076438b","ios":"levelo://app?vid=5547a441-9653-482c-905c-97a54076438b"},"vehicle_type_id":"4","last_reported":1732972592,"current_range_meters":15200,"station_id":"ce4bhsh2rcd13ifvqi2g","pricing_plan_id":"cebpf4jnsgd1na2vs0mg"},{"bike_id":"c19f1075-9016-4ad7-b936-56a1b6afdac3","system_id":"levelo_inurba_marseille","lat":43.28455,"lon":5.35881,"is_reserved":false,"is_disabled":false,"rental_uris":{"android":"levelo://app?vid=c19f1075-9016-4ad7-b936-56a1b6afdac3","ios":"levelo://app?vid=c19f1075-9016-4ad7-b936-56a1b6afdac3"},"vehicle_type_id":"4","last_reported":1732972592,"current_range_meters":6000,"station_id":"ce4bhah2rcd13ifvqei0","pricing_plan_id":"cebpf4jnsgd1na2vs0mg"},{"bike_id":"113fed47-8586-4c74-a84d-599c2ea92f40","system_id":"levelo_inurba_marseille","lat":43.25118,"lon":5.40312,"is_reserved":false,"is_disabled":false,"rental_uris":{"android":"levelo://app?vid=113fed47-8586-4c74-a84d-599c2ea92f40","ios":"levelo://app?vid=113fed47-8586-4c74-a84d-599c2ea92f40"},"vehicle_type_id":"4","last_reported":1732972592,"current_range_meters":30400,"station_id":"ce4bhlh2rcd13ifvqgig","pricing_plan_id":"cebpf4jnsgd1na2vs0mg"},{"bike_id":"e855cc6d-131b-4c23-84c7-51d14a01ff38","system_id":"levelo_inurba_marseille","lat":43.337444,"lon":5.374475,"is_reserved":false,"is_disabled":false,"rental_uris":{"android":"levelo://app?vid=e855cc6d-131b-4c23-84c7-51d14a01ff38","ios":"levelo://app?vid=e855cc6d-131b-4c23-84c7-51d14a01ff38"},"vehicle_type_id":"4","last_reported":1732972592,"current_range_meters":28000,"station_id":"","pricing_plan_id":"cebpf4jnsgd1na2vs0mg"},{"bike_id":"8cdf91ca-38a8-40c2-9b1d-089e42292163","system_id":"levelo_inurba_marseille","lat":43.28401,"lon":5.34988,"is_reserved":false,"is_disabled":false,"rental_uris":{"android":"levelo://app?vid=8cdf91ca-38a8-40c2-9b1d-089e42292163","ios":"levelo://app?vid=8cdf91ca-38a8-40c2-9b1d-089e42292163"},"vehicle_type_id":"4","last_reported":1732972592,"current_range_meters":38400,"station_id":"ce4bhbh2rcd13ifvqepg","pricing_plan_id":"cebpf4jnsgd1na2vs0mg"},{"bike_id":"523dd3de-8c9e-4c0b-8c53-a6a873952bb1","system_id":"levelo_inurba_marseille","lat":43.30261,"lon":5.40083,"is_reserved":false,"is_disabled":true,"rental_uris":{"android":"levelo://app?vid=523dd3de-8c9e-4c0b-8c53-a6a873952bb1","ios":"levelo://app?vid=523dd3de-8c9e-4c0b-8c53-a6a873952bb1"},"vehicle_type_id":"4","last_reported":1732972592,"current_range_meters":0,"station_id":"ce4bgvh2rcd13ifvqcs0","pricing_plan_id":"cebpf4jnsgd1na2vs0mg"},{"bike_id":"2545b486-f597-4ecd-8508-05df785b0c49","system_id":"levelo_inurba_marseille","lat":43.33021,"lon":5.39036,"is_reserved":false,"is_disabled":false,"rental_uris":{"android":"levelo://app?vid=2545b486-f597-4ecd-8508-05df785b0c49","ios":"levelo://app?vid=2545b486-f597-4ecd-8508-05df785b0c49"},"vehicle_type_id":"4","last_reported":1732972592,"current_range_meters":38800,"station_id":"ce4bhr92rcd13ifvqhrg","pricing_plan_id":"cebpf4jnsgd1na2vs0mg"},{"bike_id":"615d3b9c-5cdd-4442-8e0c-b2ac0c975d11","system_id":"levelo_inurba_marseille","lat":43.29544,"lon":5.42294,"is_reserved":false,"is_disabled":false,"rental_uris":{"android":"levelo://app?vid=615d3b9c-5cdd-4442-8e0c-b2ac0c975d11","ios":"levelo://app?vid=615d3b9c-5cdd-4442-8e0c-b2ac0c975d11"},"vehicle_type_id":"4","last_reported":1732972592,"current_range_meters":36800,"station_id":"ce4bhph2rcd13ifvqhdg","pricing_plan_id":"cebpf4jnsgd1na2vs0mg"},{"bike_id":"6b24c5f9-0bdb-4efc-aae5-a9650fb06268","system_id":"levelo_inurba_marseille","lat":43.29935,"lon":5.36527,"is_reserved":false,"is_disabled":false,"rental_uris":{"android":"levelo://app?vid=6b24c5f9-0bdb-4efc-aae5-a9650fb06268","ios":"levelo://app?vid=6b24c5f9-0bdb-4efc-aae5-a9650fb06268"},"vehicle_type_id":"4","last_reported":1732972592,"current_range_meters":22000,"station_id":"ce4bgm92rcd13ifvqbr0","pricing_plan_id":"cebpf4jnsgd1na2vs0mg"},{"bike_id":"fa694ff9-6515-4801-9704-afb90984d6b8","system_id":"levelo_inurba_marseille","lat":43.2847,"lon":5.38426,"is_reserved":false,"is_disabled":false,"rental_uris":{"android":"levelo://app?vid=fa694ff9-6515-4801-9704-afb90984d6b8","ios":"levelo://app?vid=fa694ff9-6515-4801-9704-afb90984d6b8"},"vehicle_type_id":"4","last_reported":1732972592,"current_range_meters":6000,"station_id":"ce4bh512rcd13ifvqe3g","pricing_plan_id":"cebpf4jnsgd1na2vs0mg"},