{"last_updated":1748621589,"ttl":60,"version":"2.2","data":{"bikes":[{"bike_id":"55d42eeb-6b71-4987-a0f2-3d758b10d43e","system_id":"levelo_inurba_marseille","lat":43.33771,"lon":5.37424,"is_reserved":false,"is_disabled":true,"rental_uris":{"android":"levelo://app?vid=55d42eeb-6b71-4987-a0f2-3d758b10d43e","ios":"levelo://app?vid=55d42eeb-6b71-4987-a0f2-3d758b10d43e"},"vehicle_type_id":"4","last_reported":1748621589,"current_range_meters":0,"station_id":"","pricing_plan_id":"cebpf4jnsgd1na2vs0mg"},{"bike_id":"b7fe4621-b706-42f0-9085-4811142f84e8","system_id":"levelo_inurba_marseille","lat":43.337499,"lon":5.374469,"is_reserved":false,"is_disabled":true,"rental_uris":{"android":"levelo://app?vid=b7fe4621-b706-42f0-9085-4811142f84e8","ios":"levelo://app?vid=b7fe4621-b706-42f0-9085-4811142f84e8"},"vehicle_type_id":"4","last_reported":1748621589,"current_range_meters":0,"station_id":"","pricing_plan_id":"cebpf4jnsgd1na2vs0mg"},{"bike_id":"ad402f0f-3192-410c-afac-8cf064a40c6d","system_id":"levelo_inurba_marseille","lat":43.337444,"lon":5.374475,"is_reserved":false,"is_disabled":true,"rental_uris":{"android":"levelo://app?vid=ad402f0f-3192-410c-afac-8cf064a40c6d","ios":"levelo://app?vid=ad402f0f-3192-410c-afac-8cf064a40c6d"},"vehicle_type_id":"4","last_reported":1748621589,"current_range_meters":0,"station_id":"","pricing_plan_id":"cebpf4jnsgd1na2vs0mg"},{"bike_id":"ab9c9983-bf72-44ed-ad75-a96b382dad3c","system_id":"levelo_inurba_marseille","lat":43.21746,"lon":5.34613,"is_reserved":false,"is_disabled":true,"rental_uris":{"android":"levelo://app?vid=ab9c9983-bf72-44ed-ad75-a96b382dad3c","ios":"levelo://app?vid=ab9c9983-bf72-44ed-ad75-a96b382dad3c"},"vehicle_type_id":"4","last_reported":1748621589,"current_range_meters":0,"station_id":"","pricing_plan_id":"cebpf4jnsgd1na2vs0mg"},{"bike_id":"d90baf97-e6b3-4c48-bcd2-63bc44243da4","system_id":"levelo_inurba_marseille","lat":43.216564,"lon":5.342965,"is_reserved":false,"is_disabled":true,"rental_uris":{"android":"levelo://app?vid=d90baf97-e6b3-4c48-bcd2-63bc44243da4","ios":"levelo://app?vid=d90baf97-e6b3-4c48-bcd2-63bc44243da4"},"vehicle_type_id":"4","last_reported":1748621589,"current_range_meters":0,"station_id":"","pricing_plan_id":"cebpf4jnsgd1na2vs0mg"},{"bike_id":"80dc1064-d63f-4a22-ad21-d8abd70986c0","system_id":"levelo_inurba_marseille","lat":43.337558,"lon":5.374801,"is_reserved":false,"is_disabled":true,"rental_uris":{"android":"levelo://app?vid=80dc1064-d63f-4a22-ad21-d8abd70986c0","ios":"levelo://app?vid=80dc1064-d63f-4a22-ad21-d8abd70986c0"},"vehicle_type_id":"4","last_reported":1748621589,"current_range_meters":0,"station_id":"","pricing_plan_id":"cebpf4jnsgd1na2vs0mg"},{"bike_id":"e85986f7-78ee-45ca-a51c-ad41979e478c","system_id":"levelo_inurba_marseille","lat":43.295166,"lon":5.375107,"is_reserved":false,"is_disabled":true,"rental_uris":{"android":"levelo://app?vid=e85986f7-78ee-45ca-a51c-ad41979e478c","ios":"levelo://app?vid=e85986f7-78ee-45ca-a51c-ad41979e478c"},"vehicle_type_id":"4","last_reported":1748621589,"current_range_meters":0,"station_id":"","pricing_plan_id":"cebpf4jnsgd1na2vs0mg"},{"bike_id":"5847d8e2-f128-4762-bd3f-1cd182d8cf21","system_id":"levelo_inurba_marseille","lat":43.284821,"lon":5.351444,"is_reserved":false,"is_disabled":true,"rental_uris":{"android":"levelo://app?vid=5847d8e2-f128-4762-bd3f-1cd182d8cf21","ios":"levelo://app?vid=5847d8e2-f128-4762-bd3f-1cd182d8cf21"},"vehicle_type_id":"4","last_reported":1748621589,"current_range_meters":0,"station_id":"","pricing_plan_id":"cebpf4jnsgd1na2vs0mg"},{"bike_id":"d98db08e-67d1-4909-942e-01d840d7461c","system_id":"levelo_inurba_marseille","lat":43.337444,"lon":5.374475,"is_reserved":false,"is_disabled":true,"rental_uris":{"android":"levelo://app?vid=d98db08e-67d1-4909-942e-01d840d7461c","ios":"levelo://app?vid=d98db08e-67d1-4909-942e-01d840d7461c"},"vehicle_type_id":"4","last_reported":1748621589,"current_range_meters":0,"station_id":"","pricing_plan_id":"cebpf4jnsgd1na2vs0mg"},{"bike_id":"c7fa9215-fb0c-4fbb-999b-c625179d64d3","system_id":"levelo_inurba_marseille","lat":43.30426,"lon":5.38885,"is_reserved":false,"is_disabled":true,"rental_uris":{"android":"levelo://app?vid=c7fa9215-fb0c-4fbb-999b-c625179d64d3","ios":"levelo://app?vid=c7fa9215-fb0c-4fbb-999b-c625179d64d3"},"vehicle_type_id":"4","last_reported":1748621589,"current_range_meters":0,"station_id":"ce4bgk12rcd13ifvqbi0","pricing_plan_id":"cebpf4jnsgd1na2vs0mg"},{"bike_id":"608ef1bc-0958-4d1a-a93d-6b41498b90e3","system_id":"levelo_inurba_marseille","lat":43.30295,"lon":5.39223,"is_reserved":false,"is_disabled":true,"rental_uris":{"android":"levelo://app?vid=608ef1bc-0958-4d1a-a93d-6b41498b90e3","ios":"levelo://app?vid=608ef1bc-0958-4d1a-a93d-6b41498b90e3"},"vehicle_type_id":"4","last_reported":1748621589,"current_range_meters":0,"station_id":"ce4bgkh2rcd13ifvqbk0","pricing_plan_id":"cebpf4jnsgd1na2vs0mg"},{"bike_id":"e4c29532-f07a-4102-b0ae-61730aa1af99","system_id":"levelo_inurba_marseille","lat":43.30626,"lon":5.37217,"is_reserved":false,"is_disabled":true,"rental_uris":{"android":"levelo://app?vid=e4c29532-f07a-4102-b0ae-61730aa1af99","ios":"levelo://app?vid=e4c29532-f07a-4102-b0ae-61730aa1af99"},"vehicle_type_id":"4","last_reported":1748621589,"current_range_meters":0,"station_id":"ce4bgqh2rcd13ifvqc4g","pricing_plan_id":"cebpf4jnsgd1na2vs0mg"},{"bike_id":"de17c7b5-4c3a-4388-b4b4-df3a99219f99","system_id":"levelo_inurba_marseille","lat":43.303424,"lon":5.399769,"is_reserved":false,"is_disabled":true,"rental_uris":{"android":"levelo://app?vid=de17c7b5-4c3a-4388-b4b4-df3a99219f99","ios":"levelo://app?vid=de17c7b5-4c3a-4388-b4b4-df3a99219f99"},"vehicle_type_id":"4","last_reported":1748621589,"current_range_meters":0,"station_id":"ce4bgvh2rcd13ifvqcs0","pricing_plan_id":"cebpf4jnsgd1na2vs0mg"},{"bike_id":"8ac163d8-2331-40f3-9a10-729f959d6240","system_id":"levelo_inurba_marseille","lat":43.29411,"lon":5.38626,"is_reserved":false,"is_disabled":true,"rental_uris":{"android":"levelo://app?vid=8ac163d8-2331-40f3-9a10-729f959d6240","ios":"levelo://app?vid=8ac163d8-2331-40f3-9a10-729f959d6240"},"vehicle_type_id":"4","last_reported":1748621589,"current_range_meters":0,"station_id":"ce4bh2h2rcd13ifvqdh0","pricing_plan_id":"cebpf4jnsgd1na2vs0mg"},{"bike_id":"86fbcf8a-d2fc-40f1-b604-74a772f71500","system_id":"levelo_inurba_marseille","lat":43.29262,"lon":5.38439,"is_reserved":false,"is_disabled":true,"rental_uris":{"android":"levelo://app?vid=86fbcf8a-d2fc-40f1-b604-74a772f71500","ios":"levelo://app?vid=86fbcf8a-d2fc-40f1-b604-74a772f71500"},"vehicle_type_id":"4","last_reported":1748621589,"current_range_meters":0,"station_id":"ce4bh692rcd13ifvqea0","pricing_plan_id":"cebpf4jnsgd1na2vs0mg"},{"bike_id":"bbef147b-12e6-4522-9db5-a1ae9033dc49","system_id":"levelo_inurba_marseille","lat":43.29258,"lon":5.38422,"is_reserved":false,"is_disabled":true,"rental_uris":{"android":"levelo://app?vid=bbef147b-12e6-4522-9db5-a1ae9033dc49","ios":"levelo://app?vid=bbef147b-12e6-4522-9db5-a1ae9033dc49"},"vehicle_type_id":"4","last_reported":1748621589,"current_range_meters":0,"station_id":"ce4bh692rcd13ifvqea0","pricing_plan_id":"cebpf4jnsgd1na2vs0mg"},{"bike_id":"160c6e8a-dac6-4670-81b3-ef5cea527bf1","system_id":"levelo_inurba_marseille","lat":43.28451,"lon":5.35885,"is_reserved":false,"is_disabled":false,"rental_uris":{"android":"levelo://app?vid=160c6e8a-dac6-4670-81b3-ef5cea527bf1","ios":"levelo://app?vid=160c6e8a-dac6-4670-81b3-ef5cea527bf1"},"vehicle_type_id":"4","last_reported":1748621589,"current_range_meters":0,"station_id":"ce4bhah2rcd13ifvqei0","pricing_plan_id":"cebpf4jnsgd1na2vs0mg"},{"bike_id":"40523e5d-e1e0-4e63-918e-dd56cc3d71ea","system_id":"levelo_inurba_marseille","lat":43.28847,"lon":5.3584,"is_reserved":false,"is_disabled":true,"rental_uris":{"android":"levelo://app?vid=40523e5d-e1e0-4e63-918e-dd56cc3d71ea","ios":"levelo://app?vid=40523e5d-e1e0-4e63-918e-dd56cc3d71ea"},"vehicle_type_id":"4","last_reported":1748621589,"current_range_meters":0,"station_id":"ce4bhb12rcd13ifvqem0","pricing_plan_id":"cebpf4jnsgd1na2vs0mg"},{"bike_id":"697d9367-9253-4cd9-bf9c-fe41669285d2","system_id":"levelo_inurba_marseille","lat":43.27379,"lon":5.36261,"is_reserved":false,"is_disabled":true,"rental_uris":{"android":"levelo://app?vid=697d9367-9253-4cd9-bf9c-fe41669285d2","ios":"levelo://app?vid=697d9367-9253-4cd9-bf9c-fe41669285d2"},"vehicle_type_id":"4","last_reported":1748621589,"current_range_meters":0,"station_id":"ce4bhbh2rcd13ifvqeo0","pricing_plan_id":"cebpf4jnsgd1na2vs0mg"},{"bike_id":"d5d64d35-2fe3-4075-bbd4-4aeff60e5c8c","system_id":"levelo_inurba_marseille","lat":43.27378,"lon":5.36255,"is_reserved":false,"is_disabled":true,"rental_uris":{"android":"levelo://app?vid=d5d64d35-2fe3-4075-bbd4-4aeff60e5c8c","ios":"levelo://app?vid=d5d64d35-2fe3-4075-bbd4-4aeff60e5c8c"},"vehicle_type_id":"4","last_reported":1748621589,"current_range_meters":0,"station_id":"ce4bhbh2rcd13ifvqeo0","pricing_plan_id":"cebpf4jnsgd1na2vs0mg"},{"bike_id":"98f7962b-0d26-40d0-ae47-b14e68b167f9","system_id":"levelo_inurba_marseille","lat":43.27364,"lon":5.36242,"is_reserved":false,"is_disabled":true,"rental_uris":{"android":"levelo://app?vid=98f7962b-0d26-40d0-ae47-b14e68b167f9","ios":"levelo://app?vid=98f7962b-0d26-40d0-ae47-b14e68b167f9"},"vehicle_type_id":"4","last_reported":1748621589,"current_range_meters":0,"station_id":"ce4bhbh2rcd13ifvqeo0","pricing_plan_id":"cebpf4jnsgd1na2vs0mg"},{"bike_id":"00ac3ac3-e237-4724-a0dc-287ac990b562","system_id":"levelo_inurba_marseille","lat":43.26568,"lon":5.39036,"is_reserved":false,"is_disabled":true,"rental_uris":{"android":"levelo://app?vid=00ac3ac3-e237-4724-a0dc-287ac990b562","ios":"levelo://app?vid=00ac3ac3-e237-4724-a0dc-287ac990b562"},"vehicle_type_id":"4","last_reported":1748621589,"current_range_meters":0,"station_id":"ce4bhe12rcd13ifvqf30","pricing_plan_id":"cebpf4jnsgd1na2vs0mg"},{"bike_id":"94981061-c1c8-43bd-a967-c64bcfed8778","system_id":"levelo_inurba_marseille","lat":43.26564,"lon":5.39008,"is_reserved":false,"is_disabled":true,"rental_uris":{"android":"levelo://app?vid=94981061-c1c8-43bd-a967-c64bcfed8778","ios":"levelo://app?vid=94981061-c1c8-43bd-a967-c64bcfed8778"},"vehicle_type_id":"4","last_reported":1748621589,"current_range_meters":0,"station_id":"ce4bhe12rcd13ifvqf30","pricing_plan_id":"cebpf4jnsgd1na2vs0mg"},{"bike_id":"d937e220-b54b-4217-aef4-13f3ce33f7e9","system_id":"levelo_inurba_marseille","lat":43.26017,"lon":5.37565,"is_reserved":false,"is_disabled":true,"rental_uris":{"android":"levelo://app?vid=d937e220-b54b-4217-aef4-13f3ce33f7e9","ios":"levelo://app?vid=d937e220-b54b-4217-aef4-13f3ce33f7e9"},"vehicle_type_id":"4","last_reported":1748621589,"current_range_meters":0,"station_id":"ce4bhgh2rcd13ifvqfa0","pricing_plan_id":"cebpf4jnsgd1na2vs0mg"},{"bike_id":"ece7875e-41d2-461f-94ba-837a168893c0","system_id":"levelo_inurba_marseille","lat":43.24806,"lon":5.37455,"is_reserved":false,"is_disabled":true,"rental_uris":{"android":"levelo://app?vid=ece7875e-41d2-461f-94ba-837a168893c0","ios":"levelo://app?vid=ece7875e-41d2-461f-94ba-837a168893c0"},"vehicle_type_id":"4","last_reported":1748621589,"current_range_meters":0,"station_id":"ce4bhgh2rcd13ifvqfb0","pricing_plan_id":"cebpf4jnsgd1na2vs0mg"},{"bike_id":"d5526e3c-9548-4199-ae16-bb3edc1adff8","system_id":"levelo_inurba_marseille","lat":43.26188,"lon":5.37448,"is_reserved":false,"is_disabled":true,"rental_uris":{"android":"levelo://app?vid=d5526e3c-9548-4199-ae16-bb3edc1adff8","ios":"levelo://app?vid=d5526e3c-9548-4199-ae16-bb3edc1adff8"},"vehicle_type_id":"4","last_reported":1748621589,"current_range_meters":0,"station_id":"ce4bhgp2rcd13ifvqfc0","pricing_plan_id":"cebpf4jnsgd1na2vs0mg"},{"bike_id":"5c6a6cd9-6d2b-45ce-a8e9-37b27e7ed0b2","system_id":"levelo_inurba_marseille","lat":43.249968,"lon":5.389235,"is_reserved":false,"is_disabled":true,"rental_uris":{"android":"levelo://app?vid=5c6a6cd9-6d2b-45ce-a8e9-37b27e7ed0b2","ios":"levelo://app?vid=5c6a6cd9-6d2b-45ce-a8e9-37b27e7ed0b2"},"vehicle_type_id":"4","last_reported":1748621589,"current_range_meters":0,"station_id":"ce4bhgp2rcd13ifvqfd0","pricing_plan_id":"cebpf4jnsgd1na2vs0mg"},{"bike_id":"c64dfaad-1706-41ab-b920-c13880d72b19","system_id":"levelo_inurba_marseille","lat":43.25488,"lon":5.37647,"is_reserved":false,"is_disabled":true,"rental_uris":{"android":"levelo://app?vid=c64dfaad-1706-41ab-b920-c13880d72b19","ios":"levelo://app?vid=c64dfaad-1706-41ab-b920-c13880d72b19"},"vehicle_type_id":"4","last_reported":1748621589,"current_range_meters":0,"station_id":"ce4bhh12rcd13ifvqff0","pricing_plan_id":"cebpf4jnsgd1na2vs0mg"},{"bike_id":"308275e5-6099-4ddb-82e1-1aba680b542b","system_id":"levelo_inurba_marseille","lat":43.25577,"lon":5.38237,"is_reserved":false,"is_disabled":true,"rental_uris":{"android":"levelo://app?vid=308275e5-6099-4ddb-82e1-1aba680b542b","ios":"levelo://app?vid=308275e5-6099-4ddb-82e1-1aba680b542b"},"vehicle_type_id":"4","last_reported":1748621589,"current_range_meters":0,"station_id":"ce4bhih2rcd13ifvqfs0","pricing_plan_id":"cebpf4jnsgd1na2vs0mg"},{"bike_id":"ff65314b-c6d7-4480-ae07-5fd9dfc89f84","system_id":"levelo_inurba_marseille","lat":43.27084,"lon":5.42274,"is_reserved":false,"is_disabled":true,"rental_uris":{"android":"levelo://app?vid=ff65314b-c6d7-4480-ae07-5fd9dfc89f84","ios":"levelo://app?vid=ff65314b-c6d7-4480-ae07-5fd9dfc89f84"},"vehicle_type_id":"4","last_reported":1748621589,"current_range_meters":0,"station_id":"ce4bhk92rcd13ifvqgb0","pricing_plan_id":"cebpf4jnsgd1na2vs0mg"},{"bike_id":"b80ee325-09b2-4724-993d-4f8d3707c41c","system_id":"levelo_inurba_marseille","lat":43.25862,"lon":5.39902,"is_reserved":false,"is_disabled":true,"rental_uris":{"android":"levelo://app?vid=b80ee325-09b2-4724-993d-4f8d3707c41c","ios":"levelo://app?vid=b80ee325-09b2-4724-993d-4f8d3707c41c"},"vehicle_type_id":"4","last_reported":1748621589,"current_range_meters":0,"station_id":"ce4bhl92rcd13ifvqghg","pricing_plan_id":"cebpf4jnsgd1na2vs0mg"},{"bike_id":"8dcf7ebc-3f2c-4fb4-b020-240c23a4bdf8","system_id":"levelo_inurba_marseille","lat":43.25118,"lon":5.40316,"is_reserved":false,"is_disabled":true,"rental_uris":{"android":"levelo://app?vid=8dcf7ebc-3f2c-4fb4-b020-240c23a4bdf8","ios":"levelo://app?vid=8dcf7ebc-3f2c-4fb4-b020-240c23a4bdf8"},"vehicle_type_id":"4","last_reported":1748621589,"current_range_meters":0,"station_id":"ce4bhlh2rcd13ifvqgig","pricing_plan_id":"cebpf4jnsgd1na2vs0mg"},{"bike_id":"7cc63e9d-878c-4099-b74a-7194fd7fb94f","system_id":"levelo_inurba_marseille","lat":43.2508,"lon":5.39525,"is_reserved":false,"is_disabled":true,"rental_uris":{"android":"levelo://app?vid=7cc63e9d-878c-4099-b74a-7194fd7fb94f","ios":"levelo://app?vid=7cc63e9d-878c-4099-b74a-7194fd7fb94f"},"vehicle_type_id":"4","last_reported":1748621589,"current_range_meters":0,"station_id":"ce4bhm12rcd13ifvqgkg","pricing_plan_id":"cebpf4jnsgd1na2vs0mg"},{"bike_id":"d15385dd-e601-4661-b726-8b3c4d3a429c","system_id":"levelo_inurba_marseille","lat":43.24194,"lon":5.3973,"is_reserved":false,"is_disabled":true,"rental_uris":{"android":"levelo://app?vid=d15385dd-e601-4661-b726-8b3c4d3a429c","ios":"levelo://app?vid=d15385dd-e601-4661-b726-8b3c4d3a429c"},"vehicle_type_id":"4","last_reported":1748621589,"current_range_meters":0,"station_id":"ce4bhn12rcd13ifvqgpg","pricing_plan_id":"cebpf4jnsgd1na2vs0mg"},{"bike_id":"4e5a1d5f-5a6a-4a83-a5ff-d402a6d6435b","system_id":"levelo_inurba_marseille","lat":43.27814,"lon":5.40707,"is_reserved":false,"is_disabled":true,"rental_uris":{"android":"levelo://app?vid=4e5a1d5f-5a6a-4a83-a5ff-d402a6d6435b","ios":"levelo://app?vid=4e5a1d5f-5a6a-4a83-a5ff-d402a6d6435b"},"vehicle_type_id":"4","last_reported":1748621589,"current_range_meters":0,"station_id":"ce4bhnh2rcd13ifvqgtg","pricing_plan_id":"cebpf4jnsgd1na2vs0mg"},{"bike_id":"3fcb4ccf-d9de-47d4-84d5-7630095607f5","system_id":"levelo_inurba_marseille","lat":43.24061,"lon":5.37762,"is_reserved":false,"is_disabled":true,"rental_uris":{"android":"levelo://app?vid=3fcb4ccf-d9de-47d4-84d5-7630095607f5","ios":"levelo://app?vid=3fcb4ccf-d9de-47d4-84d5-7630095607f5"},"vehicle_type_id":"4","last_reported":1748621589,"current_range_meters":0,"station_id":"ce4bhnp2rcd13ifvqgvg","pricing_plan_id":"cebpf4jnsgd1na2vs0mg"},{"bike_id":"951b0915-17f1-4a15-8a66-c206f4816384","system_id":"levelo_inurba_marseille","lat":43.279985,"lon":5.400123,"is_reserved":false,"is_disabled":true,"rental_uris":{"android":"levelo://app?vid=951b0915-17f1-4a15-8a66-c206f4816384","ios":"levelo://app?vid=951b0915-17f1-4a15-8a66-c206f4816384"},"vehicle_type_id":"4","last_reported":1748621589,"current_range_meters":0,"station_id":"ce4bho92rcd13ifvqh4g","pricing_plan_id":"cebpf4jnsgd1na2vs0mg"},{"bike_id":"edcb0dfe-bdaa-4cf7-84cb-f40080951379","system_id":"levelo_inurba_marseille","lat":43.21755,"lon":5.34591,"is_reserved":false,"is_disabled":true,"rental_uris":{"android":"levelo://app?vid=edcb0dfe-bdaa-4cf7-84cb-f40080951379","ios":"levelo://app?vid=edcb0dfe-bdaa-4cf7-84cb-f40080951379"},"vehicle_type_id":"4","last_reported":1748621589,"current_range_meters":0,"station_id":"st_cvj6r9ubvosntc0bgbag","pricing_plan_id":"cebpf4jnsgd1na2vs0mg"},{"bike_id":"efea4ec2-4b36-4d42-bb73-d587ae47521d","system_id":"levelo_inurba_marseille","lat":43.28476,"lon":5.38427,"is_reserved":false,"is_disabled":true,"rental_uris":{"android":"levelo://app?vid=efea4ec2-4b36-4d42-bb73-d587ae47521d","ios":"levelo://app?vid=efea4ec2-4b36-4d42-bb73-d587ae47521d"},"vehicle_type_id":"4","last_reported":1748621589,"current_range_meters":400,"station_id":"ce4bh512rcd13ifvqe3g","pricing_plan_id":"cebpf4jnsgd1na2vs0mg"},{"bike_id":"0f49b8fb-93e4-4b90-866d-758f3970819c","system_id":"levelo_inurba_marseille","lat":43.28928,"lon":5.38409,"is_reserved":false,"is_disabled":true,"rental_uris":{"android":"levelo://app?vid=0f49b8fb-93e4-4b90-866d-758f3970819c","ios":"levelo://app?vid=0f49b8fb-93e4-4b90-866d-758f3970819c"},"vehicle_type_id":"4","last_reported":1748621589,"current_range_meters":400,"station_id":"ce4bh612rcd13ifvqe6g","pricing_plan_id":"cebpf4jnsgd1na2vs0mg"},{"bike_id":"55587f75-6084-49bf-892b-59426b7ba9c4","system_id":"levelo_inurba_marseille","lat":43.28666,"lon":5.36346,"is_reserved":false,"is_disabled":true,"rental_uris":{"android":"levelo://app?vid=55587f75-6084-49bf-892b-59426b7ba9c4","ios":"levelo://app?vid=55587f75-6084-49bf-892b-59426b7ba9c4"},"vehicle_type_id":"4","last_reported":1748621589,"current_range_meters":400,"station_id":"ce4bhah2rcd13ifvqej0","pricing_plan_id":"cebpf4jnsgd1na2vs0mg"},{"bike_id":"35577860-a6e2-4409-9ffd-00d7e4ad24fe","system_id":"levelo_inurba_marseille","lat":43.28857,"lon":5.35852,"is_reserved":false,"is_disabled":true,"rental_uris":{"android":"levelo://app?vid=35577860-a6e2-4409-9ffd-00d7e4ad24fe","ios":"levelo://app?vid=35577860-a6e2-4409-9ffd-00d7e4ad24fe"},"vehicle_type_id":"4","last_reported":1748621589,"current_range_meters":400,"station_id":"ce4bhb12rcd13ifvqem0","pricing_plan_id":"cebpf4jnsgd1na2vs0mg"},{"bike_id":"0bb32688-9494-450c-a081-f78e19a993f0","system_id":"levelo_inurba_marseille","lat":43.27375,"lon":5.36257,"is_reserved":false,"is_disabled":true,"rental_uris":{"android":"levelo://app?vid=0bb32688-9494-450c-a081-f78e19a993f0","ios":"levelo://app?vid=0bb32688-9494-450c-a081-f78e19a993f0"},"vehicle_type_id":"4","last_reported":1748621589,"current_range_meters":400,"station_id":"ce4bhbh2rcd13ifvqeo0","pricing_plan_id":"cebpf4jnsgd1na2vs0mg"},{"bike_id":"52a104da-7582-46ae-ab7d-01d36f27567f","system_id":"levelo_inurba_marseille","lat":43.28467,"lon":5.35877,"is_reserved":false,"is_disabled":false,"rental_uris":{"android":"levelo://app?vid=52a104da-7582-46ae-ab7d-01d36f27567f","ios":"levelo://app?vid=52a104da-7582-46ae-ab7d-01d36f27567f"},"vehicle_type_id":"4","last_reported":1748621589,"current_range_meters":800,"station_id":"ce4bhah2rcd13ifvqei0","pricing_plan_id":"cebpf4jnsgd1na2vs0mg"},{"bike_id":"a84664aa-8bc7-4f36-a655-c1c1980bb677","system_id":"levelo_inurba_marseille","lat":43.27384,"lon":5.3626,"is_reserved":false,"is_disabled":true,"rental_uris":{"android":"levelo://app?vid=a84664aa-8bc7-4f36-a655-c1c1980bb677","ios":"levelo://app?vid=a84664aa-8bc7-4f36-a655-c1c1980bb677"},"vehicle_type_id":"4","last_reported":1748621589,"current_range_meters":800,"station_id":"ce4bhbh2rcd13ifvqeo0","pricing_plan_id":"cebpf4jnsgd1na2vs0mg"},{"bike_id":"da87276f-c072-4f57-b3f0-2f2e6d09fcb0","system_id":"levelo_inurba_marseille","lat":43.24661,"lon":5.38146,"is_reserved":false,"is_disabled":true,"rental_uris":{"android":"levelo://app?vid=da87276f-c072-4f57-b3f0-2f2e6d09fcb0","ios":"levelo://app?vid=da87276f-c072-4f57-b3f0-2f2e6d09fcb0"},"vehicle_type_id":"4","last_reported":1748621589,"current_range_meters":800,"station_id":"ce4bhih2rcd13ifvqfr0","pricing_plan_id":"cebpf4jnsgd1na2vs0mg"},{"bike_id":"f95007fb-3e5b-41e7-93f9-8fca69e0d136","system_id":"levelo_inurba_marseille","lat":43.25578,"lon":5.38237,"is_reserved":false,"is_disabled":true,"rental_uris":{"android":"levelo://app?vid=f95007fb-3e5b-41e7-93f9-8fca69e0d136","ios":"levelo://app?vid=f95007fb-3e5b-41e7-93f9-8fca69e0d136"},"vehicle_type_id":"4","last_reported":1748621589,"current_range_meters":800,"station_id":"ce4bhih2rcd13ifvqfs0","pricing_plan_id":"cebpf4jnsgd1na2vs0mg"},{"bike_id":"b3c0b5b0-50fc-40a0-82eb-a0b956341159","system_id":"levelo_inurba_marseille","lat":43.28371,"lon":5.38639,"is_reserved":false,"is_disabled":true,"rental_uris":{"android":"levelo://app?vid=b3c0b5b0-50fc-40a0-82eb-a0b956341159","ios":"levelo://app?vid=b3c0b5b0-50fc-40a0-82eb-a0b956341159"},"vehicle_type_id":"4","last_reported":1748621589,"current_range_meters":1200,"station_id":"ce4bh492rcd13ifvqdvg","pricing_plan_id":"cebpf4jnsgd1na2vs0mg"},{"bike_id":"427b5bf9-c0a7-4af4-8acf-1c57fae2be3a","system_id":"levelo_inurba_marseille","lat":43.27372,"lon":5.36261,"is_reserved":false,"is_disabled":true,"rental_uris":{"android":"levelo://app?vid=427b5bf9-c0a7-4af4-8acf-1c57fae2be3a","ios":"levelo://app?vid=427b5bf9-c0a7-4af4-8acf-1c57fae2be3a"},"vehicle_type_id":"4","last_reported":1748621589,"current_range_meters":1200,"station_id":"ce4bhbh2rcd13ifvqeo0","pricing_plan_id":"cebpf4jnsgd1na2vs0mg"},{"bike_id":"d5e08583-116d-4b39-9084-710d026779c3","system_id":"levelo_inurba_marseille","lat":43.265653,"lon":5.39012,"is_reserved":false,"is_disabled":true,"rental_uris":{"android":"levelo://app?vid=d5e08583-116d-4b39-9084-710d026779c3","ios":"levelo://app?vid=d5e08583-116d-4b39-9084-710d026779c3"},"vehicle_type_id":"4","last_reported":1748621589,"current_range_meters":1200,"station_id":"ce4bhe12rcd13ifvqf30","pricing_plan_id":"cebpf4jnsgd1na2vs0mg"},{"bike_id":"abe7b19b-6b0f-4806-a1ce-1a013be7e668","system_id":"levelo_inurba_marseille","lat":43.26193,"lon":5.37428,"is_reserved":false,"is_disabled":true,"rental_uris":{"android":"levelo://app?vid=abe7b19b-6b0f-4806-a1ce-1a013be7e668","ios":"levelo://app?vid=abe7b19b-6b0f-4806-a1ce-1a013be7e668"},"vehicle_type_id":"4","last_reported":1748621589,"current_range_meters":1200,"station_id":"ce4bhgp2rcd13ifvqfc0","pricing_plan_id":"cebpf4jnsgd1na2vs0mg"},{"bike_id":"8aeb9575-ddf2-4b6b-9f23-f30bd0b8f9f7","system_id":"levelo_inurba_marseille","lat":43.2757,"lon":5.38433,"is_reserved":false,"is_disabled":true,"rental_uris":{"android":"levelo://app?vid=8aeb9575-ddf2-4b6b-9f23-f30bd0b8f9f7","ios":"levelo://app?vid=8aeb9575-ddf2-4b6b-9f23-f30bd0b8f9f7"},"vehicle_type_id":"4","last_reported":1748621589,"current_range_meters":1200,"station_id":"ce4bhh92rcd13ifvqfi0","pricing_plan_id":"cebpf4jnsgd1na2vs0mg"},{"bike_id":"a4fc0f00-cc8f-4878-8d8a-462138d32572","system_id":"levelo_inurba_marseille","lat":43.27205,"lon":5.39193,"is_reserved":false,"is_disabled":true,"rental_uris":{"android":"levelo://app?vid=a4fc0f00-cc8f-4878-8d8a-462138d32572","ios":"levelo://app?vid=a4fc0f00-cc8f-4878-8d8a-462138d32572"},"vehicle_type_id":"4","last_reported":1748621589,"current_range_meters":1200,"station_id":"ce4bhhp2rcd13ifvqfm0","pricing_plan_id":"cebpf4jnsgd1na2vs0mg"},{"bike_id":"028b93d7-85a5-4119-8f00-6efb1c34269a","system_id":"levelo_inurba_marseille","lat":43.27945,"lon":5.41036,"is_reserved":false,"is_disabled":true,"rental_uris":{"android":"levelo://app?vid=028b93d7-85a5-4119-8f00-6efb1c34269a","ios":"levelo://app?vid=028b93d7-85a5-4119-8f00-6efb1c34269a"},"vehicle_type_id":"4","last_reported":1748621589,"current_range_meters":1200,"station_id":"ce4bhnp2rcd13ifvqh0g","pricing_plan_id":"cebpf4jnsgd1na2vs0mg"},{"bike_id":"06d48b06-aa5d-423e-b2a1-bb920e183412","system_id":"levelo_inurba_marseille","lat":43.29555,"lon":5.4229,"is_reserved":false,"is_disabled":true,"rental_uris":{"android":"levelo://app?vid=06d48b06-aa5d-423e-b2a1-bb920e183412","ios":"levelo://app?vid=06d48b06-aa5d-423e-b2a1-bb920e183412"},"vehicle_type_id":"4","last_reported":1748621589,"current_range_meters":1200,"station_id":"ce4bhph2rcd13ifvqhdg","pricing_plan_id":"cebpf4jnsgd1na2vs0mg"},{"bike_id":"9d2d75de-6f79-4c98-a794-66bda20110b0","system_id":"levelo_inurba_marseille","lat":43.23062,"lon":5.35494,"is_reserved":false,"is_disabled":true,"rental_uris":{"android":"levelo://app?vid=9d2d75de-6f79-4c98-a794-66bda20110b0","ios":"levelo://app?vid=9d2d75de-6f79-4c98-a794-66bda20110b0"},"vehicle_type_id":"4","last_reported":1748621589,"current_range_meters":1200,"station_id":"cpo3342slgdg3j2ifvpg","pricing_plan_id":"cebpf4jnsgd1na2vs0mg"},{"bike_id":"24204c04-5d8c-4ac1-bc38-3e364dee5b7a","system_id":"levelo_inurba_marseille","lat":43.30246,"lon":5.41311,"is_reserved":false,"is_disabled":true,"rental_uris":{"android":"levelo://app?vid=24204c04-5d8c-4ac1-bc38-3e364dee5b7a","ios":"levelo://app?vid=24204c04-5d8c-4ac1-bc38-3e364dee5b7a"},"vehicle_type_id":"4","last_reported":1748621589,"current_range_meters":1600,"station_id":"","pricing_plan_id":"cebpf4jnsgd1na2vs0mg"},{"bike_id":"77e04ab8-b44f-40dc-908e-e5838eb58075","system_id":"levelo_inurba_marseille","lat":43.235462,"lon":5.36047,"is_reserved":false,"is_disabled":true,"rental_uris":{"android":"levelo://app?vid=77e04ab8-b44f-40dc-908e-e5838eb58075","ios":"levelo://app?vid=77e04ab8-b44f-40dc-908e-e5838eb58075"},"vehicle_type_id":"4","last_reported":1748621589,"current_range_meters":1600,"station_id":"","pricing_plan_id":"cebpf4jnsgd1na2vs0mg"},{"bike_id":"ba82873c-7eeb-43a1-a457-cb6bc3f375de","system_id":"levelo_inurba_marseille","lat":43.26549,"lon":5.37284,"is_reserved":false,"is_disabled":true,"rental_uris":{"android":"levelo://app?vid=ba82873c-7eeb-43a1-a457-cb6bc3f375de","ios":"levelo://app?vid=ba82873c-7eeb-43a1-a457-cb6bc3f375de"},"vehicle_type_id":"4","last_reported":1748621589,"current_range_meters":1600,"station_id":"ce4bhg12rcd13ifvqf70","pricing_plan_id":"cebpf4jnsgd1na2vs0mg"},{"bike_id":"4a1c981b-1440-4f57-92b9-22af10057fc6","system_id":"levelo_inurba_marseille","lat":43.27202,"lon":5.39179,"is_reserved":false,"is_disabled":true,"rental_uris":{"android":"levelo://app?vid=4a1c981b-1440-4f57-92b9-22af10057fc6","ios":"levelo://app?vid=4a1c981b-1440-4f57-92b9-22af10057fc6"},"vehicle_type_id":"4","last_reported":1748621589,"current_range_meters":1600,"station_id":"ce4bhhp2rcd13ifvqfm0","pricing_plan_id":"cebpf4jnsgd1na2vs0mg"},{"bike_id":"3ebf6793-0f51-472b-af14-85efaaae15ca","system_id":"levelo_inurba_marseille","lat":43.316854,"lon":5.404724,"is_reserved":false,"is_disabled":true,"rental_uris":{"android":"levelo://app?vid=3ebf6793-0f51-472b-af14-85efaaae15ca","ios":"levelo://app?vid=3ebf6793-0f51-472b-af14-85efaaae15ca"},"vehicle_type_id":"4","last_reported":1748621589,"current_range_meters":2000,"station_id":"ce4bh012rcd13ifvqd00","pricing_plan_id":"cebpf4jnsgd1na2vs0mg"},{"bike_id":"64e68698-f23c-4bda-b30f-c98ffeb49034","system_id":"levelo_inurba_marseille","lat":43.2941,"lon":5.38621,"is_reserved":false,"is_disabled":true,"rental_uris":{"android":"levelo://app?vid=64e68698-f23c-4bda-b30f-c98ffeb49034","ios":"levelo://app?vid=64e68698-f23c-4bda-b30f-c98ffeb49034"},"vehicle_type_id":"4","last_reported":1748621589,"current_range_meters":2000,"station_id":"ce4bh2h2rcd13ifvqdh0","pricing_plan_id":"cebpf4jnsgd1na2vs0mg"},{"bike_id":"4e651cdc-df22-45d5-9c80-b84e3cb59916","system_id":"levelo_inurba_marseille","lat":43.29094,"lon":5.38122,"is_reserved":false,"is_disabled":true,"rental_uris":{"android":"levelo://app?vid=4e651cdc-df22-45d5-9c80-b84e3cb59916","ios":"levelo://app?vid=4e651cdc-df22-45d5-9c80-b84e3cb59916"},"vehicle_type_id":"4","last_reported":1748621589,"current_range_meters":2000,"station_id":"ce4bh512rcd13ifvqe2g","pricing_plan_id":"cebpf4jnsgd1na2vs0mg"},{"bike_id":"99bea850-267d-415f-83f5-bfbae87d6880","system_id":"levelo_inurba_marseille","lat":43.28729,"lon":5.3795,"is_reserved":false,"is_disabled":true,"rental_uris":{"android":"levelo://app?vid=99bea850-267d-415f-83f5-bfbae87d6880","ios":"levelo://app?vid=99bea850-267d-415f-83f5-bfbae87d6880"},"vehicle_type_id":"4","last_reported":1748621589,"current_range_meters":2000,"station_id":"ce4bh9p2rcd13ifvqec0","pricing_plan_id":"cebpf4jnsgd1na2vs0mg"},{"bike_id":"6922752f-2200-43da-8d5a-cf49afb55d92","system_id":"levelo_inurba_marseille","lat":43.26954,"lon":5.38632,"is_reserved":false,"is_disabled":true,"rental_uris":{"android":"levelo://app?vid=6922752f-2200-43da-8d5a-cf49afb55d92","ios":"levelo://app?vid=6922752f-2200-43da-8d5a-cf49afb55d92"},"vehicle_type_id":"4","last_reported":1748621589,"current_range_meters":2000,"station_id":"ce4bhh92rcd13ifvqfh0","pricing_plan_id":"cebpf4jnsgd1na2vs0mg"},{"bike_id":"82000894-18cf-4dfd-bfcf-3b7b0baba697","system_id":"levelo_inurba_marseille","lat":43.25576,"lon":5.38238,"is_reserved":false,"is_disabled":true,"rental_uris":{"android":"levelo://app?vid=82000894-18cf-4dfd-bfcf-3b7b0baba697","ios":"levelo://app?vid=82000894-18cf-4dfd-bfcf-3b7b0baba697"},"vehicle_type_id":"4","last_reported":1748621589,"current_range_meters":2000,"station_id":"ce4bhih2rcd13ifvqfs0","pricing_plan_id":"cebpf4jnsgd1na2vs0mg"},{"bike_id":"c583cc07-6878-478c-93ba-ee04d045cb45","system_id":"levelo_inurba_marseille","lat":43.26209,"lon":5.37925,"is_reserved":false,"is_disabled":true,"rental_uris":{"android":"levelo://app?vid=c583cc07-6878-478c-93ba-ee04d045cb45","ios":"levelo://app?vid=c583cc07-6878-478c-93ba-ee04d045cb45"},"vehicle_type_id":"4","last_reported":1748621589,"current_range_meters":2000,"station_id":"ce4bhjp2rcd13ifvqg90","pricing_plan_id":"cebpf4jnsgd1na2vs0mg"},{"bike_id":"8e8fa9c6-9c65-4f40-afb8-b6f4e7788d7b","system_id":"levelo_inurba_marseille","lat":43.25093,"lon":5.40331,"is_reserved":false,"is_disabled":true,"rental_uris":{"android":"levelo://app?vid=8e8fa9c6-9c65-4f40-afb8-b6f4e7788d7b","ios":"levelo://app?vid=8e8fa9c6-9c65-4f40-afb8-b6f4e7788d7b"},"vehicle_type_id":"4","last_reported":1748621589,"current_range_meters":2000,"station_id":"ce4bhlh2rcd13ifvqgig","pricing_plan_id":"cebpf4jnsgd1na2vs0mg"},{"bike_id":"0c18295c-0e9f-48b4-99b0-dbe3f5177b33","system_id":"levelo_inurba_marseille","lat":43.32529,"lon":5.41466,"is_reserved":false,"is_disabled":true,"rental_uris":{"android":"levelo://app?vid=0c18295c-0e9f-48b4-99b0-dbe3f5177b33","ios":"levelo://app?vid=0c18295c-0e9f-48b4-99b0-dbe3f5177b33"},"vehicle_type_id":"4","last_reported":1748621589,"current_range_meters":2000,"station_id":"ce4bhq12rcd13ifvqhhg","pricing_plan_id":"cebpf4jnsgd1na2vs0mg"},{"bike_id":"5278b434-6c84-40e9-b526-dac962bdf780","system_id":"levelo_inurba_marseille","lat":43.23528,"lon":5.35716,"is_reserved":false,"is_disabled":false,"rental_uris":{"android":"levelo://app?vid=5278b434-6c84-40e9-b526-dac962bdf780","ios":"levelo://app?vid=5278b434-6c84-40e9-b526-dac962bdf780"},"vehicle_type_id":"4","last_reported":1748621589,"current_range_meters":2800,"station_id":"","pricing_plan_id":"cebpf4jnsgd1na2vs0mg"},{"bike_id":"2f650bb1-6027-4191-83d2-16315820a0a7","system_id":"levelo_inurba_marseille","lat":43.30026,"lon":5.37335,"is_reserved":false,"is_disabled":false,"rental_uris":{"android":"levelo://app?vid=2f650bb1-6027-4191-83d2-16315820a0a7","ios":"levelo://app?vid=2f650bb1-6027-4191-83d2-16315820a0a7"},"vehicle_type_id":"4","last_reported":1748621589,"current_range_meters":2800,"station_id":"","pricing_plan_id":"cebpf4jnsgd1na2vs0mg"},{"bike_id":"502a02e5-cd36-4163-b397-1801706183c8","system_id":"levelo_inurba_marseille","lat":43.28254,"lon":5.35071,"is_reserved":false,"is_disabled":false,"rental_uris":{"android":"levelo://app?vid=502a02e5-cd36-4163-b397-1801706183c8","ios":"levelo://app?vid=502a02e5-cd36-4163-b397-1801706183c8"},"vehicle_type_id":"4","last_reported":1748621589,"current_range_meters":2800,"station_id":"ce4bgjp2rcd13ifvqbh0","pricing_plan_id":"cebpf4jnsgd1na2vs0mg"},{"bike_id":"86e3f44d-a3b0-49d3-84f8-03c7ca8a61ab","system_id":"levelo_inurba_marseille","lat":43.29199,"lon":5.35793,"is_reserved":false,"is_disabled":false,"rental_uris":{"android":"levelo://app?vid=86e3f44d-a3b0-49d3-84f8-03c7ca8a61ab","ios":"levelo://app?vid=86e3f44d-a3b0-49d3-84f8-03c7ca8a61ab"},"vehicle_type_id":"4","last_reported":1748621589,"current_range_meters":2800,"station_id":"ce4bhb12rcd13ifvqel0","pricing_plan_id":"cebpf4jnsgd1na2vs0mg"},{"bike_id":"70eace77-77e0-4d09-89e0-8cd9390545d2","system_id":"levelo_inurba_marseille","lat":43.292045,"lon":5.357994,"is_reserved":false,"is_disabled":true,"rental_uris":{"android":"levelo://app?vid=70eace77-77e0-4d09-89e0-8cd9390545d2","ios":"levelo://app?vid=70eace77-77e0-4d09-89e0-8cd9390545d2"},"vehicle_type_id":"4","last_reported":1748621589,"current_range_meters":2800,"station_id":"ce4bhb12rcd13ifvqel0","pricing_plan_id":"cebpf4jnsgd1na2vs0mg"},{"bike_id":"00c41287-535e-44b9-8cd1-3138d2c731e9","system_id":"levelo_inurba_marseille","lat":43.26554,"lon":5.37293,"is_reserved":false,"is_disabled":true,"rental_uris":{"android":"levelo://app?vid=00c41287-535e-44b9-8cd1-3138d2c731e9","ios":"levelo://app?vid=00c41287-535e-44b9-8cd1-3138d2c731e9"},"vehicle_type_id":"4","last_reported":1748621589,"current_range_meters":2800,"station_id":"ce4bhg12rcd13ifvqf70","pricing_plan_id":"cebpf4jnsgd1na2vs0mg"},{"bike_id":"c1117fd7-65f6-4efd-8a4c-c93f54155199","system_id":"levelo_inurba_marseille","lat":43.25502,"lon":5.37651,"is_reserved":false,"is_disabled":false,"rental_uris":{"android":"levelo://app?vid=c1117fd7-65f6-4efd-8a4c-c93f54155199","ios":"levelo://app?vid=c1117fd7-65f6-4efd-8a4c-c93f54155199"},"vehicle_type_id":"4","last_reported":1748621589,"current_range_meters":2800,"station_id":"ce4bhh12rcd13ifvqff0","pricing_plan_id":"cebpf4jnsgd1na2vs0mg"},{"bike_id":"9d9c3d4b-ef4a-4859-821c-0e6178123bfe","system_id":"levelo_inurba_marseille","lat":43.24069,"lon":5.37763,"is_reserved":false,"is_disabled":false,"rental_uris":{"android":"levelo://app?vid=9d9c3d4b-ef4a-4859-821c-0e6178123bfe","ios":"levelo://app?vid=9d9c3d4b-ef4a-4859-821c-0e6178123bfe"},"vehicle_type_id":"4","last_reported":1748621589,"current_range_meters":2800,"station_id":"ce4bhnp2rcd13ifvqgvg","pricing_plan_id":"cebpf4jnsgd1na2vs0mg"},{"bike_id":"fc1b7bf0-f442-4645-900b-306033de1ed8","system_id":"levelo_inurba_marseille","lat":43.33023,"lon":5.39016,"is_reserved":false,"is_disabled":false,"rental_uris":{"android":"levelo://app?vid=fc1b7bf0-f442-4645-900b-306033de1ed8","ios":"levelo://app?vid=fc1b7bf0-f442-4645-900b-306033de1ed8"},"vehicle_type_id":"4","last_reported":1748621589,"current_range_meters":2800,"station_id":"ce4bhr92rcd13ifvqhrg","pricing_plan_id":"cebpf4jnsgd1na2vs0mg"},{"bike_id":"24817266-8565-496c-8f8c-0baeda32fceb","system_id":"levelo_inurba_marseille","lat":43.30213,"lon":5.39466,"is_reserved":false,"is_disabled":false,"rental_uris":{"android":"levelo://app?vid=24817266-8565-496c-8f8c-0baeda32fceb","ios":"levelo://app?vid=24817266-8565-496c-8f8c-0baeda32fceb"},"vehicle_type_id":"4","last_reported":1748621589,"current_range_meters":3600,"station_id":"ce4bh0p2rcd13ifvqd70","pricing_plan_id":"cebpf4jnsgd1na2vs0mg"},{"bike_id":"a6831372-ad9b-4790-84f7-80d83da1f977","system_id":"levelo_inurba_marseille","lat":43.29077,"lon":5.37157,"is_reserved":false,"is_disabled":false,"rental_uris":{"android":"levelo://app?vid=a6831372-ad9b-4790-84f7-80d83da1f977","ios":"levelo://app?vid=a6831372-ad9b-4790-84f7-80d83da1f977"},"vehicle_type_id":"4","last_reported":1748621589,"current_range_meters":3600,"station_id":"ce4bh5p2rcd13ifvqe4g","pricing_plan_id":"cebpf4jnsgd1na2vs0mg"},{"bike_id":"7c8659f2-1789-4f05-a117-befdc25f5de5","system_id":"levelo_inurba_marseille","lat":43.28835,"lon":5.35846,"is_reserved":false,"is_disabled":false,"rental_uris":{"android":"levelo://app?vid=7c8659f2-1789-4f05-a117-befdc25f5de5","ios":"levelo://app?vid=7c8659f2-1789-4f05-a117-befdc25f5de5"},"vehicle_type_id":"4","last_reported":1748621589,"current_range_meters":3600,"station_id":"ce4bhb12rcd13ifvqem0","pricing_plan_id":"cebpf4jnsgd1na2vs0mg"},{"bike_id":"1179d243-78fa-433a-95a8-add0c6aed9b1","system_id":"levelo_inurba_marseille","lat":43.2558,"lon":5.3823,"is_reserved":false,"is_disabled":false,"rental_uris":{"android":"levelo://app?vid=1179d243-78fa-433a-95a8-add0c6aed9b1","ios":"levelo://app?vid=1179d243-78fa-433a-95a8-add0c6aed9b1"},"vehicle_type_id":"4","last_reported":1748621589,"current_range_meters":3600,"station_id":"ce4bhih2rcd13ifvqfs0","pricing_plan_id":"cebpf4jnsgd1na2vs0mg"},{"bike_id":"2e0e97a1-bfc1-49b2-9b74-fb9015c0df07","system_id":"levelo_inurba_marseille","lat":43.28719,"lon":5.36067,"is_reserved":false,"is_disabled":false,"rental_uris":{"android":"levelo://app?vid=2e0e97a1-bfc1-49b2-9b74-fb9015c0df07","ios":"levelo://app?vid=2e0e97a1-bfc1-49b2-9b74-fb9015c0df07"},"vehicle_type_id":"4","last_reported":1748621589,"current_range_meters":3600,"station_id":"cki0cbj6b192h4jlfktg","pricing_plan_id":"cebpf4jnsgd1na2vs0mg"},{"bike_id":"cd50d113-9ba4-4fb0-8625-9806a37f638a","system_id":"levelo_inurba_marseille","lat":43.26558,"lon":5.39067,"is_reserved":false,"is_disabled":false,"rental_uris":{"android":"levelo://app?vid=cd50d113-9ba4-4fb0-8625-9806a37f638a","ios":"levelo://app?vid=cd50d113-9ba4-4fb0-8625-9806a37f638a"},"vehicle_type_id":"4","last_reported":1748621589,"current_range_meters":4000,"station_id":"","pricing_plan_id":"cebpf4jnsgd1na2vs0mg"},{"bike_id":"cb875942-68bf-4bec-bd76-20acacb52840","system_id":"levelo_inurba_marseille","lat":43.30257,"lon":5.40079,"is_reserved":false,"is_disabled":false,"rental_uris":{"android":"levelo://app?vid=cb875942-68bf-4bec-bd76-20acacb52840","ios":"levelo://app?vid=cb875942-68bf-4bec-bd76-20acacb52840"},"vehicle_type_id":"4","last_reported":1748621589,"current_range_meters":4000,"station_id":"ce4bgvh2rcd13ifvqcs0","pricing_plan_id":"cebpf4jnsgd1na2vs0mg"},{"bike_id":"07c0f702-69bc-4cf6-983d-ec04e9c50ec0","system_id":"levelo_inurba_marseille","lat":43.257223,"lon":5.411068,"is_reserved":false,"is_disabled":false,"rental_uris":{"android":"levelo://app?vid=07c0f702-69bc-4cf6-983d-ec04e9c50ec0","ios":"levelo://app?vid=07c0f702-69bc-4cf6-983d-ec04e9c50ec0"},"vehicle_type_id":"4","last_reported":1748621589,"current_range_meters":4000,"station_id":"ce4bhkp2rcd13ifvqgd0","pricing_plan_id":"cebpf4jnsgd1na2vs0mg"},{"bike_id":"7c6e48ab-b87e-4e89-9339-a1a2992e6797","system_id":"levelo_inurba_marseille","lat":43.261144,"lon":5.41464,"is_reserved":false,"is_disabled":false,"rental_uris":{"android":"levelo://app?vid=7c6e48ab-b87e-4e89-9339-a1a2992e6797","ios":"levelo://app?vid=7c6e48ab-b87e-4e89-9339-a1a2992e6797"},"vehicle_type_id":"4","last_reported":1748621589,"current_range_meters":4400,"station_id":"","pricing_plan_id":"cebpf4jnsgd1na2vs0mg"},{"bike_id":"1e5e31e9-2ac0-4f19-9c06-6a88ef346cab","system_id":"levelo_inurba_marseille","lat":43.27383,"lon":5.36261,"is_reserved":false,"is_disabled":false,"rental_uris":{"android":"levelo://app?vid=1e5e31e9-2ac0-4f19-9c06-6a88ef346cab","ios":"levelo://app?vid=1e5e31e9-2ac0-4f19-9c06-6a88ef346cab"},"vehicle_type_id":"4","last_reported":1748621589,"current_range_meters":4400,"station_id":"ce4bhbh2rcd13ifvqeo0","pricing_plan_id":"cebpf4jnsgd1na2vs0mg"},{"bike_id":"9c577ffd-c617-42a2-81e0-c523deb63b21","system_id":"levelo_inurba_marseille","lat":43.24784,"lon":5.37479,"is_reserved":false,"is_disabled":false,"rental_uris":{"android":"levelo://app?vid=9c577ffd-c617-42a2-81e0-c523deb63b21","ios":"levelo://app?vid=9c577ffd-c617-42a2-81e0-c523deb63b21"},"vehicle_type_id":"4","last_reported":1748621589,"current_range_meters":4400,"station_id":"ce4bhgh2rcd13ifvqfb0","pricing_plan_id":"cebpf4jnsgd1na2vs0mg"},{"bike_id":"3c55e5e4-f8d6-4181-8abc-94ae8e080ee3","system_id":"levelo_inurba_marseille","lat":43.27341,"lon":5.38977,"is_reserved":false,"is_disabled":false,"rental_uris":{"android":"levelo://app?vid=3c55e5e4-f8d6-4181-8abc-94ae8e080ee3","ios":"levelo://app?vid=3c55e5e4-f8d6-4181-8abc-94ae8e080ee3"},"vehicle_type_id":"4","last_reported":1748621589,"current_range_meters":4400,"station_id":"ce4bhgp2rcd13ifvqfe0","pricing_plan_id":"cebpf4jnsgd1na2vs0mg"},{"bike_id":"93222ebe-437b-49ba-b05e-139fa3159770","system_id":"levelo_inurba_marseille","lat":43.228863,"lon":5.35352,"is_reserved":false,"is_disabled":false,"rental_uris":{"android":"levelo://app?vid=93222ebe-437b-49ba-b05e-139fa3159770","ios":"levelo://app?vid=93222ebe-437b-49ba-b05e-139fa3159770"},"vehicle_type_id":"4","last_reported":1748621589,"current_range_meters":4400,"station_id":"cpo3532slgdg3j2ikp40","pricing_plan_id":"cebpf4jnsgd1na2vs0mg"},{"bike_id":"697d924a-ea53-411b-88e3-ed7542c4178d","system_id":"levelo_inurba_marseille","lat":43.31507,"lon":5.40295,"is_reserved":false,"is_disabled":false,"rental_uris":{"android":"levelo://app?vid=697d924a-ea53-411b-88e3-ed7542c4178d","ios":"levelo://app?vid=697d924a-ea53-411b-88e3-ed7542c4178d"},"vehicle_type_id":"4","last_reported":1748621589,"current_range_meters":4800,"station_id":"","pricing_plan_id":"cebpf4jnsgd1na2vs0mg"},{"bike_id":"f643d6ce-9596-419e-b71d-198dba66fb04","system_id":"levelo_inurba_marseille","lat":43.27431,"lon":5.36199,"is_reserved":false,"is_disabled":false,"rental_uris":{"android":"levelo://app?vid=f643d6ce-9596-419e-b71d-198dba66fb04","ios":"levelo://app?vid=f643d6ce-9596-419e-b71d-198dba66fb04"},"vehicle_type_id":"4","last_reported":1748621589,"current_range_meters":4800,"station_id":"","pricing_plan_id":"cebpf4jnsgd1na2vs0mg"},{"bike_id":"eb6f7b70-b554-4f0b-9071-c468db80e368","system_id":"levelo_inurba_marseille","lat":43.23987,"lon":5.36284,"is_reserved":false,"is_disabled":false,"rental_uris":{"android":"levelo://app?vid=eb6f7b70-b554-4f0b-9071-c468db80e368","ios":"levelo://app?vid=eb6f7b70-b554-4f0b-9071-c468db80e368"},"vehicle_type_id":"4","last_reported":1748621589,"current_range_meters":4800,"station_id":"","pricing_plan_id":"cebpf4jnsgd1na2vs0mg"},{"bike_id":"2bb87d97-ce73-45c5-a392-96f9578c3ba0","system_id":"levelo_inurba_marseille","lat":43.26035,"lon":5.3753,"is_reserved":false,"is_disabled":false,"rental_uris":{"android":"levelo://app?vid=2bb87d97-ce73-45c5-a392-96f9578c3ba0","ios":"levelo://app?vid=2bb87d97-ce73-45c5-a392-96f9578c3ba0"},"vehicle_type_id":"4","last_reported":1748621589,"current_range_meters":4800,"station_id":"ce4bhgh2rcd13ifvqfa0","pricing_plan_id":"cebpf4jnsgd1na2vs0mg"},{"bike_id":"862d9d17-05aa-4912-8f1b-38aa7657ac3c","system_id":"levelo_inurba_marseille","lat":43.26198,"lon":5.37446,"is_reserved":false,"is_disabled":false,"rental_uris":{"android":"levelo://app?vid=862d9d17-05aa-4912-8f1b-38aa7657ac3c","ios":"levelo://app?vid=862d9d17-05aa-4912-8f1b-38aa7657ac3c"},"vehicle_type_id":"4","last_reported":1748621589,"current_range_meters":4800,"station_id":"ce4bhgp2rcd13ifvqfc0","pricing_plan_id":"cebpf4jnsgd1na2vs0mg"},{"bike_id":"778d99e4-e8d6-4928-8c51-45c06329e247","system_id":"levelo_inurba_marseille","lat":43.26951,"lon":5.38629,"is_reserved":false,"is_disabled":false,"rental_uris":{"android":"levelo://app?vid=778d99e4-e8d6-4928-8c51-45c06329e247","ios":"levelo://app?vid=778d99e4-e8d6-4928-8c51-45c06329e247"},"vehicle_type_id":"4","last_reported":1748621589,"current_range_meters":4800,"station_id":"ce4bhh92rcd13ifvqfh0","pricing_plan_id":"cebpf4jnsgd1na2vs0mg"},{"bike_id":"db0bb8ed-d675-4f50-abfb-254495dc7f86","system_id":"levelo_inurba_marseille","lat":43.26198,"lon":5.37915,"is_reserved":false,"is_disabled":false,"rental_uris":{"android":"levelo://app?vid=db0bb8ed-d675-4f50-abfb-254495dc7f86","ios":"levelo://app?vid=db0bb8ed-d675-4f50-abfb-254495dc7f86"},"vehicle_type_id":"4","last_reported":1748621589,"current_range_meters":4800,"station_id":"ce4bhjp2rcd13ifvqg90","pricing_plan_id":"cebpf4jnsgd1na2vs0mg"},{"bike_id":"a9a2a326-ad17-41ff-9dfe-649b2d8fa0fe","system_id":"levelo_inurba_marseille","lat":43.27811,"lon":5.40713,"is_reserved":false,"is_disabled":false,"rental_uris":{"android":"levelo://app?vid=a9a2a326-ad17-41ff-9dfe-649b2d8fa0fe","ios":"levelo://app?vid=a9a2a326-ad17-41ff-9dfe-649b2d8fa0fe"},"vehicle_type_id":"4","last_reported":1748621589,"current_range_meters":4800,"station_id":"ce4bhnh2rcd13ifvqgtg","pricing_plan_id":"cebpf4jnsgd1na2vs0mg"},{"bike_id":"0adeb23d-a9b6-4955-97af-17a3779cbdf3","system_id":"levelo_inurba_marseille","lat":43.28414,"lon":5.37503,"is_reserved":false,"is_disabled":false,"rental_uris":{"android":"levelo://app?vid=0adeb23d-a9b6-4955-97af-17a3779cbdf3","ios":"levelo://app?vid=0adeb23d-a9b6-4955-97af-17a3779cbdf3"},"vehicle_type_id":"4","last_reported":1748621589,"current_range_meters":5600,"station_id":"ce4bh412rcd13ifvqds0","pricing_plan_id":"cebpf4jnsgd1na2vs0mg"},{"bike_id":"048d6067-b8d6-4bec-9db2-fe93e9b30773","system_id":"levelo_inurba_marseille","lat":43.27416,"lon":5.39417,"is_reserved":false,"is_disabled":false,"rental_uris":{"android":"levelo://app?vid=048d6067-b8d6-4bec-9db2-fe93e9b30773","ios":"levelo://app?vid=048d6067-b8d6-4bec-9db2-fe93e9b30773"},"vehicle_type_id":"4","last_reported":1748621589,"current_range_meters":5600,"station_id":"ce4bhdp2rcd13ifvqf20","pricing_plan_id":"cebpf4jnsgd1na2vs0mg"},{"bike_id":"34070ccb-d4bd-49ce-b38b-3218e207f1fc","system_id":"levelo_inurba_marseille","lat":43.259085,"lon":5.376005,"is_reserved":false,"is_disabled":false,"rental_uris":{"android":"levelo://app?vid=34070ccb-d4bd-49ce-b38b-3218e207f1fc","ios":"levelo://app?vid=34070ccb-d4bd-49ce-b38b-3218e207f1fc"},"vehicle_type_id":"4","last_reported":1748621589,"current_range_meters":5600,"station_id":"ce4bhr12rcd13ifvqhqg","pricing_plan_id":"cebpf4jnsgd1na2vs0mg"},{"bike_id":"96771d0a-30f0-400e-b71e-3738c3461e8b","system_id":"levelo_inurba_marseille","lat":43.29353,"lon":5.37843,"is_reserved":false,"is_disabled":false,"rental_uris":{"android":"levelo://app?vid=96771d0a-30f0-400e-b71e-3738c3461e8b","ios":"levelo://app?vid=96771d0a-30f0-400e-b71e-3738c3461e8b"},"vehicle_type_id":"4","last_reported":1748621589,"current_range_meters":6000,"station_id":"ce4bgjh2rcd13ifvqbf0","pricing_plan_id":"cebpf4jnsgd1na2vs0mg"},{"bike_id":"299bc464-0062-40b9-b8fd-94e53cb49a69","system_id":"levelo_inurba_marseille","lat":43.29641,"lon":5.36229,"is_reserved":false,"is_disabled":false,"rental_uris":{"android":"levelo://app?vid=299bc464-0062-40b9-b8fd-94e53cb49a69","ios":"levelo://app?vid=299bc464-0062-40b9-b8fd-94e53cb49a69"},"vehicle_type_id":"4","last_reported":1748621589,"current_range_meters":6400,"station_id":"","pricing_plan_id":"cebpf4jnsgd1na2vs0mg"},{"bike_id":"45224019-7853-4fb2-b962-a452ff7fe2fe","system_id":"levelo_inurba_marseille","lat":43.29016,"lon":5.38633,"is_reserved":false,"is_disabled":false,"rental_uris":{"android":"levelo://app?vid=45224019-7853-4fb2-b962-a452ff7fe2fe","ios":"levelo://app?vid=45224019-7853-4fb2-b962-a452ff7fe2fe"},"vehicle_type_id":"4","last_reported":1748621589,"current_range_meters":6400,"station_id":"ce4bh4p2rcd13ifvqe0g","pricing_plan_id":"cebpf4jnsgd1na2vs0mg"},{"bike_id":"e92b5b99-61c8-432d-8017-cd6c7e2c33ef","system_id":"levelo_inurba_marseille","lat":43.26199,"lon":5.37926,"is_reserved":false,"is_disabled":false,"rental_uris":{"android":"levelo://app?vid=e92b5b99-61c8-432d-8017-cd6c7e2c33ef","ios":"levelo://app?vid=e92b5b99-61c8-432d-8017-cd6c7e2c33ef"},"vehicle_type_id":"4","last_reported":1748621589,"current_range_meters":6400,"station_id":"ce4bhjp2rcd13ifvqg90","pricing_plan_id":"cebpf4jnsgd1na2vs0mg"},{"bike_id":"8d9f69c4-ca71-4dc5-bc9b-be08d92bb43f","system_id":"levelo_inurba_marseille","lat":43.28716,"lon":5.36089,"is_reserved":false,"is_disabled":false,"rental_uris":{"android":"levelo://app?vid=8d9f69c4-ca71-4dc5-bc9b-be08d92bb43f","ios":"levelo://app?vid=8d9f69c4-ca71-4dc5-bc9b-be08d92bb43f"},"vehicle_type_id":"4","last_reported":1748621589,"current_range_meters":6400,"station_id":"cki0cbj6b192h4jlfktg","pricing_plan_id":"cebpf4jnsgd1na2vs0mg"},{"bike_id":"42dca157-bdb0-4361-8022-7979135f94aa","system_id":"levelo_inurba_marseille","lat":43.28575,"lon":5.36557,"is_reserved":false,"is_disabled":false,"rental_uris":{"android":"levelo://app?vid=42dca157-bdb0-4361-8022-7979135f94aa","ios":"levelo://app?vid=42dca157-bdb0-4361-8022-7979135f94aa"},"vehicle_type_id":"4","last_reported":1748621589,"current_range_meters":6800,"station_id":"","pricing_plan_id":"cebpf4jnsgd1na2vs0mg"},{"bike_id":"abfe4519-e2a3-4aea-a6a9-016dba2ff093","system_id":"levelo_inurba_marseille","lat":43.26553,"lon":5.372852,"is_reserved":false,"is_disabled":false,"rental_uris":{"android":"levelo://app?vid=abfe4519-e2a3-4aea-a6a9-016dba2ff093","ios":"levelo://app?vid=abfe4519-e2a3-4aea-a6a9-016dba2ff093"},"vehicle_type_id":"4","last_reported":1748621589,"current_range_meters":6800,"station_id":"ce4bhg12rcd13ifvqf70","pricing_plan_id":"cebpf4jnsgd1na2vs0mg"},{"bike_id":"9e59012e-ba0f-4124-96a7-b85c010a9005","system_id":"levelo_inurba_marseille","lat":43.28135,"lon":5.42637,"is_reserved":false,"is_disabled":false,"rental_uris":{"android":"levelo://app?vid=9e59012e-ba0f-4124-96a7-b85c010a9005","ios":"levelo://app?vid=9e59012e-ba0f-4124-96a7-b85c010a9005"},"vehicle_type_id":"4","last_reported":1748621589,"current_range_meters":6800,"station_id":"ce4bhnh2rcd13ifvqgug","pricing_plan_id":"cebpf4jnsgd1na2vs0mg"},{"bike_id":"e64321e7-b652-4c95-b5a4-13e08dd9f511","system_id":"levelo_inurba_marseille","lat":43.286938,"lon":5.373938,"is_reserved":false,"is_disabled":false,"rental_uris":{"android":"levelo://app?vid=e64321e7-b652-4c95-b5a4-13e08dd9f511","ios":"levelo://app?vid=e64321e7-b652-4c95-b5a4-13e08dd9f511"},"vehicle_type_id":"4","last_reported":1748621589,"current_range_meters":7200,"station_id":"ce4bh3p2rcd13ifvqdq0","pricing_plan_id":"cebpf4jnsgd1na2vs0mg"},{"bike_id":"4a6a8eac-a389-44a8-9d30-ec9a2aa7aebe","system_id":"levelo_inurba_marseille","lat":43.28938,"lon":5.36637,"is_reserved":false,"is_disabled":false,"rental_uris":{"android":"levelo://app?vid=4a6a8eac-a389-44a8-9d30-ec9a2aa7aebe","ios":"levelo://app?vid=4a6a8eac-a389-44a8-9d30-ec9a2aa7aebe"},"vehicle_type_id":"4","last_reported":1748621589,"current_range_meters":7200,"station_id":"ce4bhap2rcd13ifvqek0","pricing_plan_id":"cebpf4jnsgd1na2vs0mg"},{"bike_id":"3c8a5c1e-a25f-4975-8d3e-585e822506f1","system_id":"levelo_inurba_marseille","lat":43.24815,"lon":5.37445,"is_reserved":false,"is_disabled":false,"rental_uris":{"android":"levelo://app?vid=3c8a5c1e-a25f-4975-8d3e-585e822506f1","ios":"levelo://app?vid=3c8a5c1e-a25f-4975-8d3e-585e822506f1"},"vehicle_type_id":"4","last_reported":1748621589,"current_range_meters":7200,"station_id":"ce4bhgh2rcd13ifvqfb0","pricing_plan_id":"cebpf4jnsgd1na2vs0mg"},{"bike_id":"7d33cdf8-b4b5-4be6-9369-934c88f13ed5","system_id":"levelo_inurba_marseille","lat":43.23186,"lon":5.39983,"is_reserved":false,"is_disabled":false,"rental_uris":{"android":"levelo://app?vid=7d33cdf8-b4b5-4be6-9369-934c88f13ed5","ios":"levelo://app?vid=7d33cdf8-b4b5-4be6-9369-934c88f13ed5"},"vehicle_type_id":"4","last_reported":1748621589,"current_range_meters":7200,"station_id":"ce4bhn12rcd13ifvqgqg","pricing_plan_id":"cebpf4jnsgd1na2vs0mg"},{"bike_id":"988cd8e2-5d8a-4e93-b7bd-9a69b4d368f4","system_id":"levelo_inurba_marseille","lat":43.31079,"lon":5.42432,"is_reserved":false,"is_disabled":false,"rental_uris":{"android":"levelo://app?vid=988cd8e2-5d8a-4e93-b7bd-9a69b4d368f4","ios":"levelo://app?vid=988cd8e2-5d8a-4e93-b7bd-9a69b4d368f4"},"vehicle_type_id":"4","last_reported":1748621589,"current_range_meters":7200,"station_id":"ce4bhp92rcd13ifvqhag","pricing_plan_id":"cebpf4jnsgd1na2vs0mg"},{"bike_id":"3de4564a-3783-495e-9b3a-5010cefa86c6","system_id":"levelo_inurba_marseille","lat":43.29891,"lon":5.4367,"is_reserved":false,"is_disabled":false,"rental_uris":{"android":"levelo://app?vid=3de4564a-3783-495e-9b3a-5010cefa86c6","ios":"levelo://app?vid=3de4564a-3783-495e-9b3a-5010cefa86c6"},"vehicle_type_id":"4","last_reported":1748621589,"current_range_meters":7200,"station_id":"ce4bhpp2rcd13ifvqhfg","pricing_plan_id":"cebpf4jnsgd1na2vs0mg"},{"bike_id":"80636d8b-805f-4980-87ce-733bce60c199","system_id":"levelo_inurba_marseille","lat":43.23185,"lon":5.35559,"is_reserved":false,"is_disabled":false,"rental_uris":{"android":"levelo://app?vid=80636d8b-805f-4980-87ce-733bce60c199","ios":"levelo://app?vid=80636d8b-805f-4980-87ce-733bce60c199"},"vehicle_type_id":"4","last_reported":1748621589,"current_range_meters":7200,"station_id":"ce4bhu92rcd13ifvqi70","pricing_plan_id":"cebpf4jnsgd1na2vs0mg"},{"bike_id":"b92c26d2-71d8-431d-93c9-0aa8d4044b04","system_id":"levelo_inurba_marseille","lat":43.30141,"lon":5.38787,"is_reserved":false,"is_disabled":false,"rental_uris":{"android":"levelo://app?vid=b92c26d2-71d8-431d-93c9-0aa8d4044b04","ios":"levelo://app?vid=b92c26d2-71d8-431d-93c9-0aa8d4044b04"},"vehicle_type_id":"4","last_reported":1748621589,"current_range_meters":8000,"station_id":"ce4bghh2rcd13ifvqb60","pricing_plan_id":"cebpf4jnsgd1na2vs0mg"},{"bike_id":"fc6c7916-eed9-4a1e-bc1e-2dffa696af84","system_id":"levelo_inurba_marseille","lat":43.30651,"lon":5.40089,"is_reserved":false,"is_disabled":false,"rental_uris":{"android":"levelo://app?vid=fc6c7916-eed9-4a1e-bc1e-2dffa696af84","ios":"levelo://app?vid=fc6c7916-eed9-4a1e-bc1e-2dffa696af84"},"vehicle_type_id":"4","last_reported":1748621589,"current_range_meters":8000,"station_id":"ce4bh112rcd13ifvqda0","pricing_plan_id":"cebpf4jnsgd1na2vs0mg"},{"bike_id":"c35ce06f-b8b6-438a-9e7c-a0da7a1d90fd","system_id":"levelo_inurba_marseille","lat":43.284576,"lon":5.358871,"is_reserved":false,"is_disabled":false,"rental_uris":{"android":"levelo://app?vid=c35ce06f-b8b6-438a-9e7c-a0da7a1d90fd","ios":"levelo://app?vid=c35ce06f-b8b6-438a-9e7c-a0da7a1d90fd"},"vehicle_type_id":"4","last_reported":1748621589,"current_range_meters":8000,"station_id":"ce4bhah2rcd13ifvqei0","pricing_plan_id":"cebpf4jnsgd1na2vs0mg"},{"bike_id":"1a079db0-7f93-4ae5-9008-99a99afeacc5","system_id":"levelo_inurba_marseille","lat":43.27557,"lon":5.38434,"is_reserved":false,"is_disabled":false,"rental_uris":{"android":"levelo://app?vid=1a079db0-7f93-4ae5-9008-99a99afeacc5","ios":"levelo://app?vid=1a079db0-7f93-4ae5-9008-99a99afeacc5"},"vehicle_type_id":"4","last_reported":1748621589,"current_range_meters":8000,"station_id":"ce4bhh92rcd13ifvqfi0","pricing_plan_id":"cebpf4jnsgd1na2vs0mg"},{"bike_id":"9ab12d75-78ed-4726-bee3-7935311ea5e3","system_id":"levelo_inurba_marseille","lat":43.27675,"lon":5.38868,"is_reserved":false,"is_disabled":false,"rental_uris":{"android":"levelo://app?vid=9ab12d75-78ed-4726-bee3-7935311ea5e3","ios":"levelo://app?vid=9ab12d75-78ed-4726-bee3-7935311ea5e3"},"vehicle_type_id":"4","last_reported":1748621589,"current_range_meters":8000,"station_id":"ce4bhi12rcd13ifvqfo0","pricing_plan_id":"cebpf4jnsgd1na2vs0mg"},{"bike_id":"3ce1fbaf-fde3-43d8-b575-826e4a3e528b","system_id":"levelo_inurba_marseille","lat":43.26223,"lon":5.4045,"is_reserved":false,"is_disabled":false,"rental_uris":{"android":"levelo://app?vid=3ce1fbaf-fde3-43d8-b575-826e4a3e528b","ios":"levelo://app?vid=3ce1fbaf-fde3-43d8-b575-826e4a3e528b"},"vehicle_type_id":"4","last_reported":1748621589,"current_range_meters":8000,"station_id":"ce4bhmh2rcd13ifvqgmg","pricing_plan_id":"cebpf4jnsgd1na2vs0mg"},{"bike_id":"21f934d2-0f6e-4f7b-b5ed-00eb8063c6cf","system_id":"levelo_inurba_marseille","lat":43.24072,"lon":5.37762,"is_reserved":false,"is_disabled":false,"rental_uris":{"android":"levelo://app?vid=21f934d2-0f6e-4f7b-b5ed-00eb8063c6cf","ios":"levelo://app?vid=21f934d2-0f6e-4f7b-b5ed-00eb8063c6cf"},"vehicle_type_id":"4","last_reported":1748621589,"current_range_meters":8000,"station_id":"ce4bhnp2rcd13ifvqgvg","pricing_plan_id":"cebpf4jnsgd1na2vs0mg"},{"bike_id":"ae3b3dce-af27-4783-b46b-aceacebb4963","system_id":"levelo_inurba_marseille","lat":43.23049,"lon":5.35519,"is_reserved":false,"is_disabled":false,"rental_uris":{"android":"levelo://app?vid=ae3b3dce-af27-4783-b46b-aceacebb4963","ios":"levelo://app?vid=ae3b3dce-af27-4783-b46b-aceacebb4963"},"vehicle_type_id":"4","last_reported":1748621589,"current_range_meters":8000,"station_id":"cpo3342slgdg3j2ifvpg","pricing_plan_id":"cebpf4jnsgd1na2vs0mg"},{"bike_id":"da5921cd-e75b-4ce7-b109-06c28f720590","system_id":"levelo_inurba_marseille","lat":43.28741,"lon":5.36148,"is_reserved":false,"is_disabled":false,"rental_uris":{"android":"levelo://app?vid=da5921cd-e75b-4ce7-b109-06c28f720590","ios":"levelo://app?vid=da5921cd-e75b-4ce7-b109-06c28f720590"},"vehicle_type_id":"4","last_reported":1748621589,"current_range_meters":8400,"station_id":"","pricing_plan_id":"cebpf4jnsgd1na2vs0mg"},{"bike_id":"00f77637-c960-45d0-b516-a2f6a0285858","system_id":"levelo_inurba_marseille","lat":43.29764,"lon":5.38559,"is_reserved":false,"is_disabled":false,"rental_uris":{"android":"levelo://app?vid=00f77637-c960-45d0-b516-a2f6a0285858","ios":"levelo://app?vid=00f77637-c960-45d0-b516-a2f6a0285858"},"vehicle_type_id":"4","last_reported":1748621589,"current_range_meters":8400,"station_id":"","pricing_plan_id":"cebpf4jnsgd1na2vs0mg"},{"bike_id":"f5733814-9732-4748-bcc9-3b2fac8e1564","system_id":"levelo_inurba_marseille","lat":43.31256,"lon":5.37829,"is_reserved":false,"is_disabled":false,"rental_uris":{"android":"levelo://app?vid=f5733814-9732-4748-bcc9-3b2fac8e1564","ios":"levelo://app?vid=f5733814-9732-4748-bcc9-3b2fac8e1564"},"vehicle_type_id":"4","last_reported":1748621589,"current_range_meters":8400,"station_id":"","pricing_plan_id":"cebpf4jnsgd1na2vs0mg"},{"bike_id":"b19e5e4a-768e-46cf-ac63-8dbc62db37c3","system_id":"levelo_inurba_marseille","lat":43.28922,"lon":5.38406,"is_reserved":false,"is_disabled":false,"rental_uris":{"android":"levelo://app?vid=b19e5e4a-768e-46cf-ac63-8dbc62db37c3","ios":"levelo://app?vid=b19e5e4a-768e-46cf-ac63-8dbc62db37c3"},"vehicle_type_id":"4","last_reported":1748621589,"current_range_meters":8400,"station_id":"ce4bh612rcd13ifvqe6g","pricing_plan_id":"cebpf4jnsgd1na2vs0mg"},{"bike_id":"3dd70c98-8d81-4397-8fd3-cb3222568563","system_id":"levelo_inurba_marseille","lat":43.26567,"lon":5.39008,"is_reserved":false,"is_disabled":false,"rental_uris":{"android":"levelo://app?vid=3dd70c98-8d81-4397-8fd3-cb3222568563","ios":"levelo://app?vid=3dd70c98-8d81-4397-8fd3-cb3222568563"},"vehicle_type_id":"4","last_reported":1748621589,"current_range_meters":8400,"station_id":"ce4bhe12rcd13ifvqf30","pricing_plan_id":"cebpf4jnsgd1na2vs0mg"},{"bike_id":"a426f99b-d34a-41bf-bbda-59f7dfd6939b","system_id":"levelo_inurba_marseille","lat":43.255796,"lon":5.382262,"is_reserved":false,"is_disabled":false,"rental_uris":{"android":"levelo://app?vid=a426f99b-d34a-41bf-bbda-59f7dfd6939b","ios":"levelo://app?vid=a426f99b-d34a-41bf-bbda-59f7dfd6939b"},"vehicle_type_id":"4","last_reported":1748621589,"current_range_meters":8400,"station_id":"ce501612rcd8frsf0b60","pricing_plan_id":"cebpf4jnsgd1na2vs0mg"},{"bike_id":"589d2674-f00d-4f0b-ba06-62403023c413","system_id":"levelo_inurba_marseille","lat":43.24174,"lon":5.36393,"is_reserved":false,"is_disabled":false,"rental_uris":{"android":"levelo://app?vid=589d2674-f00d-4f0b-ba06-62403023c413","ios":"levelo://app?vid=589d2674-f00d-4f0b-ba06-62403023c413"},"vehicle_type_id":"4","last_reported":1748621589,"current_range_meters":8400,"station_id":"cpo36qri1sfpv3e86is0","pricing_plan_id":"cebpf4jnsgd1na2vs0mg"},{"bike_id":"e73e8a83-f3b0-499a-ad91-215aaf09b471","system_id":"levelo_inurba_marseille","lat":43.30643,"lon":5.401035,"is_reserved":false,"is_disabled":false,"rental_uris":{"android":"levelo://app?vid=e73e8a83-f3b0-499a-ad91-215aaf09b471","ios":"levelo://app?vid=e73e8a83-f3b0-499a-ad91-215aaf09b471"},"vehicle_type_id":"4","last_reported":1748621589,"current_range_meters":8800,"station_id":"ce4bh112rcd13ifvqda0","pricing_plan_id":"cebpf4jnsgd1na2vs0mg"},{"bike_id":"25cf73bc-b339-46d9-8457-64171def09b0","system_id":"levelo_inurba_marseille","lat":43.29173,"lon":5.37149,"is_reserved":false,"is_disabled":false,"rental_uris":{"android":"levelo://app?vid=25cf73bc-b339-46d9-8457-64171def09b0","ios":"levelo://app?vid=25cf73bc-b339-46d9-8457-64171def09b0"},"vehicle_type_id":"4","last_reported":1748621589,"current_range_meters":8800,"station_id":"ce4bha92rcd13ifvqeh0","pricing_plan_id":"cebpf4jnsgd1na2vs0mg"},{"bike_id":"4258291f-daf6-4adf-952f-cf27f3ce12b6","system_id":"levelo_inurba_marseille","lat":43.26212,"lon":5.37434,"is_reserved":false,"is_disabled":false,"rental_uris":{"android":"levelo://app?vid=4258291f-daf6-4adf-952f-cf27f3ce12b6","ios":"levelo://app?vid=4258291f-daf6-4adf-952f-cf27f3ce12b6"},"vehicle_type_id":"4","last_reported":1748621589,"current_range_meters":8800,"station_id":"ce4bhgp2rcd13ifvqfc0","pricing_plan_id":"cebpf4jnsgd1na2vs0mg"},{"bike_id":"1ce1a775-5c21-4f89-b81a-5456c9f91e91","system_id":"levelo_inurba_marseille","lat":43.23962,"lon":5.3663,"is_reserved":false,"is_disabled":false,"rental_uris":{"android":"levelo://app?vid=1ce1a775-5c21-4f89-b81a-5456c9f91e91","ios":"levelo://app?vid=1ce1a775-5c21-4f89-b81a-5456c9f91e91"},"vehicle_type_id":"4","last_reported":1748621589,"current_range_meters":8800,"station_id":"ce4bhi12rcd13ifvqfp0","pricing_plan_id":"cebpf4jnsgd1na2vs0mg"},{"bike_id":"2713c96d-722a-4073-b8ae-967b44ca3777","system_id":"levelo_inurba_marseille","lat":43.27044,"lon":5.40261,"is_reserved":false,"is_disabled":false,"rental_uris":{"android":"levelo://app?vid=2713c96d-722a-4073-b8ae-967b44ca3777","ios":"levelo://app?vid=2713c96d-722a-4073-b8ae-967b44ca3777"},"vehicle_type_id":"4","last_reported":1748621589,"current_range_meters":8800,"station_id":"ce4bhk92rcd13ifvqgc0","pricing_plan_id":"cebpf4jnsgd1na2vs0mg"},{"bike_id":"57b7071b-3519-4523-abf6-35f38aa35e60","system_id":"levelo_inurba_marseille","lat":43.27805,"lon":5.40716,"is_reserved":false,"is_disabled":false,"rental_uris":{"android":"levelo://app?vid=57b7071b-3519-4523-abf6-35f38aa35e60","ios":"levelo://app?vid=57b7071b-3519-4523-abf6-35f38aa35e60"},"vehicle_type_id":"4","last_reported":1748621589,"current_range_meters":8800,"station_id":"ce4bhnh2rcd13ifvqgtg","pricing_plan_id":"cebpf4jnsgd1na2vs0mg"},{"bike_id":"8d0b7f84-93ec-40e9-83c5-feea7d2b6577","system_id":"levelo_inurba_marseille","lat":43.27811,"lon":5.40715,"is_reserved":false,"is_disabled":false,"rental_uris":{"android":"levelo://app?vid=8d0b7f84-93ec-40e9-83c5-feea7d2b6577","ios":"levelo://app?vid=8d0b7f84-93ec-40e9-83c5-feea7d2b6577"},"vehicle_type_id":"4","last_reported":1748621589,"current_range_meters":8800,"station_id":"ce4bhnh2rcd13ifvqgtg","pricing_plan_id":"cebpf4jnsgd1na2vs0mg"},{"bike_id":"30fa473a-6d3c-466c-b635-2fb6f66726d2","system_id":"levelo_inurba_marseille","lat":43.27809,"lon":5.40716,"is_reserved":false,"is_disabled":false,"rental_uris":{"android":"levelo://app?vid=30fa473a-6d3c-466c-b635-2fb6f66726d2","ios":"levelo://app?vid=30fa473a-6d3c-466c-b635-2fb6f66726d2"},"vehicle_type_id":"4","last_reported":1748621589,"current_range_meters":8800,"station_id":"ce4bhnh2rcd13ifvqgtg","pricing_plan_id":"cebpf4jnsgd1na2vs0mg"},{"bike_id":"c666405f-462c-40b6-aad2-05c3e84c9054","system_id":"levelo_inurba_marseille","lat":43.241741,"lon":5.363999,"is_reserved":false,"is_disabled":false,"rental_uris":{"android":"levelo://app?vid=c666405f-462c-40b6-aad2-05c3e84c9054","ios":"levelo://app?vid=c666405f-462c-40b6-aad2-05c3e84c9054"},"vehicle_type_id":"4","last_reported":1748621589,"current_range_meters":8800,"station_id":"cpo36qri1sfpv3e86is0","pricing_plan_id":"cebpf4jnsgd1na2vs0mg"},{"bike_id":"e9cda520-c6f4-465d-ad7f-8c059b3dc45a","system_id":"levelo_inurba_marseille","lat":43.313967,"lon":5.383993,"is_reserved":false,"is_disabled":false,"rental_uris":{"android":"levelo://app?vid=e9cda520-c6f4-465d-ad7f-8c059b3dc45a","ios":"levelo://app?vid=e9cda520-c6f4-465d-ad7f-8c059b3dc45a"},"vehicle_type_id":"4","last_reported":1748621589,"current_range_meters":9200,"station_id":"","pricing_plan_id":"cebpf4jnsgd1na2vs0mg"},{"bike_id":"607ff01e-c7ba-434a-b556-d39c725fe8ee","system_id":"levelo_inurba_marseille","lat":43.267087,"lon":5.38326,"is_reserved":false,"is_disabled":false,"rental_uris":{"android":"levelo://app?vid=607ff01e-c7ba-434a-b556-d39c725fe8ee","ios":"levelo://app?vid=607ff01e-c7ba-434a-b556-d39c725fe8ee"},"vehicle_type_id":"4","last_reported":1748621589,"current_range_meters":9200,"station_id":"","pricing_plan_id":"cebpf4jnsgd1na2vs0mg"},{"bike_id":"aa26db5f-7f2e-466b-a570-affaaefffd83","system_id":"levelo_inurba_marseille","lat":43.30297,"lon":5.39221,"is_reserved":false,"is_disabled":false,"rental_uris":{"android":"levelo://app?vid=aa26db5f-7f2e-466b-a570-affaaefffd83","ios":"levelo://app?vid=aa26db5f-7f2e-466b-a570-affaaefffd83"},"vehicle_type_id":"4","last_reported":1748621589,"current_range_meters":9200,"station_id":"ce4bgkh2rcd13ifvqbk0","pricing_plan_id":"cebpf4jnsgd1na2vs0mg"},{"bike_id":"717f4583-ef6a-44de-9503-7904eb71c0cd","system_id":"levelo_inurba_marseille","lat":43.31161,"lon":5.38728,"is_reserved":false,"is_disabled":false,"rental_uris":{"android":"levelo://app?vid=717f4583-ef6a-44de-9503-7904eb71c0cd","ios":"levelo://app?vid=717f4583-ef6a-44de-9503-7904eb71c0cd"},"vehicle_type_id":"4","last_reported":1748621589,"current_range_meters":9200,"station_id":"ce4bgv12rcd13ifvqcp0","pricing_plan_id":"cebpf4jnsgd1na2vs0mg"},{"bike_id":"7d31619a-d89e-4baa-8281-3650a8d60c76","system_id":"levelo_inurba_marseille","lat":43.2872,"lon":5.37948,"is_reserved":false,"is_disabled":false,"rental_uris":{"android":"levelo://app?vid=7d31619a-d89e-4baa-8281-3650a8d60c76","ios":"levelo://app?vid=7d31619a-d89e-4baa-8281-3650a8d60c76"},"vehicle_type_id":"4","last_reported":1748621589,"current_range_meters":9200,"station_id":"ce4bh9p2rcd13ifvqec0","pricing_plan_id":"cebpf4jnsgd1na2vs0mg"},{"bike_id":"86c8277b-c4b2-47e2-8421-0ff6f4d8119d","system_id":"levelo_inurba_marseille","lat":43.26017,"lon":5.37549,"is_reserved":false,"is_disabled":false,"rental_uris":{"android":"levelo://app?vid=86c8277b-c4b2-47e2-8421-0ff6f4d8119d","ios":"levelo://app?vid=86c8277b-c4b2-47e2-8421-0ff6f4d8119d"},"vehicle_type_id":"4","last_reported":1748621589,"current_range_meters":9200,"station_id":"ce4bhgh2rcd13ifvqfa0","pricing_plan_id":"cebpf4jnsgd1na2vs0mg"},{"bike_id":"a0221989-fe0f-409e-be58-3f1d68e00c85","system_id":"levelo_inurba_marseille","lat":43.24382,"lon":5.37054,"is_reserved":false,"is_disabled":false,"rental_uris":{"android":"levelo://app?vid=a0221989-fe0f-409e-be58-3f1d68e00c85","ios":"levelo://app?vid=a0221989-fe0f-409e-be58-3f1d68e00c85"},"vehicle_type_id":"4","last_reported":1748621589,"current_range_meters":9200,"station_id":"ce4bhhh2rcd13ifvqfk0","pricing_plan_id":"cebpf4jnsgd1na2vs0mg"},{"bike_id":"edd13a5d-6005-420a-9793-1eb46fa96865","system_id":"levelo_inurba_marseille","lat":43.27181,"lon":5.40995,"is_reserved":false,"is_disabled":false,"rental_uris":{"android":"levelo://app?vid=edd13a5d-6005-420a-9793-1eb46fa96865","ios":"levelo://app?vid=edd13a5d-6005-420a-9793-1eb46fa96865"},"vehicle_type_id":"4","last_reported":1748621589,"current_range_meters":9200,"station_id":"ce4bhl12rcd13ifvqgf0","pricing_plan_id":"cebpf4jnsgd1na2vs0mg"},{"bike_id":"17775ddb-de45-4517-9c59-c10c0867e430","system_id":"levelo_inurba_marseille","lat":43.22943,"lon":5.35375,"is_reserved":false,"is_disabled":false,"rental_uris":{"android":"levelo://app?vid=17775ddb-de45-4517-9c59-c10c0867e430","ios":"levelo://app?vid=17775ddb-de45-4517-9c59-c10c0867e430"},"vehicle_type_id":"4","last_reported":1748621589,"current_range_meters":9200,"station_id":"cpo3532slgdg3j2ikp40","pricing_plan_id":"cebpf4jnsgd1na2vs0mg"},{"bike_id":"a807c8dd-75ce-4f49-b322-50ddd08ec8d0","system_id":"levelo_inurba_marseille","lat":43.347428,"lon":5.373157,"is_reserved":false,"is_disabled":false,"rental_uris":{"android":"levelo://app?vid=a807c8dd-75ce-4f49-b322-50ddd08ec8d0","ios":"levelo://app?vid=a807c8dd-75ce-4f49-b322-50ddd08ec8d0"},"vehicle_type_id":"4","last_reported":1748621589,"current_range_meters":9600,"station_id":"","pricing_plan_id":"cebpf4jnsgd1na2vs0mg"},{"bike_id":"bb0a42a0-7027-49ab-93c4-b1dfc700d3d3","system_id":"levelo_inurba_marseille","lat":43.29168,"lon":5.37152,"is_reserved":false,"is_disabled":false,"rental_uris":{"android":"levelo://app?vid=bb0a42a0-7027-49ab-93c4-b1dfc700d3d3","ios":"levelo://app?vid=bb0a42a0-7027-49ab-93c4-b1dfc700d3d3"},"vehicle_type_id":"4","last_reported":1748621589,"current_range_meters":9600,"station_id":"ce4bha92rcd13ifvqeh0","pricing_plan_id":"cebpf4jnsgd1na2vs0mg"},{"bike_id":"e6fd2ca1-d968-4e6d-950a-3de70295f052","system_id":"levelo_inurba_marseille","lat":43.28438,"lon":5.35003,"is_reserved":false,"is_disabled":false,"rental_uris":{"android":"levelo://app?vid=e6fd2ca1-d968-4e6d-950a-3de70295f052","ios":"levelo://app?vid=e6fd2ca1-d968-4e6d-950a-3de70295f052"},"vehicle_type_id":"4","last_reported":1748621589,"current_range_meters":9600,"station_id":"ce4bhbh2rcd13ifvqepg","pricing_plan_id":"cebpf4jnsgd1na2vs0mg"},{"bike_id":"15059740-9eec-4a62-9f3d-9db09662395f","system_id":"levelo_inurba_marseille","lat":43.2656,"lon":5.37284,"is_reserved":false,"is_disabled":false,"rental_uris":{"android":"levelo://app?vid=15059740-9eec-4a62-9f3d-9db09662395f","ios":"levelo://app?vid=15059740-9eec-4a62-9f3d-9db09662395f"},"vehicle_type_id":"4","last_reported":1748621589,"current_range_meters":9600,"station_id":"ce4bhg12rcd13ifvqf70","pricing_plan_id":"cebpf4jnsgd1na2vs0mg"},{"bike_id":"fbf62787-a3c6-4f23-83c5-9f8471a73f2d","system_id":"levelo_inurba_marseille","lat":43.26567,"lon":5.37303,"is_reserved":false,"is_disabled":false,"rental_uris":{"android":"levelo://app?vid=fbf62787-a3c6-4f23-83c5-9f8471a73f2d","ios":"levelo://app?vid=fbf62787-a3c6-4f23-83c5-9f8471a73f2d"},"vehicle_type_id":"4","last_reported":1748621589,"current_range_meters":9600,"station_id":"ce4bhg12rcd13ifvqf70","pricing_plan_id":"cebpf4jnsgd1na2vs0mg"},{"bike_id":"5a562baa-3d06-4669-838f-bbfae8bf4a57","system_id":"levelo_inurba_marseille","lat":43.26024,"lon":5.37549,"is_reserved":false,"is_disabled":false,"rental_uris":{"android":"levelo://app?vid=5a562baa-3d06-4669-838f-bbfae8bf4a57","ios":"levelo://app?vid=5a562baa-3d06-4669-838f-bbfae8bf4a57"},"vehicle_type_id":"4","last_reported":1748621589,"current_range_meters":9600,"station_id":"ce4bhgh2rcd13ifvqfa0","pricing_plan_id":"cebpf4jnsgd1na2vs0mg"},{"bike_id":"a124c31b-7694-46c5-a3ba-573158311beb","system_id":"levelo_inurba_marseille","lat":43.26951,"lon":5.38632,"is_reserved":false,"is_disabled":false,"rental_uris":{"android":"levelo://app?vid=a124c31b-7694-46c5-a3ba-573158311beb","ios":"levelo://app?vid=a124c31b-7694-46c5-a3ba-573158311beb"},"vehicle_type_id":"4","last_reported":1748621589,"current_range_meters":9600,"station_id":"ce4bhh92rcd13ifvqfh0","pricing_plan_id":"cebpf4jnsgd1na2vs0mg"},{"bike_id":"7694754f-1cd2-4ce9-bd25-4055ea61689f","system_id":"levelo_inurba_marseille","lat":43.28154,"lon":5.42643,"is_reserved":false,"is_disabled":false,"rental_uris":{"android":"levelo://app?vid=7694754f-1cd2-4ce9-bd25-4055ea61689f","ios":"levelo://app?vid=7694754f-1cd2-4ce9-bd25-4055ea61689f"},"vehicle_type_id":"4","last_reported":1748621589,"current_range_meters":9600,"station_id":"ce4bhnh2rcd13ifvqgug","pricing_plan_id":"cebpf4jnsgd1na2vs0mg"},{"bike_id":"12bb8a28-0282-4c86-a2b0-6d94041ae875","system_id":"levelo_inurba_marseille","lat":43.30253,"lon":5.40065,"is_reserved":false,"is_disabled":false,"rental_uris":{"android":"levelo://app?vid=12bb8a28-0282-4c86-a2b0-6d94041ae875","ios":"levelo://app?vid=12bb8a28-0282-4c86-a2b0-6d94041ae875"},"vehicle_type_id":"4","last_reported":1748621589,"current_range_meters":10000,"station_id":"ce4bgvh2rcd13ifvqcs0","pricing_plan_id":"cebpf4jnsgd1na2vs0mg"},{"bike_id":"ae8122ce-3489-4a24-92a8-2e21792e8793","system_id":"levelo_inurba_marseille","lat":43.3033,"lon":5.40427,"is_reserved":false,"is_disabled":false,"rental_uris":{"android":"levelo://app?vid=ae8122ce-3489-4a24-92a8-2e21792e8793","ios":"levelo://app?vid=ae8122ce-3489-4a24-92a8-2e21792e8793"},"vehicle_type_id":"4","last_reported":1748621589,"current_range_meters":10000,"station_id":"ce4bh012rcd13ifvqd10","pricing_plan_id":"cebpf4jnsgd1na2vs0mg"},{"bike_id":"9d6ad279-6beb-4ede-bb0f-6b0fd01e0a2b","system_id":"levelo_inurba_marseille","lat":43.28942,"lon":5.36636,"is_reserved":false,"is_disabled":false,"rental_uris":{"android":"levelo://app?vid=9d6ad279-6beb-4ede-bb0f-6b0fd01e0a2b","ios":"levelo://app?vid=9d6ad279-6beb-4ede-bb0f-6b0fd01e0a2b"},"vehicle_type_id":"4","last_reported":1748621589,"current_range_meters":10000,"station_id":"ce4bhap2rcd13ifvqek0","pricing_plan_id":"cebpf4jnsgd1na2vs0mg"},{"bike_id":"5ab0c034-8d81-4e39-bd05-94047d723c15","system_id":"levelo_inurba_marseille","lat":43.27385,"lon":5.36258,"is_reserved":false,"is_disabled":false,"rental_uris":{"android":"levelo://app?vid=5ab0c034-8d81-4e39-bd05-94047d723c15","ios":"levelo://app?vid=5ab0c034-8d81-4e39-bd05-94047d723c15"},"vehicle_type_id":"4","last_reported":1748621589,"current_range_meters":10000,"station_id":"ce4bhbh2rcd13ifvqeo0","pricing_plan_id":"cebpf4jnsgd1na2vs0mg"},{"bike_id":"0220aa3c-33d6-4ce1-b89f-7fb1fccb5787","system_id":"levelo_inurba_marseille","lat":43.27913,"lon":5.39576,"is_reserved":false,"is_disabled":false,"rental_uris":{"android":"levelo://app?vid=0220aa3c-33d6-4ce1-b89f-7fb1fccb5787","ios":"levelo://app?vid=0220aa3c-33d6-4ce1-b89f-7fb1fccb5787"},"vehicle_type_id":"4","last_reported":1748621589,"current_range_meters":10000,"station_id":"ce4bhf92rcd13ifvqf40","pricing_plan_id":"cebpf4jnsgd1na2vs0mg"},{"bike_id":"965ccf91-d873-4a33-9d8c-0fcffc01542a","system_id":"levelo_inurba_marseille","lat":43.2791,"lon":5.39589,"is_reserved":false,"is_disabled":false,"rental_uris":{"android":"levelo://app?vid=965ccf91-d873-4a33-9d8c-0fcffc01542a","ios":"levelo://app?vid=965ccf91-d873-4a33-9d8c-0fcffc01542a"},"vehicle_type_id":"4","last_reported":1748621589,"current_range_meters":10000,"station_id":"ce4bhf92rcd13ifvqf40","pricing_plan_id":"cebpf4jnsgd1na2vs0mg"},{"bike_id":"fe0e0aab-c84d-4e36-a4c6-6bf7f57a8f05","system_id":"levelo_inurba_marseille","lat":43.26557,"lon":5.37299,"is_reserved":false,"is_disabled":false,"rental_uris":{"android":"levelo://app?vid=fe0e0aab-c84d-4e36-a4c6-6bf7f57a8f05","ios":"levelo://app?vid=fe0e0aab-c84d-4e36-a4c6-6bf7f57a8f05"},"vehicle_type_id":"4","last_reported":1748621589,"current_range_meters":10000,"station_id":"ce4bhg12rcd13ifvqf70","pricing_plan_id":"cebpf4jnsgd1na2vs0mg"},{"bike_id":"1f17c2ec-590e-42db-8667-0d5ab7e2832c","system_id":"levelo_inurba_marseille","lat":43.26497,"lon":5.39535,"is_reserved":false,"is_disabled":false,"rental_uris":{"android":"levelo://app?vid=1f17c2ec-590e-42db-8667-0d5ab7e2832c","ios":"levelo://app?vid=1f17c2ec-590e-42db-8667-0d5ab7e2832c"},"vehicle_type_id":"4","last_reported":1748621589,"current_range_meters":10000,"station_id":"ce4bhi12rcd13ifvqfq0","pricing_plan_id":"cebpf4jnsgd1na2vs0mg"},{"bike_id":"10506cb7-ecd1-4b9a-8a8d-ad241d961b8c","system_id":"levelo_inurba_marseille","lat":43.23198,"lon":5.35547,"is_reserved":false,"is_disabled":false,"rental_uris":{"android":"levelo://app?vid=10506cb7-ecd1-4b9a-8a8d-ad241d961b8c","ios":"levelo://app?vid=10506cb7-ecd1-4b9a-8a8d-ad241d961b8c"},"vehicle_type_id":"4","last_reported":1748621589,"current_range_meters":10000,"station_id":"ce4bhu92rcd13ifvqi70","pricing_plan_id":"cebpf4jnsgd1na2vs0mg"},{"bike_id":"af78cd64-d0b1-4ec8-8285-880188198f73","system_id":"levelo_inurba_marseille","lat":43.23183,"lon":5.3556,"is_reserved":false,"is_disabled":false,"rental_uris":{"android":"levelo://app?vid=af78cd64-d0b1-4ec8-8285-880188198f73","ios":"levelo://app?vid=af78cd64-d0b1-4ec8-8285-880188198f73"},"vehicle_type_id":"4","last_reported":1748621589,"current_range_meters":10000,"station_id":"ce4bhu92rcd13ifvqi70","pricing_plan_id":"cebpf4jnsgd1na2vs0mg"},{"bike_id":"eb2b5de3-4eb3-444a-b0ae-cffc482904d1","system_id":"levelo_inurba_marseille","lat":43.287276,"lon":5.360855,"is_reserved":false,"is_disabled":false,"rental_uris":{"android":"levelo://app?vid=eb2b5de3-4eb3-444a-b0ae-cffc482904d1","ios":"levelo://app?vid=eb2b5de3-4eb3-444a-b0ae-cffc482904d1"},"vehicle_type_id":"4","last_reported":1748621589,"current_range_meters":10000,"station_id":"cki0cbj6b192h4jlfktg","pricing_plan_id":"cebpf4jnsgd1na2vs0mg"},{"bike_id":"85c0c25c-c4d9-4869-82cc-2d9e7428f21c","system_id":"levelo_inurba_marseille","lat":43.279169,"lon":5.395771,"is_reserved":false,"is_disabled":false,"rental_uris":{"android":"levelo://app?vid=85c0c25c-c4d9-4869-82cc-2d9e7428f21c","ios":"levelo://app?vid=85c0c25c-c4d9-4869-82cc-2d9e7428f21c"},"vehicle_type_id":"4","last_reported":1748621589,"current_range_meters":10800,"station_id":"","pricing_plan_id":"cebpf4jnsgd1na2vs0mg"},{"bike_id":"057bec77-d689-4389-b8c0-fceead814192","system_id":"levelo_inurba_marseille","lat":43.29306,"lon":5.37177,"is_reserved":false,"is_disabled":false,"rental_uris":{"android":"levelo://app?vid=057bec77-d689-4389-b8c0-fceead814192","ios":"levelo://app?vid=057bec77-d689-4389-b8c0-fceead814192"},"vehicle_type_id":"4","last_reported":1748621589,"current_range_meters":10800,"station_id":"ce4bgh92rcd13ifvqb40","pricing_plan_id":"cebpf4jnsgd1na2vs0mg"},{"bike_id":"ef1661c3-6f2a-4cf6-a6a8-fada8c83fa2a","system_id":"levelo_inurba_marseille","lat":43.29573,"lon":5.3753,"is_reserved":false,"is_disabled":false,"rental_uris":{"android":"levelo://app?vid=ef1661c3-6f2a-4cf6-a6a8-fada8c83fa2a","ios":"levelo://app?vid=ef1661c3-6f2a-4cf6-a6a8-fada8c83fa2a"},"vehicle_type_id":"4","last_reported":1748621589,"current_range_meters":10800,"station_id":"ce4bgh92rcd13ifvqb50","pricing_plan_id":"cebpf4jnsgd1na2vs0mg"},{"bike_id":"f17c71dd-5fab-4513-9ebc-93c96feb2b4f","system_id":"levelo_inurba_marseille","lat":43.3025,"lon":5.40061,"is_reserved":false,"is_disabled":false,"rental_uris":{"android":"levelo://app?vid=f17c71dd-5fab-4513-9ebc-93c96feb2b4f","ios":"levelo://app?vid=f17c71dd-5fab-4513-9ebc-93c96feb2b4f"},"vehicle_type_id":"4","last_reported":1748621589,"current_range_meters":10800,"station_id":"ce4bgvh2rcd13ifvqcs0","pricing_plan_id":"cebpf4jnsgd1na2vs0mg"},{"bike_id":"552dcab1-7cbf-4006-b994-0c8ed31989d6","system_id":"levelo_inurba_marseille","lat":43.28929,"lon":5.36631,"is_reserved":false,"is_disabled":false,"rental_uris":{"android":"levelo://app?vid=552dcab1-7cbf-4006-b994-0c8ed31989d6","ios":"levelo://app?vid=552dcab1-7cbf-4006-b994-0c8ed31989d6"},"vehicle_type_id":"4","last_reported":1748621589,"current_range_meters":10800,"station_id":"ce4bhap2rcd13ifvqek0","pricing_plan_id":"cebpf4jnsgd1na2vs0mg"},{"bike_id":"f67c0dea-1fe5-4948-9215-8f57b4153744","system_id":"levelo_inurba_marseille","lat":43.28473,"lon":5.3498,"is_reserved":false,"is_disabled":false,"rental_uris":{"android":"levelo://app?vid=f67c0dea-1fe5-4948-9215-8f57b4153744","ios":"levelo://app?vid=f67c0dea-1fe5-4948-9215-8f57b4153744"},"vehicle_type_id":"4","last_reported":1748621589,"current_range_meters":10800,"station_id":"ce4bhbh2rcd13ifvqepg","pricing_plan_id":"cebpf4jnsgd1na2vs0mg"},{"bike_id":"b4762fa1-e596-4ef5-8381-22e8d18b51b2","system_id":"levelo_inurba_marseille","lat":43.2842,"lon":5.34992,"is_reserved":false,"is_disabled":false,"rental_uris":{"android":"levelo://app?vid=b4762fa1-e596-4ef5-8381-22e8d18b51b2","ios":"levelo://app?vid=b4762fa1-e596-4ef5-8381-22e8d18b51b2"},"vehicle_type_id":"4","last_reported":1748621589,"current_range_meters":10800,"station_id":"ce4bhbh2rcd13ifvqepg","pricing_plan_id":"cebpf4jnsgd1na2vs0mg"},{"bike_id":"af44a260-8d5f-4132-8916-35e02a37adf6","system_id":"levelo_inurba_marseille","lat":43.26224,"lon":5.40449,"is_reserved":false,"is_disabled":false,"rental_uris":{"android":"levelo://app?vid=af44a260-8d5f-4132-8916-35e02a37adf6","ios":"levelo://app?vid=af44a260-8d5f-4132-8916-35e02a37adf6"},"vehicle_type_id":"4","last_reported":1748621589,"current_range_meters":10800,"station_id":"ce4bhmh2rcd13ifvqgmg","pricing_plan_id":"cebpf4jnsgd1na2vs0mg"},{"bike_id":"7243d7c8-02f5-4392-89cf-8c360e846d55","system_id":"levelo_inurba_marseille","lat":43.25268,"lon":5.37882,"is_reserved":false,"is_disabled":false,"rental_uris":{"android":"levelo://app?vid=7243d7c8-02f5-4392-89cf-8c360e846d55","ios":"levelo://app?vid=7243d7c8-02f5-4392-89cf-8c360e846d55"},"vehicle_type_id":"4","last_reported":1748621589,"current_range_meters":11200,"station_id":"","pricing_plan_id":"cebpf4jnsgd1na2vs0mg"},{"bike_id":"21194eca-793e-4f3e-b4f5-2ef502a45799","system_id":"levelo_inurba_marseille","lat":43.28345,"lon":5.38107,"is_reserved":false,"is_disabled":false,"rental_uris":{"android":"levelo://app?vid=21194eca-793e-4f3e-b4f5-2ef502a45799","ios":"levelo://app?vid=21194eca-793e-4f3e-b4f5-2ef502a45799"},"vehicle_type_id":"4","last_reported":1748621589,"current_range_meters":11200,"station_id":"ce4bh412rcd13ifvqdr0","pricing_plan_id":"cebpf4jnsgd1na2vs0mg"},{"bike_id":"fed27a9a-101b-4a0b-b6d3-67863a48f3fb","system_id":"levelo_inurba_marseille","lat":43.28263,"lon":5.35063,"is_reserved":false,"is_disabled":false,"rental_uris":{"android":"levelo://app?vid=fed27a9a-101b-4a0b-b6d3-67863a48f3fb","ios":"levelo://app?vid=fed27a9a-101b-4a0b-b6d3-67863a48f3fb"},"vehicle_type_id":"4","last_reported":1748621589,"current_range_meters":11200,"station_id":"ce4bhbp2rcd13ifvqerg","pricing_plan_id":"cebpf4jnsgd1na2vs0mg"},{"bike_id":"c6e1381c-bac9-4582-bfb9-1739ba44fe83","system_id":"levelo_inurba_marseille","lat":43.26217,"lon":5.37452,"is_reserved":false,"is_disabled":false,"rental_uris":{"android":"levelo://app?vid=c6e1381c-bac9-4582-bfb9-1739ba44fe83","ios":"levelo://app?vid=c6e1381c-bac9-4582-bfb9-1739ba44fe83"},"vehicle_type_id":"4","last_reported":1748621589,"current_range_meters":11200,"station_id":"ce4bhgp2rcd13ifvqfc0","pricing_plan_id":"cebpf4jnsgd1na2vs0mg"},{"bike_id":"e9018512-8b3e-43f3-bb7f-7a56a23b2f6d","system_id":"levelo_inurba_marseille","lat":43.29265,"lon":5.37622,"is_reserved":false,"is_disabled":false,"rental_uris":{"android":"levelo://app?vid=e9018512-8b3e-43f3-bb7f-7a56a23b2f6d","ios":"levelo://app?vid=e9018512-8b3e-43f3-bb7f-7a56a23b2f6d"},"vehicle_type_id":"4","last_reported":1748621589,"current_range_meters":11600,"station_id":"ce4bgi12rcd13ifvqb80","pricing_plan_id":"cebpf4jnsgd1na2vs0mg"},{"bike_id":"529137a1-0fec-4a4c-bbe8-03949b5f4bac","system_id":"levelo_inurba_marseille","lat":43.28413,"lon":5.35003,"is_reserved":false,"is_disabled":false,"rental_uris":{"android":"levelo://app?vid=529137a1-0fec-4a4c-bbe8-03949b5f4bac","ios":"levelo://app?vid=529137a1-0fec-4a4c-bbe8-03949b5f4bac"},"vehicle_type_id":"4","last_reported":1748621589,"current_range_meters":11600,"station_id":"ce4bhbh2rcd13ifvqepg","pricing_plan_id":"cebpf4jnsgd1na2vs0mg"},{"bike_id":"9dd5e9ef-a940-4593-bedc-e170cc198481","system_id":"levelo_inurba_marseille","lat":43.27429,"lon":5.39409,"is_reserved":false,"is_disabled":false,"rental_uris":{"android":"levelo://app?vid=9dd5e9ef-a940-4593-bedc-e170cc198481","ios":"levelo://app?vid=9dd5e9ef-a940-4593-bedc-e170cc198481"},"vehicle_type_id":"4","last_reported":1748621589,"current_range_meters":11600,"station_id":"ce4bhdp2rcd13ifvqf20","pricing_plan_id":"cebpf4jnsgd1na2vs0mg"},{"bike_id":"143dde95-27b0-4f30-b6f5-74ac97db0ffd","system_id":"levelo_inurba_marseille","lat":43.26568,"lon":5.39003,"is_reserved":false,"is_disabled":false,"rental_uris":{"android":"levelo://app?vid=143dde95-27b0-4f30-b6f5-74ac97db0ffd","ios":"levelo://app?vid=143dde95-27b0-4f30-b6f5-74ac97db0ffd"},"vehicle_type_id":"4","last_reported":1748621589,"current_range_meters":11600,"station_id":"ce4bhe12rcd13ifvqf30","pricing_plan_id":"cebpf4jnsgd1na2vs0mg"},{"bike_id":"c5955212-23b9-47a9-8fed-0e2d976ea049","system_id":"levelo_inurba_marseille","lat":43.265565,"lon":5.372846,"is_reserved":false,"is_disabled":false,"rental_uris":{"android":"levelo://app?vid=c5955212-23b9-47a9-8fed-0e2d976ea049","ios":"levelo://app?vid=c5955212-23b9-47a9-8fed-0e2d976ea049"},"vehicle_type_id":"4","last_reported":1748621589,"current_range_meters":11600,"station_id":"ce4bhg12rcd13ifvqf70","pricing_plan_id":"cebpf4jnsgd1na2vs0mg"},{"bike_id":"376e3220-304c-4620-9a1d-a8a356335e66","system_id":"levelo_inurba_marseille","lat":43.24807,"lon":5.37462,"is_reserved":false,"is_disabled":false,"rental_uris":{"android":"levelo://app?vid=376e3220-304c-4620-9a1d-a8a356335e66","ios":"levelo://app?vid=376e3220-304c-4620-9a1d-a8a356335e66"},"vehicle_type_id":"4","last_reported":1748621589,"current_range_meters":11600,"station_id":"ce4bhgh2rcd13ifvqfb0","pricing_plan_id":"cebpf4jnsgd1na2vs0mg"},{"bike_id":"d51d1b55-e49b-4aab-b17a-941d1955bf76","system_id":"levelo_inurba_marseille","lat":43.262119,"lon":5.374466,"is_reserved":false,"is_disabled":false,"rental_uris":{"android":"levelo://app?vid=d51d1b55-e49b-4aab-b17a-941d1955bf76","ios":"levelo://app?vid=d51d1b55-e49b-4aab-b17a-941d1955bf76"},"vehicle_type_id":"4","last_reported":1748621589,"current_range_meters":11600,"station_id":"ce4bhgp2rcd13ifvqfc0","pricing_plan_id":"cebpf4jnsgd1na2vs0mg"},{"bike_id":"3041e131-0584-4e34-9066-f1e080c15ac0","system_id":"levelo_inurba_marseille","lat":43.32537,"lon":5.41426,"is_reserved":false,"is_disabled":false,"rental_uris":{"android":"levelo://app?vid=3041e131-0584-4e34-9066-f1e080c15ac0","ios":"levelo://app?vid=3041e131-0584-4e34-9066-f1e080c15ac0"},"vehicle_type_id":"4","last_reported":1748621589,"current_range_meters":11600,"station_id":"ce4bhq12rcd13ifvqhhg","pricing_plan_id":"cebpf4jnsgd1na2vs0mg"},{"bike_id":"12367a99-a338-46d6-a772-b731bcc6a2df","system_id":"levelo_inurba_marseille","lat":43.23191,"lon":5.35543,"is_reserved":false,"is_disabled":false,"rental_uris":{"android":"levelo://app?vid=12367a99-a338-46d6-a772-b731bcc6a2df","ios":"levelo://app?vid=12367a99-a338-46d6-a772-b731bcc6a2df"},"vehicle_type_id":"4","last_reported":1748621589,"current_range_meters":11600,"station_id":"ce4bhu92rcd13ifvqi70","pricing_plan_id":"cebpf4jnsgd1na2vs0mg"},{"bike_id":"d2af42e7-0e4d-447a-9ef5-e32eba770fd1","system_id":"levelo_inurba_marseille","lat":43.29303,"lon":5.37187,"is_reserved":false,"is_disabled":false,"rental_uris":{"android":"levelo://app?vid=d2af42e7-0e4d-447a-9ef5-e32eba770fd1","ios":"levelo://app?vid=d2af42e7-0e4d-447a-9ef5-e32eba770fd1"},"vehicle_type_id":"4","last_reported":1748621589,"current_range_meters":12000,"station_id":"ce4bgh92rcd13ifvqb40","pricing_plan_id":"cebpf4jnsgd1na2vs0mg"},{"bike_id":"f630ae80-f32d-4a98-becb-3c4125ae476c","system_id":"levelo_inurba_marseille","lat":43.2997,"lon":5.38495,"is_reserved":false,"is_disabled":false,"rental_uris":{"android":"levelo://app?vid=f630ae80-f32d-4a98-becb-3c4125ae476c","ios":"levelo://app?vid=f630ae80-f32d-4a98-becb-3c4125ae476c"},"vehicle_type_id":"4","last_reported":1748621589,"current_range_meters":12000,"station_id":"ce4bgj92rcd13ifvqbd0","pricing_plan_id":"cebpf4jnsgd1na2vs0mg"},{"bike_id":"e8ad9031-a618-4222-9253-d25580c8c634","system_id":"levelo_inurba_marseille","lat":43.28672,"lon":5.38652,"is_reserved":false,"is_disabled":false,"rental_uris":{"android":"levelo://app?vid=e8ad9031-a618-4222-9253-d25580c8c634","ios":"levelo://app?vid=e8ad9031-a618-4222-9253-d25580c8c634"},"vehicle_type_id":"4","last_reported":1748621589,"current_range_meters":12000,"station_id":"ce4bh492rcd13ifvqdug","pricing_plan_id":"cebpf4jnsgd1na2vs0mg"},{"bike_id":"6cab2d10-7f2c-4dac-ba3d-4f103803cc6a","system_id":"levelo_inurba_marseille","lat":43.28927,"lon":5.38414,"is_reserved":false,"is_disabled":false,"rental_uris":{"android":"levelo://app?vid=6cab2d10-7f2c-4dac-ba3d-4f103803cc6a","ios":"levelo://app?vid=6cab2d10-7f2c-4dac-ba3d-4f103803cc6a"},"vehicle_type_id":"4","last_reported":1748621589,"current_range_meters":12000,"station_id":"ce4bh612rcd13ifvqe6g","pricing_plan_id":"cebpf4jnsgd1na2vs0mg"},{"bike_id":"ad9c1627-34c5-46fc-9099-cf2bb49e0a1d","system_id":"levelo_inurba_marseille","lat":43.28415,"lon":5.34989,"is_reserved":false,"is_disabled":false,"rental_uris":{"android":"levelo://app?vid=ad9c1627-34c5-46fc-9099-cf2bb49e0a1d","ios":"levelo://app?vid=ad9c1627-34c5-46fc-9099-cf2bb49e0a1d"},"vehicle_type_id":"4","last_reported":1748621589,"current_range_meters":12000,"station_id":"ce4bhbh2rcd13ifvqepg","pricing_plan_id":"cebpf4jnsgd1na2vs0mg"},{"bike_id":"541829c1-4a14-448e-bf0c-35d8616c0499","system_id":"levelo_inurba_marseille","lat":43.284206,"lon":5.349918,"is_reserved":false,"is_disabled":false,"rental_uris":{"android":"levelo://app?vid=541829c1-4a14-448e-bf0c-35d8616c0499","ios":"levelo://app?vid=541829c1-4a14-448e-bf0c-35d8616c0499"},"vehicle_type_id":"4","last_reported":1748621589,"current_range_meters":12000,"station_id":"ce4bhbh2rcd13ifvqepg","pricing_plan_id":"cebpf4jnsgd1na2vs0mg"},{"bike_id":"f85aa425-bad1-4bae-9a7d-02fe11651a26","system_id":"levelo_inurba_marseille","lat":43.29274,"lon":5.36849,"is_reserved":false,"is_disabled":false,"rental_uris":{"android":"levelo://app?vid=f85aa425-bad1-4bae-9a7d-02fe11651a26","ios":"levelo://app?vid=f85aa425-bad1-4bae-9a7d-02fe11651a26"},"vehicle_type_id":"4","last_reported":1748621589,"current_range_meters":12000,"station_id":"ce4bhbp2rcd13ifvqesg","pricing_plan_id":"cebpf4jnsgd1na2vs0mg"},{"bike_id":"f1ec8731-6977-4a39-a3da-6bfe1aaf338f","system_id":"levelo_inurba_marseille","lat":43.24647,"lon":5.38889,"is_reserved":false,"is_disabled":false,"rental_uris":{"android":"levelo://app?vid=f1ec8731-6977-4a39-a3da-6bfe1aaf338f","ios":"levelo://app?vid=f1ec8731-6977-4a39-a3da-6bfe1aaf338f"},"vehicle_type_id":"4","last_reported":1748621589,"current_range_meters":12000,"station_id":"ce4bhg12rcd13ifvqf60","pricing_plan_id":"cebpf4jnsgd1na2vs0mg"},{"bike_id":"3d6df632-1ff4-4302-93cd-9e2a8a51e4dd","system_id":"levelo_inurba_marseille","lat":43.275044,"lon":5.424283,"is_reserved":false,"is_disabled":false,"rental_uris":{"android":"levelo://app?vid=3d6df632-1ff4-4302-93cd-9e2a8a51e4dd","ios":"levelo://app?vid=3d6df632-1ff4-4302-93cd-9e2a8a51e4dd"},"vehicle_type_id":"4","last_reported":1748621589,"current_range_meters":12000,"station_id":"ce4bhn92rcd13ifvqgrg","pricing_plan_id":"cebpf4jnsgd1na2vs0mg"},{"bike_id":"3e3bf2c3-cefe-43ab-b833-905cb7093135","system_id":"levelo_inurba_marseille","lat":43.30536,"lon":5.38427,"is_reserved":false,"is_disabled":false,"rental_uris":{"android":"levelo://app?vid=3e3bf2c3-cefe-43ab-b833-905cb7093135","ios":"levelo://app?vid=3e3bf2c3-cefe-43ab-b833-905cb7093135"},"vehicle_type_id":"4","last_reported":1748621589,"current_range_meters":12400,"station_id":"","pricing_plan_id":"cebpf4jnsgd1na2vs0mg"},{"bike_id":"70448242-79b4-4e79-944a-779e0e1cef6d","system_id":"levelo_inurba_marseille","lat":43.31076,"lon":5.38346,"is_reserved":false,"is_disabled":false,"rental_uris":{"android":"levelo://app?vid=70448242-79b4-4e79-944a-779e0e1cef6d","ios":"levelo://app?vid=70448242-79b4-4e79-944a-779e0e1cef6d"},"vehicle_type_id":"4","last_reported":1748621589,"current_range_meters":12400,"station_id":"ce4bgv92rcd13ifvqcr0","pricing_plan_id":"cebpf4jnsgd1na2vs0mg"},{"bike_id":"f20a3dc5-96b0-48c0-9f94-4951ba574ee7","system_id":"levelo_inurba_marseille","lat":43.30586,"lon":5.39353,"is_reserved":false,"is_disabled":false,"rental_uris":{"android":"levelo://app?vid=f20a3dc5-96b0-48c0-9f94-4951ba574ee7","ios":"levelo://app?vid=f20a3dc5-96b0-48c0-9f94-4951ba574ee7"},"vehicle_type_id":"4","last_reported":1748621589,"current_range_meters":12400,"station_id":"ce4bh0p2rcd13ifvqd80","pricing_plan_id":"cebpf4jnsgd1na2vs0mg"},{"bike_id":"c9e2c539-bdc6-4b01-98a7-6272ea166601","system_id":"levelo_inurba_marseille","lat":43.28718,"lon":5.37936,"is_reserved":false,"is_disabled":false,"rental_uris":{"android":"levelo://app?vid=c9e2c539-bdc6-4b01-98a7-6272ea166601","ios":"levelo://app?vid=c9e2c539-bdc6-4b01-98a7-6272ea166601"},"vehicle_type_id":"4","last_reported":1748621589,"current_range_meters":12400,"station_id":"ce4bh9p2rcd13ifvqec0","pricing_plan_id":"cebpf4jnsgd1na2vs0mg"},{"bike_id":"6d027d7e-d3da-4715-9238-3a0c6a77a304","system_id":"levelo_inurba_marseille","lat":43.28468,"lon":5.3588,"is_reserved":false,"is_disabled":false,"rental_uris":{"android":"levelo://app?vid=6d027d7e-d3da-4715-9238-3a0c6a77a304","ios":"levelo://app?vid=6d027d7e-d3da-4715-9238-3a0c6a77a304"},"vehicle_type_id":"4","last_reported":1748621589,"current_range_meters":12400,"station_id":"ce4bhah2rcd13ifvqei0","pricing_plan_id":"cebpf4jnsgd1na2vs0mg"},{"bike_id":"4684b4e1-f67d-49e9-970b-9f1d91238196","system_id":"levelo_inurba_marseille","lat":43.28418,"lon":5.34989,"is_reserved":false,"is_disabled":false,"rental_uris":{"android":"levelo://app?vid=4684b4e1-f67d-49e9-970b-9f1d91238196","ios":"levelo://app?vid=4684b4e1-f67d-49e9-970b-9f1d91238196"},"vehicle_type_id":"4","last_reported":1748621589,"current_range_meters":12400,"station_id":"ce4bhbh2rcd13ifvqepg","pricing_plan_id":"cebpf4jnsgd1na2vs0mg"},{"bike_id":"950a66c6-0112-4714-a007-202e42172c1f","system_id":"levelo_inurba_marseille","lat":43.24792,"lon":5.37435,"is_reserved":false,"is_disabled":false,"rental_uris":{"android":"levelo://app?vid=950a66c6-0112-4714-a007-202e42172c1f","ios":"levelo://app?vid=950a66c6-0112-4714-a007-202e42172c1f"},"vehicle_type_id":"4","last_reported":1748621589,"current_range_meters":12400,"station_id":"ce4bhgh2rcd13ifvqfb0","pricing_plan_id":"cebpf4jnsgd1na2vs0mg"},{"bike_id":"990df701-79a7-41ec-b963-3693dc590a87","system_id":"levelo_inurba_marseille","lat":43.30192,"lon":5.379293,"is_reserved":false,"is_disabled":false,"rental_uris":{"android":"levelo://app?vid=990df701-79a7-41ec-b963-3693dc590a87","ios":"levelo://app?vid=990df701-79a7-41ec-b963-3693dc590a87"},"vehicle_type_id":"4","last_reported":1748621589,"current_range_meters":12800,"station_id":"","pricing_plan_id":"cebpf4jnsgd1na2vs0mg"},{"bike_id":"bac667cf-137e-4ea7-b037-7ebd6a2ad77c","system_id":"levelo_inurba_marseille","lat":43.28248,"lon":5.351,"is_reserved":false,"is_disabled":false,"rental_uris":{"android":"levelo://app?vid=bac667cf-137e-4ea7-b037-7ebd6a2ad77c","ios":"levelo://app?vid=bac667cf-137e-4ea7-b037-7ebd6a2ad77c"},"vehicle_type_id":"4","last_reported":1748621589,"current_range_meters":12800,"station_id":"ce4bhbp2rcd13ifvqerg","pricing_plan_id":"cebpf4jnsgd1na2vs0mg"},{"bike_id":"03cd5743-2e38-40d4-8374-92f6a7539a49","system_id":"levelo_inurba_marseille","lat":43.26189,"lon":5.37441,"is_reserved":false,"is_disabled":false,"rental_uris":{"android":"levelo://app?vid=03cd5743-2e38-40d4-8374-92f6a7539a49","ios":"levelo://app?vid=03cd5743-2e38-40d4-8374-92f6a7539a49"},"vehicle_type_id":"4","last_reported":1748621589,"current_range_meters":12800,"station_id":"ce4bhgp2rcd13ifvqfc0","pricing_plan_id":"cebpf4jnsgd1na2vs0mg"},{"bike_id":"049bea5a-b292-4d36-bc62-eb2987d37436","system_id":"levelo_inurba_marseille","lat":43.26186,"lon":5.37465,"is_reserved":false,"is_disabled":false,"rental_uris":{"android":"levelo://app?vid=049bea5a-b292-4d36-bc62-eb2987d37436","ios":"levelo://app?vid=049bea5a-b292-4d36-bc62-eb2987d37436"},"vehicle_type_id":"4","last_reported":1748621589,"current_range_meters":12800,"station_id":"ce4bhgp2rcd13ifvqfc0","pricing_plan_id":"cebpf4jnsgd1na2vs0mg"},{"bike_id":"3ae4d73a-c432-4b85-aae0-9a82a9e1560b","system_id":"levelo_inurba_marseille","lat":43.26949,"lon":5.38626,"is_reserved":false,"is_disabled":false,"rental_uris":{"android":"levelo://app?vid=3ae4d73a-c432-4b85-aae0-9a82a9e1560b","ios":"levelo://app?vid=3ae4d73a-c432-4b85-aae0-9a82a9e1560b"},"vehicle_type_id":"4","last_reported":1748621589,"current_range_meters":12800,"station_id":"ce4bhh92rcd13ifvqfh0","pricing_plan_id":"cebpf4jnsgd1na2vs0mg"},{"bike_id":"ff2ee71d-14c6-4bad-94c2-cb236c6dc4b2","system_id":"levelo_inurba_marseille","lat":43.27206,"lon":5.391723,"is_reserved":false,"is_disabled":false,"rental_uris":{"android":"levelo://app?vid=ff2ee71d-14c6-4bad-94c2-cb236c6dc4b2","ios":"levelo://app?vid=ff2ee71d-14c6-4bad-94c2-cb236c6dc4b2"},"vehicle_type_id":"4","last_reported":1748621589,"current_range_meters":12800,"station_id":"ce4bhhp2rcd13ifvqfm0","pricing_plan_id":"cebpf4jnsgd1na2vs0mg"},{"bike_id":"e2323763-e8bc-4c18-8623-deb9c58bfd9b","system_id":"levelo_inurba_marseille","lat":43.24158,"lon":5.3641,"is_reserved":false,"is_disabled":false,"rental_uris":{"android":"levelo://app?vid=e2323763-e8bc-4c18-8623-deb9c58bfd9b","ios":"levelo://app?vid=e2323763-e8bc-4c18-8623-deb9c58bfd9b"},"vehicle_type_id":"4","last_reported":1748621589,"current_range_meters":12800,"station_id":"cpo36qri1sfpv3e86is0","pricing_plan_id":"cebpf4jnsgd1na2vs0mg"},{"bike_id":"20e06bf4-7524-484a-95f8-6d79a24d0136","system_id":"levelo_inurba_marseille","lat":43.26565,"lon":5.40323,"is_reserved":false,"is_disabled":false,"rental_uris":{"android":"levelo://app?vid=20e06bf4-7524-484a-95f8-6d79a24d0136","ios":"levelo://app?vid=20e06bf4-7524-484a-95f8-6d79a24d0136"},"vehicle_type_id":"4","last_reported":1748621589,"current_range_meters":13600,"station_id":"","pricing_plan_id":"cebpf4jnsgd1na2vs0mg"},{"bike_id":"b6415a51-069d-434a-a1b9-2f420f625f12","system_id":"levelo_inurba_marseille","lat":43.30297,"lon":5.39222,"is_reserved":false,"is_disabled":false,"rental_uris":{"android":"levelo://app?vid=b6415a51-069d-434a-a1b9-2f420f625f12","ios":"levelo://app?vid=b6415a51-069d-434a-a1b9-2f420f625f12"},"vehicle_type_id":"4","last_reported":1748621589,"current_range_meters":13600,"station_id":"ce4bgkh2rcd13ifvqbk0","pricing_plan_id":"cebpf4jnsgd1na2vs0mg"},{"bike_id":"a3ca8fec-f544-4415-b1ab-ddaa90088a0e","system_id":"levelo_inurba_marseille","lat":43.30591,"lon":5.39365,"is_reserved":false,"is_disabled":false,"rental_uris":{"android":"levelo://app?vid=a3ca8fec-f544-4415-b1ab-ddaa90088a0e","ios":"levelo://app?vid=a3ca8fec-f544-4415-b1ab-ddaa90088a0e"},"vehicle_type_id":"4","last_reported":1748621589,"current_range_meters":13600,"station_id":"ce4bh0p2rcd13ifvqd80","pricing_plan_id":"cebpf4jnsgd1na2vs0mg"},{"bike_id":"976c6d8e-ee75-47af-8c99-4d34e5423ddb","system_id":"levelo_inurba_marseille","lat":43.29063,"lon":5.37155,"is_reserved":false,"is_disabled":false,"rental_uris":{"android":"levelo://app?vid=976c6d8e-ee75-47af-8c99-4d34e5423ddb","ios":"levelo://app?vid=976c6d8e-ee75-47af-8c99-4d34e5423ddb"},"vehicle_type_id":"4","last_reported":1748621589,"current_range_meters":13600,"station_id":"ce4bh5p2rcd13ifvqe4g","pricing_plan_id":"cebpf4jnsgd1na2vs0mg"},{"bike_id":"87e05ecd-1890-46ad-ac6b-d2153e08ec2c","system_id":"levelo_inurba_marseille","lat":43.28412,"lon":5.35003,"is_reserved":false,"is_disabled":false,"rental_uris":{"android":"levelo://app?vid=87e05ecd-1890-46ad-ac6b-d2153e08ec2c","ios":"levelo://app?vid=87e05ecd-1890-46ad-ac6b-d2153e08ec2c"},"vehicle_type_id":"4","last_reported":1748621589,"current_range_meters":13600,"station_id":"ce4bhbh2rcd13ifvqepg","pricing_plan_id":"cebpf4jnsgd1na2vs0mg"},{"bike_id":"caed8174-199f-47b2-a36a-d066cb3c05d1","system_id":"levelo_inurba_marseille","lat":43.262195,"lon":5.37444,"is_reserved":false,"is_disabled":false,"rental_uris":{"android":"levelo://app?vid=caed8174-199f-47b2-a36a-d066cb3c05d1","ios":"levelo://app?vid=caed8174-199f-47b2-a36a-d066cb3c05d1"},"vehicle_type_id":"4","last_reported":1748621589,"current_range_meters":13600,"station_id":"ce4bhgp2rcd13ifvqfc0","pricing_plan_id":"cebpf4jnsgd1na2vs0mg"},{"bike_id":"1b072375-0151-4240-96af-49e85922cae3","system_id":"levelo_inurba_marseille","lat":43.23177,"lon":5.39991,"is_reserved":false,"is_disabled":false,"rental_uris":{"android":"levelo://app?vid=1b072375-0151-4240-96af-49e85922cae3","ios":"levelo://app?vid=1b072375-0151-4240-96af-49e85922cae3"},"vehicle_type_id":"4","last_reported":1748621589,"current_range_meters":13600,"station_id":"ce4bhn12rcd13ifvqgqg","pricing_plan_id":"cebpf4jnsgd1na2vs0mg"},{"bike_id":"45537438-5696-471e-8650-84e9d3b30c2c","system_id":"levelo_inurba_marseille","lat":43.325393,"lon":5.414313,"is_reserved":false,"is_disabled":false,"rental_uris":{"android":"levelo://app?vid=45537438-5696-471e-8650-84e9d3b30c2c","ios":"levelo://app?vid=45537438-5696-471e-8650-84e9d3b30c2c"},