{"last_updated":1734772114,"ttl":60,"version":"2.2","data":{"bikes":[{"bike_id":"3885f6e9-d9ce-4356-b7ad-f1adca5f7ad9","system_id":"levelo_inurba_marseille","lat":43.30151,"lon":5.38079,"is_reserved":false,"is_disabled":false,"rental_uris":{"android":"levelo://app?vid=3885f6e9-d9ce-4356-b7ad-f1adca5f7ad9","ios":"levelo://app?vid=3885f6e9-d9ce-4356-b7ad-f1adca5f7ad9"},"vehicle_type_id":"4","last_reported":1734772114,"current_range_meters":38000,"station_id":"ce4bgjp2rcd13ifvqbh0","pricing_plan_id":"cebpf4jnsgd1na2vs0mg"},{"bike_id":"ef6ff72d-ccfc-44d1-92b9-b5c83e8d80e4","system_id":"levelo_inurba_marseille","lat":43.30478,"lon":5.37917,"is_reserved":false,"is_disabled":false,"rental_uris":{"android":"levelo://app?vid=ef6ff72d-ccfc-44d1-92b9-b5c83e8d80e4","ios":"levelo://app?vid=ef6ff72d-ccfc-44d1-92b9-b5c83e8d80e4"},"vehicle_type_id":"4","last_reported":1734772114,"current_range_meters":25600,"station_id":"ce4bgup2rcd13ifvqcn0","pricing_plan_id":"cebpf4jnsgd1na2vs0mg"},{"bike_id":"8b58a356-7b53-4941-baff-a82d27c8533d","system_id":"levelo_inurba_marseille","lat":43.29566,"lon":5.39981,"is_reserved":false,"is_disabled":false,"rental_uris":{"android":"levelo://app?vid=8b58a356-7b53-4941-baff-a82d27c8533d","ios":"levelo://app?vid=8b58a356-7b53-4941-baff-a82d27c8533d"},"vehicle_type_id":"4","last_reported":1734772114,"current_range_meters":38800,"station_id":"ce4bh312rcd13ifvqdj0","pricing_plan_id":"cebpf4jnsgd1na2vs0mg"},{"bike_id":"68544513-0c9b-4601-91ac-5621a4a07af3","system_id":"levelo_inurba_marseille","lat":43.3171,"lon":5.3774,"is_reserved":false,"is_disabled":false,"rental_uris":{"android":"levelo://app?vid=68544513-0c9b-4601-91ac-5621a4a07af3","ios":"levelo://app?vid=68544513-0c9b-4601-91ac-5621a4a07af3"},"vehicle_type_id":"4","last_reported":1734772114,"current_range_meters":38000,"station_id":"ce4bgth2rcd13ifvqch0","pricing_plan_id":"cebpf4jnsgd1na2vs0mg"},{"bike_id":"c20c717d-c827-41e6-9454-3f93a777b421","system_id":"levelo_inurba_marseille","lat":43.27836,"lon":5.39213,"is_reserved":false,"is_disabled":false,"rental_uris":{"android":"levelo://app?vid=c20c717d-c827-41e6-9454-3f93a777b421","ios":"levelo://app?vid=c20c717d-c827-41e6-9454-3f93a777b421"},"vehicle_type_id":"4","last_reported":1734772114,"current_range_meters":36800,"station_id":"ce4bhjp2rcd13ifvqga0","pricing_plan_id":"cebpf4jnsgd1na2vs0mg"},{"bike_id":"12b28a6a-a08d-4088-a058-24fc8a1b7dad","system_id":"levelo_inurba_marseille","lat":43.25867,"lon":5.399,"is_reserved":false,"is_disabled":false,"rental_uris":{"android":"levelo://app?vid=12b28a6a-a08d-4088-a058-24fc8a1b7dad","ios":"levelo://app?vid=12b28a6a-a08d-4088-a058-24fc8a1b7dad"},"vehicle_type_id":"4","last_reported":1734772114,"current_range_meters":25200,"station_id":"ce4bhl92rcd13ifvqghg","pricing_plan_id":"cebpf4jnsgd1na2vs0mg"},{"bike_id":"24041a61-6630-4c4c-89da-019f888e35f5","system_id":"levelo_inurba_marseille","lat":43.28726,"lon":5.4,"is_reserved":false,"is_disabled":true,"rental_uris":{"android":"levelo://app?vid=24041a61-6630-4c4c-89da-019f888e35f5","ios":"levelo://app?vid=24041a61-6630-4c4c-89da-019f888e35f5"},"vehicle_type_id":"4","last_reported":1734772114,"current_range_meters":30000,"station_id":"ce4bho92rcd13ifvqh3g","pricing_plan_id":"cebpf4jnsgd1na2vs0mg"},{"bike_id":"0b3c962c-40d1-4375-b60d-644d72aaacf1","system_id":"levelo_inurba_marseille","lat":43.280101,"lon":5.404028,"is_reserved":false,"is_disabled":true,"rental_uris":{"android":"levelo://app?vid=0b3c962c-40d1-4375-b60d-644d72aaacf1","ios":"levelo://app?vid=0b3c962c-40d1-4375-b60d-644d72aaacf1"},"vehicle_type_id":"4","last_reported":1734772114,"current_range_meters":0,"station_id":"","pricing_plan_id":"cebpf4jnsgd1na2vs0mg"},{"bike_id":"aa496fe5-ff01-4c76-b230-91db42ff1c79","system_id":"levelo_inurba_marseille","lat":43.26942,"lon":5.40328,"is_reserved":false,"is_disabled":false,"rental_uris":{"android":"levelo://app?vid=aa496fe5-ff01-4c76-b230-91db42ff1c79","ios":"levelo://app?vid=aa496fe5-ff01-4c76-b230-91db42ff1c79"},"vehicle_type_id":"4","last_reported":1734772114,"current_range_meters":36800,"station_id":"cjm6bp8fraef2m0cb0m0","pricing_plan_id":"cebpf4jnsgd1na2vs0mg"},{"bike_id":"19b4fa94-a9e7-43f4-bb42-436dcb8c21dd","system_id":"levelo_inurba_marseille","lat":43.29017,"lon":5.35604,"is_reserved":false,"is_disabled":false,"rental_uris":{"android":"levelo://app?vid=19b4fa94-a9e7-43f4-bb42-436dcb8c21dd","ios":"levelo://app?vid=19b4fa94-a9e7-43f4-bb42-436dcb8c21dd"},"vehicle_type_id":"4","last_reported":1734772114,"current_range_meters":38800,"station_id":"ce4bhb92rcd13ifvqen0","pricing_plan_id":"cebpf4jnsgd1na2vs0mg"},{"bike_id":"c05e7616-33bf-4fd1-bb8b-bad4822419fe","system_id":"levelo_inurba_marseille","lat":43.24812,"lon":5.37461,"is_reserved":false,"is_disabled":false,"rental_uris":{"android":"levelo://app?vid=c05e7616-33bf-4fd1-bb8b-bad4822419fe","ios":"levelo://app?vid=c05e7616-33bf-4fd1-bb8b-bad4822419fe"},"vehicle_type_id":"4","last_reported":1734772114,"current_range_meters":28400,"station_id":"ce4bhgh2rcd13ifvqfb0","pricing_plan_id":"cebpf4jnsgd1na2vs0mg"},{"bike_id":"3d29f6ff-3784-4945-a8a1-4f0e8a8bbd5a","system_id":"levelo_inurba_marseille","lat":43.29278,"lon":5.36838,"is_reserved":false,"is_disabled":false,"rental_uris":{"android":"levelo://app?vid=3d29f6ff-3784-4945-a8a1-4f0e8a8bbd5a","ios":"levelo://app?vid=3d29f6ff-3784-4945-a8a1-4f0e8a8bbd5a"},"vehicle_type_id":"4","last_reported":1734772114,"current_range_meters":36800,"station_id":"ce4bhbp2rcd13ifvqesg","pricing_plan_id":"cebpf4jnsgd1na2vs0mg"},{"bike_id":"6d401513-66ba-4f40-af76-25e509695a78","system_id":"levelo_inurba_marseille","lat":43.29223,"lon":5.36069,"is_reserved":false,"is_disabled":false,"rental_uris":{"android":"levelo://app?vid=6d401513-66ba-4f40-af76-25e509695a78","ios":"levelo://app?vid=6d401513-66ba-4f40-af76-25e509695a78"},"vehicle_type_id":"4","last_reported":1734772114,"current_range_meters":24800,"station_id":"ce4bhbh2rcd13ifvqeqg","pricing_plan_id":"cebpf4jnsgd1na2vs0mg"},{"bike_id":"0c416f96-e023-4e22-81e2-21b4618932e5","system_id":"levelo_inurba_marseille","lat":43.29778,"lon":5.38115,"is_reserved":false,"is_disabled":true,"rental_uris":{"android":"levelo://app?vid=0c416f96-e023-4e22-81e2-21b4618932e5","ios":"levelo://app?vid=0c416f96-e023-4e22-81e2-21b4618932e5"},"vehicle_type_id":"4","last_reported":1734772114,"current_range_meters":22000,"station_id":"ce4bgip2rcd13ifvqbb0","pricing_plan_id":"cebpf4jnsgd1na2vs0mg"},{"bike_id":"93cd12d2-ee52-454b-a1c6-a2a94b1185da","system_id":"levelo_inurba_marseille","lat":43.24821,"lon":5.37444,"is_reserved":false,"is_disabled":false,"rental_uris":{"android":"levelo://app?vid=93cd12d2-ee52-454b-a1c6-a2a94b1185da","ios":"levelo://app?vid=93cd12d2-ee52-454b-a1c6-a2a94b1185da"},"vehicle_type_id":"4","last_reported":1734772114,"current_range_meters":38000,"station_id":"ce4bhgh2rcd13ifvqfb0","pricing_plan_id":"cebpf4jnsgd1na2vs0mg"},{"bike_id":"40cf54cb-b601-4452-a9d4-77e49eb44305","system_id":"levelo_inurba_marseille","lat":43.25114,"lon":5.40321,"is_reserved":false,"is_disabled":false,"rental_uris":{"android":"levelo://app?vid=40cf54cb-b601-4452-a9d4-77e49eb44305","ios":"levelo://app?vid=40cf54cb-b601-4452-a9d4-77e49eb44305"},"vehicle_type_id":"4","last_reported":1734772114,"current_range_meters":33600,"station_id":"ce4bhlh2rcd13ifvqgig","pricing_plan_id":"cebpf4jnsgd1na2vs0mg"},{"bike_id":"608374e1-f5ef-4e14-aac6-f3b4fbfd2453","system_id":"levelo_inurba_marseille","lat":43.25083,"lon":5.39524,"is_reserved":false,"is_disabled":false,"rental_uris":{"android":"levelo://app?vid=608374e1-f5ef-4e14-aac6-f3b4fbfd2453","ios":"levelo://app?vid=608374e1-f5ef-4e14-aac6-f3b4fbfd2453"},"vehicle_type_id":"4","last_reported":1734772114,"current_range_meters":31200,"station_id":"ce4bhm12rcd13ifvqgkg","pricing_plan_id":"cebpf4jnsgd1na2vs0mg"},{"bike_id":"644e3219-1450-4f2a-b186-c356cfe42ba2","system_id":"levelo_inurba_marseille","lat":43.28074,"lon":5.396504,"is_reserved":false,"is_disabled":false,"rental_uris":{"android":"levelo://app?vid=644e3219-1450-4f2a-b186-c356cfe42ba2","ios":"levelo://app?vid=644e3219-1450-4f2a-b186-c356cfe42ba2"},"vehicle_type_id":"4","last_reported":1734772114,"current_range_meters":10000,"station_id":"ce4bho12rcd13ifvqh2g","pricing_plan_id":"cebpf4jnsgd1na2vs0mg"},{"bike_id":"5481ebd9-b3a3-4db6-ba37-c92c821046b1","system_id":"levelo_inurba_marseille","lat":43.27619,"lon":5.36105,"is_reserved":false,"is_disabled":false,"rental_uris":{"android":"levelo://app?vid=5481ebd9-b3a3-4db6-ba37-c92c821046b1","ios":"levelo://app?vid=5481ebd9-b3a3-4db6-ba37-c92c821046b1"},"vehicle_type_id":"4","last_reported":1734772114,"current_range_meters":34800,"station_id":"ce4bgj92rcd13ifvqbe0","pricing_plan_id":"cebpf4jnsgd1na2vs0mg"},{"bike_id":"0dc27d4a-8841-4be6-998d-8a86b6d393f2","system_id":"levelo_inurba_marseille","lat":43.30415,"lon":5.41289,"is_reserved":false,"is_disabled":false,"rental_uris":{"android":"levelo://app?vid=0dc27d4a-8841-4be6-998d-8a86b6d393f2","ios":"levelo://app?vid=0dc27d4a-8841-4be6-998d-8a86b6d393f2"},"vehicle_type_id":"4","last_reported":1734772114,"current_range_meters":38800,"station_id":"ce4bhop2rcd13ifvqh8g","pricing_plan_id":"cebpf4jnsgd1na2vs0mg"},{"bike_id":"bdac6032-cb73-4da5-b699-708529d5b6ae","system_id":"levelo_inurba_marseille","lat":43.29959,"lon":5.41301,"is_reserved":false,"is_disabled":false,"rental_uris":{"android":"levelo://app?vid=bdac6032-cb73-4da5-b699-708529d5b6ae","ios":"levelo://app?vid=bdac6032-cb73-4da5-b699-708529d5b6ae"},"vehicle_type_id":"4","last_reported":1734772114,"current_range_meters":37600,"station_id":"ce4bhp12rcd13ifvqh9g","pricing_plan_id":"cebpf4jnsgd1na2vs0mg"},{"bike_id":"28d82292-98ba-4250-85c9-c5fea471f0be","system_id":"levelo_inurba_marseille","lat":43.29556,"lon":5.42281,"is_reserved":false,"is_disabled":false,"rental_uris":{"android":"levelo://app?vid=28d82292-98ba-4250-85c9-c5fea471f0be","ios":"levelo://app?vid=28d82292-98ba-4250-85c9-c5fea471f0be"},"vehicle_type_id":"4","last_reported":1734772114,"current_range_meters":14400,"station_id":"ce4bhph2rcd13ifvqhdg","pricing_plan_id":"cebpf4jnsgd1na2vs0mg"},{"bike_id":"a552f0f7-f135-4aca-b80e-8e9a86d87428","system_id":"levelo_inurba_marseille","lat":43.3415,"lon":5.40903,"is_reserved":false,"is_disabled":false,"rental_uris":{"android":"levelo://app?vid=a552f0f7-f135-4aca-b80e-8e9a86d87428","ios":"levelo://app?vid=a552f0f7-f135-4aca-b80e-8e9a86d87428"},"vehicle_type_id":"4","last_reported":1734772114,"current_range_meters":27600,"station_id":"ce4bhqh2rcd13ifvqhlg","pricing_plan_id":"cebpf4jnsgd1na2vs0mg"},{"bike_id":"310ff8fa-5cc6-4047-bf9d-779daaea8d73","system_id":"levelo_inurba_marseille","lat":43.28409,"lon":5.3498,"is_reserved":false,"is_disabled":false,"rental_uris":{"android":"levelo://app?vid=310ff8fa-5cc6-4047-bf9d-779daaea8d73","ios":"levelo://app?vid=310ff8fa-5cc6-4047-bf9d-779daaea8d73"},"vehicle_type_id":"4","last_reported":1734772114,"current_range_meters":18000,"station_id":"ce4bhbh2rcd13ifvqepg","pricing_plan_id":"cebpf4jnsgd1na2vs0mg"},{"bike_id":"23726d0d-b3e3-4a9d-9049-6a4ee15b329c","system_id":"levelo_inurba_marseille","lat":43.32659,"lon":5.40985,"is_reserved":false,"is_disabled":false,"rental_uris":{"android":"levelo://app?vid=23726d0d-b3e3-4a9d-9049-6a4ee15b329c","ios":"levelo://app?vid=23726d0d-b3e3-4a9d-9049-6a4ee15b329c"},"vehicle_type_id":"4","last_reported":1734772114,"current_range_meters":37600,"station_id":"ce4bhpp2rcd13ifvqhgg","pricing_plan_id":"cebpf4jnsgd1na2vs0mg"},{"bike_id":"9dd2c5cb-faef-44c4-9812-3e599949d098","system_id":"levelo_inurba_marseille","lat":43.29907,"lon":5.38138,"is_reserved":false,"is_disabled":false,"rental_uris":{"android":"levelo://app?vid=9dd2c5cb-faef-44c4-9812-3e599949d098","ios":"levelo://app?vid=9dd2c5cb-faef-44c4-9812-3e599949d098"},"vehicle_type_id":"4","last_reported":1734772114,"current_range_meters":28800,"station_id":"ce4bgj12rcd13ifvqbc0","pricing_plan_id":"cebpf4jnsgd1na2vs0mg"},{"bike_id":"3d2e7b3c-8e7f-4212-90cd-fa103541ba03","system_id":"levelo_inurba_marseille","lat":43.309346,"lon":5.401423,"is_reserved":false,"is_disabled":false,"rental_uris":{"android":"levelo://app?vid=3d2e7b3c-8e7f-4212-90cd-fa103541ba03","ios":"levelo://app?vid=3d2e7b3c-8e7f-4212-90cd-fa103541ba03"},"vehicle_type_id":"4","last_reported":1734772114,"current_range_meters":38800,"station_id":"ce4bgvp2rcd13ifvqct0","pricing_plan_id":"cebpf4jnsgd1na2vs0mg"},{"bike_id":"c886d264-379a-484f-b43b-b16e34181651","system_id":"levelo_inurba_marseille","lat":43.29368,"lon":5.37845,"is_reserved":false,"is_disabled":false,"rental_uris":{"android":"levelo://app?vid=c886d264-379a-484f-b43b-b16e34181651","ios":"levelo://app?vid=c886d264-379a-484f-b43b-b16e34181651"},"vehicle_type_id":"4","last_reported":1734772114,"current_range_meters":38400,"station_id":"ce4bgjh2rcd13ifvqbf0","pricing_plan_id":"cebpf4jnsgd1na2vs0mg"},{"bike_id":"7bf00481-e119-414e-90ce-ea5678d48638","system_id":"levelo_inurba_marseille","lat":43.239655,"lon":5.366344,"is_reserved":false,"is_disabled":false,"rental_uris":{"android":"levelo://app?vid=7bf00481-e119-414e-90ce-ea5678d48638","ios":"levelo://app?vid=7bf00481-e119-414e-90ce-ea5678d48638"},"vehicle_type_id":"4","last_reported":1734772114,"current_range_meters":11200,"station_id":"ce4bhi12rcd13ifvqfp0","pricing_plan_id":"cebpf4jnsgd1na2vs0mg"},{"bike_id":"9adbfd80-4a90-423e-918b-efc9aefda7cd","system_id":"levelo_inurba_marseille","lat":43.258663,"lon":5.399076,"is_reserved":false,"is_disabled":false,"rental_uris":{"android":"levelo://app?vid=9adbfd80-4a90-423e-918b-efc9aefda7cd","ios":"levelo://app?vid=9adbfd80-4a90-423e-918b-efc9aefda7cd"},"vehicle_type_id":"4","last_reported":1734772114,"current_range_meters":38800,"station_id":"ce4bhl92rcd13ifvqghg","pricing_plan_id":"cebpf4jnsgd1na2vs0mg"},{"bike_id":"9b5c443d-e6cf-46ac-8fe3-b898cf6edb1b","system_id":"levelo_inurba_marseille","lat":43.28714,"lon":5.39978,"is_reserved":false,"is_disabled":false,"rental_uris":{"android":"levelo://app?vid=9b5c443d-e6cf-46ac-8fe3-b898cf6edb1b","ios":"levelo://app?vid=9b5c443d-e6cf-46ac-8fe3-b898cf6edb1b"},"vehicle_type_id":"4","last_reported":1734772114,"current_range_meters":38800,"station_id":"ce4bho92rcd13ifvqh3g","pricing_plan_id":"cebpf4jnsgd1na2vs0mg"},{"bike_id":"dd52cea9-6fe3-460c-a4fc-255f18d6f38c","system_id":"levelo_inurba_marseille","lat":43.24986,"lon":5.38935,"is_reserved":false,"is_disabled":false,"rental_uris":{"android":"levelo://app?vid=dd52cea9-6fe3-460c-a4fc-255f18d6f38c","ios":"levelo://app?vid=dd52cea9-6fe3-460c-a4fc-255f18d6f38c"},"vehicle_type_id":"4","last_reported":1734772114,"current_range_meters":26800,"station_id":"ce4bhgp2rcd13ifvqfd0","pricing_plan_id":"cebpf4jnsgd1na2vs0mg"},{"bike_id":"02835011-6781-4b21-8cf5-3bf4e96fb2c9","system_id":"levelo_inurba_marseille","lat":43.3249,"lon":5.36564,"is_reserved":false,"is_disabled":false,"rental_uris":{"android":"levelo://app?vid=02835011-6781-4b21-8cf5-3bf4e96fb2c9","ios":"levelo://app?vid=02835011-6781-4b21-8cf5-3bf4e96fb2c9"},"vehicle_type_id":"4","last_reported":1734772114,"current_range_meters":29600,"station_id":"ce4bhs12rcd13ifvqhvg","pricing_plan_id":"cebpf4jnsgd1na2vs0mg"},{"bike_id":"dbfa572c-48d2-40b7-9e4a-c067a654725a","system_id":"levelo_inurba_marseille","lat":43.29698,"lon":5.36602,"is_reserved":false,"is_disabled":false,"rental_uris":{"android":"levelo://app?vid=dbfa572c-48d2-40b7-9e4a-c067a654725a","ios":"levelo://app?vid=dbfa572c-48d2-40b7-9e4a-c067a654725a"},"vehicle_type_id":"4","last_reported":1734772114,"current_range_meters":38800,"station_id":"ce4bgn12rcd13ifvqbt0","pricing_plan_id":"cebpf4jnsgd1na2vs0mg"},{"bike_id":"197bcdb2-43a0-424f-8053-126f45603c08","system_id":"levelo_inurba_marseille","lat":43.27973,"lon":5.38679,"is_reserved":false,"is_disabled":false,"rental_uris":{"android":"levelo://app?vid=197bcdb2-43a0-424f-8053-126f45603c08","ios":"levelo://app?vid=197bcdb2-43a0-424f-8053-126f45603c08"},"vehicle_type_id":"4","last_reported":1734772114,"current_range_meters":39200,"station_id":"ce4bhg12rcd13ifvqf80","pricing_plan_id":"cebpf4jnsgd1na2vs0mg"},{"bike_id":"0330259f-0861-48f5-9a21-7a991082f91c","system_id":"levelo_inurba_marseille","lat":43.23277,"lon":5.40147,"is_reserved":false,"is_disabled":false,"rental_uris":{"android":"levelo://app?vid=0330259f-0861-48f5-9a21-7a991082f91c","ios":"levelo://app?vid=0330259f-0861-48f5-9a21-7a991082f91c"},"vehicle_type_id":"4","last_reported":1734772114,"current_range_meters":34800,"station_id":"","pricing_plan_id":"cebpf4jnsgd1na2vs0mg"},{"bike_id":"fbf3da40-6db3-4b0a-ba01-e3b05174c03a","system_id":"levelo_inurba_marseille","lat":43.28271,"lon":5.35061,"is_reserved":false,"is_disabled":false,"rental_uris":{"android":"levelo://app?vid=fbf3da40-6db3-4b0a-ba01-e3b05174c03a","ios":"levelo://app?vid=fbf3da40-6db3-4b0a-ba01-e3b05174c03a"},"vehicle_type_id":"4","last_reported":1734772114,"current_range_meters":38800,"station_id":"ce4bhbp2rcd13ifvqerg","pricing_plan_id":"cebpf4jnsgd1na2vs0mg"},{"bike_id":"1f265f2c-c3ce-4530-9858-4eca3d9e00e1","system_id":"levelo_inurba_marseille","lat":43.23182,"lon":5.39991,"is_reserved":false,"is_disabled":false,"rental_uris":{"android":"levelo://app?vid=1f265f2c-c3ce-4530-9858-4eca3d9e00e1","ios":"levelo://app?vid=1f265f2c-c3ce-4530-9858-4eca3d9e00e1"},"vehicle_type_id":"4","last_reported":1734772114,"current_range_meters":10800,"station_id":"ce4bhn12rcd13ifvqgqg","pricing_plan_id":"cebpf4jnsgd1na2vs0mg"},{"bike_id":"03222871-1928-429c-9144-eb7e420691a6","system_id":"levelo_inurba_marseille","lat":43.29904,"lon":5.38135,"is_reserved":false,"is_disabled":false,"rental_uris":{"android":"levelo://app?vid=03222871-1928-429c-9144-eb7e420691a6","ios":"levelo://app?vid=03222871-1928-429c-9144-eb7e420691a6"},"vehicle_type_id":"4","last_reported":1734772114,"current_range_meters":38000,"station_id":"ce4bgj12rcd13ifvqbc0","pricing_plan_id":"cebpf4jnsgd1na2vs0mg"},{"bike_id":"4eae2ea4-f109-4e2c-8b2c-d56b040950c5","system_id":"levelo_inurba_marseille","lat":43.29606,"lon":5.37716,"is_reserved":false,"is_disabled":true,"rental_uris":{"android":"levelo://app?vid=4eae2ea4-f109-4e2c-8b2c-d56b040950c5","ios":"levelo://app?vid=4eae2ea4-f109-4e2c-8b2c-d56b040950c5"},"vehicle_type_id":"4","last_reported":1734772114,"current_range_meters":37600,"station_id":"ce4bgi92rcd13ifvqb90","pricing_plan_id":"cebpf4jnsgd1na2vs0mg"},{"bike_id":"7fd1c797-e3d8-4dec-be0f-7347244fa071","system_id":"levelo_inurba_marseille","lat":43.31719,"lon":5.42405,"is_reserved":false,"is_disabled":false,"rental_uris":{"android":"levelo://app?vid=7fd1c797-e3d8-4dec-be0f-7347244fa071","ios":"levelo://app?vid=7fd1c797-e3d8-4dec-be0f-7347244fa071"},"vehicle_type_id":"4","last_reported":1734772114,"current_range_meters":14000,"station_id":"ce4bhp92rcd13ifvqhbg","pricing_plan_id":"cebpf4jnsgd1na2vs0mg"},{"bike_id":"0d48f3b0-1fa0-4cfc-93b0-41dadf3dff3a","system_id":"levelo_inurba_marseille","lat":43.27428,"lon":5.39408,"is_reserved":false,"is_disabled":false,"rental_uris":{"android":"levelo://app?vid=0d48f3b0-1fa0-4cfc-93b0-41dadf3dff3a","ios":"levelo://app?vid=0d48f3b0-1fa0-4cfc-93b0-41dadf3dff3a"},"vehicle_type_id":"4","last_reported":1734772114,"current_range_meters":30800,"station_id":"ce4bhdp2rcd13ifvqf20","pricing_plan_id":"cebpf4jnsgd1na2vs0mg"},{"bike_id":"f0e17797-aec2-44b7-9818-f9146787ce8c","system_id":"levelo_inurba_marseille","lat":43.28416,"lon":5.3499,"is_reserved":false,"is_disabled":true,"rental_uris":{"android":"levelo://app?vid=f0e17797-aec2-44b7-9818-f9146787ce8c","ios":"levelo://app?vid=f0e17797-aec2-44b7-9818-f9146787ce8c"},"vehicle_type_id":"4","last_reported":1734772114,"current_range_meters":3200,"station_id":"ce4bhbh2rcd13ifvqepg","pricing_plan_id":"cebpf4jnsgd1na2vs0mg"},{"bike_id":"e724f4e5-0922-4e36-91f4-8a4c9d514ff5","system_id":"levelo_inurba_marseille","lat":43.29834,"lon":5.36266,"is_reserved":false,"is_disabled":false,"rental_uris":{"android":"levelo://app?vid=e724f4e5-0922-4e36-91f4-8a4c9d514ff5","ios":"levelo://app?vid=e724f4e5-0922-4e36-91f4-8a4c9d514ff5"},"vehicle_type_id":"4","last_reported":1734772114,"current_range_meters":39200,"station_id":"ce4bgpp2rcd13ifvqc3g","pricing_plan_id":"cebpf4jnsgd1na2vs0mg"},{"bike_id":"fe187b0f-abff-4fa7-8a20-0462e6c79208","system_id":"levelo_inurba_marseille","lat":43.24391,"lon":5.37055,"is_reserved":false,"is_disabled":false,"rental_uris":{"android":"levelo://app?vid=fe187b0f-abff-4fa7-8a20-0462e6c79208","ios":"levelo://app?vid=fe187b0f-abff-4fa7-8a20-0462e6c79208"},"vehicle_type_id":"4","last_reported":1734772114,"current_range_meters":22400,"station_id":"ce4bhhh2rcd13ifvqfk0","pricing_plan_id":"cebpf4jnsgd1na2vs0mg"},{"bike_id":"bcb6b5b9-d0df-4bf1-aa82-d9c67d9e50a7","system_id":"levelo_inurba_marseille","lat":43.24548,"lon":5.39516,"is_reserved":false,"is_disabled":false,"rental_uris":{"android":"levelo://app?vid=bcb6b5b9-d0df-4bf1-aa82-d9c67d9e50a7","ios":"levelo://app?vid=bcb6b5b9-d0df-4bf1-aa82-d9c67d9e50a7"},"vehicle_type_id":"4","last_reported":1734772114,"current_range_meters":36800,"station_id":"ce4bhlp2rcd13ifvqgjg","pricing_plan_id":"cebpf4jnsgd1na2vs0mg"},{"bike_id":"d98f0b8a-1ef4-43b4-85a1-12b00b5f4de1","system_id":"levelo_inurba_marseille","lat":43.28423,"lon":5.3499,"is_reserved":false,"is_disabled":false,"rental_uris":{"android":"levelo://app?vid=d98f0b8a-1ef4-43b4-85a1-12b00b5f4de1","ios":"levelo://app?vid=d98f0b8a-1ef4-43b4-85a1-12b00b5f4de1"},"vehicle_type_id":"4","last_reported":1734772114,"current_range_meters":38800,"station_id":"ce4bhbh2rcd13ifvqepg","pricing_plan_id":"cebpf4jnsgd1na2vs0mg"},{"bike_id":"cbd8c37e-4c23-4764-beb6-a16227464b84","system_id":"levelo_inurba_marseille","lat":43.26807,"lon":5.40273,"is_reserved":false,"is_disabled":false,"rental_uris":{"android":"levelo://app?vid=cbd8c37e-4c23-4764-beb6-a16227464b84","ios":"levelo://app?vid=cbd8c37e-4c23-4764-beb6-a16227464b84"},"vehicle_type_id":"4","last_reported":1734772114,"current_range_meters":36000,"station_id":"ce501612rcd8frsf0b60","pricing_plan_id":"cebpf4jnsgd1na2vs0mg"},{"bike_id":"ecf2b6fb-aff9-4c2e-bfed-71698cff47d7","system_id":"levelo_inurba_marseille","lat":43.28619,"lon":5.35102,"is_reserved":false,"is_disabled":false,"rental_uris":{"android":"levelo://app?vid=ecf2b6fb-aff9-4c2e-bfed-71698cff47d7","ios":"levelo://app?vid=ecf2b6fb-aff9-4c2e-bfed-71698cff47d7"},"vehicle_type_id":"4","last_reported":1734772114,"current_range_meters":34800,"station_id":"ce4bhch2rcd13ifvqeug","pricing_plan_id":"cebpf4jnsgd1na2vs0mg"},{"bike_id":"0e2bb598-cdc5-410c-840d-9a9428cfc3b4","system_id":"levelo_inurba_marseille","lat":43.28617,"lon":5.35102,"is_reserved":false,"is_disabled":false,"rental_uris":{"android":"levelo://app?vid=0e2bb598-cdc5-410c-840d-9a9428cfc3b4","ios":"levelo://app?vid=0e2bb598-cdc5-410c-840d-9a9428cfc3b4"},"vehicle_type_id":"4","last_reported":1734772114,"current_range_meters":28800,"station_id":"ce4bhch2rcd13ifvqeug","pricing_plan_id":"cebpf4jnsgd1na2vs0mg"},{"bike_id":"59ca2ebc-7c6f-439a-a11b-02933f88209e","system_id":"levelo_inurba_marseille","lat":43.270741,"lon":5.422844,"is_reserved":false,"is_disabled":false,"rental_uris":{"android":"levelo://app?vid=59ca2ebc-7c6f-439a-a11b-02933f88209e","ios":"levelo://app?vid=59ca2ebc-7c6f-439a-a11b-02933f88209e"},"vehicle_type_id":"4","last_reported":1734772114,"current_range_meters":38000,"station_id":"ce4bhk92rcd13ifvqgb0","pricing_plan_id":"cebpf4jnsgd1na2vs0mg"},{"bike_id":"c36f9794-db64-4a07-823f-b590f113a19f","system_id":"levelo_inurba_marseille","lat":43.27955,"lon":5.4104,"is_reserved":false,"is_disabled":false,"rental_uris":{"android":"levelo://app?vid=c36f9794-db64-4a07-823f-b590f113a19f","ios":"levelo://app?vid=c36f9794-db64-4a07-823f-b590f113a19f"},"vehicle_type_id":"4","last_reported":1734772114,"current_range_meters":7200,"station_id":"ce4bhnp2rcd13ifvqh0g","pricing_plan_id":"cebpf4jnsgd1na2vs0mg"},{"bike_id":"a05e82d5-edf0-4bab-8347-bee3a08758db","system_id":"levelo_inurba_marseille","lat":43.30325,"lon":5.40403,"is_reserved":false,"is_disabled":false,"rental_uris":{"android":"levelo://app?vid=a05e82d5-edf0-4bab-8347-bee3a08758db","ios":"levelo://app?vid=a05e82d5-edf0-4bab-8347-bee3a08758db"},"vehicle_type_id":"4","last_reported":1734772114,"current_range_meters":37600,"station_id":"ce4bh012rcd13ifvqd10","pricing_plan_id":"cebpf4jnsgd1na2vs0mg"},{"bike_id":"18b3f870-bfe7-4396-81e5-34ed6ada0d75","system_id":"levelo_inurba_marseille","lat":43.30157,"lon":5.38081,"is_reserved":false,"is_disabled":false,"rental_uris":{"android":"levelo://app?vid=18b3f870-bfe7-4396-81e5-34ed6ada0d75","ios":"levelo://app?vid=18b3f870-bfe7-4396-81e5-34ed6ada0d75"},"vehicle_type_id":"4","last_reported":1734772114,"current_range_meters":38800,"station_id":"ce4bgjp2rcd13ifvqbh0","pricing_plan_id":"cebpf4jnsgd1na2vs0mg"},{"bike_id":"75bcc3b1-3091-4198-922a-90b0ea0094c0","system_id":"levelo_inurba_marseille","lat":43.25581,"lon":5.38237,"is_reserved":false,"is_disabled":false,"rental_uris":{"android":"levelo://app?vid=75bcc3b1-3091-4198-922a-90b0ea0094c0","ios":"levelo://app?vid=75bcc3b1-3091-4198-922a-90b0ea0094c0"},"vehicle_type_id":"4","last_reported":1734772114,"current_range_meters":38800,"station_id":"ce4bhih2rcd13ifvqfs0","pricing_plan_id":"cebpf4jnsgd1na2vs0mg"},{"bike_id":"25dffdc4-12e6-479d-a1cf-aedf5dd4dcc0","system_id":"levelo_inurba_marseille","lat":43.29033,"lon":5.39966,"is_reserved":false,"is_disabled":false,"rental_uris":{"android":"levelo://app?vid=25dffdc4-12e6-479d-a1cf-aedf5dd4dcc0","ios":"levelo://app?vid=25dffdc4-12e6-479d-a1cf-aedf5dd4dcc0"},"vehicle_type_id":"4","last_reported":1734772114,"current_range_meters":38800,"station_id":"ce4bh392rcd13ifvqdm0","pricing_plan_id":"cebpf4jnsgd1na2vs0mg"},{"bike_id":"7d0dceaf-10a5-4c28-b6ae-56be7eaf2718","system_id":"levelo_inurba_marseille","lat":43.30536,"lon":5.38413,"is_reserved":false,"is_disabled":false,"rental_uris":{"android":"levelo://app?vid=7d0dceaf-10a5-4c28-b6ae-56be7eaf2718","ios":"levelo://app?vid=7d0dceaf-10a5-4c28-b6ae-56be7eaf2718"},"vehicle_type_id":"4","last_reported":1734772114,"current_range_meters":22800,"station_id":"ce4bgg92rcd13ifvqb30","pricing_plan_id":"cebpf4jnsgd1na2vs0mg"},{"bike_id":"050c3878-40f7-4736-b04e-eb1dd4174ffa","system_id":"levelo_inurba_marseille","lat":43.23184,"lon":5.39979,"is_reserved":false,"is_disabled":false,"rental_uris":{"android":"levelo://app?vid=050c3878-40f7-4736-b04e-eb1dd4174ffa","ios":"levelo://app?vid=050c3878-40f7-4736-b04e-eb1dd4174ffa"},"vehicle_type_id":"4","last_reported":1734772114,"current_range_meters":38800,"station_id":"ce4bhn12rcd13ifvqgqg","pricing_plan_id":"cebpf4jnsgd1na2vs0mg"},{"bike_id":"ceca975b-b342-4918-8353-e4cd51aebfcc","system_id":"levelo_inurba_marseille","lat":43.28624,"lon":5.35087,"is_reserved":false,"is_disabled":false,"rental_uris":{"android":"levelo://app?vid=ceca975b-b342-4918-8353-e4cd51aebfcc","ios":"levelo://app?vid=ceca975b-b342-4918-8353-e4cd51aebfcc"},"vehicle_type_id":"4","last_reported":1734772114,"current_range_meters":38800,"station_id":"ce4bhch2rcd13ifvqeug","pricing_plan_id":"cebpf4jnsgd1na2vs0mg"},{"bike_id":"4bb53858-13da-4855-8574-7bcca5cac5f7","system_id":"levelo_inurba_marseille","lat":43.28478,"lon":5.38404,"is_reserved":false,"is_disabled":false,"rental_uris":{"android":"levelo://app?vid=4bb53858-13da-4855-8574-7bcca5cac5f7","ios":"levelo://app?vid=4bb53858-13da-4855-8574-7bcca5cac5f7"},"vehicle_type_id":"4","last_reported":1734772114,"current_range_meters":38800,"station_id":"ce4bh512rcd13ifvqe3g","pricing_plan_id":"cebpf4jnsgd1na2vs0mg"},{"bike_id":"024485b5-2f43-4c53-b2be-2661c3fc08f0","system_id":"levelo_inurba_marseille","lat":43.24178,"lon":5.39693,"is_reserved":false,"is_disabled":false,"rental_uris":{"android":"levelo://app?vid=024485b5-2f43-4c53-b2be-2661c3fc08f0","ios":"levelo://app?vid=024485b5-2f43-4c53-b2be-2661c3fc08f0"},"vehicle_type_id":"4","last_reported":1734772114,"current_range_meters":17200,"station_id":"ce4bhn12rcd13ifvqgpg","pricing_plan_id":"cebpf4jnsgd1na2vs0mg"},{"bike_id":"10fcee42-d221-4289-ab07-0d2d2329ab09","system_id":"levelo_inurba_marseille","lat":43.31319,"lon":5.39693,"is_reserved":false,"is_disabled":false,"rental_uris":{"android":"levelo://app?vid=10fcee42-d221-4289-ab07-0d2d2329ab09","ios":"levelo://app?vid=10fcee42-d221-4289-ab07-0d2d2329ab09"},"vehicle_type_id":"4","last_reported":1734772114,"current_range_meters":38400,"station_id":"ce4bgvp2rcd13ifvqcu0","pricing_plan_id":"cebpf4jnsgd1na2vs0mg"},{"bike_id":"4ed128f2-c289-492e-b733-41626add23cd","system_id":"levelo_inurba_marseille","lat":43.31888,"lon":5.40732,"is_reserved":false,"is_disabled":false,"rental_uris":{"android":"levelo://app?vid=4ed128f2-c289-492e-b733-41626add23cd","ios":"levelo://app?vid=4ed128f2-c289-492e-b733-41626add23cd"},"vehicle_type_id":"4","last_reported":1734772114,"current_range_meters":37600,"station_id":"ce4bhq12rcd13ifvqhig","pricing_plan_id":"cebpf4jnsgd1na2vs0mg"},{"bike_id":"2d33d852-2454-42ae-b783-c4d3c265a19e","system_id":"levelo_inurba_marseille","lat":43.3111,"lon":5.3776,"is_reserved":false,"is_disabled":false,"rental_uris":{"android":"levelo://app?vid=2d33d852-2454-42ae-b783-c4d3c265a19e","ios":"levelo://app?vid=2d33d852-2454-42ae-b783-c4d3c265a19e"},"vehicle_type_id":"4","last_reported":1734772114,"current_range_meters":36000,"station_id":"ce4bgt92rcd13ifvqcg0","pricing_plan_id":"cebpf4jnsgd1na2vs0mg"},{"bike_id":"0980de7c-a667-49ae-a8d0-d19b45101443","system_id":"levelo_inurba_marseille","lat":43.2743,"lon":5.39415,"is_reserved":false,"is_disabled":false,"rental_uris":{"android":"levelo://app?vid=0980de7c-a667-49ae-a8d0-d19b45101443","ios":"levelo://app?vid=0980de7c-a667-49ae-a8d0-d19b45101443"},"vehicle_type_id":"4","last_reported":1734772114,"current_range_meters":26800,"station_id":"ce4bhdp2rcd13ifvqf20","pricing_plan_id":"cebpf4jnsgd1na2vs0mg"},{"bike_id":"dc7e0eb1-dfc3-499a-85a0-06f49da607b9","system_id":"levelo_inurba_marseille","lat":43.29289,"lon":5.3685,"is_reserved":false,"is_disabled":false,"rental_uris":{"android":"levelo://app?vid=dc7e0eb1-dfc3-499a-85a0-06f49da607b9","ios":"levelo://app?vid=dc7e0eb1-dfc3-499a-85a0-06f49da607b9"},"vehicle_type_id":"4","last_reported":1734772114,"current_range_meters":22400,"station_id":"ce4bhbp2rcd13ifvqesg","pricing_plan_id":"cebpf4jnsgd1na2vs0mg"},{"bike_id":"1337798b-3909-4d2e-9c82-73cad4e2fa59","system_id":"levelo_inurba_marseille","lat":43.29184,"lon":5.35804,"is_reserved":false,"is_disabled":false,"rental_uris":{"android":"levelo://app?vid=1337798b-3909-4d2e-9c82-73cad4e2fa59","ios":"levelo://app?vid=1337798b-3909-4d2e-9c82-73cad4e2fa59"},"vehicle_type_id":"4","last_reported":1734772114,"current_range_meters":9600,"station_id":"ce4bhb12rcd13ifvqel0","pricing_plan_id":"cebpf4jnsgd1na2vs0mg"},{"bike_id":"52a88488-4dd2-4f03-9384-f060d17bb6f5","system_id":"levelo_inurba_marseille","lat":43.25864,"lon":5.39896,"is_reserved":false,"is_disabled":true,"rental_uris":{"android":"levelo://app?vid=52a88488-4dd2-4f03-9384-f060d17bb6f5","ios":"levelo://app?vid=52a88488-4dd2-4f03-9384-f060d17bb6f5"},"vehicle_type_id":"4","last_reported":1734772114,"current_range_meters":0,"station_id":"ce4bhl92rcd13ifvqghg","pricing_plan_id":"cebpf4jnsgd1na2vs0mg"},{"bike_id":"ae0d433e-0a1e-4605-b6d4-7ce034ac0e57","system_id":"levelo_inurba_marseille","lat":43.30166,"lon":5.38084,"is_reserved":false,"is_disabled":false,"rental_uris":{"android":"levelo://app?vid=ae0d433e-0a1e-4605-b6d4-7ce034ac0e57","ios":"levelo://app?vid=ae0d433e-0a1e-4605-b6d4-7ce034ac0e57"},"vehicle_type_id":"4","last_reported":1734772114,"current_range_meters":35600,"station_id":"ce4bgjp2rcd13ifvqbh0","pricing_plan_id":"cebpf4jnsgd1na2vs0mg"},{"bike_id":"54d44a46-a2d6-4450-922f-4ed5f2190865","system_id":"levelo_inurba_marseille","lat":43.31324,"lon":5.39697,"is_reserved":false,"is_disabled":false,"rental_uris":{"android":"levelo://app?vid=54d44a46-a2d6-4450-922f-4ed5f2190865","ios":"levelo://app?vid=54d44a46-a2d6-4450-922f-4ed5f2190865"},"vehicle_type_id":"4","last_reported":1734772114,"current_range_meters":28400,"station_id":"ce4bgvp2rcd13ifvqcu0","pricing_plan_id":"cebpf4jnsgd1na2vs0mg"},{"bike_id":"a57e9664-8eac-454e-a02a-57c62b6d02a3","system_id":"levelo_inurba_marseille","lat":43.29932,"lon":5.37479,"is_reserved":false,"is_disabled":false,"rental_uris":{"android":"levelo://app?vid=a57e9664-8eac-454e-a02a-57c62b6d02a3","ios":"levelo://app?vid=a57e9664-8eac-454e-a02a-57c62b6d02a3"},"vehicle_type_id":"4","last_reported":1734772114,"current_range_meters":38800,"station_id":"ce4bgjh2rcd13ifvqbg0","pricing_plan_id":"cebpf4jnsgd1na2vs0mg"},{"bike_id":"e98dacc7-5ace-4836-8928-a7ceea27e536","system_id":"levelo_inurba_marseille","lat":43.31074,"lon":5.38369,"is_reserved":false,"is_disabled":false,"rental_uris":{"android":"levelo://app?vid=e98dacc7-5ace-4836-8928-a7ceea27e536","ios":"levelo://app?vid=e98dacc7-5ace-4836-8928-a7ceea27e536"},"vehicle_type_id":"4","last_reported":1734772114,"current_range_meters":38800,"station_id":"ce4bgv92rcd13ifvqcr0","pricing_plan_id":"cebpf4jnsgd1na2vs0mg"},{"bike_id":"782bcbf2-b7de-4b04-bebc-aaa0329dd90c","system_id":"levelo_inurba_marseille","lat":43.23191,"lon":5.35554,"is_reserved":false,"is_disabled":false,"rental_uris":{"android":"levelo://app?vid=782bcbf2-b7de-4b04-bebc-aaa0329dd90c","ios":"levelo://app?vid=782bcbf2-b7de-4b04-bebc-aaa0329dd90c"},"vehicle_type_id":"4","last_reported":1734772114,"current_range_meters":32400,"station_id":"ce4bhu92rcd13ifvqi70","pricing_plan_id":"cebpf4jnsgd1na2vs0mg"},{"bike_id":"e425ded7-f62c-4bc1-97fe-52e18c830535","system_id":"levelo_inurba_marseille","lat":43.25115,"lon":5.40315,"is_reserved":false,"is_disabled":false,"rental_uris":{"android":"levelo://app?vid=e425ded7-f62c-4bc1-97fe-52e18c830535","ios":"levelo://app?vid=e425ded7-f62c-4bc1-97fe-52e18c830535"},"vehicle_type_id":"4","last_reported":1734772114,"current_range_meters":38800,"station_id":"ce4bhlh2rcd13ifvqgig","pricing_plan_id":"cebpf4jnsgd1na2vs0mg"},{"bike_id":"4a2be021-2f35-4eb8-83ed-9e2dc754db9b","system_id":"levelo_inurba_marseille","lat":43.31723,"lon":5.4239,"is_reserved":false,"is_disabled":false,"rental_uris":{"android":"levelo://app?vid=4a2be021-2f35-4eb8-83ed-9e2dc754db9b","ios":"levelo://app?vid=4a2be021-2f35-4eb8-83ed-9e2dc754db9b"},"vehicle_type_id":"4","last_reported":1734772114,"current_range_meters":38800,"station_id":"ce4bhp92rcd13ifvqhbg","pricing_plan_id":"cebpf4jnsgd1na2vs0mg"},{"bike_id":"28359293-f545-4fe0-abe9-968f18af110f","system_id":"levelo_inurba_marseille","lat":43.30323,"lon":5.40433,"is_reserved":false,"is_disabled":false,"rental_uris":{"android":"levelo://app?vid=28359293-f545-4fe0-abe9-968f18af110f","ios":"levelo://app?vid=28359293-f545-4fe0-abe9-968f18af110f"},"vehicle_type_id":"4","last_reported":1734772114,"current_range_meters":7200,"station_id":"ce4bh012rcd13ifvqd10","pricing_plan_id":"cebpf4jnsgd1na2vs0mg"},{"bike_id":"2e59fed5-bb70-4db4-a892-ef646d43a580","system_id":"levelo_inurba_marseille","lat":43.30805,"lon":5.38151,"is_reserved":false,"is_disabled":false,"rental_uris":{"android":"levelo://app?vid=2e59fed5-bb70-4db4-a892-ef646d43a580","ios":"levelo://app?vid=2e59fed5-bb70-4db4-a892-ef646d43a580"},"vehicle_type_id":"4","last_reported":1734772114,"current_range_meters":22400,"station_id":"ce4bgt12rcd13ifvqce0","pricing_plan_id":"cebpf4jnsgd1na2vs0mg"},{"bike_id":"53de60a2-1dc8-4308-bec8-17d5e67e0e0c","system_id":"levelo_inurba_marseille","lat":43.26683,"lon":5.3827,"is_reserved":false,"is_disabled":false,"rental_uris":{"android":"levelo://app?vid=53de60a2-1dc8-4308-bec8-17d5e67e0e0c","ios":"levelo://app?vid=53de60a2-1dc8-4308-bec8-17d5e67e0e0c"},"vehicle_type_id":"4","last_reported":1734772114,"current_range_meters":32000,"station_id":"ce4bhg92rcd13ifvqf90","pricing_plan_id":"cebpf4jnsgd1na2vs0mg"},{"bike_id":"d532bafb-9e8b-4cf7-90e8-b135eb98500d","system_id":"levelo_inurba_marseille","lat":43.3055,"lon":5.367,"is_reserved":false,"is_disabled":false,"rental_uris":{"android":"levelo://app?vid=d532bafb-9e8b-4cf7-90e8-b135eb98500d","ios":"levelo://app?vid=d532bafb-9e8b-4cf7-90e8-b135eb98500d"},"vehicle_type_id":"4","last_reported":1734772114,"current_range_meters":36000,"station_id":"ce4bgrp2rcd13ifvqc9g","pricing_plan_id":"cebpf4jnsgd1na2vs0mg"},{"bike_id":"434ce6a0-96c5-4ff8-936b-8a3805d21bda","system_id":"levelo_inurba_marseille","lat":43.26031,"lon":5.37549,"is_reserved":false,"is_disabled":false,"rental_uris":{"android":"levelo://app?vid=434ce6a0-96c5-4ff8-936b-8a3805d21bda","ios":"levelo://app?vid=434ce6a0-96c5-4ff8-936b-8a3805d21bda"},"vehicle_type_id":"4","last_reported":1734772114,"current_range_meters":30800,"station_id":"ce4bhgh2rcd13ifvqfa0","pricing_plan_id":"cebpf4jnsgd1na2vs0mg"},{"bike_id":"0f8573bd-6480-49b4-822d-98c8893c51d9","system_id":"levelo_inurba_marseille","lat":43.30154,"lon":5.38087,"is_reserved":false,"is_disabled":false,"rental_uris":{"android":"levelo://app?vid=0f8573bd-6480-49b4-822d-98c8893c51d9","ios":"levelo://app?vid=0f8573bd-6480-49b4-822d-98c8893c51d9"},"vehicle_type_id":"4","last_reported":1734772114,"current_range_meters":33600,"station_id":"ce4bgjp2rcd13ifvqbh0","pricing_plan_id":"cebpf4jnsgd1na2vs0mg"},{"bike_id":"36e1421a-526a-45b4-9352-d10c15fd9574","system_id":"levelo_inurba_marseille","lat":43.30803,"lon":5.4352,"is_reserved":false,"is_disabled":false,"rental_uris":{"android":"levelo://app?vid=36e1421a-526a-45b4-9352-d10c15fd9574","ios":"levelo://app?vid=36e1421a-526a-45b4-9352-d10c15fd9574"},"vehicle_type_id":"4","last_reported":1734772114,"current_range_meters":21600,"station_id":"ce4bhph2rcd13ifvqheg","pricing_plan_id":"cebpf4jnsgd1na2vs0mg"},{"bike_id":"e1e55b34-0cc8-42c6-b9d9-a442d6ab0cd4","system_id":"levelo_inurba_marseille","lat":43.23185,"lon":5.4,"is_reserved":false,"is_disabled":false,"rental_uris":{"android":"levelo://app?vid=e1e55b34-0cc8-42c6-b9d9-a442d6ab0cd4","ios":"levelo://app?vid=e1e55b34-0cc8-42c6-b9d9-a442d6ab0cd4"},"vehicle_type_id":"4","last_reported":1734772114,"current_range_meters":26800,"station_id":"ce4bhn12rcd13ifvqgqg","pricing_plan_id":"cebpf4jnsgd1na2vs0mg"},{"bike_id":"7dfe0b4f-686f-4b42-9a2a-a22fb46e027a","system_id":"levelo_inurba_marseille","lat":43.3093,"lon":5.4013,"is_reserved":false,"is_disabled":false,"rental_uris":{"android":"levelo://app?vid=7dfe0b4f-686f-4b42-9a2a-a22fb46e027a","ios":"levelo://app?vid=7dfe0b4f-686f-4b42-9a2a-a22fb46e027a"},"vehicle_type_id":"4","last_reported":1734772114,"current_range_meters":33600,"station_id":"ce4bgvp2rcd13ifvqct0","pricing_plan_id":"cebpf4jnsgd1na2vs0mg"},{"bike_id":"b67e6347-c993-4186-b85c-1f54c9e75564","system_id":"levelo_inurba_marseille","lat":43.275721,"lon":5.384231,"is_reserved":false,"is_disabled":false,"rental_uris":{"android":"levelo://app?vid=b67e6347-c993-4186-b85c-1f54c9e75564","ios":"levelo://app?vid=b67e6347-c993-4186-b85c-1f54c9e75564"},"vehicle_type_id":"4","last_reported":1734772114,"current_range_meters":38800,"station_id":"ce4bhh92rcd13ifvqfi0","pricing_plan_id":"cebpf4jnsgd1na2vs0mg"},{"bike_id":"a5404b43-1f8d-4cf3-a071-fce93c8325c1","system_id":"levelo_inurba_marseille","lat":43.27054,"lon":5.40261,"is_reserved":false,"is_disabled":false,"rental_uris":{"android":"levelo://app?vid=a5404b43-1f8d-4cf3-a071-fce93c8325c1","ios":"levelo://app?vid=a5404b43-1f8d-4cf3-a071-fce93c8325c1"},"vehicle_type_id":"4","last_reported":1734772114,"current_range_meters":26800,"station_id":"ce4bhk92rcd13ifvqgc0","pricing_plan_id":"cebpf4jnsgd1na2vs0mg"},{"bike_id":"0e7ace62-43ff-4b65-b292-1bdd6f5e20e7","system_id":"levelo_inurba_marseille","lat":43.317141,"lon":5.377399,"is_reserved":false,"is_disabled":false,"rental_uris":{"android":"levelo://app?vid=0e7ace62-43ff-4b65-b292-1bdd6f5e20e7","ios":"levelo://app?vid=0e7ace62-43ff-4b65-b292-1bdd6f5e20e7"},"vehicle_type_id":"4","last_reported":1734772114,"current_range_meters":12400,"station_id":"ce4bgth2rcd13ifvqch0","pricing_plan_id":"cebpf4jnsgd1na2vs0mg"},{"bike_id":"44127e4e-8e84-4a38-89f7-8f4efb63f7a5","system_id":"levelo_inurba_marseille","lat":43.31199,"lon":5.36755,"is_reserved":false,"is_disabled":true,"rental_uris":{"android":"levelo://app?vid=44127e4e-8e84-4a38-89f7-8f4efb63f7a5","ios":"levelo://app?vid=44127e4e-8e84-4a38-89f7-8f4efb63f7a5"},"vehicle_type_id":"4","last_reported":1734772114,"current_range_meters":0,"station_id":"","pricing_plan_id":"cebpf4jnsgd1na2vs0mg"},{"bike_id":"5a3111e7-c3c7-4666-95c0-9b09eb1e723b","system_id":"levelo_inurba_marseille","lat":43.29898,"lon":5.43666,"is_reserved":false,"is_disabled":false,"rental_uris":{"android":"levelo://app?vid=5a3111e7-c3c7-4666-95c0-9b09eb1e723b","ios":"levelo://app?vid=5a3111e7-c3c7-4666-95c0-9b09eb1e723b"},"vehicle_type_id":"4","last_reported":1734772114,"current_range_meters":34800,"station_id":"ce4bhpp2rcd13ifvqhfg","pricing_plan_id":"cebpf4jnsgd1na2vs0mg"},{"bike_id":"488a74a3-dcc3-431b-ab04-25207f5a6c1e","system_id":"levelo_inurba_marseille","lat":43.34143,"lon":5.409,"is_reserved":false,"is_disabled":false,"rental_uris":{"android":"levelo://app?vid=488a74a3-dcc3-431b-ab04-25207f5a6c1e","ios":"levelo://app?vid=488a74a3-dcc3-431b-ab04-25207f5a6c1e"},"vehicle_type_id":"4","last_reported":1734772114,"current_range_meters":36800,"station_id":"ce4bhqh2rcd13ifvqhlg","pricing_plan_id":"cebpf4jnsgd1na2vs0mg"},{"bike_id":"63efaa31-84be-426a-b462-d03945a54ee5","system_id":"levelo_inurba_marseille","lat":43.30466,"lon":5.37911,"is_reserved":false,"is_disabled":false,"rental_uris":{"android":"levelo://app?vid=63efaa31-84be-426a-b462-d03945a54ee5","ios":"levelo://app?vid=63efaa31-84be-426a-b462-d03945a54ee5"},"vehicle_type_id":"4","last_reported":1734772114,"current_range_meters":35200,"station_id":"ce4bgup2rcd13ifvqcn0","pricing_plan_id":"cebpf4jnsgd1na2vs0mg"},{"bike_id":"f34eacaa-2915-488b-8995-9de516cb09f1","system_id":"levelo_inurba_marseille","lat":43.29708,"lon":5.36595,"is_reserved":false,"is_disabled":false,"rental_uris":{"android":"levelo://app?vid=f34eacaa-2915-488b-8995-9de516cb09f1","ios":"levelo://app?vid=f34eacaa-2915-488b-8995-9de516cb09f1"},"vehicle_type_id":"4","last_reported":1734772114,"current_range_meters":33200,"station_id":"ce4bgn12rcd13ifvqbt0","pricing_plan_id":"cebpf4jnsgd1na2vs0mg"},{"bike_id":"4c1fd80c-e9fb-42bb-9ee8-77cae5913cbe","system_id":"levelo_inurba_marseille","lat":43.28612,"lon":5.37053,"is_reserved":false,"is_disabled":false,"rental_uris":{"android":"levelo://app?vid=4c1fd80c-e9fb-42bb-9ee8-77cae5913cbe","ios":"levelo://app?vid=4c1fd80c-e9fb-42bb-9ee8-77cae5913cbe"},"vehicle_type_id":"4","last_reported":1734772114,"current_range_meters":33600,"station_id":"ce4bht12rcd13ifvqi60","pricing_plan_id":"cebpf4jnsgd1na2vs0mg"},{"bike_id":"a198e248-41c4-4a27-af7b-34f7a7595000","system_id":"levelo_inurba_marseille","lat":43.299132,"lon":5.37469,"is_reserved":false,"is_disabled":false,"rental_uris":{"android":"levelo://app?vid=a198e248-41c4-4a27-af7b-34f7a7595000","ios":"levelo://app?vid=a198e248-41c4-4a27-af7b-34f7a7595000"},"vehicle_type_id":"4","last_reported":1734772114,"current_range_meters":38800,"station_id":"ce4bgjh2rcd13ifvqbg0","pricing_plan_id":"cebpf4jnsgd1na2vs0mg"},{"bike_id":"3bc83e9f-31e1-4cf5-80f2-b940545c7400","system_id":"levelo_inurba_marseille","lat":43.30415,"lon":5.41313,"is_reserved":false,"is_disabled":false,"rental_uris":{"android":"levelo://app?vid=3bc83e9f-31e1-4cf5-80f2-b940545c7400","ios":"levelo://app?vid=3bc83e9f-31e1-4cf5-80f2-b940545c7400"},"vehicle_type_id":"4","last_reported":1734772114,"current_range_meters":38800,"station_id":"ce4bhop2rcd13ifvqh8g","pricing_plan_id":"cebpf4jnsgd1na2vs0mg"},{"bike_id":"6d3e152a-52b7-4e48-8ce9-495072b8eb15","system_id":"levelo_inurba_marseille","lat":43.33024,"lon":5.39037,"is_reserved":false,"is_disabled":false,"rental_uris":{"android":"levelo://app?vid=6d3e152a-52b7-4e48-8ce9-495072b8eb15","ios":"levelo://app?vid=6d3e152a-52b7-4e48-8ce9-495072b8eb15"},"vehicle_type_id":"4","last_reported":1734772114,"current_range_meters":38800,"station_id":"ce4bhr92rcd13ifvqhrg","pricing_plan_id":"cebpf4jnsgd1na2vs0mg"},{"bike_id":"f4106c4e-f598-41ff-9f05-337b3040db0e","system_id":"levelo_inurba_marseille","lat":43.32992,"lon":5.39037,"is_reserved":false,"is_disabled":false,"rental_uris":{"android":"levelo://app?vid=f4106c4e-f598-41ff-9f05-337b3040db0e","ios":"levelo://app?vid=f4106c4e-f598-41ff-9f05-337b3040db0e"},"vehicle_type_id":"4","last_reported":1734772114,"current_range_meters":10000,"station_id":"ce4bhr92rcd13ifvqhrg","pricing_plan_id":"cebpf4jnsgd1na2vs0mg"},{"bike_id":"0572ca58-9665-4ca3-82ef-188eafc537d9","system_id":"levelo_inurba_marseille","lat":43.29628,"lon":5.40589,"is_reserved":false,"is_disabled":false,"rental_uris":{"android":"levelo://app?vid=0572ca58-9665-4ca3-82ef-188eafc537d9","ios":"levelo://app?vid=0572ca58-9665-4ca3-82ef-188eafc537d9"},"vehicle_type_id":"4","last_reported":1734772114,"current_range_meters":38800,"station_id":"ce4bh0h2rcd13ifvqd60","pricing_plan_id":"cebpf4jnsgd1na2vs0mg"},{"bike_id":"88d0fca1-50cd-440e-a583-785fe0c07914","system_id":"levelo_inurba_marseille","lat":43.33037,"lon":5.39023,"is_reserved":false,"is_disabled":false,"rental_uris":{"android":"levelo://app?vid=88d0fca1-50cd-440e-a583-785fe0c07914","ios":"levelo://app?vid=88d0fca1-50cd-440e-a583-785fe0c07914"},"vehicle_type_id":"4","last_reported":1734772114,"current_range_meters":37600,"station_id":"ce4bhr92rcd13ifvqhrg","pricing_plan_id":"cebpf4jnsgd1na2vs0mg"},{"bike_id":"584b817f-1a7d-4e53-8e6b-a260280bc97e","system_id":"levelo_inurba_marseille","lat":43.27801,"lon":5.40723,"is_reserved":false,"is_disabled":false,"rental_uris":{"android":"levelo://app?vid=584b817f-1a7d-4e53-8e6b-a260280bc97e","ios":"levelo://app?vid=584b817f-1a7d-4e53-8e6b-a260280bc97e"},"vehicle_type_id":"4","last_reported":1734772114,"current_range_meters":17200,"station_id":"ce4bhnh2rcd13ifvqgtg","pricing_plan_id":"cebpf4jnsgd1na2vs0mg"},{"bike_id":"b1eea5e3-1791-41d6-9f7c-7d0696bb370f","system_id":"levelo_inurba_marseille","lat":43.31119,"lon":5.3777,"is_reserved":false,"is_disabled":false,"rental_uris":{"android":"levelo://app?vid=b1eea5e3-1791-41d6-9f7c-7d0696bb370f","ios":"levelo://app?vid=b1eea5e3-1791-41d6-9f7c-7d0696bb370f"},"vehicle_type_id":"4","last_reported":1734772114,"current_range_meters":31200,"station_id":"ce4bgt92rcd13ifvqcg0","pricing_plan_id":"cebpf4jnsgd1na2vs0mg"},{"bike_id":"b2c5d99c-ba16-4c1c-b1a8-cfcbc20ed5ba","system_id":"levelo_inurba_marseille","lat":43.29711,"lon":5.36619,"is_reserved":false,"is_disabled":false,"rental_uris":{"android":"levelo://app?vid=b2c5d99c-ba16-4c1c-b1a8-cfcbc20ed5ba","ios":"levelo://app?vid=b2c5d99c-ba16-4c1c-b1a8-cfcbc20ed5ba"},"vehicle_type_id":"4","last_reported":1734772114,"current_range_meters":32000,"station_id":"ce4bgn12rcd13ifvqbt0","pricing_plan_id":"cebpf4jnsgd1na2vs0mg"},{"bike_id":"e21b3740-0042-462a-b7db-bf50c59c5c46","system_id":"levelo_inurba_marseille","lat":43.23193,"lon":5.39975,"is_reserved":false,"is_disabled":false,"rental_uris":{"android":"levelo://app?vid=e21b3740-0042-462a-b7db-bf50c59c5c46","ios":"levelo://app?vid=e21b3740-0042-462a-b7db-bf50c59c5c46"},"vehicle_type_id":"4","last_reported":1734772114,"current_range_meters":38800,"station_id":"ce4bhn12rcd13ifvqgqg","pricing_plan_id":"cebpf4jnsgd1na2vs0mg"},{"bike_id":"4ce5df16-d3d9-4bcd-bd7b-5456cdfb6471","system_id":"levelo_inurba_marseille","lat":43.29621,"lon":5.37166,"is_reserved":false,"is_disabled":true,"rental_uris":{"android":"levelo://app?vid=4ce5df16-d3d9-4bcd-bd7b-5456cdfb6471","ios":"levelo://app?vid=4ce5df16-d3d9-4bcd-bd7b-5456cdfb6471"},"vehicle_type_id":"4","last_reported":1734772114,"current_range_meters":35200,"station_id":"ce4bgnh2rcd13ifvqc0g","pricing_plan_id":"cebpf4jnsgd1na2vs0mg"},{"bike_id":"dbe90d0d-6773-40ce-87df-d9313af3222e","system_id":"levelo_inurba_marseille","lat":43.24075,"lon":5.37758,"is_reserved":false,"is_disabled":false,"rental_uris":{"android":"levelo://app?vid=dbe90d0d-6773-40ce-87df-d9313af3222e","ios":"levelo://app?vid=dbe90d0d-6773-40ce-87df-d9313af3222e"},"vehicle_type_id":"4","last_reported":1734772114,"current_range_meters":16000,"station_id":"ce4bhnp2rcd13ifvqgvg","pricing_plan_id":"cebpf4jnsgd1na2vs0mg"},{"bike_id":"3cfd8e00-b3b4-4aaa-ae57-34f7d87daab5","system_id":"levelo_inurba_marseille","lat":43.29611,"lon":5.38104,"is_reserved":false,"is_disabled":false,"rental_uris":{"android":"levelo://app?vid=3cfd8e00-b3b4-4aaa-ae57-34f7d87daab5","ios":"levelo://app?vid=3cfd8e00-b3b4-4aaa-ae57-34f7d87daab5"},"vehicle_type_id":"4","last_reported":1734772114,"current_range_meters":38800,"station_id":"ce4bgl12rcd13ifvqbo0","pricing_plan_id":"cebpf4jnsgd1na2vs0mg"},{"bike_id":"81c55f70-3f5b-44f5-82c2-dadd04d937b5","system_id":"levelo_inurba_marseille","lat":43.311219,"lon":5.37765,"is_reserved":false,"is_disabled":false,"rental_uris":{"android":"levelo://app?vid=81c55f70-3f5b-44f5-82c2-dadd04d937b5","ios":"levelo://app?vid=81c55f70-3f5b-44f5-82c2-dadd04d937b5"},"vehicle_type_id":"4","last_reported":1734772114,"current_range_meters":11600,"station_id":"ce4bgt92rcd13ifvqcg0","pricing_plan_id":"cebpf4jnsgd1na2vs0mg"},{"bike_id":"b2a7f13a-9614-4595-a264-2c05c7dda9fd","system_id":"levelo_inurba_marseille","lat":43.26505,"lon":5.39551,"is_reserved":false,"is_disabled":false,"rental_uris":{"android":"levelo://app?vid=b2a7f13a-9614-4595-a264-2c05c7dda9fd","ios":"levelo://app?vid=b2a7f13a-9614-4595-a264-2c05c7dda9fd"},"vehicle_type_id":"4","last_reported":1734772114,"current_range_meters":14000,"station_id":"ce4bhi12rcd13ifvqfq0","pricing_plan_id":"cebpf4jnsgd1na2vs0mg"},{"bike_id":"8496a299-65f9-497c-80db-68eb9f89b470","system_id":"levelo_inurba_marseille","lat":43.29277,"lon":5.36845,"is_reserved":false,"is_disabled":false,"rental_uris":{"android":"levelo://app?vid=8496a299-65f9-497c-80db-68eb9f89b470","ios":"levelo://app?vid=8496a299-65f9-497c-80db-68eb9f89b470"},"vehicle_type_id":"4","last_reported":1734772114,"current_range_meters":27600,"station_id":"ce4bhbp2rcd13ifvqesg","pricing_plan_id":"cebpf4jnsgd1na2vs0mg"},{"bike_id":"eeb165cd-0850-4135-b307-a7a2de607d7b","system_id":"levelo_inurba_marseille","lat":43.28613,"lon":5.37062,"is_reserved":false,"is_disabled":false,"rental_uris":{"android":"levelo://app?vid=eeb165cd-0850-4135-b307-a7a2de607d7b","ios":"levelo://app?vid=eeb165cd-0850-4135-b307-a7a2de607d7b"},"vehicle_type_id":"4","last_reported":1734772114,"current_range_meters":38800,"station_id":"ce4bht12rcd13ifvqi60","pricing_plan_id":"cebpf4jnsgd1na2vs0mg"},{"bike_id":"d15b9e1c-c1ed-413d-8ee1-a35fe12ec13c","system_id":"levelo_inurba_marseille","lat":43.3089,"lon":5.39635,"is_reserved":false,"is_disabled":false,"rental_uris":{"android":"levelo://app?vid=d15b9e1c-c1ed-413d-8ee1-a35fe12ec13c","ios":"levelo://app?vid=d15b9e1c-c1ed-413d-8ee1-a35fe12ec13c"},"vehicle_type_id":"4","last_reported":1734772114,"current_range_meters":35600,"station_id":"ce4bh012rcd13ifvqcv0","pricing_plan_id":"cebpf4jnsgd1na2vs0mg"},{"bike_id":"b9de43f9-466b-4982-8259-bb64e199cbcf","system_id":"levelo_inurba_marseille","lat":43.26031,"lon":5.37552,"is_reserved":false,"is_disabled":false,"rental_uris":{"android":"levelo://app?vid=b9de43f9-466b-4982-8259-bb64e199cbcf","ios":"levelo://app?vid=b9de43f9-466b-4982-8259-bb64e199cbcf"},"vehicle_type_id":"4","last_reported":1734772114,"current_range_meters":38000,"station_id":"ce4bhgh2rcd13ifvqfa0","pricing_plan_id":"cebpf4jnsgd1na2vs0mg"},{"bike_id":"38077ad9-646c-4713-bce3-fb4f9d47c809","system_id":"levelo_inurba_marseille","lat":43.31705,"lon":5.37764,"is_reserved":false,"is_disabled":false,"rental_uris":{"android":"levelo://app?vid=38077ad9-646c-4713-bce3-fb4f9d47c809","ios":"levelo://app?vid=38077ad9-646c-4713-bce3-fb4f9d47c809"},"vehicle_type_id":"4","last_reported":1734772114,"current_range_meters":27200,"station_id":"ce4bgth2rcd13ifvqch0","pricing_plan_id":"cebpf4jnsgd1na2vs0mg"},{"bike_id":"c6c8b182-0397-4cc8-ad31-743b7c56031b","system_id":"levelo_inurba_marseille","lat":43.27215,"lon":5.39179,"is_reserved":false,"is_disabled":true,"rental_uris":{"android":"levelo://app?vid=c6c8b182-0397-4cc8-ad31-743b7c56031b","ios":"levelo://app?vid=c6c8b182-0397-4cc8-ad31-743b7c56031b"},"vehicle_type_id":"4","last_reported":1734772114,"current_range_meters":38000,"station_id":"ce4bhhp2rcd13ifvqfm0","pricing_plan_id":"cebpf4jnsgd1na2vs0mg"},{"bike_id":"cf56f938-1ca9-44a4-b1f3-419094fbb70e","system_id":"levelo_inurba_marseille","lat":43.28867,"lon":5.35857,"is_reserved":false,"is_disabled":false,"rental_uris":{"android":"levelo://app?vid=cf56f938-1ca9-44a4-b1f3-419094fbb70e","ios":"levelo://app?vid=cf56f938-1ca9-44a4-b1f3-419094fbb70e"},"vehicle_type_id":"4","last_reported":1734772114,"current_range_meters":28800,"station_id":"ce4bhb12rcd13ifvqem0","pricing_plan_id":"cebpf4jnsgd1na2vs0mg"},{"bike_id":"979766f3-bfcd-4ae9-8814-3169221ac160","system_id":"levelo_inurba_marseille","lat":43.33021,"lon":5.39039,"is_reserved":false,"is_disabled":false,"rental_uris":{"android":"levelo://app?vid=979766f3-bfcd-4ae9-8814-3169221ac160","ios":"levelo://app?vid=979766f3-bfcd-4ae9-8814-3169221ac160"},"vehicle_type_id":"4","last_reported":1734772114,"current_range_meters":34000,"station_id":"ce4bhr92rcd13ifvqhrg","pricing_plan_id":"cebpf4jnsgd1na2vs0mg"},{"bike_id":"0ccdf620-eaf4-47f7-bf63-410613d0565f","system_id":"levelo_inurba_marseille","lat":43.30912,"lon":5.36683,"is_reserved":false,"is_disabled":false,"rental_uris":{"android":"levelo://app?vid=0ccdf620-eaf4-47f7-bf63-410613d0565f","ios":"levelo://app?vid=0ccdf620-eaf4-47f7-bf63-410613d0565f"},"vehicle_type_id":"4","last_reported":1734772114,"current_range_meters":35200,"station_id":"ce4bgs12rcd13ifvqcag","pricing_plan_id":"cebpf4jnsgd1na2vs0mg"},{"bike_id":"9f50244a-d38a-491a-9f70-c23a46404b46","system_id":"levelo_inurba_marseille","lat":43.2861,"lon":5.37057,"is_reserved":false,"is_disabled":false,"rental_uris":{"android":"levelo://app?vid=9f50244a-d38a-491a-9f70-c23a46404b46","ios":"levelo://app?vid=9f50244a-d38a-491a-9f70-c23a46404b46"},"vehicle_type_id":"4","last_reported":1734772114,"current_range_meters":38800,"station_id":"ce4bht12rcd13ifvqi60","pricing_plan_id":"cebpf4jnsgd1na2vs0mg"},{"bike_id":"d49e9901-0be3-493d-8b2e-09dfce392707","system_id":"levelo_inurba_marseille","lat":43.27377,"lon":5.36256,"is_reserved":false,"is_disabled":false,"rental_uris":{"android":"levelo://app?vid=d49e9901-0be3-493d-8b2e-09dfce392707","ios":"levelo://app?vid=d49e9901-0be3-493d-8b2e-09dfce392707"},"vehicle_type_id":"4","last_reported":1734772114,"current_range_meters":38800,"station_id":"ce4bhbh2rcd13ifvqeo0","pricing_plan_id":"cebpf4jnsgd1na2vs0mg"},{"bike_id":"c88c4b0d-8e58-498c-8a16-c07f5bd1c386","system_id":"levelo_inurba_marseille","lat":43.30148,"lon":5.38084,"is_reserved":false,"is_disabled":false,"rental_uris":{"android":"levelo://app?vid=c88c4b0d-8e58-498c-8a16-c07f5bd1c386","ios":"levelo://app?vid=c88c4b0d-8e58-498c-8a16-c07f5bd1c386"},"vehicle_type_id":"4","last_reported":1734772114,"current_range_meters":38800,"station_id":"ce4bgjp2rcd13ifvqbh0","pricing_plan_id":"cebpf4jnsgd1na2vs0mg"},{"bike_id":"90fbf7b3-3e59-4761-9ba2-48103aa75f60","system_id":"levelo_inurba_marseille","lat":43.2989,"lon":5.43636,"is_reserved":false,"is_disabled":false,"rental_uris":{"android":"levelo://app?vid=90fbf7b3-3e59-4761-9ba2-48103aa75f60","ios":"levelo://app?vid=90fbf7b3-3e59-4761-9ba2-48103aa75f60"},"vehicle_type_id":"4","last_reported":1734772114,"current_range_meters":27600,"station_id":"ce4bhpp2rcd13ifvqhfg","pricing_plan_id":"cebpf4jnsgd1na2vs0mg"},{"bike_id":"1bdef960-d6b2-400c-a30c-bfa3da7cbf2e","system_id":"levelo_inurba_marseille","lat":43.27315,"lon":5.39076,"is_reserved":false,"is_disabled":false,"rental_uris":{"android":"levelo://app?vid=1bdef960-d6b2-400c-a30c-bfa3da7cbf2e","ios":"levelo://app?vid=1bdef960-d6b2-400c-a30c-bfa3da7cbf2e"},"vehicle_type_id":"4","last_reported":1734772114,"current_range_meters":33600,"station_id":"ce4bhgp2rcd13ifvqfe0","pricing_plan_id":"cebpf4jnsgd1na2vs0mg"},{"bike_id":"3e76721f-98e4-431f-969b-21f0e57609ec","system_id":"levelo_inurba_marseille","lat":43.24665,"lon":5.38099,"is_reserved":false,"is_disabled":false,"rental_uris":{"android":"levelo://app?vid=3e76721f-98e4-431f-969b-21f0e57609ec","ios":"levelo://app?vid=3e76721f-98e4-431f-969b-21f0e57609ec"},"vehicle_type_id":"4","last_reported":1734772114,"current_range_meters":38800,"station_id":"ce4bhih2rcd13ifvqfr0","pricing_plan_id":"cebpf4jnsgd1na2vs0mg"},{"bike_id":"73c5d15f-aeaa-4940-a243-ec7cfd0884f8","system_id":"levelo_inurba_marseille","lat":43.26933,"lon":5.38917,"is_reserved":false,"is_disabled":false,"rental_uris":{"android":"levelo://app?vid=73c5d15f-aeaa-4940-a243-ec7cfd0884f8","ios":"levelo://app?vid=73c5d15f-aeaa-4940-a243-ec7cfd0884f8"},"vehicle_type_id":"4","last_reported":1734772114,"current_range_meters":37600,"station_id":"ce4bhhh2rcd13ifvqfl0","pricing_plan_id":"cebpf4jnsgd1na2vs0mg"},{"bike_id":"e51e8478-ad23-4a6c-adc3-c43d84dcb451","system_id":"levelo_inurba_marseille","lat":43.310797,"lon":5.383473,"is_reserved":false,"is_disabled":false,"rental_uris":{"android":"levelo://app?vid=e51e8478-ad23-4a6c-adc3-c43d84dcb451","ios":"levelo://app?vid=e51e8478-ad23-4a6c-adc3-c43d84dcb451"},"vehicle_type_id":"4","last_reported":1734772114,"current_range_meters":26000,"station_id":"ce4bgv92rcd13ifvqcr0","pricing_plan_id":"cebpf4jnsgd1na2vs0mg"},{"bike_id":"ae5f46d8-a758-4d2a-a79c-d125f2f2631f","system_id":"levelo_inurba_marseille","lat":43.27553,"lon":5.41283,"is_reserved":false,"is_disabled":false,"rental_uris":{"android":"levelo://app?vid=ae5f46d8-a758-4d2a-a79c-d125f2f2631f","ios":"levelo://app?vid=ae5f46d8-a758-4d2a-a79c-d125f2f2631f"},"vehicle_type_id":"4","last_reported":1734772114,"current_range_meters":22400,"station_id":"","pricing_plan_id":"cebpf4jnsgd1na2vs0mg"},{"bike_id":"8fb1bad3-a121-4eb1-a55f-687f99cf68d1","system_id":"levelo_inurba_marseille","lat":43.25491,"lon":5.37646,"is_reserved":false,"is_disabled":false,"rental_uris":{"android":"levelo://app?vid=8fb1bad3-a121-4eb1-a55f-687f99cf68d1","ios":"levelo://app?vid=8fb1bad3-a121-4eb1-a55f-687f99cf68d1"},"vehicle_type_id":"4","last_reported":1734772114,"current_range_meters":36800,"station_id":"ce4bhh12rcd13ifvqff0","pricing_plan_id":"cebpf4jnsgd1na2vs0mg"},{"bike_id":"8c67f0f4-5c7f-459d-8873-8926879ec69e","system_id":"levelo_inurba_marseille","lat":43.337444,"lon":5.374475,"is_reserved":false,"is_disabled":false,"rental_uris":{"android":"levelo://app?vid=8c67f0f4-5c7f-459d-8873-8926879ec69e","ios":"levelo://app?vid=8c67f0f4-5c7f-459d-8873-8926879ec69e"},"vehicle_type_id":"4","last_reported":1734772114,"current_range_meters":38400,"station_id":"","pricing_plan_id":"cebpf4jnsgd1na2vs0mg"},{"bike_id":"253d4698-f20c-46f9-bf88-279a0a2c0063","system_id":"levelo_inurba_marseille","lat":43.23966,"lon":5.36624,"is_reserved":false,"is_disabled":false,"rental_uris":{"android":"levelo://app?vid=253d4698-f20c-46f9-bf88-279a0a2c0063","ios":"levelo://app?vid=253d4698-f20c-46f9-bf88-279a0a2c0063"},"vehicle_type_id":"4","last_reported":1734772114,"current_range_meters":34800,"station_id":"ce4bhi12rcd13ifvqfp0","pricing_plan_id":"cebpf4jnsgd1na2vs0mg"},{"bike_id":"852ed0f0-d0a0-46ea-8da1-988f10f2135a","system_id":"levelo_inurba_marseille","lat":43.30529,"lon":5.36546,"is_reserved":false,"is_disabled":false,"rental_uris":{"android":"levelo://app?vid=852ed0f0-d0a0-46ea-8da1-988f10f2135a","ios":"levelo://app?vid=852ed0f0-d0a0-46ea-8da1-988f10f2135a"},"vehicle_type_id":"4","last_reported":1734772114,"current_range_meters":36000,"station_id":"ce4bgs12rcd13ifvqcag","pricing_plan_id":"cebpf4jnsgd1na2vs0mg"},{"bike_id":"62c4bf08-2663-4d5f-b5a0-40453d217c52","system_id":"levelo_inurba_marseille","lat":43.26201,"lon":5.37924,"is_reserved":false,"is_disabled":false,"rental_uris":{"android":"levelo://app?vid=62c4bf08-2663-4d5f-b5a0-40453d217c52","ios":"levelo://app?vid=62c4bf08-2663-4d5f-b5a0-40453d217c52"},"vehicle_type_id":"4","last_reported":1734772114,"current_range_meters":36800,"station_id":"ce4bhjp2rcd13ifvqg90","pricing_plan_id":"cebpf4jnsgd1na2vs0mg"},{"bike_id":"8f6b1583-aded-4ec7-94b5-fc5432a2645e","system_id":"levelo_inurba_marseille","lat":43.23963,"lon":5.36658,"is_reserved":false,"is_disabled":false,"rental_uris":{"android":"levelo://app?vid=8f6b1583-aded-4ec7-94b5-fc5432a2645e","ios":"levelo://app?vid=8f6b1583-aded-4ec7-94b5-fc5432a2645e"},"vehicle_type_id":"4","last_reported":1734772114,"current_range_meters":13600,"station_id":"ce4bhi12rcd13ifvqfp0","pricing_plan_id":"cebpf4jnsgd1na2vs0mg"},{"bike_id":"108b58f7-795b-4bc3-887e-c514a0a656af","system_id":"levelo_inurba_marseille","lat":43.26936,"lon":5.40253,"is_reserved":false,"is_disabled":false,"rental_uris":{"android":"levelo://app?vid=108b58f7-795b-4bc3-887e-c514a0a656af","ios":"levelo://app?vid=108b58f7-795b-4bc3-887e-c514a0a656af"},"vehicle_type_id":"4","last_reported":1734772114,"current_range_meters":38800,"station_id":"cjm6bp8fraef2m0cb0m0","pricing_plan_id":"cebpf4jnsgd1na2vs0mg"},{"bike_id":"fc4ff347-ef4d-4a4d-ae09-babf618fedb6","system_id":"levelo_inurba_marseille","lat":43.24173,"lon":5.36394,"is_reserved":false,"is_disabled":false,"rental_uris":{"android":"levelo://app?vid=fc4ff347-ef4d-4a4d-ae09-babf618fedb6","ios":"levelo://app?vid=fc4ff347-ef4d-4a4d-ae09-babf618fedb6"},"vehicle_type_id":"4","last_reported":1734772114,"current_range_meters":36000,"station_id":"cpo36qri1sfpv3e86is0","pricing_plan_id":"cebpf4jnsgd1na2vs0mg"},{"bike_id":"4e1c702f-4fec-4a09-a45d-af1848f5ba3b","system_id":"levelo_inurba_marseille","lat":43.2558,"lon":5.38243,"is_reserved":false,"is_disabled":false,"rental_uris":{"android":"levelo://app?vid=4e1c702f-4fec-4a09-a45d-af1848f5ba3b","ios":"levelo://app?vid=4e1c702f-4fec-4a09-a45d-af1848f5ba3b"},"vehicle_type_id":"4","last_reported":1734772114,"current_range_meters":37600,"station_id":"ce4bhih2rcd13ifvqfs0","pricing_plan_id":"cebpf4jnsgd1na2vs0mg"},{"bike_id":"1a34f19b-a3cc-4eeb-950c-88bf8edaef58","system_id":"levelo_inurba_marseille","lat":43.30532,"lon":5.38414,"is_reserved":false,"is_disabled":false,"rental_uris":{"android":"levelo://app?vid=1a34f19b-a3cc-4eeb-950c-88bf8edaef58","ios":"levelo://app?vid=1a34f19b-a3cc-4eeb-950c-88bf8edaef58"},"vehicle_type_id":"4","last_reported":1734772114,"current_range_meters":37600,"station_id":"ce4bgg92rcd13ifvqb30","pricing_plan_id":"cebpf4jnsgd1na2vs0mg"},{"bike_id":"6b872744-cca0-4dde-922a-4418414b1d97","system_id":"levelo_inurba_marseille","lat":43.28844,"lon":5.35838,"is_reserved":false,"is_disabled":false,"rental_uris":{"android":"levelo://app?vid=6b872744-cca0-4dde-922a-4418414b1d97","ios":"levelo://app?vid=6b872744-cca0-4dde-922a-4418414b1d97"},"vehicle_type_id":"4","last_reported":1734772114,"current_range_meters":10000,"station_id":"ce4bhb12rcd13ifvqem0","pricing_plan_id":"cebpf4jnsgd1na2vs0mg"},{"bike_id":"0fa7c283-b845-49a6-b0b1-e1a0116c4f73","system_id":"levelo_inurba_marseille","lat":43.26497,"lon":5.39544,"is_reserved":false,"is_disabled":false,"rental_uris":{"android":"levelo://app?vid=0fa7c283-b845-49a6-b0b1-e1a0116c4f73","ios":"levelo://app?vid=0fa7c283-b845-49a6-b0b1-e1a0116c4f73"},"vehicle_type_id":"4","last_reported":1734772114,"current_range_meters":38800,"station_id":"ce4bhi12rcd13ifvqfq0","pricing_plan_id":"cebpf4jnsgd1na2vs0mg"},{"bike_id":"3140837c-a9d4-4740-adbf-5d102545d88e","system_id":"levelo_inurba_marseille","lat":43.25708,"lon":5.41104,"is_reserved":false,"is_disabled":false,"rental_uris":{"android":"levelo://app?vid=3140837c-a9d4-4740-adbf-5d102545d88e","ios":"levelo://app?vid=3140837c-a9d4-4740-adbf-5d102545d88e"},"vehicle_type_id":"4","last_reported":1734772114,"current_range_meters":38800,"station_id":"ce4bhkp2rcd13ifvqgd0","pricing_plan_id":"cebpf4jnsgd1na2vs0mg"},{"bike_id":"4695cff2-e8a9-4cfc-a059-a1678fa39cf5","system_id":"levelo_inurba_marseille","lat":43.27815,"lon":5.40721,"is_reserved":false,"is_disabled":false,"rental_uris":{"android":"levelo://app?vid=4695cff2-e8a9-4cfc-a059-a1678fa39cf5","ios":"levelo://app?vid=4695cff2-e8a9-4cfc-a059-a1678fa39cf5"},"vehicle_type_id":"4","last_reported":1734772114,"current_range_meters":28000,"station_id":"ce4bhnh2rcd13ifvqgtg","pricing_plan_id":"cebpf4jnsgd1na2vs0mg"},{"bike_id":"1b0e9d34-71b5-4d2a-8c59-b2701c6566e6","system_id":"levelo_inurba_marseille","lat":43.25506,"lon":5.37651,"is_reserved":false,"is_disabled":false,"rental_uris":{"android":"levelo://app?vid=1b0e9d34-71b5-4d2a-8c59-b2701c6566e6","ios":"levelo://app?vid=1b0e9d34-71b5-4d2a-8c59-b2701c6566e6"},"vehicle_type_id":"4","last_reported":1734772114,"current_range_meters":38800,"station_id":"ce4bhh12rcd13ifvqff0","pricing_plan_id":"cebpf4jnsgd1na2vs0mg"},{"bike_id":"f2d117ea-37ce-4d74-b862-7c3b400b5886","system_id":"levelo_inurba_marseille","lat":43.26789,"lon":5.39418,"is_reserved":false,"is_disabled":false,"rental_uris":{"android":"levelo://app?vid=f2d117ea-37ce-4d74-b862-7c3b400b5886","ios":"levelo://app?vid=f2d117ea-37ce-4d74-b862-7c3b400b5886"},"vehicle_type_id":"4","last_reported":1734772114,"current_range_meters":34800,"station_id":"ce4bhh12rcd13ifvqfg0","pricing_plan_id":"cebpf4jnsgd1na2vs0mg"},{"bike_id":"c3908be4-97bb-451e-bad6-82f04bd24ad6","system_id":"levelo_inurba_marseille","lat":43.24073,"lon":5.37762,"is_reserved":false,"is_disabled":false,"rental_uris":{"android":"levelo://app?vid=c3908be4-97bb-451e-bad6-82f04bd24ad6","ios":"levelo://app?vid=c3908be4-97bb-451e-bad6-82f04bd24ad6"},"vehicle_type_id":"4","last_reported":1734772114,"current_range_meters":25600,"station_id":"ce4bhnp2rcd13ifvqgvg","pricing_plan_id":"cebpf4jnsgd1na2vs0mg"},{"bike_id":"014f65b2-e389-4dc9-bdbc-de77644f1fd3","system_id":"levelo_inurba_marseille","lat":43.24811,"lon":5.37457,"is_reserved":false,"is_disabled":false,"rental_uris":{"android":"levelo://app?vid=014f65b2-e389-4dc9-bdbc-de77644f1fd3","ios":"levelo://app?vid=014f65b2-e389-4dc9-bdbc-de77644f1fd3"},"vehicle_type_id":"4","last_reported":1734772114,"current_range_meters":8800,"station_id":"ce4bhgh2rcd13ifvqfb0","pricing_plan_id":"cebpf4jnsgd1na2vs0mg"},{"bike_id":"c3051a5d-2365-46ed-ba7b-d98175d08a65","system_id":"levelo_inurba_marseille","lat":43.29358,"lon":5.37836,"is_reserved":false,"is_disabled":false,"rental_uris":{"android":"levelo://app?vid=c3051a5d-2365-46ed-ba7b-d98175d08a65","ios":"levelo://app?vid=c3051a5d-2365-46ed-ba7b-d98175d08a65"},"vehicle_type_id":"4","last_reported":1734772114,"current_range_meters":16800,"station_id":"ce4bgjh2rcd13ifvqbf0","pricing_plan_id":"cebpf4jnsgd1na2vs0mg"},{"bike_id":"66bfaf26-e1fc-475c-b75c-ffb29954b6d2","system_id":"levelo_inurba_marseille","lat":43.290059,"lon":5.356153,"is_reserved":false,"is_disabled":false,"rental_uris":{"android":"levelo://app?vid=66bfaf26-e1fc-475c-b75c-ffb29954b6d2","ios":"levelo://app?vid=66bfaf26-e1fc-475c-b75c-ffb29954b6d2"},"vehicle_type_id":"4","last_reported":1734772114,"current_range_meters":26000,"station_id":"ce4bhb92rcd13ifvqen0","pricing_plan_id":"cebpf4jnsgd1na2vs0mg"},{"bike_id":"8e278825-8514-476a-92f0-d6d73f71febe","system_id":"levelo_inurba_marseille","lat":43.27372,"lon":5.36269,"is_reserved":false,"is_disabled":false,"rental_uris":{"android":"levelo://app?vid=8e278825-8514-476a-92f0-d6d73f71febe","ios":"levelo://app?vid=8e278825-8514-476a-92f0-d6d73f71febe"},"vehicle_type_id":"4","last_reported":1734772114,"current_range_meters":25600,"station_id":"ce4bhbh2rcd13ifvqeo0","pricing_plan_id":"cebpf4jnsgd1na2vs0mg"},{"bike_id":"56754bd6-e9a0-4c5f-91ef-061af1afbdb6","system_id":"levelo_inurba_marseille","lat":43.30465,"lon":5.37897,"is_reserved":false,"is_disabled":false,"rental_uris":{"android":"levelo://app?vid=56754bd6-e9a0-4c5f-91ef-061af1afbdb6","ios":"levelo://app?vid=56754bd6-e9a0-4c5f-91ef-061af1afbdb6"},"vehicle_type_id":"4","last_reported":1734772114,"current_range_meters":38800,"station_id":"ce4bgup2rcd13ifvqcn0","pricing_plan_id":"cebpf4jnsgd1na2vs0mg"},{"bike_id":"bd23a801-7ebe-4d21-b274-7e6fae8da365","system_id":"levelo_inurba_marseille","lat":43.26552,"lon":5.39018,"is_reserved":false,"is_disabled":false,"rental_uris":{"android":"levelo://app?vid=bd23a801-7ebe-4d21-b274-7e6fae8da365","ios":"levelo://app?vid=bd23a801-7ebe-4d21-b274-7e6fae8da365"},"vehicle_type_id":"4","last_reported":1734772114,"current_range_meters":28000,"station_id":"ce4bhe12rcd13ifvqf30","pricing_plan_id":"cebpf4jnsgd1na2vs0mg"},{"bike_id":"2f296a56-c4bb-4685-ac50-51e6734ba6f9","system_id":"levelo_inurba_marseille","lat":43.2808,"lon":5.39655,"is_reserved":false,"is_disabled":false,"rental_uris":{"android":"levelo://app?vid=2f296a56-c4bb-4685-ac50-51e6734ba6f9","ios":"levelo://app?vid=2f296a56-c4bb-4685-ac50-51e6734ba6f9"},"vehicle_type_id":"4","last_reported":1734772114,"current_range_meters":36000,"station_id":"ce4bho12rcd13ifvqh2g","pricing_plan_id":"cebpf4jnsgd1na2vs0mg"},{"bike_id":"99a6d131-5bad-4343-a723-e7fe142328dc","system_id":"levelo_inurba_marseille","lat":43.28704,"lon":5.3738,"is_reserved":false,"is_disabled":true,"rental_uris":{"android":"levelo://app?vid=99a6d131-5bad-4343-a723-e7fe142328dc","ios":"levelo://app?vid=99a6d131-5bad-4343-a723-e7fe142328dc"},"vehicle_type_id":"4","last_reported":1734772114,"current_range_meters":0,"station_id":"ce4bh3p2rcd13ifvqdq0","pricing_plan_id":"cebpf4jnsgd1na2vs0mg"},{"bike_id":"6a858be1-6962-40de-8c38-5c7f90a31857","system_id":"levelo_inurba_marseille","lat":43.24674,"lon":5.38162,"is_reserved":false,"is_disabled":false,"rental_uris":{"android":"levelo://app?vid=6a858be1-6962-40de-8c38-5c7f90a31857","ios":"levelo://app?vid=6a858be1-6962-40de-8c38-5c7f90a31857"},"vehicle_type_id":"4","last_reported":1734772114,"current_range_meters":38800,"station_id":"ce4bhih2rcd13ifvqfr0","pricing_plan_id":"cebpf4jnsgd1na2vs0mg"},{"bike_id":"2a12bde8-ca1e-4ca8-8cbb-8dbf9a638106","system_id":"levelo_inurba_marseille","lat":43.231888,"lon":5.355583,"is_reserved":false,"is_disabled":false,"rental_uris":{"android":"levelo://app?vid=2a12bde8-ca1e-4ca8-8cbb-8dbf9a638106","ios":"levelo://app?vid=2a12bde8-ca1e-4ca8-8cbb-8dbf9a638106"},"vehicle_type_id":"4","last_reported":1734772114,"current_range_meters":22000,"station_id":"ce4bhu92rcd13ifvqi70","pricing_plan_id":"cebpf4jnsgd1na2vs0mg"},{"bike_id":"82b98b08-cf84-40f3-a0a4-1136038c5b5f","system_id":"levelo_inurba_marseille","lat":43.288509,"lon":5.358575,"is_reserved":false,"is_disabled":false,"rental_uris":{"android":"levelo://app?vid=82b98b08-cf84-40f3-a0a4-1136038c5b5f","ios":"levelo://app?vid=82b98b08-cf84-40f3-a0a4-1136038c5b5f"},"vehicle_type_id":"4","last_reported":1734772114,"current_range_meters":30400,"station_id":"ce4bhb12rcd13ifvqem0","pricing_plan_id":"cebpf4jnsgd1na2vs0mg"},{"bike_id":"c4f01ca7-28f1-454d-ba01-b7f6f6e2db1f","system_id":"levelo_inurba_marseille","lat":43.27434,"lon":5.39418,"is_reserved":false,"is_disabled":false,"rental_uris":{"android":"levelo://app?vid=c4f01ca7-28f1-454d-ba01-b7f6f6e2db1f","ios":"levelo://app?vid=c4f01ca7-28f1-454d-ba01-b7f6f6e2db1f"},"vehicle_type_id":"4","last_reported":1734772114,"current_range_meters":38800,"station_id":"ce4bhdp2rcd13ifvqf20","pricing_plan_id":"cebpf4jnsgd1na2vs0mg"},{"bike_id":"3e87962f-c5d0-4b5c-835d-92479f6292b4","system_id":"levelo_inurba_marseille","lat":43.27311,"lon":5.39084,"is_reserved":false,"is_disabled":false,"rental_uris":{"android":"levelo://app?vid=3e87962f-c5d0-4b5c-835d-92479f6292b4","ios":"levelo://app?vid=3e87962f-c5d0-4b5c-835d-92479f6292b4"},"vehicle_type_id":"4","last_reported":1734772114,"current_range_meters":36800,"station_id":"ce4bhgp2rcd13ifvqfe0","pricing_plan_id":"cebpf4jnsgd1na2vs0mg"},{"bike_id":"d9e31e13-d2b9-4926-bcde-e349aeb42a53","system_id":"levelo_inurba_marseille","lat":43.26196,"lon":5.37936,"is_reserved":false,"is_disabled":true,"rental_uris":{"android":"levelo://app?vid=d9e31e13-d2b9-4926-bcde-e349aeb42a53","ios":"levelo://app?vid=d9e31e13-d2b9-4926-bcde-e349aeb42a53"},"vehicle_type_id":"4","last_reported":1734772114,"current_range_meters":0,"station_id":"ce4bhjp2rcd13ifvqg90","pricing_plan_id":"cebpf4jnsgd1na2vs0mg"},{"bike_id":"f0bcbb45-555d-4c5b-8534-084b0fafc4e9","system_id":"levelo_inurba_marseille","lat":43.2917,"lon":5.37155,"is_reserved":false,"is_disabled":true,"rental_uris":{"android":"levelo://app?vid=f0bcbb45-555d-4c5b-8534-084b0fafc4e9","ios":"levelo://app?vid=f0bcbb45-555d-4c5b-8534-084b0fafc4e9"},"vehicle_type_id":"4","last_reported":1734772114,"current_range_meters":38800,"station_id":"ce4bha92rcd13ifvqeh0","pricing_plan_id":"cebpf4jnsgd1na2vs0mg"},{"bike_id":"feccd9d5-b970-4cc0-9f7f-a36699ec5e4a","system_id":"levelo_inurba_marseille","lat":43.304678,"lon":5.379061,"is_reserved":false,"is_disabled":false,"rental_uris":{"android":"levelo://app?vid=feccd9d5-b970-4cc0-9f7f-a36699ec5e4a","ios":"levelo://app?vid=feccd9d5-b970-4cc0-9f7f-a36699ec5e4a"},"vehicle_type_id":"4","last_reported":1734772114,"current_range_meters":36000,"station_id":"ce4bgup2rcd13ifvqcn0","pricing_plan_id":"cebpf4jnsgd1na2vs0mg"},{"bike_id":"0d97fe76-08b3-4fe5-94cd-e3771b17b56e","system_id":"levelo_inurba_marseille","lat":43.25081,"lon":5.3952,"is_reserved":false,"is_disabled":false,"rental_uris":{"android":"levelo://app?vid=0d97fe76-08b3-4fe5-94cd-e3771b17b56e","ios":"levelo://app?vid=0d97fe76-08b3-4fe5-94cd-e3771b17b56e"},"vehicle_type_id":"4","last_reported":1734772114,"current_range_meters":20400,"station_id":"ce4bhm12rcd13ifvqgkg","pricing_plan_id":"cebpf4jnsgd1na2vs0mg"},{"bike_id":"b002d028-e42c-46e2-93ce-a18a7a90546e","system_id":"levelo_inurba_marseille","lat":43.322859,"lon":5.382765,"is_reserved":false,"is_disabled":false,"rental_uris":{"android":"levelo://app?vid=b002d028-e42c-46e2-93ce-a18a7a90546e","ios":"levelo://app?vid=b002d028-e42c-46e2-93ce-a18a7a90546e"},"vehicle_type_id":"4","last_reported":1734772114,"current_range_meters":14000,"station_id":"ce4bhr12rcd13ifvqhqg","pricing_plan_id":"cebpf4jnsgd1na2vs0mg"},{"bike_id":"6ddead71-4302-4eb5-b277-f6d2acacef55","system_id":"levelo_inurba_marseille","lat":43.3013,"lon":5.39873,"is_reserved":false,"is_disabled":true,"rental_uris":{"android":"levelo://app?vid=6ddead71-4302-4eb5-b277-f6d2acacef55","ios":"levelo://app?vid=6ddead71-4302-4eb5-b277-f6d2acacef55"},"vehicle_type_id":"4","last_reported":1734772114,"current_range_meters":7200,"station_id":"ce4bh0h2rcd13ifvqd40","pricing_plan_id":"cebpf4jnsgd1na2vs0mg"},{"bike_id":"e39e00de-d654-4b2b-a19b-8fcb80b59fbe","system_id":"levelo_inurba_marseille","lat":43.30133,"lon":5.39877,"is_reserved":false,"is_disabled":false,"rental_uris":{"android":"levelo://app?vid=e39e00de-d654-4b2b-a19b-8fcb80b59fbe","ios":"levelo://app?vid=e39e00de-d654-4b2b-a19b-8fcb80b59fbe"},"vehicle_type_id":"4","last_reported":1734772114,"current_range_meters":38800,"station_id":"ce4bh0h2rcd13ifvqd40","pricing_plan_id":"cebpf4jnsgd1na2vs0mg"},{"bike_id":"486821a0-5863-41fe-b9c6-edf50f006330","system_id":"levelo_inurba_marseille","lat":43.292535,"lon":5.401466,"is_reserved":false,"is_disabled":false,"rental_uris":{"android":"levelo://app?vid=486821a0-5863-41fe-b9c6-edf50f006330","ios":"levelo://app?vid=486821a0-5863-41fe-b9c6-edf50f006330"},"vehicle_type_id":"4","last_reported":1734772114,"current_range_meters":38800,"station_id":"ce4bh312rcd13ifvqdk0","pricing_plan_id":"cebpf4jnsgd1na2vs0mg"},{"bike_id":"b954fced-95b7-49e4-a709-38eba735a230","system_id":"levelo_inurba_marseille","lat":43.29707,"lon":5.36593,"is_reserved":false,"is_disabled":false,"rental_uris":{"android":"levelo://app?vid=b954fced-95b7-49e4-a709-38eba735a230","ios":"levelo://app?vid=b954fced-95b7-49e4-a709-38eba735a230"},"vehicle_type_id":"4","last_reported":1734772114,"current_range_meters":34800,"station_id":"ce4bgn12rcd13ifvqbt0","pricing_plan_id":"cebpf4jnsgd1na2vs0mg"},{"bike_id":"4094ac40-fe97-4483-91f4-bc4b6a97b4f3","system_id":"levelo_inurba_marseille","lat":43.25831,"lon":5.39416,"is_reserved":false,"is_disabled":false,"rental_uris":{"android":"levelo://app?vid=4094ac40-fe97-4483-91f4-bc4b6a97b4f3","ios":"levelo://app?vid=4094ac40-fe97-4483-91f4-bc4b6a97b4f3"},"vehicle_type_id":"4","last_reported":1734772114,"current_range_meters":6800,"station_id":"ce4bhip2rcd13ifvqft0","pricing_plan_id":"cebpf4jnsgd1na2vs0mg"},{"bike_id":"b44f9236-c33f-43b3-ab7e-0f32e9951c9e","system_id":"levelo_inurba_marseille","lat":43.231953,"lon":5.355527,"is_reserved":false,"is_disabled":false,"rental_uris":{"android":"levelo://app?vid=b44f9236-c33f-43b3-ab7e-0f32e9951c9e","ios":"levelo://app?vid=b44f9236-c33f-43b3-ab7e-0f32e9951c9e"},"vehicle_type_id":"4","last_reported":1734772114,"current_range_meters":36800,"station_id":"ce4bhu92rcd13ifvqi70","pricing_plan_id":"cebpf4jnsgd1na2vs0mg"},{"bike_id":"83571daf-4df4-4c30-875e-3631c985fa1d","system_id":"levelo_inurba_marseille","lat":43.29842,"lon":5.36268,"is_reserved":false,"is_disabled":false,"rental_uris":{"android":"levelo://app?vid=83571daf-4df4-4c30-875e-3631c985fa1d","ios":"levelo://app?vid=83571daf-4df4-4c30-875e-3631c985fa1d"},"vehicle_type_id":"4","last_reported":1734772114,"current_range_meters":19200,"station_id":"ce4bgpp2rcd13ifvqc3g","pricing_plan_id":"cebpf4jnsgd1na2vs0mg"},{"bike_id":"9becddea-ecbc-4149-89d1-f1de80737443","system_id":"levelo_inurba_marseille","lat":43.2668,"lon":5.38268,"is_reserved":false,"is_disabled":false,"rental_uris":{"android":"levelo://app?vid=9becddea-ecbc-4149-89d1-f1de80737443","ios":"levelo://app?vid=9becddea-ecbc-4149-89d1-f1de80737443"},"vehicle_type_id":"4","last_reported":1734772114,"current_range_meters":36400,"station_id":"ce4bhg92rcd13ifvqf90","pricing_plan_id":"cebpf4jnsgd1na2vs0mg"},{"bike_id":"949d1dbd-884a-4eb2-b710-8b50120e5c98","system_id":"levelo_inurba_marseille","lat":43.3133,"lon":5.39688,"is_reserved":false,"is_disabled":false,"rental_uris":{"android":"levelo://app?vid=949d1dbd-884a-4eb2-b710-8b50120e5c98","ios":"levelo://app?vid=949d1dbd-884a-4eb2-b710-8b50120e5c98"},"vehicle_type_id":"4","last_reported":1734772114,"current_range_meters":28400,"station_id":"ce4bgvp2rcd13ifvqcu0","pricing_plan_id":"cebpf4jnsgd1na2vs0mg"},{"bike_id":"db122134-c31b-4a82-9b05-bda39f6fec31","system_id":"levelo_inurba_marseille","lat":43.24668,"lon":5.38154,"is_reserved":false,"is_disabled":false,"rental_uris":{"android":"levelo://app?vid=db122134-c31b-4a82-9b05-bda39f6fec31","ios":"levelo://app?vid=db122134-c31b-4a82-9b05-bda39f6fec31"},"vehicle_type_id":"4","last_reported":1734772114,"current_range_meters":37600,"station_id":"ce4bhih2rcd13ifvqfr0","pricing_plan_id":"cebpf4jnsgd1na2vs0mg"},{"bike_id":"3798593a-5b27-4be0-a19d-ee53a8d97020","system_id":"levelo_inurba_marseille","lat":43.26567,"lon":5.38996,"is_reserved":false,"is_disabled":false,"rental_uris":{"android":"levelo://app?vid=3798593a-5b27-4be0-a19d-ee53a8d97020","ios":"levelo://app?vid=3798593a-5b27-4be0-a19d-ee53a8d97020"},"vehicle_type_id":"4","last_reported":1734772114,"current_range_meters":18800,"station_id":"ce4bhe12rcd13ifvqf30","pricing_plan_id":"cebpf4jnsgd1na2vs0mg"},{"bike_id":"6b2d33d2-c480-4eff-a39c-ef0138c5be04","system_id":"levelo_inurba_marseille","lat":43.29707,"lon":5.36604,"is_reserved":false,"is_disabled":false,"rental_uris":{"android":"levelo://app?vid=6b2d33d2-c480-4eff-a39c-ef0138c5be04","ios":"levelo://app?vid=6b2d33d2-c480-4eff-a39c-ef0138c5be04"},"vehicle_type_id":"4","last_reported":1734772114,"current_range_meters":38800,"station_id":"ce4bgn12rcd13ifvqbt0","pricing_plan_id":"cebpf4jnsgd1na2vs0mg"},{"bike_id":"17b601cd-a936-4f03-83ec-79f3f5082e84","system_id":"levelo_inurba_marseille","lat":43.33019,"lon":5.39035,"is_reserved":false,"is_disabled":false,"rental_uris":{"android":"levelo://app?vid=17b601cd-a936-4f03-83ec-79f3f5082e84","ios":"levelo://app?vid=17b601cd-a936-4f03-83ec-79f3f5082e84"},"vehicle_type_id":"4","last_reported":1734772114,"current_range_meters":38800,"station_id":"ce4bhr92rcd13ifvqhrg","pricing_plan_id":"cebpf4jnsgd1na2vs0mg"},{"bike_id":"a4cdc68d-9a41-489e-9b1d-3577a4e39cb2","system_id":"levelo_inurba_marseille","lat":43.31726,"lon":5.42396,"is_reserved":false,"is_disabled":false,"rental_uris":{"android":"levelo://app?vid=a4cdc68d-9a41-489e-9b1d-3577a4e39cb2","ios":"levelo://app?vid=a4cdc68d-9a41-489e-9b1d-3577a4e39cb2"},"vehicle_type_id":"4","last_reported":1734772114,"current_range_meters":38800,"station_id":"ce4bhp92rcd13ifvqhbg","pricing_plan_id":"cebpf4jnsgd1na2vs0mg"},{"bike_id":"c7a92880-39e2-4aa8-beb1-d3f7fee63a5e","system_id":"levelo_inurba_marseille","lat":43.29848,"lon":5.36306,"is_reserved":false,"is_disabled":false,"rental_uris":{"android":"levelo://app?vid=c7a92880-39e2-4aa8-beb1-d3f7fee63a5e","ios":"levelo://app?vid=c7a92880-39e2-4aa8-beb1-d3f7fee63a5e"},"vehicle_type_id":"4","last_reported":1734772114,"current_range_meters":36400,"station_id":"ce4bgpp2rcd13ifvqc3g","pricing_plan_id":"cebpf4jnsgd1na2vs0mg"},{"bike_id":"61bd45b4-bece-42b5-80d4-864f70786968","system_id":"levelo_inurba_marseille","lat":43.2862,"lon":5.35101,"is_reserved":false,"is_disabled":false,"rental_uris":{"android":"levelo://app?vid=61bd45b4-bece-42b5-80d4-864f70786968","ios":"levelo://app?vid=61bd45b4-bece-42b5-80d4-864f70786968"},"vehicle_type_id":"4","last_reported":1734772114,"current_range_meters":38800,"station_id":"ce4bhch2rcd13ifvqeug","pricing_plan_id":"cebpf4jnsgd1na2vs0mg"},{"bike_id":"ba623d7f-de4d-43e6-9a39-be19938e75fb","system_id":"levelo_inurba_marseille","lat":43.29372,"lon":5.37861,"is_reserved":false,"is_disabled":true,"rental_uris":{"android":"levelo://app?vid=ba623d7f-de4d-43e6-9a39-be19938e75fb","ios":"levelo://app?vid=ba623d7f-de4d-43e6-9a39-be19938e75fb"},"vehicle_type_id":"4","last_reported":1734772114,"current_range_meters":38000,"station_id":"","pricing_plan_id":"cebpf4jnsgd1na2vs0mg"},{"bike_id":"018f5571-4b34-48d4-958a-35f5a2845ad1","system_id":"levelo_inurba_marseille","lat":43.24387,"lon":5.37051,"is_reserved":false,"is_disabled":false,"rental_uris":{"android":"levelo://app?vid=018f5571-4b34-48d4-958a-35f5a2845ad1","ios":"levelo://app?vid=018f5571-4b34-48d4-958a-35f5a2845ad1"},"vehicle_type_id":"4","last_reported":1734772114,"current_range_meters":38800,"station_id":"ce4bhhh2rcd13ifvqfk0","pricing_plan_id":"cebpf4jnsgd1na2vs0mg"},{"bike_id":"96ba536b-2cb3-4278-bf91-5a965d369b9b","system_id":"levelo_inurba_marseille","lat":43.24384,"lon":5.3705,"is_reserved":false,"is_disabled":false,"rental_uris":{"android":"levelo://app?vid=96ba536b-2cb3-4278-bf91-5a965d369b9b","ios":"levelo://app?vid=96ba536b-2cb3-4278-bf91-5a965d369b9b"},"vehicle_type_id":"4","last_reported":1734772114,"current_range_meters":38800,"station_id":"ce4bhhh2rcd13ifvqfk0","pricing_plan_id":"cebpf4jnsgd1na2vs0mg"},{"bike_id":"8cdcae47-908a-458f-a2fa-1801c24f1aff","system_id":"levelo_inurba_marseille","lat":43.29604,"lon":5.38087,"is_reserved":false,"is_disabled":true,"rental_uris":{"android":"levelo://app?vid=8cdcae47-908a-458f-a2fa-1801c24f1aff","ios":"levelo://app?vid=8cdcae47-908a-458f-a2fa-1801c24f1aff"},"vehicle_type_id":"4","last_reported":1734772114,"current_range_meters":0,"station_id":"ce4bgl12rcd13ifvqbo0","pricing_plan_id":"cebpf4jnsgd1na2vs0mg"},{"bike_id":"eb66acd5-ad04-42f2-8460-25bae4cd3515","system_id":"levelo_inurba_marseille","lat":43.30278,"lon":5.37699,"is_reserved":false,"is_disabled":false,"rental_uris":{"android":"levelo://app?vid=eb66acd5-ad04-42f2-8460-25bae4cd3515","ios":"levelo://app?vid=eb66acd5-ad04-42f2-8460-25bae4cd3515"},"vehicle_type_id":"4","last_reported":1734772114,"current_range_meters":39200,"station_id":"ce4bguh2rcd13ifvqcj0","pricing_plan_id":"cebpf4jnsgd1na2vs0mg"},{"bike_id":"caa28317-677f-4684-8cc6-46932db162b9","system_id":"levelo_inurba_marseille","lat":43.27813,"lon":5.40718,"is_reserved":false,"is_disabled":false,"rental_uris":{"android":"levelo://app?vid=caa28317-677f-4684-8cc6-46932db162b9","ios":"levelo://app?vid=caa28317-677f-4684-8cc6-46932db162b9"},"vehicle_type_id":"4","last_reported":1734772114,"current_range_meters":18000,"station_id":"ce4bhnh2rcd13ifvqgtg","pricing_plan_id":"cebpf4jnsgd1na2vs0mg"},{"bike_id":"d7a9a039-2919-4498-94bc-85df69bbf9b4","system_id":"levelo_inurba_marseille","lat":43.25088,"lon":5.39513,"is_reserved":false,"is_disabled":true,"rental_uris":{"android":"levelo://app?vid=d7a9a039-2919-4498-94bc-85df69bbf9b4","ios":"levelo://app?vid=d7a9a039-2919-4498-94bc-85df69bbf9b4"},"vehicle_type_id":"4","last_reported":1734772114,"current_range_meters":800,"station_id":"ce4bhm12rcd13ifvqgkg","pricing_plan_id":"cebpf4jnsgd1na2vs0mg"},{"bike_id":"95339b3b-2655-4b1a-8171-5bfb01c318e6","system_id":"levelo_inurba_marseille","lat":43.31759,"lon":5.39012,"is_reserved":false,"is_disabled":false,"rental_uris":{"android":"levelo://app?vid=95339b3b-2655-4b1a-8171-5bfb01c318e6","ios":"levelo://app?vid=95339b3b-2655-4b1a-8171-5bfb01c318e6"},"vehicle_type_id":"4","last_reported":1734772114,"current_range_meters":24400,"station_id":"ce4bhqp2rcd13ifvqhng","pricing_plan_id":"cebpf4jnsgd1na2vs0mg"},{"bike_id":"f6e00a83-cc1f-4aaf-83bb-77e9d3b9e809","system_id":"levelo_inurba_marseille","lat":43.337444,"lon":5.374475,"is_reserved":false,"is_disabled":false,"rental_uris":{"android":"levelo://app?vid=f6e00a83-cc1f-4aaf-83bb-77e9d3b9e809","ios":"levelo://app?vid=f6e00a83-cc1f-4aaf-83bb-77e9d3b9e809"},"vehicle_type_id":"4","last_reported":1734772114,"current_range_meters":29600,"station_id":"","pricing_plan_id":"cebpf4jnsgd1na2vs0mg"},{"bike_id":"2e0a4273-9b64-4eb1-8d1b-b8e55991eb0a","system_id":"levelo_inurba_marseille","lat":43.27257,"lon":5.400767,"is_reserved":false,"is_disabled":true,"rental_uris":{"android":"levelo://app?vid=2e0a4273-9b64-4eb1-8d1b-b8e55991eb0a","ios":"levelo://app?vid=2e0a4273-9b64-4eb1-8d1b-b8e55991eb0a"},"vehicle_type_id":"4","last_reported":1734772114,"current_range_meters":0,"station_id":"","pricing_plan_id":"cebpf4jnsgd1na2vs0mg"},{"bike_id":"4e156245-d229-4783-812e-cc3f06a610af","system_id":"levelo_inurba_marseille","lat":43.28919,"lon":5.38394,"is_reserved":false,"is_disabled":false,"rental_uris":{"android":"levelo://app?vid=4e156245-d229-4783-812e-cc3f06a610af","ios":"levelo://app?vid=4e156245-d229-4783-812e-cc3f06a610af"},"vehicle_type_id":"4","last_reported":1734772114,"current_range_meters":9600,"station_id":"ce4bh612rcd13ifvqe6g","pricing_plan_id":"cebpf4jnsgd1na2vs0mg"},{"bike_id":"cc973fd4-f0ac-4016-a5e2-1bd0637993cd","system_id":"levelo_inurba_marseille","lat":43.30534,"lon":5.38411,"is_reserved":false,"is_disabled":false,"rental_uris":{"android":"levelo://app?vid=cc973fd4-f0ac-4016-a5e2-1bd0637993cd","ios":"levelo://app?vid=cc973fd4-f0ac-4016-a5e2-1bd0637993cd"},"vehicle_type_id":"4","last_reported":1734772114,"current_range_meters":38000,"station_id":"ce4bgg92rcd13ifvqb30","pricing_plan_id":"cebpf4jnsgd1na2vs0mg"},{"bike_id":"f957ffa3-7b76-4b18-bb62-81627d313cf8","system_id":"levelo_inurba_marseille","lat":43.23191,"lon":5.35556,"is_reserved":false,"is_disabled":false,"rental_uris":{"android":"levelo://app?vid=f957ffa3-7b76-4b18-bb62-81627d313cf8","ios":"levelo://app?vid=f957ffa3-7b76-4b18-bb62-81627d313cf8"},"vehicle_type_id":"4","last_reported":1734772114,"current_range_meters":26800,"station_id":"ce4bhu92rcd13ifvqi70","pricing_plan_id":"cebpf4jnsgd1na2vs0mg"},{"bike_id":"07b19cc1-31e5-4713-9742-f27d0892c2e1","system_id":"levelo_inurba_marseille","lat":43.26897,"lon":5.41728,"is_reserved":false,"is_disabled":false,"rental_uris":{"android":"levelo://app?vid=07b19cc1-31e5-4713-9742-f27d0892c2e1","ios":"levelo://app?vid=07b19cc1-31e5-4713-9742-f27d0892c2e1"},"vehicle_type_id":"4","last_reported":1734772114,"current_range_meters":10800,"station_id":"","pricing_plan_id":"cebpf4jnsgd1na2vs0mg"},{"bike_id":"b6468370-f426-47f1-a0ea-a04a56185d35","system_id":"levelo_inurba_marseille","lat":43.2992,"lon":5.3747,"is_reserved":false,"is_disabled":false,"rental_uris":{"android":"levelo://app?vid=b6468370-f426-47f1-a0ea-a04a56185d35","ios":"levelo://app?vid=b6468370-f426-47f1-a0ea-a04a56185d35"},"vehicle_type_id":"4","last_reported":1734772114,"current_range_meters":38800,"station_id":"ce4bgjh2rcd13ifvqbg0","pricing_plan_id":"cebpf4jnsgd1na2vs0mg"},{"bike_id":"52586f0b-0cff-4a26-9b39-9ed024957c06","system_id":"levelo_inurba_marseille","lat":43.30882,"lon":5.39658,"is_reserved":false,"is_disabled":false,"rental_uris":{"android":"levelo://app?vid=52586f0b-0cff-4a26-9b39-9ed024957c06","ios":"levelo://app?vid=52586f0b-0cff-4a26-9b39-9ed024957c06"},"vehicle_type_id":"4","last_reported":1734772114,"current_range_meters":33200,"station_id":"ce4bh012rcd13ifvqcv0","pricing_plan_id":"cebpf4jnsgd1na2vs0mg"},{"bike_id":"8d23ef1c-4d80-41f5-8856-02b6ab55c880","system_id":"levelo_inurba_marseille","lat":43.337283,"lon":5.391844,"is_reserved":false,"is_disabled":false,"rental_uris":{"android":"levelo://app?vid=8d23ef1c-4d80-41f5-8856-02b6ab55c880","ios":"levelo://app?vid=8d23ef1c-4d80-41f5-8856-02b6ab55c880"},"vehicle_type_id":"4","last_reported":1734772114,"current_range_meters":36400,"station_id":"ce4bhr92rcd13ifvqhsg","pricing_plan_id":"cebpf4jnsgd1na2vs0mg"},{"bike_id":"273828d0-ad53-4df1-ab71-8bd58cada311","system_id":"levelo_inurba_marseille","lat":43.23179,"lon":5.39996,"is_reserved":false,"is_disabled":false,"rental_uris":{"android":"levelo://app?vid=273828d0-ad53-4df1-ab71-8bd58cada311","ios":"levelo://app?vid=273828d0-ad53-4df1-ab71-8bd58cada311"},"vehicle_type_id":"4","last_reported":1734772114,"current_range_meters":13600,"station_id":"ce4bhn12rcd13ifvqgqg","pricing_plan_id":"cebpf4jnsgd1na2vs0mg"},{"bike_id":"2256e953-e04c-4a1a-96b7-b03d74e4d2b6","system_id":"levelo_inurba_marseille","lat":43.248056,"lon":5.374521,"is_reserved":false,"is_disabled":false,"rental_uris":{"android":"levelo://app?vid=2256e953-e04c-4a1a-96b7-b03d74e4d2b6","ios":"levelo://app?vid=2256e953-e04c-4a1a-96b7-b03d74e4d2b6"},"vehicle_type_id":"4","last_reported":1734772114,"current_range_meters":38000,"station_id":"ce4bhgh2rcd13ifvqfb0","pricing_plan_id":"cebpf4jnsgd1na2vs0mg"},{"bike_id":"7400f868-35a9-4a8c-aabf-891854556962","system_id":"levelo_inurba_marseille","lat":43.2937,"lon":5.37836,"is_reserved":false,"is_disabled":false,"rental_uris":{"android":"levelo://app?vid=7400f868-35a9-4a8c-aabf-891854556962","ios":"levelo://app?vid=7400f868-35a9-4a8c-aabf-891854556962"},"vehicle_type_id":"4","last_reported":1734772114,"current_range_meters":10000,"station_id":"ce4bgjh2rcd13ifvqbf0","pricing_plan_id":"cebpf4jnsgd1na2vs0mg"},{"bike_id":"d60d8232-4a96-492d-9348-9c3d8bdfda03","system_id":"levelo_inurba_marseille","lat":43.2984,"lon":5.36275,"is_reserved":false,"is_disabled":false,"rental_uris":{"android":"levelo://app?vid=d60d8232-4a96-492d-9348-9c3d8bdfda03","ios":"levelo://app?vid=d60d8232-4a96-492d-9348-9c3d8bdfda03"},"vehicle_type_id":"4","last_reported":1734772114,"current_range_meters":38800,"station_id":"ce4bgpp2rcd13ifvqc3g","pricing_plan_id":"cebpf4jnsgd1na2vs0mg"},{"bike_id":"0365d627-bfc5-459b-8305-c5938b939cbe","system_id":"levelo_inurba_marseille","lat":43.26932,"lon":5.38926,"is_reserved":false,"is_disabled":false,"rental_uris":{"android":"levelo://app?vid=0365d627-bfc5-459b-8305-c5938b939cbe","ios":"levelo://app?vid=0365d627-bfc5-459b-8305-c5938b939cbe"},"vehicle_type_id":"4","last_reported":1734772114,"current_range_meters":28000,"station_id":"ce4bhhh2rcd13ifvqfl0","pricing_plan_id":"cebpf4jnsgd1na2vs0mg"},{"bike_id":"41957561-5e49-4727-a7e0-01365af5c65f","system_id":"levelo_inurba_marseille","lat":43.309359,"lon":5.401409,"is_reserved":false,"is_disabled":false,"rental_uris":{"android":"levelo://app?vid=41957561-5e49-4727-a7e0-01365af5c65f","ios":"levelo://app?vid=41957561-5e49-4727-a7e0-01365af5c65f"},"vehicle_type_id":"4","last_reported":1734772114,"current_range_meters":34000,"station_id":"ce4bgvp2rcd13ifvqct0","pricing_plan_id":"cebpf4jnsgd1na2vs0mg"},{"bike_id":"19f34006-1dba-4c03-b59a-0511830589aa","system_id":"levelo_inurba_marseille","lat":43.24812,"lon":5.37443,"is_reserved":false,"is_disabled":false,"rental_uris":{"android":"levelo://app?vid=19f34006-1dba-4c03-b59a-0511830589aa","ios":"levelo://app?vid=19f34006-1dba-4c03-b59a-0511830589aa"},"vehicle_type_id":"4","last_reported":1734772114,"current_range_meters":22400,"station_id":"ce4bhgh2rcd13ifvqfb0","pricing_plan_id":"cebpf4jnsgd1na2vs0mg"},{"bike_id":"bffdb595-5ef9-4fbb-b316-887b15202198","system_id":"levelo_inurba_marseille","lat":43.28268,"lon":5.35063,"is_reserved":false,"is_disabled":false,"rental_uris":{"android":"levelo://app?vid=bffdb595-5ef9-4fbb-b316-887b15202198","ios":"levelo://app?vid=bffdb595-5ef9-4fbb-b316-887b15202198"},"vehicle_type_id":"4","last_reported":1734772114,"current_range_meters":38400,"station_id":"ce4bhbp2rcd13ifvqerg","pricing_plan_id":"cebpf4jnsgd1na2vs0mg"},{"bike_id":"c306b2b7-cee1-4251-825f-d2a96f44e701","system_id":"levelo_inurba_marseille","lat":43.288476,"lon":5.358484,"is_reserved":false,"is_disabled":false,"rental_uris":{"android":"levelo://app?vid=c306b2b7-cee1-4251-825f-d2a96f44e701","ios":"levelo://app?vid=c306b2b7-cee1-4251-825f-d2a96f44e701"},"vehicle_type_id":"4","last_reported":1734772114,"current_range_meters":11200,"station_id":"ce4bhb12rcd13ifvqem0","pricing_plan_id":"cebpf4jnsgd1na2vs0mg"},{"bike_id":"646232ca-85af-4543-9491-77ec5822ec23","system_id":"levelo_inurba_marseille","lat":43.29848,"lon":5.36322,"is_reserved":false,"is_disabled":false,"rental_uris":{"android":"levelo://app?vid=646232ca-85af-4543-9491-77ec5822ec23","ios":"levelo://app?vid=646232ca-85af-4543-9491-77ec5822ec23"},"vehicle_type_id":"4","last_reported":1734772114,"current_range_meters":26000,"station_id":"ce4bgpp2rcd13ifvqc3g","pricing_plan_id":"cebpf4jnsgd1na2vs0mg"},{"bike_id":"be8555e4-0447-448f-a199-d1ee57117487","system_id":"levelo_inurba_marseille","lat":43.3093,"lon":5.40149,"is_reserved":false,"is_disabled":false,"rental_uris":{"android":"levelo://app?vid=be8555e4-0447-448f-a199-d1ee57117487","ios":"levelo://app?vid=be8555e4-0447-448f-a199-d1ee57117487"},"vehicle_type_id":"4","last_reported":1734772114,"current_range_meters":24800,"station_id":"ce4bgvp2rcd13ifvqct0","pricing_plan_id":"cebpf4jnsgd1na2vs0mg"},{"bike_id":"723b635c-d72a-47a0-a994-f42fb93169c7","system_id":"levelo_inurba_marseille","lat":43.297077,"lon":5.37685,"is_reserved":false,"is_disabled":false,"rental_uris":{"android":"levelo://app?vid=723b635c-d72a-47a0-a994-f42fb93169c7","ios":"levelo://app?vid=723b635c-d72a-47a0-a994-f42fb93169c7"},"vehicle_type_id":"4","last_reported":1734772114,"current_range_meters":30400,"station_id":"ce4bgkh2rcd13ifvqbl0","pricing_plan_id":"cebpf4jnsgd1na2vs0mg"},{"bike_id":"70ecbe0e-a770-4e0e-b7c1-b40d9dc6c110","system_id":"levelo_inurba_marseille","lat":43.30155,"lon":5.38088,"is_reserved":false,"is_disabled":false,"rental_uris":{"android":"levelo://app?vid=70ecbe0e-a770-4e0e-b7c1-b40d9dc6c110","ios":"levelo://app?vid=70ecbe0e-a770-4e0e-b7c1-b40d9dc6c110"},"vehicle_type_id":"4","last_reported":1734772114,"current_range_meters":36000,"station_id":"ce4bgjp2rcd13ifvqbh0","pricing_plan_id":"cebpf4jnsgd1na2vs0mg"},{"bike_id":"bbe27add-01ae-4f81-bec0-02d8246bfe5a","system_id":"levelo_inurba_marseille","lat":43.25862,"lon":5.39889,"is_reserved":false,"is_disabled":false,"rental_uris":{"android":"levelo://app?vid=bbe27add-01ae-4f81-bec0-02d8246bfe5a","ios":"levelo://app?vid=bbe27add-01ae-4f81-bec0-02d8246bfe5a"},"vehicle_type_id":"4","last_reported":1734772114,"current_range_meters":38000,"station_id":"ce4bhl92rcd13ifvqghg","pricing_plan_id":"cebpf4jnsgd1na2vs0mg"},{"bike_id":"1f23b2e2-48cd-4c25-967d-4145bfcfa354","system_id":"levelo_inurba_marseille","lat":43.2794,"lon":5.41039,"is_reserved":false,"is_disabled":false,"rental_uris":{"android":"levelo://app?vid=1f23b2e2-48cd-4c25-967d-4145bfcfa354","ios":"levelo://app?vid=1f23b2e2-48cd-4c25-967d-4145bfcfa354"},"vehicle_type_id":"4","last_reported":1734772114,"current_range_meters":26800,"station_id":"ce4bhnp2rcd13ifvqh0g","pricing_plan_id":"cebpf4jnsgd1na2vs0mg"},{"bike_id":"b49fffa8-49b5-425f-a464-ad2030a4be86","system_id":"levelo_inurba_marseille","lat":43.29768,"lon":5.37096,"is_reserved":false,"is_disabled":false,"rental_uris":{"android":"levelo://app?vid=b49fffa8-49b5-425f-a464-ad2030a4be86","ios":"levelo://app?vid=b49fffa8-49b5-425f-a464-ad2030a4be86"},"vehicle_type_id":"4","last_reported":1734772114,"current_range_meters":33200,"station_id":"ce4bgop2rcd13ifvqc1g","pricing_plan_id":"cebpf4jnsgd1na2vs0mg"},{"bike_id":"e353d62c-c5ff-4f13-94a9-2d54b9fdbe08","system_id":"levelo_inurba_marseille","lat":43.288463,"lon":5.358413,"is_reserved":false,"is_disabled":true,"rental_uris":{"android":"levelo://app?vid=e353d62c-c5ff-4f13-94a9-2d54b9fdbe08","ios":"levelo://app?vid=e353d62c-c5ff-4f13-94a9-2d54b9fdbe08"},"vehicle_type_id":"4","last_reported":1734772114,"current_range_meters":0,"station_id":"ce4bhb12rcd13ifvqem0","pricing_plan_id":"cebpf4jnsgd1na2vs0mg"},{"bike_id":"dfd60306-6842-4fae-aacb-4c30d2d5cfbb","system_id":"levelo_inurba_marseille","lat":43.27375,"lon":5.36251,"is_reserved":false,"is_disabled":false,"rental_uris":{"android":"levelo://app?vid=dfd60306-6842-4fae-aacb-4c30d2d5cfbb","ios":"levelo://app?vid=dfd60306-6842-4fae-aacb-4c30d2d5cfbb"},"vehicle_type_id":"4","last_reported":1734772114,"current_range_meters":25200,"station_id":"ce4bhbh2rcd13ifvqeo0","pricing_plan_id":"cebpf4jnsgd1na2vs0mg"},{"bike_id":"35977dce-498d-4fbc-9ac6-e4939fad6e4c","system_id":"levelo_inurba_marseille","lat":43.26914,"lon":5.38905,"is_reserved":false,"is_disabled":false,"rental_uris":{"android":"levelo://app?vid=35977dce-498d-4fbc-9ac6-e4939fad6e4c","ios":"levelo://app?vid=35977dce-498d-4fbc-9ac6-e4939fad6e4c"},"vehicle_type_id":"4","last_reported":1734772114,"current_range_meters":38800,"station_id":"ce4bhhh2rcd13ifvqfl0","pricing_plan_id":"cebpf4jnsgd1na2vs0mg"},{"bike_id":"494c8398-822e-42ee-a7f1-dfd664d1fba7","system_id":"levelo_inurba_marseille","lat":43.23198,"lon":5.3554,"is_reserved":false,"is_disabled":false,"rental_uris":{"android":"levelo://app?vid=494c8398-822e-42ee-a7f1-dfd664d1fba7","ios":"levelo://app?vid=494c8398-822e-42ee-a7f1-dfd664d1fba7"},"vehicle_type_id":"4","last_reported":1734772114,"current_range_meters":32000,"station_id":"ce4bhu92rcd13ifvqi70","pricing_plan_id":"cebpf4jnsgd1na2vs0mg"},{"bike_id":"724b6d1d-1b77-4a84-b175-490e1e136446","system_id":"levelo_inurba_marseille","lat":43.29519,"lon":5.39037,"is_reserved":false,"is_disabled":false,"rental_uris":{"android":"levelo://app?vid=724b6d1d-1b77-4a84-b175-490e1e136446","ios":"levelo://app?vid=724b6d1d-1b77-4a84-b175-490e1e136446"},"vehicle_type_id":"4","last_reported":1734772114,"current_range_meters":32800,"station_id":"ce4bh3p2rcd13ifvqdp0","pricing_plan_id":"cebpf4jnsgd1na2vs0mg"},{"bike_id":"fbdf6156-8014-4f46-9b80-f7f54ff1d0c7","system_id":"levelo_inurba_marseille","lat":43.28999,"lon":5.35617,"is_reserved":false,"is_disabled":false,"rental_uris":{"android":"levelo://app?vid=fbdf6156-8014-4f46-9b80-f7f54ff1d0c7","ios":"levelo://app?vid=fbdf6156-8014-4f46-9b80-f7f54ff1d0c7"},"vehicle_type_id":"4","last_reported":1734772114,"current_range_meters":38800,"station_id":"ce4bhb92rcd13ifvqen0","pricing_plan_id":"cebpf4jnsgd1na2vs0mg"},{"bike_id":"c782be4b-818b-4cb4-830c-89e6e8de2966","system_id":"levelo_inurba_marseille","lat":43.27813,"lon":5.40699,"is_reserved":false,"is_disabled":false,"rental_uris":{"android":"levelo://app?vid=c782be4b-818b-4cb4-830c-89e6e8de2966","ios":"levelo://app?vid=c782be4b-818b-4cb4-830c-89e6e8de2966"},"vehicle_type_id":"4","last_reported":1734772114,"current_range_meters":28800,"station_id":"ce4bhnh2rcd13ifvqgtg","pricing_plan_id":"cebpf4jnsgd1na2vs0mg"},{"bike_id":"714aa917-666e-44ad-87e7-7e5422dc5135","system_id":"levelo_inurba_marseille","lat":43.28614,"lon":5.35128,"is_reserved":false,"is_disabled":false,"rental_uris":{"android":"levelo://app?vid=714aa917-666e-44ad-87e7-7e5422dc5135","ios":"levelo://app?vid=714aa917-666e-44ad-87e7-7e5422dc5135"},"vehicle_type_id":"4","last_reported":1734772114,"current_range_meters":27200,"station_id":"ce4bhch2rcd13ifvqeug","pricing_plan_id":"cebpf4jnsgd1na2vs0mg"},{"bike_id":"28195630-2c39-4c93-bf30-6590e0ccf6df","system_id":"levelo_inurba_marseille","lat":43.27056,"lon":5.40264,"is_reserved":false,"is_disabled":false,"rental_uris":{"android":"levelo://app?vid=28195630-2c39-4c93-bf30-6590e0ccf6df","ios":"levelo://app?vid=28195630-2c39-4c93-bf30-6590e0ccf6df"},"vehicle_type_id":"4","last_reported":1734772114,"current_range_meters":14400,"station_id":"ce4bhk92rcd13ifvqgc0","pricing_plan_id":"cebpf4jnsgd1na2vs0mg"},