{"last_updated":1685786764,"ttl":30,"version":"2.2","data":{"bikes":[{"bike_id":"fb800150-b9fb-449d-8aad-ed4417832585","system_id":"levelo_inurba_marseille","lat":43.314811,"lon":5.373103,"is_reserved":false,"is_disabled":false,"rental_uris":{"android":"levelo://app?vid=fb800150-b9fb-449d-8aad-ed4417832585","ios":"levelo://app?vid=fb800150-b9fb-449d-8aad-ed4417832585"},"vehicle_type_id":"4","last_reported":1685786764,"current_range_meters":22000,"station_id":"ce4bgt12rcd13ifvqcd0","pricing_plan_id":"free"},{"bike_id":"325902da-fb16-4473-98bf-a9d9e9afe831","system_id":"levelo_inurba_marseille","lat":43.314811,"lon":5.373103,"is_reserved":false,"is_disabled":false,"rental_uris":{"android":"levelo://app?vid=325902da-fb16-4473-98bf-a9d9e9afe831","ios":"levelo://app?vid=325902da-fb16-4473-98bf-a9d9e9afe831"},"vehicle_type_id":"4","last_reported":1685786764,"current_range_meters":26800,"station_id":"ce4bgt12rcd13ifvqcd0","pricing_plan_id":"free"},{"bike_id":"25a8dcab-ece4-42b7-a12a-a0dd7d71635f","system_id":"levelo_inurba_marseille","lat":43.30901,"lon":5.37266,"is_reserved":false,"is_disabled":false,"rental_uris":{"android":"levelo://app?vid=25a8dcab-ece4-42b7-a12a-a0dd7d71635f","ios":"levelo://app?vid=25a8dcab-ece4-42b7-a12a-a0dd7d71635f"},"vehicle_type_id":"4","last_reported":1685786764,"current_range_meters":10400,"station_id":"","pricing_plan_id":"free"},{"bike_id":"4d43e892-ec90-4fce-8475-f727fed3851f","system_id":"levelo_inurba_marseille","lat":43.31981,"lon":5.36581,"is_reserved":false,"is_disabled":false,"rental_uris":{"android":"levelo://app?vid=4d43e892-ec90-4fce-8475-f727fed3851f","ios":"levelo://app?vid=4d43e892-ec90-4fce-8475-f727fed3851f"},"vehicle_type_id":"4","last_reported":1685786764,"current_range_meters":5600,"station_id":"","pricing_plan_id":"free"},{"bike_id":"890e93ac-4bac-484a-baff-b468d73fa7c8","system_id":"levelo_inurba_marseille","lat":43.31357,"lon":5.37664,"is_reserved":false,"is_disabled":false,"rental_uris":{"android":"levelo://app?vid=890e93ac-4bac-484a-baff-b468d73fa7c8","ios":"levelo://app?vid=890e93ac-4bac-484a-baff-b468d73fa7c8"},"vehicle_type_id":"4","last_reported":1685786764,"current_range_meters":11600,"station_id":"","pricing_plan_id":"free"},{"bike_id":"65554d33-b508-436a-aac9-544974e5f617","system_id":"levelo_inurba_marseille","lat":43.311175,"lon":5.377713,"is_reserved":false,"is_disabled":false,"rental_uris":{"android":"levelo://app?vid=65554d33-b508-436a-aac9-544974e5f617","ios":"levelo://app?vid=65554d33-b508-436a-aac9-544974e5f617"},"vehicle_type_id":"4","last_reported":1685786764,"current_range_meters":21600,"station_id":"","pricing_plan_id":"free"},{"bike_id":"56ae2f3c-bb32-4313-88ce-ffec4bcca0c4","system_id":"levelo_inurba_marseille","lat":43.30319,"lon":5.36895,"is_reserved":false,"is_disabled":false,"rental_uris":{"android":"levelo://app?vid=56ae2f3c-bb32-4313-88ce-ffec4bcca0c4","ios":"levelo://app?vid=56ae2f3c-bb32-4313-88ce-ffec4bcca0c4"},"vehicle_type_id":"4","last_reported":1685786764,"current_range_meters":31200,"station_id":"ce4bgqh2rcd13ifvqc5g","pricing_plan_id":"free"},{"bike_id":"2dea5820-9a5e-4c08-b55a-768ea1e144a7","system_id":"levelo_inurba_marseille","lat":43.3031,"lon":5.36907,"is_reserved":false,"is_disabled":false,"rental_uris":{"android":"levelo://app?vid=2dea5820-9a5e-4c08-b55a-768ea1e144a7","ios":"levelo://app?vid=2dea5820-9a5e-4c08-b55a-768ea1e144a7"},"vehicle_type_id":"4","last_reported":1685786764,"current_range_meters":31200,"station_id":"ce4bgqh2rcd13ifvqc5g","pricing_plan_id":"free"},{"bike_id":"706b8dc3-15ff-4ccb-9008-f709b23ddd7b","system_id":"levelo_inurba_marseille","lat":43.30304,"lon":5.36904,"is_reserved":false,"is_disabled":false,"rental_uris":{"android":"levelo://app?vid=706b8dc3-15ff-4ccb-9008-f709b23ddd7b","ios":"levelo://app?vid=706b8dc3-15ff-4ccb-9008-f709b23ddd7b"},"vehicle_type_id":"4","last_reported":1685786764,"current_range_meters":10000,"station_id":"ce4bgqh2rcd13ifvqc5g","pricing_plan_id":"free"},{"bike_id":"a00ed593-f02a-432e-9f40-937b52b84575","system_id":"levelo_inurba_marseille","lat":43.30304,"lon":5.368987,"is_reserved":false,"is_disabled":false,"rental_uris":{"android":"levelo://app?vid=a00ed593-f02a-432e-9f40-937b52b84575","ios":"levelo://app?vid=a00ed593-f02a-432e-9f40-937b52b84575"},"vehicle_type_id":"4","last_reported":1685786764,"current_range_meters":31200,"station_id":"ce4bgqh2rcd13ifvqc5g","pricing_plan_id":"free"},{"bike_id":"a5768619-54d5-40ad-9183-8ecf9cda6179","system_id":"levelo_inurba_marseille","lat":43.308012,"lon":5.381511,"is_reserved":false,"is_disabled":false,"rental_uris":{"android":"levelo://app?vid=a5768619-54d5-40ad-9183-8ecf9cda6179","ios":"levelo://app?vid=a5768619-54d5-40ad-9183-8ecf9cda6179"},"vehicle_type_id":"4","last_reported":1685786764,"current_range_meters":23600,"station_id":"ce4bgt12rcd13ifvqce0","pricing_plan_id":"free"},{"bike_id":"9a2bec71-912d-42a6-8c27-72d7c9d7b118","system_id":"levelo_inurba_marseille","lat":43.304606,"lon":5.379026,"is_reserved":false,"is_disabled":false,"rental_uris":{"android":"levelo://app?vid=9a2bec71-912d-42a6-8c27-72d7c9d7b118","ios":"levelo://app?vid=9a2bec71-912d-42a6-8c27-72d7c9d7b118"},"vehicle_type_id":"4","last_reported":1685786764,"current_range_meters":30400,"station_id":"ce4bgup2rcd13ifvqcn0","pricing_plan_id":"free"},{"bike_id":"8c3cbb59-cd72-4768-8a58-eb62ab11aad1","system_id":"levelo_inurba_marseille","lat":43.319935,"lon":5.381699,"is_reserved":false,"is_disabled":false,"rental_uris":{"android":"levelo://app?vid=8c3cbb59-cd72-4768-8a58-eb62ab11aad1","ios":"levelo://app?vid=8c3cbb59-cd72-4768-8a58-eb62ab11aad1"},"vehicle_type_id":"4","last_reported":1685786764,"current_range_meters":29600,"station_id":"ce4bhr12rcd13ifvqhpg","pricing_plan_id":"free"},{"bike_id":"b6af2cee-22c0-4696-a3cc-c5ab5878f58f","system_id":"levelo_inurba_marseille","lat":43.319935,"lon":5.381699,"is_reserved":false,"is_disabled":false,"rental_uris":{"android":"levelo://app?vid=b6af2cee-22c0-4696-a3cc-c5ab5878f58f","ios":"levelo://app?vid=b6af2cee-22c0-4696-a3cc-c5ab5878f58f"},"vehicle_type_id":"4","last_reported":1685786764,"current_range_meters":28000,"station_id":"ce4bhr12rcd13ifvqhpg","pricing_plan_id":"free"},{"bike_id":"cc6e8d20-80a4-4ebe-849f-1a75d32bfe65","system_id":"levelo_inurba_marseille","lat":43.299222,"lon":5.365554,"is_reserved":false,"is_disabled":false,"rental_uris":{"android":"levelo://app?vid=cc6e8d20-80a4-4ebe-849f-1a75d32bfe65","ios":"levelo://app?vid=cc6e8d20-80a4-4ebe-849f-1a75d32bfe65"},"vehicle_type_id":"4","last_reported":1685786764,"current_range_meters":19200,"station_id":"ce4bgm92rcd13ifvqbr0","pricing_plan_id":"free"},{"bike_id":"b1f13541-a46e-40fb-ac06-093b05629c0a","system_id":"levelo_inurba_marseille","lat":43.299222,"lon":5.365554,"is_reserved":false,"is_disabled":false,"rental_uris":{"android":"levelo://app?vid=b1f13541-a46e-40fb-ac06-093b05629c0a","ios":"levelo://app?vid=b1f13541-a46e-40fb-ac06-093b05629c0a"},"vehicle_type_id":"4","last_reported":1685786764,"current_range_meters":19200,"station_id":"ce4bgm92rcd13ifvqbr0","pricing_plan_id":"free"},{"bike_id":"85b1087d-ea8e-409d-b6c4-06eefb15b54f","system_id":"levelo_inurba_marseille","lat":43.29934,"lon":5.36524,"is_reserved":false,"is_disabled":false,"rental_uris":{"android":"levelo://app?vid=85b1087d-ea8e-409d-b6c4-06eefb15b54f","ios":"levelo://app?vid=85b1087d-ea8e-409d-b6c4-06eefb15b54f"},"vehicle_type_id":"4","last_reported":1685786764,"current_range_meters":28000,"station_id":"","pricing_plan_id":"free"},{"bike_id":"42e71d03-66bf-4303-87bc-d6e20f3751e2","system_id":"levelo_inurba_marseille","lat":43.29969,"lon":5.37145,"is_reserved":false,"is_disabled":false,"rental_uris":{"android":"levelo://app?vid=42e71d03-66bf-4303-87bc-d6e20f3751e2","ios":"levelo://app?vid=42e71d03-66bf-4303-87bc-d6e20f3751e2"},"vehicle_type_id":"4","last_reported":1685786764,"current_range_meters":5600,"station_id":"","pricing_plan_id":"free"},{"bike_id":"9b929396-3c44-452c-91f7-5e542ebcd7a0","system_id":"levelo_inurba_marseille","lat":43.299222,"lon":5.365554,"is_reserved":false,"is_disabled":false,"rental_uris":{"android":"levelo://app?vid=9b929396-3c44-452c-91f7-5e542ebcd7a0","ios":"levelo://app?vid=9b929396-3c44-452c-91f7-5e542ebcd7a0"},"vehicle_type_id":"4","last_reported":1685786764,"current_range_meters":1600,"station_id":"ce4bgm92rcd13ifvqbr0","pricing_plan_id":"free"},{"bike_id":"f75015e2-623a-40dd-b7f3-834983f50917","system_id":"levelo_inurba_marseille","lat":43.29849,"lon":5.36289,"is_reserved":false,"is_disabled":false,"rental_uris":{"android":"levelo://app?vid=f75015e2-623a-40dd-b7f3-834983f50917","ios":"levelo://app?vid=f75015e2-623a-40dd-b7f3-834983f50917"},"vehicle_type_id":"4","last_reported":1685786764,"current_range_meters":24000,"station_id":"ce4bgpp2rcd13ifvqc3g","pricing_plan_id":"free"},{"bike_id":"26ef5cbf-8c07-4686-b914-7117d0dab124","system_id":"levelo_inurba_marseille","lat":43.298433,"lon":5.362774,"is_reserved":false,"is_disabled":false,"rental_uris":{"android":"levelo://app?vid=26ef5cbf-8c07-4686-b914-7117d0dab124","ios":"levelo://app?vid=26ef5cbf-8c07-4686-b914-7117d0dab124"},"vehicle_type_id":"4","last_reported":1685786764,"current_range_meters":13200,"station_id":"ce4bgpp2rcd13ifvqc3g","pricing_plan_id":"free"},{"bike_id":"c2cfb580-9c22-4fac-abdf-17ed60e5d711","system_id":"levelo_inurba_marseille","lat":43.298433,"lon":5.362774,"is_reserved":false,"is_disabled":false,"rental_uris":{"android":"levelo://app?vid=c2cfb580-9c22-4fac-abdf-17ed60e5d711","ios":"levelo://app?vid=c2cfb580-9c22-4fac-abdf-17ed60e5d711"},"vehicle_type_id":"4","last_reported":1685786764,"current_range_meters":31200,"station_id":"ce4bgpp2rcd13ifvqc3g","pricing_plan_id":"free"},{"bike_id":"ca9b9151-6ea6-4762-9d24-680a85b4f240","system_id":"levelo_inurba_marseille","lat":43.298433,"lon":5.362774,"is_reserved":false,"is_disabled":false,"rental_uris":{"android":"levelo://app?vid=ca9b9151-6ea6-4762-9d24-680a85b4f240","ios":"levelo://app?vid=ca9b9151-6ea6-4762-9d24-680a85b4f240"},"vehicle_type_id":"4","last_reported":1685786764,"current_range_meters":25600,"station_id":"ce4bgpp2rcd13ifvqc3g","pricing_plan_id":"free"},{"bike_id":"2aa73f7b-1bbc-4173-b0f6-f48948fcc108","system_id":"levelo_inurba_marseille","lat":43.298433,"lon":5.362774,"is_reserved":false,"is_disabled":false,"rental_uris":{"android":"levelo://app?vid=2aa73f7b-1bbc-4173-b0f6-f48948fcc108","ios":"levelo://app?vid=2aa73f7b-1bbc-4173-b0f6-f48948fcc108"},"vehicle_type_id":"4","last_reported":1685786764,"current_range_meters":28400,"station_id":"ce4bgpp2rcd13ifvqc3g","pricing_plan_id":"free"},{"bike_id":"932f29d2-e9ed-4cf6-aa15-e7133c0aa201","system_id":"levelo_inurba_marseille","lat":43.298433,"lon":5.362774,"is_reserved":false,"is_disabled":false,"rental_uris":{"android":"levelo://app?vid=932f29d2-e9ed-4cf6-aa15-e7133c0aa201","ios":"levelo://app?vid=932f29d2-e9ed-4cf6-aa15-e7133c0aa201"},"vehicle_type_id":"4","last_reported":1685786764,"current_range_meters":31200,"station_id":"ce4bgpp2rcd13ifvqc3g","pricing_plan_id":"free"},{"bike_id":"cde56320-b6d3-45e9-b8c5-56a03af48dbf","system_id":"levelo_inurba_marseille","lat":43.297794,"lon":5.370888,"is_reserved":false,"is_disabled":false,"rental_uris":{"android":"levelo://app?vid=cde56320-b6d3-45e9-b8c5-56a03af48dbf","ios":"levelo://app?vid=cde56320-b6d3-45e9-b8c5-56a03af48dbf"},"vehicle_type_id":"4","last_reported":1685786764,"current_range_meters":9200,"station_id":"ce4bgop2rcd13ifvqc1g","pricing_plan_id":"free"},{"bike_id":"1e0fff65-bc93-4c71-8316-e8dca31bb0ca","system_id":"levelo_inurba_marseille","lat":43.297794,"lon":5.370888,"is_reserved":false,"is_disabled":false,"rental_uris":{"android":"levelo://app?vid=1e0fff65-bc93-4c71-8316-e8dca31bb0ca","ios":"levelo://app?vid=1e0fff65-bc93-4c71-8316-e8dca31bb0ca"},"vehicle_type_id":"4","last_reported":1685786764,"current_range_meters":18800,"station_id":"ce4bgop2rcd13ifvqc1g","pricing_plan_id":"free"},{"bike_id":"e7b88331-d377-4ae0-87d5-cda731a35544","system_id":"levelo_inurba_marseille","lat":43.328371,"lon":5.366909,"is_reserved":false,"is_disabled":false,"rental_uris":{"android":"levelo://app?vid=e7b88331-d377-4ae0-87d5-cda731a35544","ios":"levelo://app?vid=e7b88331-d377-4ae0-87d5-cda731a35544"},"vehicle_type_id":"4","last_reported":1685786764,"current_range_meters":21200,"station_id":"ce4bhs92rcd13ifvqi0g","pricing_plan_id":"free"},{"bike_id":"3192aaa9-bdbe-44e1-80cb-9e5be1a6ef96","system_id":"levelo_inurba_marseille","lat":43.328371,"lon":5.366909,"is_reserved":false,"is_disabled":false,"rental_uris":{"android":"levelo://app?vid=3192aaa9-bdbe-44e1-80cb-9e5be1a6ef96","ios":"levelo://app?vid=3192aaa9-bdbe-44e1-80cb-9e5be1a6ef96"},"vehicle_type_id":"4","last_reported":1685786764,"current_range_meters":23600,"station_id":"ce4bhs92rcd13ifvqi0g","pricing_plan_id":"free"},{"bike_id":"048d6a5e-97c9-4f67-bf89-16ecba2081b0","system_id":"levelo_inurba_marseille","lat":43.328371,"lon":5.366909,"is_reserved":false,"is_disabled":false,"rental_uris":{"android":"levelo://app?vid=048d6a5e-97c9-4f67-bf89-16ecba2081b0","ios":"levelo://app?vid=048d6a5e-97c9-4f67-bf89-16ecba2081b0"},"vehicle_type_id":"4","last_reported":1685786764,"current_range_meters":19600,"station_id":"ce4bhs92rcd13ifvqi0g","pricing_plan_id":"free"},{"bike_id":"a83ed86f-12ad-4f4a-bc6d-220219adb489","system_id":"levelo_inurba_marseille","lat":43.328371,"lon":5.366909,"is_reserved":false,"is_disabled":false,"rental_uris":{"android":"levelo://app?vid=a83ed86f-12ad-4f4a-bc6d-220219adb489","ios":"levelo://app?vid=a83ed86f-12ad-4f4a-bc6d-220219adb489"},"vehicle_type_id":"4","last_reported":1685786764,"current_range_meters":12800,"station_id":"ce4bhs92rcd13ifvqi0g","pricing_plan_id":"free"},{"bike_id":"73358a4c-93c0-4eda-a88d-776a673cd973","system_id":"levelo_inurba_marseille","lat":43.328371,"lon":5.366909,"is_reserved":false,"is_disabled":false,"rental_uris":{"android":"levelo://app?vid=73358a4c-93c0-4eda-a88d-776a673cd973","ios":"levelo://app?vid=73358a4c-93c0-4eda-a88d-776a673cd973"},"vehicle_type_id":"4","last_reported":1685786764,"current_range_meters":28400,"station_id":"ce4bhs92rcd13ifvqi0g","pricing_plan_id":"free"},{"bike_id":"44461937-e383-441a-8ed9-77517a1c8c2f","system_id":"levelo_inurba_marseille","lat":43.32829,"lon":5.36679,"is_reserved":false,"is_disabled":false,"rental_uris":{"android":"levelo://app?vid=44461937-e383-441a-8ed9-77517a1c8c2f","ios":"levelo://app?vid=44461937-e383-441a-8ed9-77517a1c8c2f"},"vehicle_type_id":"4","last_reported":1685786764,"current_range_meters":18000,"station_id":"ce4bhs92rcd13ifvqi0g","pricing_plan_id":"free"},{"bike_id":"6dab6eca-b352-49ea-add2-026ea7782376","system_id":"levelo_inurba_marseille","lat":43.328371,"lon":5.366909,"is_reserved":false,"is_disabled":false,"rental_uris":{"android":"levelo://app?vid=6dab6eca-b352-49ea-add2-026ea7782376","ios":"levelo://app?vid=6dab6eca-b352-49ea-add2-026ea7782376"},"vehicle_type_id":"4","last_reported":1685786764,"current_range_meters":30400,"station_id":"ce4bhs92rcd13ifvqi0g","pricing_plan_id":"free"},{"bike_id":"2dfc1d81-782f-4d49-ae45-d3e8d0f3d453","system_id":"levelo_inurba_marseille","lat":43.298433,"lon":5.362774,"is_reserved":false,"is_disabled":false,"rental_uris":{"android":"levelo://app?vid=2dfc1d81-782f-4d49-ae45-d3e8d0f3d453","ios":"levelo://app?vid=2dfc1d81-782f-4d49-ae45-d3e8d0f3d453"},"vehicle_type_id":"4","last_reported":1685786764,"current_range_meters":31200,"station_id":"ce4bgpp2rcd13ifvqc3g","pricing_plan_id":"free"},{"bike_id":"000ca287-4ddf-40be-88af-4bad74693431","system_id":"levelo_inurba_marseille","lat":43.296131,"lon":5.370791,"is_reserved":false,"is_disabled":false,"rental_uris":{"android":"levelo://app?vid=000ca287-4ddf-40be-88af-4bad74693431","ios":"levelo://app?vid=000ca287-4ddf-40be-88af-4bad74693431"},"vehicle_type_id":"4","last_reported":1685786764,"current_range_meters":28800,"station_id":"ce4bgnh2rcd13ifvqc0g","pricing_plan_id":"free"},{"bike_id":"53312e80-25a1-4ddd-86cb-3302bd37e3f5","system_id":"levelo_inurba_marseille","lat":43.296131,"lon":5.370773,"is_reserved":false,"is_disabled":false,"rental_uris":{"android":"levelo://app?vid=53312e80-25a1-4ddd-86cb-3302bd37e3f5","ios":"levelo://app?vid=53312e80-25a1-4ddd-86cb-3302bd37e3f5"},"vehicle_type_id":"4","last_reported":1685786764,"current_range_meters":20400,"station_id":"ce4bgnh2rcd13ifvqc0g","pricing_plan_id":"free"},{"bike_id":"8142fb10-e6f0-4cbd-a950-3089a659608f","system_id":"levelo_inurba_marseille","lat":43.31758,"lon":5.3901,"is_reserved":false,"is_disabled":false,"rental_uris":{"android":"levelo://app?vid=8142fb10-e6f0-4cbd-a950-3089a659608f","ios":"levelo://app?vid=8142fb10-e6f0-4cbd-a950-3089a659608f"},"vehicle_type_id":"4","last_reported":1685786764,"current_range_meters":17600,"station_id":"ce4bhqp2rcd13ifvqhng","pricing_plan_id":"free"},{"bike_id":"aaf2df05-a257-4053-af8e-d986e9c9dc1b","system_id":"levelo_inurba_marseille","lat":43.317557,"lon":5.390173,"is_reserved":false,"is_disabled":false,"rental_uris":{"android":"levelo://app?vid=aaf2df05-a257-4053-af8e-d986e9c9dc1b","ios":"levelo://app?vid=aaf2df05-a257-4053-af8e-d986e9c9dc1b"},"vehicle_type_id":"4","last_reported":1685786764,"current_range_meters":0,"station_id":"ce4bhqp2rcd13ifvqhng","pricing_plan_id":"free"},{"bike_id":"eb500a68-299c-4bfe-996b-c50aa893b955","system_id":"levelo_inurba_marseille","lat":43.32367,"lon":5.388836,"is_reserved":false,"is_disabled":false,"rental_uris":{"android":"levelo://app?vid=eb500a68-299c-4bfe-996b-c50aa893b955","ios":"levelo://app?vid=eb500a68-299c-4bfe-996b-c50aa893b955"},"vehicle_type_id":"4","last_reported":1685786764,"current_range_meters":31200,"station_id":"ce4bhqp2rcd13ifvqhog","pricing_plan_id":"free"},{"bike_id":"d9b3487e-4661-4b3b-a198-2212de300ca1","system_id":"levelo_inurba_marseille","lat":43.32363,"lon":5.38882,"is_reserved":false,"is_disabled":false,"rental_uris":{"android":"levelo://app?vid=d9b3487e-4661-4b3b-a198-2212de300ca1","ios":"levelo://app?vid=d9b3487e-4661-4b3b-a198-2212de300ca1"},"vehicle_type_id":"4","last_reported":1685786764,"current_range_meters":29200,"station_id":"ce4bhqp2rcd13ifvqhog","pricing_plan_id":"free"},{"bike_id":"0c7ce3fd-9fe0-458e-9687-20b832dfee04","system_id":"levelo_inurba_marseille","lat":43.32367,"lon":5.388836,"is_reserved":false,"is_disabled":false,"rental_uris":{"android":"levelo://app?vid=0c7ce3fd-9fe0-458e-9687-20b832dfee04","ios":"levelo://app?vid=0c7ce3fd-9fe0-458e-9687-20b832dfee04"},"vehicle_type_id":"4","last_reported":1685786764,"current_range_meters":31200,"station_id":"ce4bhqp2rcd13ifvqhog","pricing_plan_id":"free"},{"bike_id":"c07fe0f2-772a-435f-9629-10108908cbeb","system_id":"levelo_inurba_marseille","lat":43.32367,"lon":5.388836,"is_reserved":false,"is_disabled":false,"rental_uris":{"android":"levelo://app?vid=c07fe0f2-772a-435f-9629-10108908cbeb","ios":"levelo://app?vid=c07fe0f2-772a-435f-9629-10108908cbeb"},"vehicle_type_id":"4","last_reported":1685786764,"current_range_meters":28400,"station_id":"ce4bhqp2rcd13ifvqhog","pricing_plan_id":"free"},{"bike_id":"90bbfd03-d00c-4933-b38d-99b5da852988","system_id":"levelo_inurba_marseille","lat":43.32367,"lon":5.388836,"is_reserved":false,"is_disabled":false,"rental_uris":{"android":"levelo://app?vid=90bbfd03-d00c-4933-b38d-99b5da852988","ios":"levelo://app?vid=90bbfd03-d00c-4933-b38d-99b5da852988"},"vehicle_type_id":"4","last_reported":1685786764,"current_range_meters":30800,"station_id":"ce4bhqp2rcd13ifvqhog","pricing_plan_id":"free"},{"bike_id":"89de6b20-c43a-4dd8-89d0-68075829fe85","system_id":"levelo_inurba_marseille","lat":43.32367,"lon":5.38884,"is_reserved":false,"is_disabled":false,"rental_uris":{"android":"levelo://app?vid=89de6b20-c43a-4dd8-89d0-68075829fe85","ios":"levelo://app?vid=89de6b20-c43a-4dd8-89d0-68075829fe85"},"vehicle_type_id":"4","last_reported":1685786764,"current_range_meters":31200,"station_id":"ce4bhqp2rcd13ifvqhog","pricing_plan_id":"free"},{"bike_id":"0f7d5cfc-f15c-47c5-a028-432ea014d504","system_id":"levelo_inurba_marseille","lat":43.292749,"lon":5.368402,"is_reserved":false,"is_disabled":false,"rental_uris":{"android":"levelo://app?vid=0f7d5cfc-f15c-47c5-a028-432ea014d504","ios":"levelo://app?vid=0f7d5cfc-f15c-47c5-a028-432ea014d504"},"vehicle_type_id":"4","last_reported":1685786764,"current_range_meters":20000,"station_id":"ce4bhbp2rcd13ifvqesg","pricing_plan_id":"free"},{"bike_id":"f3f5442b-e8c4-4417-aa4b-507ada33b5ab","system_id":"levelo_inurba_marseille","lat":43.292749,"lon":5.368398,"is_reserved":false,"is_disabled":false,"rental_uris":{"android":"levelo://app?vid=f3f5442b-e8c4-4417-aa4b-507ada33b5ab","ios":"levelo://app?vid=f3f5442b-e8c4-4417-aa4b-507ada33b5ab"},"vehicle_type_id":"4","last_reported":1685786764,"current_range_meters":13600,"station_id":"ce4bhbp2rcd13ifvqesg","pricing_plan_id":"free"},{"bike_id":"0bad84d1-a077-4bf5-919b-dc5a32a67874","system_id":"levelo_inurba_marseille","lat":43.292311,"lon":5.360731,"is_reserved":false,"is_disabled":false,"rental_uris":{"android":"levelo://app?vid=0bad84d1-a077-4bf5-919b-dc5a32a67874","ios":"levelo://app?vid=0bad84d1-a077-4bf5-919b-dc5a32a67874"},"vehicle_type_id":"4","last_reported":1685786764,"current_range_meters":30800,"station_id":"ce4bhbh2rcd13ifvqeqg","pricing_plan_id":"free"},{"bike_id":"c24c527e-c88e-43ad-a5a1-6898df55c7cc","system_id":"levelo_inurba_marseille","lat":43.292311,"lon":5.360731,"is_reserved":false,"is_disabled":false,"rental_uris":{"android":"levelo://app?vid=c24c527e-c88e-43ad-a5a1-6898df55c7cc","ios":"levelo://app?vid=c24c527e-c88e-43ad-a5a1-6898df55c7cc"},"vehicle_type_id":"4","last_reported":1685786764,"current_range_meters":15200,"station_id":"ce4bhbh2rcd13ifvqeqg","pricing_plan_id":"free"},{"bike_id":"2b0b9a2d-7618-414a-a3de-f06150286bac","system_id":"levelo_inurba_marseille","lat":43.292311,"lon":5.360731,"is_reserved":false,"is_disabled":false,"rental_uris":{"android":"levelo://app?vid=2b0b9a2d-7618-414a-a3de-f06150286bac","ios":"levelo://app?vid=2b0b9a2d-7618-414a-a3de-f06150286bac"},"vehicle_type_id":"4","last_reported":1685786764,"current_range_meters":13200,"station_id":"ce4bhbh2rcd13ifvqeqg","pricing_plan_id":"free"},{"bike_id":"16b483c7-2915-4e0b-ab7b-029b39918edc","system_id":"levelo_inurba_marseille","lat":43.292311,"lon":5.360731,"is_reserved":false,"is_disabled":false,"rental_uris":{"android":"levelo://app?vid=16b483c7-2915-4e0b-ab7b-029b39918edc","ios":"levelo://app?vid=16b483c7-2915-4e0b-ab7b-029b39918edc"},"vehicle_type_id":"4","last_reported":1685786764,"current_range_meters":31200,"station_id":"ce4bhbh2rcd13ifvqeqg","pricing_plan_id":"free"},{"bike_id":"fc5c3134-620c-49c2-874f-6d9bb1efab34","system_id":"levelo_inurba_marseille","lat":43.30085,"lon":5.390856,"is_reserved":false,"is_disabled":false,"rental_uris":{"android":"levelo://app?vid=fc5c3134-620c-49c2-874f-6d9bb1efab34","ios":"levelo://app?vid=fc5c3134-620c-49c2-874f-6d9bb1efab34"},"vehicle_type_id":"4","last_reported":1685786764,"current_range_meters":14000,"station_id":"ce4bh192rcd13ifvqdb0","pricing_plan_id":"free"},{"bike_id":"a47c530f-e34a-4416-976e-befee4c4c25e","system_id":"levelo_inurba_marseille","lat":43.292311,"lon":5.360731,"is_reserved":false,"is_disabled":false,"rental_uris":{"android":"levelo://app?vid=a47c530f-e34a-4416-976e-befee4c4c25e","ios":"levelo://app?vid=a47c530f-e34a-4416-976e-befee4c4c25e"},"vehicle_type_id":"4","last_reported":1685786764,"current_range_meters":27200,"station_id":"ce4bhbh2rcd13ifvqeqg","pricing_plan_id":"free"},{"bike_id":"87b1dd70-d86c-49ae-a9d0-2a3fb8346af9","system_id":"levelo_inurba_marseille","lat":43.292311,"lon":5.360731,"is_reserved":false,"is_disabled":false,"rental_uris":{"android":"levelo://app?vid=87b1dd70-d86c-49ae-a9d0-2a3fb8346af9","ios":"levelo://app?vid=87b1dd70-d86c-49ae-a9d0-2a3fb8346af9"},"vehicle_type_id":"4","last_reported":1685786764,"current_range_meters":6000,"station_id":"ce4bhbh2rcd13ifvqeqg","pricing_plan_id":"free"},{"bike_id":"9a660a40-6e1d-46db-b97f-9280f02053e3","system_id":"levelo_inurba_marseille","lat":43.313291,"lon":5.396838,"is_reserved":false,"is_disabled":false,"rental_uris":{"android":"levelo://app?vid=9a660a40-6e1d-46db-b97f-9280f02053e3","ios":"levelo://app?vid=9a660a40-6e1d-46db-b97f-9280f02053e3"},"vehicle_type_id":"4","last_reported":1685786764,"current_range_meters":23200,"station_id":"ce4bgvp2rcd13ifvqcu0","pricing_plan_id":"free"},{"bike_id":"f085d85d-015c-4566-9ff7-d976ae835412","system_id":"levelo_inurba_marseille","lat":43.313291,"lon":5.396838,"is_reserved":false,"is_disabled":false,"rental_uris":{"android":"levelo://app?vid=f085d85d-015c-4566-9ff7-d976ae835412","ios":"levelo://app?vid=f085d85d-015c-4566-9ff7-d976ae835412"},"vehicle_type_id":"4","last_reported":1685786764,"current_range_meters":24800,"station_id":"ce4bgvp2rcd13ifvqcu0","pricing_plan_id":"free"},{"bike_id":"003e2a5d-6f63-4697-9329-627a25826c00","system_id":"levelo_inurba_marseille","lat":43.313291,"lon":5.396838,"is_reserved":false,"is_disabled":false,"rental_uris":{"android":"levelo://app?vid=003e2a5d-6f63-4697-9329-627a25826c00","ios":"levelo://app?vid=003e2a5d-6f63-4697-9329-627a25826c00"},"vehicle_type_id":"4","last_reported":1685786764,"current_range_meters":12800,"station_id":"ce4bgvp2rcd13ifvqcu0","pricing_plan_id":"free"},{"bike_id":"ea372ec6-409e-4703-9032-fac2fc0aea2a","system_id":"levelo_inurba_marseille","lat":43.29529,"lon":5.385581,"is_reserved":false,"is_disabled":false,"rental_uris":{"android":"levelo://app?vid=ea372ec6-409e-4703-9032-fac2fc0aea2a","ios":"levelo://app?vid=ea372ec6-409e-4703-9032-fac2fc0aea2a"},"vehicle_type_id":"4","last_reported":1685786764,"current_range_meters":7600,"station_id":"ce4bgih2rcd13ifvqba0","pricing_plan_id":"free"},{"bike_id":"2ad7a188-a26a-43a6-8776-b6553954132b","system_id":"levelo_inurba_marseille","lat":43.29529,"lon":5.385581,"is_reserved":false,"is_disabled":false,"rental_uris":{"android":"levelo://app?vid=2ad7a188-a26a-43a6-8776-b6553954132b","ios":"levelo://app?vid=2ad7a188-a26a-43a6-8776-b6553954132b"},"vehicle_type_id":"4","last_reported":1685786764,"current_range_meters":26000,"station_id":"ce4bgih2rcd13ifvqba0","pricing_plan_id":"free"},{"bike_id":"1855c907-38af-48cb-8087-83c982a460eb","system_id":"levelo_inurba_marseille","lat":43.29529,"lon":5.385581,"is_reserved":false,"is_disabled":false,"rental_uris":{"android":"levelo://app?vid=1855c907-38af-48cb-8087-83c982a460eb","ios":"levelo://app?vid=1855c907-38af-48cb-8087-83c982a460eb"},"vehicle_type_id":"4","last_reported":1685786764,"current_range_meters":14800,"station_id":"ce4bgih2rcd13ifvqba0","pricing_plan_id":"free"},{"bike_id":"7ef3f316-53d1-4161-80ad-972b58bed71b","system_id":"levelo_inurba_marseille","lat":43.29075,"lon":5.37155,"is_reserved":false,"is_disabled":false,"rental_uris":{"android":"levelo://app?vid=7ef3f316-53d1-4161-80ad-972b58bed71b","ios":"levelo://app?vid=7ef3f316-53d1-4161-80ad-972b58bed71b"},"vehicle_type_id":"4","last_reported":1685786764,"current_range_meters":16800,"station_id":"ce4bh5p2rcd13ifvqe4g","pricing_plan_id":"free"},{"bike_id":"a1d588f9-8125-4a8f-9f59-c1cf1bdc5430","system_id":"levelo_inurba_marseille","lat":43.3283,"lon":5.38898,"is_reserved":false,"is_disabled":false,"rental_uris":{"android":"levelo://app?vid=a1d588f9-8125-4a8f-9f59-c1cf1bdc5430","ios":"levelo://app?vid=a1d588f9-8125-4a8f-9f59-c1cf1bdc5430"},"vehicle_type_id":"4","last_reported":1685786764,"current_range_meters":17600,"station_id":"","pricing_plan_id":"free"},{"bike_id":"d8b91e5a-0662-4732-a5be-bb32f73a746c","system_id":"levelo_inurba_marseille","lat":43.302008,"lon":5.394694,"is_reserved":false,"is_disabled":false,"rental_uris":{"android":"levelo://app?vid=d8b91e5a-0662-4732-a5be-bb32f73a746c","ios":"levelo://app?vid=d8b91e5a-0662-4732-a5be-bb32f73a746c"},"vehicle_type_id":"4","last_reported":1685786764,"current_range_meters":9200,"station_id":"ce4bh0p2rcd13ifvqd70","pricing_plan_id":"free"},{"bike_id":"4efc1fe1-fde6-4429-a07d-8427067e69b9","system_id":"levelo_inurba_marseille","lat":43.302008,"lon":5.394694,"is_reserved":false,"is_disabled":false,"rental_uris":{"android":"levelo://app?vid=4efc1fe1-fde6-4429-a07d-8427067e69b9","ios":"levelo://app?vid=4efc1fe1-fde6-4429-a07d-8427067e69b9"},"vehicle_type_id":"4","last_reported":1685786764,"current_range_meters":22800,"station_id":"ce4bh0p2rcd13ifvqd70","pricing_plan_id":"free"},{"bike_id":"5b75c5fc-3968-433c-86b4-ae7c0209572a","system_id":"levelo_inurba_marseille","lat":43.302008,"lon":5.394694,"is_reserved":false,"is_disabled":false,"rental_uris":{"android":"levelo://app?vid=5b75c5fc-3968-433c-86b4-ae7c0209572a","ios":"levelo://app?vid=5b75c5fc-3968-433c-86b4-ae7c0209572a"},"vehicle_type_id":"4","last_reported":1685786764,"current_range_meters":24800,"station_id":"ce4bh0p2rcd13ifvqd70","pricing_plan_id":"free"},{"bike_id":"06bc5e1a-18ad-47cf-ae35-fce39078a8d1","system_id":"levelo_inurba_marseille","lat":43.302008,"lon":5.394694,"is_reserved":false,"is_disabled":false,"rental_uris":{"android":"levelo://app?vid=06bc5e1a-18ad-47cf-ae35-fce39078a8d1","ios":"levelo://app?vid=06bc5e1a-18ad-47cf-ae35-fce39078a8d1"},"vehicle_type_id":"4","last_reported":1685786764,"current_range_meters":24000,"station_id":"ce4bh0p2rcd13ifvqd70","pricing_plan_id":"free"},{"bike_id":"a0a7fa73-5ab4-4b4e-b52f-99fd53b5c911","system_id":"levelo_inurba_marseille","lat":43.302128,"lon":5.394651,"is_reserved":false,"is_disabled":false,"rental_uris":{"android":"levelo://app?vid=a0a7fa73-5ab4-4b4e-b52f-99fd53b5c911","ios":"levelo://app?vid=a0a7fa73-5ab4-4b4e-b52f-99fd53b5c911"},"vehicle_type_id":"4","last_reported":1685786764,"current_range_meters":19200,"station_id":"","pricing_plan_id":"free"},{"bike_id":"b0a82357-9363-4e62-8a3b-b93bc6864555","system_id":"levelo_inurba_marseille","lat":43.302008,"lon":5.394694,"is_reserved":false,"is_disabled":false,"rental_uris":{"android":"levelo://app?vid=b0a82357-9363-4e62-8a3b-b93bc6864555","ios":"levelo://app?vid=b0a82357-9363-4e62-8a3b-b93bc6864555"},"vehicle_type_id":"4","last_reported":1685786764,"current_range_meters":11600,"station_id":"ce4bh0p2rcd13ifvqd70","pricing_plan_id":"free"},{"bike_id":"4c4fd648-76a1-4214-85d6-8e13384db0db","system_id":"levelo_inurba_marseille","lat":43.302106,"lon":5.39468,"is_reserved":false,"is_disabled":false,"rental_uris":{"android":"levelo://app?vid=4c4fd648-76a1-4214-85d6-8e13384db0db","ios":"levelo://app?vid=4c4fd648-76a1-4214-85d6-8e13384db0db"},"vehicle_type_id":"4","last_reported":1685786764,"current_range_meters":20800,"station_id":"","pricing_plan_id":"free"},{"bike_id":"a95a42ba-7869-413d-aa24-d1f1c948f0ee","system_id":"levelo_inurba_marseille","lat":43.289184,"lon":5.366408,"is_reserved":false,"is_disabled":false,"rental_uris":{"android":"levelo://app?vid=a95a42ba-7869-413d-aa24-d1f1c948f0ee","ios":"levelo://app?vid=a95a42ba-7869-413d-aa24-d1f1c948f0ee"},"vehicle_type_id":"4","last_reported":1685786764,"current_range_meters":16400,"station_id":"ce4bhap2rcd13ifvqek0","pricing_plan_id":"free"},{"bike_id":"172d6aa0-3b2a-4fa5-9968-7134f0b9bf19","system_id":"levelo_inurba_marseille","lat":43.292732,"lon":5.384388,"is_reserved":false,"is_disabled":false,"rental_uris":{"android":"levelo://app?vid=172d6aa0-3b2a-4fa5-9968-7134f0b9bf19","ios":"levelo://app?vid=172d6aa0-3b2a-4fa5-9968-7134f0b9bf19"},"vehicle_type_id":"4","last_reported":1685786764,"current_range_meters":0,"station_id":"","pricing_plan_id":"free"},{"bike_id":"5cbcf543-d288-404c-bac6-328ef38ba2d8","system_id":"levelo_inurba_marseille","lat":43.33039,"lon":5.3892,"is_reserved":false,"is_disabled":false,"rental_uris":{"android":"levelo://app?vid=5cbcf543-d288-404c-bac6-328ef38ba2d8","ios":"levelo://app?vid=5cbcf543-d288-404c-bac6-328ef38ba2d8"},"vehicle_type_id":"4","last_reported":1685786764,"current_range_meters":24400,"station_id":"ce4bhr92rcd13ifvqhrg","pricing_plan_id":"free"},{"bike_id":"05f1a2c7-d830-495c-86b8-292585194459","system_id":"levelo_inurba_marseille","lat":43.3304,"lon":5.38919,"is_reserved":false,"is_disabled":false,"rental_uris":{"android":"levelo://app?vid=05f1a2c7-d830-495c-86b8-292585194459","ios":"levelo://app?vid=05f1a2c7-d830-495c-86b8-292585194459"},"vehicle_type_id":"4","last_reported":1685786764,"current_range_meters":23600,"station_id":"ce4bhr92rcd13ifvqhrg","pricing_plan_id":"free"},{"bike_id":"2d37238d-c9df-4c7c-a8f7-fced896bdd84","system_id":"levelo_inurba_marseille","lat":43.33041,"lon":5.38921,"is_reserved":false,"is_disabled":false,"rental_uris":{"android":"levelo://app?vid=2d37238d-c9df-4c7c-a8f7-fced896bdd84","ios":"levelo://app?vid=2d37238d-c9df-4c7c-a8f7-fced896bdd84"},"vehicle_type_id":"4","last_reported":1685786764,"current_range_meters":26000,"station_id":"ce4bhr92rcd13ifvqhrg","pricing_plan_id":"free"},{"bike_id":"2364282a-cb9d-46e5-8a93-f3855a133753","system_id":"levelo_inurba_marseille","lat":43.330427,"lon":5.38921,"is_reserved":false,"is_disabled":false,"rental_uris":{"android":"levelo://app?vid=2364282a-cb9d-46e5-8a93-f3855a133753","ios":"levelo://app?vid=2364282a-cb9d-46e5-8a93-f3855a133753"},"vehicle_type_id":"4","last_reported":1685786764,"current_range_meters":20800,"station_id":"ce4bhr92rcd13ifvqhrg","pricing_plan_id":"free"},{"bike_id":"9faaa064-05ee-4f71-b8ea-c4c03df54af5","system_id":"levelo_inurba_marseille","lat":43.290104,"lon":5.356111,"is_reserved":false,"is_disabled":false,"rental_uris":{"android":"levelo://app?vid=9faaa064-05ee-4f71-b8ea-c4c03df54af5","ios":"levelo://app?vid=9faaa064-05ee-4f71-b8ea-c4c03df54af5"},"vehicle_type_id":"4","last_reported":1685786764,"current_range_meters":0,"station_id":"ce4bhb92rcd13ifvqen0","pricing_plan_id":"free"},{"bike_id":"41c2590e-164d-41e9-b96b-588d43dd2f8b","system_id":"levelo_inurba_marseille","lat":43.29117,"lon":5.38178,"is_reserved":false,"is_disabled":false,"rental_uris":{"android":"levelo://app?vid=41c2590e-164d-41e9-b96b-588d43dd2f8b","ios":"levelo://app?vid=41c2590e-164d-41e9-b96b-588d43dd2f8b"},"vehicle_type_id":"4","last_reported":1685786764,"current_range_meters":8800,"station_id":"","pricing_plan_id":"free"},{"bike_id":"febe5861-adc8-44e8-bf44-b8873f9649de","system_id":"levelo_inurba_marseille","lat":43.289741,"lon":5.378306,"is_reserved":false,"is_disabled":false,"rental_uris":{"android":"levelo://app?vid=febe5861-adc8-44e8-bf44-b8873f9649de","ios":"levelo://app?vid=febe5861-adc8-44e8-bf44-b8873f9649de"},"vehicle_type_id":"4","last_reported":1685786764,"current_range_meters":25200,"station_id":"ce4bh9p2rcd13ifvqed0","pricing_plan_id":"free"},{"bike_id":"e8702b5e-5012-48e7-989d-014825939c5f","system_id":"levelo_inurba_marseille","lat":43.289741,"lon":5.378306,"is_reserved":false,"is_disabled":false,"rental_uris":{"android":"levelo://app?vid=e8702b5e-5012-48e7-989d-014825939c5f","ios":"levelo://app?vid=e8702b5e-5012-48e7-989d-014825939c5f"},"vehicle_type_id":"4","last_reported":1685786764,"current_range_meters":20800,"station_id":"ce4bh9p2rcd13ifvqed0","pricing_plan_id":"free"},{"bike_id":"ac8871d6-7f59-4a99-9f08-a27ba203e428","system_id":"levelo_inurba_marseille","lat":43.289732,"lon":5.378425,"is_reserved":false,"is_disabled":false,"rental_uris":{"android":"levelo://app?vid=ac8871d6-7f59-4a99-9f08-a27ba203e428","ios":"levelo://app?vid=ac8871d6-7f59-4a99-9f08-a27ba203e428"},"vehicle_type_id":"4","last_reported":1685786764,"current_range_meters":12400,"station_id":"ce4bh9p2rcd13ifvqed0","pricing_plan_id":"free"},{"bike_id":"7ba29ba6-4478-418c-b4ea-fc6c092887d1","system_id":"levelo_inurba_marseille","lat":43.28856,"lon":5.358371,"is_reserved":false,"is_disabled":false,"rental_uris":{"android":"levelo://app?vid=7ba29ba6-4478-418c-b4ea-fc6c092887d1","ios":"levelo://app?vid=7ba29ba6-4478-418c-b4ea-fc6c092887d1"},"vehicle_type_id":"4","last_reported":1685786764,"current_range_meters":21200,"station_id":"ce4bhb12rcd13ifvqem0","pricing_plan_id":"free"},{"bike_id":"09044982-2e58-4a53-993c-2701ccdb63d8","system_id":"levelo_inurba_marseille","lat":43.33749,"lon":5.37457,"is_reserved":false,"is_disabled":false,"rental_uris":{"android":"levelo://app?vid=09044982-2e58-4a53-993c-2701ccdb63d8","ios":"levelo://app?vid=09044982-2e58-4a53-993c-2701ccdb63d8"},"vehicle_type_id":"4","last_reported":1685786764,"current_range_meters":16400,"station_id":"","pricing_plan_id":"free"},{"bike_id":"8f950625-af2d-4089-844d-37bd38107aa9","system_id":"levelo_inurba_marseille","lat":43.337511,"lon":5.374542,"is_reserved":false,"is_disabled":false,"rental_uris":{"android":"levelo://app?vid=8f950625-af2d-4089-844d-37bd38107aa9","ios":"levelo://app?vid=8f950625-af2d-4089-844d-37bd38107aa9"},"vehicle_type_id":"4","last_reported":1685786764,"current_range_meters":31600,"station_id":"","pricing_plan_id":"free"},{"bike_id":"e55f86f6-17bf-41fb-90df-86ba0269f447","system_id":"levelo_inurba_marseille","lat":43.337589,"lon":5.374581,"is_reserved":false,"is_disabled":false,"rental_uris":{"android":"levelo://app?vid=e55f86f6-17bf-41fb-90df-86ba0269f447","ios":"levelo://app?vid=e55f86f6-17bf-41fb-90df-86ba0269f447"},"vehicle_type_id":"4","last_reported":1685786764,"current_range_meters":30400,"station_id":"","pricing_plan_id":"free"},{"bike_id":"0113e38e-96e8-443e-8ffa-9a4f8c786a1e","system_id":"levelo_inurba_marseille","lat":43.33765,"lon":5.37431,"is_reserved":false,"is_disabled":false,"rental_uris":{"android":"levelo://app?vid=0113e38e-96e8-443e-8ffa-9a4f8c786a1e","ios":"levelo://app?vid=0113e38e-96e8-443e-8ffa-9a4f8c786a1e"},"vehicle_type_id":"4","last_reported":1685786764,"current_range_meters":21600,"station_id":"","pricing_plan_id":"free"},{"bike_id":"cf0caa37-cec8-408b-98f7-37211a80813c","system_id":"levelo_inurba_marseille","lat":43.33772,"lon":5.3744,"is_reserved":false,"is_disabled":false,"rental_uris":{"android":"levelo://app?vid=cf0caa37-cec8-408b-98f7-37211a80813c","ios":"levelo://app?vid=cf0caa37-cec8-408b-98f7-37211a80813c"},"vehicle_type_id":"4","last_reported":1685786764,"current_range_meters":25600,"station_id":"","pricing_plan_id":"free"},{"bike_id":"738e4599-ad9b-4be8-8971-7d9227e53320","system_id":"levelo_inurba_marseille","lat":43.286591,"lon":5.363346,"is_reserved":false,"is_disabled":false,"rental_uris":{"android":"levelo://app?vid=738e4599-ad9b-4be8-8971-7d9227e53320","ios":"levelo://app?vid=738e4599-ad9b-4be8-8971-7d9227e53320"},"vehicle_type_id":"4","last_reported":1685786764,"current_range_meters":29600,"station_id":"ce4bhah2rcd13ifvqej0","pricing_plan_id":"free"},{"bike_id":"e5cf2130-dc07-4655-b2c7-c030a894cc14","system_id":"levelo_inurba_marseille","lat":43.286591,"lon":5.363346,"is_reserved":false,"is_disabled":false,"rental_uris":{"android":"levelo://app?vid=e5cf2130-dc07-4655-b2c7-c030a894cc14","ios":"levelo://app?vid=e5cf2130-dc07-4655-b2c7-c030a894cc14"},"vehicle_type_id":"4","last_reported":1685786764,"current_range_meters":26800,"station_id":"ce4bhah2rcd13ifvqej0","pricing_plan_id":"free"},{"bike_id":"17aac5dc-3e9d-4c0f-a156-6c29a9f55b15","system_id":"levelo_inurba_marseille","lat":43.286593,"lon":5.363346,"is_reserved":false,"is_disabled":false,"rental_uris":{"android":"levelo://app?vid=17aac5dc-3e9d-4c0f-a156-6c29a9f55b15","ios":"levelo://app?vid=17aac5dc-3e9d-4c0f-a156-6c29a9f55b15"},"vehicle_type_id":"4","last_reported":1685786764,"current_range_meters":5600,"station_id":"ce4bhah2rcd13ifvqej0","pricing_plan_id":"free"},{"bike_id":"48072f01-f426-4062-bdab-22f2557c20c8","system_id":"levelo_inurba_marseille","lat":43.286593,"lon":5.363346,"is_reserved":false,"is_disabled":false,"rental_uris":{"android":"levelo://app?vid=48072f01-f426-4062-bdab-22f2557c20c8","ios":"levelo://app?vid=48072f01-f426-4062-bdab-22f2557c20c8"},"vehicle_type_id":"4","last_reported":1685786764,"current_range_meters":8400,"station_id":"ce4bhah2rcd13ifvqej0","pricing_plan_id":"free"},{"bike_id":"73a46448-0260-49b0-a18b-c8aca0b3d05a","system_id":"levelo_inurba_marseille","lat":43.295213,"lon":5.393962,"is_reserved":false,"is_disabled":false,"rental_uris":{"android":"levelo://app?vid=73a46448-0260-49b0-a18b-c8aca0b3d05a","ios":"levelo://app?vid=73a46448-0260-49b0-a18b-c8aca0b3d05a"},"vehicle_type_id":"4","last_reported":1685786764,"current_range_meters":0,"station_id":"ce4bh292rcd13ifvqdf0","pricing_plan_id":"free"},{"bike_id":"28791eb4-ac74-4ea0-8cd6-c89209dd2393","system_id":"levelo_inurba_marseille","lat":43.287184,"lon":5.37937,"is_reserved":false,"is_disabled":false,"rental_uris":{"android":"levelo://app?vid=28791eb4-ac74-4ea0-8cd6-c89209dd2393","ios":"levelo://app?vid=28791eb4-ac74-4ea0-8cd6-c89209dd2393"},"vehicle_type_id":"4","last_reported":1685786764,"current_range_meters":4000,"station_id":"ce4bh9p2rcd13ifvqec0","pricing_plan_id":"free"},{"bike_id":"1064ec80-deff-498e-b473-7229ca0a0387","system_id":"levelo_inurba_marseille","lat":43.287185,"lon":5.379373,"is_reserved":false,"is_disabled":false,"rental_uris":{"android":"levelo://app?vid=1064ec80-deff-498e-b473-7229ca0a0387","ios":"levelo://app?vid=1064ec80-deff-498e-b473-7229ca0a0387"},"vehicle_type_id":"4","last_reported":1685786764,"current_range_meters":26800,"station_id":"ce4bh9p2rcd13ifvqec0","pricing_plan_id":"free"},{"bike_id":"ad624e12-e913-4400-8b1c-d8be591294f7","system_id":"levelo_inurba_marseille","lat":43.285848,"lon":5.350787,"is_reserved":false,"is_disabled":false,"rental_uris":{"android":"levelo://app?vid=ad624e12-e913-4400-8b1c-d8be591294f7","ios":"levelo://app?vid=ad624e12-e913-4400-8b1c-d8be591294f7"},"vehicle_type_id":"4","last_reported":1685786764,"current_range_meters":30000,"station_id":"ce4bhch2rcd13ifvqeug","pricing_plan_id":"free"},{"bike_id":"f942940d-2614-45f1-862e-cfe811cc5fdd","system_id":"levelo_inurba_marseille","lat":43.285848,"lon":5.350787,"is_reserved":false,"is_disabled":false,"rental_uris":{"android":"levelo://app?vid=f942940d-2614-45f1-862e-cfe811cc5fdd","ios":"levelo://app?vid=f942940d-2614-45f1-862e-cfe811cc5fdd"},"vehicle_type_id":"4","last_reported":1685786764,"current_range_meters":31200,"station_id":"ce4bhch2rcd13ifvqeug","pricing_plan_id":"free"},{"bike_id":"fea3f320-bf0e-4eb9-a41c-05fca5a72d5b","system_id":"levelo_inurba_marseille","lat":43.285848,"lon":5.350787,"is_reserved":false,"is_disabled":false,"rental_uris":{"android":"levelo://app?vid=fea3f320-bf0e-4eb9-a41c-05fca5a72d5b","ios":"levelo://app?vid=fea3f320-bf0e-4eb9-a41c-05fca5a72d5b"},"vehicle_type_id":"4","last_reported":1685786764,"current_range_meters":29600,"station_id":"ce4bhch2rcd13ifvqeug","pricing_plan_id":"free"},{"bike_id":"1ca59d94-7d60-431d-863c-8397111a1fd5","system_id":"levelo_inurba_marseille","lat":43.285848,"lon":5.350787,"is_reserved":false,"is_disabled":false,"rental_uris":{"android":"levelo://app?vid=1ca59d94-7d60-431d-863c-8397111a1fd5","ios":"levelo://app?vid=1ca59d94-7d60-431d-863c-8397111a1fd5"},"vehicle_type_id":"4","last_reported":1685786764,"current_range_meters":26400,"station_id":"ce4bhch2rcd13ifvqeug","pricing_plan_id":"free"},{"bike_id":"d0f4f0d5-d67f-4b16-bbf2-159f98297b1d","system_id":"levelo_inurba_marseille","lat":43.286151,"lon":5.350985,"is_reserved":false,"is_disabled":false,"rental_uris":{"android":"levelo://app?vid=d0f4f0d5-d67f-4b16-bbf2-159f98297b1d","ios":"levelo://app?vid=d0f4f0d5-d67f-4b16-bbf2-159f98297b1d"},"vehicle_type_id":"4","last_reported":1685786764,"current_range_meters":26400,"station_id":"","pricing_plan_id":"free"},{"bike_id":"2910308e-72c9-4e8c-aa92-87486bbf1a67","system_id":"levelo_inurba_marseille","lat":43.28614,"lon":5.35101,"is_reserved":false,"is_disabled":false,"rental_uris":{"android":"levelo://app?vid=2910308e-72c9-4e8c-aa92-87486bbf1a67","ios":"levelo://app?vid=2910308e-72c9-4e8c-aa92-87486bbf1a67"},"vehicle_type_id":"4","last_reported":1685786764,"current_range_meters":7600,"station_id":"","pricing_plan_id":"free"},{"bike_id":"98f6dce3-7552-4c21-95e6-1aabeb972544","system_id":"levelo_inurba_marseille","lat":43.28616,"lon":5.35094,"is_reserved":false,"is_disabled":false,"rental_uris":{"android":"levelo://app?vid=98f6dce3-7552-4c21-95e6-1aabeb972544","ios":"levelo://app?vid=98f6dce3-7552-4c21-95e6-1aabeb972544"},"vehicle_type_id":"4","last_reported":1685786764,"current_range_meters":28400,"station_id":"","pricing_plan_id":"free"},{"bike_id":"a726f329-788f-4458-bf39-e389a50529fa","system_id":"levelo_inurba_marseille","lat":43.28615,"lon":5.35097,"is_reserved":false,"is_disabled":false,"rental_uris":{"android":"levelo://app?vid=a726f329-788f-4458-bf39-e389a50529fa","ios":"levelo://app?vid=a726f329-788f-4458-bf39-e389a50529fa"},"vehicle_type_id":"4","last_reported":1685786764,"current_range_meters":6800,"station_id":"","pricing_plan_id":"free"},{"bike_id":"5f8b3cef-8de5-4c81-9442-d21218ef4b71","system_id":"levelo_inurba_marseille","lat":43.285848,"lon":5.350787,"is_reserved":false,"is_disabled":false,"rental_uris":{"android":"levelo://app?vid=5f8b3cef-8de5-4c81-9442-d21218ef4b71","ios":"levelo://app?vid=5f8b3cef-8de5-4c81-9442-d21218ef4b71"},"vehicle_type_id":"4","last_reported":1685786764,"current_range_meters":24000,"station_id":"ce4bhch2rcd13ifvqeug","pricing_plan_id":"free"},{"bike_id":"bda2dcbf-5e5b-4d11-b8cd-55a5a9648cd2","system_id":"levelo_inurba_marseille","lat":43.285848,"lon":5.350787,"is_reserved":false,"is_disabled":false,"rental_uris":{"android":"levelo://app?vid=bda2dcbf-5e5b-4d11-b8cd-55a5a9648cd2","ios":"levelo://app?vid=bda2dcbf-5e5b-4d11-b8cd-55a5a9648cd2"},"vehicle_type_id":"4","last_reported":1685786764,"current_range_meters":18400,"station_id":"ce4bhch2rcd13ifvqeug","pricing_plan_id":"free"},{"bike_id":"a715d8cf-1d26-4e55-9680-444cbbd689bb","system_id":"levelo_inurba_marseille","lat":43.285856,"lon":5.350771,"is_reserved":false,"is_disabled":false,"rental_uris":{"android":"levelo://app?vid=a715d8cf-1d26-4e55-9680-444cbbd689bb","ios":"levelo://app?vid=a715d8cf-1d26-4e55-9680-444cbbd689bb"},"vehicle_type_id":"4","last_reported":1685786764,"current_range_meters":24400,"station_id":"ce4bhch2rcd13ifvqeug","pricing_plan_id":"free"},{"bike_id":"0a8aba60-b51b-427d-be66-8709066b23d1","system_id":"levelo_inurba_marseille","lat":43.33158,"lon":5.39818,"is_reserved":false,"is_disabled":false,"rental_uris":{"android":"levelo://app?vid=0a8aba60-b51b-427d-be66-8709066b23d1","ios":"levelo://app?vid=0a8aba60-b51b-427d-be66-8709066b23d1"},"vehicle_type_id":"4","last_reported":1685786764,"current_range_meters":29600,"station_id":"","pricing_plan_id":"free"},{"bike_id":"b205e703-9cc6-479d-b47b-dcec15459f4d","system_id":"levelo_inurba_marseille","lat":43.32699,"lon":5.40374,"is_reserved":false,"is_disabled":false,"rental_uris":{"android":"levelo://app?vid=b205e703-9cc6-479d-b47b-dcec15459f4d","ios":"levelo://app?vid=b205e703-9cc6-479d-b47b-dcec15459f4d"},"vehicle_type_id":"4","last_reported":1685786764,"current_range_meters":17600,"station_id":"","pricing_plan_id":"free"},{"bike_id":"44112003-0c8c-4826-b782-86127e84a77d","system_id":"levelo_inurba_marseille","lat":43.284787,"lon":5.384116,"is_reserved":false,"is_disabled":false,"rental_uris":{"android":"levelo://app?vid=44112003-0c8c-4826-b782-86127e84a77d","ios":"levelo://app?vid=44112003-0c8c-4826-b782-86127e84a77d"},"vehicle_type_id":"4","last_reported":1685786764,"current_range_meters":26400,"station_id":"ce4bh512rcd13ifvqe3g","pricing_plan_id":"free"},{"bike_id":"aaa64a56-140e-4ca3-9289-2d5c57e44212","system_id":"levelo_inurba_marseille","lat":43.288497,"lon":5.393089,"is_reserved":false,"is_disabled":false,"rental_uris":{"android":"levelo://app?vid=aaa64a56-140e-4ca3-9289-2d5c57e44212","ios":"levelo://app?vid=aaa64a56-140e-4ca3-9289-2d5c57e44212"},"vehicle_type_id":"4","last_reported":1685786764,"current_range_meters":25600,"station_id":"ce4bh2p2rcd13ifvqdi0","pricing_plan_id":"free"},{"bike_id":"d506fa9e-6a97-4646-a460-64271e1f4de8","system_id":"levelo_inurba_marseille","lat":43.284219,"lon":5.3497,"is_reserved":false,"is_disabled":false,"rental_uris":{"android":"levelo://app?vid=d506fa9e-6a97-4646-a460-64271e1f4de8","ios":"levelo://app?vid=d506fa9e-6a97-4646-a460-64271e1f4de8"},"vehicle_type_id":"4","last_reported":1685786764,"current_range_meters":23600,"station_id":"ce4bhbh2rcd13ifvqepg","pricing_plan_id":"free"},{"bike_id":"25711eb5-19a9-4179-9699-4588f7b9bd59","system_id":"levelo_inurba_marseille","lat":43.284219,"lon":5.3497,"is_reserved":false,"is_disabled":false,"rental_uris":{"android":"levelo://app?vid=25711eb5-19a9-4179-9699-4588f7b9bd59","ios":"levelo://app?vid=25711eb5-19a9-4179-9699-4588f7b9bd59"},"vehicle_type_id":"4","last_reported":1685786764,"current_range_meters":9600,"station_id":"ce4bhbh2rcd13ifvqepg","pricing_plan_id":"free"},{"bike_id":"13aa3667-a778-4e64-9805-3153f92202ff","system_id":"levelo_inurba_marseille","lat":43.28424,"lon":5.34987,"is_reserved":false,"is_disabled":false,"rental_uris":{"android":"levelo://app?vid=13aa3667-a778-4e64-9805-3153f92202ff","ios":"levelo://app?vid=13aa3667-a778-4e64-9805-3153f92202ff"},"vehicle_type_id":"4","last_reported":1685786764,"current_range_meters":0,"station_id":"ce4bhbh2rcd13ifvqepg","pricing_plan_id":"free"},{"bike_id":"ad1d5e82-6800-4527-b5fc-d74942c85715","system_id":"levelo_inurba_marseille","lat":43.28422,"lon":5.34984,"is_reserved":false,"is_disabled":false,"rental_uris":{"android":"levelo://app?vid=ad1d5e82-6800-4527-b5fc-d74942c85715","ios":"levelo://app?vid=ad1d5e82-6800-4527-b5fc-d74942c85715"},"vehicle_type_id":"4","last_reported":1685786764,"current_range_meters":29600,"station_id":"ce4bhbh2rcd13ifvqepg","pricing_plan_id":"free"},{"bike_id":"5b71a630-bd24-4f76-b888-36916d665ef2","system_id":"levelo_inurba_marseille","lat":43.28419,"lon":5.34978,"is_reserved":false,"is_disabled":false,"rental_uris":{"android":"levelo://app?vid=5b71a630-bd24-4f76-b888-36916d665ef2","ios":"levelo://app?vid=5b71a630-bd24-4f76-b888-36916d665ef2"},"vehicle_type_id":"4","last_reported":1685786764,"current_range_meters":18000,"station_id":"","pricing_plan_id":"free"},{"bike_id":"bfa5803a-60c1-4d27-8744-bcab9b20e932","system_id":"levelo_inurba_marseille","lat":43.284219,"lon":5.3497,"is_reserved":false,"is_disabled":false,"rental_uris":{"android":"levelo://app?vid=bfa5803a-60c1-4d27-8744-bcab9b20e932","ios":"levelo://app?vid=bfa5803a-60c1-4d27-8744-bcab9b20e932"},"vehicle_type_id":"4","last_reported":1685786764,"current_range_meters":28800,"station_id":"ce4bhbh2rcd13ifvqepg","pricing_plan_id":"free"},{"bike_id":"116371d7-297f-4354-b067-2b57f496b55b","system_id":"levelo_inurba_marseille","lat":43.284217,"lon":5.349697,"is_reserved":false,"is_disabled":false,"rental_uris":{"android":"levelo://app?vid=116371d7-297f-4354-b067-2b57f496b55b","ios":"levelo://app?vid=116371d7-297f-4354-b067-2b57f496b55b"},"vehicle_type_id":"4","last_reported":1685786764,"current_range_meters":29600,"station_id":"ce4bhbh2rcd13ifvqepg","pricing_plan_id":"free"},{"bike_id":"fee7ee8b-9689-499f-bb2f-50348ebe565b","system_id":"levelo_inurba_marseille","lat":43.284187,"lon":5.34971,"is_reserved":false,"is_disabled":false,"rental_uris":{"android":"levelo://app?vid=fee7ee8b-9689-499f-bb2f-50348ebe565b","ios":"levelo://app?vid=fee7ee8b-9689-499f-bb2f-50348ebe565b"},"vehicle_type_id":"4","last_reported":1685786764,"current_range_meters":17600,"station_id":"ce4bhbh2rcd13ifvqepg","pricing_plan_id":"free"},{"bike_id":"289ad4d2-234a-4e6e-a28b-e186271f648c","system_id":"levelo_inurba_marseille","lat":43.28414,"lon":5.34981,"is_reserved":false,"is_disabled":false,"rental_uris":{"android":"levelo://app?vid=289ad4d2-234a-4e6e-a28b-e186271f648c","ios":"levelo://app?vid=289ad4d2-234a-4e6e-a28b-e186271f648c"},"vehicle_type_id":"4","last_reported":1685786764,"current_range_meters":27200,"station_id":"ce4bhbh2rcd13ifvqepg","pricing_plan_id":"free"},{"bike_id":"3c479030-6e64-477a-a009-56ff6667c185","system_id":"levelo_inurba_marseille","lat":43.284219,"lon":5.3497,"is_reserved":false,"is_disabled":false,"rental_uris":{"android":"levelo://app?vid=3c479030-6e64-477a-a009-56ff6667c185","ios":"levelo://app?vid=3c479030-6e64-477a-a009-56ff6667c185"},"vehicle_type_id":"4","last_reported":1685786764,"current_range_meters":25600,"station_id":"ce4bhbh2rcd13ifvqepg","pricing_plan_id":"free"},{"bike_id":"6b26d359-6b37-4b3d-8503-3149bec908dc","system_id":"levelo_inurba_marseille","lat":43.284217,"lon":5.349697,"is_reserved":false,"is_disabled":false,"rental_uris":{"android":"levelo://app?vid=6b26d359-6b37-4b3d-8503-3149bec908dc","ios":"levelo://app?vid=6b26d359-6b37-4b3d-8503-3149bec908dc"},"vehicle_type_id":"4","last_reported":1685786764,"current_range_meters":31200,"station_id":"ce4bhbh2rcd13ifvqepg","pricing_plan_id":"free"},{"bike_id":"441656f9-f308-4a77-86f6-febf90e487df","system_id":"levelo_inurba_marseille","lat":43.29254,"lon":5.40012,"is_reserved":false,"is_disabled":false,"rental_uris":{"android":"levelo://app?vid=441656f9-f308-4a77-86f6-febf90e487df","ios":"levelo://app?vid=441656f9-f308-4a77-86f6-febf90e487df"},"vehicle_type_id":"4","last_reported":1685786764,"current_range_meters":24400,"station_id":"","pricing_plan_id":"free"},{"bike_id":"3464484e-bd73-4691-a48a-d11092ab05b9","system_id":"levelo_inurba_marseille","lat":43.292724,"lon":5.401131,"is_reserved":false,"is_disabled":false,"rental_uris":{"android":"levelo://app?vid=3464484e-bd73-4691-a48a-d11092ab05b9","ios":"levelo://app?vid=3464484e-bd73-4691-a48a-d11092ab05b9"},"vehicle_type_id":"4","last_reported":1685786764,"current_range_meters":6800,"station_id":"ce4bh312rcd13ifvqdk0","pricing_plan_id":"free"},{"bike_id":"f735d6a2-836a-43df-82c3-85aa0fd80125","system_id":"levelo_inurba_marseille","lat":43.283502,"lon":5.386471,"is_reserved":false,"is_disabled":false,"rental_uris":{"android":"levelo://app?vid=f735d6a2-836a-43df-82c3-85aa0fd80125","ios":"levelo://app?vid=f735d6a2-836a-43df-82c3-85aa0fd80125"},"vehicle_type_id":"4","last_reported":1685786764,"current_range_meters":24000,"station_id":"ce4bh492rcd13ifvqdvg","pricing_plan_id":"free"},{"bike_id":"1175a3a7-00e0-49cc-863e-77031d0c3fd0","system_id":"levelo_inurba_marseille","lat":43.28265,"lon":5.35068,"is_reserved":false,"is_disabled":false,"rental_uris":{"android":"levelo://app?vid=1175a3a7-00e0-49cc-863e-77031d0c3fd0","ios":"levelo://app?vid=1175a3a7-00e0-49cc-863e-77031d0c3fd0"},"vehicle_type_id":"4","last_reported":1685786764,"current_range_meters":25200,"station_id":"ce4bhbp2rcd13ifvqerg","pricing_plan_id":"free"},{"bike_id":"da128dca-d779-4a26-83a3-7b30955badda","system_id":"levelo_inurba_marseille","lat":43.28266,"lon":5.35053,"is_reserved":false,"is_disabled":false,"rental_uris":{"android":"levelo://app?vid=da128dca-d779-4a26-83a3-7b30955badda","ios":"levelo://app?vid=da128dca-d779-4a26-83a3-7b30955badda"},"vehicle_type_id":"4","last_reported":1685786764,"current_range_meters":29600,"station_id":"ce4bhbp2rcd13ifvqerg","pricing_plan_id":"free"},{"bike_id":"e4c76056-8b77-4ddf-a474-feb96306d61e","system_id":"levelo_inurba_marseille","lat":43.28039,"lon":5.369297,"is_reserved":false,"is_disabled":false,"rental_uris":{"android":"levelo://app?vid=e4c76056-8b77-4ddf-a474-feb96306d61e","ios":"levelo://app?vid=e4c76056-8b77-4ddf-a474-feb96306d61e"},"vehicle_type_id":"4","last_reported":1685786764,"current_range_meters":17200,"station_id":"ce4bha12rcd13ifvqef0","pricing_plan_id":"free"},{"bike_id":"a0ca22df-316c-4b64-a37c-593055867110","system_id":"levelo_inurba_marseille","lat":43.28039,"lon":5.369297,"is_reserved":false,"is_disabled":false,"rental_uris":{"android":"levelo://app?vid=a0ca22df-316c-4b64-a37c-593055867110","ios":"levelo://app?vid=a0ca22df-316c-4b64-a37c-593055867110"},"vehicle_type_id":"4","last_reported":1685786764,"current_range_meters":11200,"station_id":"ce4bha12rcd13ifvqef0","pricing_plan_id":"free"},{"bike_id":"5f6b1604-b787-416b-a7d5-2966a49c0d4e","system_id":"levelo_inurba_marseille","lat":43.304188,"lon":5.412904,"is_reserved":false,"is_disabled":false,"rental_uris":{"android":"levelo://app?vid=5f6b1604-b787-416b-a7d5-2966a49c0d4e","ios":"levelo://app?vid=5f6b1604-b787-416b-a7d5-2966a49c0d4e"},"vehicle_type_id":"4","last_reported":1685786764,"current_range_meters":7200,"station_id":"ce4bhop2rcd13ifvqh8g","pricing_plan_id":"free"},{"bike_id":"4e5a2f24-6cff-4b00-b622-2cd1c67427c7","system_id":"levelo_inurba_marseille","lat":43.304188,"lon":5.412904,"is_reserved":false,"is_disabled":false,"rental_uris":{"android":"levelo://app?vid=4e5a2f24-6cff-4b00-b622-2cd1c67427c7","ios":"levelo://app?vid=4e5a2f24-6cff-4b00-b622-2cd1c67427c7"},"vehicle_type_id":"4","last_reported":1685786764,"current_range_meters":400,"station_id":"ce4bhop2rcd13ifvqh8g","pricing_plan_id":"free"},{"bike_id":"ecc99947-5ed1-4bd2-84ee-04505db5300d","system_id":"levelo_inurba_marseille","lat":43.27905,"lon":5.38012,"is_reserved":false,"is_disabled":false,"rental_uris":{"android":"levelo://app?vid=ecc99947-5ed1-4bd2-84ee-04505db5300d","ios":"levelo://app?vid=ecc99947-5ed1-4bd2-84ee-04505db5300d"},"vehicle_type_id":"4","last_reported":1685786764,"current_range_meters":1600,"station_id":"","pricing_plan_id":"free"},{"bike_id":"d16b894f-47a0-4a66-b90f-2895e6343798","system_id":"levelo_inurba_marseille","lat":43.27897,"lon":5.38023,"is_reserved":false,"is_disabled":false,"rental_uris":{"android":"levelo://app?vid=d16b894f-47a0-4a66-b90f-2895e6343798","ios":"levelo://app?vid=d16b894f-47a0-4a66-b90f-2895e6343798"},"vehicle_type_id":"4","last_reported":1685786764,"current_range_meters":17600,"station_id":"","pricing_plan_id":"free"},{"bike_id":"dbd59bb5-4546-46b0-a8dc-06c10e317f40","system_id":"levelo_inurba_marseille","lat":43.320045,"lon":5.415046,"is_reserved":false,"is_disabled":false,"rental_uris":{"android":"levelo://app?vid=dbd59bb5-4546-46b0-a8dc-06c10e317f40","ios":"levelo://app?vid=dbd59bb5-4546-46b0-a8dc-06c10e317f40"},"vehicle_type_id":"4","last_reported":1685786764,"current_range_meters":23600,"station_id":"ce4bhq92rcd13ifvqhkg","pricing_plan_id":"free"},{"bike_id":"3e4b0161-6deb-4f2f-9446-bd5731c1ed2e","system_id":"levelo_inurba_marseille","lat":43.325233,"lon":5.414318,"is_reserved":false,"is_disabled":false,"rental_uris":{"android":"levelo://app?vid=3e4b0161-6deb-4f2f-9446-bd5731c1ed2e","ios":"levelo://app?vid=3e4b0161-6deb-4f2f-9446-bd5731c1ed2e"},"vehicle_type_id":"4","last_reported":1685786764,"current_range_meters":16000,"station_id":"ce4bhq12rcd13ifvqhhg","pricing_plan_id":"free"},{"bike_id":"012149a2-9850-4a39-b6fd-6b78ffc55609","system_id":"levelo_inurba_marseille","lat":43.29263,"lon":5.4091,"is_reserved":false,"is_disabled":false,"rental_uris":{"android":"levelo://app?vid=012149a2-9850-4a39-b6fd-6b78ffc55609","ios":"levelo://app?vid=012149a2-9850-4a39-b6fd-6b78ffc55609"},"vehicle_type_id":"4","last_reported":1685786764,"current_range_meters":15200,"station_id":"ce4bh192rcd13ifvqdc0","pricing_plan_id":"free"},{"bike_id":"dc2be0d6-7fb1-4bee-9b18-fe44f819a30a","system_id":"levelo_inurba_marseille","lat":43.265571,"lon":5.390032,"is_reserved":false,"is_disabled":false,"rental_uris":{"android":"levelo://app?vid=dc2be0d6-7fb1-4bee-9b18-fe44f819a30a","ios":"levelo://app?vid=dc2be0d6-7fb1-4bee-9b18-fe44f819a30a"},"vehicle_type_id":"4","last_reported":1685786764,"current_range_meters":28400,"station_id":"ce4bhe12rcd13ifvqf30","pricing_plan_id":"free"},{"bike_id":"864fd1e5-5a0b-46df-a0ce-3148b9668500","system_id":"levelo_inurba_marseille","lat":43.28086,"lon":5.39653,"is_reserved":false,"is_disabled":false,"rental_uris":{"android":"levelo://app?vid=864fd1e5-5a0b-46df-a0ce-3148b9668500","ios":"levelo://app?vid=864fd1e5-5a0b-46df-a0ce-3148b9668500"},"vehicle_type_id":"4","last_reported":1685786764,"current_range_meters":31200,"station_id":"ce4bho12rcd13ifvqh2g","pricing_plan_id":"free"},{"bike_id":"8cd701cf-1da4-478d-babb-3fcd1a55f390","system_id":"levelo_inurba_marseille","lat":43.273613,"lon":5.362705,"is_reserved":false,"is_disabled":false,"rental_uris":{"android":"levelo://app?vid=8cd701cf-1da4-478d-babb-3fcd1a55f390","ios":"levelo://app?vid=8cd701cf-1da4-478d-babb-3fcd1a55f390"},"vehicle_type_id":"4","last_reported":1685786764,"current_range_meters":22000,"station_id":"ce4bhbh2rcd13ifvqeo0","pricing_plan_id":"free"},{"bike_id":"0f07b219-3e17-42d3-896a-2c3f6bc49724","system_id":"levelo_inurba_marseille","lat":43.273609,"lon":5.362708,"is_reserved":false,"is_disabled":false,"rental_uris":{"android":"levelo://app?vid=0f07b219-3e17-42d3-896a-2c3f6bc49724","ios":"levelo://app?vid=0f07b219-3e17-42d3-896a-2c3f6bc49724"},"vehicle_type_id":"4","last_reported":1685786764,"current_range_meters":27200,"station_id":"ce4bhbh2rcd13ifvqeo0","pricing_plan_id":"free"},{"bike_id":"a167c38f-1f8b-4eb3-8844-8596b609d7d6","system_id":"levelo_inurba_marseille","lat":43.336012,"lon":5.410354,"is_reserved":false,"is_disabled":false,"rental_uris":{"android":"levelo://app?vid=a167c38f-1f8b-4eb3-8844-8596b609d7d6","ios":"levelo://app?vid=a167c38f-1f8b-4eb3-8844-8596b609d7d6"},"vehicle_type_id":"4","last_reported":1685786764,"current_range_meters":23200,"station_id":"","pricing_plan_id":"free"},{"bike_id":"3f2d0e1b-78f3-4481-a48e-41fa5412d825","system_id":"levelo_inurba_marseille","lat":43.317121,"lon":5.423936,"is_reserved":false,"is_disabled":false,"rental_uris":{"android":"levelo://app?vid=3f2d0e1b-78f3-4481-a48e-41fa5412d825","ios":"levelo://app?vid=3f2d0e1b-78f3-4481-a48e-41fa5412d825"},"vehicle_type_id":"4","last_reported":1685786764,"current_range_meters":24800,"station_id":"ce4bhp92rcd13ifvqhbg","pricing_plan_id":"free"},{"bike_id":"1bd39121-b624-426a-8407-4ca2029cf1f1","system_id":"levelo_inurba_marseille","lat":43.310785,"lon":5.424305,"is_reserved":false,"is_disabled":false,"rental_uris":{"android":"levelo://app?vid=1bd39121-b624-426a-8407-4ca2029cf1f1","ios":"levelo://app?vid=1bd39121-b624-426a-8407-4ca2029cf1f1"},"vehicle_type_id":"4","last_reported":1685786764,"current_range_meters":15600,"station_id":"ce4bhp92rcd13ifvqhag","pricing_plan_id":"free"},{"bike_id":"9db9545d-f63d-42be-a674-9c25625f916b","system_id":"levelo_inurba_marseille","lat":43.29388,"lon":5.4191,"is_reserved":false,"is_disabled":false,"rental_uris":{"android":"levelo://app?vid=9db9545d-f63d-42be-a674-9c25625f916b","ios":"levelo://app?vid=9db9545d-f63d-42be-a674-9c25625f916b"},"vehicle_type_id":"4","last_reported":1685786764,"current_range_meters":12800,"station_id":"","pricing_plan_id":"free"},{"bike_id":"6a6853bd-a24d-4391-9e48-d7dbde6ce4ed","system_id":"levelo_inurba_marseille","lat":43.273129,"lon":5.390725,"is_reserved":false,"is_disabled":false,"rental_uris":{"android":"levelo://app?vid=6a6853bd-a24d-4391-9e48-d7dbde6ce4ed","ios":"levelo://app?vid=6a6853bd-a24d-4391-9e48-d7dbde6ce4ed"},"vehicle_type_id":"4","last_reported":1685786764,"current_range_meters":20800,"station_id":"ce4bhgp2rcd13ifvqfe0","pricing_plan_id":"free"},{"bike_id":"6fa4c3f8-5165-44e1-a959-fb880a3ee57c","system_id":"levelo_inurba_marseille","lat":43.295523,"lon":5.422926,"is_reserved":false,"is_disabled":false,"rental_uris":{"android":"levelo://app?vid=6fa4c3f8-5165-44e1-a959-fb880a3ee57c","ios":"levelo://app?vid=6fa4c3f8-5165-44e1-a959-fb880a3ee57c"},"vehicle_type_id":"4","last_reported":1685786764,"current_range_meters":25600,"station_id":"ce4bhph2rcd13ifvqhdg","pricing_plan_id":"free"},{"bike_id":"c530d144-f7bf-4639-82e6-0a33bb0a78fc","system_id":"levelo_inurba_marseille","lat":43.269319,"lon":5.389397,"is_reserved":false,"is_disabled":false,"rental_uris":{"android":"levelo://app?vid=c530d144-f7bf-4639-82e6-0a33bb0a78fc","ios":"levelo://app?vid=c530d144-f7bf-4639-82e6-0a33bb0a78fc"},"vehicle_type_id":"4","last_reported":1685786764,"current_range_meters":29200,"station_id":"ce4bhhh2rcd13ifvqfl0","pricing_plan_id":"free"},{"bike_id":"f112d380-7ce4-49c0-953b-3e2da155d73c","system_id":"levelo_inurba_marseille","lat":43.269319,"lon":5.389397,"is_reserved":false,"is_disabled":false,"rental_uris":{"android":"levelo://app?vid=f112d380-7ce4-49c0-953b-3e2da155d73c","ios":"levelo://app?vid=f112d380-7ce4-49c0-953b-3e2da155d73c"},"vehicle_type_id":"4","last_reported":1685786764,"current_range_meters":22000,"station_id":"ce4bhhh2rcd13ifvqfl0","pricing_plan_id":"free"},{"bike_id":"35b9430d-63e6-4f87-af5d-5bf565d48896","system_id":"levelo_inurba_marseille","lat":43.269319,"lon":5.389397,"is_reserved":false,"is_disabled":false,"rental_uris":{"android":"levelo://app?vid=35b9430d-63e6-4f87-af5d-5bf565d48896","ios":"levelo://app?vid=35b9430d-63e6-4f87-af5d-5bf565d48896"},"vehicle_type_id":"4","last_reported":1685786764,"current_range_meters":24800,"station_id":"ce4bhhh2rcd13ifvqfl0","pricing_plan_id":"free"},{"bike_id":"fec5a56f-95a7-4b60-bcdc-eb33da1ce4c5","system_id":"levelo_inurba_marseille","lat":43.2656,"lon":5.37291,"is_reserved":false,"is_disabled":false,"rental_uris":{"android":"levelo://app?vid=fec5a56f-95a7-4b60-bcdc-eb33da1ce4c5","ios":"levelo://app?vid=fec5a56f-95a7-4b60-bcdc-eb33da1ce4c5"},"vehicle_type_id":"4","last_reported":1685786764,"current_range_meters":31200,"station_id":"ce4bhg12rcd13ifvqf70","pricing_plan_id":"free"},{"bike_id":"02fad7d4-4feb-4d10-97a8-1e96227867b8","system_id":"levelo_inurba_marseille","lat":43.26559,"lon":5.37281,"is_reserved":false,"is_disabled":false,"rental_uris":{"android":"levelo://app?vid=02fad7d4-4feb-4d10-97a8-1e96227867b8","ios":"levelo://app?vid=02fad7d4-4feb-4d10-97a8-1e96227867b8"},"vehicle_type_id":"4","last_reported":1685786764,"current_range_meters":28400,"station_id":"ce4bhg12rcd13ifvqf70","pricing_plan_id":"free"},{"bike_id":"aa65ffa8-39de-49fb-9968-335dd7261f08","system_id":"levelo_inurba_marseille","lat":43.265714,"lon":5.372891,"is_reserved":false,"is_disabled":false,"rental_uris":{"android":"levelo://app?vid=aa65ffa8-39de-49fb-9968-335dd7261f08","ios":"levelo://app?vid=aa65ffa8-39de-49fb-9968-335dd7261f08"},"vehicle_type_id":"4","last_reported":1685786764,"current_range_meters":29600,"station_id":"ce4bhg12rcd13ifvqf70","pricing_plan_id":"free"},{"bike_id":"4830acd4-f7c2-464b-9e2d-adad2a7fe8c5","system_id":"levelo_inurba_marseille","lat":43.265714,"lon":5.372891,"is_reserved":false,"is_disabled":false,"rental_uris":{"android":"levelo://app?vid=4830acd4-f7c2-464b-9e2d-adad2a7fe8c5","ios":"levelo://app?vid=4830acd4-f7c2-464b-9e2d-adad2a7fe8c5"},"vehicle_type_id":"4","last_reported":1685786764,"current_range_meters":25600,"station_id":"ce4bhg12rcd13ifvqf70","pricing_plan_id":"free"},{"bike_id":"b45db256-61f8-4069-a946-cf6f7d5d166d","system_id":"levelo_inurba_marseille","lat":43.26557,"lon":5.37292,"is_reserved":false,"is_disabled":false,"rental_uris":{"android":"levelo://app?vid=b45db256-61f8-4069-a946-cf6f7d5d166d","ios":"levelo://app?vid=b45db256-61f8-4069-a946-cf6f7d5d166d"},"vehicle_type_id":"4","last_reported":1685786764,"current_range_meters":19200,"station_id":"ce4bhg12rcd13ifvqf70","pricing_plan_id":"free"},{"bike_id":"13c5750c-ab02-4b84-aaaf-438240a826ea","system_id":"levelo_inurba_marseille","lat":43.265714,"lon":5.372891,"is_reserved":false,"is_disabled":false,"rental_uris":{"android":"levelo://app?vid=13c5750c-ab02-4b84-aaaf-438240a826ea","ios":"levelo://app?vid=13c5750c-ab02-4b84-aaaf-438240a826ea"},"vehicle_type_id":"4","last_reported":1685786764,"current_range_meters":28400,"station_id":"ce4bhg12rcd13ifvqf70","pricing_plan_id":"free"},{"bike_id":"06538980-c887-4f73-a2df-b6985c28bed8","system_id":"levelo_inurba_marseille","lat":43.26555,"lon":5.3729,"is_reserved":false,"is_disabled":false,"rental_uris":{"android":"levelo://app?vid=06538980-c887-4f73-a2df-b6985c28bed8","ios":"levelo://app?vid=06538980-c887-4f73-a2df-b6985c28bed8"},"vehicle_type_id":"4","last_reported":1685786764,"current_range_meters":20000,"station_id":"ce4bhg12rcd13ifvqf70","pricing_plan_id":"free"},{"bike_id":"e251a1c9-76cc-4f85-841b-3605d9c37e4c","system_id":"levelo_inurba_marseille","lat":43.26554,"lon":5.37283,"is_reserved":false,"is_disabled":false,"rental_uris":{"android":"levelo://app?vid=e251a1c9-76cc-4f85-841b-3605d9c37e4c","ios":"levelo://app?vid=e251a1c9-76cc-4f85-841b-3605d9c37e4c"},"vehicle_type_id":"4","last_reported":1685786764,"current_range_meters":20800,"station_id":"ce4bhg12rcd13ifvqf70","pricing_plan_id":"free"},{"bike_id":"553d0b61-759f-4499-a190-b73376c2a1da","system_id":"levelo_inurba_marseille","lat":43.265714,"lon":5.372891,"is_reserved":false,"is_disabled":false,"rental_uris":{"android":"levelo://app?vid=553d0b61-759f-4499-a190-b73376c2a1da","ios":"levelo://app?vid=553d0b61-759f-4499-a190-b73376c2a1da"},"vehicle_type_id":"4","last_reported":1685786764,"current_range_meters":24400,"station_id":"ce4bhg12rcd13ifvqf70","pricing_plan_id":"free"},{"bike_id":"8fed6ad7-2b91-4890-b081-fafc7c17798f","system_id":"levelo_inurba_marseille","lat":43.26554,"lon":5.37285,"is_reserved":false,"is_disabled":false,"rental_uris":{"android":"levelo://app?vid=8fed6ad7-2b91-4890-b081-fafc7c17798f","ios":"levelo://app?vid=8fed6ad7-2b91-4890-b081-fafc7c17798f"},"vehicle_type_id":"4","last_reported":1685786764,"current_range_meters":28800,"station_id":"ce4bhg12rcd13ifvqf70","pricing_plan_id":"free"},{"bike_id":"b460ad98-9bcf-463b-92ce-00eab86ce897","system_id":"levelo_inurba_marseille","lat":43.26553,"lon":5.37282,"is_reserved":false,"is_disabled":false,"rental_uris":{"android":"levelo://app?vid=b460ad98-9bcf-463b-92ce-00eab86ce897","ios":"levelo://app?vid=b460ad98-9bcf-463b-92ce-00eab86ce897"},"vehicle_type_id":"4","last_reported":1685786764,"current_range_meters":27600,"station_id":"ce4bhg12rcd13ifvqf70","pricing_plan_id":"free"},{"bike_id":"0b907064-fe09-44d0-a93f-52f73f576b1e","system_id":"levelo_inurba_marseille","lat":43.26553,"lon":5.37283,"is_reserved":false,"is_disabled":false,"rental_uris":{"android":"levelo://app?vid=0b907064-fe09-44d0-a93f-52f73f576b1e","ios":"levelo://app?vid=0b907064-fe09-44d0-a93f-52f73f576b1e"},"vehicle_type_id":"4","last_reported":1685786764,"current_range_meters":24000,"station_id":"ce4bhg12rcd13ifvqf70","pricing_plan_id":"free"},{"bike_id":"97edaeaa-6e8b-42cb-96f1-395943b7f480","system_id":"levelo_inurba_marseille","lat":43.26552,"lon":5.37283,"is_reserved":false,"is_disabled":false,"rental_uris":{"android":"levelo://app?vid=97edaeaa-6e8b-42cb-96f1-395943b7f480","ios":"levelo://app?vid=97edaeaa-6e8b-42cb-96f1-395943b7f480"},"vehicle_type_id":"4","last_reported":1685786764,"current_range_meters":23200,"station_id":"ce4bhg12rcd13ifvqf70","pricing_plan_id":"free"},{"bike_id":"bbd8faac-3c0f-4ef8-8af2-d5fdc609fcae","system_id":"levelo_inurba_marseille","lat":43.26551,"lon":5.37281,"is_reserved":false,"is_disabled":false,"rental_uris":{"android":"levelo://app?vid=bbd8faac-3c0f-4ef8-8af2-d5fdc609fcae","ios":"levelo://app?vid=bbd8faac-3c0f-4ef8-8af2-d5fdc609fcae"},"vehicle_type_id":"4","last_reported":1685786764,"current_range_meters":14400,"station_id":"ce4bhg12rcd13ifvqf70","pricing_plan_id":"free"},{"bike_id":"c6cb5599-e718-4af4-8c4b-4d1deb710381","system_id":"levelo_inurba_marseille","lat":43.26551,"lon":5.37285,"is_reserved":false,"is_disabled":false,"rental_uris":{"android":"levelo://app?vid=c6cb5599-e718-4af4-8c4b-4d1deb710381","ios":"levelo://app?vid=c6cb5599-e718-4af4-8c4b-4d1deb710381"},"vehicle_type_id":"4","last_reported":1685786764,"current_range_meters":30800,"station_id":"ce4bhg12rcd13ifvqf70","pricing_plan_id":"free"},{"bike_id":"6defc16a-8cd5-4070-8090-a6035b5f3478","system_id":"levelo_inurba_marseille","lat":43.26546,"lon":5.37288,"is_reserved":false,"is_disabled":false,"rental_uris":{"android":"levelo://app?vid=6defc16a-8cd5-4070-8090-a6035b5f3478","ios":"levelo://app?vid=6defc16a-8cd5-4070-8090-a6035b5f3478"},"vehicle_type_id":"4","last_reported":1685786764,"current_range_meters":9600,"station_id":"","pricing_plan_id":"free"},{"bike_id":"477c9b24-a1bd-4af2-9e3a-7a10b9af13d1","system_id":"levelo_inurba_marseille","lat":43.31722,"lon":5.43301,"is_reserved":false,"is_disabled":false,"rental_uris":{"android":"levelo://app?vid=477c9b24-a1bd-4af2-9e3a-7a10b9af13d1","ios":"levelo://app?vid=477c9b24-a1bd-4af2-9e3a-7a10b9af13d1"},"vehicle_type_id":"4","last_reported":1685786764,"current_range_meters":0,"station_id":"","pricing_plan_id":"free"},{"bike_id":"df18bcba-8c12-452b-961a-aea12c9e49ad","system_id":"levelo_inurba_marseille","lat":43.30801,"lon":5.43523,"is_reserved":false,"is_disabled":false,"rental_uris":{"android":"levelo://app?vid=df18bcba-8c12-452b-961a-aea12c9e49ad","ios":"levelo://app?vid=df18bcba-8c12-452b-961a-aea12c9e49ad"},"vehicle_type_id":"4","last_reported":1685786764,"current_range_meters":24400,"station_id":"","pricing_plan_id":"free"},{"bike_id":"26e1ac57-a65a-48de-b4e4-bcfc0b364a7a","system_id":"levelo_inurba_marseille","lat":43.30796,"lon":5.43527,"is_reserved":false,"is_disabled":false,"rental_uris":{"android":"levelo://app?vid=26e1ac57-a65a-48de-b4e4-bcfc0b364a7a","ios":"levelo://app?vid=26e1ac57-a65a-48de-b4e4-bcfc0b364a7a"},"vehicle_type_id":"4","last_reported":1685786764,"current_range_meters":3600,"station_id":"","pricing_plan_id":"free"},{"bike_id":"2ae3bbcd-e131-4da1-a7f4-6bff7dc44e26","system_id":"levelo_inurba_marseille","lat":43.265571,"lon":5.390032,"is_reserved":false,"is_disabled":false,"rental_uris":{"android":"levelo://app?vid=2ae3bbcd-e131-4da1-a7f4-6bff7dc44e26","ios":"levelo://app?vid=2ae3bbcd-e131-4da1-a7f4-6bff7dc44e26"},"vehicle_type_id":"4","last_reported":1685786764,"current_range_meters":29600,"station_id":"ce4bhe12rcd13ifvqf30","pricing_plan_id":"free"},{"bike_id":"6cc0b091-d8c9-41f0-9dc2-57bf547df0f9","system_id":"levelo_inurba_marseille","lat":43.265569,"lon":5.390047,"is_reserved":false,"is_disabled":false,"rental_uris":{"android":"levelo://app?vid=6cc0b091-d8c9-41f0-9dc2-57bf547df0f9","ios":"levelo://app?vid=6cc0b091-d8c9-41f0-9dc2-57bf547df0f9"},"vehicle_type_id":"4","last_reported":1685786764,"current_range_meters":17200,"station_id":"ce4bhe12rcd13ifvqf30","pricing_plan_id":"free"},{"bike_id":"d102b72d-3d06-4b1a-b03c-a6d66f16e12f","system_id":"levelo_inurba_marseille","lat":43.265569,"lon":5.390047,"is_reserved":false,"is_disabled":false,"rental_uris":{"android":"levelo://app?vid=d102b72d-3d06-4b1a-b03c-a6d66f16e12f","ios":"levelo://app?vid=d102b72d-3d06-4b1a-b03c-a6d66f16e12f"},"vehicle_type_id":"4","last_reported":1685786764,"current_range_meters":24400,"station_id":"ce4bhe12rcd13ifvqf30","pricing_plan_id":"free"},{"bike_id":"43b831ae-cdd4-4857-ad99-b489a7656591","system_id":"levelo_inurba_marseille","lat":43.261782,"lon":5.374515,"is_reserved":false,"is_disabled":false,"rental_uris":{"android":"levelo://app?vid=43b831ae-cdd4-4857-ad99-b489a7656591","ios":"levelo://app?vid=43b831ae-cdd4-4857-ad99-b489a7656591"},"vehicle_type_id":"4","last_reported":1685786764,"current_range_meters":23200,"station_id":"ce4bhgp2rcd13ifvqfc0","pricing_plan_id":"free"},{"bike_id":"2af74695-3cf0-4e60-9eac-f6f72c49d5d6","system_id":"levelo_inurba_marseille","lat":43.261782,"lon":5.374515,"is_reserved":false,"is_disabled":false,"rental_uris":{"android":"levelo://app?vid=2af74695-3cf0-4e60-9eac-f6f72c49d5d6","ios":"levelo://app?vid=2af74695-3cf0-4e60-9eac-f6f72c49d5d6"},"vehicle_type_id":"4","last_reported":1685786764,"current_range_meters":31200,"station_id":"ce4bhgp2rcd13ifvqfc0","pricing_plan_id":"free"},{"bike_id":"eccae3b2-bdf7-4c97-b786-93ee7e43adeb","system_id":"levelo_inurba_marseille","lat":43.261782,"lon":5.374515,"is_reserved":false,"is_disabled":false,"rental_uris":{"android":"levelo://app?vid=eccae3b2-bdf7-4c97-b786-93ee7e43adeb","ios":"levelo://app?vid=eccae3b2-bdf7-4c97-b786-93ee7e43adeb"},"vehicle_type_id":"4","last_reported":1685786764,"current_range_meters":31600,"station_id":"ce4bhgp2rcd13ifvqfc0","pricing_plan_id":"free"},{"bike_id":"17975e74-45d5-4a43-9708-19e540c40f99","system_id":"levelo_inurba_marseille","lat":43.261782,"lon":5.374515,"is_reserved":false,"is_disabled":false,"rental_uris":{"android":"levelo://app?vid=17975e74-45d5-4a43-9708-19e540c40f99","ios":"levelo://app?vid=17975e74-45d5-4a43-9708-19e540c40f99"},"vehicle_type_id":"4","last_reported":1685786764,"current_range_meters":31600,"station_id":"ce4bhgp2rcd13ifvqfc0","pricing_plan_id":"free"},{"bike_id":"9d909046-8e53-4393-a34c-8c4bb1951a98","system_id":"levelo_inurba_marseille","lat":43.261782,"lon":5.374515,"is_reserved":false,"is_disabled":false,"rental_uris":{"android":"levelo://app?vid=9d909046-8e53-4393-a34c-8c4bb1951a98","ios":"levelo://app?vid=9d909046-8e53-4393-a34c-8c4bb1951a98"},"vehicle_type_id":"4","last_reported":1685786764,"current_range_meters":31600,"station_id":"ce4bhgp2rcd13ifvqfc0","pricing_plan_id":"free"},{"bike_id":"1390f3ce-5bc7-468f-9588-d941d2532ddc","system_id":"levelo_inurba_marseille","lat":43.261782,"lon":5.374515,"is_reserved":false,"is_disabled":false,"rental_uris":{"android":"levelo://app?vid=1390f3ce-5bc7-468f-9588-d941d2532ddc","ios":"levelo://app?vid=1390f3ce-5bc7-468f-9588-d941d2532ddc"},"vehicle_type_id":"4","last_reported":1685786764,"current_range_meters":31200,"station_id":"ce4bhgp2rcd13ifvqfc0","pricing_plan_id":"free"},{"bike_id":"8c9cfa76-722f-4da7-8af4-147acdf8a717","system_id":"levelo_inurba_marseille","lat":43.261782,"lon":5.374515,"is_reserved":false,"is_disabled":false,"rental_uris":{"android":"levelo://app?vid=8c9cfa76-722f-4da7-8af4-147acdf8a717","ios":"levelo://app?vid=8c9cfa76-722f-4da7-8af4-147acdf8a717"},"vehicle_type_id":"4","last_reported":1685786764,"current_range_meters":22800,"station_id":"ce4bhgp2rcd13ifvqfc0","pricing_plan_id":"free"},{"bike_id":"be8f078a-e9f5-4998-895f-ad854199c356","system_id":"levelo_inurba_marseille","lat":43.261782,"lon":5.374515,"is_reserved":false,"is_disabled":false,"rental_uris":{"android":"levelo://app?vid=be8f078a-e9f5-4998-895f-ad854199c356","ios":"levelo://app?vid=be8f078a-e9f5-4998-895f-ad854199c356"},"vehicle_type_id":"4","last_reported":1685786764,"current_range_meters":20800,"station_id":"ce4bhgp2rcd13ifvqfc0","pricing_plan_id":"free"},{"bike_id":"7c146720-0470-42ab-8b91-10c219c21a59","system_id":"levelo_inurba_marseille","lat":43.261782,"lon":5.374515,"is_reserved":false,"is_disabled":false,"rental_uris":{"android":"levelo://app?vid=7c146720-0470-42ab-8b91-10c219c21a59","ios":"levelo://app?vid=7c146720-0470-42ab-8b91-10c219c21a59"},"vehicle_type_id":"4","last_reported":1685786764,"current_range_meters":31600,"station_id":"ce4bhgp2rcd13ifvqfc0","pricing_plan_id":"free"},{"bike_id":"6e53fece-0322-4917-a4e1-7266b6bcfa03","system_id":"levelo_inurba_marseille","lat":43.261782,"lon":5.374515,"is_reserved":false,"is_disabled":false,"rental_uris":{"android":"levelo://app?vid=6e53fece-0322-4917-a4e1-7266b6bcfa03","ios":"levelo://app?vid=6e53fece-0322-4917-a4e1-7266b6bcfa03"},"vehicle_type_id":"4","last_reported":1685786764,"current_range_meters":29600,"station_id":"ce4bhgp2rcd13ifvqfc0","pricing_plan_id":"free"},{"bike_id":"8d00262b-f322-47de-b6aa-36ae0a8649f0","system_id":"levelo_inurba_marseille","lat":43.261782,"lon":5.374515,"is_reserved":false,"is_disabled":false,"rental_uris":{"android":"levelo://app?vid=8d00262b-f322-47de-b6aa-36ae0a8649f0","ios":"levelo://app?vid=8d00262b-f322-47de-b6aa-36ae0a8649f0"},"vehicle_type_id":"4","last_reported":1685786764,"current_range_meters":32000,"station_id":"ce4bhgp2rcd13ifvqfc0","pricing_plan_id":"free"},{"bike_id":"945a03ca-e4eb-4a59-93b7-2e44eff798dc","system_id":"levelo_inurba_marseille","lat":43.31708,"lon":5.43708,"is_reserved":false,"is_disabled":false,"rental_uris":{"android":"levelo://app?vid=945a03ca-e4eb-4a59-93b7-2e44eff798dc","ios":"levelo://app?vid=945a03ca-e4eb-4a59-93b7-2e44eff798dc"},"vehicle_type_id":"4","last_reported":1685786764,"current_range_meters":21600,"station_id":"ce4bhp92rcd13ifvqhcg","pricing_plan_id":"free"},{"bike_id":"a63916e6-8335-4b25-9de7-f48ab4c7e668","system_id":"levelo_inurba_marseille","lat":43.262012,"lon":5.379307,"is_reserved":false,"is_disabled":false,"rental_uris":{"android":"levelo://app?vid=a63916e6-8335-4b25-9de7-f48ab4c7e668","ios":"levelo://app?vid=a63916e6-8335-4b25-9de7-f48ab4c7e668"},"vehicle_type_id":"4","last_reported":1685786764,"current_range_meters":29600,"station_id":"ce4bhjp2rcd13ifvqg90","pricing_plan_id":"free"},{"bike_id":"dd7ed2a8-67f8-419d-aca2-9a84156eea61","system_id":"levelo_inurba_marseille","lat":43.262012,"lon":5.379307,"is_reserved":false,"is_disabled":false,"rental_uris":{"android":"levelo://app?vid=dd7ed2a8-67f8-419d-aca2-9a84156eea61","ios":"levelo://app?vid=dd7ed2a8-67f8-419d-aca2-9a84156eea61"},"vehicle_type_id":"4","last_reported":1685786764,"current_range_meters":15600,"station_id":"ce4bhjp2rcd13ifvqg90","pricing_plan_id":"free"},{"bike_id":"b5727203-5352-4e9b-a189-6e709b764b99","system_id":"levelo_inurba_marseille","lat":43.262012,"lon":5.379307,"is_reserved":false,"is_disabled":false,"rental_uris":{"android":"levelo://app?vid=b5727203-5352-4e9b-a189-6e709b764b99","ios":"levelo://app?vid=b5727203-5352-4e9b-a189-6e709b764b99"},"vehicle_type_id":"4","last_reported":1685786764,"current_range_meters":31200,"station_id":"ce4bhjp2rcd13ifvqg90","pricing_plan_id":"free"},{"bike_id":"9be81cd2-b292-44aa-b5c9-712e6b97a755","system_id":"levelo_inurba_marseille","lat":43.267959,"lon":5.402687,"is_reserved":false,"is_disabled":false,"rental_uris":{"android":"levelo://app?vid=9be81cd2-b292-44aa-b5c9-712e6b97a755","ios":"levelo://app?vid=9be81cd2-b292-44aa-b5c9-712e6b97a755"},"vehicle_type_id":"4","last_reported":1685786764,"current_range_meters":17600,"station_id":"ce501612rcd8frsf0b60","pricing_plan_id":"free"},{"bike_id":"0eec2cab-1003-4b17-9d8e-c496bab99fac","system_id":"levelo_inurba_marseille","lat":43.2621,"lon":5.39515,"is_reserved":false,"is_disabled":false,"rental_uris":{"android":"levelo://app?vid=0eec2cab-1003-4b17-9d8e-c496bab99fac","ios":"levelo://app?vid=0eec2cab-1003-4b17-9d8e-c496bab99fac"},"vehicle_type_id":"4","last_reported":1685786764,"current_range_meters":14000,"station_id":"ce4bhh92rcd13ifvqfj0","pricing_plan_id":"free"},{"bike_id":"b7dfbe55-9256-43cb-9671-9796b989511b","system_id":"levelo_inurba_marseille","lat":43.2607,"lon":5.393983,"is_reserved":false,"is_disabled":false,"rental_uris":{"android":"levelo://app?vid=b7dfbe55-9256-43cb-9671-9796b989511b","ios":"levelo://app?vid=b7dfbe55-9256-43cb-9671-9796b989511b"},"vehicle_type_id":"4","last_reported":1685786764,"current_range_meters":28000,"station_id":"ce4bhh92rcd13ifvqfj0","pricing_plan_id":"free"},{"bike_id":"92af5380-9b1a-4ce2-a3a1-dad37df332b1","system_id":"levelo_inurba_marseille","lat":43.260909,"lon":5.397591,"is_reserved":false,"is_disabled":false,"rental_uris":{"android":"levelo://app?vid=92af5380-9b1a-4ce2-a3a1-dad37df332b1","ios":"levelo://app?vid=92af5380-9b1a-4ce2-a3a1-dad37df332b1"},"vehicle_type_id":"4","last_reported":1685786764,"current_range_meters":22000,"station_id":"ce4bhi12rcd13ifvqfq0","pricing_plan_id":"free"},{"bike_id":"7d0db5e0-f19e-449e-a76b-99f25c68c38b","system_id":"levelo_inurba_marseille","lat":43.26076,"lon":5.39765,"is_reserved":false,"is_disabled":false,"rental_uris":{"android":"levelo://app?vid=7d0db5e0-f19e-449e-a76b-99f25c68c38b","ios":"levelo://app?vid=7d0db5e0-f19e-449e-a76b-99f25c68c38b"},"vehicle_type_id":"4","last_reported":1685786764,"current_range_meters":23200,"station_id":"ce4bhi12rcd13ifvqfq0","pricing_plan_id":"free"},{"bike_id":"b12572c1-e331-4311-afcb-73639f458736","system_id":"levelo_inurba_marseille","lat":43.25505,"lon":5.37653,"is_reserved":false,"is_disabled":false,"rental_uris":{"android":"levelo://app?vid=b12572c1-e331-4311-afcb-73639f458736","ios":"levelo://app?vid=b12572c1-e331-4311-afcb-73639f458736"},"vehicle_type_id":"4","last_reported":1685786764,"current_range_meters":16000,"station_id":"ce4bhh12rcd13ifvqff0","pricing_plan_id":"free"},{"bike_id":"1e036898-c9f1-4845-a355-0f25e5154a04","system_id":"levelo_inurba_marseille","lat":43.254947,"lon":5.376454,"is_reserved":false,"is_disabled":false,"rental_uris":{"android":"levelo://app?vid=1e036898-c9f1-4845-a355-0f25e5154a04","ios":"levelo://app?vid=1e036898-c9f1-4845-a355-0f25e5154a04"},"vehicle_type_id":"4","last_reported":1685786764,"current_range_meters":28400,"station_id":"ce4bhh12rcd13ifvqff0","pricing_plan_id":"free"},{"bike_id":"ccb659ca-d258-46c7-a80c-e030d7d10f16","system_id":"levelo_inurba_marseille","lat":43.254947,"lon":5.376454,"is_reserved":false,"is_disabled":false,"rental_uris":{"android":"levelo://app?vid=ccb659ca-d258-46c7-a80c-e030d7d10f16","ios":"levelo://app?vid=ccb659ca-d258-46c7-a80c-e030d7d10f16"},"vehicle_type_id":"4","last_reported":1685786764,"current_range_meters":25600,"station_id":"ce4bhh12rcd13ifvqff0","pricing_plan_id":"free"},{"bike_id":"15b6f091-bfe1-4b83-8f33-f69817179ca0","system_id":"levelo_inurba_marseille","lat":43.254947,"lon":5.376454,"is_reserved":false,"is_disabled":false,"rental_uris":{"android":"levelo://app?vid=15b6f091-bfe1-4b83-8f33-f69817179ca0","ios":"levelo://app?vid=15b6f091-bfe1-4b83-8f33-f69817179ca0"},"vehicle_type_id":"4","last_reported":1685786764,"current_range_meters":24000,"station_id":"ce4bhh12rcd13ifvqff0","pricing_plan_id":"free"},{"bike_id":"dad2bcfc-eb50-4588-a1dd-ae9990604018","system_id":"levelo_inurba_marseille","lat":43.25498,"lon":5.37641,"is_reserved":false,"is_disabled":false,"rental_uris":{"android":"levelo://app?vid=dad2bcfc-eb50-4588-a1dd-ae9990604018","ios":"levelo://app?vid=dad2bcfc-eb50-4588-a1dd-ae9990604018"},"vehicle_type_id":"4","last_reported":1685786764,"current_range_meters":31200,"station_id":"ce4bhh12rcd13ifvqff0","pricing_plan_id":"free"},{"bike_id":"aceaab0b-3f02-4b8e-bf5a-50a73974bac9","system_id":"levelo_inurba_marseille","lat":43.25498,"lon":5.3765,"is_reserved":false,"is_disabled":false,"rental_uris":{"android":"levelo://app?vid=aceaab0b-3f02-4b8e-bf5a-50a73974bac9","ios":"levelo://app?vid=aceaab0b-3f02-4b8e-bf5a-50a73974bac9"},"vehicle_type_id":"4","last_reported":1685786764,"current_range_meters":31200,"station_id":"ce4bhh12rcd13ifvqff0","pricing_plan_id":"free"},{"bike_id":"b30a7229-64e4-470f-b389-d55e13a267dd","system_id":"levelo_inurba_marseille","lat":43.25497,"lon":5.37649,"is_reserved":false,"is_disabled":false,"rental_uris":{"android":"levelo://app?vid=b30a7229-64e4-470f-b389-d55e13a267dd","ios":"levelo://app?vid=b30a7229-64e4-470f-b389-d55e13a267dd"},"vehicle_type_id":"4","last_reported":1685786764,"current_range_meters":31200,"station_id":"ce4bhh12rcd13ifvqff0","pricing_plan_id":"free"},{"bike_id":"b4620f87-16f3-438d-85d7-2232498b527b","system_id":"levelo_inurba_marseille","lat":43.254945,"lon":5.376454,"is_reserved":false,"is_disabled":false,"rental_uris":{"android":"levelo://app?vid=b4620f87-16f3-438d-85d7-2232498b527b","ios":"levelo://app?vid=b4620f87-16f3-438d-85d7-2232498b527b"},"vehicle_type_id":"4","last_reported":1685786764,"current_range_meters":2000,"station_id":"ce4bhh12rcd13ifvqff0","pricing_plan_id":"free"},{"bike_id":"5d413320-2d93-47df-9016-dd82954c80b5","system_id":"levelo_inurba_marseille","lat":43.25494,"lon":5.37649,"is_reserved":false,"is_disabled":false,"rental_uris":{"android":"levelo://app?vid=5d413320-2d93-47df-9016-dd82954c80b5","ios":"levelo://app?vid=5d413320-2d93-47df-9016-dd82954c80b5"},"vehicle_type_id":"4","last_reported":1685786764,"current_range_meters":28800,"station_id":"ce4bhh12rcd13ifvqff0","pricing_plan_id":"free"},{"bike_id":"f397ccce-b9ca-4ff1-a62c-b86c74ac9e11","system_id":"levelo_inurba_marseille","lat":43.25492,"lon":5.37649,"is_reserved":false,"is_disabled":false,"rental_uris":{"android":"levelo://app?vid=f397ccce-b9ca-4ff1-a62c-b86c74ac9e11","ios":"levelo://app?vid=f397ccce-b9ca-4ff1-a62c-b86c74ac9e11"},"vehicle_type_id":"4","last_reported":1685786764,"current_range_meters":31200,"station_id":"ce4bhh12rcd13ifvqff0","pricing_plan_id":"free"},{"bike_id":"3d37b66c-e401-403a-96fa-6fec70ad7f01","system_id":"levelo_inurba_marseille","lat":43.2549,"lon":5.37646,"is_reserved":false,"is_disabled":false,"rental_uris":{"android":"levelo://app?vid=3d37b66c-e401-403a-96fa-6fec70ad7f01","ios":"levelo://app?vid=3d37b66c-e401-403a-96fa-6fec70ad7f01"},"vehicle_type_id":"4","last_reported":1685786764,"current_range_meters":23600,"station_id":"ce4bhh12rcd13ifvqff0","pricing_plan_id":"free"},{"bike_id":"368638da-a214-4699-b6b7-d172fe95e9cd","system_id":"levelo_inurba_marseille","lat":43.270721,"lon":5.422764,"is_reserved":false,"is_disabled":false,"rental_uris":{"android":"levelo://app?vid=368638da-a214-4699-b6b7-d172fe95e9cd","ios":"levelo://app?vid=368638da-a214-4699-b6b7-d172fe95e9cd"},"vehicle_type_id":"4","last_reported":1685786764,"current_range_meters":31200,"station_id":"ce4bhk92rcd13ifvqgb0","pricing_plan_id":"free"},{"bike_id":"3c11a2e3-394a-4b6e-a639-1f10f54de409","system_id":"levelo_inurba_marseille","lat":43.27066,"lon":5.42277,"is_reserved":false,"is_disabled":false,"rental_uris":{"android":"levelo://app?vid=3c11a2e3-394a-4b6e-a639-1f10f54de409","ios":"levelo://app?vid=3c11a2e3-394a-4b6e-a639-1f10f54de409"},"vehicle_type_id":"4","last_reported":1685786764,"current_range_meters":29200,"station_id":"ce4bhk92rcd13ifvqgb0","pricing_plan_id":"free"},{"bike_id":"0a3adffc-5c28-4831-9fb5-b37fc9aefbf3","system_id":"levelo_inurba_marseille","lat":43.270721,"lon":5.422764,"is_reserved":false,"is_disabled":false,"rental_uris":{"android":"levelo://app?vid=0a3adffc-5c28-4831-9fb5-b37fc9aefbf3","ios":"levelo://app?vid=0a3adffc-5c28-4831-9fb5-b37fc9aefbf3"},"vehicle_type_id":"4","last_reported":1685786764,"current_range_meters":31200,"station_id":"ce4bhk92rcd13ifvqgb0","pricing_plan_id":"free"},{"bike_id":"b9b1d520-e329-4345-80cb-f4d0e0f46ed9","system_id":"levelo_inurba_marseille","lat":43.258658,"lon":5.398935,"is_reserved":false,"is_disabled":false,"rental_uris":{"android":"levelo://app?vid=b9b1d520-e329-4345-80cb-f4d0e0f46ed9","ios":"levelo://app?vid=b9b1d520-e329-4345-80cb-f4d0e0f46ed9"},"vehicle_type_id":"4","last_reported":1685786764,"current_range_meters":2400,"station_id":"ce4bhl92rcd13ifvqghg","pricing_plan_id":"free"},{"bike_id":"747e20c2-e111-474c-af82-d11dcc9fbff1","system_id":"levelo_inurba_marseille","lat":43.258658,"lon":5.398935,"is_reserved":false,"is_disabled":false,"rental_uris":{"android":"levelo://app?vid=747e20c2-e111-474c-af82-d11dcc9fbff1","ios":"levelo://app?vid=747e20c2-e111-474c-af82-d11dcc9fbff1"},"vehicle_type_id":"4","last_reported":1685786764,"current_range_meters":27600,"station_id":"ce4bhl92rcd13ifvqghg","pricing_plan_id":"free"},{"bike_id":"94d8afbc-a7ef-4e9f-9e77-133f65afe658","system_id":"levelo_inurba_marseille","lat":43.25709,"lon":5.41068,"is_reserved":false,"is_disabled":false,"rental_uris":{"android":"levelo://app?vid=94d8afbc-a7ef-4e9f-9e77-133f65afe658","ios":"levelo://app?vid=94d8afbc-a7ef-4e9f-9e77-133f65afe658"},"vehicle_type_id":"4","last_reported":1685786764,"current_range_meters":0,"station_id":"","pricing_plan_id":"free"},{"bike_id":"7583f5c2-7009-46f5-911e-6898d45a3817","system_id":"levelo_inurba_marseille","lat":43.250009,"lon":5.389195,"is_reserved":false,"is_disabled":false,"rental_uris":{"android":"levelo://app?vid=7583f5c2-7009-46f5-911e-6898d45a3817","ios":"levelo://app?vid=7583f5c2-7009-46f5-911e-6898d45a3817"},"vehicle_type_id":"4","last_reported":1685786764,"current_range_meters":14000,"station_id":"ce4bhgp2rcd13ifvqfd0","pricing_plan_id":"free"},{"bike_id":"1c4648e0-3752-4f21-8235-4ff377d719cc","system_id":"levelo_inurba_marseille","lat":43.24811,"lon":5.37452,"is_reserved":false,"is_disabled":false,"rental_uris":{"android":"levelo://app?vid=1c4648e0-3752-4f21-8235-4ff377d719cc","ios":"levelo://app?vid=1c4648e0-3752-4f21-8235-4ff377d719cc"},"vehicle_type_id":"4","last_reported":1685786764,"current_range_meters":18800,"station_id":"ce4bhgh2rcd13ifvqfb0","pricing_plan_id":"free"},{"bike_id":"a7eb5d95-9ece-4df9-b697-b471cb8c951d","system_id":"levelo_inurba_marseille","lat":43.24811,"lon":5.37462,"is_reserved":false,"is_disabled":false,"rental_uris":{"android":"levelo://app?vid=a7eb5d95-9ece-4df9-b697-b471cb8c951d","ios":"levelo://app?vid=a7eb5d95-9ece-4df9-b697-b471cb8c951d"},"vehicle_type_id":"4","last_reported":1685786764,"current_range_meters":26000,"station_id":"ce4bhgh2rcd13ifvqfb0","pricing_plan_id":"free"},{"bike_id":"e7d26445-7395-458b-ae8a-8015ed909bd8","system_id":"levelo_inurba_marseille","lat":43.2479,"lon":5.374457,"is_reserved":false,"is_disabled":false,"rental_uris":{"android":"levelo://app?vid=e7d26445-7395-458b-ae8a-8015ed909bd8","ios":"levelo://app?vid=e7d26445-7395-458b-ae8a-8015ed909bd8"},"vehicle_type_id":"4","last_reported":1685786764,"current_range_meters":12400,"station_id":"ce4bhgh2rcd13ifvqfb0","pricing_plan_id":"free"},{"bike_id":"34cf4440-1b9f-433d-9734-09f665e2e4c2","system_id":"levelo_inurba_marseille","lat":43.2479,"lon":5.374457,"is_reserved":false,"is_disabled":false,"rental_uris":{"android":"levelo://app?vid=34cf4440-1b9f-433d-9734-09f665e2e4c2","ios":"levelo://app?vid=34cf4440-1b9f-433d-9734-09f665e2e4c2"},"vehicle_type_id":"4","last_reported":1685786764,"current_range_meters":30400,"station_id":"ce4bhgh2rcd13ifvqfb0","pricing_plan_id":"free"},{"bike_id":"5f5bb7c1-3908-4ade-8ed3-98fae7003389","system_id":"levelo_inurba_marseille","lat":43.2479,"lon":5.374457,"is_reserved":false,"is_disabled":false,"rental_uris":{"android":"levelo://app?vid=5f5bb7c1-3908-4ade-8ed3-98fae7003389","ios":"levelo://app?vid=5f5bb7c1-3908-4ade-8ed3-98fae7003389"},"vehicle_type_id":"4","last_reported":1685786764,"current_range_meters":17600,"station_id":"ce4bhgh2rcd13ifvqfb0","pricing_plan_id":"free"},{"bike_id":"ce1e7ae1-ddf7-45b5-ab7d-b1ee4b6d903e","system_id":"levelo_inurba_marseille","lat":43.24803,"lon":5.3745,"is_reserved":false,"is_disabled":false,"rental_uris":{"android":"levelo://app?vid=ce1e7ae1-ddf7-45b5-ab7d-b1ee4b6d903e","ios":"levelo://app?vid=ce1e7ae1-ddf7-45b5-ab7d-b1ee4b6d903e"},"vehicle_type_id":"4","last_reported":1685786764,"current_range_meters":26400,"station_id":"ce4bhgh2rcd13ifvqfb0","pricing_plan_id":"free"},{"bike_id":"13e62143-d10e-4c13-9b2b-0c85e88da1a3","system_id":"levelo_inurba_marseille","lat":43.24801,"lon":5.37447,"is_reserved":false,"is_disabled":false,"rental_uris":{"android":"levelo://app?vid=13e62143-d10e-4c13-9b2b-0c85e88da1a3","ios":"levelo://app?vid=13e62143-d10e-4c13-9b2b-0c85e88da1a3"},"vehicle_type_id":"4","last_reported":1685786764,"current_range_meters":31200,"station_id":"ce4bhgh2rcd13ifvqfb0","pricing_plan_id":"free"},{"bike_id":"4a227253-37fe-4db1-89d4-5c1a89148410","system_id":"levelo_inurba_marseille","lat":43.2479,"lon":5.374457,"is_reserved":false,"is_disabled":false,"rental_uris":{"android":"levelo://app?vid=4a227253-37fe-4db1-89d4-5c1a89148410","ios":"levelo://app?vid=4a227253-37fe-4db1-89d4-5c1a89148410"},"vehicle_type_id":"4","last_reported":1685786764,"current_range_meters":26000,"station_id":"ce4bhgh2rcd13ifvqfb0","pricing_plan_id":"free"},{"bike_id":"e8623c74-1255-4680-98f9-da6484c494b6","system_id":"levelo_inurba_marseille","lat":43.2479,"lon":5.374457,"is_reserved":false,"is_disabled":false,"rental_uris":{"android":"levelo://app?vid=e8623c74-1255-4680-98f9-da6484c494b6","ios":"levelo://app?vid=e8623c74-1255-4680-98f9-da6484c494b6"},"vehicle_type_id":"4","last_reported":1685786764,"current_range_meters":26800,"station_id":"ce4bhgh2rcd13ifvqfb0","pricing_plan_id":"free"},{"bike_id":"62191012-a7e2-422a-9b6b-2c7b7e43e3f5","system_id":"levelo_inurba_marseille","lat":43.250966,"lon":5.395186,"is_reserved":false,"is_disabled":false,"rental_uris":{"android":"levelo://app?vid=62191012-a7e2-422a-9b6b-2c7b7e43e3f5","ios":"levelo://app?vid=62191012-a7e2-422a-9b6b-2c7b7e43e3f5"},"vehicle_type_id":"4","last_reported":1685786764,"current_range_meters":1600,"station_id":"ce4bhm12rcd13ifvqgkg","pricing_plan_id":"free"},{"bike_id":"d59cbc84-c3db-41fe-9be0-5d95a0882aed","system_id":"levelo_inurba_marseille","lat":43.250966,"lon":5.395186,"is_reserved":false,"is_disabled":false,"rental_uris":{"android":"levelo://app?vid=d59cbc84-c3db-41fe-9be0-5d95a0882aed","ios":"levelo://app?vid=d59cbc84-c3db-41fe-9be0-5d95a0882aed"},"vehicle_type_id":"4","last_reported":1685786764,"current_range_meters":28400,"station_id":"ce4bhm12rcd13ifvqgkg","pricing_plan_id":"free"},{"bike_id":"c46e2829-6c08-44b2-b37a-91a3e857b7e8","system_id":"levelo_inurba_marseille","lat":43.24693,"lon":5.382096,"is_reserved":false,"is_disabled":false,"rental_uris":{"android":"levelo://app?vid=c46e2829-6c08-44b2-b37a-91a3e857b7e8","ios":"levelo://app?vid=c46e2829-6c08-44b2-b37a-91a3e857b7e8"},"vehicle_type_id":"4","last_reported":1685786764,"current_range_meters":27200,"station_id":"ce4bhih2rcd13ifvqfr0","pricing_plan_id":"free"},{"bike_id":"a68c88e7-c0a1-4958-a0d3-c809ce7f98d7","system_id":"levelo_inurba_marseille","lat":43.24693,"lon":5.382096,"is_reserved":false,"is_disabled":false,"rental_uris":{"android":"levelo://app?vid=a68c88e7-c0a1-4958-a0d3-c809ce7f98d7","ios":"levelo://app?vid=a68c88e7-c0a1-4958-a0d3-c809ce7f98d7"},"vehicle_type_id":"4","last_reported":1685786764,"current_range_meters":21600,"station_id":"ce4bhih2rcd13ifvqfr0","pricing_plan_id":"free"},{"bike_id":"7c41042d-6e8f-4be7-a36d-8637caa37d91","system_id":"levelo_inurba_marseille","lat":43.25102,"lon":5.403214,"is_reserved":false,"is_disabled":false,"rental_uris":{"android":"levelo://app?vid=7c41042d-6e8f-4be7-a36d-8637caa37d91","ios":"levelo://app?vid=7c41042d-6e8f-4be7-a36d-8637caa37d91"},"vehicle_type_id":"4","last_reported":1685786764,"current_range_meters":30800,"station_id":"ce4bhlh2rcd13ifvqgig","pricing_plan_id":"free"},{"bike_id":"b0257db9-e2a1-4bd1-916a-41989d2f8f8e","system_id":"levelo_inurba_marseille","lat":43.25102,"lon":5.403214,"is_reserved":false,"is_disabled":false,"rental_uris":{"android":"levelo://app?vid=b0257db9-e2a1-4bd1-916a-41989d2f8f8e","ios":"levelo://app?vid=b0257db9-e2a1-4bd1-916a-41989d2f8f8e"},"vehicle_type_id":"4","last_reported":1685786764,"current_range_meters":31200,"station_id":"ce4bhlh2rcd13ifvqgig","pricing_plan_id":"free"},{"bike_id":"121d223b-86c3-419b-a060-e3f7a7afd231","system_id":"levelo_inurba_marseille","lat":43.25102,"lon":5.403214,"is_reserved":false,"is_disabled":false,"rental_uris":{"android":"levelo://app?vid=121d223b-86c3-419b-a060-e3f7a7afd231","ios":"levelo://app?vid=121d223b-86c3-419b-a060-e3f7a7afd231"},"vehicle_type_id":"4","last_reported":1685786764,"current_range_meters":31600,"station_id":"ce4bhlh2rcd13ifvqgig","pricing_plan_id":"free"},{"bike_id":"823644bd-552d-4cbb-9d5a-79311c26798a","system_id":"levelo_inurba_marseille","lat":43.25102,"lon":5.403214,"is_reserved":false,"is_disabled":false,"rental_uris":{"android":"levelo://app?vid=823644bd-552d-4cbb-9d5a-79311c26798a","ios":"levelo://app?vid=823644bd-552d-4cbb-9d5a-79311c26798a"},"vehicle_type_id":"4","last_reported":1685786764,"current_range_meters":31200,"station_id":"ce4bhlh2rcd13ifvqgig","pricing_plan_id":"free"},{"bike_id":"53702d69-b6d7-4a9e-a7d2-0f9bef37703b","system_id":"levelo_inurba_marseille","lat":43.25102,"lon":5.403214,"is_reserved":false,"is_disabled":false,"rental_uris":{"android":"levelo://app?vid=53702d69-b6d7-4a9e-a7d2-0f9bef37703b","ios":"levelo://app?vid=53702d69-b6d7-4a9e-a7d2-0f9bef37703b"},"vehicle_type_id":"4","last_reported":1685786764,"current_range_meters":31600,"station_id":"ce4bhlh2rcd13ifvqgig","pricing_plan_id":"free"},{"bike_id":"4558dc74-eae7-4d47-98ba-89443cf974a8","system_id":"levelo_inurba_marseille","lat":43.25107,"lon":5.40322,"is_reserved":false,"is_disabled":false,"rental_uris":{"android":"levelo://app?vid=4558dc74-eae7-4d47-98ba-89443cf974a8","ios":"levelo://app?vid=4558dc74-eae7-4d47-98ba-89443cf974a8"},"vehicle_type_id":"4","last_reported":1685786764,"current_range_meters":18400,"station_id":"ce4bhlh2rcd13ifvqgig","pricing_plan_id":"free"},{"bike_id":"2473d57f-e5f6-4ec5-b542-c6007238fa9b","system_id":"levelo_inurba_marseille","lat":43.25108,"lon":5.40326,"is_reserved":false,"is_disabled":false,"rental_uris":{"android":"levelo://app?vid=2473d57f-e5f6-4ec5-b542-c6007238fa9b","ios":"levelo://app?vid=2473d57f-e5f6-4ec5-b542-c6007238fa9b"},"vehicle_type_id":"4","last_reported":1685786764,"current_range_meters":20800,"station_id":"ce4bhlh2rcd13ifvqgig","pricing_plan_id":"free"},{"bike_id":"73d75e8b-d157-43f3-9881-203fbe5249b1","system_id":"levelo_inurba_marseille","lat":43.25102,"lon":5.403214,"is_reserved":false,"is_disabled":false,"rental_uris":{"android":"levelo://app?vid=73d75e8b-d157-43f3-9881-203fbe5249b1","ios":"levelo://app?vid=73d75e8b-d157-43f3-9881-203fbe5249b1"},"vehicle_type_id":"4","last_reported":1685786764,"current_range_meters":30400,"station_id":"ce4bhlh2rcd13ifvqgig","pricing_plan_id":"free"},