{"last_updated":1678536730,"ttl":30,"version":"2.2","data":{"bikes":[{"bike_id":"209d1147-70eb-4e09-8ddf-7e5fca6f4a12","system_id":"levelo_inurba_marseille","lat":43.31229,"lon":5.36845,"is_reserved":false,"is_disabled":false,"rental_uris":{"android":"levelo://app?vid=209d1147-70eb-4e09-8ddf-7e5fca6f4a12","ios":"levelo://app?vid=209d1147-70eb-4e09-8ddf-7e5fca6f4a12"},"vehicle_type_id":"4","last_reported":1678536730,"current_range_meters":31600,"station_id":"","pricing_plan_id":"free"},{"bike_id":"b9037db7-4669-4b80-b6fd-3f43f4f6216f","system_id":"levelo_inurba_marseille","lat":43.312239,"lon":5.368562,"is_reserved":false,"is_disabled":false,"rental_uris":{"android":"levelo://app?vid=b9037db7-4669-4b80-b6fd-3f43f4f6216f","ios":"levelo://app?vid=b9037db7-4669-4b80-b6fd-3f43f4f6216f"},"vehicle_type_id":"4","last_reported":1678536730,"current_range_meters":14000,"station_id":"ce4bgl92rcd13ifvqbq0","pricing_plan_id":"free"},{"bike_id":"a1edfe23-1322-495c-b5d1-047836a449c7","system_id":"levelo_inurba_marseille","lat":43.312239,"lon":5.368562,"is_reserved":false,"is_disabled":false,"rental_uris":{"android":"levelo://app?vid=a1edfe23-1322-495c-b5d1-047836a449c7","ios":"levelo://app?vid=a1edfe23-1322-495c-b5d1-047836a449c7"},"vehicle_type_id":"4","last_reported":1678536730,"current_range_meters":28000,"station_id":"ce4bgl92rcd13ifvqbq0","pricing_plan_id":"free"},{"bike_id":"1c64c75a-c4f6-4ab6-ab46-31e613f15330","system_id":"levelo_inurba_marseille","lat":43.312239,"lon":5.368562,"is_reserved":false,"is_disabled":false,"rental_uris":{"android":"levelo://app?vid=1c64c75a-c4f6-4ab6-ab46-31e613f15330","ios":"levelo://app?vid=1c64c75a-c4f6-4ab6-ab46-31e613f15330"},"vehicle_type_id":"4","last_reported":1678536730,"current_range_meters":30000,"station_id":"ce4bgl92rcd13ifvqbq0","pricing_plan_id":"free"},{"bike_id":"4d760aac-b07f-4372-839a-a6f204117045","system_id":"levelo_inurba_marseille","lat":43.312239,"lon":5.368562,"is_reserved":false,"is_disabled":false,"rental_uris":{"android":"levelo://app?vid=4d760aac-b07f-4372-839a-a6f204117045","ios":"levelo://app?vid=4d760aac-b07f-4372-839a-a6f204117045"},"vehicle_type_id":"4","last_reported":1678536730,"current_range_meters":14800,"station_id":"ce4bgl92rcd13ifvqbq0","pricing_plan_id":"free"},{"bike_id":"33a95cb8-d0f4-4b7e-8a85-244ef3922e82","system_id":"levelo_inurba_marseille","lat":43.312239,"lon":5.368562,"is_reserved":false,"is_disabled":false,"rental_uris":{"android":"levelo://app?vid=33a95cb8-d0f4-4b7e-8a85-244ef3922e82","ios":"levelo://app?vid=33a95cb8-d0f4-4b7e-8a85-244ef3922e82"},"vehicle_type_id":"4","last_reported":1678536730,"current_range_meters":28000,"station_id":"ce4bgl92rcd13ifvqbq0","pricing_plan_id":"free"},{"bike_id":"a7063c16-51f7-4161-b407-629a8a4113e0","system_id":"levelo_inurba_marseille","lat":43.31227,"lon":5.3686,"is_reserved":false,"is_disabled":false,"rental_uris":{"android":"levelo://app?vid=a7063c16-51f7-4161-b407-629a8a4113e0","ios":"levelo://app?vid=a7063c16-51f7-4161-b407-629a8a4113e0"},"vehicle_type_id":"4","last_reported":1678536730,"current_range_meters":26000,"station_id":"ce4bgl92rcd13ifvqbq0","pricing_plan_id":"free"},{"bike_id":"e61de7a9-8007-4615-ada8-20e1ff4b00a3","system_id":"levelo_inurba_marseille","lat":43.312239,"lon":5.368562,"is_reserved":false,"is_disabled":false,"rental_uris":{"android":"levelo://app?vid=e61de7a9-8007-4615-ada8-20e1ff4b00a3","ios":"levelo://app?vid=e61de7a9-8007-4615-ada8-20e1ff4b00a3"},"vehicle_type_id":"4","last_reported":1678536730,"current_range_meters":30000,"station_id":"ce4bgl92rcd13ifvqbq0","pricing_plan_id":"free"},{"bike_id":"431febbd-1ece-4cae-9b2a-b6dc62ce0570","system_id":"levelo_inurba_marseille","lat":43.312239,"lon":5.368562,"is_reserved":false,"is_disabled":false,"rental_uris":{"android":"levelo://app?vid=431febbd-1ece-4cae-9b2a-b6dc62ce0570","ios":"levelo://app?vid=431febbd-1ece-4cae-9b2a-b6dc62ce0570"},"vehicle_type_id":"4","last_reported":1678536730,"current_range_meters":24400,"station_id":"ce4bgl92rcd13ifvqbq0","pricing_plan_id":"free"},{"bike_id":"be729c10-56b2-4d0c-96a0-4f78b2a4dc7b","system_id":"levelo_inurba_marseille","lat":43.30907,"lon":5.36852,"is_reserved":false,"is_disabled":false,"rental_uris":{"android":"levelo://app?vid=be729c10-56b2-4d0c-96a0-4f78b2a4dc7b","ios":"levelo://app?vid=be729c10-56b2-4d0c-96a0-4f78b2a4dc7b"},"vehicle_type_id":"4","last_reported":1678536730,"current_range_meters":6000,"station_id":"ce4bgn92rcd13ifvqbvg","pricing_plan_id":"free"},{"bike_id":"79e696dd-6abb-46d0-a9fb-be12eef7e9a7","system_id":"levelo_inurba_marseille","lat":43.30901,"lon":5.36859,"is_reserved":false,"is_disabled":false,"rental_uris":{"android":"levelo://app?vid=79e696dd-6abb-46d0-a9fb-be12eef7e9a7","ios":"levelo://app?vid=79e696dd-6abb-46d0-a9fb-be12eef7e9a7"},"vehicle_type_id":"4","last_reported":1678536730,"current_range_meters":8800,"station_id":"ce4bgn92rcd13ifvqbvg","pricing_plan_id":"free"},{"bike_id":"6a895a88-8511-4903-a028-4c15aa84fdf1","system_id":"levelo_inurba_marseille","lat":43.309,"lon":5.36859,"is_reserved":false,"is_disabled":false,"rental_uris":{"android":"levelo://app?vid=6a895a88-8511-4903-a028-4c15aa84fdf1","ios":"levelo://app?vid=6a895a88-8511-4903-a028-4c15aa84fdf1"},"vehicle_type_id":"4","last_reported":1678536730,"current_range_meters":28800,"station_id":"ce4bgn92rcd13ifvqbvg","pricing_plan_id":"free"},{"bike_id":"8d64a163-43e7-40f0-b4d1-e5f2be11c199","system_id":"levelo_inurba_marseille","lat":43.314811,"lon":5.373103,"is_reserved":false,"is_disabled":false,"rental_uris":{"android":"levelo://app?vid=8d64a163-43e7-40f0-b4d1-e5f2be11c199","ios":"levelo://app?vid=8d64a163-43e7-40f0-b4d1-e5f2be11c199"},"vehicle_type_id":"4","last_reported":1678536730,"current_range_meters":0,"station_id":"ce4bgt12rcd13ifvqcd0","pricing_plan_id":"free"},{"bike_id":"f8edda47-84ea-4677-97c7-2e2456aed61d","system_id":"levelo_inurba_marseille","lat":43.314811,"lon":5.373103,"is_reserved":false,"is_disabled":false,"rental_uris":{"android":"levelo://app?vid=f8edda47-84ea-4677-97c7-2e2456aed61d","ios":"levelo://app?vid=f8edda47-84ea-4677-97c7-2e2456aed61d"},"vehicle_type_id":"4","last_reported":1678536730,"current_range_meters":30800,"station_id":"ce4bgt12rcd13ifvqcd0","pricing_plan_id":"free"},{"bike_id":"9305f07f-0315-4d84-941c-d8f8a58bd079","system_id":"levelo_inurba_marseille","lat":43.314811,"lon":5.373103,"is_reserved":false,"is_disabled":false,"rental_uris":{"android":"levelo://app?vid=9305f07f-0315-4d84-941c-d8f8a58bd079","ios":"levelo://app?vid=9305f07f-0315-4d84-941c-d8f8a58bd079"},"vehicle_type_id":"4","last_reported":1678536730,"current_range_meters":22800,"station_id":"ce4bgt12rcd13ifvqcd0","pricing_plan_id":"free"},{"bike_id":"3fe94bf1-8b6e-4cd2-8f96-abccaea62391","system_id":"levelo_inurba_marseille","lat":43.314811,"lon":5.373103,"is_reserved":false,"is_disabled":false,"rental_uris":{"android":"levelo://app?vid=3fe94bf1-8b6e-4cd2-8f96-abccaea62391","ios":"levelo://app?vid=3fe94bf1-8b6e-4cd2-8f96-abccaea62391"},"vehicle_type_id":"4","last_reported":1678536730,"current_range_meters":16000,"station_id":"ce4bgt12rcd13ifvqcd0","pricing_plan_id":"free"},{"bike_id":"ba33f8a1-a0c3-4848-8829-5752ffab9897","system_id":"levelo_inurba_marseille","lat":43.314811,"lon":5.373103,"is_reserved":false,"is_disabled":false,"rental_uris":{"android":"levelo://app?vid=ba33f8a1-a0c3-4848-8829-5752ffab9897","ios":"levelo://app?vid=ba33f8a1-a0c3-4848-8829-5752ffab9897"},"vehicle_type_id":"4","last_reported":1678536730,"current_range_meters":19200,"station_id":"ce4bgt12rcd13ifvqcd0","pricing_plan_id":"free"},{"bike_id":"4b318eb4-5ac1-4b68-8c58-d418ec5c6103","system_id":"levelo_inurba_marseille","lat":43.317877,"lon":5.368153,"is_reserved":false,"is_disabled":false,"rental_uris":{"android":"levelo://app?vid=4b318eb4-5ac1-4b68-8c58-d418ec5c6103","ios":"levelo://app?vid=4b318eb4-5ac1-4b68-8c58-d418ec5c6103"},"vehicle_type_id":"4","last_reported":1678536730,"current_range_meters":14400,"station_id":"","pricing_plan_id":"free"},{"bike_id":"ea383544-0fd5-4677-b739-c833189f71f9","system_id":"levelo_inurba_marseille","lat":43.308614,"lon":5.372098,"is_reserved":false,"is_disabled":false,"rental_uris":{"android":"levelo://app?vid=ea383544-0fd5-4677-b739-c833189f71f9","ios":"levelo://app?vid=ea383544-0fd5-4677-b739-c833189f71f9"},"vehicle_type_id":"4","last_reported":1678536730,"current_range_meters":28400,"station_id":"ce4bguh2rcd13ifvqckg","pricing_plan_id":"free"},{"bike_id":"540ee9e0-762b-4fa0-8aca-3d27c0c1c3ed","system_id":"levelo_inurba_marseille","lat":43.317075,"lon":5.377367,"is_reserved":false,"is_disabled":false,"rental_uris":{"android":"levelo://app?vid=540ee9e0-762b-4fa0-8aca-3d27c0c1c3ed","ios":"levelo://app?vid=540ee9e0-762b-4fa0-8aca-3d27c0c1c3ed"},"vehicle_type_id":"4","last_reported":1678536730,"current_range_meters":30400,"station_id":"ce4bgth2rcd13ifvqch0","pricing_plan_id":"free"},{"bike_id":"83129ceb-0c43-479c-94b1-245c23138ee4","system_id":"levelo_inurba_marseille","lat":43.30342,"lon":5.37255,"is_reserved":false,"is_disabled":false,"rental_uris":{"android":"levelo://app?vid=83129ceb-0c43-479c-94b1-245c23138ee4","ios":"levelo://app?vid=83129ceb-0c43-479c-94b1-245c23138ee4"},"vehicle_type_id":"4","last_reported":1678536730,"current_range_meters":800,"station_id":"","pricing_plan_id":"free"},{"bike_id":"c0df37d9-60dd-4e05-94f6-e65287fe2738","system_id":"levelo_inurba_marseille","lat":43.301939,"lon":5.366286,"is_reserved":false,"is_disabled":false,"rental_uris":{"android":"levelo://app?vid=c0df37d9-60dd-4e05-94f6-e65287fe2738","ios":"levelo://app?vid=c0df37d9-60dd-4e05-94f6-e65287fe2738"},"vehicle_type_id":"4","last_reported":1678536730,"current_range_meters":14400,"station_id":"ce4bgrh2rcd13ifvqc8g","pricing_plan_id":"free"},{"bike_id":"e8f84360-e65b-4f6d-950d-5b781a632945","system_id":"levelo_inurba_marseille","lat":43.301939,"lon":5.366286,"is_reserved":false,"is_disabled":false,"rental_uris":{"android":"levelo://app?vid=e8f84360-e65b-4f6d-950d-5b781a632945","ios":"levelo://app?vid=e8f84360-e65b-4f6d-950d-5b781a632945"},"vehicle_type_id":"4","last_reported":1678536730,"current_range_meters":16400,"station_id":"ce4bgrh2rcd13ifvqc8g","pricing_plan_id":"free"},{"bike_id":"01be2f92-6800-4b8c-a125-4af0bf8bc3e3","system_id":"levelo_inurba_marseille","lat":43.308022,"lon":5.38153,"is_reserved":false,"is_disabled":false,"rental_uris":{"android":"levelo://app?vid=01be2f92-6800-4b8c-a125-4af0bf8bc3e3","ios":"levelo://app?vid=01be2f92-6800-4b8c-a125-4af0bf8bc3e3"},"vehicle_type_id":"4","last_reported":1678536730,"current_range_meters":0,"station_id":"ce4bgt12rcd13ifvqce0","pricing_plan_id":"free"},{"bike_id":"dfa53992-1766-4cde-ae7c-3b8e73bbff46","system_id":"levelo_inurba_marseille","lat":43.304606,"lon":5.379026,"is_reserved":false,"is_disabled":false,"rental_uris":{"android":"levelo://app?vid=dfa53992-1766-4cde-ae7c-3b8e73bbff46","ios":"levelo://app?vid=dfa53992-1766-4cde-ae7c-3b8e73bbff46"},"vehicle_type_id":"4","last_reported":1678536730,"current_range_meters":29600,"station_id":"ce4bgup2rcd13ifvqcn0","pricing_plan_id":"free"},{"bike_id":"6a74c7d4-5268-4adf-ba52-7c47c3e8b699","system_id":"levelo_inurba_marseille","lat":43.304606,"lon":5.379026,"is_reserved":false,"is_disabled":false,"rental_uris":{"android":"levelo://app?vid=6a74c7d4-5268-4adf-ba52-7c47c3e8b699","ios":"levelo://app?vid=6a74c7d4-5268-4adf-ba52-7c47c3e8b699"},"vehicle_type_id":"4","last_reported":1678536730,"current_range_meters":22800,"station_id":"ce4bgup2rcd13ifvqcn0","pricing_plan_id":"free"},{"bike_id":"c60bed40-ff6b-46ef-b6e2-c680ff11cce7","system_id":"levelo_inurba_marseille","lat":43.304606,"lon":5.379026,"is_reserved":false,"is_disabled":false,"rental_uris":{"android":"levelo://app?vid=c60bed40-ff6b-46ef-b6e2-c680ff11cce7","ios":"levelo://app?vid=c60bed40-ff6b-46ef-b6e2-c680ff11cce7"},"vehicle_type_id":"4","last_reported":1678536730,"current_range_meters":30000,"station_id":"ce4bgup2rcd13ifvqcn0","pricing_plan_id":"free"},{"bike_id":"43c86b82-f39f-472a-9b82-e5cca2872737","system_id":"levelo_inurba_marseille","lat":43.304606,"lon":5.379026,"is_reserved":false,"is_disabled":false,"rental_uris":{"android":"levelo://app?vid=43c86b82-f39f-472a-9b82-e5cca2872737","ios":"levelo://app?vid=43c86b82-f39f-472a-9b82-e5cca2872737"},"vehicle_type_id":"4","last_reported":1678536730,"current_range_meters":30400,"station_id":"ce4bgup2rcd13ifvqcn0","pricing_plan_id":"free"},{"bike_id":"2366d6bd-a2db-4395-96f1-c104944b8ec2","system_id":"levelo_inurba_marseille","lat":43.31369,"lon":5.38498,"is_reserved":false,"is_disabled":false,"rental_uris":{"android":"levelo://app?vid=2366d6bd-a2db-4395-96f1-c104944b8ec2","ios":"levelo://app?vid=2366d6bd-a2db-4395-96f1-c104944b8ec2"},"vehicle_type_id":"4","last_reported":1678536730,"current_range_meters":4400,"station_id":"","pricing_plan_id":"free"},{"bike_id":"ea3ddcf2-e7c2-46a7-bbab-90751957f092","system_id":"levelo_inurba_marseille","lat":43.313566,"lon":5.385,"is_reserved":false,"is_disabled":false,"rental_uris":{"android":"levelo://app?vid=ea3ddcf2-e7c2-46a7-bbab-90751957f092","ios":"levelo://app?vid=ea3ddcf2-e7c2-46a7-bbab-90751957f092"},"vehicle_type_id":"4","last_reported":1678536730,"current_range_meters":31200,"station_id":"ce4bgt92rcd13ifvqcf0","pricing_plan_id":"free"},{"bike_id":"7c081597-6fff-46b0-8c14-42c87a551c9f","system_id":"levelo_inurba_marseille","lat":43.313558,"lon":5.385019,"is_reserved":false,"is_disabled":false,"rental_uris":{"android":"levelo://app?vid=7c081597-6fff-46b0-8c14-42c87a551c9f","ios":"levelo://app?vid=7c081597-6fff-46b0-8c14-42c87a551c9f"},"vehicle_type_id":"4","last_reported":1678536730,"current_range_meters":26800,"station_id":"ce4bgt92rcd13ifvqcf0","pricing_plan_id":"free"},{"bike_id":"747607da-cd54-407f-a883-3eb5d4d31b4a","system_id":"levelo_inurba_marseille","lat":43.29858,"lon":5.36293,"is_reserved":false,"is_disabled":false,"rental_uris":{"android":"levelo://app?vid=747607da-cd54-407f-a883-3eb5d4d31b4a","ios":"levelo://app?vid=747607da-cd54-407f-a883-3eb5d4d31b4a"},"vehicle_type_id":"4","last_reported":1678536730,"current_range_meters":27600,"station_id":"ce4bgpp2rcd13ifvqc3g","pricing_plan_id":"free"},{"bike_id":"cc1ee299-dd00-4ed8-b1b2-bf9dc6becdd7","system_id":"levelo_inurba_marseille","lat":43.298557,"lon":5.362883,"is_reserved":false,"is_disabled":false,"rental_uris":{"android":"levelo://app?vid=cc1ee299-dd00-4ed8-b1b2-bf9dc6becdd7","ios":"levelo://app?vid=cc1ee299-dd00-4ed8-b1b2-bf9dc6becdd7"},"vehicle_type_id":"4","last_reported":1678536730,"current_range_meters":14400,"station_id":"ce4bgpp2rcd13ifvqc3g","pricing_plan_id":"free"},{"bike_id":"67969165-c5a9-4da2-b838-4cc63bf2af79","system_id":"levelo_inurba_marseille","lat":43.298433,"lon":5.362774,"is_reserved":false,"is_disabled":false,"rental_uris":{"android":"levelo://app?vid=67969165-c5a9-4da2-b838-4cc63bf2af79","ios":"levelo://app?vid=67969165-c5a9-4da2-b838-4cc63bf2af79"},"vehicle_type_id":"4","last_reported":1678536730,"current_range_meters":24800,"station_id":"ce4bgpp2rcd13ifvqc3g","pricing_plan_id":"free"},{"bike_id":"e8413b8e-23a3-4e73-aaaa-af1adfe70880","system_id":"levelo_inurba_marseille","lat":43.298433,"lon":5.362774,"is_reserved":false,"is_disabled":false,"rental_uris":{"android":"levelo://app?vid=e8413b8e-23a3-4e73-aaaa-af1adfe70880","ios":"levelo://app?vid=e8413b8e-23a3-4e73-aaaa-af1adfe70880"},"vehicle_type_id":"4","last_reported":1678536730,"current_range_meters":32000,"station_id":"ce4bgpp2rcd13ifvqc3g","pricing_plan_id":"free"},{"bike_id":"53c5663f-f1a5-4538-aeea-461969e0433b","system_id":"levelo_inurba_marseille","lat":43.298433,"lon":5.362774,"is_reserved":false,"is_disabled":false,"rental_uris":{"android":"levelo://app?vid=53c5663f-f1a5-4538-aeea-461969e0433b","ios":"levelo://app?vid=53c5663f-f1a5-4538-aeea-461969e0433b"},"vehicle_type_id":"4","last_reported":1678536730,"current_range_meters":14400,"station_id":"ce4bgpp2rcd13ifvqc3g","pricing_plan_id":"free"},{"bike_id":"0eb28556-d687-44e1-919e-5fb003b6be92","system_id":"levelo_inurba_marseille","lat":43.298433,"lon":5.362774,"is_reserved":false,"is_disabled":false,"rental_uris":{"android":"levelo://app?vid=0eb28556-d687-44e1-919e-5fb003b6be92","ios":"levelo://app?vid=0eb28556-d687-44e1-919e-5fb003b6be92"},"vehicle_type_id":"4","last_reported":1678536730,"current_range_meters":29200,"station_id":"ce4bgpp2rcd13ifvqc3g","pricing_plan_id":"free"},{"bike_id":"7718c0d8-a5a3-4718-afdc-b5dfb54c87e1","system_id":"levelo_inurba_marseille","lat":43.328371,"lon":5.366909,"is_reserved":false,"is_disabled":false,"rental_uris":{"android":"levelo://app?vid=7718c0d8-a5a3-4718-afdc-b5dfb54c87e1","ios":"levelo://app?vid=7718c0d8-a5a3-4718-afdc-b5dfb54c87e1"},"vehicle_type_id":"4","last_reported":1678536730,"current_range_meters":26000,"station_id":"ce4bhs92rcd13ifvqi0g","pricing_plan_id":"free"},{"bike_id":"cbeb4ab6-fc4b-45a6-be91-76b7e0b54803","system_id":"levelo_inurba_marseille","lat":43.328371,"lon":5.366909,"is_reserved":false,"is_disabled":false,"rental_uris":{"android":"levelo://app?vid=cbeb4ab6-fc4b-45a6-be91-76b7e0b54803","ios":"levelo://app?vid=cbeb4ab6-fc4b-45a6-be91-76b7e0b54803"},"vehicle_type_id":"4","last_reported":1678536730,"current_range_meters":30400,"station_id":"ce4bhs92rcd13ifvqi0g","pricing_plan_id":"free"},{"bike_id":"c461ea74-97bf-4b08-8c33-8ce312bbe742","system_id":"levelo_inurba_marseille","lat":43.328371,"lon":5.366909,"is_reserved":false,"is_disabled":false,"rental_uris":{"android":"levelo://app?vid=c461ea74-97bf-4b08-8c33-8ce312bbe742","ios":"levelo://app?vid=c461ea74-97bf-4b08-8c33-8ce312bbe742"},"vehicle_type_id":"4","last_reported":1678536730,"current_range_meters":27200,"station_id":"ce4bhs92rcd13ifvqi0g","pricing_plan_id":"free"},{"bike_id":"2ebb1f97-fb09-4324-9b64-58658999cf04","system_id":"levelo_inurba_marseille","lat":43.328371,"lon":5.366909,"is_reserved":false,"is_disabled":false,"rental_uris":{"android":"levelo://app?vid=2ebb1f97-fb09-4324-9b64-58658999cf04","ios":"levelo://app?vid=2ebb1f97-fb09-4324-9b64-58658999cf04"},"vehicle_type_id":"4","last_reported":1678536730,"current_range_meters":17600,"station_id":"ce4bhs92rcd13ifvqi0g","pricing_plan_id":"free"},{"bike_id":"38ac62c5-1121-4e03-8039-215141469d6d","system_id":"levelo_inurba_marseille","lat":43.328371,"lon":5.366909,"is_reserved":false,"is_disabled":false,"rental_uris":{"android":"levelo://app?vid=38ac62c5-1121-4e03-8039-215141469d6d","ios":"levelo://app?vid=38ac62c5-1121-4e03-8039-215141469d6d"},"vehicle_type_id":"4","last_reported":1678536730,"current_range_meters":30800,"station_id":"ce4bhs92rcd13ifvqi0g","pricing_plan_id":"free"},{"bike_id":"fefff64e-d41d-44a2-9f0f-3c756f096689","system_id":"levelo_inurba_marseille","lat":43.328371,"lon":5.366909,"is_reserved":false,"is_disabled":false,"rental_uris":{"android":"levelo://app?vid=fefff64e-d41d-44a2-9f0f-3c756f096689","ios":"levelo://app?vid=fefff64e-d41d-44a2-9f0f-3c756f096689"},"vehicle_type_id":"4","last_reported":1678536730,"current_range_meters":31600,"station_id":"ce4bhs92rcd13ifvqi0g","pricing_plan_id":"free"},{"bike_id":"e559e30d-10be-4be0-b67a-3d0b565ffa7e","system_id":"levelo_inurba_marseille","lat":43.328371,"lon":5.366909,"is_reserved":false,"is_disabled":false,"rental_uris":{"android":"levelo://app?vid=e559e30d-10be-4be0-b67a-3d0b565ffa7e","ios":"levelo://app?vid=e559e30d-10be-4be0-b67a-3d0b565ffa7e"},"vehicle_type_id":"4","last_reported":1678536730,"current_range_meters":30000,"station_id":"ce4bhs92rcd13ifvqi0g","pricing_plan_id":"free"},{"bike_id":"a5306bbc-cef2-4745-aa88-9dc9e31e33f9","system_id":"levelo_inurba_marseille","lat":43.328371,"lon":5.366909,"is_reserved":false,"is_disabled":false,"rental_uris":{"android":"levelo://app?vid=a5306bbc-cef2-4745-aa88-9dc9e31e33f9","ios":"levelo://app?vid=a5306bbc-cef2-4745-aa88-9dc9e31e33f9"},"vehicle_type_id":"4","last_reported":1678536730,"current_range_meters":18800,"station_id":"ce4bhs92rcd13ifvqi0g","pricing_plan_id":"free"},{"bike_id":"6fe66641-9def-4b81-9e84-a3ab32f24f76","system_id":"levelo_inurba_marseille","lat":43.328371,"lon":5.366909,"is_reserved":false,"is_disabled":false,"rental_uris":{"android":"levelo://app?vid=6fe66641-9def-4b81-9e84-a3ab32f24f76","ios":"levelo://app?vid=6fe66641-9def-4b81-9e84-a3ab32f24f76"},"vehicle_type_id":"4","last_reported":1678536730,"current_range_meters":10000,"station_id":"ce4bhs92rcd13ifvqi0g","pricing_plan_id":"free"},{"bike_id":"66c9f54d-b66b-4bfb-bdb9-99e719be1bc9","system_id":"levelo_inurba_marseille","lat":43.328371,"lon":5.366909,"is_reserved":false,"is_disabled":false,"rental_uris":{"android":"levelo://app?vid=66c9f54d-b66b-4bfb-bdb9-99e719be1bc9","ios":"levelo://app?vid=66c9f54d-b66b-4bfb-bdb9-99e719be1bc9"},"vehicle_type_id":"4","last_reported":1678536730,"current_range_meters":31600,"station_id":"ce4bhs92rcd13ifvqi0g","pricing_plan_id":"free"},{"bike_id":"84370daf-a9d8-46ae-9f74-bb49748464ed","system_id":"levelo_inurba_marseille","lat":43.328371,"lon":5.366909,"is_reserved":false,"is_disabled":false,"rental_uris":{"android":"levelo://app?vid=84370daf-a9d8-46ae-9f74-bb49748464ed","ios":"levelo://app?vid=84370daf-a9d8-46ae-9f74-bb49748464ed"},"vehicle_type_id":"4","last_reported":1678536730,"current_range_meters":22800,"station_id":"ce4bhs92rcd13ifvqi0g","pricing_plan_id":"free"},{"bike_id":"95cbf81a-20d0-46c6-8719-f9b04d191e4c","system_id":"levelo_inurba_marseille","lat":43.328371,"lon":5.366909,"is_reserved":false,"is_disabled":false,"rental_uris":{"android":"levelo://app?vid=95cbf81a-20d0-46c6-8719-f9b04d191e4c","ios":"levelo://app?vid=95cbf81a-20d0-46c6-8719-f9b04d191e4c"},"vehicle_type_id":"4","last_reported":1678536730,"current_range_meters":29600,"station_id":"ce4bhs92rcd13ifvqi0g","pricing_plan_id":"free"},{"bike_id":"f2571945-374b-42a8-ae7e-8e29368d9e34","system_id":"levelo_inurba_marseille","lat":43.328371,"lon":5.366909,"is_reserved":false,"is_disabled":false,"rental_uris":{"android":"levelo://app?vid=f2571945-374b-42a8-ae7e-8e29368d9e34","ios":"levelo://app?vid=f2571945-374b-42a8-ae7e-8e29368d9e34"},"vehicle_type_id":"4","last_reported":1678536730,"current_range_meters":30800,"station_id":"ce4bhs92rcd13ifvqi0g","pricing_plan_id":"free"},{"bike_id":"c3f6a10c-6687-4dfa-8728-50fc20bafe56","system_id":"levelo_inurba_marseille","lat":43.328371,"lon":5.366909,"is_reserved":false,"is_disabled":false,"rental_uris":{"android":"levelo://app?vid=c3f6a10c-6687-4dfa-8728-50fc20bafe56","ios":"levelo://app?vid=c3f6a10c-6687-4dfa-8728-50fc20bafe56"},"vehicle_type_id":"4","last_reported":1678536730,"current_range_meters":17600,"station_id":"ce4bhs92rcd13ifvqi0g","pricing_plan_id":"free"},{"bike_id":"ff71820f-4a2d-4080-9a76-9db13d03da2a","system_id":"levelo_inurba_marseille","lat":43.295831,"lon":5.367379,"is_reserved":false,"is_disabled":false,"rental_uris":{"android":"levelo://app?vid=ff71820f-4a2d-4080-9a76-9db13d03da2a","ios":"levelo://app?vid=ff71820f-4a2d-4080-9a76-9db13d03da2a"},"vehicle_type_id":"4","last_reported":1678536730,"current_range_meters":6800,"station_id":"","pricing_plan_id":"free"},{"bike_id":"4cd16068-0b4f-40fe-9c42-ca25b4023419","system_id":"levelo_inurba_marseille","lat":43.29573,"lon":5.367355,"is_reserved":false,"is_disabled":false,"rental_uris":{"android":"levelo://app?vid=4cd16068-0b4f-40fe-9c42-ca25b4023419","ios":"levelo://app?vid=4cd16068-0b4f-40fe-9c42-ca25b4023419"},"vehicle_type_id":"4","last_reported":1678536730,"current_range_meters":27200,"station_id":"ce4bgph2rcd13ifvqc2g","pricing_plan_id":"free"},{"bike_id":"d88abd81-009a-4536-b5c2-66676c208625","system_id":"levelo_inurba_marseille","lat":43.29573,"lon":5.367355,"is_reserved":false,"is_disabled":false,"rental_uris":{"android":"levelo://app?vid=d88abd81-009a-4536-b5c2-66676c208625","ios":"levelo://app?vid=d88abd81-009a-4536-b5c2-66676c208625"},"vehicle_type_id":"4","last_reported":1678536730,"current_range_meters":14400,"station_id":"ce4bgph2rcd13ifvqc2g","pricing_plan_id":"free"},{"bike_id":"c3e3fb9d-4762-46f3-943f-211a14f44390","system_id":"levelo_inurba_marseille","lat":43.299028,"lon":5.381509,"is_reserved":false,"is_disabled":false,"rental_uris":{"android":"levelo://app?vid=c3e3fb9d-4762-46f3-943f-211a14f44390","ios":"levelo://app?vid=c3e3fb9d-4762-46f3-943f-211a14f44390"},"vehicle_type_id":"4","last_reported":1678536730,"current_range_meters":31600,"station_id":"ce4bgj12rcd13ifvqbc0","pricing_plan_id":"free"},{"bike_id":"3d5ad71b-8f39-46c2-a0c7-539396e03ea7","system_id":"levelo_inurba_marseille","lat":43.299028,"lon":5.381509,"is_reserved":false,"is_disabled":false,"rental_uris":{"android":"levelo://app?vid=3d5ad71b-8f39-46c2-a0c7-539396e03ea7","ios":"levelo://app?vid=3d5ad71b-8f39-46c2-a0c7-539396e03ea7"},"vehicle_type_id":"4","last_reported":1678536730,"current_range_meters":24800,"station_id":"ce4bgj12rcd13ifvqbc0","pricing_plan_id":"free"},{"bike_id":"95e4cb3e-d4a7-49bc-92e1-ac136486a4f8","system_id":"levelo_inurba_marseille","lat":43.299028,"lon":5.381509,"is_reserved":false,"is_disabled":false,"rental_uris":{"android":"levelo://app?vid=95e4cb3e-d4a7-49bc-92e1-ac136486a4f8","ios":"levelo://app?vid=95e4cb3e-d4a7-49bc-92e1-ac136486a4f8"},"vehicle_type_id":"4","last_reported":1678536730,"current_range_meters":21200,"station_id":"ce4bgj12rcd13ifvqbc0","pricing_plan_id":"free"},{"bike_id":"5f6a374d-6c66-457e-bf0a-2287c15deaea","system_id":"levelo_inurba_marseille","lat":43.299082,"lon":5.381297,"is_reserved":false,"is_disabled":false,"rental_uris":{"android":"levelo://app?vid=5f6a374d-6c66-457e-bf0a-2287c15deaea","ios":"levelo://app?vid=5f6a374d-6c66-457e-bf0a-2287c15deaea"},"vehicle_type_id":"4","last_reported":1678536730,"current_range_meters":28000,"station_id":"ce4bgj12rcd13ifvqbc0","pricing_plan_id":"free"},{"bike_id":"510f2ebb-9930-409e-bdcb-d38f155a3596","system_id":"levelo_inurba_marseille","lat":43.299028,"lon":5.381509,"is_reserved":false,"is_disabled":false,"rental_uris":{"android":"levelo://app?vid=510f2ebb-9930-409e-bdcb-d38f155a3596","ios":"levelo://app?vid=510f2ebb-9930-409e-bdcb-d38f155a3596"},"vehicle_type_id":"4","last_reported":1678536730,"current_range_meters":25600,"station_id":"ce4bgj12rcd13ifvqbc0","pricing_plan_id":"free"},{"bike_id":"c91bab22-baac-4926-81c0-20b58a6e4f72","system_id":"levelo_inurba_marseille","lat":43.299028,"lon":5.381509,"is_reserved":false,"is_disabled":false,"rental_uris":{"android":"levelo://app?vid=c91bab22-baac-4926-81c0-20b58a6e4f72","ios":"levelo://app?vid=c91bab22-baac-4926-81c0-20b58a6e4f72"},"vehicle_type_id":"4","last_reported":1678536730,"current_range_meters":32000,"station_id":"ce4bgj12rcd13ifvqbc0","pricing_plan_id":"free"},{"bike_id":"25fa1f9e-c252-4995-9738-9c5ea83dc5b4","system_id":"levelo_inurba_marseille","lat":43.299028,"lon":5.381509,"is_reserved":false,"is_disabled":false,"rental_uris":{"android":"levelo://app?vid=25fa1f9e-c252-4995-9738-9c5ea83dc5b4","ios":"levelo://app?vid=25fa1f9e-c252-4995-9738-9c5ea83dc5b4"},"vehicle_type_id":"4","last_reported":1678536730,"current_range_meters":0,"station_id":"ce4bgj12rcd13ifvqbc0","pricing_plan_id":"free"},{"bike_id":"b473bb2b-ad7a-4227-82f7-48bb7cf23144","system_id":"levelo_inurba_marseille","lat":43.317557,"lon":5.390173,"is_reserved":false,"is_disabled":false,"rental_uris":{"android":"levelo://app?vid=b473bb2b-ad7a-4227-82f7-48bb7cf23144","ios":"levelo://app?vid=b473bb2b-ad7a-4227-82f7-48bb7cf23144"},"vehicle_type_id":"4","last_reported":1678536730,"current_range_meters":30800,"station_id":"ce4bhqp2rcd13ifvqhng","pricing_plan_id":"free"},{"bike_id":"55fa6ba9-5919-42c7-920b-de3a810ef6fb","system_id":"levelo_inurba_marseille","lat":43.317557,"lon":5.390173,"is_reserved":false,"is_disabled":false,"rental_uris":{"android":"levelo://app?vid=55fa6ba9-5919-42c7-920b-de3a810ef6fb","ios":"levelo://app?vid=55fa6ba9-5919-42c7-920b-de3a810ef6fb"},"vehicle_type_id":"4","last_reported":1678536730,"current_range_meters":11600,"station_id":"ce4bhqp2rcd13ifvqhng","pricing_plan_id":"free"},{"bike_id":"a24f0e0d-9424-428a-a6c7-46b8925355d0","system_id":"levelo_inurba_marseille","lat":43.317555,"lon":5.390215,"is_reserved":false,"is_disabled":false,"rental_uris":{"android":"levelo://app?vid=a24f0e0d-9424-428a-a6c7-46b8925355d0","ios":"levelo://app?vid=a24f0e0d-9424-428a-a6c7-46b8925355d0"},"vehicle_type_id":"4","last_reported":1678536730,"current_range_meters":11200,"station_id":"","pricing_plan_id":"free"},{"bike_id":"c4524415-d6be-44ee-af5f-e12b36d46bac","system_id":"levelo_inurba_marseille","lat":43.317557,"lon":5.390173,"is_reserved":false,"is_disabled":false,"rental_uris":{"android":"levelo://app?vid=c4524415-d6be-44ee-af5f-e12b36d46bac","ios":"levelo://app?vid=c4524415-d6be-44ee-af5f-e12b36d46bac"},"vehicle_type_id":"4","last_reported":1678536730,"current_range_meters":15600,"station_id":"ce4bhqp2rcd13ifvqhng","pricing_plan_id":"free"},{"bike_id":"11f029c6-0547-4f58-9a28-2a9a0f8a8360","system_id":"levelo_inurba_marseille","lat":43.317557,"lon":5.390173,"is_reserved":false,"is_disabled":false,"rental_uris":{"android":"levelo://app?vid=11f029c6-0547-4f58-9a28-2a9a0f8a8360","ios":"levelo://app?vid=11f029c6-0547-4f58-9a28-2a9a0f8a8360"},"vehicle_type_id":"4","last_reported":1678536730,"current_range_meters":18400,"station_id":"ce4bhqp2rcd13ifvqhng","pricing_plan_id":"free"},{"bike_id":"43986725-25b5-4736-b52c-00477f91ddd2","system_id":"levelo_inurba_marseille","lat":43.317557,"lon":5.390173,"is_reserved":false,"is_disabled":false,"rental_uris":{"android":"levelo://app?vid=43986725-25b5-4736-b52c-00477f91ddd2","ios":"levelo://app?vid=43986725-25b5-4736-b52c-00477f91ddd2"},"vehicle_type_id":"4","last_reported":1678536730,"current_range_meters":6000,"station_id":"ce4bhqp2rcd13ifvqhng","pricing_plan_id":"free"},{"bike_id":"e6330a7e-49e6-41e7-be80-2bd0744820d6","system_id":"levelo_inurba_marseille","lat":43.298037,"lon":5.381066,"is_reserved":false,"is_disabled":false,"rental_uris":{"android":"levelo://app?vid=e6330a7e-49e6-41e7-be80-2bd0744820d6","ios":"levelo://app?vid=e6330a7e-49e6-41e7-be80-2bd0744820d6"},"vehicle_type_id":"4","last_reported":1678536730,"current_range_meters":23200,"station_id":"ce4bgip2rcd13ifvqbb0","pricing_plan_id":"free"},{"bike_id":"d8fc8e0a-aa06-483a-ade9-818d38dfe23d","system_id":"levelo_inurba_marseille","lat":43.298037,"lon":5.381066,"is_reserved":false,"is_disabled":false,"rental_uris":{"android":"levelo://app?vid=d8fc8e0a-aa06-483a-ade9-818d38dfe23d","ios":"levelo://app?vid=d8fc8e0a-aa06-483a-ade9-818d38dfe23d"},"vehicle_type_id":"4","last_reported":1678536730,"current_range_meters":25600,"station_id":"ce4bgip2rcd13ifvqbb0","pricing_plan_id":"free"},{"bike_id":"4312a3d3-5181-4315-afdf-fed8d4ce3ef5","system_id":"levelo_inurba_marseille","lat":43.297966,"lon":5.38099,"is_reserved":false,"is_disabled":false,"rental_uris":{"android":"levelo://app?vid=4312a3d3-5181-4315-afdf-fed8d4ce3ef5","ios":"levelo://app?vid=4312a3d3-5181-4315-afdf-fed8d4ce3ef5"},"vehicle_type_id":"4","last_reported":1678536730,"current_range_meters":24400,"station_id":"ce4bgip2rcd13ifvqbb0","pricing_plan_id":"free"},{"bike_id":"9951c766-6851-401a-91c3-f9a2bffdcf83","system_id":"levelo_inurba_marseille","lat":43.29784,"lon":5.381,"is_reserved":false,"is_disabled":false,"rental_uris":{"android":"levelo://app?vid=9951c766-6851-401a-91c3-f9a2bffdcf83","ios":"levelo://app?vid=9951c766-6851-401a-91c3-f9a2bffdcf83"},"vehicle_type_id":"4","last_reported":1678536730,"current_range_meters":31600,"station_id":"ce4bgip2rcd13ifvqbb0","pricing_plan_id":"free"},{"bike_id":"a721a15a-b4f1-4a0d-b7ba-68dbe80c20f2","system_id":"levelo_inurba_marseille","lat":43.296263,"lon":5.377094,"is_reserved":false,"is_disabled":false,"rental_uris":{"android":"levelo://app?vid=a721a15a-b4f1-4a0d-b7ba-68dbe80c20f2","ios":"levelo://app?vid=a721a15a-b4f1-4a0d-b7ba-68dbe80c20f2"},"vehicle_type_id":"4","last_reported":1678536730,"current_range_meters":2800,"station_id":"ce4bgi92rcd13ifvqb90","pricing_plan_id":"free"},{"bike_id":"be100ba8-74c1-42df-b292-c158cb29661a","system_id":"levelo_inurba_marseille","lat":43.296263,"lon":5.377094,"is_reserved":false,"is_disabled":false,"rental_uris":{"android":"levelo://app?vid=be100ba8-74c1-42df-b292-c158cb29661a","ios":"levelo://app?vid=be100ba8-74c1-42df-b292-c158cb29661a"},"vehicle_type_id":"4","last_reported":1678536730,"current_range_meters":14000,"station_id":"ce4bgi92rcd13ifvqb90","pricing_plan_id":"free"},{"bike_id":"5a5e4acd-0a14-4b7d-a6af-c9572304871e","system_id":"levelo_inurba_marseille","lat":43.295279,"lon":5.375048,"is_reserved":false,"is_disabled":false,"rental_uris":{"android":"levelo://app?vid=5a5e4acd-0a14-4b7d-a6af-c9572304871e","ios":"levelo://app?vid=5a5e4acd-0a14-4b7d-a6af-c9572304871e"},"vehicle_type_id":"4","last_reported":1678536730,"current_range_meters":15600,"station_id":"ce4bgkp2rcd13ifvqbmg","pricing_plan_id":"free"},{"bike_id":"3f73838e-c916-4ae6-89ab-902a76789868","system_id":"levelo_inurba_marseille","lat":43.29531,"lon":5.37505,"is_reserved":false,"is_disabled":false,"rental_uris":{"android":"levelo://app?vid=3f73838e-c916-4ae6-89ab-902a76789868","ios":"levelo://app?vid=3f73838e-c916-4ae6-89ab-902a76789868"},"vehicle_type_id":"4","last_reported":1678536730,"current_range_meters":26400,"station_id":"ce4bgkp2rcd13ifvqbmg","pricing_plan_id":"free"},{"bike_id":"0bcd15f3-43f6-413e-8457-c2adfc0ebed2","system_id":"levelo_inurba_marseille","lat":43.295279,"lon":5.375048,"is_reserved":false,"is_disabled":false,"rental_uris":{"android":"levelo://app?vid=0bcd15f3-43f6-413e-8457-c2adfc0ebed2","ios":"levelo://app?vid=0bcd15f3-43f6-413e-8457-c2adfc0ebed2"},"vehicle_type_id":"4","last_reported":1678536730,"current_range_meters":12800,"station_id":"ce4bgkp2rcd13ifvqbmg","pricing_plan_id":"free"},{"bike_id":"8449c86d-b1dc-4b28-8f3d-f70824566439","system_id":"levelo_inurba_marseille","lat":43.299702,"lon":5.384988,"is_reserved":false,"is_disabled":false,"rental_uris":{"android":"levelo://app?vid=8449c86d-b1dc-4b28-8f3d-f70824566439","ios":"levelo://app?vid=8449c86d-b1dc-4b28-8f3d-f70824566439"},"vehicle_type_id":"4","last_reported":1678536730,"current_range_meters":0,"station_id":"","pricing_plan_id":"free"},{"bike_id":"a5a885fa-5f9b-4b21-91e3-2b708d6637ca","system_id":"levelo_inurba_marseille","lat":43.32367,"lon":5.388836,"is_reserved":false,"is_disabled":false,"rental_uris":{"android":"levelo://app?vid=a5a885fa-5f9b-4b21-91e3-2b708d6637ca","ios":"levelo://app?vid=a5a885fa-5f9b-4b21-91e3-2b708d6637ca"},"vehicle_type_id":"4","last_reported":1678536730,"current_range_meters":21200,"station_id":"ce4bhqp2rcd13ifvqhog","pricing_plan_id":"free"},{"bike_id":"4e3f6f68-a9d7-4c45-9660-acbdfc9667c1","system_id":"levelo_inurba_marseille","lat":43.32367,"lon":5.388836,"is_reserved":false,"is_disabled":false,"rental_uris":{"android":"levelo://app?vid=4e3f6f68-a9d7-4c45-9660-acbdfc9667c1","ios":"levelo://app?vid=4e3f6f68-a9d7-4c45-9660-acbdfc9667c1"},"vehicle_type_id":"4","last_reported":1678536730,"current_range_meters":16400,"station_id":"ce4bhqp2rcd13ifvqhog","pricing_plan_id":"free"},{"bike_id":"d087efd0-976f-49ae-b2f8-7c10eda9b2dc","system_id":"levelo_inurba_marseille","lat":43.32374,"lon":5.38887,"is_reserved":false,"is_disabled":false,"rental_uris":{"android":"levelo://app?vid=d087efd0-976f-49ae-b2f8-7c10eda9b2dc","ios":"levelo://app?vid=d087efd0-976f-49ae-b2f8-7c10eda9b2dc"},"vehicle_type_id":"4","last_reported":1678536730,"current_range_meters":31600,"station_id":"ce4bhqp2rcd13ifvqhog","pricing_plan_id":"free"},{"bike_id":"67329fa4-4e2e-45d8-bd87-598da0f72818","system_id":"levelo_inurba_marseille","lat":43.31282,"lon":5.394211,"is_reserved":false,"is_disabled":false,"rental_uris":{"android":"levelo://app?vid=67329fa4-4e2e-45d8-bd87-598da0f72818","ios":"levelo://app?vid=67329fa4-4e2e-45d8-bd87-598da0f72818"},"vehicle_type_id":"4","last_reported":1678536730,"current_range_meters":0,"station_id":"","pricing_plan_id":"free"},{"bike_id":"2b5313de-2d95-43c4-b8dd-c1e0c6d2e4cb","system_id":"levelo_inurba_marseille","lat":43.29302,"lon":5.374592,"is_reserved":false,"is_disabled":false,"rental_uris":{"android":"levelo://app?vid=2b5313de-2d95-43c4-b8dd-c1e0c6d2e4cb","ios":"levelo://app?vid=2b5313de-2d95-43c4-b8dd-c1e0c6d2e4cb"},"vehicle_type_id":"4","last_reported":1678536730,"current_range_meters":0,"station_id":"ce4bgi12rcd13ifvqb70","pricing_plan_id":"free"},{"bike_id":"9f4b92ea-89ea-4e00-85dd-e7ec3dfd596c","system_id":"levelo_inurba_marseille","lat":43.298764,"lon":5.388973,"is_reserved":false,"is_disabled":false,"rental_uris":{"android":"levelo://app?vid=9f4b92ea-89ea-4e00-85dd-e7ec3dfd596c","ios":"levelo://app?vid=9f4b92ea-89ea-4e00-85dd-e7ec3dfd596c"},"vehicle_type_id":"4","last_reported":1678536730,"current_range_meters":30400,"station_id":"ce4bh392rcd13ifvqdl0","pricing_plan_id":"free"},{"bike_id":"08469661-7b7a-4e33-b7c1-d23c392e5b81","system_id":"levelo_inurba_marseille","lat":43.313291,"lon":5.396838,"is_reserved":false,"is_disabled":false,"rental_uris":{"android":"levelo://app?vid=08469661-7b7a-4e33-b7c1-d23c392e5b81","ios":"levelo://app?vid=08469661-7b7a-4e33-b7c1-d23c392e5b81"},"vehicle_type_id":"4","last_reported":1678536730,"current_range_meters":5600,"station_id":"ce4bgvp2rcd13ifvqcu0","pricing_plan_id":"free"},{"bike_id":"aaf2e4b4-90b4-4108-ba76-5a2a24d0ed22","system_id":"levelo_inurba_marseille","lat":43.313291,"lon":5.396838,"is_reserved":false,"is_disabled":false,"rental_uris":{"android":"levelo://app?vid=aaf2e4b4-90b4-4108-ba76-5a2a24d0ed22","ios":"levelo://app?vid=aaf2e4b4-90b4-4108-ba76-5a2a24d0ed22"},"vehicle_type_id":"4","last_reported":1678536730,"current_range_meters":6400,"station_id":"ce4bgvp2rcd13ifvqcu0","pricing_plan_id":"free"},{"bike_id":"3dea02b2-68da-4d54-91a2-d4e14a53ef4e","system_id":"levelo_inurba_marseille","lat":43.290779,"lon":5.371482,"is_reserved":false,"is_disabled":false,"rental_uris":{"android":"levelo://app?vid=3dea02b2-68da-4d54-91a2-d4e14a53ef4e","ios":"levelo://app?vid=3dea02b2-68da-4d54-91a2-d4e14a53ef4e"},"vehicle_type_id":"4","last_reported":1678536730,"current_range_meters":21600,"station_id":"ce4bh5p2rcd13ifvqe4g","pricing_plan_id":"free"},{"bike_id":"8fccd644-54f2-4e78-bf91-9d949d39dcc2","system_id":"levelo_inurba_marseille","lat":43.322497,"lon":5.394787,"is_reserved":false,"is_disabled":false,"rental_uris":{"android":"levelo://app?vid=8fccd644-54f2-4e78-bf91-9d949d39dcc2","ios":"levelo://app?vid=8fccd644-54f2-4e78-bf91-9d949d39dcc2"},"vehicle_type_id":"4","last_reported":1678536730,"current_range_meters":0,"station_id":"","pricing_plan_id":"free"},{"bike_id":"edc5d94c-9002-4b53-a3fb-354200eb89d8","system_id":"levelo_inurba_marseille","lat":43.290401,"lon":5.359204,"is_reserved":false,"is_disabled":false,"rental_uris":{"android":"levelo://app?vid=edc5d94c-9002-4b53-a3fb-354200eb89d8","ios":"levelo://app?vid=edc5d94c-9002-4b53-a3fb-354200eb89d8"},"vehicle_type_id":"4","last_reported":1678536730,"current_range_meters":0,"station_id":"ce4bha92rcd13ifvqeg0","pricing_plan_id":"free"},{"bike_id":"4b73eaa3-0c3e-4fb4-a6c3-ec9987120461","system_id":"levelo_inurba_marseille","lat":43.28937,"lon":5.36684,"is_reserved":false,"is_disabled":false,"rental_uris":{"android":"levelo://app?vid=4b73eaa3-0c3e-4fb4-a6c3-ec9987120461","ios":"levelo://app?vid=4b73eaa3-0c3e-4fb4-a6c3-ec9987120461"},"vehicle_type_id":"4","last_reported":1678536730,"current_range_meters":0,"station_id":"ce4bhap2rcd13ifvqek0","pricing_plan_id":"free"},{"bike_id":"c26e5911-0744-4f51-b992-a72f52f2b771","system_id":"levelo_inurba_marseille","lat":43.292629,"lon":5.384506,"is_reserved":false,"is_disabled":false,"rental_uris":{"android":"levelo://app?vid=c26e5911-0744-4f51-b992-a72f52f2b771","ios":"levelo://app?vid=c26e5911-0744-4f51-b992-a72f52f2b771"},"vehicle_type_id":"4","last_reported":1678536730,"current_range_meters":0,"station_id":"ce4bh692rcd13ifvqea0","pricing_plan_id":"free"},{"bike_id":"87b129da-7b2d-49fa-94bc-29b2b162babe","system_id":"levelo_inurba_marseille","lat":43.33041,"lon":5.38915,"is_reserved":false,"is_disabled":false,"rental_uris":{"android":"levelo://app?vid=87b129da-7b2d-49fa-94bc-29b2b162babe","ios":"levelo://app?vid=87b129da-7b2d-49fa-94bc-29b2b162babe"},"vehicle_type_id":"4","last_reported":1678536730,"current_range_meters":23200,"station_id":"","pricing_plan_id":"free"},{"bike_id":"092bd085-8a24-4b8f-95d5-0e942a35efb7","system_id":"levelo_inurba_marseille","lat":43.330437,"lon":5.38914,"is_reserved":false,"is_disabled":false,"rental_uris":{"android":"levelo://app?vid=092bd085-8a24-4b8f-95d5-0e942a35efb7","ios":"levelo://app?vid=092bd085-8a24-4b8f-95d5-0e942a35efb7"},"vehicle_type_id":"4","last_reported":1678536730,"current_range_meters":22400,"station_id":"ce4bhr92rcd13ifvqhrg","pricing_plan_id":"free"},{"bike_id":"db22ce10-393a-4b1b-9ca7-bf0490c4770c","system_id":"levelo_inurba_marseille","lat":43.330442,"lon":5.389148,"is_reserved":false,"is_disabled":false,"rental_uris":{"android":"levelo://app?vid=db22ce10-393a-4b1b-9ca7-bf0490c4770c","ios":"levelo://app?vid=db22ce10-393a-4b1b-9ca7-bf0490c4770c"},"vehicle_type_id":"4","last_reported":1678536730,"current_range_meters":24000,"station_id":"ce4bhr92rcd13ifvqhrg","pricing_plan_id":"free"},{"bike_id":"b7fa947e-e91d-498c-9b7e-ab804adf1e74","system_id":"levelo_inurba_marseille","lat":43.330442,"lon":5.389148,"is_reserved":false,"is_disabled":false,"rental_uris":{"android":"levelo://app?vid=b7fa947e-e91d-498c-9b7e-ab804adf1e74","ios":"levelo://app?vid=b7fa947e-e91d-498c-9b7e-ab804adf1e74"},"vehicle_type_id":"4","last_reported":1678536730,"current_range_meters":21600,"station_id":"ce4bhr92rcd13ifvqhrg","pricing_plan_id":"free"},{"bike_id":"29db47c6-3b9d-4d4a-af11-16acd1b4d7d6","system_id":"levelo_inurba_marseille","lat":43.290995,"lon":5.381361,"is_reserved":false,"is_disabled":false,"rental_uris":{"android":"levelo://app?vid=29db47c6-3b9d-4d4a-af11-16acd1b4d7d6","ios":"levelo://app?vid=29db47c6-3b9d-4d4a-af11-16acd1b4d7d6"},"vehicle_type_id":"4","last_reported":1678536730,"current_range_meters":10400,"station_id":"ce4bh512rcd13ifvqe2g","pricing_plan_id":"free"},{"bike_id":"1c1c4e49-5305-43f1-8fd2-d51ad337d7f2","system_id":"levelo_inurba_marseille","lat":43.295169,"lon":5.390426,"is_reserved":false,"is_disabled":false,"rental_uris":{"android":"levelo://app?vid=1c1c4e49-5305-43f1-8fd2-d51ad337d7f2","ios":"levelo://app?vid=1c1c4e49-5305-43f1-8fd2-d51ad337d7f2"},"vehicle_type_id":"4","last_reported":1678536730,"current_range_meters":14400,"station_id":"ce4bh3p2rcd13ifvqdp0","pricing_plan_id":"free"},{"bike_id":"2e516f1e-7de1-4cf9-ac09-0634840e3a3a","system_id":"levelo_inurba_marseille","lat":43.289786,"lon":5.378482,"is_reserved":false,"is_disabled":false,"rental_uris":{"android":"levelo://app?vid=2e516f1e-7de1-4cf9-ac09-0634840e3a3a","ios":"levelo://app?vid=2e516f1e-7de1-4cf9-ac09-0634840e3a3a"},"vehicle_type_id":"4","last_reported":1678536730,"current_range_meters":0,"station_id":"","pricing_plan_id":"free"},{"bike_id":"4023cf64-2062-482d-a67f-aed907ec471f","system_id":"levelo_inurba_marseille","lat":43.295263,"lon":5.39042,"is_reserved":false,"is_disabled":false,"rental_uris":{"android":"levelo://app?vid=4023cf64-2062-482d-a67f-aed907ec471f","ios":"levelo://app?vid=4023cf64-2062-482d-a67f-aed907ec471f"},"vehicle_type_id":"4","last_reported":1678536730,"current_range_meters":17200,"station_id":"ce4bh3p2rcd13ifvqdp0","pricing_plan_id":"free"},{"bike_id":"4a8e7cd7-7892-44a6-abb2-9abe23b82db8","system_id":"levelo_inurba_marseille","lat":43.337663,"lon":5.374384,"is_reserved":false,"is_disabled":false,"rental_uris":{"android":"levelo://app?vid=4a8e7cd7-7892-44a6-abb2-9abe23b82db8","ios":"levelo://app?vid=4a8e7cd7-7892-44a6-abb2-9abe23b82db8"},"vehicle_type_id":"4","last_reported":1678536730,"current_range_meters":31200,"station_id":"","pricing_plan_id":"free"},{"bike_id":"7ed74cb7-0045-430f-97d6-49f18d514ca1","system_id":"levelo_inurba_marseille","lat":43.33772,"lon":5.37432,"is_reserved":false,"is_disabled":false,"rental_uris":{"android":"levelo://app?vid=7ed74cb7-0045-430f-97d6-49f18d514ca1","ios":"levelo://app?vid=7ed74cb7-0045-430f-97d6-49f18d514ca1"},"vehicle_type_id":"4","last_reported":1678536730,"current_range_meters":22400,"station_id":"","pricing_plan_id":"free"},{"bike_id":"d2bbd8d1-437a-494e-8beb-cb002ef39f64","system_id":"levelo_inurba_marseille","lat":43.29528,"lon":5.39396,"is_reserved":false,"is_disabled":false,"rental_uris":{"android":"levelo://app?vid=d2bbd8d1-437a-494e-8beb-cb002ef39f64","ios":"levelo://app?vid=d2bbd8d1-437a-494e-8beb-cb002ef39f64"},"vehicle_type_id":"4","last_reported":1678536730,"current_range_meters":4800,"station_id":"ce4bh292rcd13ifvqdf0","pricing_plan_id":"free"},{"bike_id":"7742b5c5-22b0-4367-9283-62bd4e88b344","system_id":"levelo_inurba_marseille","lat":43.29034,"lon":5.38635,"is_reserved":false,"is_disabled":false,"rental_uris":{"android":"levelo://app?vid=7742b5c5-22b0-4367-9283-62bd4e88b344","ios":"levelo://app?vid=7742b5c5-22b0-4367-9283-62bd4e88b344"},"vehicle_type_id":"4","last_reported":1678536730,"current_range_meters":0,"station_id":"ce4bh4p2rcd13ifvqe0g","pricing_plan_id":"free"},{"bike_id":"1f06dfe3-09c2-442b-a1c1-0b62757c7656","system_id":"levelo_inurba_marseille","lat":43.302759,"lon":5.400793,"is_reserved":false,"is_disabled":false,"rental_uris":{"android":"levelo://app?vid=1f06dfe3-09c2-442b-a1c1-0b62757c7656","ios":"levelo://app?vid=1f06dfe3-09c2-442b-a1c1-0b62757c7656"},"vehicle_type_id":"4","last_reported":1678536730,"current_range_meters":28000,"station_id":"ce4bgvh2rcd13ifvqcs0","pricing_plan_id":"free"},{"bike_id":"1308356d-a45f-402b-bd36-7e35298f9efd","system_id":"levelo_inurba_marseille","lat":43.28615,"lon":5.37061,"is_reserved":false,"is_disabled":false,"rental_uris":{"android":"levelo://app?vid=1308356d-a45f-402b-bd36-7e35298f9efd","ios":"levelo://app?vid=1308356d-a45f-402b-bd36-7e35298f9efd"},"vehicle_type_id":"4","last_reported":1678536730,"current_range_meters":1600,"station_id":"ce4bht12rcd13ifvqi60","pricing_plan_id":"free"},{"bike_id":"746d902c-a499-4dc0-81e2-e4606e2512d5","system_id":"levelo_inurba_marseille","lat":43.28609,"lon":5.37063,"is_reserved":false,"is_disabled":false,"rental_uris":{"android":"levelo://app?vid=746d902c-a499-4dc0-81e2-e4606e2512d5","ios":"levelo://app?vid=746d902c-a499-4dc0-81e2-e4606e2512d5"},"vehicle_type_id":"4","last_reported":1678536730,"current_range_meters":19200,"station_id":"ce4bht12rcd13ifvqi60","pricing_plan_id":"free"},{"bike_id":"7ce5dfed-ea3b-426b-9cb1-d8b48d981311","system_id":"levelo_inurba_marseille","lat":43.287185,"lon":5.379373,"is_reserved":false,"is_disabled":false,"rental_uris":{"android":"levelo://app?vid=7ce5dfed-ea3b-426b-9cb1-d8b48d981311","ios":"levelo://app?vid=7ce5dfed-ea3b-426b-9cb1-d8b48d981311"},"vehicle_type_id":"4","last_reported":1678536730,"current_range_meters":22800,"station_id":"ce4bh9p2rcd13ifvqec0","pricing_plan_id":"free"},{"bike_id":"283482ec-b1e6-4292-89f6-5c041a892a04","system_id":"levelo_inurba_marseille","lat":43.3164,"lon":5.40436,"is_reserved":false,"is_disabled":false,"rental_uris":{"android":"levelo://app?vid=283482ec-b1e6-4292-89f6-5c041a892a04","ios":"levelo://app?vid=283482ec-b1e6-4292-89f6-5c041a892a04"},"vehicle_type_id":"4","last_reported":1678536730,"current_range_meters":22400,"station_id":"ce4bh012rcd13ifvqd00","pricing_plan_id":"free"},{"bike_id":"32eb36f6-fc7f-49f0-8bee-57d3dc24fd57","system_id":"levelo_inurba_marseille","lat":43.31649,"lon":5.40435,"is_reserved":false,"is_disabled":false,"rental_uris":{"android":"levelo://app?vid=32eb36f6-fc7f-49f0-8bee-57d3dc24fd57","ios":"levelo://app?vid=32eb36f6-fc7f-49f0-8bee-57d3dc24fd57"},"vehicle_type_id":"4","last_reported":1678536730,"current_range_meters":25600,"station_id":"","pricing_plan_id":"free"},{"bike_id":"cbc93c51-c1c9-4219-9ddb-61e03cca6609","system_id":"levelo_inurba_marseille","lat":43.31646,"lon":5.40436,"is_reserved":false,"is_disabled":false,"rental_uris":{"android":"levelo://app?vid=cbc93c51-c1c9-4219-9ddb-61e03cca6609","ios":"levelo://app?vid=cbc93c51-c1c9-4219-9ddb-61e03cca6609"},"vehicle_type_id":"4","last_reported":1678536730,"current_range_meters":30400,"station_id":"ce4bh012rcd13ifvqd00","pricing_plan_id":"free"},{"bike_id":"7b92bdea-6312-43b4-8cc3-6bc1ef19fa7b","system_id":"levelo_inurba_marseille","lat":43.316523,"lon":5.404367,"is_reserved":false,"is_disabled":false,"rental_uris":{"android":"levelo://app?vid=7b92bdea-6312-43b4-8cc3-6bc1ef19fa7b","ios":"levelo://app?vid=7b92bdea-6312-43b4-8cc3-6bc1ef19fa7b"},"vehicle_type_id":"4","last_reported":1678536730,"current_range_meters":16800,"station_id":"ce4bh012rcd13ifvqd00","pricing_plan_id":"free"},{"bike_id":"3bf78909-ecd6-485d-a98a-77f03827e1cd","system_id":"levelo_inurba_marseille","lat":43.316523,"lon":5.404367,"is_reserved":false,"is_disabled":false,"rental_uris":{"android":"levelo://app?vid=3bf78909-ecd6-485d-a98a-77f03827e1cd","ios":"levelo://app?vid=3bf78909-ecd6-485d-a98a-77f03827e1cd"},"vehicle_type_id":"4","last_reported":1678536730,"current_range_meters":10400,"station_id":"ce4bh012rcd13ifvqd00","pricing_plan_id":"free"},{"bike_id":"18548ca3-7955-4c46-9ada-8068c4ac92dc","system_id":"levelo_inurba_marseille","lat":43.316523,"lon":5.404367,"is_reserved":false,"is_disabled":false,"rental_uris":{"android":"levelo://app?vid=18548ca3-7955-4c46-9ada-8068c4ac92dc","ios":"levelo://app?vid=18548ca3-7955-4c46-9ada-8068c4ac92dc"},"vehicle_type_id":"4","last_reported":1678536730,"current_range_meters":18800,"station_id":"ce4bh012rcd13ifvqd00","pricing_plan_id":"free"},{"bike_id":"42e013e0-5264-4743-b230-dbdbb9559369","system_id":"levelo_inurba_marseille","lat":43.28463,"lon":5.35894,"is_reserved":false,"is_disabled":false,"rental_uris":{"android":"levelo://app?vid=42e013e0-5264-4743-b230-dbdbb9559369","ios":"levelo://app?vid=42e013e0-5264-4743-b230-dbdbb9559369"},"vehicle_type_id":"4","last_reported":1678536730,"current_range_meters":11600,"station_id":"ce4bhah2rcd13ifvqei0","pricing_plan_id":"free"},{"bike_id":"76a4cc35-ad3b-473f-a524-6730c0055463","system_id":"levelo_inurba_marseille","lat":43.286595,"lon":5.386795,"is_reserved":false,"is_disabled":false,"rental_uris":{"android":"levelo://app?vid=76a4cc35-ad3b-473f-a524-6730c0055463","ios":"levelo://app?vid=76a4cc35-ad3b-473f-a524-6730c0055463"},"vehicle_type_id":"4","last_reported":1678536730,"current_range_meters":28800,"station_id":"ce4bh492rcd13ifvqdug","pricing_plan_id":"free"},{"bike_id":"071751a6-2257-4f47-b83d-6a49691737ea","system_id":"levelo_inurba_marseille","lat":43.337168,"lon":5.391825,"is_reserved":false,"is_disabled":false,"rental_uris":{"android":"levelo://app?vid=071751a6-2257-4f47-b83d-6a49691737ea","ios":"levelo://app?vid=071751a6-2257-4f47-b83d-6a49691737ea"},"vehicle_type_id":"4","last_reported":1678536730,"current_range_meters":21600,"station_id":"ce4bhr92rcd13ifvqhsg","pricing_plan_id":"free"},{"bike_id":"eb0f8dfa-4b5c-41b0-b9cc-aa168d8462bd","system_id":"levelo_inurba_marseille","lat":43.337168,"lon":5.391825,"is_reserved":false,"is_disabled":false,"rental_uris":{"android":"levelo://app?vid=eb0f8dfa-4b5c-41b0-b9cc-aa168d8462bd","ios":"levelo://app?vid=eb0f8dfa-4b5c-41b0-b9cc-aa168d8462bd"},"vehicle_type_id":"4","last_reported":1678536730,"current_range_meters":12800,"station_id":"ce4bhr92rcd13ifvqhsg","pricing_plan_id":"free"},{"bike_id":"14c1a253-7802-4bf4-89a4-59cedbb3ff53","system_id":"levelo_inurba_marseille","lat":43.33724,"lon":5.3918,"is_reserved":false,"is_disabled":false,"rental_uris":{"android":"levelo://app?vid=14c1a253-7802-4bf4-89a4-59cedbb3ff53","ios":"levelo://app?vid=14c1a253-7802-4bf4-89a4-59cedbb3ff53"},"vehicle_type_id":"4","last_reported":1678536730,"current_range_meters":25200,"station_id":"","pricing_plan_id":"free"},{"bike_id":"0974b96d-f8a5-42ee-ada1-9213f022573f","system_id":"levelo_inurba_marseille","lat":43.3234,"lon":5.40615,"is_reserved":false,"is_disabled":false,"rental_uris":{"android":"levelo://app?vid=0974b96d-f8a5-42ee-ada1-9213f022573f","ios":"levelo://app?vid=0974b96d-f8a5-42ee-ada1-9213f022573f"},"vehicle_type_id":"4","last_reported":1678536730,"current_range_meters":20000,"station_id":"ce4bhq92rcd13ifvqhjg","pricing_plan_id":"free"},{"bike_id":"995701c3-2b8b-495d-8f0d-dbebcafd0710","system_id":"levelo_inurba_marseille","lat":43.32333,"lon":5.4062,"is_reserved":false,"is_disabled":false,"rental_uris":{"android":"levelo://app?vid=995701c3-2b8b-495d-8f0d-dbebcafd0710","ios":"levelo://app?vid=995701c3-2b8b-495d-8f0d-dbebcafd0710"},"vehicle_type_id":"4","last_reported":1678536730,"current_range_meters":0,"station_id":"ce4bhq92rcd13ifvqhjg","pricing_plan_id":"free"},{"bike_id":"ddce5ccb-eb10-4d96-a83f-112dd0505594","system_id":"levelo_inurba_marseille","lat":43.33723,"lon":5.39186,"is_reserved":false,"is_disabled":false,"rental_uris":{"android":"levelo://app?vid=ddce5ccb-eb10-4d96-a83f-112dd0505594","ios":"levelo://app?vid=ddce5ccb-eb10-4d96-a83f-112dd0505594"},"vehicle_type_id":"4","last_reported":1678536730,"current_range_meters":28000,"station_id":"","pricing_plan_id":"free"},{"bike_id":"d785c86e-e1e7-4c76-b829-133eb38145c3","system_id":"levelo_inurba_marseille","lat":43.32337,"lon":5.40622,"is_reserved":false,"is_disabled":false,"rental_uris":{"android":"levelo://app?vid=d785c86e-e1e7-4c76-b829-133eb38145c3","ios":"levelo://app?vid=d785c86e-e1e7-4c76-b829-133eb38145c3"},"vehicle_type_id":"4","last_reported":1678536730,"current_range_meters":11600,"station_id":"","pricing_plan_id":"free"},{"bike_id":"1d5bb55c-f12b-407b-97e0-bd13dc0c305a","system_id":"levelo_inurba_marseille","lat":43.32339,"lon":5.40623,"is_reserved":false,"is_disabled":false,"rental_uris":{"android":"levelo://app?vid=1d5bb55c-f12b-407b-97e0-bd13dc0c305a","ios":"levelo://app?vid=1d5bb55c-f12b-407b-97e0-bd13dc0c305a"},"vehicle_type_id":"4","last_reported":1678536730,"current_range_meters":29600,"station_id":"ce4bhq92rcd13ifvqhjg","pricing_plan_id":"free"},{"bike_id":"2792f227-fcc6-488f-8a53-9a6313a2211c","system_id":"levelo_inurba_marseille","lat":43.33728,"lon":5.39186,"is_reserved":false,"is_disabled":false,"rental_uris":{"android":"levelo://app?vid=2792f227-fcc6-488f-8a53-9a6313a2211c","ios":"levelo://app?vid=2792f227-fcc6-488f-8a53-9a6313a2211c"},"vehicle_type_id":"4","last_reported":1678536730,"current_range_meters":21600,"station_id":"","pricing_plan_id":"free"},{"bike_id":"c70e6080-504d-495c-bd6d-9cce17b0b724","system_id":"levelo_inurba_marseille","lat":43.33717,"lon":5.391857,"is_reserved":false,"is_disabled":false,"rental_uris":{"android":"levelo://app?vid=c70e6080-504d-495c-bd6d-9cce17b0b724","ios":"levelo://app?vid=c70e6080-504d-495c-bd6d-9cce17b0b724"},"vehicle_type_id":"4","last_reported":1678536730,"current_range_meters":13200,"station_id":"ce4bhr92rcd13ifvqhsg","pricing_plan_id":"free"},{"bike_id":"99d42e2f-1279-49e5-a569-52cda2cf6225","system_id":"levelo_inurba_marseille","lat":43.284785,"lon":5.384066,"is_reserved":false,"is_disabled":false,"rental_uris":{"android":"levelo://app?vid=99d42e2f-1279-49e5-a569-52cda2cf6225","ios":"levelo://app?vid=99d42e2f-1279-49e5-a569-52cda2cf6225"},"vehicle_type_id":"4","last_reported":1678536730,"current_range_meters":0,"station_id":"","pricing_plan_id":"free"},{"bike_id":"f6ecc885-5119-4625-b330-db04a5966ee8","system_id":"levelo_inurba_marseille","lat":43.284845,"lon":5.384268,"is_reserved":false,"is_disabled":false,"rental_uris":{"android":"levelo://app?vid=f6ecc885-5119-4625-b330-db04a5966ee8","ios":"levelo://app?vid=f6ecc885-5119-4625-b330-db04a5966ee8"},"vehicle_type_id":"4","last_reported":1678536730,"current_range_meters":30400,"station_id":"ce4bh512rcd13ifvqe3g","pricing_plan_id":"free"},{"bike_id":"3b97dff0-10bd-408b-91ef-9f8771f80a14","system_id":"levelo_inurba_marseille","lat":43.28482,"lon":5.38424,"is_reserved":false,"is_disabled":false,"rental_uris":{"android":"levelo://app?vid=3b97dff0-10bd-408b-91ef-9f8771f80a14","ios":"levelo://app?vid=3b97dff0-10bd-408b-91ef-9f8771f80a14"},"vehicle_type_id":"4","last_reported":1678536730,"current_range_meters":30800,"station_id":"ce4bh512rcd13ifvqe3g","pricing_plan_id":"free"},{"bike_id":"487a0a8e-0023-4bdd-bbdf-769376f5879c","system_id":"levelo_inurba_marseille","lat":43.28846,"lon":5.39314,"is_reserved":false,"is_disabled":false,"rental_uris":{"android":"levelo://app?vid=487a0a8e-0023-4bdd-bbdf-769376f5879c","ios":"levelo://app?vid=487a0a8e-0023-4bdd-bbdf-769376f5879c"},"vehicle_type_id":"4","last_reported":1678536730,"current_range_meters":14800,"station_id":"ce4bh2p2rcd13ifvqdi0","pricing_plan_id":"free"},{"bike_id":"6056546e-03a1-48b1-93eb-927cddf43241","system_id":"levelo_inurba_marseille","lat":43.284219,"lon":5.3497,"is_reserved":false,"is_disabled":false,"rental_uris":{"android":"levelo://app?vid=6056546e-03a1-48b1-93eb-927cddf43241","ios":"levelo://app?vid=6056546e-03a1-48b1-93eb-927cddf43241"},"vehicle_type_id":"4","last_reported":1678536730,"current_range_meters":16000,"station_id":"ce4bhbh2rcd13ifvqepg","pricing_plan_id":"free"},{"bike_id":"3ffae3e4-f5fc-406d-8b42-8876d68270bf","system_id":"levelo_inurba_marseille","lat":43.28417,"lon":5.34982,"is_reserved":false,"is_disabled":false,"rental_uris":{"android":"levelo://app?vid=3ffae3e4-f5fc-406d-8b42-8876d68270bf","ios":"levelo://app?vid=3ffae3e4-f5fc-406d-8b42-8876d68270bf"},"vehicle_type_id":"4","last_reported":1678536730,"current_range_meters":12800,"station_id":"ce4bhbh2rcd13ifvqepg","pricing_plan_id":"free"},{"bike_id":"daf75cf7-8bc4-4fa2-ad6b-ed70c715578c","system_id":"levelo_inurba_marseille","lat":43.28419,"lon":5.34975,"is_reserved":false,"is_disabled":false,"rental_uris":{"android":"levelo://app?vid=daf75cf7-8bc4-4fa2-ad6b-ed70c715578c","ios":"levelo://app?vid=daf75cf7-8bc4-4fa2-ad6b-ed70c715578c"},"vehicle_type_id":"4","last_reported":1678536730,"current_range_meters":12400,"station_id":"ce4bhbh2rcd13ifvqepg","pricing_plan_id":"free"},{"bike_id":"17ced168-2670-4962-aab3-810a419b32f4","system_id":"levelo_inurba_marseille","lat":43.292724,"lon":5.401131,"is_reserved":false,"is_disabled":false,"rental_uris":{"android":"levelo://app?vid=17ced168-2670-4962-aab3-810a419b32f4","ios":"levelo://app?vid=17ced168-2670-4962-aab3-810a419b32f4"},"vehicle_type_id":"4","last_reported":1678536730,"current_range_meters":22000,"station_id":"ce4bh312rcd13ifvqdk0","pricing_plan_id":"free"},{"bike_id":"6499717f-01b3-41ca-8820-01c6e03cd219","system_id":"levelo_inurba_marseille","lat":43.283502,"lon":5.386471,"is_reserved":false,"is_disabled":false,"rental_uris":{"android":"levelo://app?vid=6499717f-01b3-41ca-8820-01c6e03cd219","ios":"levelo://app?vid=6499717f-01b3-41ca-8820-01c6e03cd219"},"vehicle_type_id":"4","last_reported":1678536730,"current_range_meters":26400,"station_id":"ce4bh492rcd13ifvqdvg","pricing_plan_id":"free"},{"bike_id":"997f5321-d720-49ad-8603-04298b3b2b2d","system_id":"levelo_inurba_marseille","lat":43.28356,"lon":5.38623,"is_reserved":false,"is_disabled":false,"rental_uris":{"android":"levelo://app?vid=997f5321-d720-49ad-8603-04298b3b2b2d","ios":"levelo://app?vid=997f5321-d720-49ad-8603-04298b3b2b2d"},"vehicle_type_id":"4","last_reported":1678536730,"current_range_meters":10000,"station_id":"ce4bh492rcd13ifvqdvg","pricing_plan_id":"free"},{"bike_id":"964596e6-796f-49b7-97cf-eeae0d4521b2","system_id":"levelo_inurba_marseille","lat":43.28039,"lon":5.369297,"is_reserved":false,"is_disabled":false,"rental_uris":{"android":"levelo://app?vid=964596e6-796f-49b7-97cf-eeae0d4521b2","ios":"levelo://app?vid=964596e6-796f-49b7-97cf-eeae0d4521b2"},"vehicle_type_id":"4","last_reported":1678536730,"current_range_meters":24400,"station_id":"ce4bha12rcd13ifvqef0","pricing_plan_id":"free"},{"bike_id":"8527549d-b655-4c8e-b7c1-e1b3d5c46407","system_id":"levelo_inurba_marseille","lat":43.28039,"lon":5.369297,"is_reserved":false,"is_disabled":false,"rental_uris":{"android":"levelo://app?vid=8527549d-b655-4c8e-b7c1-e1b3d5c46407","ios":"levelo://app?vid=8527549d-b655-4c8e-b7c1-e1b3d5c46407"},"vehicle_type_id":"4","last_reported":1678536730,"current_range_meters":26400,"station_id":"ce4bha12rcd13ifvqef0","pricing_plan_id":"free"},{"bike_id":"c1ca4845-b45b-4bf7-8a7d-a32ed7fdb275","system_id":"levelo_inurba_marseille","lat":43.280319,"lon":5.369382,"is_reserved":false,"is_disabled":false,"rental_uris":{"android":"levelo://app?vid=c1ca4845-b45b-4bf7-8a7d-a32ed7fdb275","ios":"levelo://app?vid=c1ca4845-b45b-4bf7-8a7d-a32ed7fdb275"},"vehicle_type_id":"4","last_reported":1678536730,"current_range_meters":0,"station_id":"ce4bha12rcd13ifvqef0","pricing_plan_id":"free"},{"bike_id":"1ba49abd-6c0e-4e08-8291-6024bf9b4204","system_id":"levelo_inurba_marseille","lat":43.281044,"lon":5.378308,"is_reserved":false,"is_disabled":false,"rental_uris":{"android":"levelo://app?vid=1ba49abd-6c0e-4e08-8291-6024bf9b4204","ios":"levelo://app?vid=1ba49abd-6c0e-4e08-8291-6024bf9b4204"},"vehicle_type_id":"4","last_reported":1678536730,"current_range_meters":18800,"station_id":"ce4bha12rcd13ifvqee0","pricing_plan_id":"free"},{"bike_id":"dd009eab-93ac-4c41-951b-45c78eb95178","system_id":"levelo_inurba_marseille","lat":43.296336,"lon":5.405993,"is_reserved":false,"is_disabled":false,"rental_uris":{"android":"levelo://app?vid=dd009eab-93ac-4c41-951b-45c78eb95178","ios":"levelo://app?vid=dd009eab-93ac-4c41-951b-45c78eb95178"},"vehicle_type_id":"4","last_reported":1678536730,"current_range_meters":0,"station_id":"ce4bh0h2rcd13ifvqd60","pricing_plan_id":"free"},{"bike_id":"8d12b854-4818-4ccc-b9f3-b49e3f704aa9","system_id":"levelo_inurba_marseille","lat":43.281044,"lon":5.378308,"is_reserved":false,"is_disabled":false,"rental_uris":{"android":"levelo://app?vid=8d12b854-4818-4ccc-b9f3-b49e3f704aa9","ios":"levelo://app?vid=8d12b854-4818-4ccc-b9f3-b49e3f704aa9"},"vehicle_type_id":"4","last_reported":1678536730,"current_range_meters":18400,"station_id":"ce4bha12rcd13ifvqee0","pricing_plan_id":"free"},{"bike_id":"4e2a01af-69b0-4673-acc9-3ad41c318b96","system_id":"levelo_inurba_marseille","lat":43.284462,"lon":5.392121,"is_reserved":false,"is_disabled":false,"rental_uris":{"android":"levelo://app?vid=4e2a01af-69b0-4673-acc9-3ad41c318b96","ios":"levelo://app?vid=4e2a01af-69b0-4673-acc9-3ad41c318b96"},"vehicle_type_id":"4","last_reported":1678536730,"current_range_meters":800,"station_id":"ce4bhoh2rcd13ifvqh5g","pricing_plan_id":"free"},{"bike_id":"5c0b2d75-5e1a-4148-ac2a-7ce2d556aacc","system_id":"levelo_inurba_marseille","lat":43.304188,"lon":5.412904,"is_reserved":false,"is_disabled":false,"rental_uris":{"android":"levelo://app?vid=5c0b2d75-5e1a-4148-ac2a-7ce2d556aacc","ios":"levelo://app?vid=5c0b2d75-5e1a-4148-ac2a-7ce2d556aacc"},"vehicle_type_id":"4","last_reported":1678536730,"current_range_meters":16000,"station_id":"ce4bhop2rcd13ifvqh8g","pricing_plan_id":"free"},{"bike_id":"e736322b-db1a-4bd8-bea1-662a7464c523","system_id":"levelo_inurba_marseille","lat":43.28639,"lon":5.39954,"is_reserved":false,"is_disabled":false,"rental_uris":{"android":"levelo://app?vid=e736322b-db1a-4bd8-bea1-662a7464c523","ios":"levelo://app?vid=e736322b-db1a-4bd8-bea1-662a7464c523"},"vehicle_type_id":"4","last_reported":1678536730,"current_range_meters":0,"station_id":"","pricing_plan_id":"free"},{"bike_id":"df4a81a4-37e8-4919-b4bb-43b707b4858b","system_id":"levelo_inurba_marseille","lat":43.279742,"lon":5.38744,"is_reserved":false,"is_disabled":false,"rental_uris":{"android":"levelo://app?vid=df4a81a4-37e8-4919-b4bb-43b707b4858b","ios":"levelo://app?vid=df4a81a4-37e8-4919-b4bb-43b707b4858b"},"vehicle_type_id":"4","last_reported":1678536730,"current_range_meters":21600,"station_id":"ce4bhg12rcd13ifvqf80","pricing_plan_id":"free"},{"bike_id":"da04ac92-18fc-476a-a012-cbd66016134a","system_id":"levelo_inurba_marseille","lat":43.320045,"lon":5.415048,"is_reserved":false,"is_disabled":false,"rental_uris":{"android":"levelo://app?vid=da04ac92-18fc-476a-a012-cbd66016134a","ios":"levelo://app?vid=da04ac92-18fc-476a-a012-cbd66016134a"},"vehicle_type_id":"4","last_reported":1678536730,"current_range_meters":12400,"station_id":"ce4bhq92rcd13ifvqhkg","pricing_plan_id":"free"},{"bike_id":"34b308b3-32ae-404e-91af-dcf6ed24c48a","system_id":"levelo_inurba_marseille","lat":43.32051,"lon":5.415475,"is_reserved":false,"is_disabled":false,"rental_uris":{"android":"levelo://app?vid=34b308b3-32ae-404e-91af-dcf6ed24c48a","ios":"levelo://app?vid=34b308b3-32ae-404e-91af-dcf6ed24c48a"},"vehicle_type_id":"4","last_reported":1678536730,"current_range_meters":26800,"station_id":"","pricing_plan_id":"free"},{"bike_id":"e64ad358-e5aa-4a14-8c99-ee399b127c64","system_id":"levelo_inurba_marseille","lat":43.279742,"lon":5.38744,"is_reserved":false,"is_disabled":false,"rental_uris":{"android":"levelo://app?vid=e64ad358-e5aa-4a14-8c99-ee399b127c64","ios":"levelo://app?vid=e64ad358-e5aa-4a14-8c99-ee399b127c64"},"vehicle_type_id":"4","last_reported":1678536730,"current_range_meters":7600,"station_id":"ce4bhg12rcd13ifvqf80","pricing_plan_id":"free"},{"bike_id":"255d0725-94bb-4926-ab37-5624f7c2462f","system_id":"levelo_inurba_marseille","lat":43.279742,"lon":5.38744,"is_reserved":false,"is_disabled":false,"rental_uris":{"android":"levelo://app?vid=255d0725-94bb-4926-ab37-5624f7c2462f","ios":"levelo://app?vid=255d0725-94bb-4926-ab37-5624f7c2462f"},"vehicle_type_id":"4","last_reported":1678536730,"current_range_meters":9200,"station_id":"ce4bhg12rcd13ifvqf80","pricing_plan_id":"free"},{"bike_id":"b24e5970-b27c-4bb6-9a83-80053acafd03","system_id":"levelo_inurba_marseille","lat":43.32035,"lon":5.41566,"is_reserved":false,"is_disabled":false,"rental_uris":{"android":"levelo://app?vid=b24e5970-b27c-4bb6-9a83-80053acafd03","ios":"levelo://app?vid=b24e5970-b27c-4bb6-9a83-80053acafd03"},"vehicle_type_id":"4","last_reported":1678536730,"current_range_meters":14800,"station_id":"","pricing_plan_id":"free"},{"bike_id":"052ae13e-c844-477d-aef2-413fd8c9e237","system_id":"levelo_inurba_marseille","lat":43.32031,"lon":5.41574,"is_reserved":false,"is_disabled":false,"rental_uris":{"android":"levelo://app?vid=052ae13e-c844-477d-aef2-413fd8c9e237","ios":"levelo://app?vid=052ae13e-c844-477d-aef2-413fd8c9e237"},"vehicle_type_id":"4","last_reported":1678536730,"current_range_meters":3600,"station_id":"","pricing_plan_id":"free"},{"bike_id":"70cb8a8e-af2b-4d72-8fe1-3f837ad15eef","system_id":"levelo_inurba_marseille","lat":43.2926,"lon":5.40899,"is_reserved":false,"is_disabled":false,"rental_uris":{"android":"levelo://app?vid=70cb8a8e-af2b-4d72-8fe1-3f837ad15eef","ios":"levelo://app?vid=70cb8a8e-af2b-4d72-8fe1-3f837ad15eef"},"vehicle_type_id":"4","last_reported":1678536730,"current_range_meters":0,"station_id":"ce4bh192rcd13ifvqdc0","pricing_plan_id":"free"},{"bike_id":"60156e3d-cb07-47eb-b039-a442f47c7f7d","system_id":"levelo_inurba_marseille","lat":43.29263,"lon":5.4091,"is_reserved":false,"is_disabled":false,"rental_uris":{"android":"levelo://app?vid=60156e3d-cb07-47eb-b039-a442f47c7f7d","ios":"levelo://app?vid=60156e3d-cb07-47eb-b039-a442f47c7f7d"},"vehicle_type_id":"4","last_reported":1678536730,"current_range_meters":18400,"station_id":"","pricing_plan_id":"free"},{"bike_id":"ea558036-0470-4abb-a6e6-03abca5ed19f","system_id":"levelo_inurba_marseille","lat":43.276181,"lon":5.361136,"is_reserved":false,"is_disabled":false,"rental_uris":{"android":"levelo://app?vid=ea558036-0470-4abb-a6e6-03abca5ed19f","ios":"levelo://app?vid=ea558036-0470-4abb-a6e6-03abca5ed19f"},"vehicle_type_id":"4","last_reported":1678536730,"current_range_meters":0,"station_id":"ce4bgj92rcd13ifvqbe0","pricing_plan_id":"free"},{"bike_id":"0dfe86b4-44a9-456e-b0d6-8d83b6507a56","system_id":"levelo_inurba_marseille","lat":43.276769,"lon":5.388787,"is_reserved":false,"is_disabled":false,"rental_uris":{"android":"levelo://app?vid=0dfe86b4-44a9-456e-b0d6-8d83b6507a56","ios":"levelo://app?vid=0dfe86b4-44a9-456e-b0d6-8d83b6507a56"},"vehicle_type_id":"4","last_reported":1678536730,"current_range_meters":17600,"station_id":"ce4bhi12rcd13ifvqfo0","pricing_plan_id":"free"},{"bike_id":"ed5576f5-54e1-4c87-a117-ce724030ce15","system_id":"levelo_inurba_marseille","lat":43.280784,"lon":5.396622,"is_reserved":false,"is_disabled":false,"rental_uris":{"android":"levelo://app?vid=ed5576f5-54e1-4c87-a117-ce724030ce15","ios":"levelo://app?vid=ed5576f5-54e1-4c87-a117-ce724030ce15"},"vehicle_type_id":"4","last_reported":1678536730,"current_range_meters":8800,"station_id":"ce4bho12rcd13ifvqh2g","pricing_plan_id":"free"},{"bike_id":"d8ee8fb5-0f04-44b2-a85e-67decd8c0010","system_id":"levelo_inurba_marseille","lat":43.33601,"lon":5.41027,"is_reserved":false,"is_disabled":false,"rental_uris":{"android":"levelo://app?vid=d8ee8fb5-0f04-44b2-a85e-67decd8c0010","ios":"levelo://app?vid=d8ee8fb5-0f04-44b2-a85e-67decd8c0010"},"vehicle_type_id":"4","last_reported":1678536730,"current_range_meters":20000,"station_id":"","pricing_plan_id":"free"},{"bike_id":"38c37469-31e6-40d7-9411-226a991d8970","system_id":"levelo_inurba_marseille","lat":43.33612,"lon":5.410321,"is_reserved":false,"is_disabled":false,"rental_uris":{"android":"levelo://app?vid=38c37469-31e6-40d7-9411-226a991d8970","ios":"levelo://app?vid=38c37469-31e6-40d7-9411-226a991d8970"},"vehicle_type_id":"4","last_reported":1678536730,"current_range_meters":19200,"station_id":"ce4bhqh2rcd13ifvqhmg","pricing_plan_id":"free"},{"bike_id":"a20cba49-58f9-4687-9ed5-a5b8e69d2fbe","system_id":"levelo_inurba_marseille","lat":43.33612,"lon":5.410321,"is_reserved":false,"is_disabled":false,"rental_uris":{"android":"levelo://app?vid=a20cba49-58f9-4687-9ed5-a5b8e69d2fbe","ios":"levelo://app?vid=a20cba49-58f9-4687-9ed5-a5b8e69d2fbe"},"vehicle_type_id":"4","last_reported":1678536730,"current_range_meters":28400,"station_id":"ce4bhqh2rcd13ifvqhmg","pricing_plan_id":"free"},{"bike_id":"d0dbd069-bf22-4df8-b15c-1f2f60538f33","system_id":"levelo_inurba_marseille","lat":43.33612,"lon":5.410321,"is_reserved":false,"is_disabled":false,"rental_uris":{"android":"levelo://app?vid=d0dbd069-bf22-4df8-b15c-1f2f60538f33","ios":"levelo://app?vid=d0dbd069-bf22-4df8-b15c-1f2f60538f33"},"vehicle_type_id":"4","last_reported":1678536730,"current_range_meters":16800,"station_id":"ce4bhqh2rcd13ifvqhmg","pricing_plan_id":"free"},{"bike_id":"a048064c-fef9-4616-af3e-1124450e4e07","system_id":"levelo_inurba_marseille","lat":43.33612,"lon":5.410321,"is_reserved":false,"is_disabled":false,"rental_uris":{"android":"levelo://app?vid=a048064c-fef9-4616-af3e-1124450e4e07","ios":"levelo://app?vid=a048064c-fef9-4616-af3e-1124450e4e07"},"vehicle_type_id":"4","last_reported":1678536730,"current_range_meters":5200,"station_id":"ce4bhqh2rcd13ifvqhmg","pricing_plan_id":"free"},{"bike_id":"720320c0-03db-40f5-8299-6481008059a9","system_id":"levelo_inurba_marseille","lat":43.33612,"lon":5.410321,"is_reserved":false,"is_disabled":false,"rental_uris":{"android":"levelo://app?vid=720320c0-03db-40f5-8299-6481008059a9","ios":"levelo://app?vid=720320c0-03db-40f5-8299-6481008059a9"},"vehicle_type_id":"4","last_reported":1678536730,"current_range_meters":18800,"station_id":"ce4bhqh2rcd13ifvqhmg","pricing_plan_id":"free"},{"bike_id":"4321ece3-93bb-430d-a40d-c8319fcf3b50","system_id":"levelo_inurba_marseille","lat":43.33612,"lon":5.410321,"is_reserved":false,"is_disabled":false,"rental_uris":{"android":"levelo://app?vid=4321ece3-93bb-430d-a40d-c8319fcf3b50","ios":"levelo://app?vid=4321ece3-93bb-430d-a40d-c8319fcf3b50"},"vehicle_type_id":"4","last_reported":1678536730,"current_range_meters":21200,"station_id":"ce4bhqh2rcd13ifvqhmg","pricing_plan_id":"free"},{"bike_id":"c7ad8842-50a7-4a27-b618-0315e027bde1","system_id":"levelo_inurba_marseille","lat":43.33612,"lon":5.410321,"is_reserved":false,"is_disabled":false,"rental_uris":{"android":"levelo://app?vid=c7ad8842-50a7-4a27-b618-0315e027bde1","ios":"levelo://app?vid=c7ad8842-50a7-4a27-b618-0315e027bde1"},"vehicle_type_id":"4","last_reported":1678536730,"current_range_meters":20800,"station_id":"ce4bhqh2rcd13ifvqhmg","pricing_plan_id":"free"},{"bike_id":"158fed6d-3fb3-4498-bc5c-d8bd8648f33d","system_id":"levelo_inurba_marseille","lat":43.33612,"lon":5.410321,"is_reserved":false,"is_disabled":false,"rental_uris":{"android":"levelo://app?vid=158fed6d-3fb3-4498-bc5c-d8bd8648f33d","ios":"levelo://app?vid=158fed6d-3fb3-4498-bc5c-d8bd8648f33d"},"vehicle_type_id":"4","last_reported":1678536730,"current_range_meters":12800,"station_id":"ce4bhqh2rcd13ifvqhmg","pricing_plan_id":"free"},{"bike_id":"ea9082ca-9453-4eee-ba32-5187a8e8d3c2","system_id":"levelo_inurba_marseille","lat":43.33612,"lon":5.410321,"is_reserved":false,"is_disabled":false,"rental_uris":{"android":"levelo://app?vid=ea9082ca-9453-4eee-ba32-5187a8e8d3c2","ios":"levelo://app?vid=ea9082ca-9453-4eee-ba32-5187a8e8d3c2"},"vehicle_type_id":"4","last_reported":1678536730,"current_range_meters":26800,"station_id":"ce4bhqh2rcd13ifvqhmg","pricing_plan_id":"free"},{"bike_id":"1b309ee4-ceb0-46a3-8204-772636d1bbc6","system_id":"levelo_inurba_marseille","lat":43.336108,"lon":5.410333,"is_reserved":false,"is_disabled":false,"rental_uris":{"android":"levelo://app?vid=1b309ee4-ceb0-46a3-8204-772636d1bbc6","ios":"levelo://app?vid=1b309ee4-ceb0-46a3-8204-772636d1bbc6"},"vehicle_type_id":"4","last_reported":1678536730,"current_range_meters":26800,"station_id":"","pricing_plan_id":"free"},{"bike_id":"1c3af238-63df-48fd-997c-c975a469668c","system_id":"levelo_inurba_marseille","lat":43.33612,"lon":5.410321,"is_reserved":false,"is_disabled":false,"rental_uris":{"android":"levelo://app?vid=1c3af238-63df-48fd-997c-c975a469668c","ios":"levelo://app?vid=1c3af238-63df-48fd-997c-c975a469668c"},"vehicle_type_id":"4","last_reported":1678536730,"current_range_meters":19200,"station_id":"ce4bhqh2rcd13ifvqhmg","pricing_plan_id":"free"},{"bike_id":"ac1df83b-02e6-4c35-bc0e-9c1eb295d3f5","system_id":"levelo_inurba_marseille","lat":43.33612,"lon":5.410321,"is_reserved":false,"is_disabled":false,"rental_uris":{"android":"levelo://app?vid=ac1df83b-02e6-4c35-bc0e-9c1eb295d3f5","ios":"levelo://app?vid=ac1df83b-02e6-4c35-bc0e-9c1eb295d3f5"},"vehicle_type_id":"4","last_reported":1678536730,"current_range_meters":10400,"station_id":"ce4bhqh2rcd13ifvqhmg","pricing_plan_id":"free"},{"bike_id":"3b3e8885-1cd6-44a2-9ee0-00299430e00f","system_id":"levelo_inurba_marseille","lat":43.33612,"lon":5.410321,"is_reserved":false,"is_disabled":false,"rental_uris":{"android":"levelo://app?vid=3b3e8885-1cd6-44a2-9ee0-00299430e00f","ios":"levelo://app?vid=3b3e8885-1cd6-44a2-9ee0-00299430e00f"},"vehicle_type_id":"4","last_reported":1678536730,"current_range_meters":4000,"station_id":"ce4bhqh2rcd13ifvqhmg","pricing_plan_id":"free"},{"bike_id":"f36742c3-7699-4511-a39c-5c2c40c0f934","system_id":"levelo_inurba_marseille","lat":43.317121,"lon":5.423936,"is_reserved":false,"is_disabled":false,"rental_uris":{"android":"levelo://app?vid=f36742c3-7699-4511-a39c-5c2c40c0f934","ios":"levelo://app?vid=f36742c3-7699-4511-a39c-5c2c40c0f934"},"vehicle_type_id":"4","last_reported":1678536730,"current_range_meters":27200,"station_id":"ce4bhp92rcd13ifvqhbg","pricing_plan_id":"free"},{"bike_id":"6e7e6b58-27e8-42c5-a438-4508638380dc","system_id":"levelo_inurba_marseille","lat":43.317121,"lon":5.423936,"is_reserved":false,"is_disabled":false,"rental_uris":{"android":"levelo://app?vid=6e7e6b58-27e8-42c5-a438-4508638380dc","ios":"levelo://app?vid=6e7e6b58-27e8-42c5-a438-4508638380dc"},"vehicle_type_id":"4","last_reported":1678536730,"current_range_meters":27200,"station_id":"ce4bhp92rcd13ifvqhbg","pricing_plan_id":"free"},{"bike_id":"9ac8d4da-2756-4d73-8e59-8a17440fc647","system_id":"levelo_inurba_marseille","lat":43.310785,"lon":5.424305,"is_reserved":false,"is_disabled":false,"rental_uris":{"android":"levelo://app?vid=9ac8d4da-2756-4d73-8e59-8a17440fc647","ios":"levelo://app?vid=9ac8d4da-2756-4d73-8e59-8a17440fc647"},"vehicle_type_id":"4","last_reported":1678536730,"current_range_meters":27600,"station_id":"ce4bhp92rcd13ifvqhag","pricing_plan_id":"free"},{"bike_id":"6b716ed4-39e6-468a-aaaf-f199036f7628","system_id":"levelo_inurba_marseille","lat":43.30478,"lon":5.42385,"is_reserved":false,"is_disabled":false,"rental_uris":{"android":"levelo://app?vid=6b716ed4-39e6-468a-aaaf-f199036f7628","ios":"levelo://app?vid=6b716ed4-39e6-468a-aaaf-f199036f7628"},"vehicle_type_id":"4","last_reported":1678536730,"current_range_meters":0,"station_id":"","pricing_plan_id":"free"},{"bike_id":"29a7d2b7-056f-40c1-9c70-eae338aa679d","system_id":"levelo_inurba_marseille","lat":43.304096,"lon":5.425385,"is_reserved":false,"is_disabled":false,"rental_uris":{"android":"levelo://app?vid=29a7d2b7-056f-40c1-9c70-eae338aa679d","ios":"levelo://app?vid=29a7d2b7-056f-40c1-9c70-eae338aa679d"},"vehicle_type_id":"4","last_reported":1678536730,"current_range_meters":29200,"station_id":"ce4bhoh2rcd13ifvqh6g","pricing_plan_id":"free"},{"bike_id":"ca41141c-428a-448a-9eb3-4138743112ff","system_id":"levelo_inurba_marseille","lat":43.304096,"lon":5.425385,"is_reserved":false,"is_disabled":false,"rental_uris":{"android":"levelo://app?vid=ca41141c-428a-448a-9eb3-4138743112ff","ios":"levelo://app?vid=ca41141c-428a-448a-9eb3-4138743112ff"},"vehicle_type_id":"4","last_reported":1678536730,"current_range_meters":11200,"station_id":"ce4bhoh2rcd13ifvqh6g","pricing_plan_id":"free"},{"bike_id":"020eba2f-d1a4-4d45-824e-0f34fcc7b33f","system_id":"levelo_inurba_marseille","lat":43.304212,"lon":5.425682,"is_reserved":false,"is_disabled":false,"rental_uris":{"android":"levelo://app?vid=020eba2f-d1a4-4d45-824e-0f34fcc7b33f","ios":"levelo://app?vid=020eba2f-d1a4-4d45-824e-0f34fcc7b33f"},"vehicle_type_id":"4","last_reported":1678536730,"current_range_meters":0,"station_id":"","pricing_plan_id":"free"},{"bike_id":"051167c5-ba34-4bb2-b82a-ee76985d3c8f","system_id":"levelo_inurba_marseille","lat":43.295523,"lon":5.422926,"is_reserved":false,"is_disabled":false,"rental_uris":{"android":"levelo://app?vid=051167c5-ba34-4bb2-b82a-ee76985d3c8f","ios":"levelo://app?vid=051167c5-ba34-4bb2-b82a-ee76985d3c8f"},"vehicle_type_id":"4","last_reported":1678536730,"current_range_meters":0,"station_id":"ce4bhph2rcd13ifvqhdg","pricing_plan_id":"free"},{"bike_id":"a43fbd8a-3fac-479e-b65c-e95e23f56547","system_id":"levelo_inurba_marseille","lat":43.295523,"lon":5.422926,"is_reserved":false,"is_disabled":false,"rental_uris":{"android":"levelo://app?vid=a43fbd8a-3fac-479e-b65c-e95e23f56547","ios":"levelo://app?vid=a43fbd8a-3fac-479e-b65c-e95e23f56547"},"vehicle_type_id":"4","last_reported":1678536730,"current_range_meters":19200,"station_id":"ce4bhph2rcd13ifvqhdg","pricing_plan_id":"free"},{"bike_id":"f0974979-75c2-4edc-8fb3-298cc4591aca","system_id":"levelo_inurba_marseille","lat":43.29556,"lon":5.42296,"is_reserved":false,"is_disabled":false,"rental_uris":{"android":"levelo://app?vid=f0974979-75c2-4edc-8fb3-298cc4591aca","ios":"levelo://app?vid=f0974979-75c2-4edc-8fb3-298cc4591aca"},"vehicle_type_id":"4","last_reported":1678536730,"current_range_meters":19600,"station_id":"ce4bhph2rcd13ifvqhdg","pricing_plan_id":"free"},{"bike_id":"99ffe0cd-6a66-4328-ba5e-ce2a93d1a56d","system_id":"levelo_inurba_marseille","lat":43.272124,"lon":5.391768,"is_reserved":false,"is_disabled":false,"rental_uris":{"android":"levelo://app?vid=99ffe0cd-6a66-4328-ba5e-ce2a93d1a56d","ios":"levelo://app?vid=99ffe0cd-6a66-4328-ba5e-ce2a93d1a56d"},"vehicle_type_id":"4","last_reported":1678536730,"current_range_meters":22800,"station_id":"ce4bhhp2rcd13ifvqfm0","pricing_plan_id":"free"},{"bike_id":"f331f8fc-db34-412d-8452-3d7fbe8a7fd6","system_id":"levelo_inurba_marseille","lat":43.27204,"lon":5.39182,"is_reserved":false,"is_disabled":false,"rental_uris":{"android":"levelo://app?vid=f331f8fc-db34-412d-8452-3d7fbe8a7fd6","ios":"levelo://app?vid=f331f8fc-db34-412d-8452-3d7fbe8a7fd6"},"vehicle_type_id":"4","last_reported":1678536730,"current_range_meters":14800,"station_id":"ce4bhhp2rcd13ifvqfm0","pricing_plan_id":"free"},{"bike_id":"1bd1e3ab-933b-4f9b-ae8d-9747928e8f77","system_id":"levelo_inurba_marseille","lat":43.278128,"lon":5.407195,"is_reserved":false,"is_disabled":false,"rental_uris":{"android":"levelo://app?vid=1bd1e3ab-933b-4f9b-ae8d-9747928e8f77","ios":"levelo://app?vid=1bd1e3ab-933b-4f9b-ae8d-9747928e8f77"},"vehicle_type_id":"4","last_reported":1678536730,"current_range_meters":18000,"station_id":"ce4bhnh2rcd13ifvqgtg","pricing_plan_id":"free"},{"bike_id":"92176464-5367-431a-a01f-4d5d3673564c","system_id":"levelo_inurba_marseille","lat":43.279975,"lon":5.416585,"is_reserved":false,"is_disabled":false,"rental_uris":{"android":"levelo://app?vid=92176464-5367-431a-a01f-4d5d3673564c","ios":"levelo://app?vid=92176464-5367-431a-a01f-4d5d3673564c"},"vehicle_type_id":"4","last_reported":1678536730,"current_range_meters":10800,"station_id":"ce4bho12rcd13ifvqh1g","pricing_plan_id":"free"},{"bike_id":"54c88593-7742-4767-b2d9-a0c42c4fd895","system_id":"levelo_inurba_marseille","lat":43.27996,"lon":5.416624,"is_reserved":false,"is_disabled":false,"rental_uris":{"android":"levelo://app?vid=54c88593-7742-4767-b2d9-a0c42c4fd895","ios":"levelo://app?vid=54c88593-7742-4767-b2d9-a0c42c4fd895"},"vehicle_type_id":"4","last_reported":1678536730,"current_range_meters":12800,"station_id":"ce4bho12rcd13ifvqh1g","pricing_plan_id":"free"},{"bike_id":"ad8c6bc9-3ade-42d8-b288-4df625e05f33","system_id":"levelo_inurba_marseille","lat":43.27995,"lon":5.41663,"is_reserved":false,"is_disabled":false,"rental_uris":{"android":"levelo://app?vid=ad8c6bc9-3ade-42d8-b288-4df625e05f33","ios":"levelo://app?vid=ad8c6bc9-3ade-42d8-b288-4df625e05f33"},"vehicle_type_id":"4","last_reported":1678536730,"current_range_meters":19200,"station_id":"ce4bho12rcd13ifvqh1g","pricing_plan_id":"free"},{"bike_id":"ca7c7279-5c91-42b4-bcc2-9a910d765699","system_id":"levelo_inurba_marseille","lat":43.279917,"lon":5.41661,"is_reserved":false,"is_disabled":false,"rental_uris":{"android":"levelo://app?vid=ca7c7279-5c91-42b4-bcc2-9a910d765699","ios":"levelo://app?vid=ca7c7279-5c91-42b4-bcc2-9a910d765699"},"vehicle_type_id":"4","last_reported":1678536730,"current_range_meters":28000,"station_id":"ce4bho12rcd13ifvqh1g","pricing_plan_id":"free"},{"bike_id":"8d6a0678-fae1-4b04-82a8-71f2ba7075df","system_id":"levelo_inurba_marseille","lat":43.27993,"lon":5.41665,"is_reserved":false,"is_disabled":false,"rental_uris":{"android":"levelo://app?vid=8d6a0678-fae1-4b04-82a8-71f2ba7075df","ios":"levelo://app?vid=8d6a0678-fae1-4b04-82a8-71f2ba7075df"},"vehicle_type_id":"4","last_reported":1678536730,"current_range_meters":20800,"station_id":"ce4bho12rcd13ifvqh1g","pricing_plan_id":"free"},{"bike_id":"aed38e0a-d1d2-465e-928f-b5dce85164ae","system_id":"levelo_inurba_marseille","lat":43.27996,"lon":5.416624,"is_reserved":false,"is_disabled":false,"rental_uris":{"android":"levelo://app?vid=aed38e0a-d1d2-465e-928f-b5dce85164ae","ios":"levelo://app?vid=aed38e0a-d1d2-465e-928f-b5dce85164ae"},"vehicle_type_id":"4","last_reported":1678536730,"current_range_meters":0,"station_id":"ce4bho12rcd13ifvqh1g","pricing_plan_id":"free"},{"bike_id":"33207781-6c61-4197-8522-19ef4bb232ce","system_id":"levelo_inurba_marseille","lat":43.265569,"lon":5.390047,"is_reserved":false,"is_disabled":false,"rental_uris":{"android":"levelo://app?vid=33207781-6c61-4197-8522-19ef4bb232ce","ios":"levelo://app?vid=33207781-6c61-4197-8522-19ef4bb232ce"},"vehicle_type_id":"4","last_reported":1678536730,"current_range_meters":13200,"station_id":"ce4bhe12rcd13ifvqf30","pricing_plan_id":"free"},{"bike_id":"1c247f54-df23-4092-a981-e67c771b1809","system_id":"levelo_inurba_marseille","lat":43.265571,"lon":5.390032,"is_reserved":false,"is_disabled":false,"rental_uris":{"android":"levelo://app?vid=1c247f54-df23-4092-a981-e67c771b1809","ios":"levelo://app?vid=1c247f54-df23-4092-a981-e67c771b1809"},"vehicle_type_id":"4","last_reported":1678536730,"current_range_meters":12800,"station_id":"ce4bhe12rcd13ifvqf30","pricing_plan_id":"free"},{"bike_id":"864342e9-b56b-43da-bd74-bbcd64566bd3","system_id":"levelo_inurba_marseille","lat":43.265569,"lon":5.390047,"is_reserved":false,"is_disabled":false,"rental_uris":{"android":"levelo://app?vid=864342e9-b56b-43da-bd74-bbcd64566bd3","ios":"levelo://app?vid=864342e9-b56b-43da-bd74-bbcd64566bd3"},"vehicle_type_id":"4","last_reported":1678536730,"current_range_meters":14400,"station_id":"ce4bhe12rcd13ifvqf30","pricing_plan_id":"free"},{"bike_id":"f0c96435-7762-47ab-9c09-ba3e60fe1668","system_id":"levelo_inurba_marseille","lat":43.265605,"lon":5.390115,"is_reserved":false,"is_disabled":false,"rental_uris":{"android":"levelo://app?vid=f0c96435-7762-47ab-9c09-ba3e60fe1668","ios":"levelo://app?vid=f0c96435-7762-47ab-9c09-ba3e60fe1668"},"vehicle_type_id":"4","last_reported":1678536730,"current_range_meters":30400,"station_id":"ce4bhe12rcd13ifvqf30","pricing_plan_id":"free"},{"bike_id":"760eea57-8ccd-4e8c-98ca-f54d60157ac9","system_id":"levelo_inurba_marseille","lat":43.283502,"lon":5.386471,"is_reserved":false,"is_disabled":false,"rental_uris":{"android":"levelo://app?vid=760eea57-8ccd-4e8c-98ca-f54d60157ac9","ios":"levelo://app?vid=760eea57-8ccd-4e8c-98ca-f54d60157ac9"},"vehicle_type_id":"4","last_reported":1678536730,"current_range_meters":22400,"station_id":"ce4bh492rcd13ifvqdvg","pricing_plan_id":"free"},{"bike_id":"8643a9b2-b5a7-4905-a374-9bf5c01457b6","system_id":"levelo_inurba_marseille","lat":43.261782,"lon":5.374515,"is_reserved":false,"is_disabled":false,"rental_uris":{"android":"levelo://app?vid=8643a9b2-b5a7-4905-a374-9bf5c01457b6","ios":"levelo://app?vid=8643a9b2-b5a7-4905-a374-9bf5c01457b6"},"vehicle_type_id":"4","last_reported":1678536730,"current_range_meters":4000,"station_id":"ce4bhgp2rcd13ifvqfc0","pricing_plan_id":"free"},{"bike_id":"a4fb5187-904a-4823-8a3b-b59100740450","system_id":"levelo_inurba_marseille","lat":43.261782,"lon":5.374515,"is_reserved":false,"is_disabled":false,"rental_uris":{"android":"levelo://app?vid=a4fb5187-904a-4823-8a3b-b59100740450","ios":"levelo://app?vid=a4fb5187-904a-4823-8a3b-b59100740450"},"vehicle_type_id":"4","last_reported":1678536730,"current_range_meters":31600,"station_id":"ce4bhgp2rcd13ifvqfc0","pricing_plan_id":"free"},{"bike_id":"ae4209b5-e24f-44c3-993e-78ee8189545b","system_id":"levelo_inurba_marseille","lat":43.317104,"lon":5.436818,"is_reserved":false,"is_disabled":false,"rental_uris":{"android":"levelo://app?vid=ae4209b5-e24f-44c3-993e-78ee8189545b","ios":"levelo://app?vid=ae4209b5-e24f-44c3-993e-78ee8189545b"},"vehicle_type_id":"4","last_reported":1678536730,"current_range_meters":30800,"station_id":"ce4bhp92rcd13ifvqhcg","pricing_plan_id":"free"},{"bike_id":"3af7c201-b203-4084-a985-379f8a14fcb7","system_id":"levelo_inurba_marseille","lat":43.315719,"lon":5.437782,"is_reserved":false,"is_disabled":false,"rental_uris":{"android":"levelo://app?vid=3af7c201-b203-4084-a985-379f8a14fcb7","ios":"levelo://app?vid=3af7c201-b203-4084-a985-379f8a14fcb7"},"vehicle_type_id":"4","last_reported":1678536730,"current_range_meters":0,"station_id":"","pricing_plan_id":"free"},{"bike_id":"0fb4cc36-5945-4f79-8b2f-0fd2e711234c","system_id":"levelo_inurba_marseille","lat":43.2681,"lon":5.402648,"is_reserved":false,"is_disabled":false,"rental_uris":{"android":"levelo://app?vid=0fb4cc36-5945-4f79-8b2f-0fd2e711234c","ios":"levelo://app?vid=0fb4cc36-5945-4f79-8b2f-0fd2e711234c"},"vehicle_type_id":"4","last_reported":1678536730,"current_range_meters":22400,"station_id":"ce501612rcd8frsf0b60","pricing_plan_id":"free"},{"bike_id":"cb99e19e-0f56-4f5f-8f60-1eb106af3d87","system_id":"levelo_inurba_marseille","lat":43.267959,"lon":5.402687,"is_reserved":false,"is_disabled":false,"rental_uris":{"android":"levelo://app?vid=cb99e19e-0f56-4f5f-8f60-1eb106af3d87","ios":"levelo://app?vid=cb99e19e-0f56-4f5f-8f60-1eb106af3d87"},"vehicle_type_id":"4","last_reported":1678536730,"current_range_meters":31600,"station_id":"ce501612rcd8frsf0b60","pricing_plan_id":"free"},{"bike_id":"22794cb9-7240-43a4-ae86-8c739f127966","system_id":"levelo_inurba_marseille","lat":43.268094,"lon":5.402648,"is_reserved":false,"is_disabled":false,"rental_uris":{"android":"levelo://app?vid=22794cb9-7240-43a4-ae86-8c739f127966","ios":"levelo://app?vid=22794cb9-7240-43a4-ae86-8c739f127966"},"vehicle_type_id":"4","last_reported":1678536730,"current_range_meters":9200,"station_id":"ce501612rcd8frsf0b60","pricing_plan_id":"free"},{"bike_id":"5e22c5c5-ef28-4f41-85bb-36480d962fc8","system_id":"levelo_inurba_marseille","lat":43.268083,"lon":5.402647,"is_reserved":false,"is_disabled":false,"rental_uris":{"android":"levelo://app?vid=5e22c5c5-ef28-4f41-85bb-36480d962fc8","ios":"levelo://app?vid=5e22c5c5-ef28-4f41-85bb-36480d962fc8"},"vehicle_type_id":"4","last_reported":1678536730,"current_range_meters":10000,"station_id":"ce501612rcd8frsf0b60","pricing_plan_id":"free"},{"bike_id":"c7445a4c-c26c-4427-ade1-006ce2c86dfc","system_id":"levelo_inurba_marseille","lat":43.267959,"lon":5.402687,"is_reserved":false,"is_disabled":false,"rental_uris":{"android":"levelo://app?vid=c7445a4c-c26c-4427-ade1-006ce2c86dfc","ios":"levelo://app?vid=c7445a4c-c26c-4427-ade1-006ce2c86dfc"},"vehicle_type_id":"4","last_reported":1678536730,"current_range_meters":30400,"station_id":"ce501612rcd8frsf0b60","pricing_plan_id":"free"},{"bike_id":"5c12aa50-fcfd-447e-bb9b-d08f7924cc45","system_id":"levelo_inurba_marseille","lat":43.267959,"lon":5.402687,"is_reserved":false,"is_disabled":false,"rental_uris":{"android":"levelo://app?vid=5c12aa50-fcfd-447e-bb9b-d08f7924cc45","ios":"levelo://app?vid=5c12aa50-fcfd-447e-bb9b-d08f7924cc45"},"vehicle_type_id":"4","last_reported":1678536730,"current_range_meters":23200,"station_id":"ce501612rcd8frsf0b60","pricing_plan_id":"free"},{"bike_id":"98348666-a2ac-4103-aa24-4bed32771762","system_id":"levelo_inurba_marseille","lat":43.267959,"lon":5.402687,"is_reserved":false,"is_disabled":false,"rental_uris":{"android":"levelo://app?vid=98348666-a2ac-4103-aa24-4bed32771762","ios":"levelo://app?vid=98348666-a2ac-4103-aa24-4bed32771762"},"vehicle_type_id":"4","last_reported":1678536730,"current_range_meters":14400,"station_id":"ce501612rcd8frsf0b60","pricing_plan_id":"free"},{"bike_id":"fb9fe4ef-a5b5-457e-8868-e385c50b6edb","system_id":"levelo_inurba_marseille","lat":43.267959,"lon":5.402687,"is_reserved":false,"is_disabled":false,"rental_uris":{"android":"levelo://app?vid=fb9fe4ef-a5b5-457e-8868-e385c50b6edb","ios":"levelo://app?vid=fb9fe4ef-a5b5-457e-8868-e385c50b6edb"},"vehicle_type_id":"4","last_reported":1678536730,"current_range_meters":23600,"station_id":"ce501612rcd8frsf0b60","pricing_plan_id":"free"},{"bike_id":"6720fa51-f601-49fb-af0f-315623597b06","system_id":"levelo_inurba_marseille","lat":43.268033,"lon":5.402702,"is_reserved":false,"is_disabled":false,"rental_uris":{"android":"levelo://app?vid=6720fa51-f601-49fb-af0f-315623597b06","ios":"levelo://app?vid=6720fa51-f601-49fb-af0f-315623597b06"},"vehicle_type_id":"4","last_reported":1678536730,"current_range_meters":0,"station_id":"ce501612rcd8frsf0b60","pricing_plan_id":"free"},{"bike_id":"a9d801d7-10a1-4643-b536-875e959712ea","system_id":"levelo_inurba_marseille","lat":43.260225,"lon":5.375455,"is_reserved":false,"is_disabled":false,"rental_uris":{"android":"levelo://app?vid=a9d801d7-10a1-4643-b536-875e959712ea","ios":"levelo://app?vid=a9d801d7-10a1-4643-b536-875e959712ea"},"vehicle_type_id":"4","last_reported":1678536730,"current_range_meters":3600,"station_id":"ce4bhgh2rcd13ifvqfa0","pricing_plan_id":"free"},{"bike_id":"b48c449c-861c-4bd0-bf46-57fdb2184929","system_id":"levelo_inurba_marseille","lat":43.27216,"lon":5.41814,"is_reserved":false,"is_disabled":false,"rental_uris":{"android":"levelo://app?vid=b48c449c-861c-4bd0-bf46-57fdb2184929","ios":"levelo://app?vid=b48c449c-861c-4bd0-bf46-57fdb2184929"},"vehicle_type_id":"4","last_reported":1678536730,"current_range_meters":5200,"station_id":"","pricing_plan_id":"free"},{"bike_id":"1194f848-dc59-4e68-958a-7dcd79ed730e","system_id":"levelo_inurba_marseille","lat":43.2607,"lon":5.393983,"is_reserved":false,"is_disabled":false,"rental_uris":{"android":"levelo://app?vid=1194f848-dc59-4e68-958a-7dcd79ed730e","ios":"levelo://app?vid=1194f848-dc59-4e68-958a-7dcd79ed730e"},"vehicle_type_id":"4","last_reported":1678536730,"current_range_meters":3600,"station_id":"ce4bhh92rcd13ifvqfj0","pricing_plan_id":"free"},{"bike_id":"dd967b18-0f52-4487-a8af-687fd58b03c7","system_id":"levelo_inurba_marseille","lat":43.260912,"lon":5.397584,"is_reserved":false,"is_disabled":false,"rental_uris":{"android":"levelo://app?vid=dd967b18-0f52-4487-a8af-687fd58b03c7","ios":"levelo://app?vid=dd967b18-0f52-4487-a8af-687fd58b03c7"},"vehicle_type_id":"4","last_reported":1678536730,"current_range_meters":4400,"station_id":"ce4bhi12rcd13ifvqfq0","pricing_plan_id":"free"},{"bike_id":"596e663f-a4cb-4e7d-bec1-cc704692f95d","system_id":"levelo_inurba_marseille","lat":43.260912,"lon":5.397584,"is_reserved":false,"is_disabled":false,"rental_uris":{"android":"levelo://app?vid=596e663f-a4cb-4e7d-bec1-cc704692f95d","ios":"levelo://app?vid=596e663f-a4cb-4e7d-bec1-cc704692f95d"},"vehicle_type_id":"4","last_reported":1678536730,"current_range_meters":15200,"station_id":"ce4bhi12rcd13ifvqfq0","pricing_plan_id":"free"},{"bike_id":"b366e7ab-7656-4dde-9de1-bac5dc2c175b","system_id":"levelo_inurba_marseille","lat":43.260769,"lon":5.397658,"is_reserved":false,"is_disabled":false,"rental_uris":{"android":"levelo://app?vid=b366e7ab-7656-4dde-9de1-bac5dc2c175b","ios":"levelo://app?vid=b366e7ab-7656-4dde-9de1-bac5dc2c175b"},"vehicle_type_id":"4","last_reported":1678536730,"current_range_meters":0,"station_id":"ce4bhi12rcd13ifvqfq0","pricing_plan_id":"free"},{"bike_id":"bef3628a-afb8-4e25-8a14-45b52c744266","system_id":"levelo_inurba_marseille","lat":43.260775,"lon":5.39768,"is_reserved":false,"is_disabled":false,"rental_uris":{"android":"levelo://app?vid=bef3628a-afb8-4e25-8a14-45b52c744266","ios":"levelo://app?vid=bef3628a-afb8-4e25-8a14-45b52c744266"},"vehicle_type_id":"4","last_reported":1678536730,"current_range_meters":31600,"station_id":"ce4bhi12rcd13ifvqfq0","pricing_plan_id":"free"},{"bike_id":"b18f74e1-7496-47ca-80b3-03af0f662328","system_id":"levelo_inurba_marseille","lat":43.274127,"lon":5.424577,"is_reserved":false,"is_disabled":false,"rental_uris":{"android":"levelo://app?vid=b18f74e1-7496-47ca-80b3-03af0f662328","ios":"levelo://app?vid=b18f74e1-7496-47ca-80b3-03af0f662328"},"vehicle_type_id":"4","last_reported":1678536730,"current_range_meters":3600,"station_id":"","pricing_plan_id":"free"},{"bike_id":"47fd2af4-d413-4624-92e3-3e13907d6ccd","system_id":"levelo_inurba_marseille","lat":43.255756,"lon":5.382303,"is_reserved":false,"is_disabled":false,"rental_uris":{"android":"levelo://app?vid=47fd2af4-d413-4624-92e3-3e13907d6ccd","ios":"levelo://app?vid=47fd2af4-d413-4624-92e3-3e13907d6ccd"},"vehicle_type_id":"4","last_reported":1678536730,"current_range_meters":8000,"station_id":"ce4bhih2rcd13ifvqfs0","pricing_plan_id":"free"},{"bike_id":"67d63fb6-548f-4277-802d-5dc5737fae8c","system_id":"levelo_inurba_marseille","lat":43.255756,"lon":5.382303,"is_reserved":false,"is_disabled":false,"rental_uris":{"android":"levelo://app?vid=67d63fb6-548f-4277-802d-5dc5737fae8c","ios":"levelo://app?vid=67d63fb6-548f-4277-802d-5dc5737fae8c"},"vehicle_type_id":"4","last_reported":1678536730,"current_range_meters":26800,"station_id":"ce4bhih2rcd13ifvqfs0","pricing_plan_id":"free"},{"bike_id":"c2e93939-1470-4b69-b75b-b9bc37525106","system_id":"levelo_inurba_marseille","lat":43.255756,"lon":5.382303,"is_reserved":false,"is_disabled":false,"rental_uris":{"android":"levelo://app?vid=c2e93939-1470-4b69-b75b-b9bc37525106","ios":"levelo://app?vid=c2e93939-1470-4b69-b75b-b9bc37525106"},"vehicle_type_id":"4","last_reported":1678536730,"current_range_meters":4000,"station_id":"ce4bhih2rcd13ifvqfs0","pricing_plan_id":"free"},{"bike_id":"0c507f8d-6776-496a-8e69-60d56e8d4fe0","system_id":"levelo_inurba_marseille","lat":43.255756,"lon":5.382303,"is_reserved":false,"is_disabled":false,"rental_uris":{"android":"levelo://app?vid=0c507f8d-6776-496a-8e69-60d56e8d4fe0","ios":"levelo://app?vid=0c507f8d-6776-496a-8e69-60d56e8d4fe0"},"vehicle_type_id":"4","last_reported":1678536730,"current_range_meters":18000,"station_id":"ce4bhih2rcd13ifvqfs0","pricing_plan_id":"free"},{"bike_id":"a5849d06-ace8-41c1-b375-47c4fcba1ffe","system_id":"levelo_inurba_marseille","lat":43.254947,"lon":5.376454,"is_reserved":false,"is_disabled":false,"rental_uris":{"android":"levelo://app?vid=a5849d06-ace8-41c1-b375-47c4fcba1ffe","ios":"levelo://app?vid=a5849d06-ace8-41c1-b375-47c4fcba1ffe"},"vehicle_type_id":"4","last_reported":1678536730,"current_range_meters":14000,"station_id":"ce4bhh12rcd13ifvqff0","pricing_plan_id":"free"},{"bike_id":"bd29a70f-1a1d-40a3-a85a-694e3a1df185","system_id":"levelo_inurba_marseille","lat":43.254947,"lon":5.376454,"is_reserved":false,"is_disabled":false,"rental_uris":{"android":"levelo://app?vid=bd29a70f-1a1d-40a3-a85a-694e3a1df185","ios":"levelo://app?vid=bd29a70f-1a1d-40a3-a85a-694e3a1df185"},"vehicle_type_id":"4","last_reported":1678536730,"current_range_meters":8800,"station_id":"ce4bhh12rcd13ifvqff0","pricing_plan_id":"free"},{"bike_id":"75f08e6a-dc4e-42b6-a5b8-97ad50752301","system_id":"levelo_inurba_marseille","lat":43.254947,"lon":5.376454,"is_reserved":false,"is_disabled":false,"rental_uris":{"android":"levelo://app?vid=75f08e6a-dc4e-42b6-a5b8-97ad50752301","ios":"levelo://app?vid=75f08e6a-dc4e-42b6-a5b8-97ad50752301"},"vehicle_type_id":"4","last_reported":1678536730,"current_range_meters":20000,"station_id":"ce4bhh12rcd13ifvqff0","pricing_plan_id":"free"},{"bike_id":"5794e16e-e0d8-4743-b8ef-053df0509721","system_id":"levelo_inurba_marseille","lat":43.254947,"lon":5.376454,"is_reserved":false,"is_disabled":false,"rental_uris":{"android":"levelo://app?vid=5794e16e-e0d8-4743-b8ef-053df0509721","ios":"levelo://app?vid=5794e16e-e0d8-4743-b8ef-053df0509721"},"vehicle_type_id":"4","last_reported":1678536730,"current_range_meters":30800,"station_id":"ce4bhh12rcd13ifvqff0","pricing_plan_id":"free"},{"bike_id":"aa5f2c97-8dc6-4370-99df-dd6c3ac669f2","system_id":"levelo_inurba_marseille","lat":43.270721,"lon":5.422764,"is_reserved":false,"is_disabled":false,"rental_uris":{"android":"levelo://app?vid=aa5f2c97-8dc6-4370-99df-dd6c3ac669f2","ios":"levelo://app?vid=aa5f2c97-8dc6-4370-99df-dd6c3ac669f2"},"vehicle_type_id":"4","last_reported":1678536730,"current_range_meters":3200,"station_id":"ce4bhk92rcd13ifvqgb0","pricing_plan_id":"free"},{"bike_id":"e7589bd5-6549-4ade-8e7c-3fcf736ae6be","system_id":"levelo_inurba_marseille","lat":43.270721,"lon":5.422764,"is_reserved":false,"is_disabled":false,"rental_uris":{"android":"levelo://app?vid=e7589bd5-6549-4ade-8e7c-3fcf736ae6be","ios":"levelo://app?vid=e7589bd5-6549-4ade-8e7c-3fcf736ae6be"},"vehicle_type_id":"4","last_reported":1678536730,"current_range_meters":4000,"station_id":"ce4bhk92rcd13ifvqgb0","pricing_plan_id":"free"},{"bike_id":"b20b6be4-063a-4e34-aee2-dc8bedc6ecc7","system_id":"levelo_inurba_marseille","lat":43.270721,"lon":5.422764,"is_reserved":false,"is_disabled":false,"rental_uris":{"android":"levelo://app?vid=b20b6be4-063a-4e34-aee2-dc8bedc6ecc7","ios":"levelo://app?vid=b20b6be4-063a-4e34-aee2-dc8bedc6ecc7"},"vehicle_type_id":"4","last_reported":1678536730,"current_range_meters":10800,"station_id":"ce4bhk92rcd13ifvqgb0","pricing_plan_id":"free"},{"bike_id":"d669e123-c4c3-4936-88c3-ebfe2baff21b","system_id":"levelo_inurba_marseille","lat":43.270721,"lon":5.422764,"is_reserved":false,"is_disabled":false,"rental_uris":{"android":"levelo://app?vid=d669e123-c4c3-4936-88c3-ebfe2baff21b","ios":"levelo://app?vid=d669e123-c4c3-4936-88c3-ebfe2baff21b"},"vehicle_type_id":"4","last_reported":1678536730,"current_range_meters":24400,"station_id":"ce4bhk92rcd13ifvqgb0","pricing_plan_id":"free"},{"bike_id":"1e723bbe-ec27-4c13-a5b6-b1da54c43b30","system_id":"levelo_inurba_marseille","lat":43.270721,"lon":5.422764,"is_reserved":false,"is_disabled":false,"rental_uris":{"android":"levelo://app?vid=1e723bbe-ec27-4c13-a5b6-b1da54c43b30","ios":"levelo://app?vid=1e723bbe-ec27-4c13-a5b6-b1da54c43b30"},"vehicle_type_id":"4","last_reported":1678536730,"current_range_meters":0,"station_id":"ce4bhk92rcd13ifvqgb0","pricing_plan_id":"free"},