{"last_updated":1726470569,"ttl":30,"version":"2.2","data":{"bikes":[{"bike_id":"d66dddba-8df1-4f06-bb27-e2c9c7bd447e","system_id":"levelo_inurba_marseille","lat":43.30489,"lon":5.37916,"is_reserved":false,"is_disabled":false,"rental_uris":{"android":"levelo://app?vid=d66dddba-8df1-4f06-bb27-e2c9c7bd447e","ios":"levelo://app?vid=d66dddba-8df1-4f06-bb27-e2c9c7bd447e"},"vehicle_type_id":"4","last_reported":1726470569,"current_range_meters":38800,"station_id":"ce4bgup2rcd13ifvqcn0","pricing_plan_id":"cebpf4jnsgd1na2vs0mg"},{"bike_id":"2251ec2c-c99e-4854-ae0e-c7ddfba2f82e","system_id":"levelo_inurba_marseille","lat":43.304596,"lon":5.379064,"is_reserved":false,"is_disabled":false,"rental_uris":{"android":"levelo://app?vid=2251ec2c-c99e-4854-ae0e-c7ddfba2f82e","ios":"levelo://app?vid=2251ec2c-c99e-4854-ae0e-c7ddfba2f82e"},"vehicle_type_id":"4","last_reported":1726470569,"current_range_meters":24800,"station_id":"ce4bhp92rcd13ifvqhag","pricing_plan_id":"cebpf4jnsgd1na2vs0mg"},{"bike_id":"d12fb823-cbf3-44f9-84e8-fa0737ffe2e5","system_id":"levelo_inurba_marseille","lat":43.30795,"lon":5.37637,"is_reserved":false,"is_disabled":false,"rental_uris":{"android":"levelo://app?vid=d12fb823-cbf3-44f9-84e8-fa0737ffe2e5","ios":"levelo://app?vid=d12fb823-cbf3-44f9-84e8-fa0737ffe2e5"},"vehicle_type_id":"4","last_reported":1726470569,"current_range_meters":38800,"station_id":"ce4bgv92rcd13ifvqcq0","pricing_plan_id":"cebpf4jnsgd1na2vs0mg"},{"bike_id":"23a85296-0e05-465d-8c60-2533b332185a","system_id":"levelo_inurba_marseille","lat":43.28714,"lon":5.37925,"is_reserved":false,"is_disabled":false,"rental_uris":{"android":"levelo://app?vid=23a85296-0e05-465d-8c60-2533b332185a","ios":"levelo://app?vid=23a85296-0e05-465d-8c60-2533b332185a"},"vehicle_type_id":"4","last_reported":1726470569,"current_range_meters":39200,"station_id":"ce4bh9p2rcd13ifvqec0","pricing_plan_id":"cebpf4jnsgd1na2vs0mg"},{"bike_id":"6c05122d-13cb-47b4-b822-049b96e5922a","system_id":"levelo_inurba_marseille","lat":43.31339,"lon":5.36718,"is_reserved":false,"is_disabled":false,"rental_uris":{"android":"levelo://app?vid=6c05122d-13cb-47b4-b822-049b96e5922a","ios":"levelo://app?vid=6c05122d-13cb-47b4-b822-049b96e5922a"},"vehicle_type_id":"4","last_reported":1726470569,"current_range_meters":20000,"station_id":"ce4bgr92rcd13ifvqc6g","pricing_plan_id":"cebpf4jnsgd1na2vs0mg"},{"bike_id":"48a82de2-7872-40cb-b1bf-43e70b76834b","system_id":"levelo_inurba_marseille","lat":43.31294,"lon":5.37812,"is_reserved":false,"is_disabled":false,"rental_uris":{"android":"levelo://app?vid=48a82de2-7872-40cb-b1bf-43e70b76834b","ios":"levelo://app?vid=48a82de2-7872-40cb-b1bf-43e70b76834b"},"vehicle_type_id":"4","last_reported":1726470569,"current_range_meters":30400,"station_id":"","pricing_plan_id":"cebpf4jnsgd1na2vs0mg"},{"bike_id":"09f9172f-12b8-4f51-81ca-e2816f9f586a","system_id":"levelo_inurba_marseille","lat":43.28159,"lon":5.42647,"is_reserved":false,"is_disabled":false,"rental_uris":{"android":"levelo://app?vid=09f9172f-12b8-4f51-81ca-e2816f9f586a","ios":"levelo://app?vid=09f9172f-12b8-4f51-81ca-e2816f9f586a"},"vehicle_type_id":"4","last_reported":1726470569,"current_range_meters":6000,"station_id":"ce4bhnh2rcd13ifvqgug","pricing_plan_id":"cebpf4jnsgd1na2vs0mg"},{"bike_id":"dbcac64b-23d5-4ed1-b3a2-1ac46e6ecbc2","system_id":"levelo_inurba_marseille","lat":43.304675,"lon":5.379205,"is_reserved":false,"is_disabled":false,"rental_uris":{"android":"levelo://app?vid=dbcac64b-23d5-4ed1-b3a2-1ac46e6ecbc2","ios":"levelo://app?vid=dbcac64b-23d5-4ed1-b3a2-1ac46e6ecbc2"},"vehicle_type_id":"4","last_reported":1726470569,"current_range_meters":38400,"station_id":"ce4bgup2rcd13ifvqcn0","pricing_plan_id":"cebpf4jnsgd1na2vs0mg"},{"bike_id":"d3a355e5-326f-49ac-9cf2-a47d1927ea4c","system_id":"levelo_inurba_marseille","lat":43.29875,"lon":5.39733,"is_reserved":false,"is_disabled":false,"rental_uris":{"android":"levelo://app?vid=d3a355e5-326f-49ac-9cf2-a47d1927ea4c","ios":"levelo://app?vid=d3a355e5-326f-49ac-9cf2-a47d1927ea4c"},"vehicle_type_id":"4","last_reported":1726470569,"current_range_meters":36800,"station_id":"ce4bh0h2rcd13ifvqd50","pricing_plan_id":"cebpf4jnsgd1na2vs0mg"},{"bike_id":"8661cdbd-539b-4736-96ae-3b29c9f34a0b","system_id":"levelo_inurba_marseille","lat":43.24075,"lon":5.37753,"is_reserved":false,"is_disabled":false,"rental_uris":{"android":"levelo://app?vid=8661cdbd-539b-4736-96ae-3b29c9f34a0b","ios":"levelo://app?vid=8661cdbd-539b-4736-96ae-3b29c9f34a0b"},"vehicle_type_id":"4","last_reported":1726470569,"current_range_meters":4400,"station_id":"ce4bhnp2rcd13ifvqgvg","pricing_plan_id":"cebpf4jnsgd1na2vs0mg"},{"bike_id":"f71c5a6a-6336-4f0c-bb87-c555293170d8","system_id":"levelo_inurba_marseille","lat":43.30465,"lon":5.37906,"is_reserved":false,"is_disabled":false,"rental_uris":{"android":"levelo://app?vid=f71c5a6a-6336-4f0c-bb87-c555293170d8","ios":"levelo://app?vid=f71c5a6a-6336-4f0c-bb87-c555293170d8"},"vehicle_type_id":"4","last_reported":1726470569,"current_range_meters":35600,"station_id":"ce4bgup2rcd13ifvqcn0","pricing_plan_id":"cebpf4jnsgd1na2vs0mg"},{"bike_id":"b23cf016-0a0a-4065-8116-ed6e4853597f","system_id":"levelo_inurba_marseille","lat":43.255773,"lon":5.40042,"is_reserved":false,"is_disabled":false,"rental_uris":{"android":"levelo://app?vid=b23cf016-0a0a-4065-8116-ed6e4853597f","ios":"levelo://app?vid=b23cf016-0a0a-4065-8116-ed6e4853597f"},"vehicle_type_id":"4","last_reported":1726470569,"current_range_meters":34000,"station_id":"","pricing_plan_id":"cebpf4jnsgd1na2vs0mg"},{"bike_id":"399d5ca3-f4a1-4813-bcb2-424bd1414aa0","system_id":"levelo_inurba_marseille","lat":43.24078,"lon":5.37757,"is_reserved":false,"is_disabled":false,"rental_uris":{"android":"levelo://app?vid=399d5ca3-f4a1-4813-bcb2-424bd1414aa0","ios":"levelo://app?vid=399d5ca3-f4a1-4813-bcb2-424bd1414aa0"},"vehicle_type_id":"4","last_reported":1726470569,"current_range_meters":17200,"station_id":"ce4bhnp2rcd13ifvqgvg","pricing_plan_id":"cebpf4jnsgd1na2vs0mg"},{"bike_id":"7c475990-5c91-40de-8e97-2ed5070be005","system_id":"levelo_inurba_marseille","lat":43.23032,"lon":5.401,"is_reserved":false,"is_disabled":false,"rental_uris":{"android":"levelo://app?vid=7c475990-5c91-40de-8e97-2ed5070be005","ios":"levelo://app?vid=7c475990-5c91-40de-8e97-2ed5070be005"},"vehicle_type_id":"4","last_reported":1726470569,"current_range_meters":35200,"station_id":"","pricing_plan_id":"cebpf4jnsgd1na2vs0mg"},{"bike_id":"7f7c483d-7126-4d70-8b99-a99841940df9","system_id":"levelo_inurba_marseille","lat":43.267883,"lon":5.394064,"is_reserved":false,"is_disabled":false,"rental_uris":{"android":"levelo://app?vid=7f7c483d-7126-4d70-8b99-a99841940df9","ios":"levelo://app?vid=7f7c483d-7126-4d70-8b99-a99841940df9"},"vehicle_type_id":"4","last_reported":1726470569,"current_range_meters":35200,"station_id":"ce4bhh12rcd13ifvqfg0","pricing_plan_id":"cebpf4jnsgd1na2vs0mg"},{"bike_id":"13ec4916-f0ea-4897-8afc-596425b42c42","system_id":"levelo_inurba_marseille","lat":43.23189,"lon":5.35556,"is_reserved":false,"is_disabled":false,"rental_uris":{"android":"levelo://app?vid=13ec4916-f0ea-4897-8afc-596425b42c42","ios":"levelo://app?vid=13ec4916-f0ea-4897-8afc-596425b42c42"},"vehicle_type_id":"4","last_reported":1726470569,"current_range_meters":16800,"station_id":"ce4bhu92rcd13ifvqi70","pricing_plan_id":"cebpf4jnsgd1na2vs0mg"},{"bike_id":"e8549387-9deb-4f66-b733-a7cdaa0db866","system_id":"levelo_inurba_marseille","lat":43.33023,"lon":5.39039,"is_reserved":false,"is_disabled":false,"rental_uris":{"android":"levelo://app?vid=e8549387-9deb-4f66-b733-a7cdaa0db866","ios":"levelo://app?vid=e8549387-9deb-4f66-b733-a7cdaa0db866"},"vehicle_type_id":"4","last_reported":1726470569,"current_range_meters":10800,"station_id":"ce4bhr92rcd13ifvqhrg","pricing_plan_id":"cebpf4jnsgd1na2vs0mg"},{"bike_id":"f761ad7e-0fb4-4207-9465-7f4c8576cb65","system_id":"levelo_inurba_marseille","lat":43.24084,"lon":5.37753,"is_reserved":false,"is_disabled":false,"rental_uris":{"android":"levelo://app?vid=f761ad7e-0fb4-4207-9465-7f4c8576cb65","ios":"levelo://app?vid=f761ad7e-0fb4-4207-9465-7f4c8576cb65"},"vehicle_type_id":"4","last_reported":1726470569,"current_range_meters":25200,"station_id":"ce4bhnp2rcd13ifvqgvg","pricing_plan_id":"cebpf4jnsgd1na2vs0mg"},{"bike_id":"ebd5d50a-b150-49bc-9d4f-114901f1c43a","system_id":"levelo_inurba_marseille","lat":43.28491,"lon":5.38549,"is_reserved":false,"is_disabled":false,"rental_uris":{"android":"levelo://app?vid=ebd5d50a-b150-49bc-9d4f-114901f1c43a","ios":"levelo://app?vid=ebd5d50a-b150-49bc-9d4f-114901f1c43a"},"vehicle_type_id":"4","last_reported":1726470569,"current_range_meters":34800,"station_id":"ce4bh8p2rcd13ifvqeb0","pricing_plan_id":"cebpf4jnsgd1na2vs0mg"},{"bike_id":"5949ce40-ff52-43cb-b040-aa6e22f1a4ea","system_id":"levelo_inurba_marseille","lat":43.30466,"lon":5.37901,"is_reserved":false,"is_disabled":false,"rental_uris":{"android":"levelo://app?vid=5949ce40-ff52-43cb-b040-aa6e22f1a4ea","ios":"levelo://app?vid=5949ce40-ff52-43cb-b040-aa6e22f1a4ea"},"vehicle_type_id":"4","last_reported":1726470569,"current_range_meters":24400,"station_id":"ce4bgup2rcd13ifvqcn0","pricing_plan_id":"cebpf4jnsgd1na2vs0mg"},{"bike_id":"57b87d5c-c819-4ef6-97b0-dab8fd8c8e55","system_id":"levelo_inurba_marseille","lat":43.2408,"lon":5.37742,"is_reserved":false,"is_disabled":false,"rental_uris":{"android":"levelo://app?vid=57b87d5c-c819-4ef6-97b0-dab8fd8c8e55","ios":"levelo://app?vid=57b87d5c-c819-4ef6-97b0-dab8fd8c8e55"},"vehicle_type_id":"4","last_reported":1726470569,"current_range_meters":36400,"station_id":"ce4bhnp2rcd13ifvqgvg","pricing_plan_id":"cebpf4jnsgd1na2vs0mg"},{"bike_id":"ba5766e2-e9ff-4571-95a0-04988fd7fe6c","system_id":"levelo_inurba_marseille","lat":43.32492,"lon":5.36569,"is_reserved":false,"is_disabled":false,"rental_uris":{"android":"levelo://app?vid=ba5766e2-e9ff-4571-95a0-04988fd7fe6c","ios":"levelo://app?vid=ba5766e2-e9ff-4571-95a0-04988fd7fe6c"},"vehicle_type_id":"4","last_reported":1726470569,"current_range_meters":38000,"station_id":"ce4bhs12rcd13ifvqhvg","pricing_plan_id":"cebpf4jnsgd1na2vs0mg"},{"bike_id":"4721625d-cf54-48b5-87ba-2bbd9e031c70","system_id":"levelo_inurba_marseille","lat":43.24075,"lon":5.37759,"is_reserved":false,"is_disabled":false,"rental_uris":{"android":"levelo://app?vid=4721625d-cf54-48b5-87ba-2bbd9e031c70","ios":"levelo://app?vid=4721625d-cf54-48b5-87ba-2bbd9e031c70"},"vehicle_type_id":"4","last_reported":1726470569,"current_range_meters":29600,"station_id":"ce4bhnp2rcd13ifvqgvg","pricing_plan_id":"cebpf4jnsgd1na2vs0mg"},{"bike_id":"831dd52a-7adf-48a5-ba37-8bb767d9bc38","system_id":"levelo_inurba_marseille","lat":43.27493,"lon":5.42453,"is_reserved":false,"is_disabled":false,"rental_uris":{"android":"levelo://app?vid=831dd52a-7adf-48a5-ba37-8bb767d9bc38","ios":"levelo://app?vid=831dd52a-7adf-48a5-ba37-8bb767d9bc38"},"vehicle_type_id":"4","last_reported":1726470569,"current_range_meters":38000,"station_id":"ce4bhn92rcd13ifvqgrg","pricing_plan_id":"cebpf4jnsgd1na2vs0mg"},{"bike_id":"74c67d55-8a5f-40c9-8066-d68354718f8c","system_id":"levelo_inurba_marseille","lat":43.23189,"lon":5.35552,"is_reserved":false,"is_disabled":false,"rental_uris":{"android":"levelo://app?vid=74c67d55-8a5f-40c9-8066-d68354718f8c","ios":"levelo://app?vid=74c67d55-8a5f-40c9-8066-d68354718f8c"},"vehicle_type_id":"4","last_reported":1726470569,"current_range_meters":14800,"station_id":"ce4bhu92rcd13ifvqi70","pricing_plan_id":"cebpf4jnsgd1na2vs0mg"},{"bike_id":"26cf6a6a-6235-43b9-adfd-7ee5a73ba4c4","system_id":"levelo_inurba_marseille","lat":43.309,"lon":5.37191,"is_reserved":false,"is_disabled":false,"rental_uris":{"android":"levelo://app?vid=26cf6a6a-6235-43b9-adfd-7ee5a73ba4c4","ios":"levelo://app?vid=26cf6a6a-6235-43b9-adfd-7ee5a73ba4c4"},"vehicle_type_id":"4","last_reported":1726470569,"current_range_meters":32800,"station_id":"ce4bguh2rcd13ifvqckg","pricing_plan_id":"cebpf4jnsgd1na2vs0mg"},{"bike_id":"347c4d00-be62-486d-946b-513151545bf3","system_id":"levelo_inurba_marseille","lat":43.24082,"lon":5.37754,"is_reserved":false,"is_disabled":false,"rental_uris":{"android":"levelo://app?vid=347c4d00-be62-486d-946b-513151545bf3","ios":"levelo://app?vid=347c4d00-be62-486d-946b-513151545bf3"},"vehicle_type_id":"4","last_reported":1726470569,"current_range_meters":24000,"station_id":"ce4bhnp2rcd13ifvqgvg","pricing_plan_id":"cebpf4jnsgd1na2vs0mg"},{"bike_id":"abed3885-d33d-469f-be3f-0a340877ea7b","system_id":"levelo_inurba_marseille","lat":43.30151,"lon":5.38086,"is_reserved":false,"is_disabled":false,"rental_uris":{"android":"levelo://app?vid=abed3885-d33d-469f-be3f-0a340877ea7b","ios":"levelo://app?vid=abed3885-d33d-469f-be3f-0a340877ea7b"},"vehicle_type_id":"4","last_reported":1726470569,"current_range_meters":23200,"station_id":"ce4bgjp2rcd13ifvqbh0","pricing_plan_id":"cebpf4jnsgd1na2vs0mg"},{"bike_id":"1f502a85-50c7-49be-a8fd-ba6156c001aa","system_id":"levelo_inurba_marseille","lat":43.3137,"lon":5.36712,"is_reserved":false,"is_disabled":false,"rental_uris":{"android":"levelo://app?vid=1f502a85-50c7-49be-a8fd-ba6156c001aa","ios":"levelo://app?vid=1f502a85-50c7-49be-a8fd-ba6156c001aa"},"vehicle_type_id":"4","last_reported":1726470569,"current_range_meters":34000,"station_id":"ce4bgr92rcd13ifvqc6g","pricing_plan_id":"cebpf4jnsgd1na2vs0mg"},{"bike_id":"212c501b-a753-4c1a-ba0c-b560582af171","system_id":"levelo_inurba_marseille","lat":43.2956,"lon":5.4229,"is_reserved":false,"is_disabled":false,"rental_uris":{"android":"levelo://app?vid=212c501b-a753-4c1a-ba0c-b560582af171","ios":"levelo://app?vid=212c501b-a753-4c1a-ba0c-b560582af171"},"vehicle_type_id":"4","last_reported":1726470569,"current_range_meters":18800,"station_id":"ce4bhph2rcd13ifvqhdg","pricing_plan_id":"cebpf4jnsgd1na2vs0mg"},{"bike_id":"ae85f144-866a-4ec0-9027-e49932a00529","system_id":"levelo_inurba_marseille","lat":43.29803,"lon":5.38104,"is_reserved":false,"is_disabled":false,"rental_uris":{"android":"levelo://app?vid=ae85f144-866a-4ec0-9027-e49932a00529","ios":"levelo://app?vid=ae85f144-866a-4ec0-9027-e49932a00529"},"vehicle_type_id":"4","last_reported":1726470569,"current_range_meters":33600,"station_id":"ce4bgip2rcd13ifvqbb0","pricing_plan_id":"cebpf4jnsgd1na2vs0mg"},{"bike_id":"3976eae9-3483-4309-aa46-8caeee84ae41","system_id":"levelo_inurba_marseille","lat":43.29704,"lon":5.37701,"is_reserved":false,"is_disabled":false,"rental_uris":{"android":"levelo://app?vid=3976eae9-3483-4309-aa46-8caeee84ae41","ios":"levelo://app?vid=3976eae9-3483-4309-aa46-8caeee84ae41"},"vehicle_type_id":"4","last_reported":1726470569,"current_range_meters":28400,"station_id":"ce4bgkh2rcd13ifvqbl0","pricing_plan_id":"cebpf4jnsgd1na2vs0mg"},{"bike_id":"04f19c5c-ca4d-4b00-be04-9e3e50d3369b","system_id":"levelo_inurba_marseille","lat":43.24161,"lon":5.36401,"is_reserved":false,"is_disabled":false,"rental_uris":{"android":"levelo://app?vid=04f19c5c-ca4d-4b00-be04-9e3e50d3369b","ios":"levelo://app?vid=04f19c5c-ca4d-4b00-be04-9e3e50d3369b"},"vehicle_type_id":"4","last_reported":1726470569,"current_range_meters":24400,"station_id":"cpo36qri1sfpv3e86is0","pricing_plan_id":"cebpf4jnsgd1na2vs0mg"},{"bike_id":"de926bf7-1295-43c0-8367-941524b67039","system_id":"levelo_inurba_marseille","lat":43.24077,"lon":5.37755,"is_reserved":false,"is_disabled":false,"rental_uris":{"android":"levelo://app?vid=de926bf7-1295-43c0-8367-941524b67039","ios":"levelo://app?vid=de926bf7-1295-43c0-8367-941524b67039"},"vehicle_type_id":"4","last_reported":1726470569,"current_range_meters":5600,"station_id":"ce4bhnp2rcd13ifvqgvg","pricing_plan_id":"cebpf4jnsgd1na2vs0mg"},{"bike_id":"42cc3c79-e15a-48df-8075-193ae1116c08","system_id":"levelo_inurba_marseille","lat":43.27911,"lon":5.3873,"is_reserved":false,"is_disabled":false,"rental_uris":{"android":"levelo://app?vid=42cc3c79-e15a-48df-8075-193ae1116c08","ios":"levelo://app?vid=42cc3c79-e15a-48df-8075-193ae1116c08"},"vehicle_type_id":"4","last_reported":1726470569,"current_range_meters":24800,"station_id":"","pricing_plan_id":"cebpf4jnsgd1na2vs0mg"},{"bike_id":"40869c76-4f82-404f-9cdf-639196b728f9","system_id":"levelo_inurba_marseille","lat":43.28572,"lon":5.39497,"is_reserved":false,"is_disabled":false,"rental_uris":{"android":"levelo://app?vid=40869c76-4f82-404f-9cdf-639196b728f9","ios":"levelo://app?vid=40869c76-4f82-404f-9cdf-639196b728f9"},"vehicle_type_id":"4","last_reported":1726470569,"current_range_meters":18000,"station_id":"ce4bh292rcd13ifvqdg0","pricing_plan_id":"cebpf4jnsgd1na2vs0mg"},{"bike_id":"cd225d70-6caa-40f5-b0a6-233eb91ea039","system_id":"levelo_inurba_marseille","lat":43.34094,"lon":5.39106,"is_reserved":false,"is_disabled":false,"rental_uris":{"android":"levelo://app?vid=cd225d70-6caa-40f5-b0a6-233eb91ea039","ios":"levelo://app?vid=cd225d70-6caa-40f5-b0a6-233eb91ea039"},"vehicle_type_id":"4","last_reported":1726470569,"current_range_meters":35600,"station_id":"","pricing_plan_id":"cebpf4jnsgd1na2vs0mg"},{"bike_id":"0aa75f12-c942-44d1-92b7-0b3badf3bf13","system_id":"levelo_inurba_marseille","lat":43.27494,"lon":5.42457,"is_reserved":false,"is_disabled":false,"rental_uris":{"android":"levelo://app?vid=0aa75f12-c942-44d1-92b7-0b3badf3bf13","ios":"levelo://app?vid=0aa75f12-c942-44d1-92b7-0b3badf3bf13"},"vehicle_type_id":"4","last_reported":1726470569,"current_range_meters":30400,"station_id":"ce4bhn92rcd13ifvqgrg","pricing_plan_id":"cebpf4jnsgd1na2vs0mg"},{"bike_id":"b8ae096d-0625-4a15-b0d0-1e55adea2f10","system_id":"levelo_inurba_marseille","lat":43.30916,"lon":5.36859,"is_reserved":false,"is_disabled":false,"rental_uris":{"android":"levelo://app?vid=b8ae096d-0625-4a15-b0d0-1e55adea2f10","ios":"levelo://app?vid=b8ae096d-0625-4a15-b0d0-1e55adea2f10"},"vehicle_type_id":"4","last_reported":1726470569,"current_range_meters":27200,"station_id":"ce4bgn92rcd13ifvqbvg","pricing_plan_id":"cebpf4jnsgd1na2vs0mg"},{"bike_id":"3e1bed70-23ec-4e39-aac3-29d1cd5e655c","system_id":"levelo_inurba_marseille","lat":43.29797,"lon":5.38099,"is_reserved":false,"is_disabled":false,"rental_uris":{"android":"levelo://app?vid=3e1bed70-23ec-4e39-aac3-29d1cd5e655c","ios":"levelo://app?vid=3e1bed70-23ec-4e39-aac3-29d1cd5e655c"},"vehicle_type_id":"4","last_reported":1726470569,"current_range_meters":36000,"station_id":"ce4bgip2rcd13ifvqbb0","pricing_plan_id":"cebpf4jnsgd1na2vs0mg"},{"bike_id":"519b8719-4413-4907-95e6-c423974a1da9","system_id":"levelo_inurba_marseille","lat":43.30466,"lon":5.37909,"is_reserved":false,"is_disabled":false,"rental_uris":{"android":"levelo://app?vid=519b8719-4413-4907-95e6-c423974a1da9","ios":"levelo://app?vid=519b8719-4413-4907-95e6-c423974a1da9"},"vehicle_type_id":"4","last_reported":1726470569,"current_range_meters":36400,"station_id":"ce4bgup2rcd13ifvqcn0","pricing_plan_id":"cebpf4jnsgd1na2vs0mg"},{"bike_id":"09d590c0-3a63-4093-8a46-e43fdbed6022","system_id":"levelo_inurba_marseille","lat":43.23151,"lon":5.43718,"is_reserved":false,"is_disabled":false,"rental_uris":{"android":"levelo://app?vid=09d590c0-3a63-4093-8a46-e43fdbed6022","ios":"levelo://app?vid=09d590c0-3a63-4093-8a46-e43fdbed6022"},"vehicle_type_id":"4","last_reported":1726470569,"current_range_meters":16000,"station_id":"ce4bhmp2rcd13ifvqgog","pricing_plan_id":"cebpf4jnsgd1na2vs0mg"},{"bike_id":"b99b65cf-971a-40f1-a132-4396feb77650","system_id":"levelo_inurba_marseille","lat":43.28354,"lon":5.38102,"is_reserved":false,"is_disabled":false,"rental_uris":{"android":"levelo://app?vid=b99b65cf-971a-40f1-a132-4396feb77650","ios":"levelo://app?vid=b99b65cf-971a-40f1-a132-4396feb77650"},"vehicle_type_id":"4","last_reported":1726470569,"current_range_meters":36000,"station_id":"ce4bh412rcd13ifvqdr0","pricing_plan_id":"cebpf4jnsgd1na2vs0mg"},{"bike_id":"45e684ad-b81b-48c3-b25a-d1d6fa50f78d","system_id":"levelo_inurba_marseille","lat":43.26675,"lon":5.38266,"is_reserved":false,"is_disabled":false,"rental_uris":{"android":"levelo://app?vid=45e684ad-b81b-48c3-b25a-d1d6fa50f78d","ios":"levelo://app?vid=45e684ad-b81b-48c3-b25a-d1d6fa50f78d"},"vehicle_type_id":"4","last_reported":1726470569,"current_range_meters":19200,"station_id":"ce4bhg92rcd13ifvqf90","pricing_plan_id":"cebpf4jnsgd1na2vs0mg"},{"bike_id":"47b91095-5ba8-4a6c-aa9c-0350d707dda9","system_id":"levelo_inurba_marseille","lat":43.28719,"lon":5.37938,"is_reserved":false,"is_disabled":false,"rental_uris":{"android":"levelo://app?vid=47b91095-5ba8-4a6c-aa9c-0350d707dda9","ios":"levelo://app?vid=47b91095-5ba8-4a6c-aa9c-0350d707dda9"},"vehicle_type_id":"4","last_reported":1726470569,"current_range_meters":38000,"station_id":"ce4bh9p2rcd13ifvqec0","pricing_plan_id":"cebpf4jnsgd1na2vs0mg"},{"bike_id":"f79ff168-7c1f-43a6-9a48-819ae1e3b151","system_id":"levelo_inurba_marseille","lat":43.24076,"lon":5.3775,"is_reserved":false,"is_disabled":false,"rental_uris":{"android":"levelo://app?vid=f79ff168-7c1f-43a6-9a48-819ae1e3b151","ios":"levelo://app?vid=f79ff168-7c1f-43a6-9a48-819ae1e3b151"},"vehicle_type_id":"4","last_reported":1726470569,"current_range_meters":8400,"station_id":"ce4bhnp2rcd13ifvqgvg","pricing_plan_id":"cebpf4jnsgd1na2vs0mg"},{"bike_id":"2e3fa3c1-55aa-4e86-bd3e-7bdc4a6b47ac","system_id":"levelo_inurba_marseille","lat":43.2749,"lon":5.42456,"is_reserved":false,"is_disabled":false,"rental_uris":{"android":"levelo://app?vid=2e3fa3c1-55aa-4e86-bd3e-7bdc4a6b47ac","ios":"levelo://app?vid=2e3fa3c1-55aa-4e86-bd3e-7bdc4a6b47ac"},"vehicle_type_id":"4","last_reported":1726470569,"current_range_meters":33600,"station_id":"ce4bhn92rcd13ifvqgrg","pricing_plan_id":"cebpf4jnsgd1na2vs0mg"},{"bike_id":"594f6c6c-c4f5-44a4-8660-6f62de5b4bbd","system_id":"levelo_inurba_marseille","lat":43.31227,"lon":5.36857,"is_reserved":false,"is_disabled":false,"rental_uris":{"android":"levelo://app?vid=594f6c6c-c4f5-44a4-8660-6f62de5b4bbd","ios":"levelo://app?vid=594f6c6c-c4f5-44a4-8660-6f62de5b4bbd"},"vehicle_type_id":"4","last_reported":1726470569,"current_range_meters":38800,"station_id":"ce4bgl92rcd13ifvqbq0","pricing_plan_id":"cebpf4jnsgd1na2vs0mg"},{"bike_id":"13fdb722-2ea5-4063-bbf8-8e3830014be1","system_id":"levelo_inurba_marseille","lat":43.2594,"lon":5.40904,"is_reserved":false,"is_disabled":false,"rental_uris":{"android":"levelo://app?vid=13fdb722-2ea5-4063-bbf8-8e3830014be1","ios":"levelo://app?vid=13fdb722-2ea5-4063-bbf8-8e3830014be1"},"vehicle_type_id":"4","last_reported":1726470569,"current_range_meters":17200,"station_id":"ce4bhm92rcd13ifvqglg","pricing_plan_id":"cebpf4jnsgd1na2vs0mg"},{"bike_id":"cbacf406-e04e-4215-8caa-3e92b3069462","system_id":"levelo_inurba_marseille","lat":43.24076,"lon":5.37755,"is_reserved":false,"is_disabled":false,"rental_uris":{"android":"levelo://app?vid=cbacf406-e04e-4215-8caa-3e92b3069462","ios":"levelo://app?vid=cbacf406-e04e-4215-8caa-3e92b3069462"},"vehicle_type_id":"4","last_reported":1726470569,"current_range_meters":36800,"station_id":"ce4bhnp2rcd13ifvqgvg","pricing_plan_id":"cebpf4jnsgd1na2vs0mg"},{"bike_id":"e5f00a14-dff4-44a8-93db-b62a037fe306","system_id":"levelo_inurba_marseille","lat":43.30542,"lon":5.36724,"is_reserved":false,"is_disabled":false,"rental_uris":{"android":"levelo://app?vid=e5f00a14-dff4-44a8-93db-b62a037fe306","ios":"levelo://app?vid=e5f00a14-dff4-44a8-93db-b62a037fe306"},"vehicle_type_id":"4","last_reported":1726470569,"current_range_meters":25200,"station_id":"ce4bgrp2rcd13ifvqc9g","pricing_plan_id":"cebpf4jnsgd1na2vs0mg"},{"bike_id":"9e65d539-6c66-44a3-a08b-39d6eded0d67","system_id":"levelo_inurba_marseille","lat":43.29385,"lon":5.37868,"is_reserved":false,"is_disabled":false,"rental_uris":{"android":"levelo://app?vid=9e65d539-6c66-44a3-a08b-39d6eded0d67","ios":"levelo://app?vid=9e65d539-6c66-44a3-a08b-39d6eded0d67"},"vehicle_type_id":"4","last_reported":1726470569,"current_range_meters":38400,"station_id":"ce4bgjh2rcd13ifvqbf0","pricing_plan_id":"cebpf4jnsgd1na2vs0mg"},{"bike_id":"9bc64dcb-de81-40e6-a29b-9269116d9d31","system_id":"levelo_inurba_marseille","lat":43.25821,"lon":5.39423,"is_reserved":false,"is_disabled":false,"rental_uris":{"android":"levelo://app?vid=9bc64dcb-de81-40e6-a29b-9269116d9d31","ios":"levelo://app?vid=9bc64dcb-de81-40e6-a29b-9269116d9d31"},"vehicle_type_id":"4","last_reported":1726470569,"current_range_meters":38800,"station_id":"ce4bhip2rcd13ifvqft0","pricing_plan_id":"cebpf4jnsgd1na2vs0mg"},{"bike_id":"26db0265-0a91-4c66-8aa8-67a94f7eef0d","system_id":"levelo_inurba_marseille","lat":43.26937,"lon":5.40049,"is_reserved":false,"is_disabled":false,"rental_uris":{"android":"levelo://app?vid=26db0265-0a91-4c66-8aa8-67a94f7eef0d","ios":"levelo://app?vid=26db0265-0a91-4c66-8aa8-67a94f7eef0d"},"vehicle_type_id":"4","last_reported":1726470569,"current_range_meters":6400,"station_id":"","pricing_plan_id":"cebpf4jnsgd1na2vs0mg"},{"bike_id":"981e56b2-1da6-4f64-8033-fef42efbb0ac","system_id":"levelo_inurba_marseille","lat":43.297,"lon":5.37279,"is_reserved":false,"is_disabled":false,"rental_uris":{"android":"levelo://app?vid=981e56b2-1da6-4f64-8033-fef42efbb0ac","ios":"levelo://app?vid=981e56b2-1da6-4f64-8033-fef42efbb0ac"},"vehicle_type_id":"4","last_reported":1726470569,"current_range_meters":4400,"station_id":"ce4bgk12rcd13ifvqbj0","pricing_plan_id":"cebpf4jnsgd1na2vs0mg"},{"bike_id":"7e09cfc8-acc0-40a6-95a5-90a7f4709cc0","system_id":"levelo_inurba_marseille","lat":43.29227,"lon":5.36063,"is_reserved":false,"is_disabled":false,"rental_uris":{"android":"levelo://app?vid=7e09cfc8-acc0-40a6-95a5-90a7f4709cc0","ios":"levelo://app?vid=7e09cfc8-acc0-40a6-95a5-90a7f4709cc0"},"vehicle_type_id":"4","last_reported":1726470569,"current_range_meters":38800,"station_id":"ce4bhbh2rcd13ifvqeqg","pricing_plan_id":"cebpf4jnsgd1na2vs0mg"},{"bike_id":"35d83e1c-8d22-4d5b-81e1-f90a9b152020","system_id":"levelo_inurba_marseille","lat":43.30147,"lon":5.37405,"is_reserved":false,"is_disabled":false,"rental_uris":{"android":"levelo://app?vid=35d83e1c-8d22-4d5b-81e1-f90a9b152020","ios":"levelo://app?vid=35d83e1c-8d22-4d5b-81e1-f90a9b152020"},"vehicle_type_id":"4","last_reported":1726470569,"current_range_meters":28800,"station_id":"ce4bgs92rcd13ifvqcc0","pricing_plan_id":"cebpf4jnsgd1na2vs0mg"},{"bike_id":"ae8e8cf7-81be-4014-b876-75573e4c8bb0","system_id":"levelo_inurba_marseille","lat":43.29227,"lon":5.36063,"is_reserved":false,"is_disabled":false,"rental_uris":{"android":"levelo://app?vid=ae8e8cf7-81be-4014-b876-75573e4c8bb0","ios":"levelo://app?vid=ae8e8cf7-81be-4014-b876-75573e4c8bb0"},"vehicle_type_id":"4","last_reported":1726470569,"current_range_meters":32400,"station_id":"ce4bhbh2rcd13ifvqeqg","pricing_plan_id":"cebpf4jnsgd1na2vs0mg"},{"bike_id":"b6ec5df3-1607-4730-b326-a448fb5df6d2","system_id":"levelo_inurba_marseille","lat":43.300293,"lon":5.370906,"is_reserved":false,"is_disabled":false,"rental_uris":{"android":"levelo://app?vid=b6ec5df3-1607-4730-b326-a448fb5df6d2","ios":"levelo://app?vid=b6ec5df3-1607-4730-b326-a448fb5df6d2"},"vehicle_type_id":"4","last_reported":1726470569,"current_range_meters":25600,"station_id":"","pricing_plan_id":"cebpf4jnsgd1na2vs0mg"},{"bike_id":"c45ca1bb-6626-4ef4-aa27-b128496f2c01","system_id":"levelo_inurba_marseille","lat":43.30154,"lon":5.38083,"is_reserved":false,"is_disabled":false,"rental_uris":{"android":"levelo://app?vid=c45ca1bb-6626-4ef4-aa27-b128496f2c01","ios":"levelo://app?vid=c45ca1bb-6626-4ef4-aa27-b128496f2c01"},"vehicle_type_id":"4","last_reported":1726470569,"current_range_meters":6800,"station_id":"ce4bgjp2rcd13ifvqbh0","pricing_plan_id":"cebpf4jnsgd1na2vs0mg"},{"bike_id":"8cb592d9-f82f-4171-894f-8d7ffa6525e5","system_id":"levelo_inurba_marseille","lat":43.232,"lon":5.35547,"is_reserved":false,"is_disabled":false,"rental_uris":{"android":"levelo://app?vid=8cb592d9-f82f-4171-894f-8d7ffa6525e5","ios":"levelo://app?vid=8cb592d9-f82f-4171-894f-8d7ffa6525e5"},"vehicle_type_id":"4","last_reported":1726470569,"current_range_meters":26000,"station_id":"ce4bhu92rcd13ifvqi70","pricing_plan_id":"cebpf4jnsgd1na2vs0mg"},{"bike_id":"79752fd1-c487-410d-a206-6bc206b43c4f","system_id":"levelo_inurba_marseille","lat":43.30154,"lon":5.37419,"is_reserved":false,"is_disabled":false,"rental_uris":{"android":"levelo://app?vid=79752fd1-c487-410d-a206-6bc206b43c4f","ios":"levelo://app?vid=79752fd1-c487-410d-a206-6bc206b43c4f"},"vehicle_type_id":"4","last_reported":1726470569,"current_range_meters":13600,"station_id":"ce4bgs92rcd13ifvqcc0","pricing_plan_id":"cebpf4jnsgd1na2vs0mg"},{"bike_id":"7bc7fe3c-4367-4ee6-9cce-9c63586e2c2c","system_id":"levelo_inurba_marseille","lat":43.29315,"lon":5.37051,"is_reserved":false,"is_disabled":false,"rental_uris":{"android":"levelo://app?vid=7bc7fe3c-4367-4ee6-9cce-9c63586e2c2c","ios":"levelo://app?vid=7bc7fe3c-4367-4ee6-9cce-9c63586e2c2c"},"vehicle_type_id":"4","last_reported":1726470569,"current_range_meters":17200,"station_id":"","pricing_plan_id":"cebpf4jnsgd1na2vs0mg"},{"bike_id":"bef8c51a-7016-432f-9556-8f959c58d2e9","system_id":"levelo_inurba_marseille","lat":43.31353,"lon":5.36729,"is_reserved":false,"is_disabled":false,"rental_uris":{"android":"levelo://app?vid=bef8c51a-7016-432f-9556-8f959c58d2e9","ios":"levelo://app?vid=bef8c51a-7016-432f-9556-8f959c58d2e9"},"vehicle_type_id":"4","last_reported":1726470569,"current_range_meters":17200,"station_id":"ce4bgr92rcd13ifvqc6g","pricing_plan_id":"cebpf4jnsgd1na2vs0mg"},{"bike_id":"7861d110-425b-4fa7-90ad-db8dc904e41e","system_id":"levelo_inurba_marseille","lat":43.33605,"lon":5.41022,"is_reserved":false,"is_disabled":false,"rental_uris":{"android":"levelo://app?vid=7861d110-425b-4fa7-90ad-db8dc904e41e","ios":"levelo://app?vid=7861d110-425b-4fa7-90ad-db8dc904e41e"},"vehicle_type_id":"4","last_reported":1726470569,"current_range_meters":22400,"station_id":"ce4bhqh2rcd13ifvqhmg","pricing_plan_id":"cebpf4jnsgd1na2vs0mg"},{"bike_id":"c1a56775-b0a7-436e-9740-9e49548cb37d","system_id":"levelo_inurba_marseille","lat":43.23151,"lon":5.43714,"is_reserved":false,"is_disabled":false,"rental_uris":{"android":"levelo://app?vid=c1a56775-b0a7-436e-9740-9e49548cb37d","ios":"levelo://app?vid=c1a56775-b0a7-436e-9740-9e49548cb37d"},"vehicle_type_id":"4","last_reported":1726470569,"current_range_meters":22800,"station_id":"ce4bhmp2rcd13ifvqgog","pricing_plan_id":"cebpf4jnsgd1na2vs0mg"},{"bike_id":"a985b6c3-536c-42a9-8de5-82557f9147a5","system_id":"levelo_inurba_marseille","lat":43.25488,"lon":5.37649,"is_reserved":false,"is_disabled":false,"rental_uris":{"android":"levelo://app?vid=a985b6c3-536c-42a9-8de5-82557f9147a5","ios":"levelo://app?vid=a985b6c3-536c-42a9-8de5-82557f9147a5"},"vehicle_type_id":"4","last_reported":1726470569,"current_range_meters":37600,"station_id":"ce4bhh12rcd13ifvqff0","pricing_plan_id":"cebpf4jnsgd1na2vs0mg"},{"bike_id":"f4e21541-cfe5-494b-b62b-57b811b05280","system_id":"levelo_inurba_marseille","lat":43.24081,"lon":5.37751,"is_reserved":false,"is_disabled":false,"rental_uris":{"android":"levelo://app?vid=f4e21541-cfe5-494b-b62b-57b811b05280","ios":"levelo://app?vid=f4e21541-cfe5-494b-b62b-57b811b05280"},"vehicle_type_id":"4","last_reported":1726470569,"current_range_meters":30400,"station_id":"ce4bhnp2rcd13ifvqgvg","pricing_plan_id":"cebpf4jnsgd1na2vs0mg"},{"bike_id":"23af3e5f-c4dd-433e-9385-25485af76f31","system_id":"levelo_inurba_marseille","lat":43.325,"lon":5.36561,"is_reserved":false,"is_disabled":false,"rental_uris":{"android":"levelo://app?vid=23af3e5f-c4dd-433e-9385-25485af76f31","ios":"levelo://app?vid=23af3e5f-c4dd-433e-9385-25485af76f31"},"vehicle_type_id":"4","last_reported":1726470569,"current_range_meters":19600,"station_id":"ce4bhs12rcd13ifvqhvg","pricing_plan_id":"cebpf4jnsgd1na2vs0mg"},{"bike_id":"9c25d7f9-3117-44f1-acec-713cdafffebf","system_id":"levelo_inurba_marseille","lat":43.34149,"lon":5.4092,"is_reserved":false,"is_disabled":false,"rental_uris":{"android":"levelo://app?vid=9c25d7f9-3117-44f1-acec-713cdafffebf","ios":"levelo://app?vid=9c25d7f9-3117-44f1-acec-713cdafffebf"},"vehicle_type_id":"4","last_reported":1726470569,"current_range_meters":34000,"station_id":"ce4bhqh2rcd13ifvqhlg","pricing_plan_id":"cebpf4jnsgd1na2vs0mg"},{"bike_id":"8f979555-d0d6-4c8f-9fce-0747a350b182","system_id":"levelo_inurba_marseille","lat":43.28715,"lon":5.37947,"is_reserved":false,"is_disabled":false,"rental_uris":{"android":"levelo://app?vid=8f979555-d0d6-4c8f-9fce-0747a350b182","ios":"levelo://app?vid=8f979555-d0d6-4c8f-9fce-0747a350b182"},"vehicle_type_id":"4","last_reported":1726470569,"current_range_meters":37600,"station_id":"ce4bh9p2rcd13ifvqec0","pricing_plan_id":"cebpf4jnsgd1na2vs0mg"},{"bike_id":"ee61d895-0129-4f56-b53c-6162a3381582","system_id":"levelo_inurba_marseille","lat":43.32549,"lon":5.41437,"is_reserved":false,"is_disabled":false,"rental_uris":{"android":"levelo://app?vid=ee61d895-0129-4f56-b53c-6162a3381582","ios":"levelo://app?vid=ee61d895-0129-4f56-b53c-6162a3381582"},"vehicle_type_id":"4","last_reported":1726470569,"current_range_meters":22800,"station_id":"ce4bhq12rcd13ifvqhhg","pricing_plan_id":"cebpf4jnsgd1na2vs0mg"},{"bike_id":"b1db6496-7d7b-4acc-a88c-e5406d38e100","system_id":"levelo_inurba_marseille","lat":43.23192,"lon":5.35552,"is_reserved":false,"is_disabled":false,"rental_uris":{"android":"levelo://app?vid=b1db6496-7d7b-4acc-a88c-e5406d38e100","ios":"levelo://app?vid=b1db6496-7d7b-4acc-a88c-e5406d38e100"},"vehicle_type_id":"4","last_reported":1726470569,"current_range_meters":33200,"station_id":"ce4bhu92rcd13ifvqi70","pricing_plan_id":"cebpf4jnsgd1na2vs0mg"},{"bike_id":"96709300-0211-4b29-8fad-153835142d8f","system_id":"levelo_inurba_marseille","lat":43.27498,"lon":5.42449,"is_reserved":false,"is_disabled":false,"rental_uris":{"android":"levelo://app?vid=96709300-0211-4b29-8fad-153835142d8f","ios":"levelo://app?vid=96709300-0211-4b29-8fad-153835142d8f"},"vehicle_type_id":"4","last_reported":1726470569,"current_range_meters":28000,"station_id":"ce4bhn92rcd13ifvqgrg","pricing_plan_id":"cebpf4jnsgd1na2vs0mg"},{"bike_id":"ee721f16-71d0-49c8-9da4-858f78b55bcb","system_id":"levelo_inurba_marseille","lat":43.25948,"lon":5.40905,"is_reserved":false,"is_disabled":false,"rental_uris":{"android":"levelo://app?vid=ee721f16-71d0-49c8-9da4-858f78b55bcb","ios":"levelo://app?vid=ee721f16-71d0-49c8-9da4-858f78b55bcb"},"vehicle_type_id":"4","last_reported":1726470569,"current_range_meters":22000,"station_id":"ce4bhm92rcd13ifvqglg","pricing_plan_id":"cebpf4jnsgd1na2vs0mg"},{"bike_id":"673c1b5e-9443-4dc4-bb54-52e29ea0abc7","system_id":"levelo_inurba_marseille","lat":43.23154,"lon":5.43722,"is_reserved":false,"is_disabled":false,"rental_uris":{"android":"levelo://app?vid=673c1b5e-9443-4dc4-bb54-52e29ea0abc7","ios":"levelo://app?vid=673c1b5e-9443-4dc4-bb54-52e29ea0abc7"},"vehicle_type_id":"4","last_reported":1726470569,"current_range_meters":20000,"station_id":"ce4bhmp2rcd13ifvqgog","pricing_plan_id":"cebpf4jnsgd1na2vs0mg"},{"bike_id":"5cf4c2f1-f092-4550-b8cf-369099ebc3bc","system_id":"levelo_inurba_marseille","lat":43.24563,"lon":5.41552,"is_reserved":false,"is_disabled":false,"rental_uris":{"android":"levelo://app?vid=5cf4c2f1-f092-4550-b8cf-369099ebc3bc","ios":"levelo://app?vid=5cf4c2f1-f092-4550-b8cf-369099ebc3bc"},"vehicle_type_id":"4","last_reported":1726470569,"current_range_meters":9200,"station_id":"ce4bhlh2rcd13ifvqgig","pricing_plan_id":"cebpf4jnsgd1na2vs0mg"},{"bike_id":"49630cfd-2369-4ecd-9ab1-a39878c6fb40","system_id":"levelo_inurba_marseille","lat":43.28719,"lon":5.37938,"is_reserved":false,"is_disabled":false,"rental_uris":{"android":"levelo://app?vid=49630cfd-2369-4ecd-9ab1-a39878c6fb40","ios":"levelo://app?vid=49630cfd-2369-4ecd-9ab1-a39878c6fb40"},"vehicle_type_id":"4","last_reported":1726470569,"current_range_meters":36000,"station_id":"ce4bh9p2rcd13ifvqec0","pricing_plan_id":"cebpf4jnsgd1na2vs0mg"},{"bike_id":"4721e0a5-8c0a-4c61-91fb-10c3ba183135","system_id":"levelo_inurba_marseille","lat":43.24079,"lon":5.3776,"is_reserved":false,"is_disabled":false,"rental_uris":{"android":"levelo://app?vid=4721e0a5-8c0a-4c61-91fb-10c3ba183135","ios":"levelo://app?vid=4721e0a5-8c0a-4c61-91fb-10c3ba183135"},"vehicle_type_id":"4","last_reported":1726470569,"current_range_meters":9600,"station_id":"ce4bhnp2rcd13ifvqgvg","pricing_plan_id":"cebpf4jnsgd1na2vs0mg"},{"bike_id":"738dc884-b3f0-4c47-a6a6-5399037f42a5","system_id":"levelo_inurba_marseille","lat":43.28725,"lon":5.37934,"is_reserved":false,"is_disabled":false,"rental_uris":{"android":"levelo://app?vid=738dc884-b3f0-4c47-a6a6-5399037f42a5","ios":"levelo://app?vid=738dc884-b3f0-4c47-a6a6-5399037f42a5"},"vehicle_type_id":"4","last_reported":1726470569,"current_range_meters":30800,"station_id":"ce4bh9p2rcd13ifvqec0","pricing_plan_id":"cebpf4jnsgd1na2vs0mg"},{"bike_id":"384ca147-e2d1-45e2-8eda-4f80db907d1d","system_id":"levelo_inurba_marseille","lat":43.24085,"lon":5.37751,"is_reserved":false,"is_disabled":false,"rental_uris":{"android":"levelo://app?vid=384ca147-e2d1-45e2-8eda-4f80db907d1d","ios":"levelo://app?vid=384ca147-e2d1-45e2-8eda-4f80db907d1d"},"vehicle_type_id":"4","last_reported":1726470569,"current_range_meters":14400,"station_id":"ce4bhnp2rcd13ifvqgvg","pricing_plan_id":"cebpf4jnsgd1na2vs0mg"},{"bike_id":"223bcd1f-bde5-46f7-ab5f-e5751f9d998e","system_id":"levelo_inurba_marseille","lat":43.30555,"lon":5.36696,"is_reserved":false,"is_disabled":false,"rental_uris":{"android":"levelo://app?vid=223bcd1f-bde5-46f7-ab5f-e5751f9d998e","ios":"levelo://app?vid=223bcd1f-bde5-46f7-ab5f-e5751f9d998e"},"vehicle_type_id":"4","last_reported":1726470569,"current_range_meters":20800,"station_id":"ce4bgrp2rcd13ifvqc9g","pricing_plan_id":"cebpf4jnsgd1na2vs0mg"},{"bike_id":"b08950ba-02a0-46d4-8c68-863f0b3477e8","system_id":"levelo_inurba_marseille","lat":43.32491,"lon":5.36562,"is_reserved":false,"is_disabled":false,"rental_uris":{"android":"levelo://app?vid=b08950ba-02a0-46d4-8c68-863f0b3477e8","ios":"levelo://app?vid=b08950ba-02a0-46d4-8c68-863f0b3477e8"},"vehicle_type_id":"4","last_reported":1726470569,"current_range_meters":38000,"station_id":"ce4bhs12rcd13ifvqhvg","pricing_plan_id":"cebpf4jnsgd1na2vs0mg"},{"bike_id":"b645ac77-0d58-4fa9-8ad3-947af8bdb1d9","system_id":"levelo_inurba_marseille","lat":43.299,"lon":5.43658,"is_reserved":false,"is_disabled":false,"rental_uris":{"android":"levelo://app?vid=b645ac77-0d58-4fa9-8ad3-947af8bdb1d9","ios":"levelo://app?vid=b645ac77-0d58-4fa9-8ad3-947af8bdb1d9"},"vehicle_type_id":"4","last_reported":1726470569,"current_range_meters":30000,"station_id":"ce4bhpp2rcd13ifvqhfg","pricing_plan_id":"cebpf4jnsgd1na2vs0mg"},{"bike_id":"03515e55-0de8-4f6d-953a-abbf71a9cce4","system_id":"levelo_inurba_marseille","lat":43.24075,"lon":5.37758,"is_reserved":false,"is_disabled":false,"rental_uris":{"android":"levelo://app?vid=03515e55-0de8-4f6d-953a-abbf71a9cce4","ios":"levelo://app?vid=03515e55-0de8-4f6d-953a-abbf71a9cce4"},"vehicle_type_id":"4","last_reported":1726470569,"current_range_meters":12000,"station_id":"ce4bhnp2rcd13ifvqgvg","pricing_plan_id":"cebpf4jnsgd1na2vs0mg"},{"bike_id":"80668a72-8a08-4a1c-a271-b8c31881a305","system_id":"levelo_inurba_marseille","lat":43.274256,"lon":5.394238,"is_reserved":false,"is_disabled":false,"rental_uris":{"android":"levelo://app?vid=80668a72-8a08-4a1c-a271-b8c31881a305","ios":"levelo://app?vid=80668a72-8a08-4a1c-a271-b8c31881a305"},"vehicle_type_id":"4","last_reported":1726470569,"current_range_meters":8800,"station_id":"ce4bhdp2rcd13ifvqf20","pricing_plan_id":"cebpf4jnsgd1na2vs0mg"},{"bike_id":"8e04ad42-4fb7-46a5-8bdd-901fc987436f","system_id":"levelo_inurba_marseille","lat":43.31032,"lon":5.38068,"is_reserved":false,"is_disabled":false,"rental_uris":{"android":"levelo://app?vid=8e04ad42-4fb7-46a5-8bdd-901fc987436f","ios":"levelo://app?vid=8e04ad42-4fb7-46a5-8bdd-901fc987436f"},"vehicle_type_id":"4","last_reported":1726470569,"current_range_meters":34800,"station_id":"","pricing_plan_id":"cebpf4jnsgd1na2vs0mg"},{"bike_id":"7abc2a25-404a-4f70-a7c0-c89315b5c4bc","system_id":"levelo_inurba_marseille","lat":43.2924,"lon":5.39965,"is_reserved":false,"is_disabled":false,"rental_uris":{"android":"levelo://app?vid=7abc2a25-404a-4f70-a7c0-c89315b5c4bc","ios":"levelo://app?vid=7abc2a25-404a-4f70-a7c0-c89315b5c4bc"},"vehicle_type_id":"4","last_reported":1726470569,"current_range_meters":27600,"station_id":"","pricing_plan_id":"cebpf4jnsgd1na2vs0mg"},{"bike_id":"a5306699-aa7b-4204-b727-7976ba1e747b","system_id":"levelo_inurba_marseille","lat":43.25935,"lon":5.40915,"is_reserved":false,"is_disabled":false,"rental_uris":{"android":"levelo://app?vid=a5306699-aa7b-4204-b727-7976ba1e747b","ios":"levelo://app?vid=a5306699-aa7b-4204-b727-7976ba1e747b"},"vehicle_type_id":"4","last_reported":1726470569,"current_range_meters":36000,"station_id":"ce4bhm92rcd13ifvqglg","pricing_plan_id":"cebpf4jnsgd1na2vs0mg"},{"bike_id":"a7ecd9db-1a38-4e10-86f1-89622c55a8f6","system_id":"levelo_inurba_marseille","lat":43.269562,"lon":5.390099,"is_reserved":false,"is_disabled":false,"rental_uris":{"android":"levelo://app?vid=a7ecd9db-1a38-4e10-86f1-89622c55a8f6","ios":"levelo://app?vid=a7ecd9db-1a38-4e10-86f1-89622c55a8f6"},"vehicle_type_id":"4","last_reported":1726470569,"current_range_meters":34000,"station_id":"ce4bh512rcd13ifvqe3g","pricing_plan_id":"cebpf4jnsgd1na2vs0mg"},{"bike_id":"677498c9-746b-4650-9a8e-2c7479635944","system_id":"levelo_inurba_marseille","lat":43.33022,"lon":5.3905,"is_reserved":false,"is_disabled":false,"rental_uris":{"android":"levelo://app?vid=677498c9-746b-4650-9a8e-2c7479635944","ios":"levelo://app?vid=677498c9-746b-4650-9a8e-2c7479635944"},"vehicle_type_id":"4","last_reported":1726470569,"current_range_meters":28400,"station_id":"ce4bhr92rcd13ifvqhrg","pricing_plan_id":"cebpf4jnsgd1na2vs0mg"},{"bike_id":"0c5268db-dfe0-4430-9479-92a45a7e6162","system_id":"levelo_inurba_marseille","lat":43.29374,"lon":5.3786,"is_reserved":false,"is_disabled":false,"rental_uris":{"android":"levelo://app?vid=0c5268db-dfe0-4430-9479-92a45a7e6162","ios":"levelo://app?vid=0c5268db-dfe0-4430-9479-92a45a7e6162"},"vehicle_type_id":"4","last_reported":1726470569,"current_range_meters":38800,"station_id":"ce4bgjh2rcd13ifvqbf0","pricing_plan_id":"cebpf4jnsgd1na2vs0mg"},{"bike_id":"3f5b63b5-9f49-4a52-a4be-0b706a026622","system_id":"levelo_inurba_marseille","lat":43.3302,"lon":5.39039,"is_reserved":false,"is_disabled":false,"rental_uris":{"android":"levelo://app?vid=3f5b63b5-9f49-4a52-a4be-0b706a026622","ios":"levelo://app?vid=3f5b63b5-9f49-4a52-a4be-0b706a026622"},"vehicle_type_id":"4","last_reported":1726470569,"current_range_meters":38800,"station_id":"ce4bhr92rcd13ifvqhrg","pricing_plan_id":"cebpf4jnsgd1na2vs0mg"},{"bike_id":"7e84a3ad-b6e2-47cb-a879-414e01b71399","system_id":"levelo_inurba_marseille","lat":43.27496,"lon":5.42449,"is_reserved":false,"is_disabled":false,"rental_uris":{"android":"levelo://app?vid=7e84a3ad-b6e2-47cb-a879-414e01b71399","ios":"levelo://app?vid=7e84a3ad-b6e2-47cb-a879-414e01b71399"},"vehicle_type_id":"4","last_reported":1726470569,"current_range_meters":36800,"station_id":"ce4bhn92rcd13ifvqgrg","pricing_plan_id":"cebpf4jnsgd1na2vs0mg"},{"bike_id":"2e99032b-8e36-409f-bbcb-73d289948171","system_id":"levelo_inurba_marseille","lat":43.29199,"lon":5.35809,"is_reserved":false,"is_disabled":false,"rental_uris":{"android":"levelo://app?vid=2e99032b-8e36-409f-bbcb-73d289948171","ios":"levelo://app?vid=2e99032b-8e36-409f-bbcb-73d289948171"},"vehicle_type_id":"4","last_reported":1726470569,"current_range_meters":12000,"station_id":"ce4bhb12rcd13ifvqel0","pricing_plan_id":"cebpf4jnsgd1na2vs0mg"},{"bike_id":"3540bcdf-cf57-41b9-9163-5f5aeb577896","system_id":"levelo_inurba_marseille","lat":43.27381,"lon":5.36257,"is_reserved":false,"is_disabled":false,"rental_uris":{"android":"levelo://app?vid=3540bcdf-cf57-41b9-9163-5f5aeb577896","ios":"levelo://app?vid=3540bcdf-cf57-41b9-9163-5f5aeb577896"},"vehicle_type_id":"4","last_reported":1726470569,"current_range_meters":38000,"station_id":"ce4bhbh2rcd13ifvqeo0","pricing_plan_id":"cebpf4jnsgd1na2vs0mg"},{"bike_id":"a3d0c5f5-3775-49be-aba5-48b65b48b5d2","system_id":"levelo_inurba_marseille","lat":43.25,"lon":5.38931,"is_reserved":false,"is_disabled":false,"rental_uris":{"android":"levelo://app?vid=a3d0c5f5-3775-49be-aba5-48b65b48b5d2","ios":"levelo://app?vid=a3d0c5f5-3775-49be-aba5-48b65b48b5d2"},"vehicle_type_id":"4","last_reported":1726470569,"current_range_meters":29600,"station_id":"ce4bhgp2rcd13ifvqfd0","pricing_plan_id":"cebpf4jnsgd1na2vs0mg"},{"bike_id":"05128204-7475-4978-ada7-4b9b3aaae58e","system_id":"levelo_inurba_marseille","lat":43.24668,"lon":5.38168,"is_reserved":false,"is_disabled":false,"rental_uris":{"android":"levelo://app?vid=05128204-7475-4978-ada7-4b9b3aaae58e","ios":"levelo://app?vid=05128204-7475-4978-ada7-4b9b3aaae58e"},"vehicle_type_id":"4","last_reported":1726470569,"current_range_meters":38800,"station_id":"ce4bhih2rcd13ifvqfr0","pricing_plan_id":"cebpf4jnsgd1na2vs0mg"},{"bike_id":"8f733da8-974b-48c5-991b-191ad38cc2ec","system_id":"levelo_inurba_marseille","lat":43.25122,"lon":5.40315,"is_reserved":false,"is_disabled":false,"rental_uris":{"android":"levelo://app?vid=8f733da8-974b-48c5-991b-191ad38cc2ec","ios":"levelo://app?vid=8f733da8-974b-48c5-991b-191ad38cc2ec"},"vehicle_type_id":"4","last_reported":1726470569,"current_range_meters":38800,"station_id":"ce4bhlh2rcd13ifvqgig","pricing_plan_id":"cebpf4jnsgd1na2vs0mg"},{"bike_id":"d026a83b-f22d-4a8c-b2f2-7730a6b16272","system_id":"levelo_inurba_marseille","lat":43.23153,"lon":5.43722,"is_reserved":false,"is_disabled":false,"rental_uris":{"android":"levelo://app?vid=d026a83b-f22d-4a8c-b2f2-7730a6b16272","ios":"levelo://app?vid=d026a83b-f22d-4a8c-b2f2-7730a6b16272"},"vehicle_type_id":"4","last_reported":1726470569,"current_range_meters":5600,"station_id":"ce4bhmp2rcd13ifvqgog","pricing_plan_id":"cebpf4jnsgd1na2vs0mg"},{"bike_id":"d0428007-234d-4ac1-9880-363777a69845","system_id":"levelo_inurba_marseille","lat":43.33728,"lon":5.39183,"is_reserved":false,"is_disabled":false,"rental_uris":{"android":"levelo://app?vid=d0428007-234d-4ac1-9880-363777a69845","ios":"levelo://app?vid=d0428007-234d-4ac1-9880-363777a69845"},"vehicle_type_id":"4","last_reported":1726470569,"current_range_meters":37600,"station_id":"ce4bhr92rcd13ifvqhsg","pricing_plan_id":"cebpf4jnsgd1na2vs0mg"},{"bike_id":"34d94a26-ec93-4e8d-a6c6-3d558ea2d4e4","system_id":"levelo_inurba_marseille","lat":43.25941,"lon":5.40902,"is_reserved":false,"is_disabled":false,"rental_uris":{"android":"levelo://app?vid=34d94a26-ec93-4e8d-a6c6-3d558ea2d4e4","ios":"levelo://app?vid=34d94a26-ec93-4e8d-a6c6-3d558ea2d4e4"},"vehicle_type_id":"4","last_reported":1726470569,"current_range_meters":19600,"station_id":"ce4bhm92rcd13ifvqglg","pricing_plan_id":"cebpf4jnsgd1na2vs0mg"},{"bike_id":"4b2ba85a-29ad-44c1-a157-f219369e26f8","system_id":"levelo_inurba_marseille","lat":43.27499,"lon":5.42454,"is_reserved":false,"is_disabled":false,"rental_uris":{"android":"levelo://app?vid=4b2ba85a-29ad-44c1-a157-f219369e26f8","ios":"levelo://app?vid=4b2ba85a-29ad-44c1-a157-f219369e26f8"},"vehicle_type_id":"4","last_reported":1726470569,"current_range_meters":34800,"station_id":"ce4bhn92rcd13ifvqgrg","pricing_plan_id":"cebpf4jnsgd1na2vs0mg"},{"bike_id":"99684f50-b398-427b-a4e9-7ca0a0382c79","system_id":"levelo_inurba_marseille","lat":43.23198,"lon":5.35551,"is_reserved":false,"is_disabled":false,"rental_uris":{"android":"levelo://app?vid=99684f50-b398-427b-a4e9-7ca0a0382c79","ios":"levelo://app?vid=99684f50-b398-427b-a4e9-7ca0a0382c79"},"vehicle_type_id":"4","last_reported":1726470569,"current_range_meters":39200,"station_id":"ce4bhu92rcd13ifvqi70","pricing_plan_id":"cebpf4jnsgd1na2vs0mg"},{"bike_id":"765e5c0b-1005-459e-be03-72e554c82b68","system_id":"levelo_inurba_marseille","lat":43.28041,"lon":5.3694,"is_reserved":false,"is_disabled":false,"rental_uris":{"android":"levelo://app?vid=765e5c0b-1005-459e-be03-72e554c82b68","ios":"levelo://app?vid=765e5c0b-1005-459e-be03-72e554c82b68"},"vehicle_type_id":"4","last_reported":1726470569,"current_range_meters":32000,"station_id":"ce4bha12rcd13ifvqef0","pricing_plan_id":"cebpf4jnsgd1na2vs0mg"},{"bike_id":"28252d30-7a05-454e-9870-610a52d23e7d","system_id":"levelo_inurba_marseille","lat":43.30157,"lon":5.38076,"is_reserved":false,"is_disabled":false,"rental_uris":{"android":"levelo://app?vid=28252d30-7a05-454e-9870-610a52d23e7d","ios":"levelo://app?vid=28252d30-7a05-454e-9870-610a52d23e7d"},"vehicle_type_id":"4","last_reported":1726470569,"current_range_meters":5600,"station_id":"ce4bgjp2rcd13ifvqbh0","pricing_plan_id":"cebpf4jnsgd1na2vs0mg"},{"bike_id":"0f808d02-6df2-4fb7-b534-a56f3c6d6147","system_id":"levelo_inurba_marseille","lat":43.32485,"lon":5.36556,"is_reserved":false,"is_disabled":false,"rental_uris":{"android":"levelo://app?vid=0f808d02-6df2-4fb7-b534-a56f3c6d6147","ios":"levelo://app?vid=0f808d02-6df2-4fb7-b534-a56f3c6d6147"},"vehicle_type_id":"4","last_reported":1726470569,"current_range_meters":32000,"station_id":"ce4bhs12rcd13ifvqhvg","pricing_plan_id":"cebpf4jnsgd1na2vs0mg"},{"bike_id":"5c06497f-1680-497d-bb52-b03bd82e70e8","system_id":"levelo_inurba_marseille","lat":43.317261,"lon":5.423942,"is_reserved":false,"is_disabled":false,"rental_uris":{"android":"levelo://app?vid=5c06497f-1680-497d-bb52-b03bd82e70e8","ios":"levelo://app?vid=5c06497f-1680-497d-bb52-b03bd82e70e8"},"vehicle_type_id":"4","last_reported":1726470569,"current_range_meters":38000,"station_id":"ce4bhp92rcd13ifvqhbg","pricing_plan_id":"cebpf4jnsgd1na2vs0mg"},{"bike_id":"42360a86-0f0c-4873-b432-71023355e653","system_id":"levelo_inurba_marseille","lat":43.314972,"lon":5.373116,"is_reserved":false,"is_disabled":false,"rental_uris":{"android":"levelo://app?vid=42360a86-0f0c-4873-b432-71023355e653","ios":"levelo://app?vid=42360a86-0f0c-4873-b432-71023355e653"},"vehicle_type_id":"4","last_reported":1726470569,"current_range_meters":38800,"station_id":"ce4bgt12rcd13ifvqcd0","pricing_plan_id":"cebpf4jnsgd1na2vs0mg"},{"bike_id":"7b4c1b47-f717-4b17-afb3-b677728cc8c3","system_id":"levelo_inurba_marseille","lat":43.24548,"lon":5.39519,"is_reserved":false,"is_disabled":false,"rental_uris":{"android":"levelo://app?vid=7b4c1b47-f717-4b17-afb3-b677728cc8c3","ios":"levelo://app?vid=7b4c1b47-f717-4b17-afb3-b677728cc8c3"},"vehicle_type_id":"4","last_reported":1726470569,"current_range_meters":22000,"station_id":"ce4bhlp2rcd13ifvqgjg","pricing_plan_id":"cebpf4jnsgd1na2vs0mg"},{"bike_id":"2800424a-f09d-49ff-8dba-446d56f56b06","system_id":"levelo_inurba_marseille","lat":43.29527,"lon":5.37501,"is_reserved":false,"is_disabled":false,"rental_uris":{"android":"levelo://app?vid=2800424a-f09d-49ff-8dba-446d56f56b06","ios":"levelo://app?vid=2800424a-f09d-49ff-8dba-446d56f56b06"},"vehicle_type_id":"4","last_reported":1726470569,"current_range_meters":38400,"station_id":"ce4bgkp2rcd13ifvqbmg","pricing_plan_id":"cebpf4jnsgd1na2vs0mg"},{"bike_id":"180375d7-6e60-4dbd-b6b3-f168619afc88","system_id":"levelo_inurba_marseille","lat":43.25938,"lon":5.40897,"is_reserved":false,"is_disabled":false,"rental_uris":{"android":"levelo://app?vid=180375d7-6e60-4dbd-b6b3-f168619afc88","ios":"levelo://app?vid=180375d7-6e60-4dbd-b6b3-f168619afc88"},"vehicle_type_id":"4","last_reported":1726470569,"current_range_meters":2000,"station_id":"ce4bhm92rcd13ifvqglg","pricing_plan_id":"cebpf4jnsgd1na2vs0mg"},{"bike_id":"c1fcd153-5567-4765-9736-73a42ed0d935","system_id":"levelo_inurba_marseille","lat":43.33607,"lon":5.41033,"is_reserved":false,"is_disabled":false,"rental_uris":{"android":"levelo://app?vid=c1fcd153-5567-4765-9736-73a42ed0d935","ios":"levelo://app?vid=c1fcd153-5567-4765-9736-73a42ed0d935"},"vehicle_type_id":"4","last_reported":1726470569,"current_range_meters":24800,"station_id":"ce4bhqh2rcd13ifvqhmg","pricing_plan_id":"cebpf4jnsgd1na2vs0mg"},{"bike_id":"da8bc522-4b93-4ef8-8f76-bad542168828","system_id":"levelo_inurba_marseille","lat":43.26686,"lon":5.38278,"is_reserved":false,"is_disabled":false,"rental_uris":{"android":"levelo://app?vid=da8bc522-4b93-4ef8-8f76-bad542168828","ios":"levelo://app?vid=da8bc522-4b93-4ef8-8f76-bad542168828"},"vehicle_type_id":"4","last_reported":1726470569,"current_range_meters":18000,"station_id":"ce4bhg92rcd13ifvqf90","pricing_plan_id":"cebpf4jnsgd1na2vs0mg"},{"bike_id":"56dd57e1-406a-47f3-8427-644759b5da24","system_id":"levelo_inurba_marseille","lat":43.29029,"lon":5.39984,"is_reserved":false,"is_disabled":false,"rental_uris":{"android":"levelo://app?vid=56dd57e1-406a-47f3-8427-644759b5da24","ios":"levelo://app?vid=56dd57e1-406a-47f3-8427-644759b5da24"},"vehicle_type_id":"4","last_reported":1726470569,"current_range_meters":30800,"station_id":"ce4bh392rcd13ifvqdm0","pricing_plan_id":"cebpf4jnsgd1na2vs0mg"},{"bike_id":"0a2e1c3b-f8e0-4541-91a6-a4751989ba76","system_id":"levelo_inurba_marseille","lat":43.31339,"lon":5.36726,"is_reserved":false,"is_disabled":false,"rental_uris":{"android":"levelo://app?vid=0a2e1c3b-f8e0-4541-91a6-a4751989ba76","ios":"levelo://app?vid=0a2e1c3b-f8e0-4541-91a6-a4751989ba76"},"vehicle_type_id":"4","last_reported":1726470569,"current_range_meters":34000,"station_id":"ce4bgr92rcd13ifvqc6g","pricing_plan_id":"cebpf4jnsgd1na2vs0mg"},{"bike_id":"c9a3ed52-5ddf-47cf-8c4e-33220a845b1f","system_id":"levelo_inurba_marseille","lat":43.27571,"lon":5.38403,"is_reserved":false,"is_disabled":false,"rental_uris":{"android":"levelo://app?vid=c9a3ed52-5ddf-47cf-8c4e-33220a845b1f","ios":"levelo://app?vid=c9a3ed52-5ddf-47cf-8c4e-33220a845b1f"},"vehicle_type_id":"4","last_reported":1726470569,"current_range_meters":23200,"station_id":"ce4bhh92rcd13ifvqfi0","pricing_plan_id":"cebpf4jnsgd1na2vs0mg"},{"bike_id":"00605c99-3b5b-4ed7-925d-c6f6abdbbb89","system_id":"levelo_inurba_marseille","lat":43.28001,"lon":5.40024,"is_reserved":false,"is_disabled":false,"rental_uris":{"android":"levelo://app?vid=00605c99-3b5b-4ed7-925d-c6f6abdbbb89","ios":"levelo://app?vid=00605c99-3b5b-4ed7-925d-c6f6abdbbb89"},"vehicle_type_id":"4","last_reported":1726470569,"current_range_meters":36800,"station_id":"ce4bho92rcd13ifvqh4g","pricing_plan_id":"cebpf4jnsgd1na2vs0mg"},{"bike_id":"c3bb106d-267f-4c7d-84e0-1a6378204a6c","system_id":"levelo_inurba_marseille","lat":43.29556,"lon":5.42286,"is_reserved":false,"is_disabled":false,"rental_uris":{"android":"levelo://app?vid=c3bb106d-267f-4c7d-84e0-1a6378204a6c","ios":"levelo://app?vid=c3bb106d-267f-4c7d-84e0-1a6378204a6c"},"vehicle_type_id":"4","last_reported":1726470569,"current_range_meters":38000,"station_id":"ce4bhph2rcd13ifvqhdg","pricing_plan_id":"cebpf4jnsgd1na2vs0mg"},{"bike_id":"be6a7145-0791-40f8-a3e4-321fb362448d","system_id":"levelo_inurba_marseille","lat":43.27502,"lon":5.42455,"is_reserved":false,"is_disabled":false,"rental_uris":{"android":"levelo://app?vid=be6a7145-0791-40f8-a3e4-321fb362448d","ios":"levelo://app?vid=be6a7145-0791-40f8-a3e4-321fb362448d"},"vehicle_type_id":"4","last_reported":1726470569,"current_range_meters":4800,"station_id":"ce4bhn92rcd13ifvqgrg","pricing_plan_id":"cebpf4jnsgd1na2vs0mg"},{"bike_id":"42a5feda-fb96-499f-a251-d993be0f828f","system_id":"levelo_inurba_marseille","lat":43.30212,"lon":5.39462,"is_reserved":false,"is_disabled":false,"rental_uris":{"android":"levelo://app?vid=42a5feda-fb96-499f-a251-d993be0f828f","ios":"levelo://app?vid=42a5feda-fb96-499f-a251-d993be0f828f"},"vehicle_type_id":"4","last_reported":1726470569,"current_range_meters":22000,"station_id":"ce4bh0p2rcd13ifvqd70","pricing_plan_id":"cebpf4jnsgd1na2vs0mg"},{"bike_id":"74e269a1-4213-4aef-a0d5-4603d4479e8f","system_id":"levelo_inurba_marseille","lat":43.288524,"lon":5.393181,"is_reserved":false,"is_disabled":false,"rental_uris":{"android":"levelo://app?vid=74e269a1-4213-4aef-a0d5-4603d4479e8f","ios":"levelo://app?vid=74e269a1-4213-4aef-a0d5-4603d4479e8f"},"vehicle_type_id":"4","last_reported":1726470569,"current_range_meters":37600,"station_id":"ce4bh2p2rcd13ifvqdi0","pricing_plan_id":"cebpf4jnsgd1na2vs0mg"},{"bike_id":"178d26a0-641d-4bd2-b355-e6bbf632c7de","system_id":"levelo_inurba_marseille","lat":43.30544,"lon":5.3655,"is_reserved":false,"is_disabled":false,"rental_uris":{"android":"levelo://app?vid=178d26a0-641d-4bd2-b355-e6bbf632c7de","ios":"levelo://app?vid=178d26a0-641d-4bd2-b355-e6bbf632c7de"},"vehicle_type_id":"4","last_reported":1726470569,"current_range_meters":30800,"station_id":"ce4bgs12rcd13ifvqcag","pricing_plan_id":"cebpf4jnsgd1na2vs0mg"},{"bike_id":"3577277c-568a-462e-bd85-1481d47512c9","system_id":"levelo_inurba_marseille","lat":43.30464,"lon":5.37905,"is_reserved":false,"is_disabled":false,"rental_uris":{"android":"levelo://app?vid=3577277c-568a-462e-bd85-1481d47512c9","ios":"levelo://app?vid=3577277c-568a-462e-bd85-1481d47512c9"},"vehicle_type_id":"4","last_reported":1726470569,"current_range_meters":24000,"station_id":"ce4bgup2rcd13ifvqcn0","pricing_plan_id":"cebpf4jnsgd1na2vs0mg"},{"bike_id":"2d0788e2-f911-4f52-9476-653f8e7ad582","system_id":"levelo_inurba_marseille","lat":43.27502,"lon":5.42449,"is_reserved":false,"is_disabled":false,"rental_uris":{"android":"levelo://app?vid=2d0788e2-f911-4f52-9476-653f8e7ad582","ios":"levelo://app?vid=2d0788e2-f911-4f52-9476-653f8e7ad582"},"vehicle_type_id":"4","last_reported":1726470569,"current_range_meters":14400,"station_id":"ce4bhn92rcd13ifvqgrg","pricing_plan_id":"cebpf4jnsgd1na2vs0mg"},{"bike_id":"963be3bf-c0b8-4a11-aaff-3bbb65bf021e","system_id":"levelo_inurba_marseille","lat":43.31708,"lon":5.37757,"is_reserved":false,"is_disabled":false,"rental_uris":{"android":"levelo://app?vid=963be3bf-c0b8-4a11-aaff-3bbb65bf021e","ios":"levelo://app?vid=963be3bf-c0b8-4a11-aaff-3bbb65bf021e"},"vehicle_type_id":"4","last_reported":1726470569,"current_range_meters":10800,"station_id":"ce4bgth2rcd13ifvqch0","pricing_plan_id":"cebpf4jnsgd1na2vs0mg"},{"bike_id":"ce703cb4-aa06-4ca3-9d0d-9d78109ec482","system_id":"levelo_inurba_marseille","lat":43.31245,"lon":5.36881,"is_reserved":false,"is_disabled":false,"rental_uris":{"android":"levelo://app?vid=ce703cb4-aa06-4ca3-9d0d-9d78109ec482","ios":"levelo://app?vid=ce703cb4-aa06-4ca3-9d0d-9d78109ec482"},"vehicle_type_id":"4","last_reported":1726470569,"current_range_meters":28800,"station_id":"ce4bgl92rcd13ifvqbq0","pricing_plan_id":"cebpf4jnsgd1na2vs0mg"},{"bike_id":"6ad2fe94-195b-4d58-9ac6-d3a9675a4c80","system_id":"levelo_inurba_marseille","lat":43.23063,"lon":5.3549,"is_reserved":false,"is_disabled":false,"rental_uris":{"android":"levelo://app?vid=6ad2fe94-195b-4d58-9ac6-d3a9675a4c80","ios":"levelo://app?vid=6ad2fe94-195b-4d58-9ac6-d3a9675a4c80"},"vehicle_type_id":"4","last_reported":1726470569,"current_range_meters":17600,"station_id":"cpo3342slgdg3j2ifvpg","pricing_plan_id":"cebpf4jnsgd1na2vs0mg"},{"bike_id":"6dd17a2f-59bb-4453-859d-2c09ab795824","system_id":"levelo_inurba_marseille","lat":43.33021,"lon":5.39047,"is_reserved":false,"is_disabled":false,"rental_uris":{"android":"levelo://app?vid=6dd17a2f-59bb-4453-859d-2c09ab795824","ios":"levelo://app?vid=6dd17a2f-59bb-4453-859d-2c09ab795824"},"vehicle_type_id":"4","last_reported":1726470569,"current_range_meters":38000,"station_id":"ce4bhr92rcd13ifvqhrg","pricing_plan_id":"cebpf4jnsgd1na2vs0mg"},{"bike_id":"ed395158-49bb-4ed0-a30f-caaeb4a15a1c","system_id":"levelo_inurba_marseille","lat":43.24083,"lon":5.3775,"is_reserved":false,"is_disabled":false,"rental_uris":{"android":"levelo://app?vid=ed395158-49bb-4ed0-a30f-caaeb4a15a1c","ios":"levelo://app?vid=ed395158-49bb-4ed0-a30f-caaeb4a15a1c"},"vehicle_type_id":"4","last_reported":1726470569,"current_range_meters":9200,"station_id":"ce4bhnp2rcd13ifvqgvg","pricing_plan_id":"cebpf4jnsgd1na2vs0mg"},{"bike_id":"ce06579c-1d43-4f1c-9d0b-0d6f8b4a7ff5","system_id":"levelo_inurba_marseille","lat":43.23155,"lon":5.4372,"is_reserved":false,"is_disabled":false,"rental_uris":{"android":"levelo://app?vid=ce06579c-1d43-4f1c-9d0b-0d6f8b4a7ff5","ios":"levelo://app?vid=ce06579c-1d43-4f1c-9d0b-0d6f8b4a7ff5"},"vehicle_type_id":"4","last_reported":1726470569,"current_range_meters":18000,"station_id":"ce4bhmp2rcd13ifvqgog","pricing_plan_id":"cebpf4jnsgd1na2vs0mg"},{"bike_id":"be70b63a-c764-4fe4-944c-ea7e338d1412","system_id":"levelo_inurba_marseille","lat":43.26209,"lon":5.37925,"is_reserved":false,"is_disabled":false,"rental_uris":{"android":"levelo://app?vid=be70b63a-c764-4fe4-944c-ea7e338d1412","ios":"levelo://app?vid=be70b63a-c764-4fe4-944c-ea7e338d1412"},"vehicle_type_id":"4","last_reported":1726470569,"current_range_meters":36400,"station_id":"ce4bhjp2rcd13ifvqg90","pricing_plan_id":"cebpf4jnsgd1na2vs0mg"},{"bike_id":"1c79db96-5e4d-4cfe-b310-bde8716f7bfd","system_id":"levelo_inurba_marseille","lat":43.30545,"lon":5.36702,"is_reserved":false,"is_disabled":false,"rental_uris":{"android":"levelo://app?vid=1c79db96-5e4d-4cfe-b310-bde8716f7bfd","ios":"levelo://app?vid=1c79db96-5e4d-4cfe-b310-bde8716f7bfd"},"vehicle_type_id":"4","last_reported":1726470569,"current_range_meters":17200,"station_id":"ce4bgrp2rcd13ifvqc9g","pricing_plan_id":"cebpf4jnsgd1na2vs0mg"},{"bike_id":"025a6219-c78e-4d2c-ad74-62f64ed129a4","system_id":"levelo_inurba_marseille","lat":43.30466,"lon":5.37915,"is_reserved":false,"is_disabled":false,"rental_uris":{"android":"levelo://app?vid=025a6219-c78e-4d2c-ad74-62f64ed129a4","ios":"levelo://app?vid=025a6219-c78e-4d2c-ad74-62f64ed129a4"},"vehicle_type_id":"4","last_reported":1726470569,"current_range_meters":34800,"station_id":"ce4bgup2rcd13ifvqcn0","pricing_plan_id":"cebpf4jnsgd1na2vs0mg"},{"bike_id":"f6010f74-e628-4c56-bc1f-40514d843a00","system_id":"levelo_inurba_marseille","lat":43.30551,"lon":5.36706,"is_reserved":false,"is_disabled":false,"rental_uris":{"android":"levelo://app?vid=f6010f74-e628-4c56-bc1f-40514d843a00","ios":"levelo://app?vid=f6010f74-e628-4c56-bc1f-40514d843a00"},"vehicle_type_id":"4","last_reported":1726470569,"current_range_meters":37600,"station_id":"ce4bgrp2rcd13ifvqc9g","pricing_plan_id":"cebpf4jnsgd1na2vs0mg"},{"bike_id":"14deafc5-a716-454d-858f-d4247d57d26c","system_id":"levelo_inurba_marseille","lat":43.33608,"lon":5.41027,"is_reserved":false,"is_disabled":false,"rental_uris":{"android":"levelo://app?vid=14deafc5-a716-454d-858f-d4247d57d26c","ios":"levelo://app?vid=14deafc5-a716-454d-858f-d4247d57d26c"},"vehicle_type_id":"4","last_reported":1726470569,"current_range_meters":33600,"station_id":"ce4bhqh2rcd13ifvqhmg","pricing_plan_id":"cebpf4jnsgd1na2vs0mg"},{"bike_id":"ee96fd0b-2e8e-46a7-9a56-213f944d9ccc","system_id":"levelo_inurba_marseille","lat":43.32498,"lon":5.36555,"is_reserved":false,"is_disabled":false,"rental_uris":{"android":"levelo://app?vid=ee96fd0b-2e8e-46a7-9a56-213f944d9ccc","ios":"levelo://app?vid=ee96fd0b-2e8e-46a7-9a56-213f944d9ccc"},"vehicle_type_id":"4","last_reported":1726470569,"current_range_meters":32800,"station_id":"ce4bhs12rcd13ifvqhvg","pricing_plan_id":"cebpf4jnsgd1na2vs0mg"},{"bike_id":"354ca7f6-13a5-4117-9386-dbeabc33ce1c","system_id":"levelo_inurba_marseille","lat":43.27501,"lon":5.42459,"is_reserved":false,"is_disabled":false,"rental_uris":{"android":"levelo://app?vid=354ca7f6-13a5-4117-9386-dbeabc33ce1c","ios":"levelo://app?vid=354ca7f6-13a5-4117-9386-dbeabc33ce1c"},"vehicle_type_id":"4","last_reported":1726470569,"current_range_meters":30400,"station_id":"ce4bhn92rcd13ifvqgrg","pricing_plan_id":"cebpf4jnsgd1na2vs0mg"},{"bike_id":"1a4cc077-6535-484d-91e8-c6af348a1110","system_id":"levelo_inurba_marseille","lat":43.27324,"lon":5.39072,"is_reserved":false,"is_disabled":false,"rental_uris":{"android":"levelo://app?vid=1a4cc077-6535-484d-91e8-c6af348a1110","ios":"levelo://app?vid=1a4cc077-6535-484d-91e8-c6af348a1110"},"vehicle_type_id":"4","last_reported":1726470569,"current_range_meters":24800,"station_id":"ce4bhgp2rcd13ifvqfe0","pricing_plan_id":"cebpf4jnsgd1na2vs0mg"},{"bike_id":"07a83925-dfef-4b2a-93ed-dfa02e7819ee","system_id":"levelo_inurba_marseille","lat":43.34143,"lon":5.409,"is_reserved":false,"is_disabled":false,"rental_uris":{"android":"levelo://app?vid=07a83925-dfef-4b2a-93ed-dfa02e7819ee","ios":"levelo://app?vid=07a83925-dfef-4b2a-93ed-dfa02e7819ee"},"vehicle_type_id":"4","last_reported":1726470569,"current_range_meters":28800,"station_id":"ce4bhqh2rcd13ifvqhlg","pricing_plan_id":"cebpf4jnsgd1na2vs0mg"},{"bike_id":"a6d8bde0-f131-4561-b946-08445d5104f4","system_id":"levelo_inurba_marseille","lat":43.34141,"lon":5.40907,"is_reserved":false,"is_disabled":false,"rental_uris":{"android":"levelo://app?vid=a6d8bde0-f131-4561-b946-08445d5104f4","ios":"levelo://app?vid=a6d8bde0-f131-4561-b946-08445d5104f4"},"vehicle_type_id":"4","last_reported":1726470569,"current_range_meters":38800,"station_id":"ce4bhqh2rcd13ifvqhlg","pricing_plan_id":"cebpf4jnsgd1na2vs0mg"},{"bike_id":"13c0cdef-cada-4531-927b-3293d6a3b149","system_id":"levelo_inurba_marseille","lat":43.25581,"lon":5.3824,"is_reserved":false,"is_disabled":false,"rental_uris":{"android":"levelo://app?vid=13c0cdef-cada-4531-927b-3293d6a3b149","ios":"levelo://app?vid=13c0cdef-cada-4531-927b-3293d6a3b149"},"vehicle_type_id":"4","last_reported":1726470569,"current_range_meters":6800,"station_id":"ce4bhih2rcd13ifvqfs0","pricing_plan_id":"cebpf4jnsgd1na2vs0mg"},{"bike_id":"9240f3f1-1df7-4c0e-815c-5a927500c679","system_id":"levelo_inurba_marseille","lat":43.27211,"lon":5.39192,"is_reserved":false,"is_disabled":false,"rental_uris":{"android":"levelo://app?vid=9240f3f1-1df7-4c0e-815c-5a927500c679","ios":"levelo://app?vid=9240f3f1-1df7-4c0e-815c-5a927500c679"},"vehicle_type_id":"4","last_reported":1726470569,"current_range_meters":38400,"station_id":"ce4bhhp2rcd13ifvqfm0","pricing_plan_id":"cebpf4jnsgd1na2vs0mg"},{"bike_id":"65eecb51-7024-4f30-af20-d65f809bce2b","system_id":"levelo_inurba_marseille","lat":43.31569,"lon":5.39247,"is_reserved":false,"is_disabled":false,"rental_uris":{"android":"levelo://app?vid=65eecb51-7024-4f30-af20-d65f809bce2b","ios":"levelo://app?vid=65eecb51-7024-4f30-af20-d65f809bce2b"},"vehicle_type_id":"4","last_reported":1726470569,"current_range_meters":14400,"station_id":"ce4bgvp2rcd13ifvqcu0","pricing_plan_id":"cebpf4jnsgd1na2vs0mg"},{"bike_id":"15e1280a-7d7e-4893-8cd4-18a7219c802d","system_id":"levelo_inurba_marseille","lat":43.298,"lon":5.38095,"is_reserved":false,"is_disabled":false,"rental_uris":{"android":"levelo://app?vid=15e1280a-7d7e-4893-8cd4-18a7219c802d","ios":"levelo://app?vid=15e1280a-7d7e-4893-8cd4-18a7219c802d"},"vehicle_type_id":"4","last_reported":1726470569,"current_range_meters":35200,"station_id":"ce4bgip2rcd13ifvqbb0","pricing_plan_id":"cebpf4jnsgd1na2vs0mg"},{"bike_id":"d13330bb-66ab-42c4-9101-22a542a335d2","system_id":"levelo_inurba_marseille","lat":43.26682,"lon":5.38267,"is_reserved":false,"is_disabled":false,"rental_uris":{"android":"levelo://app?vid=d13330bb-66ab-42c4-9101-22a542a335d2","ios":"levelo://app?vid=d13330bb-66ab-42c4-9101-22a542a335d2"},"vehicle_type_id":"4","last_reported":1726470569,"current_range_meters":39200,"station_id":"ce4bhg92rcd13ifvqf90","pricing_plan_id":"cebpf4jnsgd1na2vs0mg"},{"bike_id":"50deafc8-acbf-4a9d-b8f2-72d17760fdf0","system_id":"levelo_inurba_marseille","lat":43.27497,"lon":5.42451,"is_reserved":false,"is_disabled":false,"rental_uris":{"android":"levelo://app?vid=50deafc8-acbf-4a9d-b8f2-72d17760fdf0","ios":"levelo://app?vid=50deafc8-acbf-4a9d-b8f2-72d17760fdf0"},"vehicle_type_id":"4","last_reported":1726470569,"current_range_meters":8000,"station_id":"ce4bhn92rcd13ifvqgrg","pricing_plan_id":"cebpf4jnsgd1na2vs0mg"},{"bike_id":"d1f38fcd-be46-4877-a9ac-34b365272c30","system_id":"levelo_inurba_marseille","lat":43.27099,"lon":5.43323,"is_reserved":false,"is_disabled":false,"rental_uris":{"android":"levelo://app?vid=d1f38fcd-be46-4877-a9ac-34b365272c30","ios":"levelo://app?vid=d1f38fcd-be46-4877-a9ac-34b365272c30"},"vehicle_type_id":"4","last_reported":1726470569,"current_range_meters":10000,"station_id":"","pricing_plan_id":"cebpf4jnsgd1na2vs0mg"},{"bike_id":"ce83ae07-4dd2-406a-b2bd-53f025539ed7","system_id":"levelo_inurba_marseille","lat":43.30151,"lon":5.38082,"is_reserved":false,"is_disabled":false,"rental_uris":{"android":"levelo://app?vid=ce83ae07-4dd2-406a-b2bd-53f025539ed7","ios":"levelo://app?vid=ce83ae07-4dd2-406a-b2bd-53f025539ed7"},"vehicle_type_id":"4","last_reported":1726470569,"current_range_meters":11200,"station_id":"ce4bgjp2rcd13ifvqbh0","pricing_plan_id":"cebpf4jnsgd1na2vs0mg"},{"bike_id":"e743b6bb-cd23-4cc5-b69f-0f0ee245607c","system_id":"levelo_inurba_marseille","lat":43.28365,"lon":5.3864,"is_reserved":false,"is_disabled":false,"rental_uris":{"android":"levelo://app?vid=e743b6bb-cd23-4cc5-b69f-0f0ee245607c","ios":"levelo://app?vid=e743b6bb-cd23-4cc5-b69f-0f0ee245607c"},"vehicle_type_id":"4","last_reported":1726470569,"current_range_meters":30400,"station_id":"ce4bh492rcd13ifvqdvg","pricing_plan_id":"cebpf4jnsgd1na2vs0mg"},{"bike_id":"ca2957de-69fb-4977-87fd-ebd7d7c4717b","system_id":"levelo_inurba_marseille","lat":43.30469,"lon":5.37904,"is_reserved":false,"is_disabled":false,"rental_uris":{"android":"levelo://app?vid=ca2957de-69fb-4977-87fd-ebd7d7c4717b","ios":"levelo://app?vid=ca2957de-69fb-4977-87fd-ebd7d7c4717b"},"vehicle_type_id":"4","last_reported":1726470569,"current_range_meters":37600,"station_id":"ce4bgup2rcd13ifvqcn0","pricing_plan_id":"cebpf4jnsgd1na2vs0mg"},{"bike_id":"77be640b-ac4b-4617-be22-5763d79d29be","system_id":"levelo_inurba_marseille","lat":43.32481,"lon":5.36558,"is_reserved":false,"is_disabled":false,"rental_uris":{"android":"levelo://app?vid=77be640b-ac4b-4617-be22-5763d79d29be","ios":"levelo://app?vid=77be640b-ac4b-4617-be22-5763d79d29be"},"vehicle_type_id":"4","last_reported":1726470569,"current_range_meters":28400,"station_id":"ce4bhs12rcd13ifvqhvg","pricing_plan_id":"cebpf4jnsgd1na2vs0mg"},{"bike_id":"ced7c6ce-ae1a-4298-979a-409259d5e008","system_id":"levelo_inurba_marseille","lat":43.30426,"lon":5.41274,"is_reserved":false,"is_disabled":false,"rental_uris":{"android":"levelo://app?vid=ced7c6ce-ae1a-4298-979a-409259d5e008","ios":"levelo://app?vid=ced7c6ce-ae1a-4298-979a-409259d5e008"},"vehicle_type_id":"4","last_reported":1726470569,"current_range_meters":16800,"station_id":"ce4bhop2rcd13ifvqh8g","pricing_plan_id":"cebpf4jnsgd1na2vs0mg"},{"bike_id":"9bd45288-f863-48c2-93c6-69280f2e9828","system_id":"levelo_inurba_marseille","lat":43.25502,"lon":5.37649,"is_reserved":false,"is_disabled":false,"rental_uris":{"android":"levelo://app?vid=9bd45288-f863-48c2-93c6-69280f2e9828","ios":"levelo://app?vid=9bd45288-f863-48c2-93c6-69280f2e9828"},"vehicle_type_id":"4","last_reported":1726470569,"current_range_meters":37600,"station_id":"ce4bhh12rcd13ifvqff0","pricing_plan_id":"cebpf4jnsgd1na2vs0mg"},{"bike_id":"321f0a0d-0768-4872-96e0-43ddba979ecf","system_id":"levelo_inurba_marseille","lat":43.27494,"lon":5.42458,"is_reserved":false,"is_disabled":false,"rental_uris":{"android":"levelo://app?vid=321f0a0d-0768-4872-96e0-43ddba979ecf","ios":"levelo://app?vid=321f0a0d-0768-4872-96e0-43ddba979ecf"},"vehicle_type_id":"4","last_reported":1726470569,"current_range_meters":31200,"station_id":"ce4bhn92rcd13ifvqgrg","pricing_plan_id":"cebpf4jnsgd1na2vs0mg"},{"bike_id":"b21d2257-7561-4bf2-9fe4-78a0da813756","system_id":"levelo_inurba_marseille","lat":43.28721,"lon":5.37956,"is_reserved":false,"is_disabled":false,"rental_uris":{"android":"levelo://app?vid=b21d2257-7561-4bf2-9fe4-78a0da813756","ios":"levelo://app?vid=b21d2257-7561-4bf2-9fe4-78a0da813756"},"vehicle_type_id":"4","last_reported":1726470569,"current_range_meters":25600,"station_id":"ce4bh9p2rcd13ifvqec0","pricing_plan_id":"cebpf4jnsgd1na2vs0mg"},{"bike_id":"08721fa8-716a-4d76-8962-6ab16f9b1432","system_id":"levelo_inurba_marseille","lat":43.23191,"lon":5.39985,"is_reserved":false,"is_disabled":false,"rental_uris":{"android":"levelo://app?vid=08721fa8-716a-4d76-8962-6ab16f9b1432","ios":"levelo://app?vid=08721fa8-716a-4d76-8962-6ab16f9b1432"},"vehicle_type_id":"4","last_reported":1726470569,"current_range_meters":19600,"station_id":"ce4bhn12rcd13ifvqgqg","pricing_plan_id":"cebpf4jnsgd1na2vs0mg"},{"bike_id":"6da566a6-1c56-4830-ad07-012b26ffeade","system_id":"levelo_inurba_marseille","lat":43.32486,"lon":5.36569,"is_reserved":false,"is_disabled":false,"rental_uris":{"android":"levelo://app?vid=6da566a6-1c56-4830-ad07-012b26ffeade","ios":"levelo://app?vid=6da566a6-1c56-4830-ad07-012b26ffeade"},"vehicle_type_id":"4","last_reported":1726470569,"current_range_meters":38000,"station_id":"ce4bhs12rcd13ifvqhvg","pricing_plan_id":"cebpf4jnsgd1na2vs0mg"},{"bike_id":"5ce3c22b-1a1d-4f74-98d5-ad1712c6cc8c","system_id":"levelo_inurba_marseille","lat":43.30539,"lon":5.36708,"is_reserved":false,"is_disabled":false,"rental_uris":{"android":"levelo://app?vid=5ce3c22b-1a1d-4f74-98d5-ad1712c6cc8c","ios":"levelo://app?vid=5ce3c22b-1a1d-4f74-98d5-ad1712c6cc8c"},"vehicle_type_id":"4","last_reported":1726470569,"current_range_meters":36000,"station_id":"ce4bgrp2rcd13ifvqc9g","pricing_plan_id":"cebpf4jnsgd1na2vs0mg"},{"bike_id":"a1c9059d-6b11-45b1-9b47-5ccdd72110c6","system_id":"levelo_inurba_marseille","lat":43.31716,"lon":5.43703,"is_reserved":false,"is_disabled":false,"rental_uris":{"android":"levelo://app?vid=a1c9059d-6b11-45b1-9b47-5ccdd72110c6","ios":"levelo://app?vid=a1c9059d-6b11-45b1-9b47-5ccdd72110c6"},"vehicle_type_id":"4","last_reported":1726470569,"current_range_meters":38000,"station_id":"ce4bhp92rcd13ifvqhcg","pricing_plan_id":"cebpf4jnsgd1na2vs0mg"},{"bike_id":"71119210-2857-42ea-8019-ddc23f303e48","system_id":"levelo_inurba_marseille","lat":43.27075,"lon":5.42279,"is_reserved":false,"is_disabled":false,"rental_uris":{"android":"levelo://app?vid=71119210-2857-42ea-8019-ddc23f303e48","ios":"levelo://app?vid=71119210-2857-42ea-8019-ddc23f303e48"},"vehicle_type_id":"4","last_reported":1726470569,"current_range_meters":34000,"station_id":"ce4bhk92rcd13ifvqgb0","pricing_plan_id":"cebpf4jnsgd1na2vs0mg"},{"bike_id":"d919000c-5aae-4fe3-9444-cda057a56741","system_id":"levelo_inurba_marseille","lat":43.30143,"lon":5.37415,"is_reserved":false,"is_disabled":false,"rental_uris":{"android":"levelo://app?vid=d919000c-5aae-4fe3-9444-cda057a56741","ios":"levelo://app?vid=d919000c-5aae-4fe3-9444-cda057a56741"},"vehicle_type_id":"4","last_reported":1726470569,"current_range_meters":26800,"station_id":"ce4bgs92rcd13ifvqcc0","pricing_plan_id":"cebpf4jnsgd1na2vs0mg"},{"bike_id":"2c1b224d-90cc-4182-88ed-6ca31d8346fe","system_id":"levelo_inurba_marseille","lat":43.30466,"lon":5.37915,"is_reserved":false,"is_disabled":false,"rental_uris":{"android":"levelo://app?vid=2c1b224d-90cc-4182-88ed-6ca31d8346fe","ios":"levelo://app?vid=2c1b224d-90cc-4182-88ed-6ca31d8346fe"},"vehicle_type_id":"4","last_reported":1726470569,"current_range_meters":35600,"station_id":"ce4bgup2rcd13ifvqcn0","pricing_plan_id":"cebpf4jnsgd1na2vs0mg"},{"bike_id":"75703296-7f59-4b8f-a38a-80537d3bdaa2","system_id":"levelo_inurba_marseille","lat":43.33612,"lon":5.41033,"is_reserved":false,"is_disabled":false,"rental_uris":{"android":"levelo://app?vid=75703296-7f59-4b8f-a38a-80537d3bdaa2","ios":"levelo://app?vid=75703296-7f59-4b8f-a38a-80537d3bdaa2"},"vehicle_type_id":"4","last_reported":1726470569,"current_range_meters":9200,"station_id":"ce4bhqh2rcd13ifvqhmg","pricing_plan_id":"cebpf4jnsgd1na2vs0mg"},{"bike_id":"8cc27dfa-01f9-4ac2-8145-9901d35176bd","system_id":"levelo_inurba_marseille","lat":43.31379,"lon":5.38519,"is_reserved":false,"is_disabled":false,"rental_uris":{"android":"levelo://app?vid=8cc27dfa-01f9-4ac2-8145-9901d35176bd","ios":"levelo://app?vid=8cc27dfa-01f9-4ac2-8145-9901d35176bd"},"vehicle_type_id":"4","last_reported":1726470569,"current_range_meters":3200,"station_id":"ce4bgt92rcd13ifvqcf0","pricing_plan_id":"cebpf4jnsgd1na2vs0mg"},{"bike_id":"7a5d6b17-a715-4939-913a-9c0bc32e9acd","system_id":"levelo_inurba_marseille","lat":43.30153,"lon":5.38072,"is_reserved":false,"is_disabled":false,"rental_uris":{"android":"levelo://app?vid=7a5d6b17-a715-4939-913a-9c0bc32e9acd","ios":"levelo://app?vid=7a5d6b17-a715-4939-913a-9c0bc32e9acd"},"vehicle_type_id":"4","last_reported":1726470569,"current_range_meters":7200,"station_id":"ce4bgjp2rcd13ifvqbh0","pricing_plan_id":"cebpf4jnsgd1na2vs0mg"},{"bike_id":"4a681e07-7122-40c8-98a7-885c59e3c6c9","system_id":"levelo_inurba_marseille","lat":43.292607,"lon":5.409176,"is_reserved":false,"is_disabled":false,"rental_uris":{"android":"levelo://app?vid=4a681e07-7122-40c8-98a7-885c59e3c6c9","ios":"levelo://app?vid=4a681e07-7122-40c8-98a7-885c59e3c6c9"},"vehicle_type_id":"4","last_reported":1726470569,"current_range_meters":36000,"station_id":"ce4bh192rcd13ifvqdc0","pricing_plan_id":"cebpf4jnsgd1na2vs0mg"},{"bike_id":"103368f7-6cf9-4f61-a9f7-0e638a4ed99a","system_id":"levelo_inurba_marseille","lat":43.24079,"lon":5.37756,"is_reserved":false,"is_disabled":false,"rental_uris":{"android":"levelo://app?vid=103368f7-6cf9-4f61-a9f7-0e638a4ed99a","ios":"levelo://app?vid=103368f7-6cf9-4f61-a9f7-0e638a4ed99a"},"vehicle_type_id":"4","last_reported":1726470569,"current_range_meters":8400,"station_id":"ce4bhnp2rcd13ifvqgvg","pricing_plan_id":"cebpf4jnsgd1na2vs0mg"},{"bike_id":"88fde75b-6efc-4bee-8c6f-b7e2af592ff0","system_id":"levelo_inurba_marseille","lat":43.29583,"lon":5.37506,"is_reserved":false,"is_disabled":false,"rental_uris":{"android":"levelo://app?vid=88fde75b-6efc-4bee-8c6f-b7e2af592ff0","ios":"levelo://app?vid=88fde75b-6efc-4bee-8c6f-b7e2af592ff0"},"vehicle_type_id":"4","last_reported":1726470569,"current_range_meters":21600,"station_id":"","pricing_plan_id":"cebpf4jnsgd1na2vs0mg"},{"bike_id":"e0079bb0-93d8-4af2-a320-c5378bd6306c","system_id":"levelo_inurba_marseille","lat":43.26959,"lon":5.38642,"is_reserved":false,"is_disabled":false,"rental_uris":{"android":"levelo://app?vid=e0079bb0-93d8-4af2-a320-c5378bd6306c","ios":"levelo://app?vid=e0079bb0-93d8-4af2-a320-c5378bd6306c"},"vehicle_type_id":"4","last_reported":1726470569,"current_range_meters":2800,"station_id":"ce4bhh92rcd13ifvqfh0","pricing_plan_id":"cebpf4jnsgd1na2vs0mg"},{"bike_id":"39550384-f95b-49f6-a285-2000f3590696","system_id":"levelo_inurba_marseille","lat":43.30153,"lon":5.38082,"is_reserved":false,"is_disabled":false,"rental_uris":{"android":"levelo://app?vid=39550384-f95b-49f6-a285-2000f3590696","ios":"levelo://app?vid=39550384-f95b-49f6-a285-2000f3590696"},"vehicle_type_id":"4","last_reported":1726470569,"current_range_meters":33600,"station_id":"ce4bgjp2rcd13ifvqbh0","pricing_plan_id":"cebpf4jnsgd1na2vs0mg"},{"bike_id":"af78b383-cb47-4a8e-8a00-34ed69efc3a0","system_id":"levelo_inurba_marseille","lat":43.249084,"lon":5.390532,"is_reserved":false,"is_disabled":false,"rental_uris":{"android":"levelo://app?vid=af78b383-cb47-4a8e-8a00-34ed69efc3a0","ios":"levelo://app?vid=af78b383-cb47-4a8e-8a00-34ed69efc3a0"},"vehicle_type_id":"4","last_reported":1726470569,"current_range_meters":17600,"station_id":"","pricing_plan_id":"cebpf4jnsgd1na2vs0mg"},{"bike_id":"3d7a14f2-59e7-4359-8aa6-a1480d53a7bb","system_id":"levelo_inurba_marseille","lat":43.28937,"lon":5.38389,"is_reserved":false,"is_disabled":false,"rental_uris":{"android":"levelo://app?vid=3d7a14f2-59e7-4359-8aa6-a1480d53a7bb","ios":"levelo://app?vid=3d7a14f2-59e7-4359-8aa6-a1480d53a7bb"},"vehicle_type_id":"4","last_reported":1726470569,"current_range_meters":17200,"station_id":"ce4bh612rcd13ifvqe6g","pricing_plan_id":"cebpf4jnsgd1na2vs0mg"},{"bike_id":"ff4410f1-5fcd-4fb0-82c3-382d6d9363f9","system_id":"levelo_inurba_marseille","lat":43.30539,"lon":5.3671,"is_reserved":false,"is_disabled":false,"rental_uris":{"android":"levelo://app?vid=ff4410f1-5fcd-4fb0-82c3-382d6d9363f9","ios":"levelo://app?vid=ff4410f1-5fcd-4fb0-82c3-382d6d9363f9"},"vehicle_type_id":"4","last_reported":1726470569,"current_range_meters":32800,"station_id":"ce4bgrp2rcd13ifvqc9g","pricing_plan_id":"cebpf4jnsgd1na2vs0mg"},{"bike_id":"83c9447e-ade3-4903-9b13-ccc963367297","system_id":"levelo_inurba_marseille","lat":43.31693,"lon":5.40472,"is_reserved":false,"is_disabled":false,"rental_uris":{"android":"levelo://app?vid=83c9447e-ade3-4903-9b13-ccc963367297","ios":"levelo://app?vid=83c9447e-ade3-4903-9b13-ccc963367297"},"vehicle_type_id":"4","last_reported":1726470569,"current_range_meters":14800,"station_id":"ce4bh012rcd13ifvqd00","pricing_plan_id":"cebpf4jnsgd1na2vs0mg"},{"bike_id":"226a07e8-6b1e-4cec-bd78-56efae3253cc","system_id":"levelo_inurba_marseille","lat":43.27495,"lon":5.42457,"is_reserved":false,"is_disabled":false,"rental_uris":{"android":"levelo://app?vid=226a07e8-6b1e-4cec-bd78-56efae3253cc","ios":"levelo://app?vid=226a07e8-6b1e-4cec-bd78-56efae3253cc"},"vehicle_type_id":"4","last_reported":1726470569,"current_range_meters":18000,"station_id":"ce4bhn92rcd13ifvqgrg","pricing_plan_id":"cebpf4jnsgd1na2vs0mg"},{"bike_id":"7b5a067f-2447-4a17-8a0a-4f31d25d743b","system_id":"levelo_inurba_marseille","lat":43.304657,"lon":5.379078,"is_reserved":false,"is_disabled":false,"rental_uris":{"android":"levelo://app?vid=7b5a067f-2447-4a17-8a0a-4f31d25d743b","ios":"levelo://app?vid=7b5a067f-2447-4a17-8a0a-4f31d25d743b"},"vehicle_type_id":"4","last_reported":1726470569,"current_range_meters":32000,"station_id":"ce4bgup2rcd13ifvqcn0","pricing_plan_id":"cebpf4jnsgd1na2vs0mg"},{"bike_id":"66ea54e7-1bd9-4448-8a07-af9ffe63df0a","system_id":"levelo_inurba_marseille","lat":43.31338,"lon":5.36749,"is_reserved":false,"is_disabled":false,"rental_uris":{"android":"levelo://app?vid=66ea54e7-1bd9-4448-8a07-af9ffe63df0a","ios":"levelo://app?vid=66ea54e7-1bd9-4448-8a07-af9ffe63df0a"},"vehicle_type_id":"4","last_reported":1726470569,"current_range_meters":26000,"station_id":"ce4bgr92rcd13ifvqc6g","pricing_plan_id":"cebpf4jnsgd1na2vs0mg"},{"bike_id":"fa45cf58-5c3b-4998-98b4-208c9369cd97","system_id":"levelo_inurba_marseille","lat":43.29602,"lon":5.38102,"is_reserved":false,"is_disabled":false,"rental_uris":{"android":"levelo://app?vid=fa45cf58-5c3b-4998-98b4-208c9369cd97","ios":"levelo://app?vid=fa45cf58-5c3b-4998-98b4-208c9369cd97"},"vehicle_type_id":"4","last_reported":1726470569,"current_range_meters":31200,"station_id":"ce4bgl12rcd13ifvqbo0","pricing_plan_id":"cebpf4jnsgd1na2vs0mg"},{"bike_id":"328d45f9-980e-4811-97c0-47d761861509","system_id":"levelo_inurba_marseille","lat":43.29847,"lon":5.37836,"is_reserved":false,"is_disabled":false,"rental_uris":{"android":"levelo://app?vid=328d45f9-980e-4811-97c0-47d761861509","ios":"levelo://app?vid=328d45f9-980e-4811-97c0-47d761861509"},"vehicle_type_id":"4","last_reported":1726470569,"current_range_meters":24400,"station_id":"ce4bgkh2rcd13ifvqbl0","pricing_plan_id":"cebpf4jnsgd1na2vs0mg"},{"bike_id":"68b58972-d968-47fc-8b37-c012d1d0d0e8","system_id":"levelo_inurba_marseille","lat":43.2678,"lon":5.3942,"is_reserved":false,"is_disabled":false,"rental_uris":{"android":"levelo://app?vid=68b58972-d968-47fc-8b37-c012d1d0d0e8","ios":"levelo://app?vid=68b58972-d968-47fc-8b37-c012d1d0d0e8"},"vehicle_type_id":"4","last_reported":1726470569,"current_range_meters":14400,"station_id":"ce4bhh12rcd13ifvqfg0","pricing_plan_id":"cebpf4jnsgd1na2vs0mg"},{"bike_id":"faf816e6-4e87-4e93-88d4-5861eae33b5c","system_id":"levelo_inurba_marseille","lat":43.24083,"lon":5.37749,"is_reserved":false,"is_disabled":false,"rental_uris":{"android":"levelo://app?vid=faf816e6-4e87-4e93-88d4-5861eae33b5c","ios":"levelo://app?vid=faf816e6-4e87-4e93-88d4-5861eae33b5c"},"vehicle_type_id":"4","last_reported":1726470569,"current_range_meters":21600,"station_id":"ce4bhnp2rcd13ifvqgvg","pricing_plan_id":"cebpf4jnsgd1na2vs0mg"},{"bike_id":"a7201d69-01a4-43e5-a1fc-fc4ebf7009b8","system_id":"levelo_inurba_marseille","lat":43.31883,"lon":5.40734,"is_reserved":false,"is_disabled":false,"rental_uris":{"android":"levelo://app?vid=a7201d69-01a4-43e5-a1fc-fc4ebf7009b8","ios":"levelo://app?vid=a7201d69-01a4-43e5-a1fc-fc4ebf7009b8"},"vehicle_type_id":"4","last_reported":1726470569,"current_range_meters":2800,"station_id":"ce4bhq12rcd13ifvqhig","pricing_plan_id":"cebpf4jnsgd1na2vs0mg"},{"bike_id":"d1bc1a92-c34f-45bd-b470-2fca788491ee","system_id":"levelo_inurba_marseille","lat":43.32486,"lon":5.36563,"is_reserved":false,"is_disabled":false,"rental_uris":{"android":"levelo://app?vid=d1bc1a92-c34f-45bd-b470-2fca788491ee","ios":"levelo://app?vid=d1bc1a92-c34f-45bd-b470-2fca788491ee"},"vehicle_type_id":"4","last_reported":1726470569,"current_range_meters":38000,"station_id":"ce4bhs12rcd13ifvqhvg","pricing_plan_id":"cebpf4jnsgd1na2vs0mg"},{"bike_id":"9b8db7f4-2e2f-4082-9a13-dbcdb4f63d39","system_id":"levelo_inurba_marseille","lat":43.30147,"lon":5.38081,"is_reserved":false,"is_disabled":false,"rental_uris":{"android":"levelo://app?vid=9b8db7f4-2e2f-4082-9a13-dbcdb4f63d39","ios":"levelo://app?vid=9b8db7f4-2e2f-4082-9a13-dbcdb4f63d39"},"vehicle_type_id":"4","last_reported":1726470569,"current_range_meters":30800,"station_id":"ce4bgjp2rcd13ifvqbh0","pricing_plan_id":"cebpf4jnsgd1na2vs0mg"},{"bike_id":"009c7e0a-a052-421a-8cf8-bac7ad9b461e","system_id":"levelo_inurba_marseille","lat":43.26684,"lon":5.38268,"is_reserved":false,"is_disabled":false,"rental_uris":{"android":"levelo://app?vid=009c7e0a-a052-421a-8cf8-bac7ad9b461e","ios":"levelo://app?vid=009c7e0a-a052-421a-8cf8-bac7ad9b461e"},"vehicle_type_id":"4","last_reported":1726470569,"current_range_meters":31200,"station_id":"ce4bhg92rcd13ifvqf90","pricing_plan_id":"cebpf4jnsgd1na2vs0mg"},{"bike_id":"e1c5a5b2-4c74-471d-8451-d04f52f82987","system_id":"levelo_inurba_marseille","lat":43.32552,"lon":5.41461,"is_reserved":false,"is_disabled":false,"rental_uris":{"android":"levelo://app?vid=e1c5a5b2-4c74-471d-8451-d04f52f82987","ios":"levelo://app?vid=e1c5a5b2-4c74-471d-8451-d04f52f82987"},"vehicle_type_id":"4","last_reported":1726470569,"current_range_meters":38800,"station_id":"ce4bhq12rcd13ifvqhhg","pricing_plan_id":"cebpf4jnsgd1na2vs0mg"},{"bike_id":"8b608b96-fedf-4511-8d4b-09bad2606e1a","system_id":"levelo_inurba_marseille","lat":43.27738,"lon":5.4113,"is_reserved":false,"is_disabled":false,"rental_uris":{"android":"levelo://app?vid=8b608b96-fedf-4511-8d4b-09bad2606e1a","ios":"levelo://app?vid=8b608b96-fedf-4511-8d4b-09bad2606e1a"},"vehicle_type_id":"4","last_reported":1726470569,"current_range_meters":17200,"station_id":"","pricing_plan_id":"cebpf4jnsgd1na2vs0mg"},{"bike_id":"d687a8dc-c1c6-418b-a078-1f315f5fdb26","system_id":"levelo_inurba_marseille","lat":43.32488,"lon":5.36571,"is_reserved":false,"is_disabled":false,"rental_uris":{"android":"levelo://app?vid=d687a8dc-c1c6-418b-a078-1f315f5fdb26","ios":"levelo://app?vid=d687a8dc-c1c6-418b-a078-1f315f5fdb26"},"vehicle_type_id":"4","last_reported":1726470569,"current_range_meters":24000,"station_id":"ce4bhs12rcd13ifvqhvg","pricing_plan_id":"cebpf4jnsgd1na2vs0mg"},{"bike_id":"557f94c9-08c3-4971-8fa6-543c3d081224","system_id":"levelo_inurba_marseille","lat":43.33606,"lon":5.41031,"is_reserved":false,"is_disabled":false,"rental_uris":{"android":"levelo://app?vid=557f94c9-08c3-4971-8fa6-543c3d081224","ios":"levelo://app?vid=557f94c9-08c3-4971-8fa6-543c3d081224"},"vehicle_type_id":"4","last_reported":1726470569,"current_range_meters":30400,"station_id":"ce4bhqh2rcd13ifvqhmg","pricing_plan_id":"cebpf4jnsgd1na2vs0mg"},{"bike_id":"224a01c2-8f83-43bd-86c9-8b0535a65356","system_id":"levelo_inurba_marseille","lat":43.269696,"lon":5.386111,"is_reserved":false,"is_disabled":false,"rental_uris":{"android":"levelo://app?vid=224a01c2-8f83-43bd-86c9-8b0535a65356","ios":"levelo://app?vid=224a01c2-8f83-43bd-86c9-8b0535a65356"},"vehicle_type_id":"4","last_reported":1726470569,"current_range_meters":18800,"station_id":"ce4bhh92rcd13ifvqfh0","pricing_plan_id":"cebpf4jnsgd1na2vs0mg"},{"bike_id":"fa2b0a9f-66ad-4cd1-b7bb-93b9cffdc904","system_id":"levelo_inurba_marseille","lat":43.25934,"lon":5.40916,"is_reserved":false,"is_disabled":false,"rental_uris":{"android":"levelo://app?vid=fa2b0a9f-66ad-4cd1-b7bb-93b9cffdc904","ios":"levelo://app?vid=fa2b0a9f-66ad-4cd1-b7bb-93b9cffdc904"},"vehicle_type_id":"4","last_reported":1726470569,"current_range_meters":28400,"station_id":"ce4bhm92rcd13ifvqglg","pricing_plan_id":"cebpf4jnsgd1na2vs0mg"},{"bike_id":"0765e549-6483-41b2-9c4f-508c91efaba8","system_id":"levelo_inurba_marseille","lat":43.30455,"lon":5.37912,"is_reserved":false,"is_disabled":false,"rental_uris":{"android":"levelo://app?vid=0765e549-6483-41b2-9c4f-508c91efaba8","ios":"levelo://app?vid=0765e549-6483-41b2-9c4f-508c91efaba8"},"vehicle_type_id":"4","last_reported":1726470569,"current_range_meters":32400,"station_id":"ce4bgup2rcd13ifvqcn0","pricing_plan_id":"cebpf4jnsgd1na2vs0mg"},{"bike_id":"21b86a44-fd25-4222-a4f2-25f966b3d86e","system_id":"levelo_inurba_marseille","lat":43.30786,"lon":5.38774,"is_reserved":false,"is_disabled":false,"rental_uris":{"android":"levelo://app?vid=21b86a44-fd25-4222-a4f2-25f966b3d86e","ios":"levelo://app?vid=21b86a44-fd25-4222-a4f2-25f966b3d86e"},"vehicle_type_id":"4","last_reported":1726470569,"current_range_meters":12800,"station_id":"ce4bgg92rcd13ifvqb30","pricing_plan_id":"cebpf4jnsgd1na2vs0mg"},{"bike_id":"36ea6e9b-bb3d-4dd6-b451-60874f1f5902","system_id":"levelo_inurba_marseille","lat":43.281,"lon":5.37843,"is_reserved":false,"is_disabled":false,"rental_uris":{"android":"levelo://app?vid=36ea6e9b-bb3d-4dd6-b451-60874f1f5902","ios":"levelo://app?vid=36ea6e9b-bb3d-4dd6-b451-60874f1f5902"},"vehicle_type_id":"4","last_reported":1726470569,"current_range_meters":34800,"station_id":"ce4bha12rcd13ifvqee0","pricing_plan_id":"cebpf4jnsgd1na2vs0mg"},{"bike_id":"d2ca61ed-07b0-4f91-990e-b98a38e76d1b","system_id":"levelo_inurba_marseille","lat":43.24076,"lon":5.37752,"is_reserved":false,"is_disabled":false,"rental_uris":{"android":"levelo://app?vid=d2ca61ed-07b0-4f91-990e-b98a38e76d1b","ios":"levelo://app?vid=d2ca61ed-07b0-4f91-990e-b98a38e76d1b"},"vehicle_type_id":"4","last_reported":1726470569,"current_range_meters":8400,"station_id":"ce4bhnp2rcd13ifvqgvg","pricing_plan_id":"cebpf4jnsgd1na2vs0mg"},{"bike_id":"531d4095-677f-418e-a605-3a08cb215550","system_id":"levelo_inurba_marseille","lat":43.289156,"lon":5.365846,"is_reserved":false,"is_disabled":false,"rental_uris":{"android":"levelo://app?vid=531d4095-677f-418e-a605-3a08cb215550","ios":"levelo://app?vid=531d4095-677f-418e-a605-3a08cb215550"},"vehicle_type_id":"4","last_reported":1726470569,"current_range_meters":32400,"station_id":"ce4bhap2rcd13ifvqek0","pricing_plan_id":"cebpf4jnsgd1na2vs0mg"},{"bike_id":"16e184b7-d508-4121-ac72-78d5cec086fe","system_id":"levelo_inurba_marseille","lat":43.30148,"lon":5.37419,"is_reserved":false,"is_disabled":false,"rental_uris":{"android":"levelo://app?vid=16e184b7-d508-4121-ac72-78d5cec086fe","ios":"levelo://app?vid=16e184b7-d508-4121-ac72-78d5cec086fe"},"vehicle_type_id":"4","last_reported":1726470569,"current_range_meters":22800,"station_id":"ce4bgs92rcd13ifvqcc0","pricing_plan_id":"cebpf4jnsgd1na2vs0mg"},{"bike_id":"e30408e9-85cf-4ed4-be8a-2484a0172c67","system_id":"levelo_inurba_marseille","lat":43.259393,"lon":5.409188,"is_reserved":false,"is_disabled":false,"rental_uris":{"android":"levelo://app?vid=e30408e9-85cf-4ed4-be8a-2484a0172c67","ios":"levelo://app?vid=e30408e9-85cf-4ed4-be8a-2484a0172c67"},"vehicle_type_id":"4","last_reported":1726470569,"current_range_meters":8400,"station_id":"ce4bhm92rcd13ifvqglg","pricing_plan_id":"cebpf4jnsgd1na2vs0mg"},{"bike_id":"8ce5a7f4-7567-41a9-933e-bdcf2ff2d630","system_id":"levelo_inurba_marseille","lat":43.2408,"lon":5.37755,"is_reserved":false,"is_disabled":false,"rental_uris":{"android":"levelo://app?vid=8ce5a7f4-7567-41a9-933e-bdcf2ff2d630","ios":"levelo://app?vid=8ce5a7f4-7567-41a9-933e-bdcf2ff2d630"},"vehicle_type_id":"4","last_reported":1726470569,"current_range_meters":16400,"station_id":"ce4bhnp2rcd13ifvqgvg","pricing_plan_id":"cebpf4jnsgd1na2vs0mg"},{"bike_id":"11120640-94d6-4a67-9dbe-e82b45a469cb","system_id":"levelo_inurba_marseille","lat":43.30548,"lon":5.36532,"is_reserved":false,"is_disabled":false,"rental_uris":{"android":"levelo://app?vid=11120640-94d6-4a67-9dbe-e82b45a469cb","ios":"levelo://app?vid=11120640-94d6-4a67-9dbe-e82b45a469cb"},"vehicle_type_id":"4","last_reported":1726470569,"current_range_meters":31200,"station_id":"ce4bgs12rcd13ifvqcag","pricing_plan_id":"cebpf4jnsgd1na2vs0mg"},{"bike_id":"16f68352-a855-48ab-9ad3-5be94cc79a5d","system_id":"levelo_inurba_marseille","lat":43.27496,"lon":5.42454,"is_reserved":false,"is_disabled":false,"rental_uris":{"android":"levelo://app?vid=16f68352-a855-48ab-9ad3-5be94cc79a5d","ios":"levelo://app?vid=16f68352-a855-48ab-9ad3-5be94cc79a5d"},"vehicle_type_id":"4","last_reported":1726470569,"current_range_meters":37600,"station_id":"ce4bhn92rcd13ifvqgrg","pricing_plan_id":"cebpf4jnsgd1na2vs0mg"},{"bike_id":"f87fcda1-24eb-4798-a3e8-b800535dcb03","system_id":"levelo_inurba_marseille","lat":43.28721,"lon":5.3793,"is_reserved":false,"is_disabled":false,"rental_uris":{"android":"levelo://app?vid=f87fcda1-24eb-4798-a3e8-b800535dcb03","ios":"levelo://app?vid=f87fcda1-24eb-4798-a3e8-b800535dcb03"},"vehicle_type_id":"4","last_reported":1726470569,"current_range_meters":33200,"station_id":"ce4bh9p2rcd13ifvqec0","pricing_plan_id":"cebpf4jnsgd1na2vs0mg"},{"bike_id":"f1e8ceee-9573-4b77-ab79-482d0d3b70cc","system_id":"levelo_inurba_marseille","lat":43.2417,"lon":5.36406,"is_reserved":false,"is_disabled":false,"rental_uris":{"android":"levelo://app?vid=f1e8ceee-9573-4b77-ab79-482d0d3b70cc","ios":"levelo://app?vid=f1e8ceee-9573-4b77-ab79-482d0d3b70cc"},"vehicle_type_id":"4","last_reported":1726470569,"current_range_meters":30800,"station_id":"cpo36qri1sfpv3e86is0","pricing_plan_id":"cebpf4jnsgd1na2vs0mg"},{"bike_id":"e61f7f48-b357-42e9-93d2-ab7ba94e01fc","system_id":"levelo_inurba_marseille","lat":43.30541,"lon":5.36697,"is_reserved":false,"is_disabled":false,"rental_uris":{"android":"levelo://app?vid=e61f7f48-b357-42e9-93d2-ab7ba94e01fc","ios":"levelo://app?vid=e61f7f48-b357-42e9-93d2-ab7ba94e01fc"},"vehicle_type_id":"4","last_reported":1726470569,"current_range_meters":30400,"station_id":"ce4bgrp2rcd13ifvqc9g","pricing_plan_id":"cebpf4jnsgd1na2vs0mg"},{"bike_id":"d740870d-6add-4eb9-b68d-b2dd7a395997","system_id":"levelo_inurba_marseille","lat":43.28982,"lon":5.37837,"is_reserved":false,"is_disabled":false,"rental_uris":{"android":"levelo://app?vid=d740870d-6add-4eb9-b68d-b2dd7a395997","ios":"levelo://app?vid=d740870d-6add-4eb9-b68d-b2dd7a395997"},"vehicle_type_id":"4","last_reported":1726470569,"current_range_meters":32800,"station_id":"ce4bh9p2rcd13ifvqed0","pricing_plan_id":"cebpf4jnsgd1na2vs0mg"},{"bike_id":"df5b0708-a4eb-4aac-8f1d-b518831cb9d1","system_id":"levelo_inurba_marseille","lat":43.28394,"lon":5.3837,"is_reserved":false,"is_disabled":false,"rental_uris":{"android":"levelo://app?vid=df5b0708-a4eb-4aac-8f1d-b518831cb9d1","ios":"levelo://app?vid=df5b0708-a4eb-4aac-8f1d-b518831cb9d1"},"vehicle_type_id":"4","last_reported":1726470569,"current_range_meters":37600,"station_id":"","pricing_plan_id":"cebpf4jnsgd1na2vs0mg"},{"bike_id":"adf4f941-700f-425e-b99f-c6e9f081c463","system_id":"levelo_inurba_marseille","lat":43.30912,"lon":5.36862,"is_reserved":false,"is_disabled":false,"rental_uris":{"android":"levelo://app?vid=adf4f941-700f-425e-b99f-c6e9f081c463","ios":"levelo://app?vid=adf4f941-700f-425e-b99f-c6e9f081c463"},"vehicle_type_id":"4","last_reported":1726470569,"current_range_meters":19200,"station_id":"ce4bgn92rcd13ifvqbvg","pricing_plan_id":"cebpf4jnsgd1na2vs0mg"},{"bike_id":"208451ef-cd83-4002-8724-b9d3b24e5f11","system_id":"levelo_inurba_marseille","lat":43.28494,"lon":5.38435,"is_reserved":false,"is_disabled":false,"rental_uris":{"android":"levelo://app?vid=208451ef-cd83-4002-8724-b9d3b24e5f11","ios":"levelo://app?vid=208451ef-cd83-4002-8724-b9d3b24e5f11"},"vehicle_type_id":"4","last_reported":1726470569,"current_range_meters":30800,"station_id":"ce4bh512rcd13ifvqe3g","pricing_plan_id":"cebpf4jnsgd1na2vs0mg"},{"bike_id":"488980a2-2581-4786-a55f-6746fccab000","system_id":"levelo_inurba_marseille","lat":43.24077,"lon":5.37756,"is_reserved":false,"is_disabled":false,"rental_uris":{"android":"levelo://app?vid=488980a2-2581-4786-a55f-6746fccab000","ios":"levelo://app?vid=488980a2-2581-4786-a55f-6746fccab000"},"vehicle_type_id":"4","last_reported":1726470569,"current_range_meters":36800,"station_id":"ce4bhnp2rcd13ifvqgvg","pricing_plan_id":"cebpf4jnsgd1na2vs0mg"},{"bike_id":"2d853d36-88af-4cb5-ae22-5345d1b169f3","system_id":"levelo_inurba_marseille","lat":43.3229,"lon":5.38268,"is_reserved":false,"is_disabled":false,"rental_uris":{"android":"levelo://app?vid=2d853d36-88af-4cb5-ae22-5345d1b169f3","ios":"levelo://app?vid=2d853d36-88af-4cb5-ae22-5345d1b169f3"},"vehicle_type_id":"4","last_reported":1726470569,"current_range_meters":32400,"station_id":"ce4bhr12rcd13ifvqhqg","pricing_plan_id":"cebpf4jnsgd1na2vs0mg"},{"bike_id":"64f7eeff-c508-46c1-a2d3-d4f60b67f79b","system_id":"levelo_inurba_marseille","lat":43.28483,"lon":5.38418,"is_reserved":false,"is_disabled":false,"rental_uris":{"android":"levelo://app?vid=64f7eeff-c508-46c1-a2d3-d4f60b67f79b","ios":"levelo://app?vid=64f7eeff-c508-46c1-a2d3-d4f60b67f79b"},"vehicle_type_id":"4","last_reported":1726470569,"current_range_meters":36800,"station_id":"ce4bh512rcd13ifvqe3g","pricing_plan_id":"cebpf4jnsgd1na2vs0mg"},{"bike_id":"0e5a3bf8-e7be-4e70-aca4-d97d6e03c7dd","system_id":"levelo_inurba_marseille","lat":43.33029,"lon":5.39045,"is_reserved":false,"is_disabled":false,"rental_uris":{"android":"levelo://app?vid=0e5a3bf8-e7be-4e70-aca4-d97d6e03c7dd","ios":"levelo://app?vid=0e5a3bf8-e7be-4e70-aca4-d97d6e03c7dd"},"vehicle_type_id":"4","last_reported":1726470569,"current_range_meters":19200,"station_id":"ce4bhr92rcd13ifvqhrg","pricing_plan_id":"cebpf4jnsgd1na2vs0mg"},{"bike_id":"075aca79-fab3-471a-a99f-fd1daecc197a","system_id":"levelo_inurba_marseille","lat":43.30462,"lon":5.3791,"is_reserved":false,"is_disabled":false,"rental_uris":{"android":"levelo://app?vid=075aca79-fab3-471a-a99f-fd1daecc197a","ios":"levelo://app?vid=075aca79-fab3-471a-a99f-fd1daecc197a"},"vehicle_type_id":"4","last_reported":1726470569,"current_range_meters":34800,"station_id":"ce4bgup2rcd13ifvqcn0","pricing_plan_id":"cebpf4jnsgd1na2vs0mg"},{"bike_id":"3a1235b4-5956-4064-a9e4-6d28f44f9c4f","system_id":"levelo_inurba_marseille","lat":43.30155,"lon":5.38081,"is_reserved":false,"is_disabled":false,"rental_uris":{"android":"levelo://app?vid=3a1235b4-5956-4064-a9e4-6d28f44f9c4f","ios":"levelo://app?vid=3a1235b4-5956-4064-a9e4-6d28f44f9c4f"},"vehicle_type_id":"4","last_reported":1726470569,"current_range_meters":22800,"station_id":"ce4bgjp2rcd13ifvqbh0","pricing_plan_id":"cebpf4jnsgd1na2vs0mg"},{"bike_id":"18f36b51-838b-46f8-9ad8-33cf10e0c950","system_id":"levelo_inurba_marseille","lat":43.32489,"lon":5.36548,"is_reserved":false,"is_disabled":false,"rental_uris":{"android":"levelo://app?vid=18f36b51-838b-46f8-9ad8-33cf10e0c950","ios":"levelo://app?vid=18f36b51-838b-46f8-9ad8-33cf10e0c950"},"vehicle_type_id":"4","last_reported":1726470569,"current_range_meters":38000,"station_id":"ce4bhs12rcd13ifvqhvg","pricing_plan_id":"cebpf4jnsgd1na2vs0mg"},{"bike_id":"852def96-4042-4bee-b2f6-2a3c47564579","system_id":"levelo_inurba_marseille","lat":43.27434,"lon":5.39404,"is_reserved":false,"is_disabled":false,"rental_uris":{"android":"levelo://app?vid=852def96-4042-4bee-b2f6-2a3c47564579","ios":"levelo://app?vid=852def96-4042-4bee-b2f6-2a3c47564579"},"vehicle_type_id":"4","last_reported":1726470569,"current_range_meters":25200,"station_id":"ce4bhdp2rcd13ifvqf20","pricing_plan_id":"cebpf4jnsgd1na2vs0mg"},{"bike_id":"39181f5e-2d99-4ef8-b9fc-ac1e72254c92","system_id":"levelo_inurba_marseille","lat":43.243053,"lon":5.396736,"is_reserved":false,"is_disabled":false,"rental_uris":{"android":"levelo://app?vid=39181f5e-2d99-4ef8-b9fc-ac1e72254c92","ios":"levelo://app?vid=39181f5e-2d99-4ef8-b9fc-ac1e72254c92"},"vehicle_type_id":"4","last_reported":1726470569,"current_range_meters":32000,"station_id":"ce4bhn12rcd13ifvqgpg","pricing_plan_id":"cebpf4jnsgd1na2vs0mg"},{"bike_id":"bd4f9abf-8940-4edd-9b94-4f507e68b352","system_id":"levelo_inurba_marseille","lat":43.30906,"lon":5.3685,"is_reserved":false,"is_disabled":false,"rental_uris":{"android":"levelo://app?vid=bd4f9abf-8940-4edd-9b94-4f507e68b352","ios":"levelo://app?vid=bd4f9abf-8940-4edd-9b94-4f507e68b352"},"vehicle_type_id":"4","last_reported":1726470569,"current_range_meters":18800,"station_id":"ce4bgn92rcd13ifvqbvg","pricing_plan_id":"cebpf4jnsgd1na2vs0mg"},