{"last_updated":1718039190,"ttl":30,"version":"2.2","data":{"bikes":[{"bike_id":"2148f8c4-27cd-4f60-9cc2-07ebfbd7ba08","system_id":"levelo_inurba_marseille","lat":43.31231,"lon":5.36711,"is_reserved":false,"is_disabled":false,"rental_uris":{"android":"levelo://app?vid=2148f8c4-27cd-4f60-9cc2-07ebfbd7ba08","ios":"levelo://app?vid=2148f8c4-27cd-4f60-9cc2-07ebfbd7ba08"},"vehicle_type_id":"4","last_reported":1718039190,"current_range_meters":26000,"station_id":"","pricing_plan_id":"cebpf4jnsgd1na2vs0mg"},{"bike_id":"5f105907-4bae-4f69-8189-eecc735d23da","system_id":"levelo_inurba_marseille","lat":43.31341,"lon":5.367098,"is_reserved":false,"is_disabled":false,"rental_uris":{"android":"levelo://app?vid=5f105907-4bae-4f69-8189-eecc735d23da","ios":"levelo://app?vid=5f105907-4bae-4f69-8189-eecc735d23da"},"vehicle_type_id":"4","last_reported":1718039190,"current_range_meters":21200,"station_id":"ce4bgr92rcd13ifvqc6g","pricing_plan_id":"cebpf4jnsgd1na2vs0mg"},{"bike_id":"83c12629-a69d-4493-9a9c-36d543ab47ea","system_id":"levelo_inurba_marseille","lat":43.312239,"lon":5.368562,"is_reserved":false,"is_disabled":false,"rental_uris":{"android":"levelo://app?vid=83c12629-a69d-4493-9a9c-36d543ab47ea","ios":"levelo://app?vid=83c12629-a69d-4493-9a9c-36d543ab47ea"},"vehicle_type_id":"4","last_reported":1718039190,"current_range_meters":7200,"station_id":"ce4bgl92rcd13ifvqbq0","pricing_plan_id":"cebpf4jnsgd1na2vs0mg"},{"bike_id":"deac01ba-87f9-4f79-8e0d-ee91c1816cae","system_id":"levelo_inurba_marseille","lat":43.312239,"lon":5.368562,"is_reserved":false,"is_disabled":false,"rental_uris":{"android":"levelo://app?vid=deac01ba-87f9-4f79-8e0d-ee91c1816cae","ios":"levelo://app?vid=deac01ba-87f9-4f79-8e0d-ee91c1816cae"},"vehicle_type_id":"4","last_reported":1718039190,"current_range_meters":6800,"station_id":"ce4bgl92rcd13ifvqbq0","pricing_plan_id":"cebpf4jnsgd1na2vs0mg"},{"bike_id":"7c0b10da-597f-4ce8-8051-93acfb5fd949","system_id":"levelo_inurba_marseille","lat":43.309076,"lon":5.368465,"is_reserved":false,"is_disabled":false,"rental_uris":{"android":"levelo://app?vid=7c0b10da-597f-4ce8-8051-93acfb5fd949","ios":"levelo://app?vid=7c0b10da-597f-4ce8-8051-93acfb5fd949"},"vehicle_type_id":"4","last_reported":1718039190,"current_range_meters":14800,"station_id":"ce4bgn92rcd13ifvqbvg","pricing_plan_id":"cebpf4jnsgd1na2vs0mg"},{"bike_id":"714d3195-403d-4392-8925-cdbb56e2e3e0","system_id":"levelo_inurba_marseille","lat":43.314811,"lon":5.373103,"is_reserved":false,"is_disabled":false,"rental_uris":{"android":"levelo://app?vid=714d3195-403d-4392-8925-cdbb56e2e3e0","ios":"levelo://app?vid=714d3195-403d-4392-8925-cdbb56e2e3e0"},"vehicle_type_id":"4","last_reported":1718039190,"current_range_meters":24800,"station_id":"ce4bgt12rcd13ifvqcd0","pricing_plan_id":"cebpf4jnsgd1na2vs0mg"},{"bike_id":"2cec5e61-d537-46ea-890e-66ae637aa5fb","system_id":"levelo_inurba_marseille","lat":43.314811,"lon":5.373104,"is_reserved":false,"is_disabled":false,"rental_uris":{"android":"levelo://app?vid=2cec5e61-d537-46ea-890e-66ae637aa5fb","ios":"levelo://app?vid=2cec5e61-d537-46ea-890e-66ae637aa5fb"},"vehicle_type_id":"4","last_reported":1718039190,"current_range_meters":1600,"station_id":"ce4bgt12rcd13ifvqcd0","pricing_plan_id":"cebpf4jnsgd1na2vs0mg"},{"bike_id":"e1fd2ba7-6419-4c1e-93dc-c43b173651f6","system_id":"levelo_inurba_marseille","lat":43.31477,"lon":5.37382,"is_reserved":false,"is_disabled":false,"rental_uris":{"android":"levelo://app?vid=e1fd2ba7-6419-4c1e-93dc-c43b173651f6","ios":"levelo://app?vid=e1fd2ba7-6419-4c1e-93dc-c43b173651f6"},"vehicle_type_id":"4","last_reported":1718039190,"current_range_meters":0,"station_id":"","pricing_plan_id":"cebpf4jnsgd1na2vs0mg"},{"bike_id":"15eed7f3-2021-47b3-96d7-4eaaccee7201","system_id":"levelo_inurba_marseille","lat":43.31639,"lon":5.374014,"is_reserved":false,"is_disabled":false,"rental_uris":{"android":"levelo://app?vid=15eed7f3-2021-47b3-96d7-4eaaccee7201","ios":"levelo://app?vid=15eed7f3-2021-47b3-96d7-4eaaccee7201"},"vehicle_type_id":"4","last_reported":1718039190,"current_range_meters":0,"station_id":"","pricing_plan_id":"cebpf4jnsgd1na2vs0mg"},{"bike_id":"942bf74e-244b-47ba-a18a-ad29956e4a5a","system_id":"levelo_inurba_marseille","lat":43.305706,"lon":5.365654,"is_reserved":false,"is_disabled":false,"rental_uris":{"android":"levelo://app?vid=942bf74e-244b-47ba-a18a-ad29956e4a5a","ios":"levelo://app?vid=942bf74e-244b-47ba-a18a-ad29956e4a5a"},"vehicle_type_id":"4","last_reported":1718039190,"current_range_meters":6000,"station_id":"ce4bgs12rcd13ifvqcag","pricing_plan_id":"cebpf4jnsgd1na2vs0mg"},{"bike_id":"5d8148ef-5c1f-44a3-8725-b6700317e129","system_id":"levelo_inurba_marseille","lat":43.317075,"lon":5.377367,"is_reserved":false,"is_disabled":false,"rental_uris":{"android":"levelo://app?vid=5d8148ef-5c1f-44a3-8725-b6700317e129","ios":"levelo://app?vid=5d8148ef-5c1f-44a3-8725-b6700317e129"},"vehicle_type_id":"4","last_reported":1718039190,"current_range_meters":16400,"station_id":"ce4bgth2rcd13ifvqch0","pricing_plan_id":"cebpf4jnsgd1na2vs0mg"},{"bike_id":"60f2dc25-2eee-45d8-9ef4-7e5519f5fd6f","system_id":"levelo_inurba_marseille","lat":43.309846,"lon":5.376664,"is_reserved":false,"is_disabled":false,"rental_uris":{"android":"levelo://app?vid=60f2dc25-2eee-45d8-9ef4-7e5519f5fd6f","ios":"levelo://app?vid=60f2dc25-2eee-45d8-9ef4-7e5519f5fd6f"},"vehicle_type_id":"4","last_reported":1718039190,"current_range_meters":15600,"station_id":"","pricing_plan_id":"cebpf4jnsgd1na2vs0mg"},{"bike_id":"0ddd0b51-dc71-4b76-b4e3-b10ebeac3418","system_id":"levelo_inurba_marseille","lat":43.291675,"lon":5.371583,"is_reserved":false,"is_disabled":false,"rental_uris":{"android":"levelo://app?vid=0ddd0b51-dc71-4b76-b4e3-b10ebeac3418","ios":"levelo://app?vid=0ddd0b51-dc71-4b76-b4e3-b10ebeac3418"},"vehicle_type_id":"4","last_reported":1718039190,"current_range_meters":10800,"station_id":"ce4bha92rcd13ifvqeh0","pricing_plan_id":"cebpf4jnsgd1na2vs0mg"},{"bike_id":"c129e73b-d5b4-4bf2-af66-01e511f05466","system_id":"levelo_inurba_marseille","lat":43.311125,"lon":5.377624,"is_reserved":false,"is_disabled":false,"rental_uris":{"android":"levelo://app?vid=c129e73b-d5b4-4bf2-af66-01e511f05466","ios":"levelo://app?vid=c129e73b-d5b4-4bf2-af66-01e511f05466"},"vehicle_type_id":"4","last_reported":1718039190,"current_range_meters":21600,"station_id":"ce4bgt92rcd13ifvqcg0","pricing_plan_id":"cebpf4jnsgd1na2vs0mg"},{"bike_id":"c219b3b4-c329-429b-bdd6-d0b3603224ca","system_id":"levelo_inurba_marseille","lat":43.311131,"lon":5.377651,"is_reserved":false,"is_disabled":false,"rental_uris":{"android":"levelo://app?vid=c219b3b4-c329-429b-bdd6-d0b3603224ca","ios":"levelo://app?vid=c219b3b4-c329-429b-bdd6-d0b3603224ca"},"vehicle_type_id":"4","last_reported":1718039190,"current_range_meters":0,"station_id":"ce4bgt92rcd13ifvqcg0","pricing_plan_id":"cebpf4jnsgd1na2vs0mg"},{"bike_id":"7135881a-01ec-4f1e-bd69-f6c554d38b15","system_id":"levelo_inurba_marseille","lat":43.311125,"lon":5.377624,"is_reserved":false,"is_disabled":false,"rental_uris":{"android":"levelo://app?vid=7135881a-01ec-4f1e-bd69-f6c554d38b15","ios":"levelo://app?vid=7135881a-01ec-4f1e-bd69-f6c554d38b15"},"vehicle_type_id":"4","last_reported":1718039190,"current_range_meters":6400,"station_id":"ce4bgt92rcd13ifvqcg0","pricing_plan_id":"cebpf4jnsgd1na2vs0mg"},{"bike_id":"7c5f9e35-c363-4a68-b403-202db47662b7","system_id":"levelo_inurba_marseille","lat":43.317075,"lon":5.377367,"is_reserved":false,"is_disabled":false,"rental_uris":{"android":"levelo://app?vid=7c5f9e35-c363-4a68-b403-202db47662b7","ios":"levelo://app?vid=7c5f9e35-c363-4a68-b403-202db47662b7"},"vehicle_type_id":"4","last_reported":1718039190,"current_range_meters":20800,"station_id":"ce4bgth2rcd13ifvqch0","pricing_plan_id":"cebpf4jnsgd1na2vs0mg"},{"bike_id":"2b20247f-4686-435c-8a13-ef4664521dd4","system_id":"levelo_inurba_marseille","lat":43.315289,"lon":5.380349,"is_reserved":false,"is_disabled":false,"rental_uris":{"android":"levelo://app?vid=2b20247f-4686-435c-8a13-ef4664521dd4","ios":"levelo://app?vid=2b20247f-4686-435c-8a13-ef4664521dd4"},"vehicle_type_id":"4","last_reported":1718039190,"current_range_meters":0,"station_id":"ce4bhsp2rcd13ifvqi50","pricing_plan_id":"cebpf4jnsgd1na2vs0mg"},{"bike_id":"a5351e90-a901-4b66-9509-0d6f541d2925","system_id":"levelo_inurba_marseille","lat":43.315289,"lon":5.380349,"is_reserved":false,"is_disabled":false,"rental_uris":{"android":"levelo://app?vid=a5351e90-a901-4b66-9509-0d6f541d2925","ios":"levelo://app?vid=a5351e90-a901-4b66-9509-0d6f541d2925"},"vehicle_type_id":"4","last_reported":1718039190,"current_range_meters":18400,"station_id":"ce4bhsp2rcd13ifvqi50","pricing_plan_id":"cebpf4jnsgd1na2vs0mg"},{"bike_id":"82b8d868-4b13-43d4-8a56-f08cc13ba521","system_id":"levelo_inurba_marseille","lat":43.315289,"lon":5.380349,"is_reserved":false,"is_disabled":false,"rental_uris":{"android":"levelo://app?vid=82b8d868-4b13-43d4-8a56-f08cc13ba521","ios":"levelo://app?vid=82b8d868-4b13-43d4-8a56-f08cc13ba521"},"vehicle_type_id":"4","last_reported":1718039190,"current_range_meters":9600,"station_id":"ce4bhsp2rcd13ifvqi50","pricing_plan_id":"cebpf4jnsgd1na2vs0mg"},{"bike_id":"aa5edcc1-054e-42b3-8fc1-252693776f3b","system_id":"levelo_inurba_marseille","lat":43.315289,"lon":5.380349,"is_reserved":false,"is_disabled":false,"rental_uris":{"android":"levelo://app?vid=aa5edcc1-054e-42b3-8fc1-252693776f3b","ios":"levelo://app?vid=aa5edcc1-054e-42b3-8fc1-252693776f3b"},"vehicle_type_id":"4","last_reported":1718039190,"current_range_meters":7200,"station_id":"ce4bhsp2rcd13ifvqi50","pricing_plan_id":"cebpf4jnsgd1na2vs0mg"},{"bike_id":"8fc2251f-3a9f-4d21-b1fc-256b028b0fe8","system_id":"levelo_inurba_marseille","lat":43.315289,"lon":5.380349,"is_reserved":false,"is_disabled":false,"rental_uris":{"android":"levelo://app?vid=8fc2251f-3a9f-4d21-b1fc-256b028b0fe8","ios":"levelo://app?vid=8fc2251f-3a9f-4d21-b1fc-256b028b0fe8"},"vehicle_type_id":"4","last_reported":1718039190,"current_range_meters":20000,"station_id":"ce4bhsp2rcd13ifvqi50","pricing_plan_id":"cebpf4jnsgd1na2vs0mg"},{"bike_id":"2e93344c-400f-4293-b45e-594626fa5859","system_id":"levelo_inurba_marseille","lat":43.301939,"lon":5.366286,"is_reserved":false,"is_disabled":false,"rental_uris":{"android":"levelo://app?vid=2e93344c-400f-4293-b45e-594626fa5859","ios":"levelo://app?vid=2e93344c-400f-4293-b45e-594626fa5859"},"vehicle_type_id":"4","last_reported":1718039190,"current_range_meters":9600,"station_id":"ce4bgrh2rcd13ifvqc8g","pricing_plan_id":"cebpf4jnsgd1na2vs0mg"},{"bike_id":"32caab69-3a54-4da3-bb80-13371a6df2ec","system_id":"levelo_inurba_marseille","lat":43.301939,"lon":5.366286,"is_reserved":false,"is_disabled":false,"rental_uris":{"android":"levelo://app?vid=32caab69-3a54-4da3-bb80-13371a6df2ec","ios":"levelo://app?vid=32caab69-3a54-4da3-bb80-13371a6df2ec"},"vehicle_type_id":"4","last_reported":1718039190,"current_range_meters":2400,"station_id":"ce4bgrh2rcd13ifvqc8g","pricing_plan_id":"cebpf4jnsgd1na2vs0mg"},{"bike_id":"a206c7f8-4efc-4700-97f0-7f2eb886ba0b","system_id":"levelo_inurba_marseille","lat":43.301939,"lon":5.366286,"is_reserved":false,"is_disabled":false,"rental_uris":{"android":"levelo://app?vid=a206c7f8-4efc-4700-97f0-7f2eb886ba0b","ios":"levelo://app?vid=a206c7f8-4efc-4700-97f0-7f2eb886ba0b"},"vehicle_type_id":"4","last_reported":1718039190,"current_range_meters":30800,"station_id":"ce4bgrh2rcd13ifvqc8g","pricing_plan_id":"cebpf4jnsgd1na2vs0mg"},{"bike_id":"b5877aad-e2cb-4dbe-92b8-2fd15675fc4a","system_id":"levelo_inurba_marseille","lat":43.324771,"lon":5.36557,"is_reserved":false,"is_disabled":false,"rental_uris":{"android":"levelo://app?vid=b5877aad-e2cb-4dbe-92b8-2fd15675fc4a","ios":"levelo://app?vid=b5877aad-e2cb-4dbe-92b8-2fd15675fc4a"},"vehicle_type_id":"4","last_reported":1718039190,"current_range_meters":26000,"station_id":"ce4bhs12rcd13ifvqhvg","pricing_plan_id":"cebpf4jnsgd1na2vs0mg"},{"bike_id":"54c2c94a-f498-414f-8863-af1eeef84b9e","system_id":"levelo_inurba_marseille","lat":43.324771,"lon":5.36557,"is_reserved":false,"is_disabled":false,"rental_uris":{"android":"levelo://app?vid=54c2c94a-f498-414f-8863-af1eeef84b9e","ios":"levelo://app?vid=54c2c94a-f498-414f-8863-af1eeef84b9e"},"vehicle_type_id":"4","last_reported":1718039190,"current_range_meters":27600,"station_id":"ce4bhs12rcd13ifvqhvg","pricing_plan_id":"cebpf4jnsgd1na2vs0mg"},{"bike_id":"fe5104fa-12e7-420a-a0d2-b10193a073ea","system_id":"levelo_inurba_marseille","lat":43.324771,"lon":5.36557,"is_reserved":false,"is_disabled":false,"rental_uris":{"android":"levelo://app?vid=fe5104fa-12e7-420a-a0d2-b10193a073ea","ios":"levelo://app?vid=fe5104fa-12e7-420a-a0d2-b10193a073ea"},"vehicle_type_id":"4","last_reported":1718039190,"current_range_meters":27200,"station_id":"ce4bhs12rcd13ifvqhvg","pricing_plan_id":"cebpf4jnsgd1na2vs0mg"},{"bike_id":"d148902a-2337-4f6d-9a63-ad8f2f34014e","system_id":"levelo_inurba_marseille","lat":43.324771,"lon":5.36557,"is_reserved":false,"is_disabled":false,"rental_uris":{"android":"levelo://app?vid=d148902a-2337-4f6d-9a63-ad8f2f34014e","ios":"levelo://app?vid=d148902a-2337-4f6d-9a63-ad8f2f34014e"},"vehicle_type_id":"4","last_reported":1718039190,"current_range_meters":400,"station_id":"ce4bhs12rcd13ifvqhvg","pricing_plan_id":"cebpf4jnsgd1na2vs0mg"},{"bike_id":"6414352a-eae6-4ab2-8a91-938a7b38a369","system_id":"levelo_inurba_marseille","lat":43.324771,"lon":5.36557,"is_reserved":false,"is_disabled":false,"rental_uris":{"android":"levelo://app?vid=6414352a-eae6-4ab2-8a91-938a7b38a369","ios":"levelo://app?vid=6414352a-eae6-4ab2-8a91-938a7b38a369"},"vehicle_type_id":"4","last_reported":1718039190,"current_range_meters":5600,"station_id":"ce4bhs12rcd13ifvqhvg","pricing_plan_id":"cebpf4jnsgd1na2vs0mg"},{"bike_id":"1a979ed6-4df4-4fa4-8a28-170df3c57b48","system_id":"levelo_inurba_marseille","lat":43.324771,"lon":5.36557,"is_reserved":false,"is_disabled":false,"rental_uris":{"android":"levelo://app?vid=1a979ed6-4df4-4fa4-8a28-170df3c57b48","ios":"levelo://app?vid=1a979ed6-4df4-4fa4-8a28-170df3c57b48"},"vehicle_type_id":"4","last_reported":1718039190,"current_range_meters":1600,"station_id":"ce4bhs12rcd13ifvqhvg","pricing_plan_id":"cebpf4jnsgd1na2vs0mg"},{"bike_id":"17930396-fc6d-40aa-89e8-c27c14398548","system_id":"levelo_inurba_marseille","lat":43.324771,"lon":5.36557,"is_reserved":false,"is_disabled":false,"rental_uris":{"android":"levelo://app?vid=17930396-fc6d-40aa-89e8-c27c14398548","ios":"levelo://app?vid=17930396-fc6d-40aa-89e8-c27c14398548"},"vehicle_type_id":"4","last_reported":1718039190,"current_range_meters":11200,"station_id":"ce4bhs12rcd13ifvqhvg","pricing_plan_id":"cebpf4jnsgd1na2vs0mg"},{"bike_id":"c6712fae-7e44-4abc-9a67-a74aba6ad947","system_id":"levelo_inurba_marseille","lat":43.324771,"lon":5.36557,"is_reserved":false,"is_disabled":false,"rental_uris":{"android":"levelo://app?vid=c6712fae-7e44-4abc-9a67-a74aba6ad947","ios":"levelo://app?vid=c6712fae-7e44-4abc-9a67-a74aba6ad947"},"vehicle_type_id":"4","last_reported":1718039190,"current_range_meters":22000,"station_id":"ce4bhs12rcd13ifvqhvg","pricing_plan_id":"cebpf4jnsgd1na2vs0mg"},{"bike_id":"97a89233-b186-4d20-b87e-ba011f1363de","system_id":"levelo_inurba_marseille","lat":43.324771,"lon":5.36557,"is_reserved":false,"is_disabled":false,"rental_uris":{"android":"levelo://app?vid=97a89233-b186-4d20-b87e-ba011f1363de","ios":"levelo://app?vid=97a89233-b186-4d20-b87e-ba011f1363de"},"vehicle_type_id":"4","last_reported":1718039190,"current_range_meters":0,"station_id":"ce4bhs12rcd13ifvqhvg","pricing_plan_id":"cebpf4jnsgd1na2vs0mg"},{"bike_id":"c8dc8333-76b2-482e-9eda-602fa29edabc","system_id":"levelo_inurba_marseille","lat":43.324771,"lon":5.36557,"is_reserved":false,"is_disabled":false,"rental_uris":{"android":"levelo://app?vid=c8dc8333-76b2-482e-9eda-602fa29edabc","ios":"levelo://app?vid=c8dc8333-76b2-482e-9eda-602fa29edabc"},"vehicle_type_id":"4","last_reported":1718039190,"current_range_meters":18800,"station_id":"ce4bhs12rcd13ifvqhvg","pricing_plan_id":"cebpf4jnsgd1na2vs0mg"},{"bike_id":"31f05fe5-e943-4ec8-bb18-57dde8b62088","system_id":"levelo_inurba_marseille","lat":43.324845,"lon":5.365715,"is_reserved":false,"is_disabled":false,"rental_uris":{"android":"levelo://app?vid=31f05fe5-e943-4ec8-bb18-57dde8b62088","ios":"levelo://app?vid=31f05fe5-e943-4ec8-bb18-57dde8b62088"},"vehicle_type_id":"4","last_reported":1718039190,"current_range_meters":20800,"station_id":"ce4bhs12rcd13ifvqhvg","pricing_plan_id":"cebpf4jnsgd1na2vs0mg"},{"bike_id":"ee5f9885-4958-420f-ab41-29868a3cb06d","system_id":"levelo_inurba_marseille","lat":43.302784,"lon":5.377158,"is_reserved":false,"is_disabled":false,"rental_uris":{"android":"levelo://app?vid=ee5f9885-4958-420f-ab41-29868a3cb06d","ios":"levelo://app?vid=ee5f9885-4958-420f-ab41-29868a3cb06d"},"vehicle_type_id":"4","last_reported":1718039190,"current_range_meters":22400,"station_id":"ce4bguh2rcd13ifvqcj0","pricing_plan_id":"cebpf4jnsgd1na2vs0mg"},{"bike_id":"910544f8-d031-429b-9deb-a79f6f8fbeb1","system_id":"levelo_inurba_marseille","lat":43.301429,"lon":5.37413,"is_reserved":false,"is_disabled":false,"rental_uris":{"android":"levelo://app?vid=910544f8-d031-429b-9deb-a79f6f8fbeb1","ios":"levelo://app?vid=910544f8-d031-429b-9deb-a79f6f8fbeb1"},"vehicle_type_id":"4","last_reported":1718039190,"current_range_meters":21600,"station_id":"ce4bgs92rcd13ifvqcc0","pricing_plan_id":"cebpf4jnsgd1na2vs0mg"},{"bike_id":"251cecf0-9213-4d84-aa71-45edd27894f3","system_id":"levelo_inurba_marseille","lat":43.301429,"lon":5.37413,"is_reserved":false,"is_disabled":false,"rental_uris":{"android":"levelo://app?vid=251cecf0-9213-4d84-aa71-45edd27894f3","ios":"levelo://app?vid=251cecf0-9213-4d84-aa71-45edd27894f3"},"vehicle_type_id":"4","last_reported":1718039190,"current_range_meters":15200,"station_id":"ce4bgs92rcd13ifvqcc0","pricing_plan_id":"cebpf4jnsgd1na2vs0mg"},{"bike_id":"ae3e2e0c-c3a9-4c0f-a748-50ce018acdc8","system_id":"levelo_inurba_marseille","lat":43.302784,"lon":5.377158,"is_reserved":false,"is_disabled":false,"rental_uris":{"android":"levelo://app?vid=ae3e2e0c-c3a9-4c0f-a748-50ce018acdc8","ios":"levelo://app?vid=ae3e2e0c-c3a9-4c0f-a748-50ce018acdc8"},"vehicle_type_id":"4","last_reported":1718039190,"current_range_meters":17600,"station_id":"ce4bguh2rcd13ifvqcj0","pricing_plan_id":"cebpf4jnsgd1na2vs0mg"},{"bike_id":"9b2f4846-59a5-4cff-861b-e8045bc2841f","system_id":"levelo_inurba_marseille","lat":43.319935,"lon":5.381699,"is_reserved":false,"is_disabled":false,"rental_uris":{"android":"levelo://app?vid=9b2f4846-59a5-4cff-861b-e8045bc2841f","ios":"levelo://app?vid=9b2f4846-59a5-4cff-861b-e8045bc2841f"},"vehicle_type_id":"4","last_reported":1718039190,"current_range_meters":0,"station_id":"ce4bhr12rcd13ifvqhpg","pricing_plan_id":"cebpf4jnsgd1na2vs0mg"},{"bike_id":"be80832f-f87d-4730-93b2-9c662cfd9c96","system_id":"levelo_inurba_marseille","lat":43.319935,"lon":5.381699,"is_reserved":false,"is_disabled":false,"rental_uris":{"android":"levelo://app?vid=be80832f-f87d-4730-93b2-9c662cfd9c96","ios":"levelo://app?vid=be80832f-f87d-4730-93b2-9c662cfd9c96"},"vehicle_type_id":"4","last_reported":1718039190,"current_range_meters":14400,"station_id":"ce4bhr12rcd13ifvqhpg","pricing_plan_id":"cebpf4jnsgd1na2vs0mg"},{"bike_id":"025d0da1-81b1-4da7-a39a-e0f3c5a3dbdc","system_id":"levelo_inurba_marseille","lat":43.313571,"lon":5.384829,"is_reserved":false,"is_disabled":false,"rental_uris":{"android":"levelo://app?vid=025d0da1-81b1-4da7-a39a-e0f3c5a3dbdc","ios":"levelo://app?vid=025d0da1-81b1-4da7-a39a-e0f3c5a3dbdc"},"vehicle_type_id":"4","last_reported":1718039190,"current_range_meters":29200,"station_id":"ce4bgt92rcd13ifvqcf0","pricing_plan_id":"cebpf4jnsgd1na2vs0mg"},{"bike_id":"edfe0997-fd4c-4825-a2da-de9e8221c072","system_id":"levelo_inurba_marseille","lat":43.299222,"lon":5.365554,"is_reserved":false,"is_disabled":false,"rental_uris":{"android":"levelo://app?vid=edfe0997-fd4c-4825-a2da-de9e8221c072","ios":"levelo://app?vid=edfe0997-fd4c-4825-a2da-de9e8221c072"},"vehicle_type_id":"4","last_reported":1718039190,"current_range_meters":2400,"station_id":"ce4bgm92rcd13ifvqbr0","pricing_plan_id":"cebpf4jnsgd1na2vs0mg"},{"bike_id":"5856b61d-935d-4d5c-bcec-18817c7455a4","system_id":"levelo_inurba_marseille","lat":43.299222,"lon":5.365554,"is_reserved":false,"is_disabled":false,"rental_uris":{"android":"levelo://app?vid=5856b61d-935d-4d5c-bcec-18817c7455a4","ios":"levelo://app?vid=5856b61d-935d-4d5c-bcec-18817c7455a4"},"vehicle_type_id":"4","last_reported":1718039190,"current_range_meters":31200,"station_id":"ce4bgm92rcd13ifvqbr0","pricing_plan_id":"cebpf4jnsgd1na2vs0mg"},{"bike_id":"5c43b395-480a-40e8-9e06-92549fe24005","system_id":"levelo_inurba_marseille","lat":43.299222,"lon":5.365554,"is_reserved":false,"is_disabled":false,"rental_uris":{"android":"levelo://app?vid=5c43b395-480a-40e8-9e06-92549fe24005","ios":"levelo://app?vid=5c43b395-480a-40e8-9e06-92549fe24005"},"vehicle_type_id":"4","last_reported":1718039190,"current_range_meters":31200,"station_id":"ce4bgm92rcd13ifvqbr0","pricing_plan_id":"cebpf4jnsgd1na2vs0mg"},{"bike_id":"c295d250-00b0-4cfc-87db-ab5403cd78b6","system_id":"levelo_inurba_marseille","lat":43.305364,"lon":5.384119,"is_reserved":false,"is_disabled":false,"rental_uris":{"android":"levelo://app?vid=c295d250-00b0-4cfc-87db-ab5403cd78b6","ios":"levelo://app?vid=c295d250-00b0-4cfc-87db-ab5403cd78b6"},"vehicle_type_id":"4","last_reported":1718039190,"current_range_meters":1200,"station_id":"ce4bgg92rcd13ifvqb30","pricing_plan_id":"cebpf4jnsgd1na2vs0mg"},{"bike_id":"6b7273e3-1f81-4f90-9248-55d8a3fa383c","system_id":"levelo_inurba_marseille","lat":43.299243,"lon":5.374807,"is_reserved":false,"is_disabled":false,"rental_uris":{"android":"levelo://app?vid=6b7273e3-1f81-4f90-9248-55d8a3fa383c","ios":"levelo://app?vid=6b7273e3-1f81-4f90-9248-55d8a3fa383c"},"vehicle_type_id":"4","last_reported":1718039190,"current_range_meters":0,"station_id":"ce4bgjh2rcd13ifvqbg0","pricing_plan_id":"cebpf4jnsgd1na2vs0mg"},{"bike_id":"fbda3ffd-f317-4286-8687-91bc8ecf5f23","system_id":"levelo_inurba_marseille","lat":43.305364,"lon":5.384119,"is_reserved":false,"is_disabled":false,"rental_uris":{"android":"levelo://app?vid=fbda3ffd-f317-4286-8687-91bc8ecf5f23","ios":"levelo://app?vid=fbda3ffd-f317-4286-8687-91bc8ecf5f23"},"vehicle_type_id":"4","last_reported":1718039190,"current_range_meters":2000,"station_id":"ce4bgg92rcd13ifvqb30","pricing_plan_id":"cebpf4jnsgd1na2vs0mg"},{"bike_id":"44633568-3934-497b-8674-62af8ef7d3fb","system_id":"levelo_inurba_marseille","lat":43.30771,"lon":5.38589,"is_reserved":false,"is_disabled":false,"rental_uris":{"android":"levelo://app?vid=44633568-3934-497b-8674-62af8ef7d3fb","ios":"levelo://app?vid=44633568-3934-497b-8674-62af8ef7d3fb"},"vehicle_type_id":"4","last_reported":1718039190,"current_range_meters":18800,"station_id":"","pricing_plan_id":"cebpf4jnsgd1na2vs0mg"},{"bike_id":"0160d2b7-6165-424d-927d-4e45cb2a7e53","system_id":"levelo_inurba_marseille","lat":43.297794,"lon":5.370888,"is_reserved":false,"is_disabled":false,"rental_uris":{"android":"levelo://app?vid=0160d2b7-6165-424d-927d-4e45cb2a7e53","ios":"levelo://app?vid=0160d2b7-6165-424d-927d-4e45cb2a7e53"},"vehicle_type_id":"4","last_reported":1718039190,"current_range_meters":22800,"station_id":"ce4bgop2rcd13ifvqc1g","pricing_plan_id":"cebpf4jnsgd1na2vs0mg"},{"bike_id":"017884ae-6362-4525-b4c5-1b7bc8c334b8","system_id":"levelo_inurba_marseille","lat":43.297794,"lon":5.370888,"is_reserved":false,"is_disabled":false,"rental_uris":{"android":"levelo://app?vid=017884ae-6362-4525-b4c5-1b7bc8c334b8","ios":"levelo://app?vid=017884ae-6362-4525-b4c5-1b7bc8c334b8"},"vehicle_type_id":"4","last_reported":1718039190,"current_range_meters":16000,"station_id":"ce4bgop2rcd13ifvqc1g","pricing_plan_id":"cebpf4jnsgd1na2vs0mg"},{"bike_id":"6ad3f3d0-ec14-4b21-92af-99701fabd2ea","system_id":"levelo_inurba_marseille","lat":43.311722,"lon":5.387247,"is_reserved":false,"is_disabled":false,"rental_uris":{"android":"levelo://app?vid=6ad3f3d0-ec14-4b21-92af-99701fabd2ea","ios":"levelo://app?vid=6ad3f3d0-ec14-4b21-92af-99701fabd2ea"},"vehicle_type_id":"4","last_reported":1718039190,"current_range_meters":1200,"station_id":"ce4bgv12rcd13ifvqcp0","pricing_plan_id":"cebpf4jnsgd1na2vs0mg"},{"bike_id":"82ff6a05-5327-4af1-b327-56410b2d87a7","system_id":"levelo_inurba_marseille","lat":43.322872,"lon":5.382756,"is_reserved":false,"is_disabled":false,"rental_uris":{"android":"levelo://app?vid=82ff6a05-5327-4af1-b327-56410b2d87a7","ios":"levelo://app?vid=82ff6a05-5327-4af1-b327-56410b2d87a7"},"vehicle_type_id":"4","last_reported":1718039190,"current_range_meters":7200,"station_id":"ce4bhr12rcd13ifvqhqg","pricing_plan_id":"cebpf4jnsgd1na2vs0mg"},{"bike_id":"fe3b7478-d5ca-4d38-b097-d0f991b861a5","system_id":"levelo_inurba_marseille","lat":43.296131,"lon":5.370791,"is_reserved":false,"is_disabled":false,"rental_uris":{"android":"levelo://app?vid=fe3b7478-d5ca-4d38-b097-d0f991b861a5","ios":"levelo://app?vid=fe3b7478-d5ca-4d38-b097-d0f991b861a5"},"vehicle_type_id":"4","last_reported":1718039190,"current_range_meters":0,"station_id":"ce4bgnh2rcd13ifvqc0g","pricing_plan_id":"cebpf4jnsgd1na2vs0mg"},{"bike_id":"465fb208-a2af-447f-8d31-5a4b2997fd5d","system_id":"levelo_inurba_marseille","lat":43.29573,"lon":5.367355,"is_reserved":false,"is_disabled":false,"rental_uris":{"android":"levelo://app?vid=465fb208-a2af-447f-8d31-5a4b2997fd5d","ios":"levelo://app?vid=465fb208-a2af-447f-8d31-5a4b2997fd5d"},"vehicle_type_id":"4","last_reported":1718039190,"current_range_meters":400,"station_id":"ce4bgph2rcd13ifvqc2g","pricing_plan_id":"cebpf4jnsgd1na2vs0mg"},{"bike_id":"784f0352-e0d2-439f-b3ec-a90fcb985d73","system_id":"levelo_inurba_marseille","lat":43.29573,"lon":5.367355,"is_reserved":false,"is_disabled":false,"rental_uris":{"android":"levelo://app?vid=784f0352-e0d2-439f-b3ec-a90fcb985d73","ios":"levelo://app?vid=784f0352-e0d2-439f-b3ec-a90fcb985d73"},"vehicle_type_id":"4","last_reported":1718039190,"current_range_meters":16800,"station_id":"ce4bgph2rcd13ifvqc2g","pricing_plan_id":"cebpf4jnsgd1na2vs0mg"},{"bike_id":"07773985-34ec-4763-96be-8e5894bfba74","system_id":"levelo_inurba_marseille","lat":43.296204,"lon":5.371933,"is_reserved":false,"is_disabled":false,"rental_uris":{"android":"levelo://app?vid=07773985-34ec-4763-96be-8e5894bfba74","ios":"levelo://app?vid=07773985-34ec-4763-96be-8e5894bfba74"},"vehicle_type_id":"4","last_reported":1718039190,"current_range_meters":16400,"station_id":"ce4bgnh2rcd13ifvqc0g","pricing_plan_id":"cebpf4jnsgd1na2vs0mg"},{"bike_id":"7f2250f3-f1d1-4cbc-aa9b-4d578dbe08ef","system_id":"levelo_inurba_marseille","lat":43.296327,"lon":5.37358,"is_reserved":false,"is_disabled":false,"rental_uris":{"android":"levelo://app?vid=7f2250f3-f1d1-4cbc-aa9b-4d578dbe08ef","ios":"levelo://app?vid=7f2250f3-f1d1-4cbc-aa9b-4d578dbe08ef"},"vehicle_type_id":"4","last_reported":1718039190,"current_range_meters":0,"station_id":"","pricing_plan_id":"cebpf4jnsgd1na2vs0mg"},{"bike_id":"287bb407-0dca-4d8c-9fc8-7eaf73916765","system_id":"levelo_inurba_marseille","lat":43.299028,"lon":5.381509,"is_reserved":false,"is_disabled":false,"rental_uris":{"android":"levelo://app?vid=287bb407-0dca-4d8c-9fc8-7eaf73916765","ios":"levelo://app?vid=287bb407-0dca-4d8c-9fc8-7eaf73916765"},"vehicle_type_id":"4","last_reported":1718039190,"current_range_meters":14800,"station_id":"ce4bgj12rcd13ifvqbc0","pricing_plan_id":"cebpf4jnsgd1na2vs0mg"},{"bike_id":"1ad2a8fe-ecf7-4f51-965c-18cfee1c9fb7","system_id":"levelo_inurba_marseille","lat":43.309589,"lon":5.390258,"is_reserved":false,"is_disabled":false,"rental_uris":{"android":"levelo://app?vid=1ad2a8fe-ecf7-4f51-965c-18cfee1c9fb7","ios":"levelo://app?vid=1ad2a8fe-ecf7-4f51-965c-18cfee1c9fb7"},"vehicle_type_id":"4","last_reported":1718039190,"current_range_meters":0,"station_id":"ce4bgup2rcd13ifvqco0","pricing_plan_id":"cebpf4jnsgd1na2vs0mg"},{"bike_id":"1f59f8b3-fb19-43dd-a7f7-794543bf01fc","system_id":"levelo_inurba_marseille","lat":43.317557,"lon":5.390173,"is_reserved":false,"is_disabled":false,"rental_uris":{"android":"levelo://app?vid=1f59f8b3-fb19-43dd-a7f7-794543bf01fc","ios":"levelo://app?vid=1f59f8b3-fb19-43dd-a7f7-794543bf01fc"},"vehicle_type_id":"4","last_reported":1718039190,"current_range_meters":2400,"station_id":"ce4bhqp2rcd13ifvqhng","pricing_plan_id":"cebpf4jnsgd1na2vs0mg"},{"bike_id":"782124f1-ce20-41fa-a0a8-3796cd711aab","system_id":"levelo_inurba_marseille","lat":43.317557,"lon":5.390173,"is_reserved":false,"is_disabled":false,"rental_uris":{"android":"levelo://app?vid=782124f1-ce20-41fa-a0a8-3796cd711aab","ios":"levelo://app?vid=782124f1-ce20-41fa-a0a8-3796cd711aab"},"vehicle_type_id":"4","last_reported":1718039190,"current_range_meters":5200,"station_id":"ce4bhqp2rcd13ifvqhng","pricing_plan_id":"cebpf4jnsgd1na2vs0mg"},{"bike_id":"1cb69845-ea6b-49db-ae00-a0ca066a17be","system_id":"levelo_inurba_marseille","lat":43.317557,"lon":5.390173,"is_reserved":false,"is_disabled":false,"rental_uris":{"android":"levelo://app?vid=1cb69845-ea6b-49db-ae00-a0ca066a17be","ios":"levelo://app?vid=1cb69845-ea6b-49db-ae00-a0ca066a17be"},"vehicle_type_id":"4","last_reported":1718039190,"current_range_meters":11600,"station_id":"ce4bhqp2rcd13ifvqhng","pricing_plan_id":"cebpf4jnsgd1na2vs0mg"},{"bike_id":"8c77690f-3886-413a-91fd-8db50332479b","system_id":"levelo_inurba_marseille","lat":43.29714,"lon":5.37883,"is_reserved":false,"is_disabled":false,"rental_uris":{"android":"levelo://app?vid=8c77690f-3886-413a-91fd-8db50332479b","ios":"levelo://app?vid=8c77690f-3886-413a-91fd-8db50332479b"},"vehicle_type_id":"4","last_reported":1718039190,"current_range_meters":30800,"station_id":"","pricing_plan_id":"cebpf4jnsgd1na2vs0mg"},{"bike_id":"02964a2f-a9ac-47df-8336-e6ea8d31319f","system_id":"levelo_inurba_marseille","lat":43.298037,"lon":5.381066,"is_reserved":false,"is_disabled":false,"rental_uris":{"android":"levelo://app?vid=02964a2f-a9ac-47df-8336-e6ea8d31319f","ios":"levelo://app?vid=02964a2f-a9ac-47df-8336-e6ea8d31319f"},"vehicle_type_id":"4","last_reported":1718039190,"current_range_meters":0,"station_id":"ce4bgip2rcd13ifvqbb0","pricing_plan_id":"cebpf4jnsgd1na2vs0mg"},{"bike_id":"715297cd-f70f-4bd4-9b76-2f615c053584","system_id":"levelo_inurba_marseille","lat":43.29579,"lon":5.37518,"is_reserved":false,"is_disabled":false,"rental_uris":{"android":"levelo://app?vid=715297cd-f70f-4bd4-9b76-2f615c053584","ios":"levelo://app?vid=715297cd-f70f-4bd4-9b76-2f615c053584"},"vehicle_type_id":"4","last_reported":1718039190,"current_range_meters":0,"station_id":"ce4bgh92rcd13ifvqb50","pricing_plan_id":"cebpf4jnsgd1na2vs0mg"},{"bike_id":"06876a7f-cc3c-4cd7-8486-9ab11579bab3","system_id":"levelo_inurba_marseille","lat":43.298037,"lon":5.381066,"is_reserved":false,"is_disabled":false,"rental_uris":{"android":"levelo://app?vid=06876a7f-cc3c-4cd7-8486-9ab11579bab3","ios":"levelo://app?vid=06876a7f-cc3c-4cd7-8486-9ab11579bab3"},"vehicle_type_id":"4","last_reported":1718039190,"current_range_meters":0,"station_id":"ce4bgip2rcd13ifvqbb0","pricing_plan_id":"cebpf4jnsgd1na2vs0mg"},{"bike_id":"f7f6417a-422f-4081-bdfe-4e6c99e057d5","system_id":"levelo_inurba_marseille","lat":43.298037,"lon":5.381066,"is_reserved":false,"is_disabled":false,"rental_uris":{"android":"levelo://app?vid=f7f6417a-422f-4081-bdfe-4e6c99e057d5","ios":"levelo://app?vid=f7f6417a-422f-4081-bdfe-4e6c99e057d5"},"vehicle_type_id":"4","last_reported":1718039190,"current_range_meters":0,"station_id":"ce4bgip2rcd13ifvqbb0","pricing_plan_id":"cebpf4jnsgd1na2vs0mg"},{"bike_id":"c0564ac8-c706-4ca8-8b2f-307a870b17a3","system_id":"levelo_inurba_marseille","lat":43.295748,"lon":5.37522,"is_reserved":false,"is_disabled":false,"rental_uris":{"android":"levelo://app?vid=c0564ac8-c706-4ca8-8b2f-307a870b17a3","ios":"levelo://app?vid=c0564ac8-c706-4ca8-8b2f-307a870b17a3"},"vehicle_type_id":"4","last_reported":1718039190,"current_range_meters":10800,"station_id":"ce4bgh92rcd13ifvqb50","pricing_plan_id":"cebpf4jnsgd1na2vs0mg"},{"bike_id":"f1aeb38b-5a48-4b18-8ad5-ec417ac1d8b0","system_id":"levelo_inurba_marseille","lat":43.29569,"lon":5.37517,"is_reserved":false,"is_disabled":false,"rental_uris":{"android":"levelo://app?vid=f1aeb38b-5a48-4b18-8ad5-ec417ac1d8b0","ios":"levelo://app?vid=f1aeb38b-5a48-4b18-8ad5-ec417ac1d8b0"},"vehicle_type_id":"4","last_reported":1718039190,"current_range_meters":18400,"station_id":"ce4bgh92rcd13ifvqb50","pricing_plan_id":"cebpf4jnsgd1na2vs0mg"},{"bike_id":"b5885349-d33a-4e8f-9448-c20fdca9f4a6","system_id":"levelo_inurba_marseille","lat":43.304274,"lon":5.388873,"is_reserved":false,"is_disabled":false,"rental_uris":{"android":"levelo://app?vid=b5885349-d33a-4e8f-9448-c20fdca9f4a6","ios":"levelo://app?vid=b5885349-d33a-4e8f-9448-c20fdca9f4a6"},"vehicle_type_id":"4","last_reported":1718039190,"current_range_meters":22400,"station_id":"ce4bgk12rcd13ifvqbi0","pricing_plan_id":"cebpf4jnsgd1na2vs0mg"},{"bike_id":"0db50bc3-bbf3-48e2-99f7-009535b27e5d","system_id":"levelo_inurba_marseille","lat":43.296033,"lon":5.377291,"is_reserved":false,"is_disabled":false,"rental_uris":{"android":"levelo://app?vid=0db50bc3-bbf3-48e2-99f7-009535b27e5d","ios":"levelo://app?vid=0db50bc3-bbf3-48e2-99f7-009535b27e5d"},"vehicle_type_id":"4","last_reported":1718039190,"current_range_meters":0,"station_id":"ce4bgi92rcd13ifvqb90","pricing_plan_id":"cebpf4jnsgd1na2vs0mg"},{"bike_id":"8b442b5b-4b18-409f-8f17-d49eb1158a25","system_id":"levelo_inurba_marseille","lat":43.299707,"lon":5.384859,"is_reserved":false,"is_disabled":false,"rental_uris":{"android":"levelo://app?vid=8b442b5b-4b18-409f-8f17-d49eb1158a25","ios":"levelo://app?vid=8b442b5b-4b18-409f-8f17-d49eb1158a25"},"vehicle_type_id":"4","last_reported":1718039190,"current_range_meters":12400,"station_id":"ce4bgj92rcd13ifvqbd0","pricing_plan_id":"cebpf4jnsgd1na2vs0mg"},{"bike_id":"f20ad28a-54c6-4561-a85d-f24bdfcda77d","system_id":"levelo_inurba_marseille","lat":43.2997,"lon":5.38492,"is_reserved":false,"is_disabled":false,"rental_uris":{"android":"levelo://app?vid=f20ad28a-54c6-4561-a85d-f24bdfcda77d","ios":"levelo://app?vid=f20ad28a-54c6-4561-a85d-f24bdfcda77d"},"vehicle_type_id":"4","last_reported":1718039190,"current_range_meters":0,"station_id":"ce4bgj92rcd13ifvqbd0","pricing_plan_id":"cebpf4jnsgd1na2vs0mg"},{"bike_id":"cda1139f-d640-4ec7-b5f5-fa03c75651ad","system_id":"levelo_inurba_marseille","lat":43.298556,"lon":5.383843,"is_reserved":false,"is_disabled":false,"rental_uris":{"android":"levelo://app?vid=cda1139f-d640-4ec7-b5f5-fa03c75651ad","ios":"levelo://app?vid=cda1139f-d640-4ec7-b5f5-fa03c75651ad"},"vehicle_type_id":"4","last_reported":1718039190,"current_range_meters":26000,"station_id":"","pricing_plan_id":"cebpf4jnsgd1na2vs0mg"},{"bike_id":"0ec984b3-0188-4c1f-aee0-e4d434c4ebd0","system_id":"levelo_inurba_marseille","lat":43.299724,"lon":5.384848,"is_reserved":false,"is_disabled":false,"rental_uris":{"android":"levelo://app?vid=0ec984b3-0188-4c1f-aee0-e4d434c4ebd0","ios":"levelo://app?vid=0ec984b3-0188-4c1f-aee0-e4d434c4ebd0"},"vehicle_type_id":"4","last_reported":1718039190,"current_range_meters":0,"station_id":"ce4bgj92rcd13ifvqbd0","pricing_plan_id":"cebpf4jnsgd1na2vs0mg"},{"bike_id":"ad269404-14c7-42ce-a853-ee3b545823ac","system_id":"levelo_inurba_marseille","lat":43.29464,"lon":5.35856,"is_reserved":false,"is_disabled":false,"rental_uris":{"android":"levelo://app?vid=ad269404-14c7-42ce-a853-ee3b545823ac","ios":"levelo://app?vid=ad269404-14c7-42ce-a853-ee3b545823ac"},"vehicle_type_id":"4","last_reported":1718039190,"current_range_meters":0,"station_id":"","pricing_plan_id":"cebpf4jnsgd1na2vs0mg"},{"bike_id":"a62270c7-ef7e-4a15-a40d-a32c3e4e2388","system_id":"levelo_inurba_marseille","lat":43.32367,"lon":5.388836,"is_reserved":false,"is_disabled":false,"rental_uris":{"android":"levelo://app?vid=a62270c7-ef7e-4a15-a40d-a32c3e4e2388","ios":"levelo://app?vid=a62270c7-ef7e-4a15-a40d-a32c3e4e2388"},"vehicle_type_id":"4","last_reported":1718039190,"current_range_meters":5600,"station_id":"ce4bhqp2rcd13ifvqhog","pricing_plan_id":"cebpf4jnsgd1na2vs0mg"},{"bike_id":"6a299c41-0160-4026-8195-fe8662157962","system_id":"levelo_inurba_marseille","lat":43.323678,"lon":5.388843,"is_reserved":false,"is_disabled":false,"rental_uris":{"android":"levelo://app?vid=6a299c41-0160-4026-8195-fe8662157962","ios":"levelo://app?vid=6a299c41-0160-4026-8195-fe8662157962"},"vehicle_type_id":"4","last_reported":1718039190,"current_range_meters":10800,"station_id":"ce4bhqp2rcd13ifvqhog","pricing_plan_id":"cebpf4jnsgd1na2vs0mg"},{"bike_id":"8c21ce60-68a1-416b-947e-57782f077f4a","system_id":"levelo_inurba_marseille","lat":43.32369,"lon":5.388847,"is_reserved":false,"is_disabled":false,"rental_uris":{"android":"levelo://app?vid=8c21ce60-68a1-416b-947e-57782f077f4a","ios":"levelo://app?vid=8c21ce60-68a1-416b-947e-57782f077f4a"},"vehicle_type_id":"4","last_reported":1718039190,"current_range_meters":0,"station_id":"ce4bhqp2rcd13ifvqhog","pricing_plan_id":"cebpf4jnsgd1na2vs0mg"},{"bike_id":"20312fc9-d66e-43b1-ad9f-4189ef529808","system_id":"levelo_inurba_marseille","lat":43.32367,"lon":5.388836,"is_reserved":false,"is_disabled":false,"rental_uris":{"android":"levelo://app?vid=20312fc9-d66e-43b1-ad9f-4189ef529808","ios":"levelo://app?vid=20312fc9-d66e-43b1-ad9f-4189ef529808"},"vehicle_type_id":"4","last_reported":1718039190,"current_range_meters":8800,"station_id":"ce4bhqp2rcd13ifvqhog","pricing_plan_id":"cebpf4jnsgd1na2vs0mg"},{"bike_id":"091d0760-44da-4d52-91d5-c81ebd757699","system_id":"levelo_inurba_marseille","lat":43.289184,"lon":5.366408,"is_reserved":false,"is_disabled":false,"rental_uris":{"android":"levelo://app?vid=091d0760-44da-4d52-91d5-c81ebd757699","ios":"levelo://app?vid=091d0760-44da-4d52-91d5-c81ebd757699"},"vehicle_type_id":"4","last_reported":1718039190,"current_range_meters":12400,"station_id":"ce4bhap2rcd13ifvqek0","pricing_plan_id":"cebpf4jnsgd1na2vs0mg"},{"bike_id":"3741482d-02d7-4335-a126-1e35b5eb9459","system_id":"levelo_inurba_marseille","lat":43.292749,"lon":5.368402,"is_reserved":false,"is_disabled":false,"rental_uris":{"android":"levelo://app?vid=3741482d-02d7-4335-a126-1e35b5eb9459","ios":"levelo://app?vid=3741482d-02d7-4335-a126-1e35b5eb9459"},"vehicle_type_id":"4","last_reported":1718039190,"current_range_meters":28400,"station_id":"ce4bhbp2rcd13ifvqesg","pricing_plan_id":"cebpf4jnsgd1na2vs0mg"},{"bike_id":"114b5954-2f8a-4aec-8800-25b1aa3ae9a8","system_id":"levelo_inurba_marseille","lat":43.29306,"lon":5.37177,"is_reserved":false,"is_disabled":false,"rental_uris":{"android":"levelo://app?vid=114b5954-2f8a-4aec-8800-25b1aa3ae9a8","ios":"levelo://app?vid=114b5954-2f8a-4aec-8800-25b1aa3ae9a8"},"vehicle_type_id":"4","last_reported":1718039190,"current_range_meters":0,"station_id":"ce4bgh92rcd13ifvqb40","pricing_plan_id":"cebpf4jnsgd1na2vs0mg"},{"bike_id":"645989a7-8a48-4792-a18e-b957cb079227","system_id":"levelo_inurba_marseille","lat":43.29305,"lon":5.37462,"is_reserved":false,"is_disabled":false,"rental_uris":{"android":"levelo://app?vid=645989a7-8a48-4792-a18e-b957cb079227","ios":"levelo://app?vid=645989a7-8a48-4792-a18e-b957cb079227"},"vehicle_type_id":"4","last_reported":1718039190,"current_range_meters":0,"station_id":"ce4bgi12rcd13ifvqb70","pricing_plan_id":"cebpf4jnsgd1na2vs0mg"},{"bike_id":"1c5feea7-0825-4fa9-85fc-2ad23cffa7be","system_id":"levelo_inurba_marseille","lat":43.293009,"lon":5.374584,"is_reserved":false,"is_disabled":false,"rental_uris":{"android":"levelo://app?vid=1c5feea7-0825-4fa9-85fc-2ad23cffa7be","ios":"levelo://app?vid=1c5feea7-0825-4fa9-85fc-2ad23cffa7be"},"vehicle_type_id":"4","last_reported":1718039190,"current_range_meters":1200,"station_id":"ce4bgi12rcd13ifvqb70","pricing_plan_id":"cebpf4jnsgd1na2vs0mg"},{"bike_id":"e1d0fc29-ce09-447d-b197-e2a2aa7696b2","system_id":"levelo_inurba_marseille","lat":43.255756,"lon":5.382303,"is_reserved":false,"is_disabled":false,"rental_uris":{"android":"levelo://app?vid=e1d0fc29-ce09-447d-b197-e2a2aa7696b2","ios":"levelo://app?vid=e1d0fc29-ce09-447d-b197-e2a2aa7696b2"},"vehicle_type_id":"4","last_reported":1718039190,"current_range_meters":0,"station_id":"ce4bhih2rcd13ifvqfs0","pricing_plan_id":"cebpf4jnsgd1na2vs0mg"},{"bike_id":"299a0df3-535d-4582-8e40-95fdcf8017e8","system_id":"levelo_inurba_marseille","lat":43.305994,"lon":5.393687,"is_reserved":false,"is_disabled":false,"rental_uris":{"android":"levelo://app?vid=299a0df3-535d-4582-8e40-95fdcf8017e8","ios":"levelo://app?vid=299a0df3-535d-4582-8e40-95fdcf8017e8"},"vehicle_type_id":"4","last_reported":1718039190,"current_range_meters":0,"station_id":"ce4bh0p2rcd13ifvqd80","pricing_plan_id":"cebpf4jnsgd1na2vs0mg"},{"bike_id":"5bde7fde-4005-4465-bc83-873fcabd42f0","system_id":"levelo_inurba_marseille","lat":43.302992,"lon":5.392136,"is_reserved":false,"is_disabled":false,"rental_uris":{"android":"levelo://app?vid=5bde7fde-4005-4465-bc83-873fcabd42f0","ios":"levelo://app?vid=5bde7fde-4005-4465-bc83-873fcabd42f0"},"vehicle_type_id":"4","last_reported":1718039190,"current_range_meters":0,"station_id":"ce4bgkh2rcd13ifvqbk0","pricing_plan_id":"cebpf4jnsgd1na2vs0mg"},{"bike_id":"0fa634ca-8a20-4872-b81b-c86bf234064f","system_id":"levelo_inurba_marseille","lat":43.2938,"lon":5.3785,"is_reserved":false,"is_disabled":false,"rental_uris":{"android":"levelo://app?vid=0fa634ca-8a20-4872-b81b-c86bf234064f","ios":"levelo://app?vid=0fa634ca-8a20-4872-b81b-c86bf234064f"},"vehicle_type_id":"4","last_reported":1718039190,"current_range_meters":0,"station_id":"ce4bgjh2rcd13ifvqbf0","pricing_plan_id":"cebpf4jnsgd1na2vs0mg"},{"bike_id":"3cb63895-5180-4336-a13a-e798144e840d","system_id":"levelo_inurba_marseille","lat":43.29375,"lon":5.37842,"is_reserved":false,"is_disabled":false,"rental_uris":{"android":"levelo://app?vid=3cb63895-5180-4336-a13a-e798144e840d","ios":"levelo://app?vid=3cb63895-5180-4336-a13a-e798144e840d"},"vehicle_type_id":"4","last_reported":1718039190,"current_range_meters":22400,"station_id":"","pricing_plan_id":"cebpf4jnsgd1na2vs0mg"},{"bike_id":"eb2e32b7-a45c-4027-b576-2e4111b73941","system_id":"levelo_inurba_marseille","lat":43.293778,"lon":5.378537,"is_reserved":false,"is_disabled":false,"rental_uris":{"android":"levelo://app?vid=eb2e32b7-a45c-4027-b576-2e4111b73941","ios":"levelo://app?vid=eb2e32b7-a45c-4027-b576-2e4111b73941"},"vehicle_type_id":"4","last_reported":1718039190,"current_range_meters":21200,"station_id":"ce4bgjh2rcd13ifvqbf0","pricing_plan_id":"cebpf4jnsgd1na2vs0mg"},{"bike_id":"fd1df2c1-2e8f-4ef7-a27f-917a1ba06cd8","system_id":"levelo_inurba_marseille","lat":43.293697,"lon":5.378357,"is_reserved":false,"is_disabled":false,"rental_uris":{"android":"levelo://app?vid=fd1df2c1-2e8f-4ef7-a27f-917a1ba06cd8","ios":"levelo://app?vid=fd1df2c1-2e8f-4ef7-a27f-917a1ba06cd8"},"vehicle_type_id":"4","last_reported":1718039190,"current_range_meters":0,"station_id":"ce4bgjh2rcd13ifvqbf0","pricing_plan_id":"cebpf4jnsgd1na2vs0mg"},{"bike_id":"ed8d5a07-a201-4076-8c75-17f3a31f6058","system_id":"levelo_inurba_marseille","lat":43.293782,"lon":5.378669,"is_reserved":false,"is_disabled":false,"rental_uris":{"android":"levelo://app?vid=ed8d5a07-a201-4076-8c75-17f3a31f6058","ios":"levelo://app?vid=ed8d5a07-a201-4076-8c75-17f3a31f6058"},"vehicle_type_id":"4","last_reported":1718039190,"current_range_meters":15200,"station_id":"ce4bgjh2rcd13ifvqbf0","pricing_plan_id":"cebpf4jnsgd1na2vs0mg"},{"bike_id":"09bf9c11-b432-4e0c-a7f4-e9e55fd36b85","system_id":"levelo_inurba_marseille","lat":43.29369,"lon":5.37853,"is_reserved":false,"is_disabled":false,"rental_uris":{"android":"levelo://app?vid=09bf9c11-b432-4e0c-a7f4-e9e55fd36b85","ios":"levelo://app?vid=09bf9c11-b432-4e0c-a7f4-e9e55fd36b85"},"vehicle_type_id":"4","last_reported":1718039190,"current_range_meters":0,"station_id":"ce4bgjh2rcd13ifvqbf0","pricing_plan_id":"cebpf4jnsgd1na2vs0mg"},{"bike_id":"34962e26-9484-410d-a6fb-e3590ff534bc","system_id":"levelo_inurba_marseille","lat":43.292311,"lon":5.360731,"is_reserved":false,"is_disabled":false,"rental_uris":{"android":"levelo://app?vid=34962e26-9484-410d-a6fb-e3590ff534bc","ios":"levelo://app?vid=34962e26-9484-410d-a6fb-e3590ff534bc"},"vehicle_type_id":"4","last_reported":1718039190,"current_range_meters":14400,"station_id":"ce4bhbh2rcd13ifvqeqg","pricing_plan_id":"cebpf4jnsgd1na2vs0mg"},{"bike_id":"ae418482-71dd-4a06-a08d-9c7cfe0fb383","system_id":"levelo_inurba_marseille","lat":43.292311,"lon":5.360731,"is_reserved":false,"is_disabled":false,"rental_uris":{"android":"levelo://app?vid=ae418482-71dd-4a06-a08d-9c7cfe0fb383","ios":"levelo://app?vid=ae418482-71dd-4a06-a08d-9c7cfe0fb383"},"vehicle_type_id":"4","last_reported":1718039190,"current_range_meters":1600,"station_id":"ce4bhbh2rcd13ifvqeqg","pricing_plan_id":"cebpf4jnsgd1na2vs0mg"},{"bike_id":"9c5904ed-f430-464c-a168-e60349b062ef","system_id":"levelo_inurba_marseille","lat":43.292311,"lon":5.360731,"is_reserved":false,"is_disabled":false,"rental_uris":{"android":"levelo://app?vid=9c5904ed-f430-464c-a168-e60349b062ef","ios":"levelo://app?vid=9c5904ed-f430-464c-a168-e60349b062ef"},"vehicle_type_id":"4","last_reported":1718039190,"current_range_meters":10400,"station_id":"ce4bhbh2rcd13ifvqeqg","pricing_plan_id":"cebpf4jnsgd1na2vs0mg"},{"bike_id":"6526f0be-f9c2-4e27-b146-a96184a4dbc1","system_id":"levelo_inurba_marseille","lat":43.292311,"lon":5.360731,"is_reserved":false,"is_disabled":false,"rental_uris":{"android":"levelo://app?vid=6526f0be-f9c2-4e27-b146-a96184a4dbc1","ios":"levelo://app?vid=6526f0be-f9c2-4e27-b146-a96184a4dbc1"},"vehicle_type_id":"4","last_reported":1718039190,"current_range_meters":24000,"station_id":"ce4bhbh2rcd13ifvqeqg","pricing_plan_id":"cebpf4jnsgd1na2vs0mg"},{"bike_id":"5a5315d7-1a33-4b68-a8a5-09853a6cfbce","system_id":"levelo_inurba_marseille","lat":43.292311,"lon":5.360731,"is_reserved":false,"is_disabled":false,"rental_uris":{"android":"levelo://app?vid=5a5315d7-1a33-4b68-a8a5-09853a6cfbce","ios":"levelo://app?vid=5a5315d7-1a33-4b68-a8a5-09853a6cfbce"},"vehicle_type_id":"4","last_reported":1718039190,"current_range_meters":26800,"station_id":"ce4bhbh2rcd13ifvqeqg","pricing_plan_id":"cebpf4jnsgd1na2vs0mg"},{"bike_id":"e2b5014f-e492-4b9a-b050-e2de21836c65","system_id":"levelo_inurba_marseille","lat":43.292311,"lon":5.360731,"is_reserved":false,"is_disabled":false,"rental_uris":{"android":"levelo://app?vid=e2b5014f-e492-4b9a-b050-e2de21836c65","ios":"levelo://app?vid=e2b5014f-e492-4b9a-b050-e2de21836c65"},"vehicle_type_id":"4","last_reported":1718039190,"current_range_meters":22000,"station_id":"ce4bhbh2rcd13ifvqeqg","pricing_plan_id":"cebpf4jnsgd1na2vs0mg"},{"bike_id":"dca5d73d-5ae3-4e18-80a7-f8cc5e3281e4","system_id":"levelo_inurba_marseille","lat":43.29489,"lon":5.38289,"is_reserved":false,"is_disabled":false,"rental_uris":{"android":"levelo://app?vid=dca5d73d-5ae3-4e18-80a7-f8cc5e3281e4","ios":"levelo://app?vid=dca5d73d-5ae3-4e18-80a7-f8cc5e3281e4"},"vehicle_type_id":"4","last_reported":1718039190,"current_range_meters":0,"station_id":"","pricing_plan_id":"cebpf4jnsgd1na2vs0mg"},{"bike_id":"aff68802-3a1b-48ea-8982-258576f19dce","system_id":"levelo_inurba_marseille","lat":43.291994,"lon":5.357886,"is_reserved":false,"is_disabled":false,"rental_uris":{"android":"levelo://app?vid=aff68802-3a1b-48ea-8982-258576f19dce","ios":"levelo://app?vid=aff68802-3a1b-48ea-8982-258576f19dce"},"vehicle_type_id":"4","last_reported":1718039190,"current_range_meters":22000,"station_id":"ce4bhb12rcd13ifvqel0","pricing_plan_id":"cebpf4jnsgd1na2vs0mg"},{"bike_id":"059a5d35-3ed2-4a5a-9aac-cbdcaef35e40","system_id":"levelo_inurba_marseille","lat":43.291994,"lon":5.357886,"is_reserved":false,"is_disabled":false,"rental_uris":{"android":"levelo://app?vid=059a5d35-3ed2-4a5a-9aac-cbdcaef35e40","ios":"levelo://app?vid=059a5d35-3ed2-4a5a-9aac-cbdcaef35e40"},"vehicle_type_id":"4","last_reported":1718039190,"current_range_meters":24800,"station_id":"ce4bhb12rcd13ifvqel0","pricing_plan_id":"cebpf4jnsgd1na2vs0mg"},{"bike_id":"ed586f1a-cd27-49be-ae3c-c423e64aaf99","system_id":"levelo_inurba_marseille","lat":43.291994,"lon":5.357886,"is_reserved":false,"is_disabled":false,"rental_uris":{"android":"levelo://app?vid=ed586f1a-cd27-49be-ae3c-c423e64aaf99","ios":"levelo://app?vid=ed586f1a-cd27-49be-ae3c-c423e64aaf99"},"vehicle_type_id":"4","last_reported":1718039190,"current_range_meters":19200,"station_id":"ce4bhb12rcd13ifvqel0","pricing_plan_id":"cebpf4jnsgd1na2vs0mg"},{"bike_id":"d747b144-37f8-4a2d-aaa3-620995722e19","system_id":"levelo_inurba_marseille","lat":43.313291,"lon":5.396838,"is_reserved":false,"is_disabled":false,"rental_uris":{"android":"levelo://app?vid=d747b144-37f8-4a2d-aaa3-620995722e19","ios":"levelo://app?vid=d747b144-37f8-4a2d-aaa3-620995722e19"},"vehicle_type_id":"4","last_reported":1718039190,"current_range_meters":2000,"station_id":"ce4bgvp2rcd13ifvqcu0","pricing_plan_id":"cebpf4jnsgd1na2vs0mg"},{"bike_id":"58912c00-1f3c-4b0d-90cd-9be0503ba43f","system_id":"levelo_inurba_marseille","lat":43.291896,"lon":5.357959,"is_reserved":false,"is_disabled":false,"rental_uris":{"android":"levelo://app?vid=58912c00-1f3c-4b0d-90cd-9be0503ba43f","ios":"levelo://app?vid=58912c00-1f3c-4b0d-90cd-9be0503ba43f"},"vehicle_type_id":"4","last_reported":1718039190,"current_range_meters":14400,"station_id":"","pricing_plan_id":"cebpf4jnsgd1na2vs0mg"},{"bike_id":"9f2c2866-d6ca-494a-8698-43eadb0a0724","system_id":"levelo_inurba_marseille","lat":43.30889,"lon":5.3965,"is_reserved":false,"is_disabled":false,"rental_uris":{"android":"levelo://app?vid=9f2c2866-d6ca-494a-8698-43eadb0a0724","ios":"levelo://app?vid=9f2c2866-d6ca-494a-8698-43eadb0a0724"},"vehicle_type_id":"4","last_reported":1718039190,"current_range_meters":0,"station_id":"ce4bh012rcd13ifvqcv0","pricing_plan_id":"cebpf4jnsgd1na2vs0mg"},{"bike_id":"fe206a67-34d0-4c81-82c8-2917a64421f9","system_id":"levelo_inurba_marseille","lat":43.313291,"lon":5.396838,"is_reserved":false,"is_disabled":false,"rental_uris":{"android":"levelo://app?vid=fe206a67-34d0-4c81-82c8-2917a64421f9","ios":"levelo://app?vid=fe206a67-34d0-4c81-82c8-2917a64421f9"},"vehicle_type_id":"4","last_reported":1718039190,"current_range_meters":25200,"station_id":"ce4bgvp2rcd13ifvqcu0","pricing_plan_id":"cebpf4jnsgd1na2vs0mg"},{"bike_id":"acc7453d-e04b-4c54-b6f8-c65e7981883d","system_id":"levelo_inurba_marseille","lat":43.29529,"lon":5.385581,"is_reserved":false,"is_disabled":false,"rental_uris":{"android":"levelo://app?vid=acc7453d-e04b-4c54-b6f8-c65e7981883d","ios":"levelo://app?vid=acc7453d-e04b-4c54-b6f8-c65e7981883d"},"vehicle_type_id":"4","last_reported":1718039190,"current_range_meters":0,"station_id":"ce4bgih2rcd13ifvqba0","pricing_plan_id":"cebpf4jnsgd1na2vs0mg"},{"bike_id":"feedbcda-8db4-40e7-a8a8-b8df1eec3d05","system_id":"levelo_inurba_marseille","lat":43.29529,"lon":5.385581,"is_reserved":false,"is_disabled":false,"rental_uris":{"android":"levelo://app?vid=feedbcda-8db4-40e7-a8a8-b8df1eec3d05","ios":"levelo://app?vid=feedbcda-8db4-40e7-a8a8-b8df1eec3d05"},"vehicle_type_id":"4","last_reported":1718039190,"current_range_meters":6400,"station_id":"ce4bgih2rcd13ifvqba0","pricing_plan_id":"cebpf4jnsgd1na2vs0mg"},{"bike_id":"fcc73db1-0dc4-4556-96df-803a417bf6e8","system_id":"levelo_inurba_marseille","lat":43.29529,"lon":5.385581,"is_reserved":false,"is_disabled":false,"rental_uris":{"android":"levelo://app?vid=fcc73db1-0dc4-4556-96df-803a417bf6e8","ios":"levelo://app?vid=fcc73db1-0dc4-4556-96df-803a417bf6e8"},"vehicle_type_id":"4","last_reported":1718039190,"current_range_meters":0,"station_id":"ce4bgih2rcd13ifvqba0","pricing_plan_id":"cebpf4jnsgd1na2vs0mg"},{"bike_id":"d6434e19-77f3-478d-a4a3-7717dd2de6ba","system_id":"levelo_inurba_marseille","lat":43.2904,"lon":5.37006,"is_reserved":false,"is_disabled":false,"rental_uris":{"android":"levelo://app?vid=d6434e19-77f3-478d-a4a3-7717dd2de6ba","ios":"levelo://app?vid=d6434e19-77f3-478d-a4a3-7717dd2de6ba"},"vehicle_type_id":"4","last_reported":1718039190,"current_range_meters":0,"station_id":"ce4bh512rcd13ifvqe2g","pricing_plan_id":"cebpf4jnsgd1na2vs0mg"},{"bike_id":"7b54002b-f502-4319-9cd7-cb384d15772f","system_id":"levelo_inurba_marseille","lat":43.290593,"lon":5.372267,"is_reserved":false,"is_disabled":false,"rental_uris":{"android":"levelo://app?vid=7b54002b-f502-4319-9cd7-cb384d15772f","ios":"levelo://app?vid=7b54002b-f502-4319-9cd7-cb384d15772f"},"vehicle_type_id":"4","last_reported":1718039190,"current_range_meters":0,"station_id":"ce4bh5p2rcd13ifvqe4g","pricing_plan_id":"cebpf4jnsgd1na2vs0mg"},{"bike_id":"cc15fb49-b014-4f87-9c58-8c33fdfbdd08","system_id":"levelo_inurba_marseille","lat":43.302008,"lon":5.394694,"is_reserved":false,"is_disabled":false,"rental_uris":{"android":"levelo://app?vid=cc15fb49-b014-4f87-9c58-8c33fdfbdd08","ios":"levelo://app?vid=cc15fb49-b014-4f87-9c58-8c33fdfbdd08"},"vehicle_type_id":"4","last_reported":1718039190,"current_range_meters":0,"station_id":"ce4bh0p2rcd13ifvqd70","pricing_plan_id":"cebpf4jnsgd1na2vs0mg"},{"bike_id":"6a8057a9-6b53-4a65-ba20-64f057c72e89","system_id":"levelo_inurba_marseille","lat":43.291693,"lon":5.378047,"is_reserved":false,"is_disabled":false,"rental_uris":{"android":"levelo://app?vid=6a8057a9-6b53-4a65-ba20-64f057c72e89","ios":"levelo://app?vid=6a8057a9-6b53-4a65-ba20-64f057c72e89"},"vehicle_type_id":"4","last_reported":1718039190,"current_range_meters":11200,"station_id":"","pricing_plan_id":"cebpf4jnsgd1na2vs0mg"},{"bike_id":"d1578607-c297-48cc-ba9f-2b8276c77bc9","system_id":"levelo_inurba_marseille","lat":43.302008,"lon":5.394694,"is_reserved":false,"is_disabled":false,"rental_uris":{"android":"levelo://app?vid=d1578607-c297-48cc-ba9f-2b8276c77bc9","ios":"levelo://app?vid=d1578607-c297-48cc-ba9f-2b8276c77bc9"},"vehicle_type_id":"4","last_reported":1718039190,"current_range_meters":22800,"station_id":"ce4bh0p2rcd13ifvqd70","pricing_plan_id":"cebpf4jnsgd1na2vs0mg"},{"bike_id":"46b28fda-ea89-478d-b57b-16724e70a718","system_id":"levelo_inurba_marseille","lat":43.290624,"lon":5.359245,"is_reserved":false,"is_disabled":false,"rental_uris":{"android":"levelo://app?vid=46b28fda-ea89-478d-b57b-16724e70a718","ios":"levelo://app?vid=46b28fda-ea89-478d-b57b-16724e70a718"},"vehicle_type_id":"4","last_reported":1718039190,"current_range_meters":15200,"station_id":"ce4bha92rcd13ifvqeg0","pricing_plan_id":"cebpf4jnsgd1na2vs0mg"},{"bike_id":"c3d77999-2ea8-49b9-b402-af3e89d7edc2","system_id":"levelo_inurba_marseille","lat":43.294153,"lon":5.386305,"is_reserved":false,"is_disabled":false,"rental_uris":{"android":"levelo://app?vid=c3d77999-2ea8-49b9-b402-af3e89d7edc2","ios":"levelo://app?vid=c3d77999-2ea8-49b9-b402-af3e89d7edc2"},"vehicle_type_id":"4","last_reported":1718039190,"current_range_meters":8800,"station_id":"ce4bh2h2rcd13ifvqdh0","pricing_plan_id":"cebpf4jnsgd1na2vs0mg"},{"bike_id":"a1c6524b-a286-4736-ae68-80def62349e3","system_id":"levelo_inurba_marseille","lat":43.294162,"lon":5.386292,"is_reserved":false,"is_disabled":false,"rental_uris":{"android":"levelo://app?vid=a1c6524b-a286-4736-ae68-80def62349e3","ios":"levelo://app?vid=a1c6524b-a286-4736-ae68-80def62349e3"},"vehicle_type_id":"4","last_reported":1718039190,"current_range_meters":13200,"station_id":"ce4bh2h2rcd13ifvqdh0","pricing_plan_id":"cebpf4jnsgd1na2vs0mg"},{"bike_id":"4e944515-52a7-4e80-8f4a-fb1b367f3795","system_id":"levelo_inurba_marseille","lat":43.28856,"lon":5.358371,"is_reserved":false,"is_disabled":false,"rental_uris":{"android":"levelo://app?vid=4e944515-52a7-4e80-8f4a-fb1b367f3795","ios":"levelo://app?vid=4e944515-52a7-4e80-8f4a-fb1b367f3795"},"vehicle_type_id":"4","last_reported":1718039190,"current_range_meters":12400,"station_id":"ce4bhb12rcd13ifvqem0","pricing_plan_id":"cebpf4jnsgd1na2vs0mg"},{"bike_id":"6a014e2c-8138-43b3-bdcf-bacd0549179c","system_id":"levelo_inurba_marseille","lat":43.28939,"lon":5.36632,"is_reserved":false,"is_disabled":false,"rental_uris":{"android":"levelo://app?vid=6a014e2c-8138-43b3-bdcf-bacd0549179c","ios":"levelo://app?vid=6a014e2c-8138-43b3-bdcf-bacd0549179c"},"vehicle_type_id":"4","last_reported":1718039190,"current_range_meters":0,"station_id":"ce4bhap2rcd13ifvqek0","pricing_plan_id":"cebpf4jnsgd1na2vs0mg"},{"bike_id":"f153a9f0-9034-4604-824c-f1314eacec18","system_id":"levelo_inurba_marseille","lat":43.289468,"lon":5.363719,"is_reserved":false,"is_disabled":false,"rental_uris":{"android":"levelo://app?vid=f153a9f0-9034-4604-824c-f1314eacec18","ios":"levelo://app?vid=f153a9f0-9034-4604-824c-f1314eacec18"},"vehicle_type_id":"4","last_reported":1718039190,"current_range_meters":5200,"station_id":"ce4bhc92rcd13ifvqetg","pricing_plan_id":"cebpf4jnsgd1na2vs0mg"},{"bike_id":"d2ace067-d943-4ae7-bc34-ed0125d861a4","system_id":"levelo_inurba_marseille","lat":43.289468,"lon":5.363719,"is_reserved":false,"is_disabled":false,"rental_uris":{"android":"levelo://app?vid=d2ace067-d943-4ae7-bc34-ed0125d861a4","ios":"levelo://app?vid=d2ace067-d943-4ae7-bc34-ed0125d861a4"},"vehicle_type_id":"4","last_reported":1718039190,"current_range_meters":8000,"station_id":"ce4bhc92rcd13ifvqetg","pricing_plan_id":"cebpf4jnsgd1na2vs0mg"},{"bike_id":"80160306-1880-44d2-9e2b-525eac02a70c","system_id":"levelo_inurba_marseille","lat":43.289468,"lon":5.363719,"is_reserved":false,"is_disabled":false,"rental_uris":{"android":"levelo://app?vid=80160306-1880-44d2-9e2b-525eac02a70c","ios":"levelo://app?vid=80160306-1880-44d2-9e2b-525eac02a70c"},"vehicle_type_id":"4","last_reported":1718039190,"current_range_meters":14000,"station_id":"ce4bhc92rcd13ifvqetg","pricing_plan_id":"cebpf4jnsgd1na2vs0mg"},{"bike_id":"02454dab-a97d-442f-952a-11460012f732","system_id":"levelo_inurba_marseille","lat":43.289468,"lon":5.363719,"is_reserved":false,"is_disabled":false,"rental_uris":{"android":"levelo://app?vid=02454dab-a97d-442f-952a-11460012f732","ios":"levelo://app?vid=02454dab-a97d-442f-952a-11460012f732"},"vehicle_type_id":"4","last_reported":1718039190,"current_range_meters":5600,"station_id":"ce4bhc92rcd13ifvqetg","pricing_plan_id":"cebpf4jnsgd1na2vs0mg"},{"bike_id":"785e6350-2025-4702-bd53-654f5ea991fc","system_id":"levelo_inurba_marseille","lat":43.289741,"lon":5.378306,"is_reserved":false,"is_disabled":false,"rental_uris":{"android":"levelo://app?vid=785e6350-2025-4702-bd53-654f5ea991fc","ios":"levelo://app?vid=785e6350-2025-4702-bd53-654f5ea991fc"},"vehicle_type_id":"4","last_reported":1718039190,"current_range_meters":20400,"station_id":"ce4bh9p2rcd13ifvqed0","pricing_plan_id":"cebpf4jnsgd1na2vs0mg"},{"bike_id":"0eb2f179-3a42-48c1-b5ce-d302f0ebbf3b","system_id":"levelo_inurba_marseille","lat":43.290995,"lon":5.381361,"is_reserved":false,"is_disabled":false,"rental_uris":{"android":"levelo://app?vid=0eb2f179-3a42-48c1-b5ce-d302f0ebbf3b","ios":"levelo://app?vid=0eb2f179-3a42-48c1-b5ce-d302f0ebbf3b"},"vehicle_type_id":"4","last_reported":1718039190,"current_range_meters":2000,"station_id":"ce4bh512rcd13ifvqe2g","pricing_plan_id":"cebpf4jnsgd1na2vs0mg"},{"bike_id":"5fc322a5-2961-4c87-b4f5-5265a692dd83","system_id":"levelo_inurba_marseille","lat":43.292636,"lon":5.384397,"is_reserved":false,"is_disabled":false,"rental_uris":{"android":"levelo://app?vid=5fc322a5-2961-4c87-b4f5-5265a692dd83","ios":"levelo://app?vid=5fc322a5-2961-4c87-b4f5-5265a692dd83"},"vehicle_type_id":"4","last_reported":1718039190,"current_range_meters":2400,"station_id":"","pricing_plan_id":"cebpf4jnsgd1na2vs0mg"},{"bike_id":"a60ece1f-4103-4fc0-96ea-565c4163cfc8","system_id":"levelo_inurba_marseille","lat":43.29263,"lon":5.38441,"is_reserved":false,"is_disabled":false,"rental_uris":{"android":"levelo://app?vid=a60ece1f-4103-4fc0-96ea-565c4163cfc8","ios":"levelo://app?vid=a60ece1f-4103-4fc0-96ea-565c4163cfc8"},"vehicle_type_id":"4","last_reported":1718039190,"current_range_meters":31200,"station_id":"ce4bh692rcd13ifvqea0","pricing_plan_id":"cebpf4jnsgd1na2vs0mg"},{"bike_id":"d49c9c06-14a3-40d4-9c19-2e385f6c1462","system_id":"levelo_inurba_marseille","lat":43.292642,"lon":5.384254,"is_reserved":false,"is_disabled":false,"rental_uris":{"android":"levelo://app?vid=d49c9c06-14a3-40d4-9c19-2e385f6c1462","ios":"levelo://app?vid=d49c9c06-14a3-40d4-9c19-2e385f6c1462"},"vehicle_type_id":"4","last_reported":1718039190,"current_range_meters":18800,"station_id":"ce4bh692rcd13ifvqea0","pricing_plan_id":"cebpf4jnsgd1na2vs0mg"},{"bike_id":"1e360b58-8d8b-4c6b-88d3-f4e993f53762","system_id":"levelo_inurba_marseille","lat":43.29262,"lon":5.38449,"is_reserved":false,"is_disabled":false,"rental_uris":{"android":"levelo://app?vid=1e360b58-8d8b-4c6b-88d3-f4e993f53762","ios":"levelo://app?vid=1e360b58-8d8b-4c6b-88d3-f4e993f53762"},"vehicle_type_id":"4","last_reported":1718039190,"current_range_meters":31200,"station_id":"ce4bh692rcd13ifvqea0","pricing_plan_id":"cebpf4jnsgd1na2vs0mg"},{"bike_id":"a5319343-9c62-4ab1-a83b-f9e687624be6","system_id":"levelo_inurba_marseille","lat":43.292561,"lon":5.384422,"is_reserved":false,"is_disabled":false,"rental_uris":{"android":"levelo://app?vid=a5319343-9c62-4ab1-a83b-f9e687624be6","ios":"levelo://app?vid=a5319343-9c62-4ab1-a83b-f9e687624be6"},"vehicle_type_id":"4","last_reported":1718039190,"current_range_meters":31200,"station_id":"ce4bh692rcd13ifvqea0","pricing_plan_id":"cebpf4jnsgd1na2vs0mg"},{"bike_id":"8e543841-06dd-41c6-b7a5-154b31bfe3c5","system_id":"levelo_inurba_marseille","lat":43.290104,"lon":5.356111,"is_reserved":false,"is_disabled":false,"rental_uris":{"android":"levelo://app?vid=8e543841-06dd-41c6-b7a5-154b31bfe3c5","ios":"levelo://app?vid=8e543841-06dd-41c6-b7a5-154b31bfe3c5"},"vehicle_type_id":"4","last_reported":1718039190,"current_range_meters":22400,"station_id":"ce4bhb92rcd13ifvqen0","pricing_plan_id":"cebpf4jnsgd1na2vs0mg"},{"bike_id":"82c05395-d483-418a-95fe-4c20f3dfa77f","system_id":"levelo_inurba_marseille","lat":43.290104,"lon":5.356111,"is_reserved":false,"is_disabled":false,"rental_uris":{"android":"levelo://app?vid=82c05395-d483-418a-95fe-4c20f3dfa77f","ios":"levelo://app?vid=82c05395-d483-418a-95fe-4c20f3dfa77f"},"vehicle_type_id":"4","last_reported":1718039190,"current_range_meters":29600,"station_id":"ce4bhb92rcd13ifvqen0","pricing_plan_id":"cebpf4jnsgd1na2vs0mg"},{"bike_id":"15e3b996-a963-40b7-999d-6ba2d7ab6cd8","system_id":"levelo_inurba_marseille","lat":43.29008,"lon":5.35614,"is_reserved":false,"is_disabled":false,"rental_uris":{"android":"levelo://app?vid=15e3b996-a963-40b7-999d-6ba2d7ab6cd8","ios":"levelo://app?vid=15e3b996-a963-40b7-999d-6ba2d7ab6cd8"},"vehicle_type_id":"4","last_reported":1718039190,"current_range_meters":24400,"station_id":"ce4bhb92rcd13ifvqen0","pricing_plan_id":"cebpf4jnsgd1na2vs0mg"},{"bike_id":"17e226a6-59e0-480a-9d1e-cc135699bbcb","system_id":"levelo_inurba_marseille","lat":43.290069,"lon":5.35617,"is_reserved":false,"is_disabled":false,"rental_uris":{"android":"levelo://app?vid=17e226a6-59e0-480a-9d1e-cc135699bbcb","ios":"levelo://app?vid=17e226a6-59e0-480a-9d1e-cc135699bbcb"},"vehicle_type_id":"4","last_reported":1718039190,"current_range_meters":0,"station_id":"ce4bhb92rcd13ifvqen0","pricing_plan_id":"cebpf4jnsgd1na2vs0mg"},{"bike_id":"1beab0ad-122e-4554-9bd2-604d0b5f62f0","system_id":"levelo_inurba_marseille","lat":43.290995,"lon":5.381361,"is_reserved":false,"is_disabled":false,"rental_uris":{"android":"levelo://app?vid=1beab0ad-122e-4554-9bd2-604d0b5f62f0","ios":"levelo://app?vid=1beab0ad-122e-4554-9bd2-604d0b5f62f0"},"vehicle_type_id":"4","last_reported":1718039190,"current_range_meters":11600,"station_id":"ce4bh512rcd13ifvqe2g","pricing_plan_id":"cebpf4jnsgd1na2vs0mg"},{"bike_id":"c2bec52e-0902-4d8d-a26e-08b8787d196f","system_id":"levelo_inurba_marseille","lat":43.29005,"lon":5.35607,"is_reserved":false,"is_disabled":false,"rental_uris":{"android":"levelo://app?vid=c2bec52e-0902-4d8d-a26e-08b8787d196f","ios":"levelo://app?vid=c2bec52e-0902-4d8d-a26e-08b8787d196f"},"vehicle_type_id":"4","last_reported":1718039190,"current_range_meters":0,"station_id":"ce4bhb92rcd13ifvqen0","pricing_plan_id":"cebpf4jnsgd1na2vs0mg"},{"bike_id":"340574d4-f497-4589-942d-e41a4ba928c3","system_id":"levelo_inurba_marseille","lat":43.29105,"lon":5.38119,"is_reserved":false,"is_disabled":false,"rental_uris":{"android":"levelo://app?vid=340574d4-f497-4589-942d-e41a4ba928c3","ios":"levelo://app?vid=340574d4-f497-4589-942d-e41a4ba928c3"},"vehicle_type_id":"4","last_reported":1718039190,"current_range_meters":800,"station_id":"ce4bh512rcd13ifvqe2g","pricing_plan_id":"cebpf4jnsgd1na2vs0mg"},{"bike_id":"34166e75-851f-44d3-bfd6-07c025a05710","system_id":"levelo_inurba_marseille","lat":43.291074,"lon":5.381265,"is_reserved":false,"is_disabled":false,"rental_uris":{"android":"levelo://app?vid=34166e75-851f-44d3-bfd6-07c025a05710","ios":"levelo://app?vid=34166e75-851f-44d3-bfd6-07c025a05710"},"vehicle_type_id":"4","last_reported":1718039190,"current_range_meters":4000,"station_id":"ce4bh512rcd13ifvqe2g","pricing_plan_id":"cebpf4jnsgd1na2vs0mg"},{"bike_id":"4a1c6ddf-0e93-46fb-9ded-4b71136610be","system_id":"levelo_inurba_marseille","lat":43.291027,"lon":5.38126,"is_reserved":false,"is_disabled":false,"rental_uris":{"android":"levelo://app?vid=4a1c6ddf-0e93-46fb-9ded-4b71136610be","ios":"levelo://app?vid=4a1c6ddf-0e93-46fb-9ded-4b71136610be"},"vehicle_type_id":"4","last_reported":1718039190,"current_range_meters":0,"station_id":"ce4bh512rcd13ifvqe2g","pricing_plan_id":"cebpf4jnsgd1na2vs0mg"},{"bike_id":"f6eb07ac-f69a-4904-8ee6-df4792d256d0","system_id":"levelo_inurba_marseille","lat":43.29103,"lon":5.38128,"is_reserved":false,"is_disabled":false,"rental_uris":{"android":"levelo://app?vid=f6eb07ac-f69a-4904-8ee6-df4792d256d0","ios":"levelo://app?vid=f6eb07ac-f69a-4904-8ee6-df4792d256d0"},"vehicle_type_id":"4","last_reported":1718039190,"current_range_meters":0,"station_id":"ce4bh512rcd13ifvqe2g","pricing_plan_id":"cebpf4jnsgd1na2vs0mg"},{"bike_id":"73013870-3be3-4332-ae60-98c37f7757aa","system_id":"levelo_inurba_marseille","lat":43.290857,"lon":5.380799,"is_reserved":false,"is_disabled":false,"rental_uris":{"android":"levelo://app?vid=73013870-3be3-4332-ae60-98c37f7757aa","ios":"levelo://app?vid=73013870-3be3-4332-ae60-98c37f7757aa"},"vehicle_type_id":"4","last_reported":1718039190,"current_range_meters":30000,"station_id":"ce4bh512rcd13ifvqe2g","pricing_plan_id":"cebpf4jnsgd1na2vs0mg"},{"bike_id":"9fbd4e25-53ac-454f-a380-9ccb0e13ee32","system_id":"levelo_inurba_marseille","lat":43.291013,"lon":5.381287,"is_reserved":false,"is_disabled":false,"rental_uris":{"android":"levelo://app?vid=9fbd4e25-53ac-454f-a380-9ccb0e13ee32","ios":"levelo://app?vid=9fbd4e25-53ac-454f-a380-9ccb0e13ee32"},"vehicle_type_id":"4","last_reported":1718039190,"current_range_meters":0,"station_id":"ce4bh512rcd13ifvqe2g","pricing_plan_id":"cebpf4jnsgd1na2vs0mg"},{"bike_id":"49400a0c-124b-4c6a-b0d3-9f831a428dc2","system_id":"levelo_inurba_marseille","lat":43.290973,"lon":5.381203,"is_reserved":false,"is_disabled":false,"rental_uris":{"android":"levelo://app?vid=49400a0c-124b-4c6a-b0d3-9f831a428dc2","ios":"levelo://app?vid=49400a0c-124b-4c6a-b0d3-9f831a428dc2"},"vehicle_type_id":"4","last_reported":1718039190,"current_range_meters":15600,"station_id":"ce4bh512rcd13ifvqe2g","pricing_plan_id":"cebpf4jnsgd1na2vs0mg"},{"bike_id":"9a9c084c-eb90-4051-b488-f5c2be83a5d0","system_id":"levelo_inurba_marseille","lat":43.29099,"lon":5.38126,"is_reserved":false,"is_disabled":false,"rental_uris":{"android":"levelo://app?vid=9a9c084c-eb90-4051-b488-f5c2be83a5d0","ios":"levelo://app?vid=9a9c084c-eb90-4051-b488-f5c2be83a5d0"},"vehicle_type_id":"4","last_reported":1718039190,"current_range_meters":0,"station_id":"ce4bh512rcd13ifvqe2g","pricing_plan_id":"cebpf4jnsgd1na2vs0mg"},{"bike_id":"47fcdf31-83b4-4da0-91ca-5fec2e69702f","system_id":"levelo_inurba_marseille","lat":43.290995,"lon":5.381361,"is_reserved":false,"is_disabled":false,"rental_uris":{"android":"levelo://app?vid=47fcdf31-83b4-4da0-91ca-5fec2e69702f","ios":"levelo://app?vid=47fcdf31-83b4-4da0-91ca-5fec2e69702f"},"vehicle_type_id":"4","last_reported":1718039190,"current_range_meters":1200,"station_id":"ce4bh512rcd13ifvqe2g","pricing_plan_id":"cebpf4jnsgd1na2vs0mg"},{"bike_id":"f7bd7b1f-9902-47eb-8638-cd13e784db89","system_id":"levelo_inurba_marseille","lat":43.290995,"lon":5.381361,"is_reserved":false,"is_disabled":false,"rental_uris":{"android":"levelo://app?vid=f7bd7b1f-9902-47eb-8638-cd13e784db89","ios":"levelo://app?vid=f7bd7b1f-9902-47eb-8638-cd13e784db89"},"vehicle_type_id":"4","last_reported":1718039190,"current_range_meters":27200,"station_id":"ce4bh512rcd13ifvqe2g","pricing_plan_id":"cebpf4jnsgd1na2vs0mg"},{"bike_id":"c72870a4-ab3b-4af1-8ad2-e6abe1d8699f","system_id":"levelo_inurba_marseille","lat":43.29096,"lon":5.38124,"is_reserved":false,"is_disabled":false,"rental_uris":{"android":"levelo://app?vid=c72870a4-ab3b-4af1-8ad2-e6abe1d8699f","ios":"levelo://app?vid=c72870a4-ab3b-4af1-8ad2-e6abe1d8699f"},"vehicle_type_id":"4","last_reported":1718039190,"current_range_meters":12000,"station_id":"ce4bh512rcd13ifvqe2g","pricing_plan_id":"cebpf4jnsgd1na2vs0mg"},{"bike_id":"971588fd-b7e4-4d09-aab2-1a8e86834a7c","system_id":"levelo_inurba_marseille","lat":43.290995,"lon":5.381361,"is_reserved":false,"is_disabled":false,"rental_uris":{"android":"levelo://app?vid=971588fd-b7e4-4d09-aab2-1a8e86834a7c","ios":"levelo://app?vid=971588fd-b7e4-4d09-aab2-1a8e86834a7c"},"vehicle_type_id":"4","last_reported":1718039190,"current_range_meters":30400,"station_id":"ce4bh512rcd13ifvqe2g","pricing_plan_id":"cebpf4jnsgd1na2vs0mg"},{"bike_id":"2a37451e-b5d6-4035-bd06-31fdbe7d84e4","system_id":"levelo_inurba_marseille","lat":43.29099,"lon":5.38137,"is_reserved":false,"is_disabled":false,"rental_uris":{"android":"levelo://app?vid=2a37451e-b5d6-4035-bd06-31fdbe7d84e4","ios":"levelo://app?vid=2a37451e-b5d6-4035-bd06-31fdbe7d84e4"},"vehicle_type_id":"4","last_reported":1718039190,"current_range_meters":27600,"station_id":"ce4bh512rcd13ifvqe2g","pricing_plan_id":"cebpf4jnsgd1na2vs0mg"},{"bike_id":"ff4da618-51ac-4602-afca-d9f271949f2d","system_id":"levelo_inurba_marseille","lat":43.290974,"lon":5.381409,"is_reserved":false,"is_disabled":false,"rental_uris":{"android":"levelo://app?vid=ff4da618-51ac-4602-afca-d9f271949f2d","ios":"levelo://app?vid=ff4da618-51ac-4602-afca-d9f271949f2d"},"vehicle_type_id":"4","last_reported":1718039190,"current_range_meters":6400,"station_id":"ce4bh512rcd13ifvqe2g","pricing_plan_id":"cebpf4jnsgd1na2vs0mg"},{"bike_id":"327efb7a-94c4-4f75-b3d1-9030f0df1e8c","system_id":"levelo_inurba_marseille","lat":43.29094,"lon":5.38134,"is_reserved":false,"is_disabled":false,"rental_uris":{"android":"levelo://app?vid=327efb7a-94c4-4f75-b3d1-9030f0df1e8c","ios":"levelo://app?vid=327efb7a-94c4-4f75-b3d1-9030f0df1e8c"},"vehicle_type_id":"4","last_reported":1718039190,"current_range_meters":12800,"station_id":"ce4bh512rcd13ifvqe2g","pricing_plan_id":"cebpf4jnsgd1na2vs0mg"},{"bike_id":"08db5594-3acc-47e6-841a-77a1dbfca676","system_id":"levelo_inurba_marseille","lat":43.290934,"lon":5.381346,"is_reserved":false,"is_disabled":false,"rental_uris":{"android":"levelo://app?vid=08db5594-3acc-47e6-841a-77a1dbfca676","ios":"levelo://app?vid=08db5594-3acc-47e6-841a-77a1dbfca676"},"vehicle_type_id":"4","last_reported":1718039190,"current_range_meters":14400,"station_id":"ce4bh512rcd13ifvqe2g","pricing_plan_id":"cebpf4jnsgd1na2vs0mg"},{"bike_id":"d828b8c9-9828-4fb4-9d0c-48f21605649a","system_id":"levelo_inurba_marseille","lat":43.290995,"lon":5.381361,"is_reserved":false,"is_disabled":false,"rental_uris":{"android":"levelo://app?vid=d828b8c9-9828-4fb4-9d0c-48f21605649a","ios":"levelo://app?vid=d828b8c9-9828-4fb4-9d0c-48f21605649a"},"vehicle_type_id":"4","last_reported":1718039190,"current_range_meters":0,"station_id":"ce4bh512rcd13ifvqe2g","pricing_plan_id":"cebpf4jnsgd1na2vs0mg"},{"bike_id":"9a458a84-9893-47c2-920e-a0682c528a3b","system_id":"levelo_inurba_marseille","lat":43.2909,"lon":5.38136,"is_reserved":false,"is_disabled":false,"rental_uris":{"android":"levelo://app?vid=9a458a84-9893-47c2-920e-a0682c528a3b","ios":"levelo://app?vid=9a458a84-9893-47c2-920e-a0682c528a3b"},"vehicle_type_id":"4","last_reported":1718039190,"current_range_meters":20400,"station_id":"ce4bh512rcd13ifvqe2g","pricing_plan_id":"cebpf4jnsgd1na2vs0mg"},{"bike_id":"0b4d9051-35b9-4621-ba48-0b865bd49f35","system_id":"levelo_inurba_marseille","lat":43.290948,"lon":5.381527,"is_reserved":false,"is_disabled":false,"rental_uris":{"android":"levelo://app?vid=0b4d9051-35b9-4621-ba48-0b865bd49f35","ios":"levelo://app?vid=0b4d9051-35b9-4621-ba48-0b865bd49f35"},"vehicle_type_id":"4","last_reported":1718039190,"current_range_meters":0,"station_id":"ce4bh512rcd13ifvqe2g","pricing_plan_id":"cebpf4jnsgd1na2vs0mg"},{"bike_id":"70d2455d-eae2-480d-a44a-9ca811715618","system_id":"levelo_inurba_marseille","lat":43.29092,"lon":5.381484,"is_reserved":false,"is_disabled":false,"rental_uris":{"android":"levelo://app?vid=70d2455d-eae2-480d-a44a-9ca811715618","ios":"levelo://app?vid=70d2455d-eae2-480d-a44a-9ca811715618"},"vehicle_type_id":"4","last_reported":1718039190,"current_range_meters":2000,"station_id":"ce4bh512rcd13ifvqe2g","pricing_plan_id":"cebpf4jnsgd1na2vs0mg"},{"bike_id":"d9b7ab91-26e9-4818-b16c-b96df641b229","system_id":"levelo_inurba_marseille","lat":43.29813,"lon":5.39359,"is_reserved":false,"is_disabled":false,"rental_uris":{"android":"levelo://app?vid=d9b7ab91-26e9-4818-b16c-b96df641b229","ios":"levelo://app?vid=d9b7ab91-26e9-4818-b16c-b96df641b229"},"vehicle_type_id":"4","last_reported":1718039190,"current_range_meters":400,"station_id":"chh1huq6cuj3fo74tm60","pricing_plan_id":"cebpf4jnsgd1na2vs0mg"},{"bike_id":"0ca72716-ed60-4358-bed0-8ae33f35e6a2","system_id":"levelo_inurba_marseille","lat":43.289743,"lon":5.378304,"is_reserved":false,"is_disabled":false,"rental_uris":{"android":"levelo://app?vid=0ca72716-ed60-4358-bed0-8ae33f35e6a2","ios":"levelo://app?vid=0ca72716-ed60-4358-bed0-8ae33f35e6a2"},"vehicle_type_id":"4","last_reported":1718039190,"current_range_meters":3200,"station_id":"ce4bh9p2rcd13ifvqed0","pricing_plan_id":"cebpf4jnsgd1na2vs0mg"},{"bike_id":"8d530cb8-4f91-4e56-b56f-17859a0710eb","system_id":"levelo_inurba_marseille","lat":43.289743,"lon":5.378304,"is_reserved":false,"is_disabled":false,"rental_uris":{"android":"levelo://app?vid=8d530cb8-4f91-4e56-b56f-17859a0710eb","ios":"levelo://app?vid=8d530cb8-4f91-4e56-b56f-17859a0710eb"},"vehicle_type_id":"4","last_reported":1718039190,"current_range_meters":2800,"station_id":"ce4bh9p2rcd13ifvqed0","pricing_plan_id":"cebpf4jnsgd1na2vs0mg"},{"bike_id":"9532ba13-ecf4-4549-996c-063bdba4e3e7","system_id":"levelo_inurba_marseille","lat":43.295169,"lon":5.390426,"is_reserved":false,"is_disabled":false,"rental_uris":{"android":"levelo://app?vid=9532ba13-ecf4-4549-996c-063bdba4e3e7","ios":"levelo://app?vid=9532ba13-ecf4-4549-996c-063bdba4e3e7"},"vehicle_type_id":"4","last_reported":1718039190,"current_range_meters":8000,"station_id":"ce4bh3p2rcd13ifvqdp0","pricing_plan_id":"cebpf4jnsgd1na2vs0mg"},{"bike_id":"df1d564a-f291-41a6-82bc-354887e2d113","system_id":"levelo_inurba_marseille","lat":43.289741,"lon":5.378306,"is_reserved":false,"is_disabled":false,"rental_uris":{"android":"levelo://app?vid=df1d564a-f291-41a6-82bc-354887e2d113","ios":"levelo://app?vid=df1d564a-f291-41a6-82bc-354887e2d113"},"vehicle_type_id":"4","last_reported":1718039190,"current_range_meters":11600,"station_id":"ce4bh9p2rcd13ifvqed0","pricing_plan_id":"cebpf4jnsgd1na2vs0mg"},{"bike_id":"95ca8ce0-33d0-49ee-8cd4-8602f175c70e","system_id":"levelo_inurba_marseille","lat":43.295169,"lon":5.390426,"is_reserved":false,"is_disabled":false,"rental_uris":{"android":"levelo://app?vid=95ca8ce0-33d0-49ee-8cd4-8602f175c70e","ios":"levelo://app?vid=95ca8ce0-33d0-49ee-8cd4-8602f175c70e"},"vehicle_type_id":"4","last_reported":1718039190,"current_range_meters":26800,"station_id":"ce4bh3p2rcd13ifvqdp0","pricing_plan_id":"cebpf4jnsgd1na2vs0mg"},{"bike_id":"700e377a-323e-4267-a9b4-4fb9bc59d594","system_id":"levelo_inurba_marseille","lat":43.289741,"lon":5.378306,"is_reserved":false,"is_disabled":false,"rental_uris":{"android":"levelo://app?vid=700e377a-323e-4267-a9b4-4fb9bc59d594","ios":"levelo://app?vid=700e377a-323e-4267-a9b4-4fb9bc59d594"},"vehicle_type_id":"4","last_reported":1718039190,"current_range_meters":0,"station_id":"ce4bh9p2rcd13ifvqed0","pricing_plan_id":"cebpf4jnsgd1na2vs0mg"},{"bike_id":"17e6fa71-d58a-4d71-acdb-3325b9c4e132","system_id":"levelo_inurba_marseille","lat":43.289741,"lon":5.378306,"is_reserved":false,"is_disabled":false,"rental_uris":{"android":"levelo://app?vid=17e6fa71-d58a-4d71-acdb-3325b9c4e132","ios":"levelo://app?vid=17e6fa71-d58a-4d71-acdb-3325b9c4e132"},"vehicle_type_id":"4","last_reported":1718039190,"current_range_meters":4000,"station_id":"ce4bh9p2rcd13ifvqed0","pricing_plan_id":"cebpf4jnsgd1na2vs0mg"},{"bike_id":"2130cbad-fcc4-41bf-9dc3-16dfd78c0b24","system_id":"levelo_inurba_marseille","lat":43.295169,"lon":5.390426,"is_reserved":false,"is_disabled":false,"rental_uris":{"android":"levelo://app?vid=2130cbad-fcc4-41bf-9dc3-16dfd78c0b24","ios":"levelo://app?vid=2130cbad-fcc4-41bf-9dc3-16dfd78c0b24"},"vehicle_type_id":"4","last_reported":1718039190,"current_range_meters":6400,"station_id":"ce4bh3p2rcd13ifvqdp0","pricing_plan_id":"cebpf4jnsgd1na2vs0mg"},{"bike_id":"81df6bcd-b48d-4231-8888-e07e0da087ed","system_id":"levelo_inurba_marseille","lat":43.295169,"lon":5.390426,"is_reserved":false,"is_disabled":false,"rental_uris":{"android":"levelo://app?vid=81df6bcd-b48d-4231-8888-e07e0da087ed","ios":"levelo://app?vid=81df6bcd-b48d-4231-8888-e07e0da087ed"},"vehicle_type_id":"4","last_reported":1718039190,"current_range_meters":14400,"station_id":"ce4bh3p2rcd13ifvqdp0","pricing_plan_id":"cebpf4jnsgd1na2vs0mg"},{"bike_id":"324dba1f-ad5e-47d5-9aa7-0959bffbeeb0","system_id":"levelo_inurba_marseille","lat":43.289741,"lon":5.378306,"is_reserved":false,"is_disabled":false,"rental_uris":{"android":"levelo://app?vid=324dba1f-ad5e-47d5-9aa7-0959bffbeeb0","ios":"levelo://app?vid=324dba1f-ad5e-47d5-9aa7-0959bffbeeb0"},"vehicle_type_id":"4","last_reported":1718039190,"current_range_meters":4400,"station_id":"ce4bh9p2rcd13ifvqed0","pricing_plan_id":"cebpf4jnsgd1na2vs0mg"},{"bike_id":"d0938a4a-7d78-44e3-95b0-cd46dd76942c","system_id":"levelo_inurba_marseille","lat":43.289741,"lon":5.378306,"is_reserved":false,"is_disabled":false,"rental_uris":{"android":"levelo://app?vid=d0938a4a-7d78-44e3-95b0-cd46dd76942c","ios":"levelo://app?vid=d0938a4a-7d78-44e3-95b0-cd46dd76942c"},"vehicle_type_id":"4","last_reported":1718039190,"current_range_meters":27600,"station_id":"ce4bh9p2rcd13ifvqed0","pricing_plan_id":"cebpf4jnsgd1na2vs0mg"},{"bike_id":"f3b901fb-6836-4b0b-b2a4-df3a6c2fcb86","system_id":"levelo_inurba_marseille","lat":43.289741,"lon":5.378306,"is_reserved":false,"is_disabled":false,"rental_uris":{"android":"levelo://app?vid=f3b901fb-6836-4b0b-b2a4-df3a6c2fcb86","ios":"levelo://app?vid=f3b901fb-6836-4b0b-b2a4-df3a6c2fcb86"},"vehicle_type_id":"4","last_reported":1718039190,"current_range_meters":0,"station_id":"ce4bh9p2rcd13ifvqed0","pricing_plan_id":"cebpf4jnsgd1na2vs0mg"},{"bike_id":"54f9b1f8-b8fe-41c3-ad15-b9885b6fdb31","system_id":"levelo_inurba_marseille","lat":43.289651,"lon":5.378504,"is_reserved":false,"is_disabled":false,"rental_uris":{"android":"levelo://app?vid=54f9b1f8-b8fe-41c3-ad15-b9885b6fdb31","ios":"levelo://app?vid=54f9b1f8-b8fe-41c3-ad15-b9885b6fdb31"},"vehicle_type_id":"4","last_reported":1718039190,"current_range_meters":4800,"station_id":"ce4bh9p2rcd13ifvqed0","pricing_plan_id":"cebpf4jnsgd1na2vs0mg"},{"bike_id":"f264a6f7-f06a-44d4-a006-e55eb98f462b","system_id":"levelo_inurba_marseille","lat":43.29029,"lon":5.38126,"is_reserved":false,"is_disabled":false,"rental_uris":{"android":"levelo://app?vid=f264a6f7-f06a-44d4-a006-e55eb98f462b","ios":"levelo://app?vid=f264a6f7-f06a-44d4-a006-e55eb98f462b"},"vehicle_type_id":"4","last_reported":1718039190,"current_range_meters":15600,"station_id":"ce4bh4p2rcd13ifvqe1g","pricing_plan_id":"cebpf4jnsgd1na2vs0mg"},{"bike_id":"0ff7541a-8f20-4418-803a-9f04c3566674","system_id":"levelo_inurba_marseille","lat":43.290276,"lon":5.381258,"is_reserved":false,"is_disabled":false,"rental_uris":{"android":"levelo://app?vid=0ff7541a-8f20-4418-803a-9f04c3566674","ios":"levelo://app?vid=0ff7541a-8f20-4418-803a-9f04c3566674"},"vehicle_type_id":"4","last_reported":1718039190,"current_range_meters":0,"station_id":"ce4bh4p2rcd13ifvqe1g","pricing_plan_id":"cebpf4jnsgd1na2vs0mg"},{"bike_id":"168c6a86-65f1-439a-a862-88a26ed7469a","system_id":"levelo_inurba_marseille","lat":43.290995,"lon":5.381361,"is_reserved":false,"is_disabled":false,"rental_uris":{"android":"levelo://app?vid=168c6a86-65f1-439a-a862-88a26ed7469a","ios":"levelo://app?vid=168c6a86-65f1-439a-a862-88a26ed7469a"},"vehicle_type_id":"4","last_reported":1718039190,"current_range_meters":8400,"station_id":"ce4bh512rcd13ifvqe2g","pricing_plan_id":"cebpf4jnsgd1na2vs0mg"},{"bike_id":"be3e51da-3c52-45fa-abf0-c84b04c05737","system_id":"levelo_inurba_marseille","lat":43.290094,"lon":5.381264,"is_reserved":false,"is_disabled":false,"rental_uris":{"android":"levelo://app?vid=be3e51da-3c52-45fa-abf0-c84b04c05737","ios":"levelo://app?vid=be3e51da-3c52-45fa-abf0-c84b04c05737"},"vehicle_type_id":"4","last_reported":1718039190,"current_range_meters":6800,"station_id":"ce4bh4p2rcd13ifvqe1g","pricing_plan_id":"cebpf4jnsgd1na2vs0mg"},{"bike_id":"310d173c-7ef5-4b48-a0ca-31636b9a8d45","system_id":"levelo_inurba_marseille","lat":43.291575,"lon":5.384774,"is_reserved":false,"is_disabled":false,"rental_uris":{"android":"levelo://app?vid=310d173c-7ef5-4b48-a0ca-31636b9a8d45","ios":"levelo://app?vid=310d173c-7ef5-4b48-a0ca-31636b9a8d45"},"vehicle_type_id":"4","last_reported":1718039190,"current_range_meters":0,"station_id":"ce4bh2p2rcd13ifvqdi0","pricing_plan_id":"cebpf4jnsgd1na2vs0mg"},{"bike_id":"445b938e-21a3-4272-80df-cbbf2267284a","system_id":"levelo_inurba_marseille","lat":43.2902,"lon":5.381381,"is_reserved":false,"is_disabled":false,"rental_uris":{"android":"levelo://app?vid=445b938e-21a3-4272-80df-cbbf2267284a","ios":"levelo://app?vid=445b938e-21a3-4272-80df-cbbf2267284a"},"vehicle_type_id":"4","last_reported":1718039190,"current_range_meters":0,"station_id":"ce4bh4p2rcd13ifvqe1g","pricing_plan_id":"cebpf4jnsgd1na2vs0mg"},{"bike_id":"35eb924f-06f5-42d2-90df-bfcc1fdf8b2d","system_id":"levelo_inurba_marseille","lat":43.290094,"lon":5.381264,"is_reserved":false,"is_disabled":false,"rental_uris":{"android":"levelo://app?vid=35eb924f-06f5-42d2-90df-bfcc1fdf8b2d","ios":"levelo://app?vid=35eb924f-06f5-42d2-90df-bfcc1fdf8b2d"},"vehicle_type_id":"4","last_reported":1718039190,"current_range_meters":19600,"station_id":"ce4bh4p2rcd13ifvqe1g","pricing_plan_id":"cebpf4jnsgd1na2vs0mg"},{"bike_id":"1baf1095-8666-4722-92c5-af2243f9fd01","system_id":"levelo_inurba_marseille","lat":43.290157,"lon":5.381338,"is_reserved":false,"is_disabled":false,"rental_uris":{"android":"levelo://app?vid=1baf1095-8666-4722-92c5-af2243f9fd01","ios":"levelo://app?vid=1baf1095-8666-4722-92c5-af2243f9fd01"},"vehicle_type_id":"4","last_reported":1718039190,"current_range_meters":0,"station_id":"ce4bh4p2rcd13ifvqe1g","pricing_plan_id":"cebpf4jnsgd1na2vs0mg"},{"bike_id":"5a233bc0-66c6-4431-90ca-b43e0189461f","system_id":"levelo_inurba_marseille","lat":43.28856,"lon":5.358371,"is_reserved":false,"is_disabled":false,"rental_uris":{"android":"levelo://app?vid=5a233bc0-66c6-4431-90ca-b43e0189461f","ios":"levelo://app?vid=5a233bc0-66c6-4431-90ca-b43e0189461f"},"vehicle_type_id":"4","last_reported":1718039190,"current_range_meters":0,"station_id":"ce4bhb12rcd13ifvqem0","pricing_plan_id":"cebpf4jnsgd1na2vs0mg"},{"bike_id":"91165cc6-bcd5-4cf0-a39e-6998003733b6","system_id":"levelo_inurba_marseille","lat":43.290173,"lon":5.381524,"is_reserved":false,"is_disabled":false,"rental_uris":{"android":"levelo://app?vid=91165cc6-bcd5-4cf0-a39e-6998003733b6","ios":"levelo://app?vid=91165cc6-bcd5-4cf0-a39e-6998003733b6"},"vehicle_type_id":"4","last_reported":1718039190,"current_range_meters":0,"station_id":"ce4bh4p2rcd13ifvqe1g","pricing_plan_id":"cebpf4jnsgd1na2vs0mg"},{"bike_id":"f62175fd-a2b8-4091-af9d-ffab011a91b4","system_id":"levelo_inurba_marseille","lat":43.29017,"lon":5.38152,"is_reserved":false,"is_disabled":false,"rental_uris":{"android":"levelo://app?vid=f62175fd-a2b8-4091-af9d-ffab011a91b4","ios":"levelo://app?vid=f62175fd-a2b8-4091-af9d-ffab011a91b4"},"vehicle_type_id":"4","last_reported":1718039190,"current_range_meters":800,"station_id":"ce4bh4p2rcd13ifvqe1g","pricing_plan_id":"cebpf4jnsgd1na2vs0mg"},{"bike_id":"9777ba87-2ff8-4b48-8603-c42276a7fdff","system_id":"levelo_inurba_marseille","lat":43.28856,"lon":5.358371,"is_reserved":false,"is_disabled":false,"rental_uris":{"android":"levelo://app?vid=9777ba87-2ff8-4b48-8603-c42276a7fdff","ios":"levelo://app?vid=9777ba87-2ff8-4b48-8603-c42276a7fdff"},"vehicle_type_id":"4","last_reported":1718039190,"current_range_meters":20000,"station_id":"ce4bhb12rcd13ifvqem0","pricing_plan_id":"cebpf4jnsgd1na2vs0mg"},{"bike_id":"4af82f4c-10a9-4857-a19a-24648bd35aed","system_id":"levelo_inurba_marseille","lat":43.28727,"lon":5.36078,"is_reserved":false,"is_disabled":false,"rental_uris":{"android":"levelo://app?vid=4af82f4c-10a9-4857-a19a-24648bd35aed","ios":"levelo://app?vid=4af82f4c-10a9-4857-a19a-24648bd35aed"},"vehicle_type_id":"4","last_reported":1718039190,"current_range_meters":2400,"station_id":"cki0cbj6b192h4jlfktg","pricing_plan_id":"cebpf4jnsgd1na2vs0mg"},{"bike_id":"b17e867e-c0f6-49c1-b91a-7b354ca6d67b","system_id":"levelo_inurba_marseille","lat":43.337444,"lon":5.374475,"is_reserved":false,"is_disabled":false,"rental_uris":{"android":"levelo://app?vid=b17e867e-c0f6-49c1-b91a-7b354ca6d67b","ios":"levelo://app?vid=b17e867e-c0f6-49c1-b91a-7b354ca6d67b"},"vehicle_type_id":"4","last_reported":1718039190,"current_range_meters":30800,"station_id":"","pricing_plan_id":"cebpf4jnsgd1na2vs0mg"},{"bike_id":"fd02c9e4-ff79-4b2f-be10-c2f82a7c85a7","system_id":"levelo_inurba_marseille","lat":43.309371,"lon":5.401449,"is_reserved":false,"is_disabled":false,"rental_uris":{"android":"levelo://app?vid=fd02c9e4-ff79-4b2f-be10-c2f82a7c85a7","ios":"levelo://app?vid=fd02c9e4-ff79-4b2f-be10-c2f82a7c85a7"},"vehicle_type_id":"4","last_reported":1718039190,"current_range_meters":0,"station_id":"ce4bgvp2rcd13ifvqct0","pricing_plan_id":"cebpf4jnsgd1na2vs0mg"},{"bike_id":"58e8b916-c44f-4c8a-9407-698e8f6d9d5c","system_id":"levelo_inurba_marseille","lat":43.337511,"lon":5.374546,"is_reserved":false,"is_disabled":false,"rental_uris":{"android":"levelo://app?vid=58e8b916-c44f-4c8a-9407-698e8f6d9d5c","ios":"levelo://app?vid=58e8b916-c44f-4c8a-9407-698e8f6d9d5c"},"vehicle_type_id":"4","last_reported":1718039190,"current_range_meters":8400,"station_id":"","pricing_plan_id":"cebpf4jnsgd1na2vs0mg"},{"bike_id":"308d7a95-4b4c-4360-906f-d3b40d40234b","system_id":"levelo_inurba_marseille","lat":43.30642,"lon":5.401031,"is_reserved":false,"is_disabled":false,"rental_uris":{"android":"levelo://app?vid=308d7a95-4b4c-4360-906f-d3b40d40234b","ios":"levelo://app?vid=308d7a95-4b4c-4360-906f-d3b40d40234b"},"vehicle_type_id":"4","last_reported":1718039190,"current_range_meters":0,"station_id":"ce4bh112rcd13ifvqda0","pricing_plan_id":"cebpf4jnsgd1na2vs0mg"},{"bike_id":"a957f42c-8075-4e34-a2b1-07fd3902b1f4","system_id":"levelo_inurba_marseille","lat":43.301117,"lon":5.398795,"is_reserved":false,"is_disabled":false,"rental_uris":{"android":"levelo://app?vid=a957f42c-8075-4e34-a2b1-07fd3902b1f4","ios":"levelo://app?vid=a957f42c-8075-4e34-a2b1-07fd3902b1f4"},"vehicle_type_id":"4","last_reported":1718039190,"current_range_meters":5600,"station_id":"ce4bh0h2rcd13ifvqd40","pricing_plan_id":"cebpf4jnsgd1na2vs0mg"},{"bike_id":"09ad65a1-7b98-4fc2-bf91-3710529ba86a","system_id":"levelo_inurba_marseille","lat":43.28727,"lon":5.36078,"is_reserved":false,"is_disabled":false,"rental_uris":{"android":"levelo://app?vid=09ad65a1-7b98-4fc2-bf91-3710529ba86a","ios":"levelo://app?vid=09ad65a1-7b98-4fc2-bf91-3710529ba86a"},"vehicle_type_id":"4","last_reported":1718039190,"current_range_meters":9200,"station_id":"cki0cbj6b192h4jlfktg","pricing_plan_id":"cebpf4jnsgd1na2vs0mg"},{"bike_id":"21398585-22d6-4432-a3b8-327fa475913e","system_id":"levelo_inurba_marseille","lat":43.289769,"lon":5.383736,"is_reserved":false,"is_disabled":false,"rental_uris":{"android":"levelo://app?vid=21398585-22d6-4432-a3b8-327fa475913e","ios":"levelo://app?vid=21398585-22d6-4432-a3b8-327fa475913e"},"vehicle_type_id":"4","last_reported":1718039190,"current_range_meters":13600,"station_id":"ce4bh612rcd13ifvqe6g","pricing_plan_id":"cebpf4jnsgd1na2vs0mg"},{"bike_id":"28f00d44-d773-47ff-8bfd-9fd76fbf16c2","system_id":"levelo_inurba_marseille","lat":43.286591,"lon":5.363346,"is_reserved":false,"is_disabled":false,"rental_uris":{"android":"levelo://app?vid=28f00d44-d773-47ff-8bfd-9fd76fbf16c2","ios":"levelo://app?vid=28f00d44-d773-47ff-8bfd-9fd76fbf16c2"},"vehicle_type_id":"4","last_reported":1718039190,"current_range_meters":800,"station_id":"ce4bhah2rcd13ifvqej0","pricing_plan_id":"cebpf4jnsgd1na2vs0mg"},{"bike_id":"c5d15dc8-6844-4814-8e5f-f8e024975eea","system_id":"levelo_inurba_marseille","lat":43.28702,"lon":5.37392,"is_reserved":false,"is_disabled":false,"rental_uris":{"android":"levelo://app?vid=c5d15dc8-6844-4814-8e5f-f8e024975eea","ios":"levelo://app?vid=c5d15dc8-6844-4814-8e5f-f8e024975eea"},"vehicle_type_id":"4","last_reported":1718039190,"current_range_meters":0,"station_id":"ce4bh3p2rcd13ifvqdq0","pricing_plan_id":"cebpf4jnsgd1na2vs0mg"},{"bike_id":"9395f05f-dc1b-468f-9532-2934716089de","system_id":"levelo_inurba_marseille","lat":43.298681,"lon":5.397225,"is_reserved":false,"is_disabled":false,"rental_uris":{"android":"levelo://app?vid=9395f05f-dc1b-468f-9532-2934716089de","ios":"levelo://app?vid=9395f05f-dc1b-468f-9532-2934716089de"},"vehicle_type_id":"4","last_reported":1718039190,"current_range_meters":1200,"station_id":"ce4bh0h2rcd13ifvqd50","pricing_plan_id":"cebpf4jnsgd1na2vs0mg"},{"bike_id":"3c7a3b06-95e6-4020-8dbb-9178874de052","system_id":"levelo_inurba_marseille","lat":43.286961,"lon":5.373785,"is_reserved":false,"is_disabled":false,"rental_uris":{"android":"levelo://app?vid=3c7a3b06-95e6-4020-8dbb-9178874de052","ios":"levelo://app?vid=3c7a3b06-95e6-4020-8dbb-9178874de052"},"vehicle_type_id":"4","last_reported":1718039190,"current_range_meters":0,"station_id":"ce4bh3p2rcd13ifvqdq0","pricing_plan_id":"cebpf4jnsgd1na2vs0mg"},{"bike_id":"0759f203-c321-4e5c-8410-3d581068e2f4","system_id":"levelo_inurba_marseille","lat":43.289449,"lon":5.384033,"is_reserved":false,"is_disabled":false,"rental_uris":{"android":"levelo://app?vid=0759f203-c321-4e5c-8410-3d581068e2f4","ios":"levelo://app?vid=0759f203-c321-4e5c-8410-3d581068e2f4"},"vehicle_type_id":"4","last_reported":1718039190,"current_range_meters":400,"station_id":"ce4bh612rcd13ifvqe6g","pricing_plan_id":"cebpf4jnsgd1na2vs0mg"},{"bike_id":"ad26d8ea-38e8-4995-ba49-c5554e98e429","system_id":"levelo_inurba_marseille","lat":43.30424,"lon":5.40133,"is_reserved":false,"is_disabled":false,"rental_uris":{"android":"levelo://app?vid=ad26d8ea-38e8-4995-ba49-c5554e98e429","ios":"levelo://app?vid=ad26d8ea-38e8-4995-ba49-c5554e98e429"},"vehicle_type_id":"4","last_reported":1718039190,"current_range_meters":25200,"station_id":"","pricing_plan_id":"cebpf4jnsgd1na2vs0mg"},{"bike_id":"35fc9e48-e47a-41ec-ac99-260f3a394e93","system_id":"levelo_inurba_marseille","lat":43.289307,"lon":5.38406,"is_reserved":false,"is_disabled":false,"rental_uris":{"android":"levelo://app?vid=35fc9e48-e47a-41ec-ac99-260f3a394e93","ios":"levelo://app?vid=35fc9e48-e47a-41ec-ac99-260f3a394e93"},"vehicle_type_id":"4","last_reported":1718039190,"current_range_meters":24400,"station_id":"ce4bh612rcd13ifvqe6g","pricing_plan_id":"cebpf4jnsgd1na2vs0mg"},{"bike_id":"a628dd93-5c82-4e40-905d-302acdd295b9","system_id":"levelo_inurba_marseille","lat":43.290345,"lon":5.38646,"is_reserved":false,"is_disabled":false,"rental_uris":{"android":"levelo://app?vid=a628dd93-5c82-4e40-905d-302acdd295b9","ios":"levelo://app?vid=a628dd93-5c82-4e40-905d-302acdd295b9"},"vehicle_type_id":"4","last_reported":1718039190,"current_range_meters":0,"station_id":"ce4bh4p2rcd13ifvqe0g","pricing_plan_id":"cebpf4jnsgd1na2vs0mg"},{"bike_id":"8d194ee8-ddb4-45b9-8236-25dec8164319","system_id":"levelo_inurba_marseille","lat":43.290345,"lon":5.38646,"is_reserved":false,"is_disabled":false,"rental_uris":{"android":"levelo://app?vid=8d194ee8-ddb4-45b9-8236-25dec8164319","ios":"levelo://app?vid=8d194ee8-ddb4-45b9-8236-25dec8164319"},"vehicle_type_id":"4","last_reported":1718039190,"current_range_meters":800,"station_id":"ce4bh4p2rcd13ifvqe0g","pricing_plan_id":"cebpf4jnsgd1na2vs0mg"},{"bike_id":"1532764b-9e21-4814-943a-9d86e9c14ca4","system_id":"levelo_inurba_marseille","lat":43.290345,"lon":5.38646,"is_reserved":false,"is_disabled":false,"rental_uris":{"android":"levelo://app?vid=1532764b-9e21-4814-943a-9d86e9c14ca4","ios":"levelo://app?vid=1532764b-9e21-4814-943a-9d86e9c14ca4"},"vehicle_type_id":"4","last_reported":1718039190,"current_range_meters":20800,"station_id":"ce4bh4p2rcd13ifvqe0g","pricing_plan_id":"cebpf4jnsgd1na2vs0mg"},{"bike_id":"39148446-531e-4d57-ae12-565c00e5e8df","system_id":"levelo_inurba_marseille","lat":43.302759,"lon":5.400793,"is_reserved":false,"is_disabled":false,"rental_uris":{"android":"levelo://app?vid=39148446-531e-4d57-ae12-565c00e5e8df","ios":"levelo://app?vid=39148446-531e-4d57-ae12-565c00e5e8df"},"vehicle_type_id":"4","last_reported":1718039190,"current_range_meters":13200,"station_id":"ce4bgvh2rcd13ifvqcs0","pricing_plan_id":"cebpf4jnsgd1na2vs0mg"},{"bike_id":"dda01454-caae-4e10-bd64-ee5e3314fb51","system_id":"levelo_inurba_marseille","lat":43.290336,"lon":5.386425,"is_reserved":false,"is_disabled":false,"rental_uris":{"android":"levelo://app?vid=dda01454-caae-4e10-bd64-ee5e3314fb51","ios":"levelo://app?vid=dda01454-caae-4e10-bd64-ee5e3314fb51"},"vehicle_type_id":"4","last_reported":1718039190,"current_range_meters":800,"station_id":"ce4bh4p2rcd13ifvqe0g","pricing_plan_id":"cebpf4jnsgd1na2vs0mg"},{"bike_id":"cc631f6b-3397-477c-9c96-251a4dd6e7ce","system_id":"levelo_inurba_marseille","lat":43.290336,"lon":5.386425,"is_reserved":false,"is_disabled":false,"rental_uris":{"android":"levelo://app?vid=cc631f6b-3397-477c-9c96-251a4dd6e7ce","ios":"levelo://app?vid=cc631f6b-3397-477c-9c96-251a4dd6e7ce"},"vehicle_type_id":"4","last_reported":1718039190,"current_range_meters":5200,"station_id":"ce4bh4p2rcd13ifvqe0g","pricing_plan_id":"cebpf4jnsgd1na2vs0mg"},{"bike_id":"ce2c880d-fa54-47fb-b33c-ffdcdfb438eb","system_id":"levelo_inurba_marseille","lat":43.290345,"lon":5.38646,"is_reserved":false,"is_disabled":false,"rental_uris":{"android":"levelo://app?vid=ce2c880d-fa54-47fb-b33c-ffdcdfb438eb","ios":"levelo://app?vid=ce2c880d-fa54-47fb-b33c-ffdcdfb438eb"},"vehicle_type_id":"4","last_reported":1718039190,"current_range_meters":0,"station_id":"ce4bh4p2rcd13ifvqe0g","pricing_plan_id":"cebpf4jnsgd1na2vs0mg"},{"bike_id":"c94ba62b-1bf0-441f-a759-8b30a4e954bf","system_id":"levelo_inurba_marseille","lat":43.302759,"lon":5.400793,"is_reserved":false,"is_disabled":false,"rental_uris":{"android":"levelo://app?vid=c94ba62b-1bf0-441f-a759-8b30a4e954bf","ios":"levelo://app?vid=c94ba62b-1bf0-441f-a759-8b30a4e954bf"},"vehicle_type_id":"4","last_reported":1718039190,"current_range_meters":26400,"station_id":"ce4bgvh2rcd13ifvqcs0","pricing_plan_id":"cebpf4jnsgd1na2vs0mg"},{"bike_id":"69f13e65-9ca5-4440-a6cd-c19b4075cd6f","system_id":"levelo_inurba_marseille","lat":43.302476,"lon":5.400827,"is_reserved":false,"is_disabled":false,"rental_uris":{"android":"levelo://app?vid=69f13e65-9ca5-4440-a6cd-c19b4075cd6f","ios":"levelo://app?vid=69f13e65-9ca5-4440-a6cd-c19b4075cd6f"},"vehicle_type_id":"4","last_reported":1718039190,"current_range_meters":22800,"station_id":"ce4bgvh2rcd13ifvqcs0","pricing_plan_id":"cebpf4jnsgd1na2vs0mg"},{"bike_id":"ce48cd26-9469-484e-a673-be61288f799a","system_id":"levelo_inurba_marseille","lat":43.28609,"lon":5.37065,"is_reserved":false,"is_disabled":false,"rental_uris":{"android":"levelo://app?vid=ce48cd26-9469-484e-a673-be61288f799a","ios":"levelo://app?vid=ce48cd26-9469-484e-a673-be61288f799a"},"vehicle_type_id":"4","last_reported":1718039190,"current_range_meters":0,"station_id":"","pricing_plan_id":"cebpf4jnsgd1na2vs0mg"},{"bike_id":"14cdde12-dda6-40a6-8149-26b3ecb1a6db","system_id":"levelo_inurba_marseille","lat":43.287185,"lon":5.379373,"is_reserved":false,"is_disabled":false,"rental_uris":{"android":"levelo://app?vid=14cdde12-dda6-40a6-8149-26b3ecb1a6db","ios":"levelo://app?vid=14cdde12-dda6-40a6-8149-26b3ecb1a6db"},"vehicle_type_id":"4","last_reported":1718039190,"current_range_meters":31200,"station_id":"ce4bh9p2rcd13ifvqec0","pricing_plan_id":"cebpf4jnsgd1na2vs0mg"},{"bike_id":"ed23197a-72e3-46d5-b096-923aae95dbe4","system_id":"levelo_inurba_marseille","lat":43.286591,"lon":5.363346,"is_reserved":false,"is_disabled":false,"rental_uris":{"android":"levelo://app?vid=ed23197a-72e3-46d5-b096-923aae95dbe4","ios":"levelo://app?vid=ed23197a-72e3-46d5-b096-923aae95dbe4"},"vehicle_type_id":"4","last_reported":1718039190,"current_range_meters":10400,"station_id":"ce4bhah2rcd13ifvqej0","pricing_plan_id":"cebpf4jnsgd1na2vs0mg"},{"bike_id":"0afdd0df-ef99-4586-8c77-7b21949c9678","system_id":"levelo_inurba_marseille","lat":43.287879,"lon":5.384607,"is_reserved":false,"is_disabled":false,"rental_uris":{"android":"levelo://app?vid=0afdd0df-ef99-4586-8c77-7b21949c9678","ios":"levelo://app?vid=0afdd0df-ef99-4586-8c77-7b21949c9678"},"vehicle_type_id":"4","last_reported":1718039190,"current_range_meters":3600,"station_id":"ce4bh612rcd13ifvqe6g","pricing_plan_id":"cebpf4jnsgd1na2vs0mg"},{"bike_id":"e2b36ff1-68fb-450c-9569-ef54381ce7aa","system_id":"levelo_inurba_marseille","lat":43.291994,"lon":5.392907,"is_reserved":false,"is_disabled":false,"rental_uris":{"android":"levelo://app?vid=e2b36ff1-68fb-450c-9569-ef54381ce7aa","ios":"levelo://app?vid=e2b36ff1-68fb-450c-9569-ef54381ce7aa"},"vehicle_type_id":"4","last_reported":1718039190,"current_range_meters":10000,"station_id":"ce4bh192rcd13ifvqdd0","pricing_plan_id":"cebpf4jnsgd1na2vs0mg"},{"bike_id":"dd68c840-fb08-499b-9846-a99ed89fe836","system_id":"levelo_inurba_marseille","lat":43.291994,"lon":5.392907,"is_reserved":false,"is_disabled":false,"rental_uris":{"android":"levelo://app?vid=dd68c840-fb08-499b-9846-a99ed89fe836","ios":"levelo://app?vid=dd68c840-fb08-499b-9846-a99ed89fe836"},"vehicle_type_id":"4","last_reported":1718039190,"current_range_meters":0,"station_id":"ce4bh192rcd13ifvqdd0","pricing_plan_id":"cebpf4jnsgd1na2vs0mg"},{"bike_id":"49453642-b298-4436-bc54-ef261dbddd67","system_id":"levelo_inurba_marseille","lat":43.291994,"lon":5.392907,"is_reserved":false,"is_disabled":false,"rental_uris":{"android":"levelo://app?vid=49453642-b298-4436-bc54-ef261dbddd67","ios":"levelo://app?vid=49453642-b298-4436-bc54-ef261dbddd67"},"vehicle_type_id":"4","last_reported":1718039190,"current_range_meters":6400,"station_id":"ce4bh192rcd13ifvqdd0","pricing_plan_id":"cebpf4jnsgd1na2vs0mg"},{"bike_id":"acd91276-7798-443b-bcfc-0ad46963513d","system_id":"levelo_inurba_marseille","lat":43.285848,"lon":5.350787,"is_reserved":false,"is_disabled":false,"rental_uris":{"android":"levelo://app?vid=acd91276-7798-443b-bcfc-0ad46963513d","ios":"levelo://app?vid=acd91276-7798-443b-bcfc-0ad46963513d"},"vehicle_type_id":"4","last_reported":1718039190,"current_range_meters":4000,"station_id":"ce4bhch2rcd13ifvqeug","pricing_plan_id":"cebpf4jnsgd1na2vs0mg"},{"bike_id":"9e68cda2-df01-4ef1-b349-c7ae237c5aca","system_id":"levelo_inurba_marseille","lat":43.284538,"lon":5.358657,"is_reserved":false,"is_disabled":false,"rental_uris":{"android":"levelo://app?vid=9e68cda2-df01-4ef1-b349-c7ae237c5aca","ios":"levelo://app?vid=9e68cda2-df01-4ef1-b349-c7ae237c5aca"},"vehicle_type_id":"4","last_reported":1718039190,"current_range_meters":26800,"station_id":"ce4bhah2rcd13ifvqei0","pricing_plan_id":"cebpf4jnsgd1na2vs0mg"},