{"last_updated":1737638178,"ttl":60,"version":"2.2","data":{"bikes":[{"bike_id":"5178c5bb-726f-440f-bcde-ea1a168a22c5","system_id":"levelo_inurba_marseille","lat":43.30212,"lon":5.39466,"is_reserved":false,"is_disabled":false,"rental_uris":{"android":"levelo://app?vid=5178c5bb-726f-440f-bcde-ea1a168a22c5","ios":"levelo://app?vid=5178c5bb-726f-440f-bcde-ea1a168a22c5"},"vehicle_type_id":"4","last_reported":1737638178,"current_range_meters":25600,"station_id":"ce4bh0p2rcd13ifvqd70","pricing_plan_id":"cebpf4jnsgd1na2vs0mg"},{"bike_id":"c3fa857d-6c16-4a35-a19b-32c6da4e6156","system_id":"levelo_inurba_marseille","lat":43.32472,"lon":5.36575,"is_reserved":false,"is_disabled":false,"rental_uris":{"android":"levelo://app?vid=c3fa857d-6c16-4a35-a19b-32c6da4e6156","ios":"levelo://app?vid=c3fa857d-6c16-4a35-a19b-32c6da4e6156"},"vehicle_type_id":"4","last_reported":1737638178,"current_range_meters":12800,"station_id":"ce4bhs12rcd13ifvqhvg","pricing_plan_id":"cebpf4jnsgd1na2vs0mg"},{"bike_id":"9aff2613-f85d-49aa-a3c3-3c3e7031c8e3","system_id":"levelo_inurba_marseille","lat":43.26956,"lon":5.38619,"is_reserved":false,"is_disabled":false,"rental_uris":{"android":"levelo://app?vid=9aff2613-f85d-49aa-a3c3-3c3e7031c8e3","ios":"levelo://app?vid=9aff2613-f85d-49aa-a3c3-3c3e7031c8e3"},"vehicle_type_id":"4","last_reported":1737638178,"current_range_meters":39200,"station_id":"ce4bhh92rcd13ifvqfh0","pricing_plan_id":"cebpf4jnsgd1na2vs0mg"},{"bike_id":"c94f84e2-8477-4609-b3ac-897812a4fc1b","system_id":"levelo_inurba_marseille","lat":43.2942,"lon":5.38621,"is_reserved":false,"is_disabled":false,"rental_uris":{"android":"levelo://app?vid=c94f84e2-8477-4609-b3ac-897812a4fc1b","ios":"levelo://app?vid=c94f84e2-8477-4609-b3ac-897812a4fc1b"},"vehicle_type_id":"4","last_reported":1737638178,"current_range_meters":16400,"station_id":"ce4bh2h2rcd13ifvqdh0","pricing_plan_id":"cebpf4jnsgd1na2vs0mg"},{"bike_id":"dcf4555a-aebc-4561-8ac8-3e8a57d63da1","system_id":"levelo_inurba_marseille","lat":43.29585,"lon":5.36731,"is_reserved":false,"is_disabled":false,"rental_uris":{"android":"levelo://app?vid=dcf4555a-aebc-4561-8ac8-3e8a57d63da1","ios":"levelo://app?vid=dcf4555a-aebc-4561-8ac8-3e8a57d63da1"},"vehicle_type_id":"4","last_reported":1737638178,"current_range_meters":34000,"station_id":"ce4bgph2rcd13ifvqc2g","pricing_plan_id":"cebpf4jnsgd1na2vs0mg"},{"bike_id":"5ac14c7e-46e9-49c3-a78f-fec5377ad444","system_id":"levelo_inurba_marseille","lat":43.29699,"lon":5.3771,"is_reserved":false,"is_disabled":false,"rental_uris":{"android":"levelo://app?vid=5ac14c7e-46e9-49c3-a78f-fec5377ad444","ios":"levelo://app?vid=5ac14c7e-46e9-49c3-a78f-fec5377ad444"},"vehicle_type_id":"4","last_reported":1737638178,"current_range_meters":34000,"station_id":"ce4bgkh2rcd13ifvqbl0","pricing_plan_id":"cebpf4jnsgd1na2vs0mg"},{"bike_id":"6eb2e4ba-52be-4994-856c-5e938ae795fa","system_id":"levelo_inurba_marseille","lat":43.313573,"lon":5.366893,"is_reserved":false,"is_disabled":false,"rental_uris":{"android":"levelo://app?vid=6eb2e4ba-52be-4994-856c-5e938ae795fa","ios":"levelo://app?vid=6eb2e4ba-52be-4994-856c-5e938ae795fa"},"vehicle_type_id":"4","last_reported":1737638178,"current_range_meters":34800,"station_id":"ce4bgr92rcd13ifvqc6g","pricing_plan_id":"cebpf4jnsgd1na2vs0mg"},{"bike_id":"f5ec24a3-ada3-41e5-bba4-488b7da030e0","system_id":"levelo_inurba_marseille","lat":43.27899,"lon":5.3801,"is_reserved":false,"is_disabled":false,"rental_uris":{"android":"levelo://app?vid=f5ec24a3-ada3-41e5-bba4-488b7da030e0","ios":"levelo://app?vid=f5ec24a3-ada3-41e5-bba4-488b7da030e0"},"vehicle_type_id":"4","last_reported":1737638178,"current_range_meters":19600,"station_id":"ce4bhf92rcd13ifvqf50","pricing_plan_id":"cebpf4jnsgd1na2vs0mg"},{"bike_id":"b5cb07e6-6ffd-4db4-8954-0084503b2aef","system_id":"levelo_inurba_marseille","lat":43.33017,"lon":5.39035,"is_reserved":false,"is_disabled":false,"rental_uris":{"android":"levelo://app?vid=b5cb07e6-6ffd-4db4-8954-0084503b2aef","ios":"levelo://app?vid=b5cb07e6-6ffd-4db4-8954-0084503b2aef"},"vehicle_type_id":"4","last_reported":1737638178,"current_range_meters":37600,"station_id":"ce4bhr92rcd13ifvqhrg","pricing_plan_id":"cebpf4jnsgd1na2vs0mg"},{"bike_id":"ce2b86ec-5c6e-436b-bbf1-eb1b6c761903","system_id":"levelo_inurba_marseille","lat":43.27664,"lon":5.38937,"is_reserved":false,"is_disabled":false,"rental_uris":{"android":"levelo://app?vid=ce2b86ec-5c6e-436b-bbf1-eb1b6c761903","ios":"levelo://app?vid=ce2b86ec-5c6e-436b-bbf1-eb1b6c761903"},"vehicle_type_id":"4","last_reported":1737638178,"current_range_meters":36800,"station_id":"ce4bhi12rcd13ifvqfo0","pricing_plan_id":"cebpf4jnsgd1na2vs0mg"},{"bike_id":"060d1e32-7b0e-423f-8e03-2b630da0d6e8","system_id":"levelo_inurba_marseille","lat":43.29249,"lon":5.4092,"is_reserved":false,"is_disabled":false,"rental_uris":{"android":"levelo://app?vid=060d1e32-7b0e-423f-8e03-2b630da0d6e8","ios":"levelo://app?vid=060d1e32-7b0e-423f-8e03-2b630da0d6e8"},"vehicle_type_id":"4","last_reported":1737638178,"current_range_meters":38800,"station_id":"ce4bh192rcd13ifvqdc0","pricing_plan_id":"cebpf4jnsgd1na2vs0mg"},{"bike_id":"68d348c3-3de8-46d3-83c6-e42d41e18b9f","system_id":"levelo_inurba_marseille","lat":43.28263,"lon":5.35071,"is_reserved":false,"is_disabled":false,"rental_uris":{"android":"levelo://app?vid=68d348c3-3de8-46d3-83c6-e42d41e18b9f","ios":"levelo://app?vid=68d348c3-3de8-46d3-83c6-e42d41e18b9f"},"vehicle_type_id":"4","last_reported":1737638178,"current_range_meters":25600,"station_id":"ce4bhbp2rcd13ifvqerg","pricing_plan_id":"cebpf4jnsgd1na2vs0mg"},{"bike_id":"71e300e5-a0ed-4dca-b8b3-681a2076a0e5","system_id":"levelo_inurba_marseille","lat":43.29417,"lon":5.38625,"is_reserved":false,"is_disabled":false,"rental_uris":{"android":"levelo://app?vid=71e300e5-a0ed-4dca-b8b3-681a2076a0e5","ios":"levelo://app?vid=71e300e5-a0ed-4dca-b8b3-681a2076a0e5"},"vehicle_type_id":"4","last_reported":1737638178,"current_range_meters":36000,"station_id":"ce4bh2h2rcd13ifvqdh0","pricing_plan_id":"cebpf4jnsgd1na2vs0mg"},{"bike_id":"308959f0-a2fa-4c4e-a328-48ad646b5222","system_id":"levelo_inurba_marseille","lat":43.31432,"lon":5.36603,"is_reserved":false,"is_disabled":false,"rental_uris":{"android":"levelo://app?vid=308959f0-a2fa-4c4e-a328-48ad646b5222","ios":"levelo://app?vid=308959f0-a2fa-4c4e-a328-48ad646b5222"},"vehicle_type_id":"4","last_reported":1737638178,"current_range_meters":9200,"station_id":"","pricing_plan_id":"cebpf4jnsgd1na2vs0mg"},{"bike_id":"2b6096cf-e92f-48f9-b9d9-5d9bcc3c820c","system_id":"levelo_inurba_marseille","lat":43.27493,"lon":5.42463,"is_reserved":false,"is_disabled":false,"rental_uris":{"android":"levelo://app?vid=2b6096cf-e92f-48f9-b9d9-5d9bcc3c820c","ios":"levelo://app?vid=2b6096cf-e92f-48f9-b9d9-5d9bcc3c820c"},"vehicle_type_id":"4","last_reported":1737638178,"current_range_meters":27600,"station_id":"ce4bhn92rcd13ifvqgrg","pricing_plan_id":"cebpf4jnsgd1na2vs0mg"},{"bike_id":"5f8559dc-ef8f-42f1-ab2b-98cbc06fa309","system_id":"levelo_inurba_marseille","lat":43.29848,"lon":5.36264,"is_reserved":false,"is_disabled":false,"rental_uris":{"android":"levelo://app?vid=5f8559dc-ef8f-42f1-ab2b-98cbc06fa309","ios":"levelo://app?vid=5f8559dc-ef8f-42f1-ab2b-98cbc06fa309"},"vehicle_type_id":"4","last_reported":1737638178,"current_range_meters":29600,"station_id":"ce4bgpp2rcd13ifvqc3g","pricing_plan_id":"cebpf4jnsgd1na2vs0mg"},{"bike_id":"2a80df51-a758-43ec-8377-7504eaafab77","system_id":"levelo_inurba_marseille","lat":43.25925,"lon":5.40888,"is_reserved":false,"is_disabled":false,"rental_uris":{"android":"levelo://app?vid=2a80df51-a758-43ec-8377-7504eaafab77","ios":"levelo://app?vid=2a80df51-a758-43ec-8377-7504eaafab77"},"vehicle_type_id":"4","last_reported":1737638178,"current_range_meters":38800,"station_id":"ce4bhm92rcd13ifvqglg","pricing_plan_id":"cebpf4jnsgd1na2vs0mg"},{"bike_id":"62deda02-398b-428c-93c7-c43dbeb4b460","system_id":"levelo_inurba_marseille","lat":43.319941,"lon":5.381565,"is_reserved":false,"is_disabled":false,"rental_uris":{"android":"levelo://app?vid=62deda02-398b-428c-93c7-c43dbeb4b460","ios":"levelo://app?vid=62deda02-398b-428c-93c7-c43dbeb4b460"},"vehicle_type_id":"4","last_reported":1737638178,"current_range_meters":38800,"station_id":"ce4bhr12rcd13ifvqhpg","pricing_plan_id":"cebpf4jnsgd1na2vs0mg"},{"bike_id":"4142cc7d-6c21-4f7e-864c-5aa68637965f","system_id":"levelo_inurba_marseille","lat":43.29266,"lon":5.38442,"is_reserved":false,"is_disabled":false,"rental_uris":{"android":"levelo://app?vid=4142cc7d-6c21-4f7e-864c-5aa68637965f","ios":"levelo://app?vid=4142cc7d-6c21-4f7e-864c-5aa68637965f"},"vehicle_type_id":"4","last_reported":1737638178,"current_range_meters":26800,"station_id":"ce4bh692rcd13ifvqea0","pricing_plan_id":"cebpf4jnsgd1na2vs0mg"},{"bike_id":"4b99948f-ea48-4383-875e-b58ed823d600","system_id":"levelo_inurba_marseille","lat":43.30555,"lon":5.36702,"is_reserved":false,"is_disabled":false,"rental_uris":{"android":"levelo://app?vid=4b99948f-ea48-4383-875e-b58ed823d600","ios":"levelo://app?vid=4b99948f-ea48-4383-875e-b58ed823d600"},"vehicle_type_id":"4","last_reported":1737638178,"current_range_meters":38800,"station_id":"ce4bgrp2rcd13ifvqc9g","pricing_plan_id":"cebpf4jnsgd1na2vs0mg"},{"bike_id":"61735e4e-49a8-43e1-8f04-18589875b8d4","system_id":"levelo_inurba_marseille","lat":43.30478,"lon":5.3791,"is_reserved":false,"is_disabled":false,"rental_uris":{"android":"levelo://app?vid=61735e4e-49a8-43e1-8f04-18589875b8d4","ios":"levelo://app?vid=61735e4e-49a8-43e1-8f04-18589875b8d4"},"vehicle_type_id":"4","last_reported":1737638178,"current_range_meters":27200,"station_id":"ce4bgup2rcd13ifvqcn0","pricing_plan_id":"cebpf4jnsgd1na2vs0mg"},{"bike_id":"547a73d5-3351-4bc5-80c3-6e11a818d825","system_id":"levelo_inurba_marseille","lat":43.31689,"lon":5.37779,"is_reserved":false,"is_disabled":false,"rental_uris":{"android":"levelo://app?vid=547a73d5-3351-4bc5-80c3-6e11a818d825","ios":"levelo://app?vid=547a73d5-3351-4bc5-80c3-6e11a818d825"},"vehicle_type_id":"4","last_reported":1737638178,"current_range_meters":35600,"station_id":"ce4bgth2rcd13ifvqch0","pricing_plan_id":"cebpf4jnsgd1na2vs0mg"},{"bike_id":"e38da209-d8d9-4680-be99-11d1954272ef","system_id":"levelo_inurba_marseille","lat":43.26209,"lon":5.37938,"is_reserved":false,"is_disabled":false,"rental_uris":{"android":"levelo://app?vid=e38da209-d8d9-4680-be99-11d1954272ef","ios":"levelo://app?vid=e38da209-d8d9-4680-be99-11d1954272ef"},"vehicle_type_id":"4","last_reported":1737638178,"current_range_meters":39200,"station_id":"ce4bhjp2rcd13ifvqg90","pricing_plan_id":"cebpf4jnsgd1na2vs0mg"},{"bike_id":"f1337b63-8a6e-48f0-9c6f-64b5c4524f3f","system_id":"levelo_inurba_marseille","lat":43.30419,"lon":5.39751,"is_reserved":false,"is_disabled":false,"rental_uris":{"android":"levelo://app?vid=f1337b63-8a6e-48f0-9c6f-64b5c4524f3f","ios":"levelo://app?vid=f1337b63-8a6e-48f0-9c6f-64b5c4524f3f"},"vehicle_type_id":"4","last_reported":1737638178,"current_range_meters":34800,"station_id":"ce4bh092rcd13ifvqd20","pricing_plan_id":"cebpf4jnsgd1na2vs0mg"},{"bike_id":"160c4fbb-2af3-439e-9ef6-41c92148fa08","system_id":"levelo_inurba_marseille","lat":43.30458,"lon":5.3792,"is_reserved":false,"is_disabled":false,"rental_uris":{"android":"levelo://app?vid=160c4fbb-2af3-439e-9ef6-41c92148fa08","ios":"levelo://app?vid=160c4fbb-2af3-439e-9ef6-41c92148fa08"},"vehicle_type_id":"4","last_reported":1737638178,"current_range_meters":38800,"station_id":"ce4bgup2rcd13ifvqcn0","pricing_plan_id":"cebpf4jnsgd1na2vs0mg"},{"bike_id":"46cbb2a8-1990-4df7-8c0f-e0f7087bc653","system_id":"levelo_inurba_marseille","lat":43.29041,"lon":5.37565,"is_reserved":false,"is_disabled":false,"rental_uris":{"android":"levelo://app?vid=46cbb2a8-1990-4df7-8c0f-e0f7087bc653","ios":"levelo://app?vid=46cbb2a8-1990-4df7-8c0f-e0f7087bc653"},"vehicle_type_id":"4","last_reported":1737638178,"current_range_meters":26800,"station_id":"ce4bh692rcd13ifvqe90","pricing_plan_id":"cebpf4jnsgd1na2vs0mg"},{"bike_id":"5d4fa761-e480-4599-a18e-55917918b6b9","system_id":"levelo_inurba_marseille","lat":43.23128,"lon":5.43728,"is_reserved":false,"is_disabled":false,"rental_uris":{"android":"levelo://app?vid=5d4fa761-e480-4599-a18e-55917918b6b9","ios":"levelo://app?vid=5d4fa761-e480-4599-a18e-55917918b6b9"},"vehicle_type_id":"4","last_reported":1737638178,"current_range_meters":17600,"station_id":"ce4bhmp2rcd13ifvqgog","pricing_plan_id":"cebpf4jnsgd1na2vs0mg"},{"bike_id":"8ebd6f9f-d039-403f-98dc-71fb0b803930","system_id":"levelo_inurba_marseille","lat":43.30524,"lon":5.36727,"is_reserved":false,"is_disabled":false,"rental_uris":{"android":"levelo://app?vid=8ebd6f9f-d039-403f-98dc-71fb0b803930","ios":"levelo://app?vid=8ebd6f9f-d039-403f-98dc-71fb0b803930"},"vehicle_type_id":"4","last_reported":1737638178,"current_range_meters":8800,"station_id":"ce4bgrp2rcd13ifvqc9g","pricing_plan_id":"cebpf4jnsgd1na2vs0mg"},{"bike_id":"247b260b-da6b-4df1-b7f7-6e5246e8b777","system_id":"levelo_inurba_marseille","lat":43.30167,"lon":5.38084,"is_reserved":false,"is_disabled":false,"rental_uris":{"android":"levelo://app?vid=247b260b-da6b-4df1-b7f7-6e5246e8b777","ios":"levelo://app?vid=247b260b-da6b-4df1-b7f7-6e5246e8b777"},"vehicle_type_id":"4","last_reported":1737638178,"current_range_meters":30800,"station_id":"ce4bguh2rcd13ifvqckg","pricing_plan_id":"cebpf4jnsgd1na2vs0mg"},{"bike_id":"f2fecc79-a686-4a0b-926f-9120099b411b","system_id":"levelo_inurba_marseille","lat":43.2962,"lon":5.37723,"is_reserved":false,"is_disabled":false,"rental_uris":{"android":"levelo://app?vid=f2fecc79-a686-4a0b-926f-9120099b411b","ios":"levelo://app?vid=f2fecc79-a686-4a0b-926f-9120099b411b"},"vehicle_type_id":"4","last_reported":1737638178,"current_range_meters":38800,"station_id":"ce4bgi92rcd13ifvqb90","pricing_plan_id":"cebpf4jnsgd1na2vs0mg"},{"bike_id":"78e04b22-500f-4fc2-b600-8f3fdd81bda1","system_id":"levelo_inurba_marseille","lat":43.25577,"lon":5.38247,"is_reserved":false,"is_disabled":false,"rental_uris":{"android":"levelo://app?vid=78e04b22-500f-4fc2-b600-8f3fdd81bda1","ios":"levelo://app?vid=78e04b22-500f-4fc2-b600-8f3fdd81bda1"},"vehicle_type_id":"4","last_reported":1737638178,"current_range_meters":16800,"station_id":"ce4bhih2rcd13ifvqfs0","pricing_plan_id":"cebpf4jnsgd1na2vs0mg"},{"bike_id":"12b0ab4d-ab19-4a13-bf82-016e75324c52","system_id":"levelo_inurba_marseille","lat":43.30309,"lon":5.36907,"is_reserved":false,"is_disabled":false,"rental_uris":{"android":"levelo://app?vid=12b0ab4d-ab19-4a13-bf82-016e75324c52","ios":"levelo://app?vid=12b0ab4d-ab19-4a13-bf82-016e75324c52"},"vehicle_type_id":"4","last_reported":1737638178,"current_range_meters":16800,"station_id":"ce4bgqh2rcd13ifvqc5g","pricing_plan_id":"cebpf4jnsgd1na2vs0mg"},{"bike_id":"32e4d9ea-8ba2-49a4-b23c-720e6b0ef0e1","system_id":"levelo_inurba_marseille","lat":43.28918,"lon":5.36393,"is_reserved":false,"is_disabled":false,"rental_uris":{"android":"levelo://app?vid=32e4d9ea-8ba2-49a4-b23c-720e6b0ef0e1","ios":"levelo://app?vid=32e4d9ea-8ba2-49a4-b23c-720e6b0ef0e1"},"vehicle_type_id":"4","last_reported":1737638178,"current_range_meters":24000,"station_id":"ce4bhc92rcd13ifvqetg","pricing_plan_id":"cebpf4jnsgd1na2vs0mg"},{"bike_id":"4dab9959-a4b1-43eb-bcfc-b045323f408c","system_id":"levelo_inurba_marseille","lat":43.294345,"lon":5.397509,"is_reserved":false,"is_disabled":false,"rental_uris":{"android":"levelo://app?vid=4dab9959-a4b1-43eb-bcfc-b045323f408c","ios":"levelo://app?vid=4dab9959-a4b1-43eb-bcfc-b045323f408c"},"vehicle_type_id":"4","last_reported":1737638178,"current_range_meters":26000,"station_id":"ce4bh3h2rcd13ifvqdo0","pricing_plan_id":"cebpf4jnsgd1na2vs0mg"},{"bike_id":"159f9a9d-60ed-4b8f-90f2-23c1bf57b24d","system_id":"levelo_inurba_marseille","lat":43.29418,"lon":5.38625,"is_reserved":false,"is_disabled":false,"rental_uris":{"android":"levelo://app?vid=159f9a9d-60ed-4b8f-90f2-23c1bf57b24d","ios":"levelo://app?vid=159f9a9d-60ed-4b8f-90f2-23c1bf57b24d"},"vehicle_type_id":"4","last_reported":1737638178,"current_range_meters":34800,"station_id":"ce4bhbp2rcd13ifvqerg","pricing_plan_id":"cebpf4jnsgd1na2vs0mg"},{"bike_id":"c535ef4e-d44e-4978-ba7e-b7fce2addae6","system_id":"levelo_inurba_marseille","lat":43.32075,"lon":5.41543,"is_reserved":false,"is_disabled":false,"rental_uris":{"android":"levelo://app?vid=c535ef4e-d44e-4978-ba7e-b7fce2addae6","ios":"levelo://app?vid=c535ef4e-d44e-4978-ba7e-b7fce2addae6"},"vehicle_type_id":"4","last_reported":1737638178,"current_range_meters":34800,"station_id":"ce4bhq92rcd13ifvqhkg","pricing_plan_id":"cebpf4jnsgd1na2vs0mg"},{"bike_id":"57646849-53d0-4197-b603-531c7d499554","system_id":"levelo_inurba_marseille","lat":43.29906,"lon":5.38141,"is_reserved":false,"is_disabled":false,"rental_uris":{"android":"levelo://app?vid=57646849-53d0-4197-b603-531c7d499554","ios":"levelo://app?vid=57646849-53d0-4197-b603-531c7d499554"},"vehicle_type_id":"4","last_reported":1737638178,"current_range_meters":38800,"station_id":"ce4bgj12rcd13ifvqbc0","pricing_plan_id":"cebpf4jnsgd1na2vs0mg"},{"bike_id":"a13abb27-e665-43e9-87a9-b8e3e0cbc35c","system_id":"levelo_inurba_marseille","lat":43.30552,"lon":5.36708,"is_reserved":false,"is_disabled":false,"rental_uris":{"android":"levelo://app?vid=a13abb27-e665-43e9-87a9-b8e3e0cbc35c","ios":"levelo://app?vid=a13abb27-e665-43e9-87a9-b8e3e0cbc35c"},"vehicle_type_id":"4","last_reported":1737638178,"current_range_meters":6000,"station_id":"ce4bgrp2rcd13ifvqc9g","pricing_plan_id":"cebpf4jnsgd1na2vs0mg"},{"bike_id":"dec31f37-4218-40d0-a15b-0fef56fa9f65","system_id":"levelo_inurba_marseille","lat":43.28404,"lon":5.37523,"is_reserved":false,"is_disabled":false,"rental_uris":{"android":"levelo://app?vid=dec31f37-4218-40d0-a15b-0fef56fa9f65","ios":"levelo://app?vid=dec31f37-4218-40d0-a15b-0fef56fa9f65"},"vehicle_type_id":"4","last_reported":1737638178,"current_range_meters":8400,"station_id":"ce4bh412rcd13ifvqds0","pricing_plan_id":"cebpf4jnsgd1na2vs0mg"},{"bike_id":"cfec5a9d-2d91-40c3-80d3-8dd8952a0e51","system_id":"levelo_inurba_marseille","lat":43.26948,"lon":5.38638,"is_reserved":false,"is_disabled":false,"rental_uris":{"android":"levelo://app?vid=cfec5a9d-2d91-40c3-80d3-8dd8952a0e51","ios":"levelo://app?vid=cfec5a9d-2d91-40c3-80d3-8dd8952a0e51"},"vehicle_type_id":"4","last_reported":1737638178,"current_range_meters":8800,"station_id":"ce4bhh92rcd13ifvqfh0","pricing_plan_id":"cebpf4jnsgd1na2vs0mg"},{"bike_id":"8b1db7fb-3f92-4839-8a1b-2cf6afc9c963","system_id":"levelo_inurba_marseille","lat":43.25028,"lon":5.38909,"is_reserved":false,"is_disabled":false,"rental_uris":{"android":"levelo://app?vid=8b1db7fb-3f92-4839-8a1b-2cf6afc9c963","ios":"levelo://app?vid=8b1db7fb-3f92-4839-8a1b-2cf6afc9c963"},"vehicle_type_id":"4","last_reported":1737638178,"current_range_meters":17200,"station_id":"ce4bhgp2rcd13ifvqfd0","pricing_plan_id":"cebpf4jnsgd1na2vs0mg"},{"bike_id":"7ace546e-9c67-4124-8420-9ed07a575e5a","system_id":"levelo_inurba_marseille","lat":43.31629,"lon":5.40567,"is_reserved":false,"is_disabled":true,"rental_uris":{"android":"levelo://app?vid=7ace546e-9c67-4124-8420-9ed07a575e5a","ios":"levelo://app?vid=7ace546e-9c67-4124-8420-9ed07a575e5a"},"vehicle_type_id":"4","last_reported":1737638178,"current_range_meters":0,"station_id":"","pricing_plan_id":"cebpf4jnsgd1na2vs0mg"},{"bike_id":"c3429ea1-0b50-4872-941e-40962b8f6e76","system_id":"levelo_inurba_marseille","lat":43.23962,"lon":5.3664,"is_reserved":false,"is_disabled":false,"rental_uris":{"android":"levelo://app?vid=c3429ea1-0b50-4872-941e-40962b8f6e76","ios":"levelo://app?vid=c3429ea1-0b50-4872-941e-40962b8f6e76"},"vehicle_type_id":"4","last_reported":1737638178,"current_range_meters":36400,"station_id":"ce4bhi12rcd13ifvqfp0","pricing_plan_id":"cebpf4jnsgd1na2vs0mg"},{"bike_id":"3ad322ee-cf42-496f-b658-62f4451eeb41","system_id":"levelo_inurba_marseille","lat":43.24076,"lon":5.37758,"is_reserved":false,"is_disabled":false,"rental_uris":{"android":"levelo://app?vid=3ad322ee-cf42-496f-b658-62f4451eeb41","ios":"levelo://app?vid=3ad322ee-cf42-496f-b658-62f4451eeb41"},"vehicle_type_id":"4","last_reported":1737638178,"current_range_meters":14400,"station_id":"ce4bhnp2rcd13ifvqgvg","pricing_plan_id":"cebpf4jnsgd1na2vs0mg"},{"bike_id":"bbdfc660-e997-4a11-9591-bbb56c89be46","system_id":"levelo_inurba_marseille","lat":43.33031,"lon":5.3904,"is_reserved":false,"is_disabled":false,"rental_uris":{"android":"levelo://app?vid=bbdfc660-e997-4a11-9591-bbb56c89be46","ios":"levelo://app?vid=bbdfc660-e997-4a11-9591-bbb56c89be46"},"vehicle_type_id":"4","last_reported":1737638178,"current_range_meters":17600,"station_id":"ce4bhr92rcd13ifvqhrg","pricing_plan_id":"cebpf4jnsgd1na2vs0mg"},{"bike_id":"5e75dd30-ab3b-44d3-8dcb-cb5fd4a0eb65","system_id":"levelo_inurba_marseille","lat":43.24639,"lon":5.38907,"is_reserved":false,"is_disabled":false,"rental_uris":{"android":"levelo://app?vid=5e75dd30-ab3b-44d3-8dcb-cb5fd4a0eb65","ios":"levelo://app?vid=5e75dd30-ab3b-44d3-8dcb-cb5fd4a0eb65"},"vehicle_type_id":"4","last_reported":1737638178,"current_range_meters":38000,"station_id":"ce4bhg12rcd13ifvqf60","pricing_plan_id":"cebpf4jnsgd1na2vs0mg"},{"bike_id":"202bef2f-45a3-4b34-8d75-abc6d8a9ae01","system_id":"levelo_inurba_marseille","lat":43.30423,"lon":5.39745,"is_reserved":false,"is_disabled":false,"rental_uris":{"android":"levelo://app?vid=202bef2f-45a3-4b34-8d75-abc6d8a9ae01","ios":"levelo://app?vid=202bef2f-45a3-4b34-8d75-abc6d8a9ae01"},"vehicle_type_id":"4","last_reported":1737638178,"current_range_meters":4800,"station_id":"ce4bh092rcd13ifvqd20","pricing_plan_id":"cebpf4jnsgd1na2vs0mg"},{"bike_id":"6d736148-0838-4827-bf70-745978854c80","system_id":"levelo_inurba_marseille","lat":43.26208,"lon":5.37926,"is_reserved":false,"is_disabled":false,"rental_uris":{"android":"levelo://app?vid=6d736148-0838-4827-bf70-745978854c80","ios":"levelo://app?vid=6d736148-0838-4827-bf70-745978854c80"},"vehicle_type_id":"4","last_reported":1737638178,"current_range_meters":38800,"station_id":"ce4bhjp2rcd13ifvqg90","pricing_plan_id":"cebpf4jnsgd1na2vs0mg"},{"bike_id":"ad8a9661-4749-405d-b10d-dfa4648bca2c","system_id":"levelo_inurba_marseille","lat":43.287093,"lon":5.399963,"is_reserved":false,"is_disabled":false,"rental_uris":{"android":"levelo://app?vid=ad8a9661-4749-405d-b10d-dfa4648bca2c","ios":"levelo://app?vid=ad8a9661-4749-405d-b10d-dfa4648bca2c"},"vehicle_type_id":"4","last_reported":1737638178,"current_range_meters":33200,"station_id":"ce4bho92rcd13ifvqh3g","pricing_plan_id":"cebpf4jnsgd1na2vs0mg"},{"bike_id":"6c2e2f41-9c52-4308-86ab-09129b1176ab","system_id":"levelo_inurba_marseille","lat":43.30525,"lon":5.36522,"is_reserved":false,"is_disabled":false,"rental_uris":{"android":"levelo://app?vid=6c2e2f41-9c52-4308-86ab-09129b1176ab","ios":"levelo://app?vid=6c2e2f41-9c52-4308-86ab-09129b1176ab"},"vehicle_type_id":"4","last_reported":1737638178,"current_range_meters":32400,"station_id":"ce4bgs12rcd13ifvqcag","pricing_plan_id":"cebpf4jnsgd1na2vs0mg"},{"bike_id":"02b45201-016a-4b5e-8350-e461573f4d54","system_id":"levelo_inurba_marseille","lat":43.29883,"lon":5.38902,"is_reserved":false,"is_disabled":false,"rental_uris":{"android":"levelo://app?vid=02b45201-016a-4b5e-8350-e461573f4d54","ios":"levelo://app?vid=02b45201-016a-4b5e-8350-e461573f4d54"},"vehicle_type_id":"4","last_reported":1737638178,"current_range_meters":37600,"station_id":"ce4bh392rcd13ifvqdl0","pricing_plan_id":"cebpf4jnsgd1na2vs0mg"},{"bike_id":"627cb65c-8458-444d-94bb-8117ef5675ba","system_id":"levelo_inurba_marseille","lat":43.30551,"lon":5.36538,"is_reserved":false,"is_disabled":false,"rental_uris":{"android":"levelo://app?vid=627cb65c-8458-444d-94bb-8117ef5675ba","ios":"levelo://app?vid=627cb65c-8458-444d-94bb-8117ef5675ba"},"vehicle_type_id":"4","last_reported":1737638178,"current_range_meters":26000,"station_id":"ce4bgs12rcd13ifvqcag","pricing_plan_id":"cebpf4jnsgd1na2vs0mg"},{"bike_id":"9838cc78-2b53-49d3-ae13-82df62c4fd64","system_id":"levelo_inurba_marseille","lat":43.28403,"lon":5.40931,"is_reserved":false,"is_disabled":false,"rental_uris":{"android":"levelo://app?vid=9838cc78-2b53-49d3-ae13-82df62c4fd64","ios":"levelo://app?vid=9838cc78-2b53-49d3-ae13-82df62c4fd64"},"vehicle_type_id":"4","last_reported":1737638178,"current_range_meters":6000,"station_id":"","pricing_plan_id":"cebpf4jnsgd1na2vs0mg"},{"bike_id":"c9d5130a-2519-42e5-9738-1fe954b7236a","system_id":"levelo_inurba_marseille","lat":43.291443,"lon":5.371626,"is_reserved":false,"is_disabled":false,"rental_uris":{"android":"levelo://app?vid=c9d5130a-2519-42e5-9738-1fe954b7236a","ios":"levelo://app?vid=c9d5130a-2519-42e5-9738-1fe954b7236a"},"vehicle_type_id":"4","last_reported":1737638178,"current_range_meters":17600,"station_id":"ce4bha92rcd13ifvqeh0","pricing_plan_id":"cebpf4jnsgd1na2vs0mg"},{"bike_id":"d9d67e50-ff60-4024-bb97-06b4cc192a7e","system_id":"levelo_inurba_marseille","lat":43.30222,"lon":5.37478,"is_reserved":false,"is_disabled":true,"rental_uris":{"android":"levelo://app?vid=d9d67e50-ff60-4024-bb97-06b4cc192a7e","ios":"levelo://app?vid=d9d67e50-ff60-4024-bb97-06b4cc192a7e"},"vehicle_type_id":"4","last_reported":1737638178,"current_range_meters":38800,"station_id":"","pricing_plan_id":"cebpf4jnsgd1na2vs0mg"},{"bike_id":"7d763c98-42ea-4785-9a67-445fecef725e","system_id":"levelo_inurba_marseille","lat":43.28269,"lon":5.35065,"is_reserved":false,"is_disabled":false,"rental_uris":{"android":"levelo://app?vid=7d763c98-42ea-4785-9a67-445fecef725e","ios":"levelo://app?vid=7d763c98-42ea-4785-9a67-445fecef725e"},"vehicle_type_id":"4","last_reported":1737638178,"current_range_meters":39200,"station_id":"ce4bhbp2rcd13ifvqerg","pricing_plan_id":"cebpf4jnsgd1na2vs0mg"},{"bike_id":"19b8198b-0b8b-41c2-8c4a-a703ec5c010b","system_id":"levelo_inurba_marseille","lat":43.30157,"lon":5.38087,"is_reserved":false,"is_disabled":false,"rental_uris":{"android":"levelo://app?vid=19b8198b-0b8b-41c2-8c4a-a703ec5c010b","ios":"levelo://app?vid=19b8198b-0b8b-41c2-8c4a-a703ec5c010b"},"vehicle_type_id":"4","last_reported":1737638178,"current_range_meters":38800,"station_id":"ce4bgjp2rcd13ifvqbh0","pricing_plan_id":"cebpf4jnsgd1na2vs0mg"},{"bike_id":"554db573-f0e5-44e3-8f62-5295505ad4c0","system_id":"levelo_inurba_marseille","lat":43.29222,"lon":5.36064,"is_reserved":false,"is_disabled":false,"rental_uris":{"android":"levelo://app?vid=554db573-f0e5-44e3-8f62-5295505ad4c0","ios":"levelo://app?vid=554db573-f0e5-44e3-8f62-5295505ad4c0"},"vehicle_type_id":"4","last_reported":1737638178,"current_range_meters":28000,"station_id":"ce4bhbh2rcd13ifvqeqg","pricing_plan_id":"cebpf4jnsgd1na2vs0mg"},{"bike_id":"d33ce505-31a0-499b-a406-756f59703e9b","system_id":"levelo_inurba_marseille","lat":43.30425,"lon":5.39744,"is_reserved":false,"is_disabled":false,"rental_uris":{"android":"levelo://app?vid=d33ce505-31a0-499b-a406-756f59703e9b","ios":"levelo://app?vid=d33ce505-31a0-499b-a406-756f59703e9b"},"vehicle_type_id":"4","last_reported":1737638178,"current_range_meters":28000,"station_id":"ce4bh092rcd13ifvqd20","pricing_plan_id":"cebpf4jnsgd1na2vs0mg"},{"bike_id":"634d56c1-a2c0-4178-97ec-f77ccc52b51c","system_id":"levelo_inurba_marseille","lat":43.23175,"lon":5.3999,"is_reserved":false,"is_disabled":false,"rental_uris":{"android":"levelo://app?vid=634d56c1-a2c0-4178-97ec-f77ccc52b51c","ios":"levelo://app?vid=634d56c1-a2c0-4178-97ec-f77ccc52b51c"},"vehicle_type_id":"4","last_reported":1737638178,"current_range_meters":36000,"station_id":"ce4bhn12rcd13ifvqgqg","pricing_plan_id":"cebpf4jnsgd1na2vs0mg"},{"bike_id":"453049cf-9b62-421e-aca6-df9a4afd0bf0","system_id":"levelo_inurba_marseille","lat":43.28135,"lon":5.37817,"is_reserved":false,"is_disabled":false,"rental_uris":{"android":"levelo://app?vid=453049cf-9b62-421e-aca6-df9a4afd0bf0","ios":"levelo://app?vid=453049cf-9b62-421e-aca6-df9a4afd0bf0"},"vehicle_type_id":"4","last_reported":1737638178,"current_range_meters":11600,"station_id":"ce4bha12rcd13ifvqee0","pricing_plan_id":"cebpf4jnsgd1na2vs0mg"},{"bike_id":"e2354e19-89dd-46a5-b901-2e78fe9728e6","system_id":"levelo_inurba_marseille","lat":43.33605,"lon":5.41042,"is_reserved":false,"is_disabled":false,"rental_uris":{"android":"levelo://app?vid=e2354e19-89dd-46a5-b901-2e78fe9728e6","ios":"levelo://app?vid=e2354e19-89dd-46a5-b901-2e78fe9728e6"},"vehicle_type_id":"4","last_reported":1737638178,"current_range_meters":36400,"station_id":"ce4bhqh2rcd13ifvqhmg","pricing_plan_id":"cebpf4jnsgd1na2vs0mg"},{"bike_id":"a8f7c7b7-4ab3-4d0b-9e6e-6aa85ab9f131","system_id":"levelo_inurba_marseille","lat":43.26954,"lon":5.38641,"is_reserved":false,"is_disabled":false,"rental_uris":{"android":"levelo://app?vid=a8f7c7b7-4ab3-4d0b-9e6e-6aa85ab9f131","ios":"levelo://app?vid=a8f7c7b7-4ab3-4d0b-9e6e-6aa85ab9f131"},"vehicle_type_id":"4","last_reported":1737638178,"current_range_meters":17200,"station_id":"ce4bhh92rcd13ifvqfh0","pricing_plan_id":"cebpf4jnsgd1na2vs0mg"},{"bike_id":"68b608b1-4b2e-42e4-afbb-5cdcf5bc15cf","system_id":"levelo_inurba_marseille","lat":43.26687,"lon":5.38267,"is_reserved":false,"is_disabled":false,"rental_uris":{"android":"levelo://app?vid=68b608b1-4b2e-42e4-afbb-5cdcf5bc15cf","ios":"levelo://app?vid=68b608b1-4b2e-42e4-afbb-5cdcf5bc15cf"},"vehicle_type_id":"4","last_reported":1737638178,"current_range_meters":24400,"station_id":"ce4bhg92rcd13ifvqf90","pricing_plan_id":"cebpf4jnsgd1na2vs0mg"},{"bike_id":"e78f1ed8-dca8-4621-b8ab-8f646e4bfca5","system_id":"levelo_inurba_marseille","lat":43.30462,"lon":5.37901,"is_reserved":false,"is_disabled":false,"rental_uris":{"android":"levelo://app?vid=e78f1ed8-dca8-4621-b8ab-8f646e4bfca5","ios":"levelo://app?vid=e78f1ed8-dca8-4621-b8ab-8f646e4bfca5"},"vehicle_type_id":"4","last_reported":1737638178,"current_range_meters":38800,"station_id":"ce4bgup2rcd13ifvqcn0","pricing_plan_id":"cebpf4jnsgd1na2vs0mg"},{"bike_id":"e2151eb3-314b-404c-b259-cf12a3a3e0c6","system_id":"levelo_inurba_marseille","lat":43.31583,"lon":5.40253,"is_reserved":false,"is_disabled":false,"rental_uris":{"android":"levelo://app?vid=e2151eb3-314b-404c-b259-cf12a3a3e0c6","ios":"levelo://app?vid=e2151eb3-314b-404c-b259-cf12a3a3e0c6"},"vehicle_type_id":"4","last_reported":1737638178,"current_range_meters":22800,"station_id":"","pricing_plan_id":"cebpf4jnsgd1na2vs0mg"},{"bike_id":"008eeba8-6089-43ad-99b2-d1d8874e491d","system_id":"levelo_inurba_marseille","lat":43.31351,"lon":5.36702,"is_reserved":false,"is_disabled":false,"rental_uris":{"android":"levelo://app?vid=008eeba8-6089-43ad-99b2-d1d8874e491d","ios":"levelo://app?vid=008eeba8-6089-43ad-99b2-d1d8874e491d"},"vehicle_type_id":"4","last_reported":1737638178,"current_range_meters":21600,"station_id":"ce4bgr92rcd13ifvqc6g","pricing_plan_id":"cebpf4jnsgd1na2vs0mg"},{"bike_id":"fe1d98f5-afb0-4b9a-9249-4ac090fab3cc","system_id":"levelo_inurba_marseille","lat":43.32355,"lon":5.4205,"is_reserved":false,"is_disabled":false,"rental_uris":{"android":"levelo://app?vid=fe1d98f5-afb0-4b9a-9249-4ac090fab3cc","ios":"levelo://app?vid=fe1d98f5-afb0-4b9a-9249-4ac090fab3cc"},"vehicle_type_id":"4","last_reported":1737638178,"current_range_meters":24800,"station_id":"","pricing_plan_id":"cebpf4jnsgd1na2vs0mg"},{"bike_id":"c446ad5f-fc4f-4fc2-a7ec-32df569ac582","system_id":"levelo_inurba_marseille","lat":43.31702,"lon":5.4046,"is_reserved":false,"is_disabled":false,"rental_uris":{"android":"levelo://app?vid=c446ad5f-fc4f-4fc2-a7ec-32df569ac582","ios":"levelo://app?vid=c446ad5f-fc4f-4fc2-a7ec-32df569ac582"},"vehicle_type_id":"4","last_reported":1737638178,"current_range_meters":16800,"station_id":"ce4bh012rcd13ifvqd00","pricing_plan_id":"cebpf4jnsgd1na2vs0mg"},{"bike_id":"04de6f23-407d-4fcf-b28c-ee2a21a52bbe","system_id":"levelo_inurba_marseille","lat":43.23152,"lon":5.43712,"is_reserved":false,"is_disabled":false,"rental_uris":{"android":"levelo://app?vid=04de6f23-407d-4fcf-b28c-ee2a21a52bbe","ios":"levelo://app?vid=04de6f23-407d-4fcf-b28c-ee2a21a52bbe"},"vehicle_type_id":"4","last_reported":1737638178,"current_range_meters":38800,"station_id":"ce4bhmp2rcd13ifvqgog","pricing_plan_id":"cebpf4jnsgd1na2vs0mg"},{"bike_id":"c1b75919-573d-4cc1-9d10-0ce76a752bf9","system_id":"levelo_inurba_marseille","lat":43.24069,"lon":5.37762,"is_reserved":false,"is_disabled":false,"rental_uris":{"android":"levelo://app?vid=c1b75919-573d-4cc1-9d10-0ce76a752bf9","ios":"levelo://app?vid=c1b75919-573d-4cc1-9d10-0ce76a752bf9"},"vehicle_type_id":"4","last_reported":1737638178,"current_range_meters":24000,"station_id":"ce4bhnp2rcd13ifvqgvg","pricing_plan_id":"cebpf4jnsgd1na2vs0mg"},{"bike_id":"decf248f-8217-4b3f-bda1-8bc0e3bb54ea","system_id":"levelo_inurba_marseille","lat":43.31684,"lon":5.40473,"is_reserved":false,"is_disabled":false,"rental_uris":{"android":"levelo://app?vid=decf248f-8217-4b3f-bda1-8bc0e3bb54ea","ios":"levelo://app?vid=decf248f-8217-4b3f-bda1-8bc0e3bb54ea"},"vehicle_type_id":"4","last_reported":1737638178,"current_range_meters":5600,"station_id":"ce4bh012rcd13ifvqd00","pricing_plan_id":"cebpf4jnsgd1na2vs0mg"},{"bike_id":"050bd42b-0fa4-4ea3-8a02-3c1196960ece","system_id":"levelo_inurba_marseille","lat":43.31633,"lon":5.37392,"is_reserved":false,"is_disabled":false,"rental_uris":{"android":"levelo://app?vid=050bd42b-0fa4-4ea3-8a02-3c1196960ece","ios":"levelo://app?vid=050bd42b-0fa4-4ea3-8a02-3c1196960ece"},"vehicle_type_id":"4","last_reported":1737638178,"current_range_meters":27600,"station_id":"","pricing_plan_id":"cebpf4jnsgd1na2vs0mg"},{"bike_id":"3a59db95-3ba3-45d9-9d51-35faeb1e0f2b","system_id":"levelo_inurba_marseille","lat":43.251153,"lon":5.403228,"is_reserved":false,"is_disabled":false,"rental_uris":{"android":"levelo://app?vid=3a59db95-3ba3-45d9-9d51-35faeb1e0f2b","ios":"levelo://app?vid=3a59db95-3ba3-45d9-9d51-35faeb1e0f2b"},"vehicle_type_id":"4","last_reported":1737638178,"current_range_meters":21600,"station_id":"ce4bhlh2rcd13ifvqgig","pricing_plan_id":"cebpf4jnsgd1na2vs0mg"},{"bike_id":"d902f773-2297-4aba-9f83-caf51b395911","system_id":"levelo_inurba_marseille","lat":43.25934,"lon":5.40921,"is_reserved":false,"is_disabled":false,"rental_uris":{"android":"levelo://app?vid=d902f773-2297-4aba-9f83-caf51b395911","ios":"levelo://app?vid=d902f773-2297-4aba-9f83-caf51b395911"},"vehicle_type_id":"4","last_reported":1737638178,"current_range_meters":14000,"station_id":"ce4bhm92rcd13ifvqglg","pricing_plan_id":"cebpf4jnsgd1na2vs0mg"},{"bike_id":"1970fe03-2a19-4871-a01b-17809d851312","system_id":"levelo_inurba_marseille","lat":43.243933,"lon":5.37051,"is_reserved":false,"is_disabled":false,"rental_uris":{"android":"levelo://app?vid=1970fe03-2a19-4871-a01b-17809d851312","ios":"levelo://app?vid=1970fe03-2a19-4871-a01b-17809d851312"},"vehicle_type_id":"4","last_reported":1737638178,"current_range_meters":38800,"station_id":"ce4bhhh2rcd13ifvqfk0","pricing_plan_id":"cebpf4jnsgd1na2vs0mg"},{"bike_id":"2c79079a-42ff-472f-8a01-e9cc8770acac","system_id":"levelo_inurba_marseille","lat":43.3015,"lon":5.37417,"is_reserved":false,"is_disabled":false,"rental_uris":{"android":"levelo://app?vid=2c79079a-42ff-472f-8a01-e9cc8770acac","ios":"levelo://app?vid=2c79079a-42ff-472f-8a01-e9cc8770acac"},"vehicle_type_id":"4","last_reported":1737638178,"current_range_meters":9600,"station_id":"ce4bgs92rcd13ifvqcc0","pricing_plan_id":"cebpf4jnsgd1na2vs0mg"},{"bike_id":"1ac06258-ad9a-434b-839f-fd5f6c847dd6","system_id":"levelo_inurba_marseille","lat":43.30554,"lon":5.36719,"is_reserved":false,"is_disabled":false,"rental_uris":{"android":"levelo://app?vid=1ac06258-ad9a-434b-839f-fd5f6c847dd6","ios":"levelo://app?vid=1ac06258-ad9a-434b-839f-fd5f6c847dd6"},"vehicle_type_id":"4","last_reported":1737638178,"current_range_meters":38800,"station_id":"ce4bgrp2rcd13ifvqc9g","pricing_plan_id":"cebpf4jnsgd1na2vs0mg"},{"bike_id":"6440f376-b0ac-4979-8b74-813c76d7599b","system_id":"levelo_inurba_marseille","lat":43.24174,"lon":5.39744,"is_reserved":false,"is_disabled":false,"rental_uris":{"android":"levelo://app?vid=6440f376-b0ac-4979-8b74-813c76d7599b","ios":"levelo://app?vid=6440f376-b0ac-4979-8b74-813c76d7599b"},"vehicle_type_id":"4","last_reported":1737638178,"current_range_meters":25200,"station_id":"ce4bhn12rcd13ifvqgpg","pricing_plan_id":"cebpf4jnsgd1na2vs0mg"},{"bike_id":"129c63d1-66cd-4b18-b0e1-44a164ce808d","system_id":"levelo_inurba_marseille","lat":43.2844,"lon":5.39206,"is_reserved":false,"is_disabled":false,"rental_uris":{"android":"levelo://app?vid=129c63d1-66cd-4b18-b0e1-44a164ce808d","ios":"levelo://app?vid=129c63d1-66cd-4b18-b0e1-44a164ce808d"},"vehicle_type_id":"4","last_reported":1737638178,"current_range_meters":9600,"station_id":"ce4bhoh2rcd13ifvqh5g","pricing_plan_id":"cebpf4jnsgd1na2vs0mg"},{"bike_id":"7cc48ac1-3857-4d15-a610-1211c730b7c1","system_id":"levelo_inurba_marseille","lat":43.29064,"lon":5.37173,"is_reserved":false,"is_disabled":false,"rental_uris":{"android":"levelo://app?vid=7cc48ac1-3857-4d15-a610-1211c730b7c1","ios":"levelo://app?vid=7cc48ac1-3857-4d15-a610-1211c730b7c1"},"vehicle_type_id":"4","last_reported":1737638178,"current_range_meters":25600,"station_id":"ce4bh5p2rcd13ifvqe4g","pricing_plan_id":"cebpf4jnsgd1na2vs0mg"},{"bike_id":"f98a7ee0-f9fe-4556-933e-ecf6827038e5","system_id":"levelo_inurba_marseille","lat":43.29176,"lon":5.35725,"is_reserved":false,"is_disabled":false,"rental_uris":{"android":"levelo://app?vid=f98a7ee0-f9fe-4556-933e-ecf6827038e5","ios":"levelo://app?vid=f98a7ee0-f9fe-4556-933e-ecf6827038e5"},"vehicle_type_id":"4","last_reported":1737638178,"current_range_meters":13600,"station_id":"","pricing_plan_id":"cebpf4jnsgd1na2vs0mg"},{"bike_id":"37b12b9d-16e5-42e2-a6c0-a10636bfd02f","system_id":"levelo_inurba_marseille","lat":43.27679,"lon":5.38881,"is_reserved":false,"is_disabled":false,"rental_uris":{"android":"levelo://app?vid=37b12b9d-16e5-42e2-a6c0-a10636bfd02f","ios":"levelo://app?vid=37b12b9d-16e5-42e2-a6c0-a10636bfd02f"},"vehicle_type_id":"4","last_reported":1737638178,"current_range_meters":36800,"station_id":"ce4bhi12rcd13ifvqfo0","pricing_plan_id":"cebpf4jnsgd1na2vs0mg"},{"bike_id":"90b8a1b1-ad54-458d-9362-f5197bbdf048","system_id":"levelo_inurba_marseille","lat":43.22925,"lon":5.3537,"is_reserved":false,"is_disabled":false,"rental_uris":{"android":"levelo://app?vid=90b8a1b1-ad54-458d-9362-f5197bbdf048","ios":"levelo://app?vid=90b8a1b1-ad54-458d-9362-f5197bbdf048"},"vehicle_type_id":"4","last_reported":1737638178,"current_range_meters":15200,"station_id":"cpo3532slgdg3j2ikp40","pricing_plan_id":"cebpf4jnsgd1na2vs0mg"},{"bike_id":"0ded85d8-2f57-4525-b0f1-4f36941d0e9f","system_id":"levelo_inurba_marseille","lat":43.33761,"lon":5.37432,"is_reserved":false,"is_disabled":false,"rental_uris":{"android":"levelo://app?vid=0ded85d8-2f57-4525-b0f1-4f36941d0e9f","ios":"levelo://app?vid=0ded85d8-2f57-4525-b0f1-4f36941d0e9f"},"vehicle_type_id":"4","last_reported":1737638178,"current_range_meters":25200,"station_id":"","pricing_plan_id":"cebpf4jnsgd1na2vs0mg"},{"bike_id":"91f957bd-7ae6-4841-8ac4-1ecdcd0c697e","system_id":"levelo_inurba_marseille","lat":43.31553,"lon":5.40187,"is_reserved":false,"is_disabled":false,"rental_uris":{"android":"levelo://app?vid=91f957bd-7ae6-4841-8ac4-1ecdcd0c697e","ios":"levelo://app?vid=91f957bd-7ae6-4841-8ac4-1ecdcd0c697e"},"vehicle_type_id":"4","last_reported":1737638178,"current_range_meters":25600,"station_id":"","pricing_plan_id":"cebpf4jnsgd1na2vs0mg"},{"bike_id":"632b28ad-d7cb-46af-a69c-c857c2a0764e","system_id":"levelo_inurba_marseille","lat":43.27057,"lon":5.40258,"is_reserved":false,"is_disabled":false,"rental_uris":{"android":"levelo://app?vid=632b28ad-d7cb-46af-a69c-c857c2a0764e","ios":"levelo://app?vid=632b28ad-d7cb-46af-a69c-c857c2a0764e"},"vehicle_type_id":"4","last_reported":1737638178,"current_range_meters":16000,"station_id":"ce4bhk92rcd13ifvqgc0","pricing_plan_id":"cebpf4jnsgd1na2vs0mg"},{"bike_id":"e1e8184d-cf44-47c1-885e-c915f3b506e6","system_id":"levelo_inurba_marseille","lat":43.29917,"lon":5.37472,"is_reserved":false,"is_disabled":false,"rental_uris":{"android":"levelo://app?vid=e1e8184d-cf44-47c1-885e-c915f3b506e6","ios":"levelo://app?vid=e1e8184d-cf44-47c1-885e-c915f3b506e6"},"vehicle_type_id":"4","last_reported":1737638178,"current_range_meters":38800,"station_id":"ce4bgjh2rcd13ifvqbg0","pricing_plan_id":"cebpf4jnsgd1na2vs0mg"},{"bike_id":"591834fe-f8c6-4545-b88f-3dd55b538d22","system_id":"levelo_inurba_marseille","lat":43.28936,"lon":5.36639,"is_reserved":false,"is_disabled":false,"rental_uris":{"android":"levelo://app?vid=591834fe-f8c6-4545-b88f-3dd55b538d22","ios":"levelo://app?vid=591834fe-f8c6-4545-b88f-3dd55b538d22"},"vehicle_type_id":"4","last_reported":1737638178,"current_range_meters":34000,"station_id":"ce4bhap2rcd13ifvqek0","pricing_plan_id":"cebpf4jnsgd1na2vs0mg"},{"bike_id":"c4500821-8242-4f17-be4b-8a8e65d70c73","system_id":"levelo_inurba_marseille","lat":43.23149,"lon":5.43727,"is_reserved":false,"is_disabled":false,"rental_uris":{"android":"levelo://app?vid=c4500821-8242-4f17-be4b-8a8e65d70c73","ios":"levelo://app?vid=c4500821-8242-4f17-be4b-8a8e65d70c73"},"vehicle_type_id":"4","last_reported":1737638178,"current_range_meters":38800,"station_id":"ce4bhmp2rcd13ifvqgog","pricing_plan_id":"cebpf4jnsgd1na2vs0mg"},{"bike_id":"1ee7bef7-447c-4f95-ad64-879a9495723d","system_id":"levelo_inurba_marseille","lat":43.30277,"lon":5.37713,"is_reserved":false,"is_disabled":false,"rental_uris":{"android":"levelo://app?vid=1ee7bef7-447c-4f95-ad64-879a9495723d","ios":"levelo://app?vid=1ee7bef7-447c-4f95-ad64-879a9495723d"},"vehicle_type_id":"4","last_reported":1737638178,"current_range_meters":30800,"station_id":"ce4bha92rcd13ifvqeg0","pricing_plan_id":"cebpf4jnsgd1na2vs0mg"},{"bike_id":"d18f1375-d2a0-413b-a691-b9ceda5e2483","system_id":"levelo_inurba_marseille","lat":43.29932,"lon":5.3655,"is_reserved":false,"is_disabled":true,"rental_uris":{"android":"levelo://app?vid=d18f1375-d2a0-413b-a691-b9ceda5e2483","ios":"levelo://app?vid=d18f1375-d2a0-413b-a691-b9ceda5e2483"},"vehicle_type_id":"4","last_reported":1737638178,"current_range_meters":400,"station_id":"ce4bgm92rcd13ifvqbr0","pricing_plan_id":"cebpf4jnsgd1na2vs0mg"},{"bike_id":"93272e05-df9a-4f00-9250-d844fb579635","system_id":"levelo_inurba_marseille","lat":43.29845,"lon":5.36294,"is_reserved":false,"is_disabled":false,"rental_uris":{"android":"levelo://app?vid=93272e05-df9a-4f00-9250-d844fb579635","ios":"levelo://app?vid=93272e05-df9a-4f00-9250-d844fb579635"},"vehicle_type_id":"4","last_reported":1737638178,"current_range_meters":17200,"station_id":"ce4bgpp2rcd13ifvqc3g","pricing_plan_id":"cebpf4jnsgd1na2vs0mg"},{"bike_id":"ce90fea6-ff2a-4d0b-bd4f-45ced0acf4c0","system_id":"levelo_inurba_marseille","lat":43.32363,"lon":5.36761,"is_reserved":false,"is_disabled":false,"rental_uris":{"android":"levelo://app?vid=ce90fea6-ff2a-4d0b-bd4f-45ced0acf4c0","ios":"levelo://app?vid=ce90fea6-ff2a-4d0b-bd4f-45ced0acf4c0"},"vehicle_type_id":"4","last_reported":1737638178,"current_range_meters":11200,"station_id":"ce4bhsh2rcd13ifvqi2g","pricing_plan_id":"cebpf4jnsgd1na2vs0mg"},{"bike_id":"86fd106f-ae3d-4a03-b71e-21f70bbbae9b","system_id":"levelo_inurba_marseille","lat":43.27825,"lon":5.40708,"is_reserved":false,"is_disabled":false,"rental_uris":{"android":"levelo://app?vid=86fd106f-ae3d-4a03-b71e-21f70bbbae9b","ios":"levelo://app?vid=86fd106f-ae3d-4a03-b71e-21f70bbbae9b"},"vehicle_type_id":"4","last_reported":1737638178,"current_range_meters":36800,"station_id":"ce4bhnh2rcd13ifvqgtg","pricing_plan_id":"cebpf4jnsgd1na2vs0mg"},{"bike_id":"ab13439f-1c4b-4b83-ac72-9f4e6d1f64cb","system_id":"levelo_inurba_marseille","lat":43.31241,"lon":5.37985,"is_reserved":false,"is_disabled":true,"rental_uris":{"android":"levelo://app?vid=ab13439f-1c4b-4b83-ac72-9f4e6d1f64cb","ios":"levelo://app?vid=ab13439f-1c4b-4b83-ac72-9f4e6d1f64cb"},"vehicle_type_id":"4","last_reported":1737638178,"current_range_meters":10800,"station_id":"","pricing_plan_id":"cebpf4jnsgd1na2vs0mg"},{"bike_id":"a09f82a5-c201-4965-b9f8-30fe55c94091","system_id":"levelo_inurba_marseille","lat":43.24072,"lon":5.37756,"is_reserved":false,"is_disabled":false,"rental_uris":{"android":"levelo://app?vid=a09f82a5-c201-4965-b9f8-30fe55c94091","ios":"levelo://app?vid=a09f82a5-c201-4965-b9f8-30fe55c94091"},"vehicle_type_id":"4","last_reported":1737638178,"current_range_meters":38800,"station_id":"ce4bhnp2rcd13ifvqgvg","pricing_plan_id":"cebpf4jnsgd1na2vs0mg"},{"bike_id":"02394dc5-85af-47df-a8e1-31c154c9e2cc","system_id":"levelo_inurba_marseille","lat":43.231875,"lon":5.399778,"is_reserved":false,"is_disabled":false,"rental_uris":{"android":"levelo://app?vid=02394dc5-85af-47df-a8e1-31c154c9e2cc","ios":"levelo://app?vid=02394dc5-85af-47df-a8e1-31c154c9e2cc"},"vehicle_type_id":"4","last_reported":1737638178,"current_range_meters":38400,"station_id":"ce4bhn12rcd13ifvqgqg","pricing_plan_id":"cebpf4jnsgd1na2vs0mg"},{"bike_id":"bb8c0024-8ef4-4e0a-8c3e-3981d2dbeeca","system_id":"levelo_inurba_marseille","lat":43.29254,"lon":5.40896,"is_reserved":false,"is_disabled":false,"rental_uris":{"android":"levelo://app?vid=bb8c0024-8ef4-4e0a-8c3e-3981d2dbeeca","ios":"levelo://app?vid=bb8c0024-8ef4-4e0a-8c3e-3981d2dbeeca"},"vehicle_type_id":"4","last_reported":1737638178,"current_range_meters":36000,"station_id":"ce4bh192rcd13ifvqdc0","pricing_plan_id":"cebpf4jnsgd1na2vs0mg"},{"bike_id":"9852a9dc-943a-442f-9475-a08ad558062a","system_id":"levelo_inurba_marseille","lat":43.302747,"lon":5.3771,"is_reserved":false,"is_disabled":false,"rental_uris":{"android":"levelo://app?vid=9852a9dc-943a-442f-9475-a08ad558062a","ios":"levelo://app?vid=9852a9dc-943a-442f-9475-a08ad558062a"},"vehicle_type_id":"4","last_reported":1737638178,"current_range_meters":38800,"station_id":"ce4bguh2rcd13ifvqcj0","pricing_plan_id":"cebpf4jnsgd1na2vs0mg"},{"bike_id":"3b00ebc0-44f0-4cc6-85c8-3445a179976f","system_id":"levelo_inurba_marseille","lat":43.306,"lon":5.37233,"is_reserved":false,"is_disabled":false,"rental_uris":{"android":"levelo://app?vid=3b00ebc0-44f0-4cc6-85c8-3445a179976f","ios":"levelo://app?vid=3b00ebc0-44f0-4cc6-85c8-3445a179976f"},"vehicle_type_id":"4","last_reported":1737638178,"current_range_meters":32800,"station_id":"ce4bgqh2rcd13ifvqc4g","pricing_plan_id":"cebpf4jnsgd1na2vs0mg"},{"bike_id":"69c47985-dae8-486f-a22e-57ba7614bd83","system_id":"levelo_inurba_marseille","lat":43.2996,"lon":5.41336,"is_reserved":false,"is_disabled":false,"rental_uris":{"android":"levelo://app?vid=69c47985-dae8-486f-a22e-57ba7614bd83","ios":"levelo://app?vid=69c47985-dae8-486f-a22e-57ba7614bd83"},"vehicle_type_id":"4","last_reported":1737638178,"current_range_meters":27200,"station_id":"ce4bhp12rcd13ifvqh9g","pricing_plan_id":"cebpf4jnsgd1na2vs0mg"},{"bike_id":"704b9ac4-08a6-48ef-85ea-bb2a6455baf7","system_id":"levelo_inurba_marseille","lat":43.26208,"lon":5.37918,"is_reserved":false,"is_disabled":false,"rental_uris":{"android":"levelo://app?vid=704b9ac4-08a6-48ef-85ea-bb2a6455baf7","ios":"levelo://app?vid=704b9ac4-08a6-48ef-85ea-bb2a6455baf7"},"vehicle_type_id":"4","last_reported":1737638178,"current_range_meters":39200,"station_id":"ce4bhjp2rcd13ifvqg90","pricing_plan_id":"cebpf4jnsgd1na2vs0mg"},{"bike_id":"41ebfe12-c40b-4ba1-bad3-6af3e9375382","system_id":"levelo_inurba_marseille","lat":43.29973,"lon":5.38492,"is_reserved":false,"is_disabled":true,"rental_uris":{"android":"levelo://app?vid=41ebfe12-c40b-4ba1-bad3-6af3e9375382","ios":"levelo://app?vid=41ebfe12-c40b-4ba1-bad3-6af3e9375382"},"vehicle_type_id":"4","last_reported":1737638178,"current_range_meters":0,"station_id":"ce4bgj92rcd13ifvqbd0","pricing_plan_id":"cebpf4jnsgd1na2vs0mg"},{"bike_id":"6d7c8f09-d269-42e8-961c-bf0125e99474","system_id":"levelo_inurba_marseille","lat":43.28717,"lon":5.37987,"is_reserved":false,"is_disabled":false,"rental_uris":{"android":"levelo://app?vid=6d7c8f09-d269-42e8-961c-bf0125e99474","ios":"levelo://app?vid=6d7c8f09-d269-42e8-961c-bf0125e99474"},"vehicle_type_id":"4","last_reported":1737638178,"current_range_meters":20400,"station_id":"ce4bh9p2rcd13ifvqec0","pricing_plan_id":"cebpf4jnsgd1na2vs0mg"},{"bike_id":"cb89451d-fcbc-47ab-bfa4-263d9c5e103c","system_id":"levelo_inurba_marseille","lat":43.24996,"lon":5.38945,"is_reserved":false,"is_disabled":false,"rental_uris":{"android":"levelo://app?vid=cb89451d-fcbc-47ab-bfa4-263d9c5e103c","ios":"levelo://app?vid=cb89451d-fcbc-47ab-bfa4-263d9c5e103c"},"vehicle_type_id":"4","last_reported":1737638178,"current_range_meters":30000,"station_id":"ce4bhgp2rcd13ifvqfd0","pricing_plan_id":"cebpf4jnsgd1na2vs0mg"},{"bike_id":"c4db15ea-eb22-409d-a92c-518ac96d96dd","system_id":"levelo_inurba_marseille","lat":43.2956,"lon":5.42284,"is_reserved":false,"is_disabled":false,"rental_uris":{"android":"levelo://app?vid=c4db15ea-eb22-409d-a92c-518ac96d96dd","ios":"levelo://app?vid=c4db15ea-eb22-409d-a92c-518ac96d96dd"},"vehicle_type_id":"4","last_reported":1737638178,"current_range_meters":37600,"station_id":"ce4bhph2rcd13ifvqhdg","pricing_plan_id":"cebpf4jnsgd1na2vs0mg"},{"bike_id":"6b125c51-5c41-42fb-9f43-d4aebecc8e1f","system_id":"levelo_inurba_marseille","lat":43.29026,"lon":5.37572,"is_reserved":false,"is_disabled":false,"rental_uris":{"android":"levelo://app?vid=6b125c51-5c41-42fb-9f43-d4aebecc8e1f","ios":"levelo://app?vid=6b125c51-5c41-42fb-9f43-d4aebecc8e1f"},"vehicle_type_id":"4","last_reported":1737638178,"current_range_meters":27600,"station_id":"ce4bh692rcd13ifvqe90","pricing_plan_id":"cebpf4jnsgd1na2vs0mg"},{"bike_id":"2876aca2-4ddb-4f16-984a-1efd2877960c","system_id":"levelo_inurba_marseille","lat":43.33724,"lon":5.39191,"is_reserved":false,"is_disabled":false,"rental_uris":{"android":"levelo://app?vid=2876aca2-4ddb-4f16-984a-1efd2877960c","ios":"levelo://app?vid=2876aca2-4ddb-4f16-984a-1efd2877960c"},"vehicle_type_id":"4","last_reported":1737638178,"current_range_meters":38800,"station_id":"ce4bhr92rcd13ifvqhsg","pricing_plan_id":"cebpf4jnsgd1na2vs0mg"},{"bike_id":"3a584a2d-0bec-48d3-bef1-1f525427e3b5","system_id":"levelo_inurba_marseille","lat":43.31335,"lon":5.39658,"is_reserved":false,"is_disabled":false,"rental_uris":{"android":"levelo://app?vid=3a584a2d-0bec-48d3-bef1-1f525427e3b5","ios":"levelo://app?vid=3a584a2d-0bec-48d3-bef1-1f525427e3b5"},"vehicle_type_id":"4","last_reported":1737638178,"current_range_meters":38800,"station_id":"ce4bgvp2rcd13ifvqcu0","pricing_plan_id":"cebpf4jnsgd1na2vs0mg"},{"bike_id":"3e1f84e6-5956-4433-9e0c-5a69ccb192ca","system_id":"levelo_inurba_marseille","lat":43.27549,"lon":5.42391,"is_reserved":false,"is_disabled":false,"rental_uris":{"android":"levelo://app?vid=3e1f84e6-5956-4433-9e0c-5a69ccb192ca","ios":"levelo://app?vid=3e1f84e6-5956-4433-9e0c-5a69ccb192ca"},"vehicle_type_id":"4","last_reported":1737638178,"current_range_meters":1200,"station_id":"ce4bhn92rcd13ifvqgrg","pricing_plan_id":"cebpf4jnsgd1na2vs0mg"},{"bike_id":"fc0abc3e-3dd9-4426-bd49-faf33e935976","system_id":"levelo_inurba_marseille","lat":43.32464,"lon":5.36574,"is_reserved":false,"is_disabled":false,"rental_uris":{"android":"levelo://app?vid=fc0abc3e-3dd9-4426-bd49-faf33e935976","ios":"levelo://app?vid=fc0abc3e-3dd9-4426-bd49-faf33e935976"},"vehicle_type_id":"4","last_reported":1737638178,"current_range_meters":38400,"station_id":"ce4bhs12rcd13ifvqhvg","pricing_plan_id":"cebpf4jnsgd1na2vs0mg"},{"bike_id":"b961f1cf-d10d-49f9-8fe5-c156ac9fbab7","system_id":"levelo_inurba_marseille","lat":43.30159,"lon":5.38102,"is_reserved":false,"is_disabled":false,"rental_uris":{"android":"levelo://app?vid=b961f1cf-d10d-49f9-8fe5-c156ac9fbab7","ios":"levelo://app?vid=b961f1cf-d10d-49f9-8fe5-c156ac9fbab7"},"vehicle_type_id":"4","last_reported":1737638178,"current_range_meters":32400,"station_id":"ce4bgjp2rcd13ifvqbh0","pricing_plan_id":"cebpf4jnsgd1na2vs0mg"},{"bike_id":"1a5339e9-e9c1-4587-ac5d-608e9a7f7e5c","system_id":"levelo_inurba_marseille","lat":43.23147,"lon":5.43724,"is_reserved":false,"is_disabled":false,"rental_uris":{"android":"levelo://app?vid=1a5339e9-e9c1-4587-ac5d-608e9a7f7e5c","ios":"levelo://app?vid=1a5339e9-e9c1-4587-ac5d-608e9a7f7e5c"},"vehicle_type_id":"4","last_reported":1737638178,"current_range_meters":12400,"station_id":"ce4bhmp2rcd13ifvqgog","pricing_plan_id":"cebpf4jnsgd1na2vs0mg"},{"bike_id":"64bad767-03f7-48a2-b672-0ad4707c5f61","system_id":"levelo_inurba_marseille","lat":43.27491,"lon":5.42456,"is_reserved":false,"is_disabled":false,"rental_uris":{"android":"levelo://app?vid=64bad767-03f7-48a2-b672-0ad4707c5f61","ios":"levelo://app?vid=64bad767-03f7-48a2-b672-0ad4707c5f61"},"vehicle_type_id":"4","last_reported":1737638178,"current_range_meters":19600,"station_id":"ce4bhn92rcd13ifvqgrg","pricing_plan_id":"cebpf4jnsgd1na2vs0mg"},{"bike_id":"4990e753-30e1-4850-aa11-d0eab106f6e5","system_id":"levelo_inurba_marseille","lat":43.24162,"lon":5.36396,"is_reserved":false,"is_disabled":false,"rental_uris":{"android":"levelo://app?vid=4990e753-30e1-4850-aa11-d0eab106f6e5","ios":"levelo://app?vid=4990e753-30e1-4850-aa11-d0eab106f6e5"},"vehicle_type_id":"4","last_reported":1737638178,"current_range_meters":32800,"station_id":"cpo36qri1sfpv3e86is0","pricing_plan_id":"cebpf4jnsgd1na2vs0mg"},{"bike_id":"b0e02c59-044a-46ea-ae6d-ca3bdebcd373","system_id":"levelo_inurba_marseille","lat":43.27495,"lon":5.42451,"is_reserved":false,"is_disabled":false,"rental_uris":{"android":"levelo://app?vid=b0e02c59-044a-46ea-ae6d-ca3bdebcd373","ios":"levelo://app?vid=b0e02c59-044a-46ea-ae6d-ca3bdebcd373"},"vehicle_type_id":"4","last_reported":1737638178,"current_range_meters":33600,"station_id":"ce4bhn92rcd13ifvqgrg","pricing_plan_id":"cebpf4jnsgd1na2vs0mg"},{"bike_id":"c8896fd7-cc93-440e-b1e4-1e5f407acaa1","system_id":"levelo_inurba_marseille","lat":43.295288,"lon":5.38536,"is_reserved":false,"is_disabled":false,"rental_uris":{"android":"levelo://app?vid=c8896fd7-cc93-440e-b1e4-1e5f407acaa1","ios":"levelo://app?vid=c8896fd7-cc93-440e-b1e4-1e5f407acaa1"},"vehicle_type_id":"4","last_reported":1737638178,"current_range_meters":16000,"station_id":"ce4bgih2rcd13ifvqba0","pricing_plan_id":"cebpf4jnsgd1na2vs0mg"},{"bike_id":"232b25b7-fa81-4630-9104-082348ac0480","system_id":"levelo_inurba_marseille","lat":43.28002,"lon":5.40015,"is_reserved":false,"is_disabled":false,"rental_uris":{"android":"levelo://app?vid=232b25b7-fa81-4630-9104-082348ac0480","ios":"levelo://app?vid=232b25b7-fa81-4630-9104-082348ac0480"},"vehicle_type_id":"4","last_reported":1737638178,"current_range_meters":39200,"station_id":"ce4bho92rcd13ifvqh4g","pricing_plan_id":"cebpf4jnsgd1na2vs0mg"},{"bike_id":"e27655d4-4288-4bf0-b85c-3c846dba64a1","system_id":"levelo_inurba_marseille","lat":43.29844,"lon":5.36275,"is_reserved":false,"is_disabled":false,"rental_uris":{"android":"levelo://app?vid=e27655d4-4288-4bf0-b85c-3c846dba64a1","ios":"levelo://app?vid=e27655d4-4288-4bf0-b85c-3c846dba64a1"},"vehicle_type_id":"4","last_reported":1737638178,"current_range_meters":36800,"station_id":"ce4bgpp2rcd13ifvqc3g","pricing_plan_id":"cebpf4jnsgd1na2vs0mg"},{"bike_id":"8da8cb2e-4804-4a75-b9d1-9b31a3de6fd6","system_id":"levelo_inurba_marseille","lat":43.26687,"lon":5.38286,"is_reserved":false,"is_disabled":false,"rental_uris":{"android":"levelo://app?vid=8da8cb2e-4804-4a75-b9d1-9b31a3de6fd6","ios":"levelo://app?vid=8da8cb2e-4804-4a75-b9d1-9b31a3de6fd6"},"vehicle_type_id":"4","last_reported":1737638178,"current_range_meters":38800,"station_id":"ce4bhg92rcd13ifvqf90","pricing_plan_id":"cebpf4jnsgd1na2vs0mg"},{"bike_id":"3e8fdfca-efbd-46d6-bc4a-2990733d0faf","system_id":"levelo_inurba_marseille","lat":43.29935,"lon":5.36558,"is_reserved":false,"is_disabled":false,"rental_uris":{"android":"levelo://app?vid=3e8fdfca-efbd-46d6-bc4a-2990733d0faf","ios":"levelo://app?vid=3e8fdfca-efbd-46d6-bc4a-2990733d0faf"},"vehicle_type_id":"4","last_reported":1737638178,"current_range_meters":9600,"station_id":"ce4bgm92rcd13ifvqbr0","pricing_plan_id":"cebpf4jnsgd1na2vs0mg"},{"bike_id":"e175c8ae-eefb-43b9-b93c-629f8aa7d7ed","system_id":"levelo_inurba_marseille","lat":43.3126,"lon":5.40161,"is_reserved":false,"is_disabled":false,"rental_uris":{"android":"levelo://app?vid=e175c8ae-eefb-43b9-b93c-629f8aa7d7ed","ios":"levelo://app?vid=e175c8ae-eefb-43b9-b93c-629f8aa7d7ed"},"vehicle_type_id":"4","last_reported":1737638178,"current_range_meters":32400,"station_id":"ce4bh092rcd13ifvqd30","pricing_plan_id":"cebpf4jnsgd1na2vs0mg"},{"bike_id":"03d25adc-64b9-4ef7-906a-c7311dc8090c","system_id":"levelo_inurba_marseille","lat":43.30442,"lon":5.39748,"is_reserved":false,"is_disabled":false,"rental_uris":{"android":"levelo://app?vid=03d25adc-64b9-4ef7-906a-c7311dc8090c","ios":"levelo://app?vid=03d25adc-64b9-4ef7-906a-c7311dc8090c"},"vehicle_type_id":"4","last_reported":1737638178,"current_range_meters":39200,"station_id":"ce4bh092rcd13ifvqd20","pricing_plan_id":"cebpf4jnsgd1na2vs0mg"},{"bike_id":"22b6b1e8-1d5b-445d-9ddc-66599efca459","system_id":"levelo_inurba_marseille","lat":43.26944,"lon":5.38668,"is_reserved":false,"is_disabled":false,"rental_uris":{"android":"levelo://app?vid=22b6b1e8-1d5b-445d-9ddc-66599efca459","ios":"levelo://app?vid=22b6b1e8-1d5b-445d-9ddc-66599efca459"},"vehicle_type_id":"4","last_reported":1737638178,"current_range_meters":37600,"station_id":"ce4bhh92rcd13ifvqfh0","pricing_plan_id":"cebpf4jnsgd1na2vs0mg"},{"bike_id":"7f238f13-34cc-46d2-91da-6d4e9923c58a","system_id":"levelo_inurba_marseille","lat":43.29913,"lon":5.37495,"is_reserved":false,"is_disabled":false,"rental_uris":{"android":"levelo://app?vid=7f238f13-34cc-46d2-91da-6d4e9923c58a","ios":"levelo://app?vid=7f238f13-34cc-46d2-91da-6d4e9923c58a"},"vehicle_type_id":"4","last_reported":1737638178,"current_range_meters":7200,"station_id":"ce4bgjh2rcd13ifvqbg0","pricing_plan_id":"cebpf4jnsgd1na2vs0mg"},{"bike_id":"acc9e968-42f2-443f-bb58-cd32856c66f2","system_id":"levelo_inurba_marseille","lat":43.28397,"lon":5.37526,"is_reserved":false,"is_disabled":false,"rental_uris":{"android":"levelo://app?vid=acc9e968-42f2-443f-bb58-cd32856c66f2","ios":"levelo://app?vid=acc9e968-42f2-443f-bb58-cd32856c66f2"},"vehicle_type_id":"4","last_reported":1737638178,"current_range_meters":10000,"station_id":"ce4bh412rcd13ifvqds0","pricing_plan_id":"cebpf4jnsgd1na2vs0mg"},{"bike_id":"f2e3f017-59bd-4d1a-993d-bdfbc3a264f0","system_id":"levelo_inurba_marseille","lat":43.27834,"lon":5.39214,"is_reserved":false,"is_disabled":false,"rental_uris":{"android":"levelo://app?vid=f2e3f017-59bd-4d1a-993d-bdfbc3a264f0","ios":"levelo://app?vid=f2e3f017-59bd-4d1a-993d-bdfbc3a264f0"},"vehicle_type_id":"4","last_reported":1737638178,"current_range_meters":37600,"station_id":"ce4bhjp2rcd13ifvqga0","pricing_plan_id":"cebpf4jnsgd1na2vs0mg"},{"bike_id":"bdc9df5b-15df-4da6-8498-c1412c4f1ee3","system_id":"levelo_inurba_marseille","lat":43.26942,"lon":5.3865,"is_reserved":false,"is_disabled":false,"rental_uris":{"android":"levelo://app?vid=bdc9df5b-15df-4da6-8498-c1412c4f1ee3","ios":"levelo://app?vid=bdc9df5b-15df-4da6-8498-c1412c4f1ee3"},"vehicle_type_id":"4","last_reported":1737638178,"current_range_meters":36400,"station_id":"ce4bhh92rcd13ifvqfh0","pricing_plan_id":"cebpf4jnsgd1na2vs0mg"},{"bike_id":"35614ed7-a0df-4792-bca2-a1978fcd9fab","system_id":"levelo_inurba_marseille","lat":43.30811,"lon":5.43514,"is_reserved":false,"is_disabled":true,"rental_uris":{"android":"levelo://app?vid=35614ed7-a0df-4792-bca2-a1978fcd9fab","ios":"levelo://app?vid=35614ed7-a0df-4792-bca2-a1978fcd9fab"},"vehicle_type_id":"4","last_reported":1737638178,"current_range_meters":0,"station_id":"ce4bhph2rcd13ifvqheg","pricing_plan_id":"cebpf4jnsgd1na2vs0mg"},{"bike_id":"8eb6afcd-9980-4ebe-a588-27f5af85469d","system_id":"levelo_inurba_marseille","lat":43.26941,"lon":5.38671,"is_reserved":false,"is_disabled":false,"rental_uris":{"android":"levelo://app?vid=8eb6afcd-9980-4ebe-a588-27f5af85469d","ios":"levelo://app?vid=8eb6afcd-9980-4ebe-a588-27f5af85469d"},"vehicle_type_id":"4","last_reported":1737638178,"current_range_meters":16800,"station_id":"ce4bhh92rcd13ifvqfh0","pricing_plan_id":"cebpf4jnsgd1na2vs0mg"},{"bike_id":"eec29bcc-4db9-490c-8509-0569ef65d3a4","system_id":"levelo_inurba_marseille","lat":43.23148,"lon":5.43707,"is_reserved":false,"is_disabled":false,"rental_uris":{"android":"levelo://app?vid=eec29bcc-4db9-490c-8509-0569ef65d3a4","ios":"levelo://app?vid=eec29bcc-4db9-490c-8509-0569ef65d3a4"},"vehicle_type_id":"4","last_reported":1737638178,"current_range_meters":38800,"station_id":"ce4bhmp2rcd13ifvqgog","pricing_plan_id":"cebpf4jnsgd1na2vs0mg"},{"bike_id":"91151293-54a7-4717-83f7-c5a75314aca3","system_id":"levelo_inurba_marseille","lat":43.25004,"lon":5.38935,"is_reserved":false,"is_disabled":false,"rental_uris":{"android":"levelo://app?vid=91151293-54a7-4717-83f7-c5a75314aca3","ios":"levelo://app?vid=91151293-54a7-4717-83f7-c5a75314aca3"},"vehicle_type_id":"4","last_reported":1737638178,"current_range_meters":15200,"station_id":"ce4bhgp2rcd13ifvqfd0","pricing_plan_id":"cebpf4jnsgd1na2vs0mg"},{"bike_id":"68a8a087-e891-4c50-87ad-f3c162b8f1a9","system_id":"levelo_inurba_marseille","lat":43.29936,"lon":5.3654,"is_reserved":false,"is_disabled":false,"rental_uris":{"android":"levelo://app?vid=68a8a087-e891-4c50-87ad-f3c162b8f1a9","ios":"levelo://app?vid=68a8a087-e891-4c50-87ad-f3c162b8f1a9"},"vehicle_type_id":"4","last_reported":1737638178,"current_range_meters":24400,"station_id":"ce4bgm92rcd13ifvqbr0","pricing_plan_id":"cebpf4jnsgd1na2vs0mg"},{"bike_id":"5e0169dd-cfb6-4345-b9e5-59ab64e75e4d","system_id":"levelo_inurba_marseille","lat":43.32302,"lon":5.38269,"is_reserved":false,"is_disabled":false,"rental_uris":{"android":"levelo://app?vid=5e0169dd-cfb6-4345-b9e5-59ab64e75e4d","ios":"levelo://app?vid=5e0169dd-cfb6-4345-b9e5-59ab64e75e4d"},"vehicle_type_id":"4","last_reported":1737638178,"current_range_meters":39200,"station_id":"ce4bhr12rcd13ifvqhqg","pricing_plan_id":"cebpf4jnsgd1na2vs0mg"},{"bike_id":"96bd9e64-ec79-445f-af92-f8aeeeeb8575","system_id":"levelo_inurba_marseille","lat":43.28386,"lon":5.37547,"is_reserved":false,"is_disabled":false,"rental_uris":{"android":"levelo://app?vid=96bd9e64-ec79-445f-af92-f8aeeeeb8575","ios":"levelo://app?vid=96bd9e64-ec79-445f-af92-f8aeeeeb8575"},"vehicle_type_id":"4","last_reported":1737638178,"current_range_meters":9200,"station_id":"ce4bh412rcd13ifvqds0","pricing_plan_id":"cebpf4jnsgd1na2vs0mg"},{"bike_id":"554d3b69-abb7-4aa8-948d-4f3f1d465343","system_id":"levelo_inurba_marseille","lat":43.29268,"lon":5.36846,"is_reserved":false,"is_disabled":false,"rental_uris":{"android":"levelo://app?vid=554d3b69-abb7-4aa8-948d-4f3f1d465343","ios":"levelo://app?vid=554d3b69-abb7-4aa8-948d-4f3f1d465343"},"vehicle_type_id":"4","last_reported":1737638178,"current_range_meters":35200,"station_id":"ce4bhbp2rcd13ifvqesg","pricing_plan_id":"cebpf4jnsgd1na2vs0mg"},{"bike_id":"58bd67b2-eea0-4ad2-8092-8cb589d6733b","system_id":"levelo_inurba_marseille","lat":43.30797,"lon":5.43533,"is_reserved":false,"is_disabled":false,"rental_uris":{"android":"levelo://app?vid=58bd67b2-eea0-4ad2-8092-8cb589d6733b","ios":"levelo://app?vid=58bd67b2-eea0-4ad2-8092-8cb589d6733b"},"vehicle_type_id":"4","last_reported":1737638178,"current_range_meters":5600,"station_id":"ce4bhph2rcd13ifvqheg","pricing_plan_id":"cebpf4jnsgd1na2vs0mg"},{"bike_id":"b7484b8b-3a71-45d6-b948-aa32b13a1995","system_id":"levelo_inurba_marseille","lat":43.29905,"lon":5.43656,"is_reserved":false,"is_disabled":false,"rental_uris":{"android":"levelo://app?vid=b7484b8b-3a71-45d6-b948-aa32b13a1995","ios":"levelo://app?vid=b7484b8b-3a71-45d6-b948-aa32b13a1995"},"vehicle_type_id":"4","last_reported":1737638178,"current_range_meters":19200,"station_id":"ce4bhpp2rcd13ifvqhfg","pricing_plan_id":"cebpf4jnsgd1na2vs0mg"},{"bike_id":"174ef919-1de8-4476-8071-7ce5e1cde64a","system_id":"levelo_inurba_marseille","lat":43.26958,"lon":5.38624,"is_reserved":false,"is_disabled":false,"rental_uris":{"android":"levelo://app?vid=174ef919-1de8-4476-8071-7ce5e1cde64a","ios":"levelo://app?vid=174ef919-1de8-4476-8071-7ce5e1cde64a"},"vehicle_type_id":"4","last_reported":1737638178,"current_range_meters":22800,"station_id":"ce4bhh92rcd13ifvqfh0","pricing_plan_id":"cebpf4jnsgd1na2vs0mg"},{"bike_id":"3a9ffe19-36eb-4ecb-a745-2c76908c6c21","system_id":"levelo_inurba_marseille","lat":43.2926,"lon":5.40146,"is_reserved":false,"is_disabled":false,"rental_uris":{"android":"levelo://app?vid=3a9ffe19-36eb-4ecb-a745-2c76908c6c21","ios":"levelo://app?vid=3a9ffe19-36eb-4ecb-a745-2c76908c6c21"},"vehicle_type_id":"4","last_reported":1737638178,"current_range_meters":24800,"station_id":"ce4bh312rcd13ifvqdk0","pricing_plan_id":"cebpf4jnsgd1na2vs0mg"},{"bike_id":"549b1928-e1cf-4e8f-979d-82ddd1e2f667","system_id":"levelo_inurba_marseille","lat":43.3188,"lon":5.40741,"is_reserved":false,"is_disabled":false,"rental_uris":{"android":"levelo://app?vid=549b1928-e1cf-4e8f-979d-82ddd1e2f667","ios":"levelo://app?vid=549b1928-e1cf-4e8f-979d-82ddd1e2f667"},"vehicle_type_id":"4","last_reported":1737638178,"current_range_meters":38800,"station_id":"ce4bhq12rcd13ifvqhig","pricing_plan_id":"cebpf4jnsgd1na2vs0mg"},{"bike_id":"96cda4c7-fc0d-4970-8088-9d09b17097e5","system_id":"levelo_inurba_marseille","lat":43.30883,"lon":5.39633,"is_reserved":false,"is_disabled":false,"rental_uris":{"android":"levelo://app?vid=96cda4c7-fc0d-4970-8088-9d09b17097e5","ios":"levelo://app?vid=96cda4c7-fc0d-4970-8088-9d09b17097e5"},"vehicle_type_id":"4","last_reported":1737638178,"current_range_meters":38800,"station_id":"ce4bh012rcd13ifvqcv0","pricing_plan_id":"cebpf4jnsgd1na2vs0mg"},{"bike_id":"d9f4f2e8-8967-412a-b305-5086ad38794d","system_id":"levelo_inurba_marseille","lat":43.32046,"lon":5.41577,"is_reserved":false,"is_disabled":false,"rental_uris":{"android":"levelo://app?vid=d9f4f2e8-8967-412a-b305-5086ad38794d","ios":"levelo://app?vid=d9f4f2e8-8967-412a-b305-5086ad38794d"},"vehicle_type_id":"4","last_reported":1737638178,"current_range_meters":38000,"station_id":"ce4bhq92rcd13ifvqhkg","pricing_plan_id":"cebpf4jnsgd1na2vs0mg"},{"bike_id":"4ec96207-5c88-4957-875c-7fb36b853318","system_id":"levelo_inurba_marseille","lat":43.30964,"lon":5.39042,"is_reserved":false,"is_disabled":false,"rental_uris":{"android":"levelo://app?vid=4ec96207-5c88-4957-875c-7fb36b853318","ios":"levelo://app?vid=4ec96207-5c88-4957-875c-7fb36b853318"},"vehicle_type_id":"4","last_reported":1737638178,"current_range_meters":10000,"station_id":"ce4bgup2rcd13ifvqco0","pricing_plan_id":"cebpf4jnsgd1na2vs0mg"},{"bike_id":"9863b7f9-4316-4322-9f6c-3cc66b0448e2","system_id":"levelo_inurba_marseille","lat":43.279439,"lon":5.389008,"is_reserved":false,"is_disabled":true,"rental_uris":{"android":"levelo://app?vid=9863b7f9-4316-4322-9f6c-3cc66b0448e2","ios":"levelo://app?vid=9863b7f9-4316-4322-9f6c-3cc66b0448e2"},"vehicle_type_id":"4","last_reported":1737638178,"current_range_meters":24800,"station_id":"","pricing_plan_id":"cebpf4jnsgd1na2vs0mg"},{"bike_id":"8741379d-312c-4f8a-874b-6f14433f6a99","system_id":"levelo_inurba_marseille","lat":43.30538,"lon":5.36493,"is_reserved":false,"is_disabled":false,"rental_uris":{"android":"levelo://app?vid=8741379d-312c-4f8a-874b-6f14433f6a99","ios":"levelo://app?vid=8741379d-312c-4f8a-874b-6f14433f6a99"},"vehicle_type_id":"4","last_reported":1737638178,"current_range_meters":35600,"station_id":"ce4bgs12rcd13ifvqcag","pricing_plan_id":"cebpf4jnsgd1na2vs0mg"},{"bike_id":"6fa2f3d2-bfc7-4a9b-a1c6-efd0e29b47c4","system_id":"levelo_inurba_marseille","lat":43.26026,"lon":5.37552,"is_reserved":false,"is_disabled":false,"rental_uris":{"android":"levelo://app?vid=6fa2f3d2-bfc7-4a9b-a1c6-efd0e29b47c4","ios":"levelo://app?vid=6fa2f3d2-bfc7-4a9b-a1c6-efd0e29b47c4"},"vehicle_type_id":"4","last_reported":1737638178,"current_range_meters":38800,"station_id":"ce4bhgh2rcd13ifvqfa0","pricing_plan_id":"cebpf4jnsgd1na2vs0mg"},{"bike_id":"fa4cd009-3aad-46ce-b167-d7c86de01955","system_id":"levelo_inurba_marseille","lat":43.32504,"lon":5.36555,"is_reserved":false,"is_disabled":false,"rental_uris":{"android":"levelo://app?vid=fa4cd009-3aad-46ce-b167-d7c86de01955","ios":"levelo://app?vid=fa4cd009-3aad-46ce-b167-d7c86de01955"},"vehicle_type_id":"4","last_reported":1737638178,"current_range_meters":24800,"station_id":"ce4bhs12rcd13ifvqhvg","pricing_plan_id":"cebpf4jnsgd1na2vs0mg"},{"bike_id":"33142eaf-42ab-4e3c-884c-7dee9db9da0e","system_id":"levelo_inurba_marseille","lat":43.241716,"lon":5.397391,"is_reserved":false,"is_disabled":false,"rental_uris":{"android":"levelo://app?vid=33142eaf-42ab-4e3c-884c-7dee9db9da0e","ios":"levelo://app?vid=33142eaf-42ab-4e3c-884c-7dee9db9da0e"},"vehicle_type_id":"4","last_reported":1737638178,"current_range_meters":16800,"station_id":"ce4bhn12rcd13ifvqgpg","pricing_plan_id":"cebpf4jnsgd1na2vs0mg"},{"bike_id":"cc0371d6-5c0c-4e91-95c1-eb095a18c9d3","system_id":"levelo_inurba_marseille","lat":43.28358,"lon":5.38112,"is_reserved":false,"is_disabled":false,"rental_uris":{"android":"levelo://app?vid=cc0371d6-5c0c-4e91-95c1-eb095a18c9d3","ios":"levelo://app?vid=cc0371d6-5c0c-4e91-95c1-eb095a18c9d3"},"vehicle_type_id":"4","last_reported":1737638178,"current_range_meters":24800,"station_id":"ce4bh412rcd13ifvqdr0","pricing_plan_id":"cebpf4jnsgd1na2vs0mg"},{"bike_id":"a91cb2ec-2895-4f0a-b43c-eb2c95f55c80","system_id":"levelo_inurba_marseille","lat":43.30902,"lon":5.36849,"is_reserved":false,"is_disabled":false,"rental_uris":{"android":"levelo://app?vid=a91cb2ec-2895-4f0a-b43c-eb2c95f55c80","ios":"levelo://app?vid=a91cb2ec-2895-4f0a-b43c-eb2c95f55c80"},"vehicle_type_id":"4","last_reported":1737638178,"current_range_meters":20800,"station_id":"ce4bgn92rcd13ifvqbvg","pricing_plan_id":"cebpf4jnsgd1na2vs0mg"},{"bike_id":"dfbd27e7-12bf-4812-80d1-488dbaf230dc","system_id":"levelo_inurba_marseille","lat":43.325014,"lon":5.365568,"is_reserved":false,"is_disabled":false,"rental_uris":{"android":"levelo://app?vid=dfbd27e7-12bf-4812-80d1-488dbaf230dc","ios":"levelo://app?vid=dfbd27e7-12bf-4812-80d1-488dbaf230dc"},"vehicle_type_id":"4","last_reported":1737638178,"current_range_meters":22800,"station_id":"ce4bhs12rcd13ifvqhvg","pricing_plan_id":"cebpf4jnsgd1na2vs0mg"},{"bike_id":"13901fbf-791e-40b2-b22b-b524e0cd697c","system_id":"levelo_inurba_marseille","lat":43.28974,"lon":5.3783,"is_reserved":false,"is_disabled":false,"rental_uris":{"android":"levelo://app?vid=13901fbf-791e-40b2-b22b-b524e0cd697c","ios":"levelo://app?vid=13901fbf-791e-40b2-b22b-b524e0cd697c"},"vehicle_type_id":"4","last_reported":1737638178,"current_range_meters":17200,"station_id":"ce4bh9p2rcd13ifvqed0","pricing_plan_id":"cebpf4jnsgd1na2vs0mg"},{"bike_id":"b7c190b6-d179-4ae6-9b05-6a6aceb220aa","system_id":"levelo_inurba_marseille","lat":43.29421,"lon":5.38636,"is_reserved":false,"is_disabled":false,"rental_uris":{"android":"levelo://app?vid=b7c190b6-d179-4ae6-9b05-6a6aceb220aa","ios":"levelo://app?vid=b7c190b6-d179-4ae6-9b05-6a6aceb220aa"},"vehicle_type_id":"4","last_reported":1737638178,"current_range_meters":25200,"station_id":"ce4bh2h2rcd13ifvqdh0","pricing_plan_id":"cebpf4jnsgd1na2vs0mg"},{"bike_id":"6d9a4246-24ff-446a-b261-6af59c8b56bf","system_id":"levelo_inurba_marseille","lat":43.29834,"lon":5.36268,"is_reserved":false,"is_disabled":false,"rental_uris":{"android":"levelo://app?vid=6d9a4246-24ff-446a-b261-6af59c8b56bf","ios":"levelo://app?vid=6d9a4246-24ff-446a-b261-6af59c8b56bf"},"vehicle_type_id":"4","last_reported":1737638178,"current_range_meters":24400,"station_id":"ce4bgpp2rcd13ifvqc3g","pricing_plan_id":"cebpf4jnsgd1na2vs0mg"},{"bike_id":"0b1c7c03-a29d-4cb4-921c-ab638a039106","system_id":"levelo_inurba_marseille","lat":43.25111,"lon":5.40315,"is_reserved":false,"is_disabled":true,"rental_uris":{"android":"levelo://app?vid=0b1c7c03-a29d-4cb4-921c-ab638a039106","ios":"levelo://app?vid=0b1c7c03-a29d-4cb4-921c-ab638a039106"},"vehicle_type_id":"4","last_reported":1737638178,"current_range_meters":1600,"station_id":"ce4bhlh2rcd13ifvqgig","pricing_plan_id":"cebpf4jnsgd1na2vs0mg"},{"bike_id":"b8522101-a8dc-4556-9aa4-7546debea75f","system_id":"levelo_inurba_marseille","lat":43.33726,"lon":5.39189,"is_reserved":false,"is_disabled":false,"rental_uris":{"android":"levelo://app?vid=b8522101-a8dc-4556-9aa4-7546debea75f","ios":"levelo://app?vid=b8522101-a8dc-4556-9aa4-7546debea75f"},"vehicle_type_id":"4","last_reported":1737638178,"current_range_meters":39200,"station_id":"ce4bhr92rcd13ifvqhsg","pricing_plan_id":"cebpf4jnsgd1na2vs0mg"},{"bike_id":"093c0a4b-c65c-4f81-818a-f415ef9de89a","system_id":"levelo_inurba_marseille","lat":43.31348,"lon":5.36708,"is_reserved":false,"is_disabled":false,"rental_uris":{"android":"levelo://app?vid=093c0a4b-c65c-4f81-818a-f415ef9de89a","ios":"levelo://app?vid=093c0a4b-c65c-4f81-818a-f415ef9de89a"},"vehicle_type_id":"4","last_reported":1737638178,"current_range_meters":3200,"station_id":"ce4bgr92rcd13ifvqc6g","pricing_plan_id":"cebpf4jnsgd1na2vs0mg"},{"bike_id":"49052dc3-4d8a-4007-89e4-6a2b13d47195","system_id":"levelo_inurba_marseille","lat":43.244,"lon":5.37071,"is_reserved":false,"is_disabled":false,"rental_uris":{"android":"levelo://app?vid=49052dc3-4d8a-4007-89e4-6a2b13d47195","ios":"levelo://app?vid=49052dc3-4d8a-4007-89e4-6a2b13d47195"},"vehicle_type_id":"4","last_reported":1737638178,"current_range_meters":9600,"station_id":"ce4bhhh2rcd13ifvqfk0","pricing_plan_id":"cebpf4jnsgd1na2vs0mg"},{"bike_id":"13404d01-1c7c-4d4b-bb24-e98755f8bf24","system_id":"levelo_inurba_marseille","lat":43.30549,"lon":5.36712,"is_reserved":false,"is_disabled":false,"rental_uris":{"android":"levelo://app?vid=13404d01-1c7c-4d4b-bb24-e98755f8bf24","ios":"levelo://app?vid=13404d01-1c7c-4d4b-bb24-e98755f8bf24"},"vehicle_type_id":"4","last_reported":1737638178,"current_range_meters":32400,"station_id":"ce4bgrp2rcd13ifvqc9g","pricing_plan_id":"cebpf4jnsgd1na2vs0mg"},{"bike_id":"347d25c1-2468-4c44-b7fd-0c0f1f1d809f","system_id":"levelo_inurba_marseille","lat":43.2893,"lon":5.36649,"is_reserved":false,"is_disabled":false,"rental_uris":{"android":"levelo://app?vid=347d25c1-2468-4c44-b7fd-0c0f1f1d809f","ios":"levelo://app?vid=347d25c1-2468-4c44-b7fd-0c0f1f1d809f"},"vehicle_type_id":"4","last_reported":1737638178,"current_range_meters":11200,"station_id":"ce4bhap2rcd13ifvqek0","pricing_plan_id":"cebpf4jnsgd1na2vs0mg"},{"bike_id":"e6d69e77-2426-40e6-8b56-caff4d581c0e","system_id":"levelo_inurba_marseille","lat":43.29551,"lon":5.422834,"is_reserved":false,"is_disabled":false,"rental_uris":{"android":"levelo://app?vid=e6d69e77-2426-40e6-8b56-caff4d581c0e","ios":"levelo://app?vid=e6d69e77-2426-40e6-8b56-caff4d581c0e"},"vehicle_type_id":"4","last_reported":1737638178,"current_range_meters":38800,"station_id":"ce4bhph2rcd13ifvqhdg","pricing_plan_id":"cebpf4jnsgd1na2vs0mg"},{"bike_id":"65c1c144-aea0-46b6-bced-0c2782963a12","system_id":"levelo_inurba_marseille","lat":43.28936,"lon":5.36399,"is_reserved":false,"is_disabled":false,"rental_uris":{"android":"levelo://app?vid=65c1c144-aea0-46b6-bced-0c2782963a12","ios":"levelo://app?vid=65c1c144-aea0-46b6-bced-0c2782963a12"},"vehicle_type_id":"4","last_reported":1737638178,"current_range_meters":28000,"station_id":"ce4bhc92rcd13ifvqetg","pricing_plan_id":"cebpf4jnsgd1na2vs0mg"},{"bike_id":"7c78a755-c7f5-4f07-a96b-621451d47948","system_id":"levelo_inurba_marseille","lat":43.29902,"lon":5.43661,"is_reserved":false,"is_disabled":false,"rental_uris":{"android":"levelo://app?vid=7c78a755-c7f5-4f07-a96b-621451d47948","ios":"levelo://app?vid=7c78a755-c7f5-4f07-a96b-621451d47948"},"vehicle_type_id":"4","last_reported":1737638178,"current_range_meters":11200,"station_id":"ce4bhpp2rcd13ifvqhfg","pricing_plan_id":"cebpf4jnsgd1na2vs0mg"},{"bike_id":"f95f3e4e-165e-420c-a2ee-ca3c4bfc1b3d","system_id":"levelo_inurba_marseille","lat":43.28861,"lon":5.35847,"is_reserved":false,"is_disabled":false,"rental_uris":{"android":"levelo://app?vid=f95f3e4e-165e-420c-a2ee-ca3c4bfc1b3d","ios":"levelo://app?vid=f95f3e4e-165e-420c-a2ee-ca3c4bfc1b3d"},"vehicle_type_id":"4","last_reported":1737638178,"current_range_meters":39200,"station_id":"ce4bhb12rcd13ifvqem0","pricing_plan_id":"cebpf4jnsgd1na2vs0mg"},{"bike_id":"5df6461a-62bf-4be3-8e9a-699c1a381649","system_id":"levelo_inurba_marseille","lat":43.293,"lon":5.37459,"is_reserved":false,"is_disabled":false,"rental_uris":{"android":"levelo://app?vid=5df6461a-62bf-4be3-8e9a-699c1a381649","ios":"levelo://app?vid=5df6461a-62bf-4be3-8e9a-699c1a381649"},"vehicle_type_id":"4","last_reported":1737638178,"current_range_meters":30800,"station_id":"ce4bgi12rcd13ifvqb70","pricing_plan_id":"cebpf4jnsgd1na2vs0mg"},{"bike_id":"922284fc-745c-4cae-b268-a8cdf5d6d98d","system_id":"levelo_inurba_marseille","lat":43.28032,"lon":5.36943,"is_reserved":false,"is_disabled":false,"rental_uris":{"android":"levelo://app?vid=922284fc-745c-4cae-b268-a8cdf5d6d98d","ios":"levelo://app?vid=922284fc-745c-4cae-b268-a8cdf5d6d98d"},"vehicle_type_id":"4","last_reported":1737638178,"current_range_meters":25600,"station_id":"ce4bha12rcd13ifvqef0","pricing_plan_id":"cebpf4jnsgd1na2vs0mg"},{"bike_id":"16f0e6b5-d946-47d2-a97c-ad19d0c1e9a1","system_id":"levelo_inurba_marseille","lat":43.30889,"lon":5.368695,"is_reserved":false,"is_disabled":false,"rental_uris":{"android":"levelo://app?vid=16f0e6b5-d946-47d2-a97c-ad19d0c1e9a1","ios":"levelo://app?vid=16f0e6b5-d946-47d2-a97c-ad19d0c1e9a1"},"vehicle_type_id":"4","last_reported":1737638178,"current_range_meters":30400,"station_id":"ce4bgn92rcd13ifvqbvg","pricing_plan_id":"cebpf4jnsgd1na2vs0mg"},{"bike_id":"61bf316f-0513-43b6-a2aa-f78552ff6504","system_id":"levelo_inurba_marseille","lat":43.31883,"lon":5.40733,"is_reserved":false,"is_disabled":false,"rental_uris":{"android":"levelo://app?vid=61bf316f-0513-43b6-a2aa-f78552ff6504","ios":"levelo://app?vid=61bf316f-0513-43b6-a2aa-f78552ff6504"},"vehicle_type_id":"4","last_reported":1737638178,"current_range_meters":31200,"station_id":"ce4bhq12rcd13ifvqhig","pricing_plan_id":"cebpf4jnsgd1na2vs0mg"},{"bike_id":"353c5000-308f-4e52-b5ab-b4f9e01dae3e","system_id":"levelo_inurba_marseille","lat":43.29193,"lon":5.35807,"is_reserved":false,"is_disabled":false,"rental_uris":{"android":"levelo://app?vid=353c5000-308f-4e52-b5ab-b4f9e01dae3e","ios":"levelo://app?vid=353c5000-308f-4e52-b5ab-b4f9e01dae3e"},"vehicle_type_id":"4","last_reported":1737638178,"current_range_meters":36800,"station_id":"ce4bhb12rcd13ifvqel0","pricing_plan_id":"cebpf4jnsgd1na2vs0mg"},{"bike_id":"723bf609-d875-463d-bfdd-9904f16a3c18","system_id":"levelo_inurba_marseille","lat":43.29416,"lon":5.38636,"is_reserved":false,"is_disabled":false,"rental_uris":{"android":"levelo://app?vid=723bf609-d875-463d-bfdd-9904f16a3c18","ios":"levelo://app?vid=723bf609-d875-463d-bfdd-9904f16a3c18"},"vehicle_type_id":"4","last_reported":1737638178,"current_range_meters":27600,"station_id":"ce4bh2h2rcd13ifvqdh0","pricing_plan_id":"cebpf4jnsgd1na2vs0mg"},{"bike_id":"e4758cb0-0367-4c65-b523-571a72650646","system_id":"levelo_inurba_marseille","lat":43.305348,"lon":5.3656,"is_reserved":false,"is_disabled":true,"rental_uris":{"android":"levelo://app?vid=e4758cb0-0367-4c65-b523-571a72650646","ios":"levelo://app?vid=e4758cb0-0367-4c65-b523-571a72650646"},"vehicle_type_id":"4","last_reported":1737638178,"current_range_meters":38800,"station_id":"ce4bgs12rcd13ifvqcag","pricing_plan_id":"cebpf4jnsgd1na2vs0mg"},{"bike_id":"26d96d78-7a29-4ec5-93ac-79ad4342b085","system_id":"levelo_inurba_marseille","lat":43.313246,"lon":5.397103,"is_reserved":false,"is_disabled":false,"rental_uris":{"android":"levelo://app?vid=26d96d78-7a29-4ec5-93ac-79ad4342b085","ios":"levelo://app?vid=26d96d78-7a29-4ec5-93ac-79ad4342b085"},"vehicle_type_id":"4","last_reported":1737638178,"current_range_meters":38800,"station_id":"ce4bgvp2rcd13ifvqcu0","pricing_plan_id":"cebpf4jnsgd1na2vs0mg"},{"bike_id":"50a5e38e-875f-43d0-93bd-9b42a94a8a92","system_id":"levelo_inurba_marseille","lat":43.27316,"lon":5.39071,"is_reserved":false,"is_disabled":false,"rental_uris":{"android":"levelo://app?vid=50a5e38e-875f-43d0-93bd-9b42a94a8a92","ios":"levelo://app?vid=50a5e38e-875f-43d0-93bd-9b42a94a8a92"},"vehicle_type_id":"4","last_reported":1737638178,"current_range_meters":38000,"station_id":"ce4bhgp2rcd13ifvqfe0","pricing_plan_id":"cebpf4jnsgd1na2vs0mg"},{"bike_id":"d96f7a91-42fe-404b-b108-4c7a0d7b5adf","system_id":"levelo_inurba_marseille","lat":43.33609,"lon":5.41033,"is_reserved":false,"is_disabled":true,"rental_uris":{"android":"levelo://app?vid=d96f7a91-42fe-404b-b108-4c7a0d7b5adf","ios":"levelo://app?vid=d96f7a91-42fe-404b-b108-4c7a0d7b5adf"},"vehicle_type_id":"4","last_reported":1737638178,"current_range_meters":12000,"station_id":"ce4bhqh2rcd13ifvqhmg","pricing_plan_id":"cebpf4jnsgd1na2vs0mg"},{"bike_id":"667141bf-a69c-46d9-aa58-31b395da3352","system_id":"levelo_inurba_marseille","lat":43.24065,"lon":5.37767,"is_reserved":false,"is_disabled":false,"rental_uris":{"android":"levelo://app?vid=667141bf-a69c-46d9-aa58-31b395da3352","ios":"levelo://app?vid=667141bf-a69c-46d9-aa58-31b395da3352"},"vehicle_type_id":"4","last_reported":1737638178,"current_range_meters":22000,"station_id":"ce4bhnp2rcd13ifvqgvg","pricing_plan_id":"cebpf4jnsgd1na2vs0mg"},{"bike_id":"e3d79aad-850e-448b-8e6d-6a95b719f350","system_id":"levelo_inurba_marseille","lat":43.28939,"lon":5.36403,"is_reserved":false,"is_disabled":false,"rental_uris":{"android":"levelo://app?vid=e3d79aad-850e-448b-8e6d-6a95b719f350","ios":"levelo://app?vid=e3d79aad-850e-448b-8e6d-6a95b719f350"},"vehicle_type_id":"4","last_reported":1737638178,"current_range_meters":17600,"station_id":"ce4bhc92rcd13ifvqetg","pricing_plan_id":"cebpf4jnsgd1na2vs0mg"},{"bike_id":"7e50e231-6e86-4854-8e19-cf288d95a447","system_id":"levelo_inurba_marseille","lat":43.31233,"lon":5.36875,"is_reserved":false,"is_disabled":false,"rental_uris":{"android":"levelo://app?vid=7e50e231-6e86-4854-8e19-cf288d95a447","ios":"levelo://app?vid=7e50e231-6e86-4854-8e19-cf288d95a447"},"vehicle_type_id":"4","last_reported":1737638178,"current_range_meters":17200,"station_id":"ce4bgl92rcd13ifvqbq0","pricing_plan_id":"cebpf4jnsgd1na2vs0mg"},{"bike_id":"8210b62d-a1a5-4f4c-8046-84672334af72","system_id":"levelo_inurba_marseille","lat":43.25116,"lon":5.40328,"is_reserved":false,"is_disabled":false,"rental_uris":{"android":"levelo://app?vid=8210b62d-a1a5-4f4c-8046-84672334af72","ios":"levelo://app?vid=8210b62d-a1a5-4f4c-8046-84672334af72"},"vehicle_type_id":"4","last_reported":1737638178,"current_range_meters":32400,"station_id":"ce4bhlh2rcd13ifvqgig","pricing_plan_id":"cebpf4jnsgd1na2vs0mg"},{"bike_id":"49808292-d729-4230-9ef1-61b25d77b9a1","system_id":"levelo_inurba_marseille","lat":43.29868,"lon":5.38911,"is_reserved":false,"is_disabled":false,"rental_uris":{"android":"levelo://app?vid=49808292-d729-4230-9ef1-61b25d77b9a1","ios":"levelo://app?vid=49808292-d729-4230-9ef1-61b25d77b9a1"},"vehicle_type_id":"4","last_reported":1737638178,"current_range_meters":34000,"station_id":"ce4bh392rcd13ifvqdl0","pricing_plan_id":"cebpf4jnsgd1na2vs0mg"},{"bike_id":"51b693ec-6376-489f-b989-9f78de29a1f3","system_id":"levelo_inurba_marseille","lat":43.24165,"lon":5.36394,"is_reserved":false,"is_disabled":false,"rental_uris":{"android":"levelo://app?vid=51b693ec-6376-489f-b989-9f78de29a1f3","ios":"levelo://app?vid=51b693ec-6376-489f-b989-9f78de29a1f3"},"vehicle_type_id":"4","last_reported":1737638178,"current_range_meters":21600,"station_id":"cpo36qri1sfpv3e86is0","pricing_plan_id":"cebpf4jnsgd1na2vs0mg"},{"bike_id":"18a0e6bb-3553-4da6-9b72-3dec3a90636b","system_id":"levelo_inurba_marseille","lat":43.269442,"lon":5.386375,"is_reserved":false,"is_disabled":false,"rental_uris":{"android":"levelo://app?vid=18a0e6bb-3553-4da6-9b72-3dec3a90636b","ios":"levelo://app?vid=18a0e6bb-3553-4da6-9b72-3dec3a90636b"},"vehicle_type_id":"4","last_reported":1737638178,"current_range_meters":39200,"station_id":"ce4bhh92rcd13ifvqfh0","pricing_plan_id":"cebpf4jnsgd1na2vs0mg"},{"bike_id":"13ff516e-16cf-4543-8540-9030b8b296b4","system_id":"levelo_inurba_marseille","lat":43.23184,"lon":5.35574,"is_reserved":false,"is_disabled":false,"rental_uris":{"android":"levelo://app?vid=13ff516e-16cf-4543-8540-9030b8b296b4","ios":"levelo://app?vid=13ff516e-16cf-4543-8540-9030b8b296b4"},"vehicle_type_id":"4","last_reported":1737638178,"current_range_meters":28800,"station_id":"ce4bhu92rcd13ifvqi70","pricing_plan_id":"cebpf4jnsgd1na2vs0mg"},{"bike_id":"ec6a541f-38df-4148-a6ac-6db39abd6d59","system_id":"levelo_inurba_marseille","lat":43.28099,"lon":5.37845,"is_reserved":false,"is_disabled":false,"rental_uris":{"android":"levelo://app?vid=ec6a541f-38df-4148-a6ac-6db39abd6d59","ios":"levelo://app?vid=ec6a541f-38df-4148-a6ac-6db39abd6d59"},"vehicle_type_id":"4","last_reported":1737638178,"current_range_meters":25600,"station_id":"ce4bha12rcd13ifvqee0","pricing_plan_id":"cebpf4jnsgd1na2vs0mg"},{"bike_id":"abcaddeb-ef33-40bf-993a-642efe58d038","system_id":"levelo_inurba_marseille","lat":43.273145,"lon":5.39093,"is_reserved":false,"is_disabled":true,"rental_uris":{"android":"levelo://app?vid=abcaddeb-ef33-40bf-993a-642efe58d038","ios":"levelo://app?vid=abcaddeb-ef33-40bf-993a-642efe58d038"},"vehicle_type_id":"4","last_reported":1737638178,"current_range_meters":36400,"station_id":"ce4bhgp2rcd13ifvqfe0","pricing_plan_id":"cebpf4jnsgd1na2vs0mg"},{"bike_id":"c627cedf-eb0c-46fb-a84b-5bcab1e577fd","system_id":"levelo_inurba_marseille","lat":43.28965,"lon":5.36458,"is_reserved":false,"is_disabled":false,"rental_uris":{"android":"levelo://app?vid=c627cedf-eb0c-46fb-a84b-5bcab1e577fd","ios":"levelo://app?vid=c627cedf-eb0c-46fb-a84b-5bcab1e577fd"},"vehicle_type_id":"4","last_reported":1737638178,"current_range_meters":17600,"station_id":"ce4bhc92rcd13ifvqetg","pricing_plan_id":"cebpf4jnsgd1na2vs0mg"},{"bike_id":"2af6f4a6-9e58-43bb-a2cd-502d7844aee0","system_id":"levelo_inurba_marseille","lat":43.2315,"lon":5.43727,"is_reserved":false,"is_disabled":false,"rental_uris":{"android":"levelo://app?vid=2af6f4a6-9e58-43bb-a2cd-502d7844aee0","ios":"levelo://app?vid=2af6f4a6-9e58-43bb-a2cd-502d7844aee0"},"vehicle_type_id":"4","last_reported":1737638178,"current_range_meters":22800,"station_id":"ce4bhmp2rcd13ifvqgog","pricing_plan_id":"cebpf4jnsgd1na2vs0mg"},{"bike_id":"73896d01-b3e7-4e83-8302-676ccb0b4540","system_id":"levelo_inurba_marseille","lat":43.30289,"lon":5.36892,"is_reserved":false,"is_disabled":false,"rental_uris":{"android":"levelo://app?vid=73896d01-b3e7-4e83-8302-676ccb0b4540","ios":"levelo://app?vid=73896d01-b3e7-4e83-8302-676ccb0b4540"},"vehicle_type_id":"4","last_reported":1737638178,"current_range_meters":28000,"station_id":"ce4bgqh2rcd13ifvqc5g","pricing_plan_id":"cebpf4jnsgd1na2vs0mg"},{"bike_id":"1876537c-c9d8-4160-b31c-e17d644f44c6","system_id":"levelo_inurba_marseille","lat":43.32418,"lon":5.36579,"is_reserved":false,"is_disabled":false,"rental_uris":{"android":"levelo://app?vid=1876537c-c9d8-4160-b31c-e17d644f44c6","ios":"levelo://app?vid=1876537c-c9d8-4160-b31c-e17d644f44c6"},"vehicle_type_id":"4","last_reported":1737638178,"current_range_meters":32400,"station_id":"ce4bhs12rcd13ifvqhvg","pricing_plan_id":"cebpf4jnsgd1na2vs0mg"},{"bike_id":"c39beb18-b568-4699-95c1-ddaef8c27d01","system_id":"levelo_inurba_marseille","lat":43.3096,"lon":5.3904,"is_reserved":false,"is_disabled":true,"rental_uris":{"android":"levelo://app?vid=c39beb18-b568-4699-95c1-ddaef8c27d01","ios":"levelo://app?vid=c39beb18-b568-4699-95c1-ddaef8c27d01"},"vehicle_type_id":"4","last_reported":1737638178,"current_range_meters":0,"station_id":"ce4bgup2rcd13ifvqco0","pricing_plan_id":"cebpf4jnsgd1na2vs0mg"},{"bike_id":"54cf695a-7603-4cbc-a435-8434b0470da2","system_id":"levelo_inurba_marseille","lat":43.28718,"lon":5.37936,"is_reserved":false,"is_disabled":false,"rental_uris":{"android":"levelo://app?vid=54cf695a-7603-4cbc-a435-8434b0470da2","ios":"levelo://app?vid=54cf695a-7603-4cbc-a435-8434b0470da2"},"vehicle_type_id":"4","last_reported":1737638178,"current_range_meters":18000,"station_id":"ce4bh9p2rcd13ifvqec0","pricing_plan_id":"cebpf4jnsgd1na2vs0mg"},{"bike_id":"d2ccf28c-f6d9-4cc7-ab13-e2de5a4593f9","system_id":"levelo_inurba_marseille","lat":43.27561,"lon":5.38422,"is_reserved":false,"is_disabled":false,"rental_uris":{"android":"levelo://app?vid=d2ccf28c-f6d9-4cc7-ab13-e2de5a4593f9","ios":"levelo://app?vid=d2ccf28c-f6d9-4cc7-ab13-e2de5a4593f9"},"vehicle_type_id":"4","last_reported":1737638178,"current_range_meters":20400,"station_id":"ce4bhh92rcd13ifvqfi0","pricing_plan_id":"cebpf4jnsgd1na2vs0mg"},{"bike_id":"d28e6da9-9d50-41fc-92a1-acd12478bf45","system_id":"levelo_inurba_marseille","lat":43.27904,"lon":5.3801,"is_reserved":false,"is_disabled":false,"rental_uris":{"android":"levelo://app?vid=d28e6da9-9d50-41fc-92a1-acd12478bf45","ios":"levelo://app?vid=d28e6da9-9d50-41fc-92a1-acd12478bf45"},"vehicle_type_id":"4","last_reported":1737638178,"current_range_meters":20400,"station_id":"ce4bhf92rcd13ifvqf50","pricing_plan_id":"cebpf4jnsgd1na2vs0mg"},{"bike_id":"5660399e-e2b9-443c-b4b3-14669b1ff702","system_id":"levelo_inurba_marseille","lat":43.31003,"lon":5.38977,"is_reserved":false,"is_disabled":false,"rental_uris":{"android":"levelo://app?vid=5660399e-e2b9-443c-b4b3-14669b1ff702","ios":"levelo://app?vid=5660399e-e2b9-443c-b4b3-14669b1ff702"},"vehicle_type_id":"4","last_reported":1737638178,"current_range_meters":24400,"station_id":"ce4bgvp2rcd13ifvqcu0","pricing_plan_id":"cebpf4jnsgd1na2vs0mg"},{"bike_id":"0f341759-ec2f-439d-826f-2cb8db16dce8","system_id":"levelo_inurba_marseille","lat":43.3127,"lon":5.40165,"is_reserved":false,"is_disabled":false,"rental_uris":{"android":"levelo://app?vid=0f341759-ec2f-439d-826f-2cb8db16dce8","ios":"levelo://app?vid=0f341759-ec2f-439d-826f-2cb8db16dce8"},"vehicle_type_id":"4","last_reported":1737638178,"current_range_meters":21600,"station_id":"ce4bh092rcd13ifvqd30","pricing_plan_id":"cebpf4jnsgd1na2vs0mg"},{"bike_id":"d9190a6d-8457-4527-913d-68c04585979f","system_id":"levelo_inurba_marseille","lat":43.26926,"lon":5.38924,"is_reserved":false,"is_disabled":false,"rental_uris":{"android":"levelo://app?vid=d9190a6d-8457-4527-913d-68c04585979f","ios":"levelo://app?vid=d9190a6d-8457-4527-913d-68c04585979f"},"vehicle_type_id":"4","last_reported":1737638178,"current_range_meters":38800,"station_id":"ce4bhhh2rcd13ifvqfl0","pricing_plan_id":"cebpf4jnsgd1na2vs0mg"},{"bike_id":"d5e580bb-31f1-420b-8967-4ef30e3f9e43","system_id":"levelo_inurba_marseille","lat":43.31077,"lon":5.42437,"is_reserved":false,"is_disabled":false,"rental_uris":{"android":"levelo://app?vid=d5e580bb-31f1-420b-8967-4ef30e3f9e43","ios":"levelo://app?vid=d5e580bb-31f1-420b-8967-4ef30e3f9e43"},"vehicle_type_id":"4","last_reported":1737638178,"current_range_meters":26000,"station_id":"ce4bhp92rcd13ifvqhag","pricing_plan_id":"cebpf4jnsgd1na2vs0mg"},{"bike_id":"68e9c31c-ad3e-43bf-9dd6-a2db62b95ef7","system_id":"levelo_inurba_marseille","lat":43.3244,"lon":5.36562,"is_reserved":false,"is_disabled":false,"rental_uris":{"android":"levelo://app?vid=68e9c31c-ad3e-43bf-9dd6-a2db62b95ef7","ios":"levelo://app?vid=68e9c31c-ad3e-43bf-9dd6-a2db62b95ef7"},"vehicle_type_id":"4","last_reported":1737638178,"current_range_meters":22800,"station_id":"ce4bhs12rcd13ifvqhvg","pricing_plan_id":"cebpf4jnsgd1na2vs0mg"},{"bike_id":"30adea8e-37ba-4941-afce-59585fb8a8c3","system_id":"levelo_inurba_marseille","lat":43.26567,"lon":5.39017,"is_reserved":false,"is_disabled":true,"rental_uris":{"android":"levelo://app?vid=30adea8e-37ba-4941-afce-59585fb8a8c3","ios":"levelo://app?vid=30adea8e-37ba-4941-afce-59585fb8a8c3"},"vehicle_type_id":"4","last_reported":1737638178,"current_range_meters":800,"station_id":"ce4bhe12rcd13ifvqf30","pricing_plan_id":"cebpf4jnsgd1na2vs0mg"},{"bike_id":"b8338bfe-1284-4232-9a51-15bb8e974f1c","system_id":"levelo_inurba_marseille","lat":43.29838,"lon":5.36264,"is_reserved":false,"is_disabled":false,"rental_uris":{"android":"levelo://app?vid=b8338bfe-1284-4232-9a51-15bb8e974f1c","ios":"levelo://app?vid=b8338bfe-1284-4232-9a51-15bb8e974f1c"},"vehicle_type_id":"4","last_reported":1737638178,"current_range_meters":38800,"station_id":"ce4bgpp2rcd13ifvqc3g","pricing_plan_id":"cebpf4jnsgd1na2vs0mg"},{"bike_id":"75495e7c-20bd-4569-84c6-35df34ab244d","system_id":"levelo_inurba_marseille","lat":43.299,"lon":5.4368,"is_reserved":false,"is_disabled":false,"rental_uris":{"android":"levelo://app?vid=75495e7c-20bd-4569-84c6-35df34ab244d","ios":"levelo://app?vid=75495e7c-20bd-4569-84c6-35df34ab244d"},"vehicle_type_id":"4","last_reported":1737638178,"current_range_meters":3600,"station_id":"ce4bhpp2rcd13ifvqhfg","pricing_plan_id":"cebpf4jnsgd1na2vs0mg"},{"bike_id":"f15a3926-03ea-4c4b-9f1b-6e7324acfe94","system_id":"levelo_inurba_marseille","lat":43.30904,"lon":5.36871,"is_reserved":false,"is_disabled":false,"rental_uris":{"android":"levelo://app?vid=f15a3926-03ea-4c4b-9f1b-6e7324acfe94","ios":"levelo://app?vid=f15a3926-03ea-4c4b-9f1b-6e7324acfe94"},"vehicle_type_id":"4","last_reported":1737638178,"current_range_meters":16000,"station_id":"ce4bgn92rcd13ifvqbvg","pricing_plan_id":"cebpf4jnsgd1na2vs0mg"},{"bike_id":"be3daf0c-2aa8-46cf-92ac-c9663e98eed3","system_id":"levelo_inurba_marseille","lat":43.30566,"lon":5.36509,"is_reserved":false,"is_disabled":false,"rental_uris":{"android":"levelo://app?vid=be3daf0c-2aa8-46cf-92ac-c9663e98eed3","ios":"levelo://app?vid=be3daf0c-2aa8-46cf-92ac-c9663e98eed3"},"vehicle_type_id":"4","last_reported":1737638178,"current_range_meters":18000,"station_id":"ce4bgs12rcd13ifvqcag","pricing_plan_id":"cebpf4jnsgd1na2vs0mg"},{"bike_id":"d22b6dd8-70dd-44e2-b2da-7416379d6042","system_id":"levelo_inurba_marseille","lat":43.26669,"lon":5.38274,"is_reserved":false,"is_disabled":false,"rental_uris":{"android":"levelo://app?vid=d22b6dd8-70dd-44e2-b2da-7416379d6042","ios":"levelo://app?vid=d22b6dd8-70dd-44e2-b2da-7416379d6042"},"vehicle_type_id":"4","last_reported":1737638178,"current_range_meters":38800,"station_id":"ce4bhg92rcd13ifvqf90","pricing_plan_id":"cebpf4jnsgd1na2vs0mg"},{"bike_id":"1b0f2fdc-fb52-4cc5-80f3-cda6ce3b6c43","system_id":"levelo_inurba_marseille","lat":43.30357,"lon":5.41881,"is_reserved":false,"is_disabled":false,"rental_uris":{"android":"levelo://app?vid=1b0f2fdc-fb52-4cc5-80f3-cda6ce3b6c43","ios":"levelo://app?vid=1b0f2fdc-fb52-4cc5-80f3-cda6ce3b6c43"},"vehicle_type_id":"4","last_reported":1737638178,"current_range_meters":12400,"station_id":"ce4bhop2rcd13ifvqh7g","pricing_plan_id":"cebpf4jnsgd1na2vs0mg"},{"bike_id":"8ed832fe-7992-493f-81be-12b646f0fd26","system_id":"levelo_inurba_marseille","lat":43.28468,"lon":5.38548,"is_reserved":false,"is_disabled":false,"rental_uris":{"android":"levelo://app?vid=8ed832fe-7992-493f-81be-12b646f0fd26","ios":"levelo://app?vid=8ed832fe-7992-493f-81be-12b646f0fd26"},"vehicle_type_id":"4","last_reported":1737638178,"current_range_meters":38800,"station_id":"ce4bh8p2rcd13ifvqeb0","pricing_plan_id":"cebpf4jnsgd1na2vs0mg"},{"bike_id":"a4320781-8956-4842-bb82-162dc379120a","system_id":"levelo_inurba_marseille","lat":43.30917,"lon":5.36855,"is_reserved":false,"is_disabled":false,"rental_uris":{"android":"levelo://app?vid=a4320781-8956-4842-bb82-162dc379120a","ios":"levelo://app?vid=a4320781-8956-4842-bb82-162dc379120a"},"vehicle_type_id":"4","last_reported":1737638178,"current_range_meters":30800,"station_id":"ce4bgn92rcd13ifvqbvg","pricing_plan_id":"cebpf4jnsgd1na2vs0mg"},{"bike_id":"73437ec1-c49c-4c1d-87bb-5c89656ded36","system_id":"levelo_inurba_marseille","lat":43.30548,"lon":5.36708,"is_reserved":false,"is_disabled":false,"rental_uris":{"android":"levelo://app?vid=73437ec1-c49c-4c1d-87bb-5c89656ded36","ios":"levelo://app?vid=73437ec1-c49c-4c1d-87bb-5c89656ded36"},"vehicle_type_id":"4","last_reported":1737638178,"current_range_meters":38800,"station_id":"ce4bgrp2rcd13ifvqc9g","pricing_plan_id":"cebpf4jnsgd1na2vs0mg"},{"bike_id":"28ee48eb-5f11-4f62-bdde-b980ad11c60d","system_id":"levelo_inurba_marseille","lat":43.30906,"lon":5.36852,"is_reserved":false,"is_disabled":false,"rental_uris":{"android":"levelo://app?vid=28ee48eb-5f11-4f62-bdde-b980ad11c60d","ios":"levelo://app?vid=28ee48eb-5f11-4f62-bdde-b980ad11c60d"},"vehicle_type_id":"4","last_reported":1737638178,"current_range_meters":32400,"station_id":"ce4bgn92rcd13ifvqbvg","pricing_plan_id":"cebpf4jnsgd1na2vs0mg"},{"bike_id":"79736555-a0bf-4e7a-b877-845a4b30520f","system_id":"levelo_inurba_marseille","lat":43.30546,"lon":5.38421,"is_reserved":false,"is_disabled":false,"rental_uris":{"android":"levelo://app?vid=79736555-a0bf-4e7a-b877-845a4b30520f","ios":"levelo://app?vid=79736555-a0bf-4e7a-b877-845a4b30520f"},"vehicle_type_id":"4","last_reported":1737638178,"current_range_meters":38800,"station_id":"ce4bgg92rcd13ifvqb30","pricing_plan_id":"cebpf4jnsgd1na2vs0mg"},{"bike_id":"1714e45e-7747-4d49-a740-f2b4f1a907bf","system_id":"levelo_inurba_marseille","lat":43.32482,"lon":5.36566,"is_reserved":false,"is_disabled":false,"rental_uris":{"android":"levelo://app?vid=1714e45e-7747-4d49-a740-f2b4f1a907bf","ios":"levelo://app?vid=1714e45e-7747-4d49-a740-f2b4f1a907bf"},"vehicle_type_id":"4","last_reported":1737638178,"current_range_meters":25600,"station_id":"ce4bhs12rcd13ifvqhvg","pricing_plan_id":"cebpf4jnsgd1na2vs0mg"},{"bike_id":"28a1eee5-346e-464b-81ee-4d7011df9d3a","system_id":"levelo_inurba_marseille","lat":43.29576,"lon":5.375,"is_reserved":false,"is_disabled":false,"rental_uris":{"android":"levelo://app?vid=28a1eee5-346e-464b-81ee-4d7011df9d3a","ios":"levelo://app?vid=28a1eee5-346e-464b-81ee-4d7011df9d3a"},"vehicle_type_id":"4","last_reported":1737638178,"current_range_meters":38800,"station_id":"ce4bgh92rcd13ifvqb50","pricing_plan_id":"cebpf4jnsgd1na2vs0mg"},{"bike_id":"2ed43785-2932-4a3e-97db-34a32dfd06fa","system_id":"levelo_inurba_marseille","lat":43.28104,"lon":5.37835,"is_reserved":false,"is_disabled":false,"rental_uris":{"android":"levelo://app?vid=2ed43785-2932-4a3e-97db-34a32dfd06fa","ios":"levelo://app?vid=2ed43785-2932-4a3e-97db-34a32dfd06fa"},"vehicle_type_id":"4","last_reported":1737638178,"current_range_meters":30000,"station_id":"ce4bha12rcd13ifvqee0","pricing_plan_id":"cebpf4jnsgd1na2vs0mg"},{"bike_id":"47078629-c7b7-45ce-8b45-10c5ffa6761f","system_id":"levelo_inurba_marseille","lat":43.26195,"lon":5.37925,"is_reserved":false,"is_disabled":false,"rental_uris":{"android":"levelo://app?vid=47078629-c7b7-45ce-8b45-10c5ffa6761f","ios":"levelo://app?vid=47078629-c7b7-45ce-8b45-10c5ffa6761f"},"vehicle_type_id":"4","last_reported":1737638178,"current_range_meters":26000,"station_id":"ce4bhjp2rcd13ifvqg90","pricing_plan_id":"cebpf4jnsgd1na2vs0mg"},{"bike_id":"1d3074c7-d1f8-482c-8faa-2fc8e3684f7d","system_id":"levelo_inurba_marseille","lat":43.29005,"lon":5.35607,"is_reserved":false,"is_disabled":false,"rental_uris":{"android":"levelo://app?vid=1d3074c7-d1f8-482c-8faa-2fc8e3684f7d","ios":"levelo://app?vid=1d3074c7-d1f8-482c-8faa-2fc8e3684f7d"},"vehicle_type_id":"4","last_reported":1737638178,"current_range_meters":38800,"station_id":"ce4bhb92rcd13ifvqen0","pricing_plan_id":"cebpf4jnsgd1na2vs0mg"},{"bike_id":"149b69f1-44f7-440c-bbd5-5ef6358a4076","system_id":"levelo_inurba_marseille","lat":43.28475,"lon":5.38468,"is_reserved":false,"is_disabled":false,"rental_uris":{"android":"levelo://app?vid=149b69f1-44f7-440c-bbd5-5ef6358a4076","ios":"levelo://app?vid=149b69f1-44f7-440c-bbd5-5ef6358a4076"},"vehicle_type_id":"4","last_reported":1737638178,"current_range_meters":38000,"station_id":"ce4bh512rcd13ifvqe3g","pricing_plan_id":"cebpf4jnsgd1na2vs0mg"},{"bike_id":"9cc29755-7446-45ad-ae87-430a49eae0a7","system_id":"levelo_inurba_marseille","lat":43.30464,"lon":5.37907,"is_reserved":false,"is_disabled":false,"rental_uris":{"android":"levelo://app?vid=9cc29755-7446-45ad-ae87-430a49eae0a7","ios":"levelo://app?vid=9cc29755-7446-45ad-ae87-430a49eae0a7"},"vehicle_type_id":"4","last_reported":1737638178,"current_range_meters":22800,"station_id":"ce4bgup2rcd13ifvqcn0","pricing_plan_id":"cebpf4jnsgd1na2vs0mg"},{"bike_id":"35c3d7a3-fca8-4883-8207-6254c8a8d048","system_id":"levelo_inurba_marseille","lat":43.28931,"lon":5.36394,"is_reserved":false,"is_disabled":false,"rental_uris":{"android":"levelo://app?vid=35c3d7a3-fca8-4883-8207-6254c8a8d048","ios":"levelo://app?vid=35c3d7a3-fca8-4883-8207-6254c8a8d048"},"vehicle_type_id":"4","last_reported":1737638178,"current_range_meters":34000,"station_id":"ce4bhc92rcd13ifvqetg","pricing_plan_id":"cebpf4jnsgd1na2vs0mg"},