{"last_updated":1732284505,"ttl":60,"version":"2.2","data":{"bikes":[{"bike_id":"0ec198db-a01d-486f-a6eb-0b37b6dfc94a","system_id":"levelo_inurba_marseille","lat":43.29005,"lon":5.35611,"is_reserved":false,"is_disabled":false,"rental_uris":{"android":"levelo://app?vid=0ec198db-a01d-486f-a6eb-0b37b6dfc94a","ios":"levelo://app?vid=0ec198db-a01d-486f-a6eb-0b37b6dfc94a"},"vehicle_type_id":"4","last_reported":1732284505,"current_range_meters":38800,"station_id":"ce4bhb92rcd13ifvqen0","pricing_plan_id":"cebpf4jnsgd1na2vs0mg"},{"bike_id":"a1d95d4a-bde2-4425-bb20-81be9ac55016","system_id":"levelo_inurba_marseille","lat":43.29558,"lon":5.37517,"is_reserved":false,"is_disabled":false,"rental_uris":{"android":"levelo://app?vid=a1d95d4a-bde2-4425-bb20-81be9ac55016","ios":"levelo://app?vid=a1d95d4a-bde2-4425-bb20-81be9ac55016"},"vehicle_type_id":"4","last_reported":1732284505,"current_range_meters":38800,"station_id":"ce4bgh92rcd13ifvqb50","pricing_plan_id":"cebpf4jnsgd1na2vs0mg"},{"bike_id":"8527133f-e94b-41ef-9b16-c99901d73e95","system_id":"levelo_inurba_marseille","lat":43.25566,"lon":5.38236,"is_reserved":false,"is_disabled":false,"rental_uris":{"android":"levelo://app?vid=8527133f-e94b-41ef-9b16-c99901d73e95","ios":"levelo://app?vid=8527133f-e94b-41ef-9b16-c99901d73e95"},"vehicle_type_id":"4","last_reported":1732284505,"current_range_meters":33600,"station_id":"ce4bhih2rcd13ifvqfs0","pricing_plan_id":"cebpf4jnsgd1na2vs0mg"},{"bike_id":"1a5a3b08-fc55-4b17-adaf-98ac64bb4ae6","system_id":"levelo_inurba_marseille","lat":43.29912,"lon":5.37473,"is_reserved":false,"is_disabled":false,"rental_uris":{"android":"levelo://app?vid=1a5a3b08-fc55-4b17-adaf-98ac64bb4ae6","ios":"levelo://app?vid=1a5a3b08-fc55-4b17-adaf-98ac64bb4ae6"},"vehicle_type_id":"4","last_reported":1732284505,"current_range_meters":24800,"station_id":"ce4bgjh2rcd13ifvqbg0","pricing_plan_id":"cebpf4jnsgd1na2vs0mg"},{"bike_id":"7ade2142-eca0-47c9-a1cc-6b8d37bae659","system_id":"levelo_inurba_marseille","lat":43.23149,"lon":5.4372,"is_reserved":false,"is_disabled":false,"rental_uris":{"android":"levelo://app?vid=7ade2142-eca0-47c9-a1cc-6b8d37bae659","ios":"levelo://app?vid=7ade2142-eca0-47c9-a1cc-6b8d37bae659"},"vehicle_type_id":"4","last_reported":1732284505,"current_range_meters":24800,"station_id":"ce4bhmp2rcd13ifvqgog","pricing_plan_id":"cebpf4jnsgd1na2vs0mg"},{"bike_id":"a421d6a9-8a2c-4636-a7e7-be0188599766","system_id":"levelo_inurba_marseille","lat":43.29797,"lon":5.381,"is_reserved":false,"is_disabled":false,"rental_uris":{"android":"levelo://app?vid=a421d6a9-8a2c-4636-a7e7-be0188599766","ios":"levelo://app?vid=a421d6a9-8a2c-4636-a7e7-be0188599766"},"vehicle_type_id":"4","last_reported":1732284505,"current_range_meters":25200,"station_id":"ce4bgip2rcd13ifvqbb0","pricing_plan_id":"cebpf4jnsgd1na2vs0mg"},{"bike_id":"896b2297-b84a-495d-8ee8-43f2deca1b53","system_id":"levelo_inurba_marseille","lat":43.26951,"lon":5.38619,"is_reserved":false,"is_disabled":false,"rental_uris":{"android":"levelo://app?vid=896b2297-b84a-495d-8ee8-43f2deca1b53","ios":"levelo://app?vid=896b2297-b84a-495d-8ee8-43f2deca1b53"},"vehicle_type_id":"4","last_reported":1732284505,"current_range_meters":26000,"station_id":"ce4bhh92rcd13ifvqfh0","pricing_plan_id":"cebpf4jnsgd1na2vs0mg"},{"bike_id":"0814db76-5030-46a1-b8bb-fcc29fb82c70","system_id":"levelo_inurba_marseille","lat":43.32482,"lon":5.36572,"is_reserved":false,"is_disabled":false,"rental_uris":{"android":"levelo://app?vid=0814db76-5030-46a1-b8bb-fcc29fb82c70","ios":"levelo://app?vid=0814db76-5030-46a1-b8bb-fcc29fb82c70"},"vehicle_type_id":"4","last_reported":1732284505,"current_range_meters":32400,"station_id":"ce4bhs12rcd13ifvqhvg","pricing_plan_id":"cebpf4jnsgd1na2vs0mg"},{"bike_id":"8471c761-4bcd-4b56-96d8-ddfab4d6be83","system_id":"levelo_inurba_marseille","lat":43.2695,"lon":5.38636,"is_reserved":false,"is_disabled":true,"rental_uris":{"android":"levelo://app?vid=8471c761-4bcd-4b56-96d8-ddfab4d6be83","ios":"levelo://app?vid=8471c761-4bcd-4b56-96d8-ddfab4d6be83"},"vehicle_type_id":"4","last_reported":1732284505,"current_range_meters":0,"station_id":"ce4bhh92rcd13ifvqfh0","pricing_plan_id":"cebpf4jnsgd1na2vs0mg"},{"bike_id":"6dd72399-4c36-4f79-acf1-4c5ee36d28ce","system_id":"levelo_inurba_marseille","lat":43.26064,"lon":5.39395,"is_reserved":false,"is_disabled":false,"rental_uris":{"android":"levelo://app?vid=6dd72399-4c36-4f79-acf1-4c5ee36d28ce","ios":"levelo://app?vid=6dd72399-4c36-4f79-acf1-4c5ee36d28ce"},"vehicle_type_id":"4","last_reported":1732284505,"current_range_meters":35600,"station_id":"ce4bhh92rcd13ifvqfj0","pricing_plan_id":"cebpf4jnsgd1na2vs0mg"},{"bike_id":"96b3494c-c364-496a-b76d-032bcbff08dc","system_id":"levelo_inurba_marseille","lat":43.31349,"lon":5.36711,"is_reserved":false,"is_disabled":false,"rental_uris":{"android":"levelo://app?vid=96b3494c-c364-496a-b76d-032bcbff08dc","ios":"levelo://app?vid=96b3494c-c364-496a-b76d-032bcbff08dc"},"vehicle_type_id":"4","last_reported":1732284505,"current_range_meters":18800,"station_id":"ce4bgr92rcd13ifvqc6g","pricing_plan_id":"cebpf4jnsgd1na2vs0mg"},{"bike_id":"15a61a6c-40ba-40d9-9754-85b1e40e6e21","system_id":"levelo_inurba_marseille","lat":43.30136,"lon":5.37435,"is_reserved":false,"is_disabled":false,"rental_uris":{"android":"levelo://app?vid=15a61a6c-40ba-40d9-9754-85b1e40e6e21","ios":"levelo://app?vid=15a61a6c-40ba-40d9-9754-85b1e40e6e21"},"vehicle_type_id":"4","last_reported":1732284505,"current_range_meters":39200,"station_id":"ce4bgs92rcd13ifvqcc0","pricing_plan_id":"cebpf4jnsgd1na2vs0mg"},{"bike_id":"cc45001e-86ba-42cc-9993-ed5261abbfe0","system_id":"levelo_inurba_marseille","lat":43.32365,"lon":5.38883,"is_reserved":false,"is_disabled":false,"rental_uris":{"android":"levelo://app?vid=cc45001e-86ba-42cc-9993-ed5261abbfe0","ios":"levelo://app?vid=cc45001e-86ba-42cc-9993-ed5261abbfe0"},"vehicle_type_id":"4","last_reported":1732284505,"current_range_meters":14400,"station_id":"ce4bhqp2rcd13ifvqhog","pricing_plan_id":"cebpf4jnsgd1na2vs0mg"},{"bike_id":"75acd4bf-0b28-4c3f-b69c-8eeb6f2a31bc","system_id":"levelo_inurba_marseille","lat":43.23151,"lon":5.43713,"is_reserved":false,"is_disabled":false,"rental_uris":{"android":"levelo://app?vid=75acd4bf-0b28-4c3f-b69c-8eeb6f2a31bc","ios":"levelo://app?vid=75acd4bf-0b28-4c3f-b69c-8eeb6f2a31bc"},"vehicle_type_id":"4","last_reported":1732284505,"current_range_meters":15200,"station_id":"ce4bhmp2rcd13ifvqgog","pricing_plan_id":"cebpf4jnsgd1na2vs0mg"},{"bike_id":"c0755ad7-8353-40d1-98a4-bba43ca0e3ab","system_id":"levelo_inurba_marseille","lat":43.33721,"lon":5.39196,"is_reserved":false,"is_disabled":false,"rental_uris":{"android":"levelo://app?vid=c0755ad7-8353-40d1-98a4-bba43ca0e3ab","ios":"levelo://app?vid=c0755ad7-8353-40d1-98a4-bba43ca0e3ab"},"vehicle_type_id":"4","last_reported":1732284505,"current_range_meters":12000,"station_id":"ce4bhr92rcd13ifvqhsg","pricing_plan_id":"cebpf4jnsgd1na2vs0mg"},{"bike_id":"dc658c23-1340-4135-8661-ef7afd7af18f","system_id":"levelo_inurba_marseille","lat":43.32541,"lon":5.41431,"is_reserved":false,"is_disabled":false,"rental_uris":{"android":"levelo://app?vid=dc658c23-1340-4135-8661-ef7afd7af18f","ios":"levelo://app?vid=dc658c23-1340-4135-8661-ef7afd7af18f"},"vehicle_type_id":"4","last_reported":1732284505,"current_range_meters":28800,"station_id":"ce4bhq12rcd13ifvqhhg","pricing_plan_id":"cebpf4jnsgd1na2vs0mg"},{"bike_id":"e04803a4-4601-4c57-a75e-a123b8f6de10","system_id":"levelo_inurba_marseille","lat":43.2835,"lon":5.38102,"is_reserved":false,"is_disabled":false,"rental_uris":{"android":"levelo://app?vid=e04803a4-4601-4c57-a75e-a123b8f6de10","ios":"levelo://app?vid=e04803a4-4601-4c57-a75e-a123b8f6de10"},"vehicle_type_id":"4","last_reported":1732284505,"current_range_meters":6400,"station_id":"ce4bh412rcd13ifvqdr0","pricing_plan_id":"cebpf4jnsgd1na2vs0mg"},{"bike_id":"a60efe50-454b-4c1c-93bc-fab28a75fcff","system_id":"levelo_inurba_marseille","lat":43.27495,"lon":5.4245,"is_reserved":false,"is_disabled":true,"rental_uris":{"android":"levelo://app?vid=a60efe50-454b-4c1c-93bc-fab28a75fcff","ios":"levelo://app?vid=a60efe50-454b-4c1c-93bc-fab28a75fcff"},"vehicle_type_id":"4","last_reported":1732284505,"current_range_meters":0,"station_id":"ce4bhn92rcd13ifvqgrg","pricing_plan_id":"cebpf4jnsgd1na2vs0mg"},{"bike_id":"a3dfa29f-d880-4cbe-b909-b4e217158e03","system_id":"levelo_inurba_marseille","lat":43.27178,"lon":5.40994,"is_reserved":false,"is_disabled":true,"rental_uris":{"android":"levelo://app?vid=a3dfa29f-d880-4cbe-b909-b4e217158e03","ios":"levelo://app?vid=a3dfa29f-d880-4cbe-b909-b4e217158e03"},"vehicle_type_id":"4","last_reported":1732284505,"current_range_meters":35600,"station_id":"ce4bhl12rcd13ifvqgf0","pricing_plan_id":"cebpf4jnsgd1na2vs0mg"},{"bike_id":"d2321b4c-ae3a-4b43-8bcd-12cb7984481d","system_id":"levelo_inurba_marseille","lat":43.30753,"lon":5.37017,"is_reserved":false,"is_disabled":true,"rental_uris":{"android":"levelo://app?vid=d2321b4c-ae3a-4b43-8bcd-12cb7984481d","ios":"levelo://app?vid=d2321b4c-ae3a-4b43-8bcd-12cb7984481d"},"vehicle_type_id":"4","last_reported":1732284505,"current_range_meters":17600,"station_id":"","pricing_plan_id":"cebpf4jnsgd1na2vs0mg"},{"bike_id":"b2c0bd53-de88-4c1f-905f-1320ac92735e","system_id":"levelo_inurba_marseille","lat":43.30132,"lon":5.39856,"is_reserved":false,"is_disabled":false,"rental_uris":{"android":"levelo://app?vid=b2c0bd53-de88-4c1f-905f-1320ac92735e","ios":"levelo://app?vid=b2c0bd53-de88-4c1f-905f-1320ac92735e"},"vehicle_type_id":"4","last_reported":1732284505,"current_range_meters":24400,"station_id":"ce4bh0h2rcd13ifvqd40","pricing_plan_id":"cebpf4jnsgd1na2vs0mg"},{"bike_id":"c98e2ba2-9302-4f6b-836f-e37fce0bf95e","system_id":"levelo_inurba_marseille","lat":43.29119,"lon":5.37099,"is_reserved":false,"is_disabled":false,"rental_uris":{"android":"levelo://app?vid=c98e2ba2-9302-4f6b-836f-e37fce0bf95e","ios":"levelo://app?vid=c98e2ba2-9302-4f6b-836f-e37fce0bf95e"},"vehicle_type_id":"4","last_reported":1732284505,"current_range_meters":28000,"station_id":"","pricing_plan_id":"cebpf4jnsgd1na2vs0mg"},{"bike_id":"9be72814-f80c-46a7-b916-ab8ba52deb9f","system_id":"levelo_inurba_marseille","lat":43.26807,"lon":5.40268,"is_reserved":false,"is_disabled":false,"rental_uris":{"android":"levelo://app?vid=9be72814-f80c-46a7-b916-ab8ba52deb9f","ios":"levelo://app?vid=9be72814-f80c-46a7-b916-ab8ba52deb9f"},"vehicle_type_id":"4","last_reported":1732284505,"current_range_meters":30400,"station_id":"ce501612rcd8frsf0b60","pricing_plan_id":"cebpf4jnsgd1na2vs0mg"},{"bike_id":"5c3000a0-a190-4007-a723-aa2707fd1ce3","system_id":"levelo_inurba_marseille","lat":43.22939,"lon":5.35378,"is_reserved":false,"is_disabled":false,"rental_uris":{"android":"levelo://app?vid=5c3000a0-a190-4007-a723-aa2707fd1ce3","ios":"levelo://app?vid=5c3000a0-a190-4007-a723-aa2707fd1ce3"},"vehicle_type_id":"4","last_reported":1732284505,"current_range_meters":38800,"station_id":"cpo3532slgdg3j2ikp40","pricing_plan_id":"cebpf4jnsgd1na2vs0mg"},{"bike_id":"1c5fdcc2-ba84-4c46-bf38-3d224d434b52","system_id":"levelo_inurba_marseille","lat":43.32339,"lon":5.40623,"is_reserved":false,"is_disabled":false,"rental_uris":{"android":"levelo://app?vid=1c5fdcc2-ba84-4c46-bf38-3d224d434b52","ios":"levelo://app?vid=1c5fdcc2-ba84-4c46-bf38-3d224d434b52"},"vehicle_type_id":"4","last_reported":1732284505,"current_range_meters":3200,"station_id":"ce4bhq92rcd13ifvqhjg","pricing_plan_id":"cebpf4jnsgd1na2vs0mg"},{"bike_id":"74ffff71-708d-4975-9dc0-55d19a531d39","system_id":"levelo_inurba_marseille","lat":43.24804,"lon":5.37455,"is_reserved":false,"is_disabled":false,"rental_uris":{"android":"levelo://app?vid=74ffff71-708d-4975-9dc0-55d19a531d39","ios":"levelo://app?vid=74ffff71-708d-4975-9dc0-55d19a531d39"},"vehicle_type_id":"4","last_reported":1732284505,"current_range_meters":30400,"station_id":"ce4bhgh2rcd13ifvqfb0","pricing_plan_id":"cebpf4jnsgd1na2vs0mg"},{"bike_id":"13d97e51-4629-4dea-a020-c8d4f7dbd452","system_id":"levelo_inurba_marseille","lat":43.28415,"lon":5.34992,"is_reserved":false,"is_disabled":false,"rental_uris":{"android":"levelo://app?vid=13d97e51-4629-4dea-a020-c8d4f7dbd452","ios":"levelo://app?vid=13d97e51-4629-4dea-a020-c8d4f7dbd452"},"vehicle_type_id":"4","last_reported":1732284505,"current_range_meters":17600,"station_id":"ce4bhbh2rcd13ifvqepg","pricing_plan_id":"cebpf4jnsgd1na2vs0mg"},{"bike_id":"3f4b586a-f19b-437c-a62a-b21b76562db2","system_id":"levelo_inurba_marseille","lat":43.2318,"lon":5.39989,"is_reserved":false,"is_disabled":false,"rental_uris":{"android":"levelo://app?vid=3f4b586a-f19b-437c-a62a-b21b76562db2","ios":"levelo://app?vid=3f4b586a-f19b-437c-a62a-b21b76562db2"},"vehicle_type_id":"4","last_reported":1732284505,"current_range_meters":3200,"station_id":"ce4bhn12rcd13ifvqgqg","pricing_plan_id":"cebpf4jnsgd1na2vs0mg"},{"bike_id":"1ad0f4f4-1775-4a05-9c35-b4b31bbcc7e3","system_id":"levelo_inurba_marseille","lat":43.29023,"lon":5.38634,"is_reserved":false,"is_disabled":false,"rental_uris":{"android":"levelo://app?vid=1ad0f4f4-1775-4a05-9c35-b4b31bbcc7e3","ios":"levelo://app?vid=1ad0f4f4-1775-4a05-9c35-b4b31bbcc7e3"},"vehicle_type_id":"4","last_reported":1732284505,"current_range_meters":34800,"station_id":"ce4bh4p2rcd13ifvqe0g","pricing_plan_id":"cebpf4jnsgd1na2vs0mg"},{"bike_id":"820eeb35-4216-401e-8da8-629b28d9c48b","system_id":"levelo_inurba_marseille","lat":43.28973,"lon":5.37838,"is_reserved":false,"is_disabled":false,"rental_uris":{"android":"levelo://app?vid=820eeb35-4216-401e-8da8-629b28d9c48b","ios":"levelo://app?vid=820eeb35-4216-401e-8da8-629b28d9c48b"},"vehicle_type_id":"4","last_reported":1732284505,"current_range_meters":24800,"station_id":"ce4bh9p2rcd13ifvqed0","pricing_plan_id":"cebpf4jnsgd1na2vs0mg"},{"bike_id":"74b5463a-01d7-428c-a87f-824daf27cde1","system_id":"levelo_inurba_marseille","lat":43.33021,"lon":5.39041,"is_reserved":false,"is_disabled":false,"rental_uris":{"android":"levelo://app?vid=74b5463a-01d7-428c-a87f-824daf27cde1","ios":"levelo://app?vid=74b5463a-01d7-428c-a87f-824daf27cde1"},"vehicle_type_id":"4","last_reported":1732284505,"current_range_meters":24000,"station_id":"ce4bhr92rcd13ifvqhrg","pricing_plan_id":"cebpf4jnsgd1na2vs0mg"},{"bike_id":"1cd0daee-d68a-4e66-9883-fbe67fd8260f","system_id":"levelo_inurba_marseille","lat":43.305794,"lon":5.370686,"is_reserved":false,"is_disabled":true,"rental_uris":{"android":"levelo://app?vid=1cd0daee-d68a-4e66-9883-fbe67fd8260f","ios":"levelo://app?vid=1cd0daee-d68a-4e66-9883-fbe67fd8260f"},"vehicle_type_id":"4","last_reported":1732284505,"current_range_meters":0,"station_id":"","pricing_plan_id":"cebpf4jnsgd1na2vs0mg"},{"bike_id":"3ecd968f-1f7e-4bd4-968d-4e3b4005d51b","system_id":"levelo_inurba_marseille","lat":43.31047,"lon":5.37889,"is_reserved":false,"is_disabled":true,"rental_uris":{"android":"levelo://app?vid=3ecd968f-1f7e-4bd4-968d-4e3b4005d51b","ios":"levelo://app?vid=3ecd968f-1f7e-4bd4-968d-4e3b4005d51b"},"vehicle_type_id":"4","last_reported":1732284505,"current_range_meters":3600,"station_id":"","pricing_plan_id":"cebpf4jnsgd1na2vs0mg"},{"bike_id":"8049dfa2-ab84-4979-a750-4db119a39bb9","system_id":"levelo_inurba_marseille","lat":43.26033,"lon":5.37557,"is_reserved":false,"is_disabled":false,"rental_uris":{"android":"levelo://app?vid=8049dfa2-ab84-4979-a750-4db119a39bb9","ios":"levelo://app?vid=8049dfa2-ab84-4979-a750-4db119a39bb9"},"vehicle_type_id":"4","last_reported":1732284505,"current_range_meters":21600,"station_id":"ce4bhgh2rcd13ifvqfa0","pricing_plan_id":"cebpf4jnsgd1na2vs0mg"},{"bike_id":"e5bc1dc2-782c-4b6a-aff0-a9a1a2d4a764","system_id":"levelo_inurba_marseille","lat":43.28922,"lon":5.38386,"is_reserved":false,"is_disabled":false,"rental_uris":{"android":"levelo://app?vid=e5bc1dc2-782c-4b6a-aff0-a9a1a2d4a764","ios":"levelo://app?vid=e5bc1dc2-782c-4b6a-aff0-a9a1a2d4a764"},"vehicle_type_id":"4","last_reported":1732284505,"current_range_meters":37600,"station_id":"ce4bh612rcd13ifvqe6g","pricing_plan_id":"cebpf4jnsgd1na2vs0mg"},{"bike_id":"0357a561-56d6-4846-b11d-a03c1167541e","system_id":"levelo_inurba_marseille","lat":43.26199,"lon":5.3794,"is_reserved":false,"is_disabled":false,"rental_uris":{"android":"levelo://app?vid=0357a561-56d6-4846-b11d-a03c1167541e","ios":"levelo://app?vid=0357a561-56d6-4846-b11d-a03c1167541e"},"vehicle_type_id":"4","last_reported":1732284505,"current_range_meters":10800,"station_id":"ce4bhjp2rcd13ifvqg90","pricing_plan_id":"cebpf4jnsgd1na2vs0mg"},{"bike_id":"51410e4f-39b2-4da7-a32e-6d80ddde8826","system_id":"levelo_inurba_marseille","lat":43.3088,"lon":5.37208,"is_reserved":false,"is_disabled":false,"rental_uris":{"android":"levelo://app?vid=51410e4f-39b2-4da7-a32e-6d80ddde8826","ios":"levelo://app?vid=51410e4f-39b2-4da7-a32e-6d80ddde8826"},"vehicle_type_id":"4","last_reported":1732284505,"current_range_meters":30400,"station_id":"ce4bguh2rcd13ifvqckg","pricing_plan_id":"cebpf4jnsgd1na2vs0mg"},{"bike_id":"56e826b9-8692-47d3-8665-ba754a56fdff","system_id":"levelo_inurba_marseille","lat":43.29971,"lon":5.37176,"is_reserved":false,"is_disabled":false,"rental_uris":{"android":"levelo://app?vid=56e826b9-8692-47d3-8665-ba754a56fdff","ios":"levelo://app?vid=56e826b9-8692-47d3-8665-ba754a56fdff"},"vehicle_type_id":"4","last_reported":1732284505,"current_range_meters":26000,"station_id":"ce4bgr92rcd13ifvqc7g","pricing_plan_id":"cebpf4jnsgd1na2vs0mg"},{"bike_id":"f1ad9ce2-123c-4935-bc55-a0d4b05ba4de","system_id":"levelo_inurba_marseille","lat":43.32022,"lon":5.41545,"is_reserved":false,"is_disabled":false,"rental_uris":{"android":"levelo://app?vid=f1ad9ce2-123c-4935-bc55-a0d4b05ba4de","ios":"levelo://app?vid=f1ad9ce2-123c-4935-bc55-a0d4b05ba4de"},"vehicle_type_id":"4","last_reported":1732284505,"current_range_meters":38800,"station_id":"ce4bhq92rcd13ifvqhkg","pricing_plan_id":"cebpf4jnsgd1na2vs0mg"},{"bike_id":"bdac8ff3-e713-4a02-9f76-78fc6782aa52","system_id":"levelo_inurba_marseille","lat":43.23146,"lon":5.4373,"is_reserved":false,"is_disabled":false,"rental_uris":{"android":"levelo://app?vid=bdac8ff3-e713-4a02-9f76-78fc6782aa52","ios":"levelo://app?vid=bdac8ff3-e713-4a02-9f76-78fc6782aa52"},"vehicle_type_id":"4","last_reported":1732284505,"current_range_meters":24000,"station_id":"ce4bhmp2rcd13ifvqgog","pricing_plan_id":"cebpf4jnsgd1na2vs0mg"},{"bike_id":"c8c71d6a-3155-4ee9-ba4f-a4d0d36b4405","system_id":"levelo_inurba_marseille","lat":43.26681,"lon":5.38267,"is_reserved":false,"is_disabled":false,"rental_uris":{"android":"levelo://app?vid=c8c71d6a-3155-4ee9-ba4f-a4d0d36b4405","ios":"levelo://app?vid=c8c71d6a-3155-4ee9-ba4f-a4d0d36b4405"},"vehicle_type_id":"4","last_reported":1732284505,"current_range_meters":39200,"station_id":"ce4bhg92rcd13ifvqf90","pricing_plan_id":"cebpf4jnsgd1na2vs0mg"},{"bike_id":"7a8db3dc-7ed9-4c06-814c-f1b4ad393ca2","system_id":"levelo_inurba_marseille","lat":43.31759,"lon":5.39021,"is_reserved":false,"is_disabled":false,"rental_uris":{"android":"levelo://app?vid=7a8db3dc-7ed9-4c06-814c-f1b4ad393ca2","ios":"levelo://app?vid=7a8db3dc-7ed9-4c06-814c-f1b4ad393ca2"},"vehicle_type_id":"4","last_reported":1732284505,"current_range_meters":33600,"station_id":"ce4bhqp2rcd13ifvqhng","pricing_plan_id":"cebpf4jnsgd1na2vs0mg"},{"bike_id":"7fe02e43-1a42-415e-bc13-9597e9ff44c9","system_id":"levelo_inurba_marseille","lat":43.24387,"lon":5.37063,"is_reserved":false,"is_disabled":false,"rental_uris":{"android":"levelo://app?vid=7fe02e43-1a42-415e-bc13-9597e9ff44c9","ios":"levelo://app?vid=7fe02e43-1a42-415e-bc13-9597e9ff44c9"},"vehicle_type_id":"4","last_reported":1732284505,"current_range_meters":26800,"station_id":"ce4bhhh2rcd13ifvqfk0","pricing_plan_id":"cebpf4jnsgd1na2vs0mg"},{"bike_id":"8157b22b-fcbc-4b76-b84e-e655e1fa2503","system_id":"levelo_inurba_marseille","lat":43.29097,"lon":5.3815,"is_reserved":false,"is_disabled":false,"rental_uris":{"android":"levelo://app?vid=8157b22b-fcbc-4b76-b84e-e655e1fa2503","ios":"levelo://app?vid=8157b22b-fcbc-4b76-b84e-e655e1fa2503"},"vehicle_type_id":"4","last_reported":1732284505,"current_range_meters":19200,"station_id":"ce4bh512rcd13ifvqe2g","pricing_plan_id":"cebpf4jnsgd1na2vs0mg"},{"bike_id":"b2c537e3-dfc0-4df0-86c7-47511c8950d4","system_id":"levelo_inurba_marseille","lat":43.314659,"lon":5.373149,"is_reserved":false,"is_disabled":false,"rental_uris":{"android":"levelo://app?vid=b2c537e3-dfc0-4df0-86c7-47511c8950d4","ios":"levelo://app?vid=b2c537e3-dfc0-4df0-86c7-47511c8950d4"},"vehicle_type_id":"4","last_reported":1732284505,"current_range_meters":23200,"station_id":"ce4bgt12rcd13ifvqcd0","pricing_plan_id":"cebpf4jnsgd1na2vs0mg"},{"bike_id":"ebe2b43b-e5bb-4158-835b-e46b2ce0d167","system_id":"levelo_inurba_marseille","lat":43.22928,"lon":5.35372,"is_reserved":false,"is_disabled":false,"rental_uris":{"android":"levelo://app?vid=ebe2b43b-e5bb-4158-835b-e46b2ce0d167","ios":"levelo://app?vid=ebe2b43b-e5bb-4158-835b-e46b2ce0d167"},"vehicle_type_id":"4","last_reported":1732284505,"current_range_meters":34000,"station_id":"cpo3532slgdg3j2ikp40","pricing_plan_id":"cebpf4jnsgd1na2vs0mg"},{"bike_id":"8bea89f4-9289-4887-b00b-01289eb39a9a","system_id":"levelo_inurba_marseille","lat":43.27071,"lon":5.42283,"is_reserved":false,"is_disabled":false,"rental_uris":{"android":"levelo://app?vid=8bea89f4-9289-4887-b00b-01289eb39a9a","ios":"levelo://app?vid=8bea89f4-9289-4887-b00b-01289eb39a9a"},"vehicle_type_id":"4","last_reported":1732284505,"current_range_meters":7200,"station_id":"ce4bhk92rcd13ifvqgb0","pricing_plan_id":"cebpf4jnsgd1na2vs0mg"},{"bike_id":"d3f88ac1-af0e-4fe3-957f-9fb722f55ef1","system_id":"levelo_inurba_marseille","lat":43.3248,"lon":5.36567,"is_reserved":false,"is_disabled":false,"rental_uris":{"android":"levelo://app?vid=d3f88ac1-af0e-4fe3-957f-9fb722f55ef1","ios":"levelo://app?vid=d3f88ac1-af0e-4fe3-957f-9fb722f55ef1"},"vehicle_type_id":"4","last_reported":1732284505,"current_range_meters":36000,"station_id":"ce4bhs12rcd13ifvqhvg","pricing_plan_id":"cebpf4jnsgd1na2vs0mg"},{"bike_id":"54c941fb-b114-418e-bf6b-63c539598484","system_id":"levelo_inurba_marseille","lat":43.31488,"lon":5.37317,"is_reserved":false,"is_disabled":true,"rental_uris":{"android":"levelo://app?vid=54c941fb-b114-418e-bf6b-63c539598484","ios":"levelo://app?vid=54c941fb-b114-418e-bf6b-63c539598484"},"vehicle_type_id":"4","last_reported":1732284505,"current_range_meters":0,"station_id":"ce4bgt12rcd13ifvqcd0","pricing_plan_id":"cebpf4jnsgd1na2vs0mg"},{"bike_id":"545b94cd-2988-4c55-b2f1-b95c73408506","system_id":"levelo_inurba_marseille","lat":43.28415,"lon":5.34981,"is_reserved":false,"is_disabled":false,"rental_uris":{"android":"levelo://app?vid=545b94cd-2988-4c55-b2f1-b95c73408506","ios":"levelo://app?vid=545b94cd-2988-4c55-b2f1-b95c73408506"},"vehicle_type_id":"4","last_reported":1732284505,"current_range_meters":38800,"station_id":"ce4bhbh2rcd13ifvqepg","pricing_plan_id":"cebpf4jnsgd1na2vs0mg"},{"bike_id":"c1b485b1-bf3a-4430-b22c-609f5e7c27ee","system_id":"levelo_inurba_marseille","lat":43.30417,"lon":5.38895,"is_reserved":false,"is_disabled":false,"rental_uris":{"android":"levelo://app?vid=c1b485b1-bf3a-4430-b22c-609f5e7c27ee","ios":"levelo://app?vid=c1b485b1-bf3a-4430-b22c-609f5e7c27ee"},"vehicle_type_id":"4","last_reported":1732284505,"current_range_meters":38400,"station_id":"ce4bgk12rcd13ifvqbi0","pricing_plan_id":"cebpf4jnsgd1na2vs0mg"},{"bike_id":"bde3ccd1-2816-4740-b2ab-f8c17f92cf0d","system_id":"levelo_inurba_marseille","lat":43.26055,"lon":5.39401,"is_reserved":false,"is_disabled":false,"rental_uris":{"android":"levelo://app?vid=bde3ccd1-2816-4740-b2ab-f8c17f92cf0d","ios":"levelo://app?vid=bde3ccd1-2816-4740-b2ab-f8c17f92cf0d"},"vehicle_type_id":"4","last_reported":1732284505,"current_range_meters":22800,"station_id":"ce4bhh92rcd13ifvqfj0","pricing_plan_id":"cebpf4jnsgd1na2vs0mg"},{"bike_id":"41364bbe-1b6a-4015-8dca-0e707514007d","system_id":"levelo_inurba_marseille","lat":43.248,"lon":5.3746,"is_reserved":false,"is_disabled":false,"rental_uris":{"android":"levelo://app?vid=41364bbe-1b6a-4015-8dca-0e707514007d","ios":"levelo://app?vid=41364bbe-1b6a-4015-8dca-0e707514007d"},"vehicle_type_id":"4","last_reported":1732284505,"current_range_meters":19600,"station_id":"ce4bhgh2rcd13ifvqfb0","pricing_plan_id":"cebpf4jnsgd1na2vs0mg"},{"bike_id":"e441d61e-859f-4025-a713-ef9180aa6ca4","system_id":"levelo_inurba_marseille","lat":43.28671,"lon":5.38673,"is_reserved":false,"is_disabled":false,"rental_uris":{"android":"levelo://app?vid=e441d61e-859f-4025-a713-ef9180aa6ca4","ios":"levelo://app?vid=e441d61e-859f-4025-a713-ef9180aa6ca4"},"vehicle_type_id":"4","last_reported":1732284505,"current_range_meters":26000,"station_id":"ce4bh492rcd13ifvqdug","pricing_plan_id":"cebpf4jnsgd1na2vs0mg"},{"bike_id":"567b5bec-6f69-4097-9d92-252add5a5c8a","system_id":"levelo_inurba_marseille","lat":43.25578,"lon":5.382405,"is_reserved":false,"is_disabled":false,"rental_uris":{"android":"levelo://app?vid=567b5bec-6f69-4097-9d92-252add5a5c8a","ios":"levelo://app?vid=567b5bec-6f69-4097-9d92-252add5a5c8a"},"vehicle_type_id":"4","last_reported":1732284505,"current_range_meters":36400,"station_id":"ce4bhih2rcd13ifvqfs0","pricing_plan_id":"cebpf4jnsgd1na2vs0mg"},{"bike_id":"201618a7-ff1e-443e-9c62-713ad2a289f9","system_id":"levelo_inurba_marseille","lat":43.27677,"lon":5.38866,"is_reserved":false,"is_disabled":false,"rental_uris":{"android":"levelo://app?vid=201618a7-ff1e-443e-9c62-713ad2a289f9","ios":"levelo://app?vid=201618a7-ff1e-443e-9c62-713ad2a289f9"},"vehicle_type_id":"4","last_reported":1732284505,"current_range_meters":5600,"station_id":"ce4bhi12rcd13ifvqfo0","pricing_plan_id":"cebpf4jnsgd1na2vs0mg"},{"bike_id":"161929c3-33a6-4b2a-8e1e-43cf8eda5a05","system_id":"levelo_inurba_marseille","lat":43.33019,"lon":5.39045,"is_reserved":false,"is_disabled":false,"rental_uris":{"android":"levelo://app?vid=161929c3-33a6-4b2a-8e1e-43cf8eda5a05","ios":"levelo://app?vid=161929c3-33a6-4b2a-8e1e-43cf8eda5a05"},"vehicle_type_id":"4","last_reported":1732284505,"current_range_meters":17200,"station_id":"ce4bhr92rcd13ifvqhrg","pricing_plan_id":"cebpf4jnsgd1na2vs0mg"},{"bike_id":"1d2602ed-bcb1-45f1-b1df-3103bc42e2c2","system_id":"levelo_inurba_marseille","lat":43.31485,"lon":5.37308,"is_reserved":false,"is_disabled":false,"rental_uris":{"android":"levelo://app?vid=1d2602ed-bcb1-45f1-b1df-3103bc42e2c2","ios":"levelo://app?vid=1d2602ed-bcb1-45f1-b1df-3103bc42e2c2"},"vehicle_type_id":"4","last_reported":1732284505,"current_range_meters":28000,"station_id":"ce4bgt12rcd13ifvqcd0","pricing_plan_id":"cebpf4jnsgd1na2vs0mg"},{"bike_id":"7d83fe66-284f-4d5c-9824-775c623fc149","system_id":"levelo_inurba_marseille","lat":43.30084,"lon":5.39075,"is_reserved":false,"is_disabled":false,"rental_uris":{"android":"levelo://app?vid=7d83fe66-284f-4d5c-9824-775c623fc149","ios":"levelo://app?vid=7d83fe66-284f-4d5c-9824-775c623fc149"},"vehicle_type_id":"4","last_reported":1732284505,"current_range_meters":35600,"station_id":"ce4bh192rcd13ifvqdb0","pricing_plan_id":"cebpf4jnsgd1na2vs0mg"},{"bike_id":"f9e35db8-2f7a-4f43-8c70-83778761d42d","system_id":"levelo_inurba_marseille","lat":43.23185,"lon":5.35569,"is_reserved":false,"is_disabled":true,"rental_uris":{"android":"levelo://app?vid=f9e35db8-2f7a-4f43-8c70-83778761d42d","ios":"levelo://app?vid=f9e35db8-2f7a-4f43-8c70-83778761d42d"},"vehicle_type_id":"4","last_reported":1732284505,"current_range_meters":37600,"station_id":"ce4bhu92rcd13ifvqi70","pricing_plan_id":"cebpf4jnsgd1na2vs0mg"},{"bike_id":"d276d0c8-b739-4fa2-a9a1-c57ee643a3d3","system_id":"levelo_inurba_marseille","lat":43.29264,"lon":5.36852,"is_reserved":false,"is_disabled":false,"rental_uris":{"android":"levelo://app?vid=d276d0c8-b739-4fa2-a9a1-c57ee643a3d3","ios":"levelo://app?vid=d276d0c8-b739-4fa2-a9a1-c57ee643a3d3"},"vehicle_type_id":"4","last_reported":1732284505,"current_range_meters":36000,"station_id":"ce4bhbp2rcd13ifvqesg","pricing_plan_id":"cebpf4jnsgd1na2vs0mg"},{"bike_id":"d189e41f-fe77-4710-a717-9cd3e719a1b5","system_id":"levelo_inurba_marseille","lat":43.30879,"lon":5.39656,"is_reserved":false,"is_disabled":false,"rental_uris":{"android":"levelo://app?vid=d189e41f-fe77-4710-a717-9cd3e719a1b5","ios":"levelo://app?vid=d189e41f-fe77-4710-a717-9cd3e719a1b5"},"vehicle_type_id":"4","last_reported":1732284505,"current_range_meters":38000,"station_id":"ce4bh012rcd13ifvqcv0","pricing_plan_id":"cebpf4jnsgd1na2vs0mg"},{"bike_id":"f5c84646-9111-470f-bf92-13ef47258740","system_id":"levelo_inurba_marseille","lat":43.229309,"lon":5.353775,"is_reserved":false,"is_disabled":false,"rental_uris":{"android":"levelo://app?vid=f5c84646-9111-470f-bf92-13ef47258740","ios":"levelo://app?vid=f5c84646-9111-470f-bf92-13ef47258740"},"vehicle_type_id":"4","last_reported":1732284505,"current_range_meters":10000,"station_id":"cpo3532slgdg3j2ikp40","pricing_plan_id":"cebpf4jnsgd1na2vs0mg"},{"bike_id":"f4c2186d-628c-41f3-a5a5-bb253eb2b337","system_id":"levelo_inurba_marseille","lat":43.29717,"lon":5.37689,"is_reserved":false,"is_disabled":false,"rental_uris":{"android":"levelo://app?vid=f4c2186d-628c-41f3-a5a5-bb253eb2b337","ios":"levelo://app?vid=f4c2186d-628c-41f3-a5a5-bb253eb2b337"},"vehicle_type_id":"4","last_reported":1732284505,"current_range_meters":16800,"station_id":"ce4bgkh2rcd13ifvqbl0","pricing_plan_id":"cebpf4jnsgd1na2vs0mg"},{"bike_id":"17b263e7-11a4-4e49-99f1-347989185c5a","system_id":"levelo_inurba_marseille","lat":43.27185,"lon":5.40998,"is_reserved":false,"is_disabled":false,"rental_uris":{"android":"levelo://app?vid=17b263e7-11a4-4e49-99f1-347989185c5a","ios":"levelo://app?vid=17b263e7-11a4-4e49-99f1-347989185c5a"},"vehicle_type_id":"4","last_reported":1732284505,"current_range_meters":38800,"station_id":"ce4bhl12rcd13ifvqgf0","pricing_plan_id":"cebpf4jnsgd1na2vs0mg"},{"bike_id":"ac894d2b-d4fc-430d-9b98-f63b338519b2","system_id":"levelo_inurba_marseille","lat":43.2594,"lon":5.40906,"is_reserved":false,"is_disabled":false,"rental_uris":{"android":"levelo://app?vid=ac894d2b-d4fc-430d-9b98-f63b338519b2","ios":"levelo://app?vid=ac894d2b-d4fc-430d-9b98-f63b338519b2"},"vehicle_type_id":"4","last_reported":1732284505,"current_range_meters":27200,"station_id":"ce4bhm92rcd13ifvqglg","pricing_plan_id":"cebpf4jnsgd1na2vs0mg"},{"bike_id":"1722dc57-b7cc-42f2-b2e0-d9b2d7ae634d","system_id":"levelo_inurba_marseille","lat":43.28263,"lon":5.35074,"is_reserved":false,"is_disabled":false,"rental_uris":{"android":"levelo://app?vid=1722dc57-b7cc-42f2-b2e0-d9b2d7ae634d","ios":"levelo://app?vid=1722dc57-b7cc-42f2-b2e0-d9b2d7ae634d"},"vehicle_type_id":"4","last_reported":1732284505,"current_range_meters":38800,"station_id":"ce4bhbp2rcd13ifvqerg","pricing_plan_id":"cebpf4jnsgd1na2vs0mg"},{"bike_id":"48a282e0-3281-4039-a84d-1e27889759cf","system_id":"levelo_inurba_marseille","lat":43.28462,"lon":5.359,"is_reserved":false,"is_disabled":false,"rental_uris":{"android":"levelo://app?vid=48a282e0-3281-4039-a84d-1e27889759cf","ios":"levelo://app?vid=48a282e0-3281-4039-a84d-1e27889759cf"},"vehicle_type_id":"4","last_reported":1732284505,"current_range_meters":18800,"station_id":"ce4bhah2rcd13ifvqei0","pricing_plan_id":"cebpf4jnsgd1na2vs0mg"},{"bike_id":"a06c2ba2-557a-4b3d-abd2-d68c1f5aef4b","system_id":"levelo_inurba_marseille","lat":43.28929,"lon":5.36637,"is_reserved":false,"is_disabled":false,"rental_uris":{"android":"levelo://app?vid=a06c2ba2-557a-4b3d-abd2-d68c1f5aef4b","ios":"levelo://app?vid=a06c2ba2-557a-4b3d-abd2-d68c1f5aef4b"},"vehicle_type_id":"4","last_reported":1732284505,"current_range_meters":38800,"station_id":"ce4bhap2rcd13ifvqek0","pricing_plan_id":"cebpf4jnsgd1na2vs0mg"},{"bike_id":"35005469-a36f-4579-b926-2bbc2fea0fa4","system_id":"levelo_inurba_marseille","lat":43.31346,"lon":5.367168,"is_reserved":false,"is_disabled":false,"rental_uris":{"android":"levelo://app?vid=35005469-a36f-4579-b926-2bbc2fea0fa4","ios":"levelo://app?vid=35005469-a36f-4579-b926-2bbc2fea0fa4"},"vehicle_type_id":"4","last_reported":1732284505,"current_range_meters":9200,"station_id":"ce4bgr92rcd13ifvqc6g","pricing_plan_id":"cebpf4jnsgd1na2vs0mg"},{"bike_id":"e6f269d5-78f6-4043-917f-52913283f83c","system_id":"levelo_inurba_marseille","lat":43.23151,"lon":5.43718,"is_reserved":false,"is_disabled":false,"rental_uris":{"android":"levelo://app?vid=e6f269d5-78f6-4043-917f-52913283f83c","ios":"levelo://app?vid=e6f269d5-78f6-4043-917f-52913283f83c"},"vehicle_type_id":"4","last_reported":1732284505,"current_range_meters":26800,"station_id":"ce4bhmp2rcd13ifvqgog","pricing_plan_id":"cebpf4jnsgd1na2vs0mg"},{"bike_id":"844cb461-f780-45f5-88b2-3951b51e6462","system_id":"levelo_inurba_marseille","lat":43.30116,"lon":5.37791,"is_reserved":false,"is_disabled":true,"rental_uris":{"android":"levelo://app?vid=844cb461-f780-45f5-88b2-3951b51e6462","ios":"levelo://app?vid=844cb461-f780-45f5-88b2-3951b51e6462"},"vehicle_type_id":"4","last_reported":1732284505,"current_range_meters":0,"station_id":"","pricing_plan_id":"cebpf4jnsgd1na2vs0mg"},{"bike_id":"9944fad4-5f58-4bdc-985a-3a03c36f291d","system_id":"levelo_inurba_marseille","lat":43.3091,"lon":5.3685,"is_reserved":false,"is_disabled":false,"rental_uris":{"android":"levelo://app?vid=9944fad4-5f58-4bdc-985a-3a03c36f291d","ios":"levelo://app?vid=9944fad4-5f58-4bdc-985a-3a03c36f291d"},"vehicle_type_id":"4","last_reported":1732284505,"current_range_meters":12800,"station_id":"ce4bgn92rcd13ifvqbvg","pricing_plan_id":"cebpf4jnsgd1na2vs0mg"},{"bike_id":"faaf7e4a-7946-4bff-baba-9c07794f0af2","system_id":"levelo_inurba_marseille","lat":43.27997,"lon":5.40011,"is_reserved":false,"is_disabled":false,"rental_uris":{"android":"levelo://app?vid=faaf7e4a-7946-4bff-baba-9c07794f0af2","ios":"levelo://app?vid=faaf7e4a-7946-4bff-baba-9c07794f0af2"},"vehicle_type_id":"4","last_reported":1732284505,"current_range_meters":12000,"station_id":"ce4bho92rcd13ifvqh4g","pricing_plan_id":"cebpf4jnsgd1na2vs0mg"},{"bike_id":"21a8d14f-83ba-4d5a-8026-038cc16878d9","system_id":"levelo_inurba_marseille","lat":43.29037,"lon":5.37563,"is_reserved":false,"is_disabled":false,"rental_uris":{"android":"levelo://app?vid=21a8d14f-83ba-4d5a-8026-038cc16878d9","ios":"levelo://app?vid=21a8d14f-83ba-4d5a-8026-038cc16878d9"},"vehicle_type_id":"4","last_reported":1732284505,"current_range_meters":10800,"station_id":"ce4bh692rcd13ifvqe90","pricing_plan_id":"cebpf4jnsgd1na2vs0mg"},{"bike_id":"cdaafd2d-0da1-4fac-9881-15c66a7cd7c0","system_id":"levelo_inurba_marseille","lat":43.23146,"lon":5.43713,"is_reserved":false,"is_disabled":false,"rental_uris":{"android":"levelo://app?vid=cdaafd2d-0da1-4fac-9881-15c66a7cd7c0","ios":"levelo://app?vid=cdaafd2d-0da1-4fac-9881-15c66a7cd7c0"},"vehicle_type_id":"4","last_reported":1732284505,"current_range_meters":39200,"station_id":"ce4bhmp2rcd13ifvqgog","pricing_plan_id":"cebpf4jnsgd1na2vs0mg"},{"bike_id":"c1024338-3a35-4c5d-8621-6f53a0a7a406","system_id":"levelo_inurba_marseille","lat":43.336669,"lon":5.39812,"is_reserved":false,"is_disabled":true,"rental_uris":{"android":"levelo://app?vid=c1024338-3a35-4c5d-8621-6f53a0a7a406","ios":"levelo://app?vid=c1024338-3a35-4c5d-8621-6f53a0a7a406"},"vehicle_type_id":"4","last_reported":1732284505,"current_range_meters":33200,"station_id":"","pricing_plan_id":"cebpf4jnsgd1na2vs0mg"},{"bike_id":"b03f69f7-b71a-4f20-b004-cac08d3d55e5","system_id":"levelo_inurba_marseille","lat":43.32367,"lon":5.38883,"is_reserved":false,"is_disabled":false,"rental_uris":{"android":"levelo://app?vid=b03f69f7-b71a-4f20-b004-cac08d3d55e5","ios":"levelo://app?vid=b03f69f7-b71a-4f20-b004-cac08d3d55e5"},"vehicle_type_id":"4","last_reported":1732284505,"current_range_meters":29600,"station_id":"ce4bhqp2rcd13ifvqhog","pricing_plan_id":"cebpf4jnsgd1na2vs0mg"},{"bike_id":"99d5eeb3-6513-46db-81bf-de6e43866527","system_id":"levelo_inurba_marseille","lat":43.32366,"lon":5.38883,"is_reserved":false,"is_disabled":false,"rental_uris":{"android":"levelo://app?vid=99d5eeb3-6513-46db-81bf-de6e43866527","ios":"levelo://app?vid=99d5eeb3-6513-46db-81bf-de6e43866527"},"vehicle_type_id":"4","last_reported":1732284505,"current_range_meters":37600,"station_id":"ce4bhqp2rcd13ifvqhog","pricing_plan_id":"cebpf4jnsgd1na2vs0mg"},{"bike_id":"fec5e939-eca4-417b-b8a4-d1ee4f770fcd","system_id":"levelo_inurba_marseille","lat":43.26932,"lon":5.38924,"is_reserved":false,"is_disabled":false,"rental_uris":{"android":"levelo://app?vid=fec5e939-eca4-417b-b8a4-d1ee4f770fcd","ios":"levelo://app?vid=fec5e939-eca4-417b-b8a4-d1ee4f770fcd"},"vehicle_type_id":"4","last_reported":1732284505,"current_range_meters":38000,"station_id":"ce4bhhh2rcd13ifvqfl0","pricing_plan_id":"cebpf4jnsgd1na2vs0mg"},{"bike_id":"1ef17f0c-9df8-40aa-bad8-8fe504107889","system_id":"levelo_inurba_marseille","lat":43.31759,"lon":5.39015,"is_reserved":false,"is_disabled":false,"rental_uris":{"android":"levelo://app?vid=1ef17f0c-9df8-40aa-bad8-8fe504107889","ios":"levelo://app?vid=1ef17f0c-9df8-40aa-bad8-8fe504107889"},"vehicle_type_id":"4","last_reported":1732284505,"current_range_meters":39200,"station_id":"ce4bhqp2rcd13ifvqhng","pricing_plan_id":"cebpf4jnsgd1na2vs0mg"},{"bike_id":"2a2cbc19-6a35-49b1-ab3e-4e6ebfb17f7a","system_id":"levelo_inurba_marseille","lat":43.27997,"lon":5.41667,"is_reserved":false,"is_disabled":false,"rental_uris":{"android":"levelo://app?vid=2a2cbc19-6a35-49b1-ab3e-4e6ebfb17f7a","ios":"levelo://app?vid=2a2cbc19-6a35-49b1-ab3e-4e6ebfb17f7a"},"vehicle_type_id":"4","last_reported":1732284505,"current_range_meters":32400,"station_id":"ce4bho12rcd13ifvqh1g","pricing_plan_id":"cebpf4jnsgd1na2vs0mg"},{"bike_id":"7c1e7c26-3771-46e1-8efd-ca5fe31668df","system_id":"levelo_inurba_marseille","lat":43.30745,"lon":5.36817,"is_reserved":false,"is_disabled":false,"rental_uris":{"android":"levelo://app?vid=7c1e7c26-3771-46e1-8efd-ca5fe31668df","ios":"levelo://app?vid=7c1e7c26-3771-46e1-8efd-ca5fe31668df"},"vehicle_type_id":"4","last_reported":1732284505,"current_range_meters":26800,"station_id":"","pricing_plan_id":"cebpf4jnsgd1na2vs0mg"},{"bike_id":"079f3699-b1ef-4c18-b504-2e02d2270464","system_id":"levelo_inurba_marseille","lat":43.28427,"lon":5.35004,"is_reserved":false,"is_disabled":false,"rental_uris":{"android":"levelo://app?vid=079f3699-b1ef-4c18-b504-2e02d2270464","ios":"levelo://app?vid=079f3699-b1ef-4c18-b504-2e02d2270464"},"vehicle_type_id":"4","last_reported":1732284505,"current_range_meters":38800,"station_id":"ce4bhbh2rcd13ifvqepg","pricing_plan_id":"cebpf4jnsgd1na2vs0mg"},{"bike_id":"7cd6f2ab-9cbf-4cfa-8082-7bdecaf781d1","system_id":"levelo_inurba_marseille","lat":43.29907,"lon":5.37473,"is_reserved":false,"is_disabled":false,"rental_uris":{"android":"levelo://app?vid=7cd6f2ab-9cbf-4cfa-8082-7bdecaf781d1","ios":"levelo://app?vid=7cd6f2ab-9cbf-4cfa-8082-7bdecaf781d1"},"vehicle_type_id":"4","last_reported":1732284505,"current_range_meters":31200,"station_id":"ce4bgjh2rcd13ifvqbg0","pricing_plan_id":"cebpf4jnsgd1na2vs0mg"},{"bike_id":"04ad7293-a5d1-4441-9439-04975e56e94d","system_id":"levelo_inurba_marseille","lat":43.30251,"lon":5.40076,"is_reserved":false,"is_disabled":false,"rental_uris":{"android":"levelo://app?vid=04ad7293-a5d1-4441-9439-04975e56e94d","ios":"levelo://app?vid=04ad7293-a5d1-4441-9439-04975e56e94d"},"vehicle_type_id":"4","last_reported":1732284505,"current_range_meters":28400,"station_id":"ce4bgvh2rcd13ifvqcs0","pricing_plan_id":"cebpf4jnsgd1na2vs0mg"},{"bike_id":"02a49d50-9437-41e2-b12e-3080393295a0","system_id":"levelo_inurba_marseille","lat":43.29614,"lon":5.37727,"is_reserved":false,"is_disabled":false,"rental_uris":{"android":"levelo://app?vid=02a49d50-9437-41e2-b12e-3080393295a0","ios":"levelo://app?vid=02a49d50-9437-41e2-b12e-3080393295a0"},"vehicle_type_id":"4","last_reported":1732284505,"current_range_meters":25200,"station_id":"ce4bgi92rcd13ifvqb90","pricing_plan_id":"cebpf4jnsgd1na2vs0mg"},{"bike_id":"4bdef8b5-d12f-41dc-8fcc-abf7411704c1","system_id":"levelo_inurba_marseille","lat":43.23187,"lon":5.39987,"is_reserved":false,"is_disabled":true,"rental_uris":{"android":"levelo://app?vid=4bdef8b5-d12f-41dc-8fcc-abf7411704c1","ios":"levelo://app?vid=4bdef8b5-d12f-41dc-8fcc-abf7411704c1"},"vehicle_type_id":"4","last_reported":1732284505,"current_range_meters":800,"station_id":"ce4bhn12rcd13ifvqgqg","pricing_plan_id":"cebpf4jnsgd1na2vs0mg"},{"bike_id":"fa1a8651-ebdc-41fa-a695-9af53c3d83d5","system_id":"levelo_inurba_marseille","lat":43.29021,"lon":5.38645,"is_reserved":false,"is_disabled":true,"rental_uris":{"android":"levelo://app?vid=fa1a8651-ebdc-41fa-a695-9af53c3d83d5","ios":"levelo://app?vid=fa1a8651-ebdc-41fa-a695-9af53c3d83d5"},"vehicle_type_id":"4","last_reported":1732284505,"current_range_meters":24800,"station_id":"ce4bh4p2rcd13ifvqe0g","pricing_plan_id":"cebpf4jnsgd1na2vs0mg"},{"bike_id":"e634b525-4bbb-4293-b7bd-453bf0616a91","system_id":"levelo_inurba_marseille","lat":43.28415,"lon":5.34997,"is_reserved":false,"is_disabled":false,"rental_uris":{"android":"levelo://app?vid=e634b525-4bbb-4293-b7bd-453bf0616a91","ios":"levelo://app?vid=e634b525-4bbb-4293-b7bd-453bf0616a91"},"vehicle_type_id":"4","last_reported":1732284505,"current_range_meters":38800,"station_id":"ce4bhbh2rcd13ifvqepg","pricing_plan_id":"cebpf4jnsgd1na2vs0mg"},{"bike_id":"90feb255-197f-4765-a839-6d52754f7004","system_id":"levelo_inurba_marseille","lat":43.26565,"lon":5.39011,"is_reserved":false,"is_disabled":false,"rental_uris":{"android":"levelo://app?vid=90feb255-197f-4765-a839-6d52754f7004","ios":"levelo://app?vid=90feb255-197f-4765-a839-6d52754f7004"},"vehicle_type_id":"4","last_reported":1732284505,"current_range_meters":27600,"station_id":"ce4bhe12rcd13ifvqf30","pricing_plan_id":"cebpf4jnsgd1na2vs0mg"},{"bike_id":"26dbb135-9d0a-46f2-8550-e99fb4c2e042","system_id":"levelo_inurba_marseille","lat":43.27201,"lon":5.39198,"is_reserved":false,"is_disabled":true,"rental_uris":{"android":"levelo://app?vid=26dbb135-9d0a-46f2-8550-e99fb4c2e042","ios":"levelo://app?vid=26dbb135-9d0a-46f2-8550-e99fb4c2e042"},"vehicle_type_id":"4","last_reported":1732284505,"current_range_meters":1200,"station_id":"ce4bhhp2rcd13ifvqfm0","pricing_plan_id":"cebpf4jnsgd1na2vs0mg"},{"bike_id":"11c5ed7c-dad2-4605-8db8-4918d0818190","system_id":"levelo_inurba_marseille","lat":43.31724,"lon":5.42407,"is_reserved":false,"is_disabled":false,"rental_uris":{"android":"levelo://app?vid=11c5ed7c-dad2-4605-8db8-4918d0818190","ios":"levelo://app?vid=11c5ed7c-dad2-4605-8db8-4918d0818190"},"vehicle_type_id":"4","last_reported":1732284505,"current_range_meters":38800,"station_id":"ce4bhp92rcd13ifvqhbg","pricing_plan_id":"cebpf4jnsgd1na2vs0mg"},{"bike_id":"0095ad20-ad5f-44a7-9525-b9e20bba5907","system_id":"levelo_inurba_marseille","lat":43.24081,"lon":5.37755,"is_reserved":false,"is_disabled":true,"rental_uris":{"android":"levelo://app?vid=0095ad20-ad5f-44a7-9525-b9e20bba5907","ios":"levelo://app?vid=0095ad20-ad5f-44a7-9525-b9e20bba5907"},"vehicle_type_id":"4","last_reported":1732284505,"current_range_meters":0,"station_id":"ce4bhnp2rcd13ifvqgvg","pricing_plan_id":"cebpf4jnsgd1na2vs0mg"},{"bike_id":"0b8e73b7-ee6a-4234-af3a-7e78dba41912","system_id":"levelo_inurba_marseille","lat":43.25006,"lon":5.38934,"is_reserved":false,"is_disabled":false,"rental_uris":{"android":"levelo://app?vid=0b8e73b7-ee6a-4234-af3a-7e78dba41912","ios":"levelo://app?vid=0b8e73b7-ee6a-4234-af3a-7e78dba41912"},"vehicle_type_id":"4","last_reported":1732284505,"current_range_meters":3200,"station_id":"ce4bhgp2rcd13ifvqfd0","pricing_plan_id":"cebpf4jnsgd1na2vs0mg"},{"bike_id":"68507491-898a-4a1e-a4b4-b53874a00ff4","system_id":"levelo_inurba_marseille","lat":43.29169,"lon":5.37142,"is_reserved":false,"is_disabled":false,"rental_uris":{"android":"levelo://app?vid=68507491-898a-4a1e-a4b4-b53874a00ff4","ios":"levelo://app?vid=68507491-898a-4a1e-a4b4-b53874a00ff4"},"vehicle_type_id":"4","last_reported":1732284505,"current_range_meters":38800,"station_id":"ce4bha92rcd13ifvqeh0","pricing_plan_id":"cebpf4jnsgd1na2vs0mg"},{"bike_id":"97ab2c19-3056-4505-acd1-c037a694cd93","system_id":"levelo_inurba_marseille","lat":43.29034,"lon":5.39967,"is_reserved":false,"is_disabled":false,"rental_uris":{"android":"levelo://app?vid=97ab2c19-3056-4505-acd1-c037a694cd93","ios":"levelo://app?vid=97ab2c19-3056-4505-acd1-c037a694cd93"},"vehicle_type_id":"4","last_reported":1732284505,"current_range_meters":36800,"station_id":"ce4bh392rcd13ifvqdm0","pricing_plan_id":"cebpf4jnsgd1na2vs0mg"},{"bike_id":"3193222d-584b-4642-a1d8-0c04b2309736","system_id":"levelo_inurba_marseille","lat":43.33722,"lon":5.39199,"is_reserved":false,"is_disabled":false,"rental_uris":{"android":"levelo://app?vid=3193222d-584b-4642-a1d8-0c04b2309736","ios":"levelo://app?vid=3193222d-584b-4642-a1d8-0c04b2309736"},"vehicle_type_id":"4","last_reported":1732284505,"current_range_meters":36800,"station_id":"ce4bhr92rcd13ifvqhsg","pricing_plan_id":"cebpf4jnsgd1na2vs0mg"},{"bike_id":"ff913505-ef09-401c-a3e2-72e72522bdc4","system_id":"levelo_inurba_marseille","lat":43.27566,"lon":5.38429,"is_reserved":false,"is_disabled":false,"rental_uris":{"android":"levelo://app?vid=ff913505-ef09-401c-a3e2-72e72522bdc4","ios":"levelo://app?vid=ff913505-ef09-401c-a3e2-72e72522bdc4"},"vehicle_type_id":"4","last_reported":1732284505,"current_range_meters":28800,"station_id":"ce4bhh92rcd13ifvqfi0","pricing_plan_id":"cebpf4jnsgd1na2vs0mg"},{"bike_id":"581d2ef0-341e-4d2e-aa56-04a8ac8af4f6","system_id":"levelo_inurba_marseille","lat":43.33022,"lon":5.39045,"is_reserved":false,"is_disabled":false,"rental_uris":{"android":"levelo://app?vid=581d2ef0-341e-4d2e-aa56-04a8ac8af4f6","ios":"levelo://app?vid=581d2ef0-341e-4d2e-aa56-04a8ac8af4f6"},"vehicle_type_id":"4","last_reported":1732284505,"current_range_meters":40000,"station_id":"ce4bhr92rcd13ifvqhrg","pricing_plan_id":"cebpf4jnsgd1na2vs0mg"},{"bike_id":"43defcad-8b03-4c0e-921a-e822a61aadd6","system_id":"levelo_inurba_marseille","lat":43.29977,"lon":5.37185,"is_reserved":false,"is_disabled":false,"rental_uris":{"android":"levelo://app?vid=43defcad-8b03-4c0e-921a-e822a61aadd6","ios":"levelo://app?vid=43defcad-8b03-4c0e-921a-e822a61aadd6"},"vehicle_type_id":"4","last_reported":1732284505,"current_range_meters":21600,"station_id":"ce4bgr92rcd13ifvqc7g","pricing_plan_id":"cebpf4jnsgd1na2vs0mg"},{"bike_id":"e1ece64d-e675-4efa-8ff6-485230fd72d6","system_id":"levelo_inurba_marseille","lat":43.30879,"lon":5.39638,"is_reserved":false,"is_disabled":false,"rental_uris":{"android":"levelo://app?vid=e1ece64d-e675-4efa-8ff6-485230fd72d6","ios":"levelo://app?vid=e1ece64d-e675-4efa-8ff6-485230fd72d6"},"vehicle_type_id":"4","last_reported":1732284505,"current_range_meters":38400,"station_id":"ce4bh012rcd13ifvqcv0","pricing_plan_id":"cebpf4jnsgd1na2vs0mg"},{"bike_id":"1fe36207-a189-42b7-a2ae-a1bed57e3dd0","system_id":"levelo_inurba_marseille","lat":43.26032,"lon":5.37555,"is_reserved":false,"is_disabled":false,"rental_uris":{"android":"levelo://app?vid=1fe36207-a189-42b7-a2ae-a1bed57e3dd0","ios":"levelo://app?vid=1fe36207-a189-42b7-a2ae-a1bed57e3dd0"},"vehicle_type_id":"4","last_reported":1732284505,"current_range_meters":19200,"station_id":"ce4bhgh2rcd13ifvqfa0","pricing_plan_id":"cebpf4jnsgd1na2vs0mg"},{"bike_id":"4ecdaf55-87e7-42ea-ac0e-a41de2a6b49d","system_id":"levelo_inurba_marseille","lat":43.31999,"lon":5.38157,"is_reserved":false,"is_disabled":false,"rental_uris":{"android":"levelo://app?vid=4ecdaf55-87e7-42ea-ac0e-a41de2a6b49d","ios":"levelo://app?vid=4ecdaf55-87e7-42ea-ac0e-a41de2a6b49d"},"vehicle_type_id":"4","last_reported":1732284505,"current_range_meters":27600,"station_id":"ce4bhr12rcd13ifvqhpg","pricing_plan_id":"cebpf4jnsgd1na2vs0mg"},{"bike_id":"51ce6112-ca51-4a26-8335-063dea88ee84","system_id":"levelo_inurba_marseille","lat":43.26061,"lon":5.39398,"is_reserved":false,"is_disabled":false,"rental_uris":{"android":"levelo://app?vid=51ce6112-ca51-4a26-8335-063dea88ee84","ios":"levelo://app?vid=51ce6112-ca51-4a26-8335-063dea88ee84"},"vehicle_type_id":"4","last_reported":1732284505,"current_range_meters":11200,"station_id":"ce4bhh92rcd13ifvqfj0","pricing_plan_id":"cebpf4jnsgd1na2vs0mg"},{"bike_id":"fc0b1b0c-9a21-495d-be52-0d91f5503bfa","system_id":"levelo_inurba_marseille","lat":43.22928,"lon":5.3538,"is_reserved":false,"is_disabled":false,"rental_uris":{"android":"levelo://app?vid=fc0b1b0c-9a21-495d-be52-0d91f5503bfa","ios":"levelo://app?vid=fc0b1b0c-9a21-495d-be52-0d91f5503bfa"},"vehicle_type_id":"4","last_reported":1732284505,"current_range_meters":26000,"station_id":"cpo3532slgdg3j2ikp40","pricing_plan_id":"cebpf4jnsgd1na2vs0mg"},{"bike_id":"257ff520-6384-4405-8714-b74263aecbd9","system_id":"levelo_inurba_marseille","lat":43.24411,"lon":5.380207,"is_reserved":false,"is_disabled":false,"rental_uris":{"android":"levelo://app?vid=257ff520-6384-4405-8714-b74263aecbd9","ios":"levelo://app?vid=257ff520-6384-4405-8714-b74263aecbd9"},"vehicle_type_id":"4","last_reported":1732284505,"current_range_meters":6800,"station_id":"ce4bhi12rcd13ifvqfo0","pricing_plan_id":"cebpf4jnsgd1na2vs0mg"},{"bike_id":"004ee38a-776a-4c3e-9a6a-201a1afdfc78","system_id":"levelo_inurba_marseille","lat":43.30132,"lon":5.39875,"is_reserved":false,"is_disabled":false,"rental_uris":{"android":"levelo://app?vid=004ee38a-776a-4c3e-9a6a-201a1afdfc78","ios":"levelo://app?vid=004ee38a-776a-4c3e-9a6a-201a1afdfc78"},"vehicle_type_id":"4","last_reported":1732284505,"current_range_meters":38000,"station_id":"ce4bh0h2rcd13ifvqd40","pricing_plan_id":"cebpf4jnsgd1na2vs0mg"},{"bike_id":"3b1e8ea7-6120-47df-96c3-795cb367684b","system_id":"levelo_inurba_marseille","lat":43.28938,"lon":5.3639,"is_reserved":false,"is_disabled":false,"rental_uris":{"android":"levelo://app?vid=3b1e8ea7-6120-47df-96c3-795cb367684b","ios":"levelo://app?vid=3b1e8ea7-6120-47df-96c3-795cb367684b"},"vehicle_type_id":"4","last_reported":1732284505,"current_range_meters":22400,"station_id":"ce4bhc92rcd13ifvqetg","pricing_plan_id":"cebpf4jnsgd1na2vs0mg"},{"bike_id":"a79a93cc-8de9-4580-8645-28fbed606083","system_id":"levelo_inurba_marseille","lat":43.30788,"lon":5.37643,"is_reserved":false,"is_disabled":false,"rental_uris":{"android":"levelo://app?vid=a79a93cc-8de9-4580-8645-28fbed606083","ios":"levelo://app?vid=a79a93cc-8de9-4580-8645-28fbed606083"},"vehicle_type_id":"4","last_reported":1732284505,"current_range_meters":26800,"station_id":"ce4bgv92rcd13ifvqcq0","pricing_plan_id":"cebpf4jnsgd1na2vs0mg"},{"bike_id":"ff96e96b-8a83-40ac-ba7b-7b05ce0f3b85","system_id":"levelo_inurba_marseille","lat":43.30935,"lon":5.40147,"is_reserved":false,"is_disabled":false,"rental_uris":{"android":"levelo://app?vid=ff96e96b-8a83-40ac-ba7b-7b05ce0f3b85","ios":"levelo://app?vid=ff96e96b-8a83-40ac-ba7b-7b05ce0f3b85"},"vehicle_type_id":"4","last_reported":1732284505,"current_range_meters":24400,"station_id":"ce4bgvp2rcd13ifvqct0","pricing_plan_id":"cebpf4jnsgd1na2vs0mg"},{"bike_id":"b8142352-6a3e-41b5-9be7-33d1250a87a7","system_id":"levelo_inurba_marseille","lat":43.30433,"lon":5.38891,"is_reserved":false,"is_disabled":false,"rental_uris":{"android":"levelo://app?vid=b8142352-6a3e-41b5-9be7-33d1250a87a7","ios":"levelo://app?vid=b8142352-6a3e-41b5-9be7-33d1250a87a7"},"vehicle_type_id":"4","last_reported":1732284505,"current_range_meters":11600,"station_id":"ce4bgk12rcd13ifvqbi0","pricing_plan_id":"cebpf4jnsgd1na2vs0mg"},{"bike_id":"35799ffd-e120-47ae-ba81-5038ad1d78ad","system_id":"levelo_inurba_marseille","lat":43.26677,"lon":5.38263,"is_reserved":false,"is_disabled":false,"rental_uris":{"android":"levelo://app?vid=35799ffd-e120-47ae-ba81-5038ad1d78ad","ios":"levelo://app?vid=35799ffd-e120-47ae-ba81-5038ad1d78ad"},"vehicle_type_id":"4","last_reported":1732284505,"current_range_meters":39200,"station_id":"ce4bhg92rcd13ifvqf90","pricing_plan_id":"cebpf4jnsgd1na2vs0mg"},{"bike_id":"a51e82b7-997c-467d-8058-02f504d77c87","system_id":"levelo_inurba_marseille","lat":43.25,"lon":5.38934,"is_reserved":false,"is_disabled":false,"rental_uris":{"android":"levelo://app?vid=a51e82b7-997c-467d-8058-02f504d77c87","ios":"levelo://app?vid=a51e82b7-997c-467d-8058-02f504d77c87"},"vehicle_type_id":"4","last_reported":1732284505,"current_range_meters":17200,"station_id":"ce4bhgp2rcd13ifvqfd0","pricing_plan_id":"cebpf4jnsgd1na2vs0mg"},{"bike_id":"7251622e-73a9-419f-947b-70fd7086d2b8","system_id":"levelo_inurba_marseille","lat":43.29889,"lon":5.36371,"is_reserved":false,"is_disabled":false,"rental_uris":{"android":"levelo://app?vid=7251622e-73a9-419f-947b-70fd7086d2b8","ios":"levelo://app?vid=7251622e-73a9-419f-947b-70fd7086d2b8"},"vehicle_type_id":"4","last_reported":1732284505,"current_range_meters":20800,"station_id":"","pricing_plan_id":"cebpf4jnsgd1na2vs0mg"},{"bike_id":"30c8809f-39da-4995-931b-42285e08b8ea","system_id":"levelo_inurba_marseille","lat":43.337444,"lon":5.374475,"is_reserved":false,"is_disabled":false,"rental_uris":{"android":"levelo://app?vid=30c8809f-39da-4995-931b-42285e08b8ea","ios":"levelo://app?vid=30c8809f-39da-4995-931b-42285e08b8ea"},"vehicle_type_id":"4","last_reported":1732284505,"current_range_meters":4400,"station_id":"","pricing_plan_id":"cebpf4jnsgd1na2vs0mg"},{"bike_id":"9d76029c-8202-41ad-a5e8-699cb6009143","system_id":"levelo_inurba_marseille","lat":43.23144,"lon":5.43723,"is_reserved":false,"is_disabled":false,"rental_uris":{"android":"levelo://app?vid=9d76029c-8202-41ad-a5e8-699cb6009143","ios":"levelo://app?vid=9d76029c-8202-41ad-a5e8-699cb6009143"},"vehicle_type_id":"4","last_reported":1732284505,"current_range_meters":32400,"station_id":"ce4bhmp2rcd13ifvqgog","pricing_plan_id":"cebpf4jnsgd1na2vs0mg"},{"bike_id":"961e3631-34d7-48c0-a113-e3687fbca704","system_id":"levelo_inurba_marseille","lat":43.30144,"lon":5.37408,"is_reserved":false,"is_disabled":false,"rental_uris":{"android":"levelo://app?vid=961e3631-34d7-48c0-a113-e3687fbca704","ios":"levelo://app?vid=961e3631-34d7-48c0-a113-e3687fbca704"},"vehicle_type_id":"4","last_reported":1732284505,"current_range_meters":26000,"station_id":"ce4bgs92rcd13ifvqcc0","pricing_plan_id":"cebpf4jnsgd1na2vs0mg"},{"bike_id":"a0d88b30-8e57-48c2-9f80-51c667457f90","system_id":"levelo_inurba_marseille","lat":43.30887,"lon":5.37195,"is_reserved":false,"is_disabled":false,"rental_uris":{"android":"levelo://app?vid=a0d88b30-8e57-48c2-9f80-51c667457f90","ios":"levelo://app?vid=a0d88b30-8e57-48c2-9f80-51c667457f90"},"vehicle_type_id":"4","last_reported":1732284505,"current_range_meters":21600,"station_id":"ce4bguh2rcd13ifvqckg","pricing_plan_id":"cebpf4jnsgd1na2vs0mg"},{"bike_id":"7f091424-73d4-43a9-a121-9d9f8cf0127c","system_id":"levelo_inurba_marseille","lat":43.2871,"lon":5.37913,"is_reserved":false,"is_disabled":false,"rental_uris":{"android":"levelo://app?vid=7f091424-73d4-43a9-a121-9d9f8cf0127c","ios":"levelo://app?vid=7f091424-73d4-43a9-a121-9d9f8cf0127c"},"vehicle_type_id":"4","last_reported":1732284505,"current_range_meters":28400,"station_id":"ce4bh9p2rcd13ifvqec0","pricing_plan_id":"cebpf4jnsgd1na2vs0mg"},{"bike_id":"2ce56eac-607f-4aee-97f1-1efe9a148076","system_id":"levelo_inurba_marseille","lat":43.22928,"lon":5.35378,"is_reserved":false,"is_disabled":false,"rental_uris":{"android":"levelo://app?vid=2ce56eac-607f-4aee-97f1-1efe9a148076","ios":"levelo://app?vid=2ce56eac-607f-4aee-97f1-1efe9a148076"},"vehicle_type_id":"4","last_reported":1732284505,"current_range_meters":16000,"station_id":"cpo3532slgdg3j2ikp40","pricing_plan_id":"cebpf4jnsgd1na2vs0mg"},{"bike_id":"3c5d0254-2542-44e0-aa08-1a8753e937a8","system_id":"levelo_inurba_marseille","lat":43.26682,"lon":5.38274,"is_reserved":false,"is_disabled":false,"rental_uris":{"android":"levelo://app?vid=3c5d0254-2542-44e0-aa08-1a8753e937a8","ios":"levelo://app?vid=3c5d0254-2542-44e0-aa08-1a8753e937a8"},"vehicle_type_id":"4","last_reported":1732284505,"current_range_meters":38800,"station_id":"ce4bhg92rcd13ifvqf90","pricing_plan_id":"cebpf4jnsgd1na2vs0mg"},{"bike_id":"596ac66f-0a5a-4a8a-a464-f602f8d9f366","system_id":"levelo_inurba_marseille","lat":43.32659,"lon":5.40987,"is_reserved":false,"is_disabled":true,"rental_uris":{"android":"levelo://app?vid=596ac66f-0a5a-4a8a-a464-f602f8d9f366","ios":"levelo://app?vid=596ac66f-0a5a-4a8a-a464-f602f8d9f366"},"vehicle_type_id":"4","last_reported":1732284505,"current_range_meters":0,"station_id":"ce4bhpp2rcd13ifvqhgg","pricing_plan_id":"cebpf4jnsgd1na2vs0mg"},{"bike_id":"2dfad253-32b6-47af-be05-9d6053a684d1","system_id":"levelo_inurba_marseille","lat":43.23965,"lon":5.36631,"is_reserved":false,"is_disabled":false,"rental_uris":{"android":"levelo://app?vid=2dfad253-32b6-47af-be05-9d6053a684d1","ios":"levelo://app?vid=2dfad253-32b6-47af-be05-9d6053a684d1"},"vehicle_type_id":"4","last_reported":1732284505,"current_range_meters":38800,"station_id":"ce4bhi12rcd13ifvqfp0","pricing_plan_id":"cebpf4jnsgd1na2vs0mg"},{"bike_id":"1904e4d6-e1e0-456f-9800-8b0e0e7107b4","system_id":"levelo_inurba_marseille","lat":43.23152,"lon":5.43705,"is_reserved":false,"is_disabled":false,"rental_uris":{"android":"levelo://app?vid=1904e4d6-e1e0-456f-9800-8b0e0e7107b4","ios":"levelo://app?vid=1904e4d6-e1e0-456f-9800-8b0e0e7107b4"},"vehicle_type_id":"4","last_reported":1732284505,"current_range_meters":39200,"station_id":"ce4bhmp2rcd13ifvqgog","pricing_plan_id":"cebpf4jnsgd1na2vs0mg"},{"bike_id":"0bea8105-3888-4a3e-a6f6-360dfd5735d5","system_id":"levelo_inurba_marseille","lat":43.28691,"lon":5.37397,"is_reserved":false,"is_disabled":false,"rental_uris":{"android":"levelo://app?vid=0bea8105-3888-4a3e-a6f6-360dfd5735d5","ios":"levelo://app?vid=0bea8105-3888-4a3e-a6f6-360dfd5735d5"},"vehicle_type_id":"4","last_reported":1732284505,"current_range_meters":7200,"station_id":"ce4bh3p2rcd13ifvqdq0","pricing_plan_id":"cebpf4jnsgd1na2vs0mg"},{"bike_id":"756793dd-ed91-4b87-b0a0-f365513417b0","system_id":"levelo_inurba_marseille","lat":43.30138,"lon":5.37413,"is_reserved":false,"is_disabled":false,"rental_uris":{"android":"levelo://app?vid=756793dd-ed91-4b87-b0a0-f365513417b0","ios":"levelo://app?vid=756793dd-ed91-4b87-b0a0-f365513417b0"},"vehicle_type_id":"4","last_reported":1732284505,"current_range_meters":26800,"station_id":"ce4bgs92rcd13ifvqcc0","pricing_plan_id":"cebpf4jnsgd1na2vs0mg"},{"bike_id":"6a35ab9a-dea6-4954-9033-5e84dc134815","system_id":"levelo_inurba_marseille","lat":43.29023,"lon":5.38651,"is_reserved":false,"is_disabled":false,"rental_uris":{"android":"levelo://app?vid=6a35ab9a-dea6-4954-9033-5e84dc134815","ios":"levelo://app?vid=6a35ab9a-dea6-4954-9033-5e84dc134815"},"vehicle_type_id":"4","last_reported":1732284505,"current_range_meters":26000,"station_id":"ce4bh4p2rcd13ifvqe0g","pricing_plan_id":"cebpf4jnsgd1na2vs0mg"},{"bike_id":"1eff5ce5-2d56-4465-a12c-60db9ec2175a","system_id":"levelo_inurba_marseille","lat":43.22926,"lon":5.35375,"is_reserved":false,"is_disabled":false,"rental_uris":{"android":"levelo://app?vid=1eff5ce5-2d56-4465-a12c-60db9ec2175a","ios":"levelo://app?vid=1eff5ce5-2d56-4465-a12c-60db9ec2175a"},"vehicle_type_id":"4","last_reported":1732284505,"current_range_meters":4800,"station_id":"cpo3532slgdg3j2ikp40","pricing_plan_id":"cebpf4jnsgd1na2vs0mg"},{"bike_id":"dc815649-e3e3-48aa-b0fd-022cdb8ac58a","system_id":"levelo_inurba_marseille","lat":43.32361,"lon":5.38891,"is_reserved":false,"is_disabled":false,"rental_uris":{"android":"levelo://app?vid=dc815649-e3e3-48aa-b0fd-022cdb8ac58a","ios":"levelo://app?vid=dc815649-e3e3-48aa-b0fd-022cdb8ac58a"},"vehicle_type_id":"4","last_reported":1732284505,"current_range_meters":36400,"station_id":"ce4bhqp2rcd13ifvqhog","pricing_plan_id":"cebpf4jnsgd1na2vs0mg"},{"bike_id":"ee5718ff-0285-4bed-bf9b-fa66bc9bd785","system_id":"levelo_inurba_marseille","lat":43.30182,"lon":5.36627,"is_reserved":false,"is_disabled":false,"rental_uris":{"android":"levelo://app?vid=ee5718ff-0285-4bed-bf9b-fa66bc9bd785","ios":"levelo://app?vid=ee5718ff-0285-4bed-bf9b-fa66bc9bd785"},"vehicle_type_id":"4","last_reported":1732284505,"current_range_meters":38400,"station_id":"ce4bgrh2rcd13ifvqc8g","pricing_plan_id":"cebpf4jnsgd1na2vs0mg"},{"bike_id":"22bf3d87-dbb2-41f0-ae52-3719720b6a9d","system_id":"levelo_inurba_marseille","lat":43.26953,"lon":5.38633,"is_reserved":false,"is_disabled":false,"rental_uris":{"android":"levelo://app?vid=22bf3d87-dbb2-41f0-ae52-3719720b6a9d","ios":"levelo://app?vid=22bf3d87-dbb2-41f0-ae52-3719720b6a9d"},"vehicle_type_id":"4","last_reported":1732284505,"current_range_meters":24000,"station_id":"ce4bhh92rcd13ifvqfh0","pricing_plan_id":"cebpf4jnsgd1na2vs0mg"},{"bike_id":"164c3399-b17c-42db-81c5-06d735dc978f","system_id":"levelo_inurba_marseille","lat":43.30263,"lon":5.40086,"is_reserved":false,"is_disabled":false,"rental_uris":{"android":"levelo://app?vid=164c3399-b17c-42db-81c5-06d735dc978f","ios":"levelo://app?vid=164c3399-b17c-42db-81c5-06d735dc978f"},"vehicle_type_id":"4","last_reported":1732284505,"current_range_meters":28000,"station_id":"ce4bgvh2rcd13ifvqcs0","pricing_plan_id":"cebpf4jnsgd1na2vs0mg"},{"bike_id":"d074ee4d-c65e-4571-9c59-b48ab7e9832e","system_id":"levelo_inurba_marseille","lat":43.24876,"lon":5.40003,"is_reserved":false,"is_disabled":false,"rental_uris":{"android":"levelo://app?vid=d074ee4d-c65e-4571-9c59-b48ab7e9832e","ios":"levelo://app?vid=d074ee4d-c65e-4571-9c59-b48ab7e9832e"},"vehicle_type_id":"4","last_reported":1732284505,"current_range_meters":36400,"station_id":"ce4bhm12rcd13ifvqgkg","pricing_plan_id":"cebpf4jnsgd1na2vs0mg"},{"bike_id":"e44eb167-2ebb-4217-a153-5324047add45","system_id":"levelo_inurba_marseille","lat":43.29304,"lon":5.37196,"is_reserved":false,"is_disabled":false,"rental_uris":{"android":"levelo://app?vid=e44eb167-2ebb-4217-a153-5324047add45","ios":"levelo://app?vid=e44eb167-2ebb-4217-a153-5324047add45"},"vehicle_type_id":"4","last_reported":1732284505,"current_range_meters":38400,"station_id":"ce4bgh92rcd13ifvqb40","pricing_plan_id":"cebpf4jnsgd1na2vs0mg"},{"bike_id":"c92023e6-5596-4416-80d0-8ee42bd91317","system_id":"levelo_inurba_marseille","lat":43.28839,"lon":5.39317,"is_reserved":false,"is_disabled":false,"rental_uris":{"android":"levelo://app?vid=c92023e6-5596-4416-80d0-8ee42bd91317","ios":"levelo://app?vid=c92023e6-5596-4416-80d0-8ee42bd91317"},"vehicle_type_id":"4","last_reported":1732284505,"current_range_meters":38800,"station_id":"ce4bh2p2rcd13ifvqdi0","pricing_plan_id":"cebpf4jnsgd1na2vs0mg"},{"bike_id":"7bb8cd95-6972-4de3-a8ef-356fcc70c3b0","system_id":"levelo_inurba_marseille","lat":43.30131,"lon":5.39879,"is_reserved":false,"is_disabled":false,"rental_uris":{"android":"levelo://app?vid=7bb8cd95-6972-4de3-a8ef-356fcc70c3b0","ios":"levelo://app?vid=7bb8cd95-6972-4de3-a8ef-356fcc70c3b0"},"vehicle_type_id":"4","last_reported":1732284505,"current_range_meters":20400,"station_id":"ce4bh0h2rcd13ifvqd40","pricing_plan_id":"cebpf4jnsgd1na2vs0mg"},{"bike_id":"f796b412-9140-415f-9f98-4b489dc2b14e","system_id":"levelo_inurba_marseille","lat":43.26943,"lon":5.40252,"is_reserved":false,"is_disabled":false,"rental_uris":{"android":"levelo://app?vid=f796b412-9140-415f-9f98-4b489dc2b14e","ios":"levelo://app?vid=f796b412-9140-415f-9f98-4b489dc2b14e"},"vehicle_type_id":"4","last_reported":1732284505,"current_range_meters":38800,"station_id":"cjm6bp8fraef2m0cb0m0","pricing_plan_id":"cebpf4jnsgd1na2vs0mg"},{"bike_id":"53209ac8-eb4c-44ea-965c-d8ad7615d812","system_id":"levelo_inurba_marseille","lat":43.2972,"lon":5.37687,"is_reserved":false,"is_disabled":false,"rental_uris":{"android":"levelo://app?vid=53209ac8-eb4c-44ea-965c-d8ad7615d812","ios":"levelo://app?vid=53209ac8-eb4c-44ea-965c-d8ad7615d812"},"vehicle_type_id":"4","last_reported":1732284505,"current_range_meters":30000,"station_id":"ce4bgkh2rcd13ifvqbl0","pricing_plan_id":"cebpf4jnsgd1na2vs0mg"},{"bike_id":"75160751-1069-43f1-908c-f8a163732076","system_id":"levelo_inurba_marseille","lat":43.31714,"lon":5.43707,"is_reserved":false,"is_disabled":false,"rental_uris":{"android":"levelo://app?vid=75160751-1069-43f1-908c-f8a163732076","ios":"levelo://app?vid=75160751-1069-43f1-908c-f8a163732076"},"vehicle_type_id":"4","last_reported":1732284505,"current_range_meters":37600,"station_id":"ce4bhp92rcd13ifvqhcg","pricing_plan_id":"cebpf4jnsgd1na2vs0mg"},{"bike_id":"c6f8c5af-9d98-423b-912d-bb5ff4ac7064","system_id":"levelo_inurba_marseille","lat":43.25086,"lon":5.39522,"is_reserved":false,"is_disabled":false,"rental_uris":{"android":"levelo://app?vid=c6f8c5af-9d98-423b-912d-bb5ff4ac7064","ios":"levelo://app?vid=c6f8c5af-9d98-423b-912d-bb5ff4ac7064"},"vehicle_type_id":"4","last_reported":1732284505,"current_range_meters":38800,"station_id":"ce4bhm12rcd13ifvqgkg","pricing_plan_id":"cebpf4jnsgd1na2vs0mg"},{"bike_id":"8e5f7d32-6613-4d7e-b53d-b5ddff5cb6c6","system_id":"levelo_inurba_marseille","lat":43.23958,"lon":5.36642,"is_reserved":false,"is_disabled":false,"rental_uris":{"android":"levelo://app?vid=8e5f7d32-6613-4d7e-b53d-b5ddff5cb6c6","ios":"levelo://app?vid=8e5f7d32-6613-4d7e-b53d-b5ddff5cb6c6"},"vehicle_type_id":"4","last_reported":1732284505,"current_range_meters":39200,"station_id":"ce4bhi12rcd13ifvqfp0","pricing_plan_id":"cebpf4jnsgd1na2vs0mg"},{"bike_id":"3b951613-7eae-46b7-bb23-bef931a7b638","system_id":"levelo_inurba_marseille","lat":43.30321,"lon":5.36594,"is_reserved":false,"is_disabled":false,"rental_uris":{"android":"levelo://app?vid=3b951613-7eae-46b7-bb23-bef931a7b638","ios":"levelo://app?vid=3b951613-7eae-46b7-bb23-bef931a7b638"},"vehicle_type_id":"4","last_reported":1732284505,"current_range_meters":15200,"station_id":"","pricing_plan_id":"cebpf4jnsgd1na2vs0mg"},{"bike_id":"9284dc21-9ba2-4669-b8d7-ae7790be6a09","system_id":"levelo_inurba_marseille","lat":43.2983,"lon":5.36259,"is_reserved":false,"is_disabled":false,"rental_uris":{"android":"levelo://app?vid=9284dc21-9ba2-4669-b8d7-ae7790be6a09","ios":"levelo://app?vid=9284dc21-9ba2-4669-b8d7-ae7790be6a09"},"vehicle_type_id":"4","last_reported":1732284505,"current_range_meters":39200,"station_id":"ce4bgpp2rcd13ifvqc3g","pricing_plan_id":"cebpf4jnsgd1na2vs0mg"},{"bike_id":"8bd7943a-d6e3-4b69-8209-bb9f99b76dde","system_id":"levelo_inurba_marseille","lat":43.28843,"lon":5.40007,"is_reserved":false,"is_disabled":true,"rental_uris":{"android":"levelo://app?vid=8bd7943a-d6e3-4b69-8209-bb9f99b76dde","ios":"levelo://app?vid=8bd7943a-d6e3-4b69-8209-bb9f99b76dde"},"vehicle_type_id":"4","last_reported":1732284505,"current_range_meters":12800,"station_id":"","pricing_plan_id":"cebpf4jnsgd1na2vs0mg"},{"bike_id":"448b4be7-3dfe-40e5-b9e4-04aad95d4610","system_id":"levelo_inurba_marseille","lat":43.30143,"lon":5.37418,"is_reserved":false,"is_disabled":false,"rental_uris":{"android":"levelo://app?vid=448b4be7-3dfe-40e5-b9e4-04aad95d4610","ios":"levelo://app?vid=448b4be7-3dfe-40e5-b9e4-04aad95d4610"},"vehicle_type_id":"4","last_reported":1732284505,"current_range_meters":27200,"station_id":"ce4bgs92rcd13ifvqcc0","pricing_plan_id":"cebpf4jnsgd1na2vs0mg"},{"bike_id":"d1aaf2ec-057e-43be-b1ba-642e1212c428","system_id":"levelo_inurba_marseille","lat":43.28343,"lon":5.38113,"is_reserved":false,"is_disabled":false,"rental_uris":{"android":"levelo://app?vid=d1aaf2ec-057e-43be-b1ba-642e1212c428","ios":"levelo://app?vid=d1aaf2ec-057e-43be-b1ba-642e1212c428"},"vehicle_type_id":"4","last_reported":1732284505,"current_range_meters":30400,"station_id":"ce4bh412rcd13ifvqdr0","pricing_plan_id":"cebpf4jnsgd1na2vs0mg"},{"bike_id":"9164788e-a103-4f61-b452-5ed79711e0e5","system_id":"levelo_inurba_marseille","lat":43.31887,"lon":5.40731,"is_reserved":false,"is_disabled":false,"rental_uris":{"android":"levelo://app?vid=9164788e-a103-4f61-b452-5ed79711e0e5","ios":"levelo://app?vid=9164788e-a103-4f61-b452-5ed79711e0e5"},"vehicle_type_id":"4","last_reported":1732284505,"current_range_meters":38000,"station_id":"ce4bhq12rcd13ifvqhig","pricing_plan_id":"cebpf4jnsgd1na2vs0mg"},{"bike_id":"d50fae79-a23b-4b26-bc0c-86364a6bce7e","system_id":"levelo_inurba_marseille","lat":43.319955,"lon":5.38148,"is_reserved":false,"is_disabled":false,"rental_uris":{"android":"levelo://app?vid=d50fae79-a23b-4b26-bc0c-86364a6bce7e","ios":"levelo://app?vid=d50fae79-a23b-4b26-bc0c-86364a6bce7e"},"vehicle_type_id":"4","last_reported":1732284505,"current_range_meters":38800,"station_id":"ce4bhr12rcd13ifvqhpg","pricing_plan_id":"cebpf4jnsgd1na2vs0mg"},{"bike_id":"4d1d2fa0-1186-4601-a82f-834e5eff573c","system_id":"levelo_inurba_marseille","lat":43.29368,"lon":5.37846,"is_reserved":false,"is_disabled":false,"rental_uris":{"android":"levelo://app?vid=4d1d2fa0-1186-4601-a82f-834e5eff573c","ios":"levelo://app?vid=4d1d2fa0-1186-4601-a82f-834e5eff573c"},"vehicle_type_id":"4","last_reported":1732284505,"current_range_meters":33600,"station_id":"ce4bgjh2rcd13ifvqbf0","pricing_plan_id":"cebpf4jnsgd1na2vs0mg"},{"bike_id":"8268ca29-cc94-4b05-acb5-36a3938bdc45","system_id":"levelo_inurba_marseille","lat":43.28403,"lon":5.34997,"is_reserved":false,"is_disabled":false,"rental_uris":{"android":"levelo://app?vid=8268ca29-cc94-4b05-acb5-36a3938bdc45","ios":"levelo://app?vid=8268ca29-cc94-4b05-acb5-36a3938bdc45"},"vehicle_type_id":"4","last_reported":1732284505,"current_range_meters":24400,"station_id":"ce4bhbh2rcd13ifvqepg","pricing_plan_id":"cebpf4jnsgd1na2vs0mg"},{"bike_id":"f689ab61-e526-43ba-b443-410e33c02d9e","system_id":"levelo_inurba_marseille","lat":43.25482,"lon":5.37648,"is_reserved":false,"is_disabled":true,"rental_uris":{"android":"levelo://app?vid=f689ab61-e526-43ba-b443-410e33c02d9e","ios":"levelo://app?vid=f689ab61-e526-43ba-b443-410e33c02d9e"},"vehicle_type_id":"4","last_reported":1732284505,"current_range_meters":400,"station_id":"ce4bhh12rcd13ifvqff0","pricing_plan_id":"cebpf4jnsgd1na2vs0mg"},{"bike_id":"f4410ab9-63a6-4e3a-ac32-b0baa6b5b8f7","system_id":"levelo_inurba_marseille","lat":43.26492,"lon":5.3955,"is_reserved":false,"is_disabled":false,"rental_uris":{"android":"levelo://app?vid=f4410ab9-63a6-4e3a-ac32-b0baa6b5b8f7","ios":"levelo://app?vid=f4410ab9-63a6-4e3a-ac32-b0baa6b5b8f7"},"vehicle_type_id":"4","last_reported":1732284505,"current_range_meters":18000,"station_id":"ce4bhi12rcd13ifvqfq0","pricing_plan_id":"cebpf4jnsgd1na2vs0mg"},{"bike_id":"8d321c98-345d-471a-91c1-a7067e6958ea","system_id":"levelo_inurba_marseille","lat":43.2963,"lon":5.40598,"is_reserved":false,"is_disabled":false,"rental_uris":{"android":"levelo://app?vid=8d321c98-345d-471a-91c1-a7067e6958ea","ios":"levelo://app?vid=8d321c98-345d-471a-91c1-a7067e6958ea"},"vehicle_type_id":"4","last_reported":1732284505,"current_range_meters":35600,"station_id":"ce4bh0h2rcd13ifvqd60","pricing_plan_id":"cebpf4jnsgd1na2vs0mg"},{"bike_id":"ce9fb9d4-5647-49dc-ab9f-a1547699654d","system_id":"levelo_inurba_marseille","lat":43.30137,"lon":5.3741,"is_reserved":false,"is_disabled":false,"rental_uris":{"android":"levelo://app?vid=ce9fb9d4-5647-49dc-ab9f-a1547699654d","ios":"levelo://app?vid=ce9fb9d4-5647-49dc-ab9f-a1547699654d"},"vehicle_type_id":"4","last_reported":1732284505,"current_range_meters":11200,"station_id":"ce4bgs92rcd13ifvqcc0","pricing_plan_id":"cebpf4jnsgd1na2vs0mg"},{"bike_id":"552ae1f9-34eb-4d70-a19b-3616d3661778","system_id":"levelo_inurba_marseille","lat":43.33718,"lon":5.39187,"is_reserved":false,"is_disabled":false,"rental_uris":{"android":"levelo://app?vid=552ae1f9-34eb-4d70-a19b-3616d3661778","ios":"levelo://app?vid=552ae1f9-34eb-4d70-a19b-3616d3661778"},"vehicle_type_id":"4","last_reported":1732284505,"current_range_meters":25200,"station_id":"ce4bhr92rcd13ifvqhsg","pricing_plan_id":"cebpf4jnsgd1na2vs0mg"},{"bike_id":"06abc715-264f-41ae-913c-530101767225","system_id":"levelo_inurba_marseille","lat":43.30551,"lon":5.36547,"is_reserved":false,"is_disabled":false,"rental_uris":{"android":"levelo://app?vid=06abc715-264f-41ae-913c-530101767225","ios":"levelo://app?vid=06abc715-264f-41ae-913c-530101767225"},"vehicle_type_id":"4","last_reported":1732284505,"current_range_meters":38800,"station_id":"ce4bgs12rcd13ifvqcag","pricing_plan_id":"cebpf4jnsgd1na2vs0mg"},{"bike_id":"f7f3756c-1ec7-4782-9c87-6273f87b6774","system_id":"levelo_inurba_marseille","lat":43.337444,"lon":5.374475,"is_reserved":false,"is_disabled":false,"rental_uris":{"android":"levelo://app?vid=f7f3756c-1ec7-4782-9c87-6273f87b6774","ios":"levelo://app?vid=f7f3756c-1ec7-4782-9c87-6273f87b6774"},"vehicle_type_id":"4","last_reported":1732284505,"current_range_meters":37600,"station_id":"","pricing_plan_id":"cebpf4jnsgd1na2vs0mg"},{"bike_id":"7511195d-8826-4960-a89f-c5ab13e35235","system_id":"levelo_inurba_marseille","lat":43.2695,"lon":5.38624,"is_reserved":false,"is_disabled":true,"rental_uris":{"android":"levelo://app?vid=7511195d-8826-4960-a89f-c5ab13e35235","ios":"levelo://app?vid=7511195d-8826-4960-a89f-c5ab13e35235"},"vehicle_type_id":"4","last_reported":1732284505,"current_range_meters":0,"station_id":"ce4bhh92rcd13ifvqfh0","pricing_plan_id":"cebpf4jnsgd1na2vs0mg"},{"bike_id":"4d07820d-d680-4739-82c4-378109fda2a7","system_id":"levelo_inurba_marseille","lat":43.30866,"lon":5.3965,"is_reserved":false,"is_disabled":false,"rental_uris":{"android":"levelo://app?vid=4d07820d-d680-4739-82c4-378109fda2a7","ios":"levelo://app?vid=4d07820d-d680-4739-82c4-378109fda2a7"},"vehicle_type_id":"4","last_reported":1732284505,"current_range_meters":25600,"station_id":"ce4bh012rcd13ifvqcv0","pricing_plan_id":"cebpf4jnsgd1na2vs0mg"},{"bike_id":"028e5427-36e2-49e1-b3db-260058fffb58","system_id":"levelo_inurba_marseille","lat":43.25578,"lon":5.38239,"is_reserved":false,"is_disabled":false,"rental_uris":{"android":"levelo://app?vid=028e5427-36e2-49e1-b3db-260058fffb58","ios":"levelo://app?vid=028e5427-36e2-49e1-b3db-260058fffb58"},"vehicle_type_id":"4","last_reported":1732284505,"current_range_meters":16800,"station_id":"ce4bhih2rcd13ifvqfs0","pricing_plan_id":"cebpf4jnsgd1na2vs0mg"},{"bike_id":"0f34c480-84cb-4b12-9072-a6f844830c03","system_id":"levelo_inurba_marseille","lat":43.23193,"lon":5.3556,"is_reserved":false,"is_disabled":false,"rental_uris":{"android":"levelo://app?vid=0f34c480-84cb-4b12-9072-a6f844830c03","ios":"levelo://app?vid=0f34c480-84cb-4b12-9072-a6f844830c03"},"vehicle_type_id":"4","last_reported":1732284505,"current_range_meters":38000,"station_id":"ce4bhu92rcd13ifvqi70","pricing_plan_id":"cebpf4jnsgd1na2vs0mg"},{"bike_id":"1453fddf-c64f-4c02-ace1-55caffeaf55e","system_id":"levelo_inurba_marseille","lat":43.32283,"lon":5.38273,"is_reserved":false,"is_disabled":false,"rental_uris":{"android":"levelo://app?vid=1453fddf-c64f-4c02-ace1-55caffeaf55e","ios":"levelo://app?vid=1453fddf-c64f-4c02-ace1-55caffeaf55e"},"vehicle_type_id":"4","last_reported":1732284505,"current_range_meters":37600,"station_id":"ce4bhr12rcd13ifvqhqg","pricing_plan_id":"cebpf4jnsgd1na2vs0mg"},{"bike_id":"d2dd2f87-bc94-499f-9854-641aaf21ae21","system_id":"levelo_inurba_marseille","lat":43.29553,"lon":5.42301,"is_reserved":false,"is_disabled":false,"rental_uris":{"android":"levelo://app?vid=d2dd2f87-bc94-499f-9854-641aaf21ae21","ios":"levelo://app?vid=d2dd2f87-bc94-499f-9854-641aaf21ae21"},"vehicle_type_id":"4","last_reported":1732284505,"current_range_meters":8000,"station_id":"ce4bhph2rcd13ifvqhdg","pricing_plan_id":"cebpf4jnsgd1na2vs0mg"},{"bike_id":"0d5efe48-32bd-461f-be09-c1d5e2d6ef37","system_id":"levelo_inurba_marseille","lat":43.32364,"lon":5.38888,"is_reserved":false,"is_disabled":false,"rental_uris":{"android":"levelo://app?vid=0d5efe48-32bd-461f-be09-c1d5e2d6ef37","ios":"levelo://app?vid=0d5efe48-32bd-461f-be09-c1d5e2d6ef37"},"vehicle_type_id":"4","last_reported":1732284505,"current_range_meters":32800,"station_id":"ce4bhqp2rcd13ifvqhog","pricing_plan_id":"cebpf4jnsgd1na2vs0mg"},{"bike_id":"652337a8-a909-475b-9e87-c52916829461","system_id":"levelo_inurba_marseille","lat":43.33717,"lon":5.39197,"is_reserved":false,"is_disabled":false,"rental_uris":{"android":"levelo://app?vid=652337a8-a909-475b-9e87-c52916829461","ios":"levelo://app?vid=652337a8-a909-475b-9e87-c52916829461"},"vehicle_type_id":"4","last_reported":1732284505,"current_range_meters":16000,"station_id":"ce4bhr92rcd13ifvqhsg","pricing_plan_id":"cebpf4jnsgd1na2vs0mg"},{"bike_id":"eed63595-af4c-4af9-9f47-c0b889d6180f","system_id":"levelo_inurba_marseille","lat":43.30532,"lon":5.36549,"is_reserved":false,"is_disabled":false,"rental_uris":{"android":"levelo://app?vid=eed63595-af4c-4af9-9f47-c0b889d6180f","ios":"levelo://app?vid=eed63595-af4c-4af9-9f47-c0b889d6180f"},"vehicle_type_id":"4","last_reported":1732284505,"current_range_meters":28800,"station_id":"ce4bgs12rcd13ifvqcag","pricing_plan_id":"cebpf4jnsgd1na2vs0mg"},{"bike_id":"87ca93ae-8c2c-4bde-868e-3578b3e812ca","system_id":"levelo_inurba_marseille","lat":43.27433,"lon":5.39412,"is_reserved":false,"is_disabled":false,"rental_uris":{"android":"levelo://app?vid=87ca93ae-8c2c-4bde-868e-3578b3e812ca","ios":"levelo://app?vid=87ca93ae-8c2c-4bde-868e-3578b3e812ca"},"vehicle_type_id":"4","last_reported":1732284505,"current_range_meters":36800,"station_id":"ce4bhdp2rcd13ifvqf20","pricing_plan_id":"cebpf4jnsgd1na2vs0mg"},{"bike_id":"733c7dcc-97aa-4a41-b9d8-8c590736fdf7","system_id":"levelo_inurba_marseille","lat":43.28258,"lon":5.35077,"is_reserved":false,"is_disabled":false,"rental_uris":{"android":"levelo://app?vid=733c7dcc-97aa-4a41-b9d8-8c590736fdf7","ios":"levelo://app?vid=733c7dcc-97aa-4a41-b9d8-8c590736fdf7"},"vehicle_type_id":"4","last_reported":1732284505,"current_range_meters":32400,"station_id":"ce4bhbp2rcd13ifvqerg","pricing_plan_id":"cebpf4jnsgd1na2vs0mg"},{"bike_id":"c2a59ab3-d6b8-4918-82c9-bfcce921601e","system_id":"levelo_inurba_marseille","lat":43.32478,"lon":5.36578,"is_reserved":false,"is_disabled":false,"rental_uris":{"android":"levelo://app?vid=c2a59ab3-d6b8-4918-82c9-bfcce921601e","ios":"levelo://app?vid=c2a59ab3-d6b8-4918-82c9-bfcce921601e"},"vehicle_type_id":"4","last_reported":1732284505,"current_range_meters":17600,"station_id":"ce4bhs12rcd13ifvqhvg","pricing_plan_id":"cebpf4jnsgd1na2vs0mg"},{"bike_id":"3814d5d3-9e1a-4999-b1c9-82bf61d0e64f","system_id":"levelo_inurba_marseille","lat":43.29552,"lon":5.42282,"is_reserved":false,"is_disabled":true,"rental_uris":{"android":"levelo://app?vid=3814d5d3-9e1a-4999-b1c9-82bf61d0e64f","ios":"levelo://app?vid=3814d5d3-9e1a-4999-b1c9-82bf61d0e64f"},"vehicle_type_id":"4","last_reported":1732284505,"current_range_meters":0,"station_id":"ce4bhph2rcd13ifvqhdg","pricing_plan_id":"cebpf4jnsgd1na2vs0mg"},{"bike_id":"357d7a50-882d-4ac5-8d8d-42aa7046d2cc","system_id":"levelo_inurba_marseille","lat":43.27553,"lon":5.38423,"is_reserved":false,"is_disabled":false,"rental_uris":{"android":"levelo://app?vid=357d7a50-882d-4ac5-8d8d-42aa7046d2cc","ios":"levelo://app?vid=357d7a50-882d-4ac5-8d8d-42aa7046d2cc"},"vehicle_type_id":"4","last_reported":1732284505,"current_range_meters":28800,"station_id":"ce4bhh92rcd13ifvqfi0","pricing_plan_id":"cebpf4jnsgd1na2vs0mg"},{"bike_id":"4fe80ffc-4df8-4ae3-aa53-bb17cdd54e27","system_id":"levelo_inurba_marseille","lat":43.30137,"lon":5.37419,"is_reserved":false,"is_disabled":false,"rental_uris":{"android":"levelo://app?vid=4fe80ffc-4df8-4ae3-aa53-bb17cdd54e27","ios":"levelo://app?vid=4fe80ffc-4df8-4ae3-aa53-bb17cdd54e27"},"vehicle_type_id":"4","last_reported":1732284505,"current_range_meters":16800,"station_id":"ce4bgs92rcd13ifvqcc0","pricing_plan_id":"cebpf4jnsgd1na2vs0mg"},{"bike_id":"306cba63-278a-4da1-8d03-20839ab46d88","system_id":"levelo_inurba_marseille","lat":43.320623,"lon":5.41564,"is_reserved":false,"is_disabled":false,"rental_uris":{"android":"levelo://app?vid=306cba63-278a-4da1-8d03-20839ab46d88","ios":"levelo://app?vid=306cba63-278a-4da1-8d03-20839ab46d88"},"vehicle_type_id":"4","last_reported":1732284505,"current_range_meters":36000,"station_id":"ce4bhq92rcd13ifvqhkg","pricing_plan_id":"cebpf4jnsgd1na2vs0mg"},{"bike_id":"77e6e8cf-8c4e-4a54-b0bd-c2dbcc775e2e","system_id":"levelo_inurba_marseille","lat":43.31487,"lon":5.37309,"is_reserved":false,"is_disabled":false,"rental_uris":{"android":"levelo://app?vid=77e6e8cf-8c4e-4a54-b0bd-c2dbcc775e2e","ios":"levelo://app?vid=77e6e8cf-8c4e-4a54-b0bd-c2dbcc775e2e"},"vehicle_type_id":"4","last_reported":1732284505,"current_range_meters":38400,"station_id":"ce4bgt12rcd13ifvqcd0","pricing_plan_id":"cebpf4jnsgd1na2vs0mg"},{"bike_id":"26cabe54-ec0e-47e4-b313-a9320e2dc516","system_id":"levelo_inurba_marseille","lat":43.27811,"lon":5.40713,"is_reserved":false,"is_disabled":false,"rental_uris":{"android":"levelo://app?vid=26cabe54-ec0e-47e4-b313-a9320e2dc516","ios":"levelo://app?vid=26cabe54-ec0e-47e4-b313-a9320e2dc516"},"vehicle_type_id":"4","last_reported":1732284505,"current_range_meters":36400,"station_id":"","pricing_plan_id":"cebpf4jnsgd1na2vs0mg"},{"bike_id":"76d0e68b-3d04-4bee-94ea-97082162bdab","system_id":"levelo_inurba_marseille","lat":43.32541,"lon":5.41439,"is_reserved":false,"is_disabled":false,"rental_uris":{"android":"levelo://app?vid=76d0e68b-3d04-4bee-94ea-97082162bdab","ios":"levelo://app?vid=76d0e68b-3d04-4bee-94ea-97082162bdab"},"vehicle_type_id":"4","last_reported":1732284505,"current_range_meters":16400,"station_id":"ce4bhq12rcd13ifvqhhg","pricing_plan_id":"cebpf4jnsgd1na2vs0mg"},{"bike_id":"e78fa47f-759a-46ae-af0e-d1e5601e3a40","system_id":"levelo_inurba_marseille","lat":43.30882,"lon":5.372,"is_reserved":false,"is_disabled":false,"rental_uris":{"android":"levelo://app?vid=e78fa47f-759a-46ae-af0e-d1e5601e3a40","ios":"levelo://app?vid=e78fa47f-759a-46ae-af0e-d1e5601e3a40"},"vehicle_type_id":"4","last_reported":1732284505,"current_range_meters":38800,"station_id":"ce4bguh2rcd13ifvqckg","pricing_plan_id":"cebpf4jnsgd1na2vs0mg"},{"bike_id":"13b751d7-077d-4f29-8350-fc32ddaecb6a","system_id":"levelo_inurba_marseille","lat":43.26549,"lon":5.37289,"is_reserved":false,"is_disabled":false,"rental_uris":{"android":"levelo://app?vid=13b751d7-077d-4f29-8350-fc32ddaecb6a","ios":"levelo://app?vid=13b751d7-077d-4f29-8350-fc32ddaecb6a"},"vehicle_type_id":"4","last_reported":1732284505,"current_range_meters":38400,"station_id":"ce4bhg12rcd13ifvqf70","pricing_plan_id":"cebpf4jnsgd1na2vs0mg"},{"bike_id":"e5951ee3-4a5a-4ebb-b469-096c5188dfa3","system_id":"levelo_inurba_marseille","lat":43.23187,"lon":5.35555,"is_reserved":false,"is_disabled":false,"rental_uris":{"android":"levelo://app?vid=e5951ee3-4a5a-4ebb-b469-096c5188dfa3","ios":"levelo://app?vid=e5951ee3-4a5a-4ebb-b469-096c5188dfa3"},"vehicle_type_id":"4","last_reported":1732284505,"current_range_meters":28400,"station_id":"ce4bhu92rcd13ifvqi70","pricing_plan_id":"cebpf4jnsgd1na2vs0mg"},{"bike_id":"8d13985d-3bdf-49ab-9373-fe6216716dff","system_id":"levelo_inurba_marseille","lat":43.27441,"lon":5.39031,"is_reserved":false,"is_disabled":false,"rental_uris":{"android":"levelo://app?vid=8d13985d-3bdf-49ab-9373-fe6216716dff","ios":"levelo://app?vid=8d13985d-3bdf-49ab-9373-fe6216716dff"},"vehicle_type_id":"4","last_reported":1732284505,"current_range_meters":30000,"station_id":"","pricing_plan_id":"cebpf4jnsgd1na2vs0mg"},{"bike_id":"689f2c55-3a6e-45a9-813c-37b26e8b6c58","system_id":"levelo_inurba_marseille","lat":43.29907,"lon":5.37477,"is_reserved":false,"is_disabled":false,"rental_uris":{"android":"levelo://app?vid=689f2c55-3a6e-45a9-813c-37b26e8b6c58","ios":"levelo://app?vid=689f2c55-3a6e-45a9-813c-37b26e8b6c58"},"vehicle_type_id":"4","last_reported":1732284505,"current_range_meters":33600,"station_id":"ce4bgjh2rcd13ifvqbg0","pricing_plan_id":"cebpf4jnsgd1na2vs0mg"},{"bike_id":"598543c3-4504-4ea3-976e-b45e767de5ed","system_id":"levelo_inurba_marseille","lat":43.32367,"lon":5.38878,"is_reserved":false,"is_disabled":false,"rental_uris":{"android":"levelo://app?vid=598543c3-4504-4ea3-976e-b45e767de5ed","ios":"levelo://app?vid=598543c3-4504-4ea3-976e-b45e767de5ed"},"vehicle_type_id":"4","last_reported":1732284505,"current_range_meters":36800,"station_id":"ce4bhqp2rcd13ifvqhog","pricing_plan_id":"cebpf4jnsgd1na2vs0mg"},{"bike_id":"d1bc9149-7d8f-494d-9069-21ecb5cabf5b","system_id":"levelo_inurba_marseille","lat":43.32051,"lon":5.41545,"is_reserved":false,"is_disabled":false,"rental_uris":{"android":"levelo://app?vid=d1bc9149-7d8f-494d-9069-21ecb5cabf5b","ios":"levelo://app?vid=d1bc9149-7d8f-494d-9069-21ecb5cabf5b"},"vehicle_type_id":"4","last_reported":1732284505,"current_range_meters":39200,"station_id":"ce4bhq92rcd13ifvqhkg","pricing_plan_id":"cebpf4jnsgd1na2vs0mg"},{"bike_id":"44abef4f-7bb3-417f-9f17-632a234b6e5d","system_id":"levelo_inurba_marseille","lat":43.32109,"lon":5.3678,"is_reserved":false,"is_disabled":false,"rental_uris":{"android":"levelo://app?vid=44abef4f-7bb3-417f-9f17-632a234b6e5d","ios":"levelo://app?vid=44abef4f-7bb3-417f-9f17-632a234b6e5d"},"vehicle_type_id":"4","last_reported":1732284505,"current_range_meters":23200,"station_id":"ce4bhrh2rcd13ifvqhug","pricing_plan_id":"cebpf4jnsgd1na2vs0mg"},{"bike_id":"830ab6f1-9f97-4b81-a374-96032fba99d2","system_id":"levelo_inurba_marseille","lat":43.24469,"lon":5.36917,"is_reserved":false,"is_disabled":true,"rental_uris":{"android":"levelo://app?vid=830ab6f1-9f97-4b81-a374-96032fba99d2","ios":"levelo://app?vid=830ab6f1-9f97-4b81-a374-96032fba99d2"},"vehicle_type_id":"4","last_reported":1732284505,"current_range_meters":26000,"station_id":"","pricing_plan_id":"cebpf4jnsgd1na2vs0mg"},{"bike_id":"6c948e9c-d5b3-4fe5-a918-1bd2f7c83b02","system_id":"levelo_inurba_marseille","lat":43.32112,"lon":5.36777,"is_reserved":false,"is_disabled":false,"rental_uris":{"android":"levelo://app?vid=6c948e9c-d5b3-4fe5-a918-1bd2f7c83b02","ios":"levelo://app?vid=6c948e9c-d5b3-4fe5-a918-1bd2f7c83b02"},"vehicle_type_id":"4","last_reported":1732284505,"current_range_meters":37600,"station_id":"ce4bhrh2rcd13ifvqhug","pricing_plan_id":"cebpf4jnsgd1na2vs0mg"},{"bike_id":"9e620abf-d324-4f99-84fc-d67e71109f2a","system_id":"levelo_inurba_marseille","lat":43.31078,"lon":5.42428,"is_reserved":false,"is_disabled":true,"rental_uris":{"android":"levelo://app?vid=9e620abf-d324-4f99-84fc-d67e71109f2a","ios":"levelo://app?vid=9e620abf-d324-4f99-84fc-d67e71109f2a"},"vehicle_type_id":"4","last_reported":1732284505,"current_range_meters":4400,"station_id":"ce4bhp92rcd13ifvqhag","pricing_plan_id":"cebpf4jnsgd1na2vs0mg"},{"bike_id":"9388a7ff-9c5c-4c26-9899-39b2408cf7e3","system_id":"levelo_inurba_marseille","lat":43.31025,"lon":5.38342,"is_reserved":false,"is_disabled":true,"rental_uris":{"android":"levelo://app?vid=9388a7ff-9c5c-4c26-9899-39b2408cf7e3","ios":"levelo://app?vid=9388a7ff-9c5c-4c26-9899-39b2408cf7e3"},"vehicle_type_id":"4","last_reported":1732284505,"current_range_meters":0,"station_id":"","pricing_plan_id":"cebpf4jnsgd1na2vs0mg"},{"bike_id":"b299f027-89de-4c2a-8dc3-a6213bfec1ab","system_id":"levelo_inurba_marseille","lat":43.34155,"lon":5.40899,"is_reserved":false,"is_disabled":false,"rental_uris":{"android":"levelo://app?vid=b299f027-89de-4c2a-8dc3-a6213bfec1ab","ios":"levelo://app?vid=b299f027-89de-4c2a-8dc3-a6213bfec1ab"},"vehicle_type_id":"4","last_reported":1732284505,"current_range_meters":18000,"station_id":"ce4bhqh2rcd13ifvqhlg","pricing_plan_id":"cebpf4jnsgd1na2vs0mg"},{"bike_id":"b2f8cfe5-1c77-43b8-954d-60148873b242","system_id":"levelo_inurba_marseille","lat":43.28151,"lon":5.42642,"is_reserved":false,"is_disabled":false,"rental_uris":{"android":"levelo://app?vid=b2f8cfe5-1c77-43b8-954d-60148873b242","ios":"levelo://app?vid=b2f8cfe5-1c77-43b8-954d-60148873b242"},"vehicle_type_id":"4","last_reported":1732284505,"current_range_meters":30000,"station_id":"ce4bhnh2rcd13ifvqgug","pricing_plan_id":"cebpf4jnsgd1na2vs0mg"},{"bike_id":"703de637-d417-4122-9b08-dca84a542a5d","system_id":"levelo_inurba_marseille","lat":43.29026,"lon":5.38123,"is_reserved":false,"is_disabled":false,"rental_uris":{"android":"levelo://app?vid=703de637-d417-4122-9b08-dca84a542a5d","ios":"levelo://app?vid=703de637-d417-4122-9b08-dca84a542a5d"},"vehicle_type_id":"4","last_reported":1732284505,"current_range_meters":2800,"station_id":"ce4bh4p2rcd13ifvqe1g","pricing_plan_id":"cebpf4jnsgd1na2vs0mg"},{"bike_id":"8ef764d0-f8cb-4eb7-8db6-0d0897dea8f4","system_id":"levelo_inurba_marseille","lat":43.290016,"lon":5.356082,"is_reserved":false,"is_disabled":false,"rental_uris":{"android":"levelo://app?vid=8ef764d0-f8cb-4eb7-8db6-0d0897dea8f4","ios":"levelo://app?vid=8ef764d0-f8cb-4eb7-8db6-0d0897dea8f4"},"vehicle_type_id":"4","last_reported":1732284505,"current_range_meters":24400,"station_id":"ce4bgkp2rcd13ifvqbmg","pricing_plan_id":"cebpf4jnsgd1na2vs0mg"},{"bike_id":"ee8b129c-bc21-4d6f-862a-575a32089115","system_id":"levelo_inurba_marseille","lat":43.30144,"lon":5.38087,"is_reserved":false,"is_disabled":false,"rental_uris":{"android":"levelo://app?vid=ee8b129c-bc21-4d6f-862a-575a32089115","ios":"levelo://app?vid=ee8b129c-bc21-4d6f-862a-575a32089115"},"vehicle_type_id":"4","last_reported":1732284505,"current_range_meters":35200,"station_id":"ce4bgjp2rcd13ifvqbh0","pricing_plan_id":"cebpf4jnsgd1na2vs0mg"},{"bike_id":"5c53cfbd-2547-413a-b79a-f8cc3b1ca992","system_id":"levelo_inurba_marseille","lat":43.32109,"lon":5.36781,"is_reserved":false,"is_disabled":false,"rental_uris":{"android":"levelo://app?vid=5c53cfbd-2547-413a-b79a-f8cc3b1ca992","ios":"levelo://app?vid=5c53cfbd-2547-413a-b79a-f8cc3b1ca992"},"vehicle_type_id":"4","last_reported":1732284505,"current_range_meters":16400,"station_id":"ce4bhrh2rcd13ifvqhug","pricing_plan_id":"cebpf4jnsgd1na2vs0mg"},{"bike_id":"5f4ac3cc-bda5-44b5-92f4-d0063a57d339","system_id":"levelo_inurba_marseille","lat":43.26213,"lon":5.374434,"is_reserved":false,"is_disabled":false,"rental_uris":{"android":"levelo://app?vid=5f4ac3cc-bda5-44b5-92f4-d0063a57d339","ios":"levelo://app?vid=5f4ac3cc-bda5-44b5-92f4-d0063a57d339"},"vehicle_type_id":"4","last_reported":1732284505,"current_range_meters":38000,"station_id":"ce4bhgp2rcd13ifvqfc0","pricing_plan_id":"cebpf4jnsgd1na2vs0mg"},{"bike_id":"aaa1e719-c2c9-4cad-b5fb-236e5fd392c6","system_id":"levelo_inurba_marseille","lat":43.28344,"lon":5.381,"is_reserved":false,"is_disabled":false,"rental_uris":{"android":"levelo://app?vid=aaa1e719-c2c9-4cad-b5fb-236e5fd392c6","ios":"levelo://app?vid=aaa1e719-c2c9-4cad-b5fb-236e5fd392c6"},"vehicle_type_id":"4","last_reported":1732284505,"current_range_meters":16000,"station_id":"ce4bh412rcd13ifvqdr0","pricing_plan_id":"cebpf4jnsgd1na2vs0mg"},{"bike_id":"e963c993-c4d2-4b09-b76b-86b44fdb3b10","system_id":"levelo_inurba_marseille","lat":43.25117,"lon":5.40324,"is_reserved":false,"is_disabled":true,"rental_uris":{"android":"levelo://app?vid=e963c993-c4d2-4b09-b76b-86b44fdb3b10","ios":"levelo://app?vid=e963c993-c4d2-4b09-b76b-86b44fdb3b10"},"vehicle_type_id":"4","last_reported":1732284505,"current_range_meters":0,"station_id":"ce4bhlh2rcd13ifvqgig","pricing_plan_id":"cebpf4jnsgd1na2vs0mg"},{"bike_id":"ced939b2-a2ab-40e5-b140-575509bab6d1","system_id":"levelo_inurba_marseille","lat":43.33023,"lon":5.39028,"is_reserved":false,"is_disabled":false,"rental_uris":{"android":"levelo://app?vid=ced939b2-a2ab-40e5-b140-575509bab6d1","ios":"levelo://app?vid=ced939b2-a2ab-40e5-b140-575509bab6d1"},"vehicle_type_id":"4","last_reported":1732284505,"current_range_meters":16000,"station_id":"ce4bhr92rcd13ifvqhrg","pricing_plan_id":"cebpf4jnsgd1na2vs0mg"},{"bike_id":"2dcfa626-f7ea-4c16-bdcf-3edb0faeb490","system_id":"levelo_inurba_marseille","lat":43.30134,"lon":5.39855,"is_reserved":false,"is_disabled":false,"rental_uris":{"android":"levelo://app?vid=2dcfa626-f7ea-4c16-bdcf-3edb0faeb490","ios":"levelo://app?vid=2dcfa626-f7ea-4c16-bdcf-3edb0faeb490"},"vehicle_type_id":"4","last_reported":1732284505,"current_range_meters":16800,"station_id":"ce4bh0h2rcd13ifvqd40","pricing_plan_id":"cebpf4jnsgd1na2vs0mg"},{"bike_id":"c39d2a6b-971a-4102-af38-404b98ad453d","system_id":"levelo_inurba_marseille","lat":43.29302,"lon":5.37178,"is_reserved":false,"is_disabled":false,"rental_uris":{"android":"levelo://app?vid=c39d2a6b-971a-4102-af38-404b98ad453d","ios":"levelo://app?vid=c39d2a6b-971a-4102-af38-404b98ad453d"},"vehicle_type_id":"4","last_reported":1732284505,"current_range_meters":23200,"station_id":"ce4bgh92rcd13ifvqb40","pricing_plan_id":"cebpf4jnsgd1na2vs0mg"},{"bike_id":"29bbbf9b-953e-4ccc-9a06-6ed4fd92fa38","system_id":"levelo_inurba_marseille","lat":43.31708,"lon":5.3775,"is_reserved":false,"is_disabled":false,"rental_uris":{"android":"levelo://app?vid=29bbbf9b-953e-4ccc-9a06-6ed4fd92fa38","ios":"levelo://app?vid=29bbbf9b-953e-4ccc-9a06-6ed4fd92fa38"},"vehicle_type_id":"4","last_reported":1732284505,"current_range_meters":38400,"station_id":"ce4bgth2rcd13ifvqch0","pricing_plan_id":"cebpf4jnsgd1na2vs0mg"},{"bike_id":"d371ba93-010c-4f34-acfc-d3b9ae74fe38","system_id":"levelo_inurba_marseille","lat":43.30882,"lon":5.39657,"is_reserved":false,"is_disabled":false,"rental_uris":{"android":"levelo://app?vid=d371ba93-010c-4f34-acfc-d3b9ae74fe38","ios":"levelo://app?vid=d371ba93-010c-4f34-acfc-d3b9ae74fe38"},"vehicle_type_id":"4","last_reported":1732284505,"current_range_meters":30000,"station_id":"ce4bh012rcd13ifvqcv0","pricing_plan_id":"cebpf4jnsgd1na2vs0mg"},{"bike_id":"d00ecf84-bb74-4a20-946e-9b530a4c6433","system_id":"levelo_inurba_marseille","lat":43.26928,"lon":5.38907,"is_reserved":false,"is_disabled":false,"rental_uris":{"android":"levelo://app?vid=d00ecf84-bb74-4a20-946e-9b530a4c6433","ios":"levelo://app?vid=d00ecf84-bb74-4a20-946e-9b530a4c6433"},"vehicle_type_id":"4","last_reported":1732284505,"current_range_meters":38800,"station_id":"ce4bhhh2rcd13ifvqfl0","pricing_plan_id":"cebpf4jnsgd1na2vs0mg"},{"bike_id":"620e53be-74b9-4790-b8d2-c73e04717969","system_id":"levelo_inurba_marseille","lat":43.30535,"lon":5.36704,"is_reserved":false,"is_disabled":false,"rental_uris":{"android":"levelo://app?vid=620e53be-74b9-4790-b8d2-c73e04717969","ios":"levelo://app?vid=620e53be-74b9-4790-b8d2-c73e04717969"},"vehicle_type_id":"4","last_reported":1732284505,"current_range_meters":38800,"station_id":"ce4bgrp2rcd13ifvqc9g","pricing_plan_id":"cebpf4jnsgd1na2vs0mg"},{"bike_id":"db68c632-864f-4816-a385-7b854b4a7b78","system_id":"levelo_inurba_marseille","lat":43.2593,"lon":5.40873,"is_reserved":false,"is_disabled":false,"rental_uris":{"android":"levelo://app?vid=db68c632-864f-4816-a385-7b854b4a7b78","ios":"levelo://app?vid=db68c632-864f-4816-a385-7b854b4a7b78"},"vehicle_type_id":"4","last_reported":1732284505,"current_range_meters":38400,"station_id":"ce4bhm92rcd13ifvqglg","pricing_plan_id":"cebpf4jnsgd1na2vs0mg"},{"bike_id":"89429ed2-f839-4749-bcb9-3e5230fe3bfb","system_id":"levelo_inurba_marseille","lat":43.33723,"lon":5.39177,"is_reserved":false,"is_disabled":false,"rental_uris":{"android":"levelo://app?vid=89429ed2-f839-4749-bcb9-3e5230fe3bfb","ios":"levelo://app?vid=89429ed2-f839-4749-bcb9-3e5230fe3bfb"},"vehicle_type_id":"4","last_reported":1732284505,"current_range_meters":37600,"station_id":"ce4bhr92rcd13ifvqhsg","pricing_plan_id":"cebpf4jnsgd1na2vs0mg"},{"bike_id":"83aa41d8-3160-4aa7-beee-0e58f8e39981","system_id":"levelo_inurba_marseille","lat":43.29553,"lon":5.42289,"is_reserved":false,"is_disabled":false,"rental_uris":{"android":"levelo://app?vid=83aa41d8-3160-4aa7-beee-0e58f8e39981","ios":"levelo://app?vid=83aa41d8-3160-4aa7-beee-0e58f8e39981"},"vehicle_type_id":"4","last_reported":1732284505,"current_range_meters":9200,"station_id":"ce4bhph2rcd13ifvqhdg","pricing_plan_id":"cebpf4jnsgd1na2vs0mg"},{"bike_id":"4537204f-265f-42f3-8823-5288b0d404e4","system_id":"levelo_inurba_marseille","lat":43.26027,"lon":5.37551,"is_reserved":false,"is_disabled":false,"rental_uris":{"android":"levelo://app?vid=4537204f-265f-42f3-8823-5288b0d404e4","ios":"levelo://app?vid=4537204f-265f-42f3-8823-5288b0d404e4"},"vehicle_type_id":"4","last_reported":1732284505,"current_range_meters":9200,"station_id":"ce4bhgh2rcd13ifvqfa0","pricing_plan_id":"cebpf4jnsgd1na2vs0mg"},{"bike_id":"6965c515-9b58-41fc-be4e-6e6a11fe13d3","system_id":"levelo_inurba_marseille","lat":43.30893,"lon":5.36852,"is_reserved":false,"is_disabled":false,"rental_uris":{"android":"levelo://app?vid=6965c515-9b58-41fc-be4e-6e6a11fe13d3","ios":"levelo://app?vid=6965c515-9b58-41fc-be4e-6e6a11fe13d3"},"vehicle_type_id":"4","last_reported":1732284505,"current_range_meters":24400,"station_id":"ce4bgn92rcd13ifvqbvg","pricing_plan_id":"cebpf4jnsgd1na2vs0mg"},{"bike_id":"304ef428-9450-440f-a8db-1138e82ecbd5","system_id":"levelo_inurba_marseille","lat":43.25934,"lon":5.40906,"is_reserved":false,"is_disabled":false,"rental_uris":{"android":"levelo://app?vid=304ef428-9450-440f-a8db-1138e82ecbd5","ios":"levelo://app?vid=304ef428-9450-440f-a8db-1138e82ecbd5"},"vehicle_type_id":"4","last_reported":1732284505,"current_range_meters":35600,"station_id":"ce4bhm92rcd13ifvqglg","pricing_plan_id":"cebpf4jnsgd1na2vs0mg"},{"bike_id":"9ad1aa1a-f0e2-4d96-9333-df858bab6258","system_id":"levelo_inurba_marseille","lat":43.30185,"lon":5.36636,"is_reserved":false,"is_disabled":false,"rental_uris":{"android":"levelo://app?vid=9ad1aa1a-f0e2-4d96-9333-df858bab6258","ios":"levelo://app?vid=9ad1aa1a-f0e2-4d96-9333-df858bab6258"},"vehicle_type_id":"4","last_reported":1732284505,"current_range_meters":20000,"station_id":"ce4bgrh2rcd13ifvqc8g","pricing_plan_id":"cebpf4jnsgd1na2vs0mg"},{"bike_id":"cf796984-c555-4128-86e9-1019a4c3b8b5","system_id":"levelo_inurba_marseille","lat":43.3013,"lon":5.38781,"is_reserved":false,"is_disabled":false,"rental_uris":{"android":"levelo://app?vid=cf796984-c555-4128-86e9-1019a4c3b8b5","ios":"levelo://app?vid=cf796984-c555-4128-86e9-1019a4c3b8b5"},"vehicle_type_id":"4","last_reported":1732284505,"current_range_meters":22000,"station_id":"ce4bghh2rcd13ifvqb60","pricing_plan_id":"cebpf4jnsgd1na2vs0mg"},{"bike_id":"27674388-c7c7-45ed-92ec-07743c6c43ab","system_id":"levelo_inurba_marseille","lat":43.28699,"lon":5.39987,"is_reserved":false,"is_disabled":false,"rental_uris":{"android":"levelo://app?vid=27674388-c7c7-45ed-92ec-07743c6c43ab","ios":"levelo://app?vid=27674388-c7c7-45ed-92ec-07743c6c43ab"},"vehicle_type_id":"4","last_reported":1732284505,"current_range_meters":24800,"station_id":"ce4bho92rcd13ifvqh3g","pricing_plan_id":"cebpf4jnsgd1na2vs0mg"},{"bike_id":"40191457-cce3-490d-a141-5a0449d2f1c2","system_id":"levelo_inurba_marseille","lat":43.30047,"lon":5.37454,"is_reserved":false,"is_disabled":false,"rental_uris":{"android":"levelo://app?vid=40191457-cce3-490d-a141-5a0449d2f1c2","ios":"levelo://app?vid=40191457-cce3-490d-a141-5a0449d2f1c2"},"vehicle_type_id":"4","last_reported":1732284505,"current_range_meters":22800,"station_id":"","pricing_plan_id":"cebpf4jnsgd1na2vs0mg"},{"bike_id":"a2f3eb58-8385-4dd0-9c1f-8bc45ba5c4a1","system_id":"levelo_inurba_marseille","lat":43.30883,"lon":5.3965,"is_reserved":false,"is_disabled":false,"rental_uris":{"android":"levelo://app?vid=a2f3eb58-8385-4dd0-9c1f-8bc45ba5c4a1","ios":"levelo://app?vid=a2f3eb58-8385-4dd0-9c1f-8bc45ba5c4a1"},"vehicle_type_id":"4","last_reported":1732284505,"current_range_meters":28800,"station_id":"ce4bh012rcd13ifvqcv0","pricing_plan_id":"cebpf4jnsgd1na2vs0mg"},{"bike_id":"7770b1cc-2a54-4d08-8255-6bed2fc397aa","system_id":"levelo_inurba_marseille","lat":43.23189,"lon":5.35552,"is_reserved":false,"is_disabled":false,"rental_uris":{"android":"levelo://app?vid=7770b1cc-2a54-4d08-8255-6bed2fc397aa","ios":"levelo://app?vid=7770b1cc-2a54-4d08-8255-6bed2fc397aa"},"vehicle_type_id":"4","last_reported":1732284505,"current_range_meters":10000,"station_id":"ce4bhu92rcd13ifvqi70","pricing_plan_id":"cebpf4jnsgd1na2vs0mg"},{"bike_id":"e397b035-09df-4dd9-869c-705b86271e7b","system_id":"levelo_inurba_marseille","lat":43.30538,"lon":5.36552,"is_reserved":false,"is_disabled":false,"rental_uris":{"android":"levelo://app?vid=e397b035-09df-4dd9-869c-705b86271e7b","ios":"levelo://app?vid=e397b035-09df-4dd9-869c-705b86271e7b"},"vehicle_type_id":"4","last_reported":1732284505,"current_range_meters":25200,"station_id":"ce4bgs12rcd13ifvqcag","pricing_plan_id":"cebpf4jnsgd1na2vs0mg"},{"bike_id":"832e4346-5181-4bbd-9941-7a45a180a4c4","system_id":"levelo_inurba_marseille","lat":43.24543,"lon":5.39527,"is_reserved":false,"is_disabled":true,"rental_uris":{"android":"levelo://app?vid=832e4346-5181-4bbd-9941-7a45a180a4c4","ios":"levelo://app?vid=832e4346-5181-4bbd-9941-7a45a180a4c4"},"vehicle_type_id":"4","last_reported":1732284505,"current_range_meters":1200,"station_id":"ce4bhlp2rcd13ifvqgjg","pricing_plan_id":"cebpf4jnsgd1na2vs0mg"},{"bike_id":"b06f2877-4788-46c3-bf20-1457857a4bd4","system_id":"levelo_inurba_marseille","lat":43.27616,"lon":5.36107,"is_reserved":false,"is_disabled":false,"rental_uris":{"android":"levelo://app?vid=b06f2877-4788-46c3-bf20-1457857a4bd4","ios":"levelo://app?vid=b06f2877-4788-46c3-bf20-1457857a4bd4"},