{"last_updated":1768220838,"ttl":60,"version":"2.2","data":{"bikes":[{"bike_id":"3e9358cc-888a-4cd3-834e-8f0cb7a42fb7","system_id":"levelo_inurba_marseille","lat":43.31559,"lon":5.38747,"is_reserved":false,"is_disabled":false,"rental_uris":{"android":"levelo://app?vid=3e9358cc-888a-4cd3-834e-8f0cb7a42fb7","ios":"levelo://app?vid=3e9358cc-888a-4cd3-834e-8f0cb7a42fb7"},"vehicle_type_id":"4","last_reported":1768220839,"current_range_meters":2800,"station_id":"","pricing_plan_id":"cebpf4jnsgd1na2vs0mg"},{"bike_id":"61a65f62-2779-4498-95bc-b4cb46356208","system_id":"levelo_inurba_marseille","lat":43.2906,"lon":5.37161,"is_reserved":false,"is_disabled":false,"rental_uris":{"android":"levelo://app?vid=61a65f62-2779-4498-95bc-b4cb46356208","ios":"levelo://app?vid=61a65f62-2779-4498-95bc-b4cb46356208"},"vehicle_type_id":"4","last_reported":1768220839,"current_range_meters":2800,"station_id":"ce4bh5p2rcd13ifvqe4g","pricing_plan_id":"cebpf4jnsgd1na2vs0mg"},{"bike_id":"0c66ced2-33df-4f15-95b4-6f55cf92b131","system_id":"levelo_inurba_marseille","lat":43.28614,"lon":5.35103,"is_reserved":false,"is_disabled":false,"rental_uris":{"android":"levelo://app?vid=0c66ced2-33df-4f15-95b4-6f55cf92b131","ios":"levelo://app?vid=0c66ced2-33df-4f15-95b4-6f55cf92b131"},"vehicle_type_id":"4","last_reported":1768220839,"current_range_meters":2800,"station_id":"ce4bhch2rcd13ifvqeug","pricing_plan_id":"cebpf4jnsgd1na2vs0mg"},{"bike_id":"68073135-a0b7-449c-9fdf-c7c1997b39be","system_id":"levelo_inurba_marseille","lat":43.239638,"lon":5.366311,"is_reserved":false,"is_disabled":false,"rental_uris":{"android":"levelo://app?vid=68073135-a0b7-449c-9fdf-c7c1997b39be","ios":"levelo://app?vid=68073135-a0b7-449c-9fdf-c7c1997b39be"},"vehicle_type_id":"4","last_reported":1768220839,"current_range_meters":2800,"station_id":"ce4bhi12rcd13ifvqfp0","pricing_plan_id":"cebpf4jnsgd1na2vs0mg"},{"bike_id":"29fb322a-ae18-4d78-8783-d6b3ca5adb2e","system_id":"levelo_inurba_marseille","lat":43.30319,"lon":5.36908,"is_reserved":false,"is_disabled":false,"rental_uris":{"android":"levelo://app?vid=29fb322a-ae18-4d78-8783-d6b3ca5adb2e","ios":"levelo://app?vid=29fb322a-ae18-4d78-8783-d6b3ca5adb2e"},"vehicle_type_id":"4","last_reported":1768220839,"current_range_meters":2800,"station_id":"ce4bgqh2rcd13ifvqc5g","pricing_plan_id":"cebpf4jnsgd1na2vs0mg"},{"bike_id":"d709ec4f-fcfd-4bba-a4f1-6a544bbaedc6","system_id":"levelo_inurba_marseille","lat":43.241829,"lon":5.397292,"is_reserved":false,"is_disabled":false,"rental_uris":{"android":"levelo://app?vid=d709ec4f-fcfd-4bba-a4f1-6a544bbaedc6","ios":"levelo://app?vid=d709ec4f-fcfd-4bba-a4f1-6a544bbaedc6"},"vehicle_type_id":"4","last_reported":1768220839,"current_range_meters":2800,"station_id":"ce4bhn12rcd13ifvqgpg","pricing_plan_id":"cebpf4jnsgd1na2vs0mg"},{"bike_id":"efc0d10f-4b4b-4318-9068-9e5cc241b947","system_id":"levelo_inurba_marseille","lat":43.286053,"lon":5.35117,"is_reserved":false,"is_disabled":false,"rental_uris":{"android":"levelo://app?vid=efc0d10f-4b4b-4318-9068-9e5cc241b947","ios":"levelo://app?vid=efc0d10f-4b4b-4318-9068-9e5cc241b947"},"vehicle_type_id":"4","last_reported":1768220839,"current_range_meters":2800,"station_id":"ce4bhch2rcd13ifvqeug","pricing_plan_id":"cebpf4jnsgd1na2vs0mg"},{"bike_id":"c041dd9b-fce2-4508-bae5-b13b7b123694","system_id":"levelo_inurba_marseille","lat":43.32335,"lon":5.36724,"is_reserved":false,"is_disabled":false,"rental_uris":{"android":"levelo://app?vid=c041dd9b-fce2-4508-bae5-b13b7b123694","ios":"levelo://app?vid=c041dd9b-fce2-4508-bae5-b13b7b123694"},"vehicle_type_id":"4","last_reported":1768220839,"current_range_meters":3200,"station_id":"ce4bhsh2rcd13ifvqi2g","pricing_plan_id":"cebpf4jnsgd1na2vs0mg"},{"bike_id":"fda662ed-7ffc-49de-ac37-d8afcad07c92","system_id":"levelo_inurba_marseille","lat":43.307986,"lon":5.381613,"is_reserved":false,"is_disabled":false,"rental_uris":{"android":"levelo://app?vid=fda662ed-7ffc-49de-ac37-d8afcad07c92","ios":"levelo://app?vid=fda662ed-7ffc-49de-ac37-d8afcad07c92"},"vehicle_type_id":"4","last_reported":1768220839,"current_range_meters":3200,"station_id":"ce4bgt12rcd13ifvqce0","pricing_plan_id":"cebpf4jnsgd1na2vs0mg"},{"bike_id":"fa90db17-54c0-4339-8968-502f66cbf961","system_id":"levelo_inurba_marseille","lat":43.266814,"lon":5.382711,"is_reserved":false,"is_disabled":false,"rental_uris":{"android":"levelo://app?vid=fa90db17-54c0-4339-8968-502f66cbf961","ios":"levelo://app?vid=fa90db17-54c0-4339-8968-502f66cbf961"},"vehicle_type_id":"4","last_reported":1768220839,"current_range_meters":3200,"station_id":"ce4bhg92rcd13ifvqf90","pricing_plan_id":"cebpf4jnsgd1na2vs0mg"},{"bike_id":"2610f526-4eba-4459-a522-05fc103d19cf","system_id":"levelo_inurba_marseille","lat":43.29903,"lon":5.43678,"is_reserved":false,"is_disabled":false,"rental_uris":{"android":"levelo://app?vid=2610f526-4eba-4459-a522-05fc103d19cf","ios":"levelo://app?vid=2610f526-4eba-4459-a522-05fc103d19cf"},"vehicle_type_id":"4","last_reported":1768220839,"current_range_meters":3200,"station_id":"ce4bhpp2rcd13ifvqhfg","pricing_plan_id":"cebpf4jnsgd1na2vs0mg"},{"bike_id":"2eab77ca-41d1-41c8-9357-a15108de04b0","system_id":"levelo_inurba_marseille","lat":43.22551,"lon":5.41637,"is_reserved":false,"is_disabled":false,"rental_uris":{"android":"levelo://app?vid=2eab77ca-41d1-41c8-9357-a15108de04b0","ios":"levelo://app?vid=2eab77ca-41d1-41c8-9357-a15108de04b0"},"vehicle_type_id":"4","last_reported":1768220839,"current_range_meters":3200,"station_id":"st_d2o4gvlbi1j2169b742g","pricing_plan_id":"cebpf4jnsgd1na2vs0mg"},{"bike_id":"850a5e63-09ac-4096-ac4b-0ad06529e0b0","system_id":"levelo_inurba_marseille","lat":43.23962,"lon":5.366318,"is_reserved":false,"is_disabled":false,"rental_uris":{"android":"levelo://app?vid=850a5e63-09ac-4096-ac4b-0ad06529e0b0","ios":"levelo://app?vid=850a5e63-09ac-4096-ac4b-0ad06529e0b0"},"vehicle_type_id":"4","last_reported":1768220839,"current_range_meters":3200,"station_id":"ce4bhi12rcd13ifvqfp0","pricing_plan_id":"cebpf4jnsgd1na2vs0mg"},{"bike_id":"6f3a667f-c9c2-4617-b978-f4fd5e7c7d88","system_id":"levelo_inurba_marseille","lat":43.32476,"lon":5.3657,"is_reserved":false,"is_disabled":false,"rental_uris":{"android":"levelo://app?vid=6f3a667f-c9c2-4617-b978-f4fd5e7c7d88","ios":"levelo://app?vid=6f3a667f-c9c2-4617-b978-f4fd5e7c7d88"},"vehicle_type_id":"4","last_reported":1768220839,"current_range_meters":3200,"station_id":"ce4bhs12rcd13ifvqhvg","pricing_plan_id":"cebpf4jnsgd1na2vs0mg"},{"bike_id":"b90c51b1-fcc5-42a7-a611-617f03d2c9b1","system_id":"levelo_inurba_marseille","lat":43.31876,"lon":5.40002,"is_reserved":false,"is_disabled":false,"rental_uris":{"android":"levelo://app?vid=b90c51b1-fcc5-42a7-a611-617f03d2c9b1","ios":"levelo://app?vid=b90c51b1-fcc5-42a7-a611-617f03d2c9b1"},"vehicle_type_id":"4","last_reported":1768220839,"current_range_meters":3200,"station_id":"","pricing_plan_id":"cebpf4jnsgd1na2vs0mg"},{"bike_id":"fa58f153-dd0f-4688-8b3a-fb57116c8b0e","system_id":"levelo_inurba_marseille","lat":43.25334,"lon":5.42189,"is_reserved":false,"is_disabled":false,"rental_uris":{"android":"levelo://app?vid=fa58f153-dd0f-4688-8b3a-fb57116c8b0e","ios":"levelo://app?vid=fa58f153-dd0f-4688-8b3a-fb57116c8b0e"},"vehicle_type_id":"4","last_reported":1768220839,"current_range_meters":3200,"station_id":"st_d2m65c5bi1j21697t3ng","pricing_plan_id":"cebpf4jnsgd1na2vs0mg"},{"bike_id":"2fe8cf85-9a5b-4aed-876c-88430cd8ff00","system_id":"levelo_inurba_marseille","lat":43.22555,"lon":5.41631,"is_reserved":false,"is_disabled":false,"rental_uris":{"android":"levelo://app?vid=2fe8cf85-9a5b-4aed-876c-88430cd8ff00","ios":"levelo://app?vid=2fe8cf85-9a5b-4aed-876c-88430cd8ff00"},"vehicle_type_id":"4","last_reported":1768220839,"current_range_meters":3600,"station_id":"st_d2o4gvlbi1j2169b742g","pricing_plan_id":"cebpf4jnsgd1na2vs0mg"},{"bike_id":"e6cd1ffd-4601-4e8d-89e9-82ff8374bb06","system_id":"levelo_inurba_marseille","lat":43.2954,"lon":5.3854,"is_reserved":false,"is_disabled":false,"rental_uris":{"android":"levelo://app?vid=e6cd1ffd-4601-4e8d-89e9-82ff8374bb06","ios":"levelo://app?vid=e6cd1ffd-4601-4e8d-89e9-82ff8374bb06"},"vehicle_type_id":"4","last_reported":1768220839,"current_range_meters":3600,"station_id":"ce4bgih2rcd13ifvqba0","pricing_plan_id":"cebpf4jnsgd1na2vs0mg"},{"bike_id":"e4a53e17-a6c7-4dd2-a1ae-48dfc889e1df","system_id":"levelo_inurba_marseille","lat":43.29895,"lon":5.43669,"is_reserved":false,"is_disabled":false,"rental_uris":{"android":"levelo://app?vid=e4a53e17-a6c7-4dd2-a1ae-48dfc889e1df","ios":"levelo://app?vid=e4a53e17-a6c7-4dd2-a1ae-48dfc889e1df"},"vehicle_type_id":"4","last_reported":1768220839,"current_range_meters":3600,"station_id":"ce4bhpp2rcd13ifvqhfg","pricing_plan_id":"cebpf4jnsgd1na2vs0mg"},{"bike_id":"3c6b6751-5a57-42a3-9a84-583ca6e583ff","system_id":"levelo_inurba_marseille","lat":43.225301,"lon":5.348359,"is_reserved":false,"is_disabled":false,"rental_uris":{"android":"levelo://app?vid=3c6b6751-5a57-42a3-9a84-583ca6e583ff","ios":"levelo://app?vid=3c6b6751-5a57-42a3-9a84-583ca6e583ff"},"vehicle_type_id":"4","last_reported":1768220839,"current_range_meters":3600,"station_id":"","pricing_plan_id":"cebpf4jnsgd1na2vs0mg"},{"bike_id":"a44088d3-9cca-429d-a43c-98af888114fa","system_id":"levelo_inurba_marseille","lat":43.21198,"lon":5.35067,"is_reserved":false,"is_disabled":false,"rental_uris":{"android":"levelo://app?vid=a44088d3-9cca-429d-a43c-98af888114fa","ios":"levelo://app?vid=a44088d3-9cca-429d-a43c-98af888114fa"},"vehicle_type_id":"4","last_reported":1768220839,"current_range_meters":3600,"station_id":"st_cvj6sg6p6f1abm77japg","pricing_plan_id":"cebpf4jnsgd1na2vs0mg"},{"bike_id":"b56b34c3-69e7-4f55-837c-a6efaa8f0117","system_id":"levelo_inurba_marseille","lat":43.2368,"lon":5.36075,"is_reserved":false,"is_disabled":false,"rental_uris":{"android":"levelo://app?vid=b56b34c3-69e7-4f55-837c-a6efaa8f0117","ios":"levelo://app?vid=b56b34c3-69e7-4f55-837c-a6efaa8f0117"},"vehicle_type_id":"4","last_reported":1768220839,"current_range_meters":3600,"station_id":"","pricing_plan_id":"cebpf4jnsgd1na2vs0mg"},{"bike_id":"d5aa42ad-a532-465c-bc7d-f744756989f4","system_id":"levelo_inurba_marseille","lat":43.30158,"lon":5.38073,"is_reserved":false,"is_disabled":false,"rental_uris":{"android":"levelo://app?vid=d5aa42ad-a532-465c-bc7d-f744756989f4","ios":"levelo://app?vid=d5aa42ad-a532-465c-bc7d-f744756989f4"},"vehicle_type_id":"4","last_reported":1768220839,"current_range_meters":4000,"station_id":"ce4bgjp2rcd13ifvqbh0","pricing_plan_id":"cebpf4jnsgd1na2vs0mg"},{"bike_id":"ec042e6a-81f3-4936-b0f3-19f4b71e9260","system_id":"levelo_inurba_marseille","lat":43.245826,"lon":5.374825,"is_reserved":false,"is_disabled":false,"rental_uris":{"android":"levelo://app?vid=ec042e6a-81f3-4936-b0f3-19f4b71e9260","ios":"levelo://app?vid=ec042e6a-81f3-4936-b0f3-19f4b71e9260"},"vehicle_type_id":"4","last_reported":1768220839,"current_range_meters":4000,"station_id":"","pricing_plan_id":"cebpf4jnsgd1na2vs0mg"},{"bike_id":"4df591c0-63e8-4781-84d8-f49518164df5","system_id":"levelo_inurba_marseille","lat":43.31552,"lon":5.39856,"is_reserved":false,"is_disabled":false,"rental_uris":{"android":"levelo://app?vid=4df591c0-63e8-4781-84d8-f49518164df5","ios":"levelo://app?vid=4df591c0-63e8-4781-84d8-f49518164df5"},"vehicle_type_id":"4","last_reported":1768220839,"current_range_meters":4000,"station_id":"","pricing_plan_id":"cebpf4jnsgd1na2vs0mg"},{"bike_id":"a6b77ed5-ab90-49e5-b0f2-ceb306712c06","system_id":"levelo_inurba_marseille","lat":43.29927,"lon":5.37475,"is_reserved":false,"is_disabled":false,"rental_uris":{"android":"levelo://app?vid=a6b77ed5-ab90-49e5-b0f2-ceb306712c06","ios":"levelo://app?vid=a6b77ed5-ab90-49e5-b0f2-ceb306712c06"},"vehicle_type_id":"4","last_reported":1768220839,"current_range_meters":4000,"station_id":"ce4bgjh2rcd13ifvqbg0","pricing_plan_id":"cebpf4jnsgd1na2vs0mg"},{"bike_id":"aee207e6-bb46-4adb-b36a-f6b94916c182","system_id":"levelo_inurba_marseille","lat":43.31033,"lon":5.3717,"is_reserved":false,"is_disabled":false,"rental_uris":{"android":"levelo://app?vid=aee207e6-bb46-4adb-b36a-f6b94916c182","ios":"levelo://app?vid=aee207e6-bb46-4adb-b36a-f6b94916c182"},"vehicle_type_id":"4","last_reported":1768220839,"current_range_meters":4000,"station_id":"st_d4kl2rp97mjs73e7tdfg","pricing_plan_id":"cebpf4jnsgd1na2vs0mg"},{"bike_id":"b6d40955-5f77-4487-b9ef-c428020cb4a2","system_id":"levelo_inurba_marseille","lat":43.231894,"lon":5.436467,"is_reserved":false,"is_disabled":false,"rental_uris":{"android":"levelo://app?vid=b6d40955-5f77-4487-b9ef-c428020cb4a2","ios":"levelo://app?vid=b6d40955-5f77-4487-b9ef-c428020cb4a2"},"vehicle_type_id":"4","last_reported":1768220839,"current_range_meters":4000,"station_id":"ce4bhmp2rcd13ifvqgog","pricing_plan_id":"cebpf4jnsgd1na2vs0mg"},{"bike_id":"754e39ee-7b10-492a-844c-a77e2d32e661","system_id":"levelo_inurba_marseille","lat":43.302235,"lon":5.37083,"is_reserved":false,"is_disabled":false,"rental_uris":{"android":"levelo://app?vid=754e39ee-7b10-492a-844c-a77e2d32e661","ios":"levelo://app?vid=754e39ee-7b10-492a-844c-a77e2d32e661"},"vehicle_type_id":"4","last_reported":1768220839,"current_range_meters":4400,"station_id":"","pricing_plan_id":"cebpf4jnsgd1na2vs0mg"},{"bike_id":"74943d18-f468-4e78-91e6-6898d19a337c","system_id":"levelo_inurba_marseille","lat":43.22934,"lon":5.35377,"is_reserved":false,"is_disabled":false,"rental_uris":{"android":"levelo://app?vid=74943d18-f468-4e78-91e6-6898d19a337c","ios":"levelo://app?vid=74943d18-f468-4e78-91e6-6898d19a337c"},"vehicle_type_id":"4","last_reported":1768220839,"current_range_meters":4400,"station_id":"cpo3532slgdg3j2ikp40","pricing_plan_id":"cebpf4jnsgd1na2vs0mg"},{"bike_id":"0891085f-ce11-42d3-a53c-5fdc15e9fcf8","system_id":"levelo_inurba_marseille","lat":43.29258,"lon":5.37619,"is_reserved":false,"is_disabled":false,"rental_uris":{"android":"levelo://app?vid=0891085f-ce11-42d3-a53c-5fdc15e9fcf8","ios":"levelo://app?vid=0891085f-ce11-42d3-a53c-5fdc15e9fcf8"},"vehicle_type_id":"4","last_reported":1768220839,"current_range_meters":4400,"station_id":"ce4bgi12rcd13ifvqb80","pricing_plan_id":"cebpf4jnsgd1na2vs0mg"},{"bike_id":"0fdc4ba5-3bcc-4f60-aac2-e3a4f230a359","system_id":"levelo_inurba_marseille","lat":43.3071,"lon":5.40989,"is_reserved":false,"is_disabled":false,"rental_uris":{"android":"levelo://app?vid=0fdc4ba5-3bcc-4f60-aac2-e3a4f230a359","ios":"levelo://app?vid=0fdc4ba5-3bcc-4f60-aac2-e3a4f230a359"},"vehicle_type_id":"4","last_reported":1768220839,"current_range_meters":4400,"station_id":"","pricing_plan_id":"cebpf4jnsgd1na2vs0mg"},{"bike_id":"cf60f498-4ac1-4405-83d3-14d31b3e313e","system_id":"levelo_inurba_marseille","lat":43.27912,"lon":5.39577,"is_reserved":false,"is_disabled":false,"rental_uris":{"android":"levelo://app?vid=cf60f498-4ac1-4405-83d3-14d31b3e313e","ios":"levelo://app?vid=cf60f498-4ac1-4405-83d3-14d31b3e313e"},"vehicle_type_id":"4","last_reported":1768220839,"current_range_meters":4400,"station_id":"ce4bhf92rcd13ifvqf40","pricing_plan_id":"cebpf4jnsgd1na2vs0mg"},{"bike_id":"312ee101-f044-4761-bddb-1ddf32b43eb6","system_id":"levelo_inurba_marseille","lat":43.22574,"lon":5.41628,"is_reserved":false,"is_disabled":false,"rental_uris":{"android":"levelo://app?vid=312ee101-f044-4761-bddb-1ddf32b43eb6","ios":"levelo://app?vid=312ee101-f044-4761-bddb-1ddf32b43eb6"},"vehicle_type_id":"4","last_reported":1768220839,"current_range_meters":4400,"station_id":"st_d2o4gvlbi1j2169b742g","pricing_plan_id":"cebpf4jnsgd1na2vs0mg"},{"bike_id":"2e41b934-eba3-4dbc-9160-135957b1a747","system_id":"levelo_inurba_marseille","lat":43.2293,"lon":5.35372,"is_reserved":false,"is_disabled":false,"rental_uris":{"android":"levelo://app?vid=2e41b934-eba3-4dbc-9160-135957b1a747","ios":"levelo://app?vid=2e41b934-eba3-4dbc-9160-135957b1a747"},"vehicle_type_id":"4","last_reported":1768220839,"current_range_meters":4400,"station_id":"cpo3532slgdg3j2ikp40","pricing_plan_id":"cebpf4jnsgd1na2vs0mg"},{"bike_id":"92bffe6b-57e8-4ca9-9db6-e41c1f081741","system_id":"levelo_inurba_marseille","lat":43.265,"lon":5.39547,"is_reserved":false,"is_disabled":false,"rental_uris":{"android":"levelo://app?vid=92bffe6b-57e8-4ca9-9db6-e41c1f081741","ios":"levelo://app?vid=92bffe6b-57e8-4ca9-9db6-e41c1f081741"},"vehicle_type_id":"4","last_reported":1768220839,"current_range_meters":4400,"station_id":"ce4bhi12rcd13ifvqfq0","pricing_plan_id":"cebpf4jnsgd1na2vs0mg"},{"bike_id":"c01406f0-b302-481b-9f2c-b7acf333823d","system_id":"levelo_inurba_marseille","lat":43.31872,"lon":5.37695,"is_reserved":false,"is_disabled":false,"rental_uris":{"android":"levelo://app?vid=c01406f0-b302-481b-9f2c-b7acf333823d","ios":"levelo://app?vid=c01406f0-b302-481b-9f2c-b7acf333823d"},"vehicle_type_id":"4","last_reported":1768220839,"current_range_meters":4400,"station_id":"","pricing_plan_id":"cebpf4jnsgd1na2vs0mg"},{"bike_id":"ded0789c-9bd3-47e8-8abf-c7d69a7df16f","system_id":"levelo_inurba_marseille","lat":43.2863,"lon":5.42626,"is_reserved":false,"is_disabled":false,"rental_uris":{"android":"levelo://app?vid=ded0789c-9bd3-47e8-8abf-c7d69a7df16f","ios":"levelo://app?vid=ded0789c-9bd3-47e8-8abf-c7d69a7df16f"},"vehicle_type_id":"4","last_reported":1768220839,"current_range_meters":4400,"station_id":"","pricing_plan_id":"cebpf4jnsgd1na2vs0mg"},{"bike_id":"0f1b4bc2-d4f3-4f90-8b5a-18b2fabb31b4","system_id":"levelo_inurba_marseille","lat":43.308012,"lon":5.381503,"is_reserved":false,"is_disabled":false,"rental_uris":{"android":"levelo://app?vid=0f1b4bc2-d4f3-4f90-8b5a-18b2fabb31b4","ios":"levelo://app?vid=0f1b4bc2-d4f3-4f90-8b5a-18b2fabb31b4"},"vehicle_type_id":"4","last_reported":1768220839,"current_range_meters":4400,"station_id":"ce4bgt12rcd13ifvqce0","pricing_plan_id":"cebpf4jnsgd1na2vs0mg"},{"bike_id":"e6a6594c-a0ce-4922-95a1-56d74358af72","system_id":"levelo_inurba_marseille","lat":43.24173,"lon":5.36409,"is_reserved":false,"is_disabled":false,"rental_uris":{"android":"levelo://app?vid=e6a6594c-a0ce-4922-95a1-56d74358af72","ios":"levelo://app?vid=e6a6594c-a0ce-4922-95a1-56d74358af72"},"vehicle_type_id":"4","last_reported":1768220839,"current_range_meters":4400,"station_id":"cpo36qri1sfpv3e86is0","pricing_plan_id":"cebpf4jnsgd1na2vs0mg"},{"bike_id":"4c61791c-b552-42dd-9ce2-ad4e6245334f","system_id":"levelo_inurba_marseille","lat":43.253304,"lon":5.42178,"is_reserved":false,"is_disabled":false,"rental_uris":{"android":"levelo://app?vid=4c61791c-b552-42dd-9ce2-ad4e6245334f","ios":"levelo://app?vid=4c61791c-b552-42dd-9ce2-ad4e6245334f"},"vehicle_type_id":"4","last_reported":1768220839,"current_range_meters":4400,"station_id":"st_d2m65c5bi1j21697t3ng","pricing_plan_id":"cebpf4jnsgd1na2vs0mg"},{"bike_id":"db765cb7-8257-48d6-a6ab-02802bfb834f","system_id":"levelo_inurba_marseille","lat":43.279659,"lon":5.387525,"is_reserved":false,"is_disabled":false,"rental_uris":{"android":"levelo://app?vid=db765cb7-8257-48d6-a6ab-02802bfb834f","ios":"levelo://app?vid=db765cb7-8257-48d6-a6ab-02802bfb834f"},"vehicle_type_id":"4","last_reported":1768220839,"current_range_meters":4400,"station_id":"ce4bhg12rcd13ifvqf80","pricing_plan_id":"cebpf4jnsgd1na2vs0mg"},{"bike_id":"0262c309-4322-4860-a208-9cacf0af77d8","system_id":"levelo_inurba_marseille","lat":43.3137,"lon":5.38491,"is_reserved":false,"is_disabled":false,"rental_uris":{"android":"levelo://app?vid=0262c309-4322-4860-a208-9cacf0af77d8","ios":"levelo://app?vid=0262c309-4322-4860-a208-9cacf0af77d8"},"vehicle_type_id":"4","last_reported":1768220839,"current_range_meters":4800,"station_id":"ce4bgt92rcd13ifvqcf0","pricing_plan_id":"cebpf4jnsgd1na2vs0mg"},{"bike_id":"6e4406df-26f3-483e-89c3-ed651b16d6c6","system_id":"levelo_inurba_marseille","lat":43.278009,"lon":5.407595,"is_reserved":false,"is_disabled":false,"rental_uris":{"android":"levelo://app?vid=6e4406df-26f3-483e-89c3-ed651b16d6c6","ios":"levelo://app?vid=6e4406df-26f3-483e-89c3-ed651b16d6c6"},"vehicle_type_id":"4","last_reported":1768220839,"current_range_meters":4800,"station_id":"ce4bhnh2rcd13ifvqgtg","pricing_plan_id":"cebpf4jnsgd1na2vs0mg"},{"bike_id":"86fdc8ff-4558-43bb-a40f-91dc5d0be03e","system_id":"levelo_inurba_marseille","lat":43.243967,"lon":5.370698,"is_reserved":false,"is_disabled":false,"rental_uris":{"android":"levelo://app?vid=86fdc8ff-4558-43bb-a40f-91dc5d0be03e","ios":"levelo://app?vid=86fdc8ff-4558-43bb-a40f-91dc5d0be03e"},"vehicle_type_id":"4","last_reported":1768220839,"current_range_meters":4800,"station_id":"ce4bhhh2rcd13ifvqfk0","pricing_plan_id":"cebpf4jnsgd1na2vs0mg"},{"bike_id":"a8ee9cd6-5175-4933-b47d-c6cf7d162dc3","system_id":"levelo_inurba_marseille","lat":43.30598,"lon":5.37143,"is_reserved":false,"is_disabled":false,"rental_uris":{"android":"levelo://app?vid=a8ee9cd6-5175-4933-b47d-c6cf7d162dc3","ios":"levelo://app?vid=a8ee9cd6-5175-4933-b47d-c6cf7d162dc3"},"vehicle_type_id":"4","last_reported":1768220839,"current_range_meters":4800,"station_id":"","pricing_plan_id":"cebpf4jnsgd1na2vs0mg"},{"bike_id":"c5c7f261-6be6-4fab-af22-568271cb6689","system_id":"levelo_inurba_marseille","lat":43.309457,"lon":5.390223,"is_reserved":false,"is_disabled":false,"rental_uris":{"android":"levelo://app?vid=c5c7f261-6be6-4fab-af22-568271cb6689","ios":"levelo://app?vid=c5c7f261-6be6-4fab-af22-568271cb6689"},"vehicle_type_id":"4","last_reported":1768220839,"current_range_meters":4800,"station_id":"ce4bgup2rcd13ifvqco0","pricing_plan_id":"cebpf4jnsgd1na2vs0mg"},{"bike_id":"6fe58c9f-12a4-4691-833d-8f7ab25c526b","system_id":"levelo_inurba_marseille","lat":43.225339,"lon":5.348392,"is_reserved":false,"is_disabled":false,"rental_uris":{"android":"levelo://app?vid=6fe58c9f-12a4-4691-833d-8f7ab25c526b","ios":"levelo://app?vid=6fe58c9f-12a4-4691-833d-8f7ab25c526b"},"vehicle_type_id":"4","last_reported":1768220839,"current_range_meters":4800,"station_id":"","pricing_plan_id":"cebpf4jnsgd1na2vs0mg"},{"bike_id":"f9cbcfef-b153-45a4-9d63-ec60489449c0","system_id":"levelo_inurba_marseille","lat":43.22929,"lon":5.3537,"is_reserved":false,"is_disabled":false,"rental_uris":{"android":"levelo://app?vid=f9cbcfef-b153-45a4-9d63-ec60489449c0","ios":"levelo://app?vid=f9cbcfef-b153-45a4-9d63-ec60489449c0"},"vehicle_type_id":"4","last_reported":1768220839,"current_range_meters":4800,"station_id":"cpo3532slgdg3j2ikp40","pricing_plan_id":"cebpf4jnsgd1na2vs0mg"},{"bike_id":"1bac45a7-311b-4c06-a5c8-d31f028394bd","system_id":"levelo_inurba_marseille","lat":43.32552,"lon":5.40667,"is_reserved":false,"is_disabled":false,"rental_uris":{"android":"levelo://app?vid=1bac45a7-311b-4c06-a5c8-d31f028394bd","ios":"levelo://app?vid=1bac45a7-311b-4c06-a5c8-d31f028394bd"},"vehicle_type_id":"4","last_reported":1768220839,"current_range_meters":4800,"station_id":"","pricing_plan_id":"cebpf4jnsgd1na2vs0mg"},{"bike_id":"0ab3ea62-d770-44e4-9bb0-2e1626ae17a5","system_id":"levelo_inurba_marseille","lat":43.26071,"lon":5.39395,"is_reserved":false,"is_disabled":false,"rental_uris":{"android":"levelo://app?vid=0ab3ea62-d770-44e4-9bb0-2e1626ae17a5","ios":"levelo://app?vid=0ab3ea62-d770-44e4-9bb0-2e1626ae17a5"},"vehicle_type_id":"4","last_reported":1768220839,"current_range_meters":4800,"station_id":"ce4bhh92rcd13ifvqfj0","pricing_plan_id":"cebpf4jnsgd1na2vs0mg"},{"bike_id":"7880a39b-d3c6-4cfe-a267-a3687cffae59","system_id":"levelo_inurba_marseille","lat":43.24165,"lon":5.3638,"is_reserved":false,"is_disabled":false,"rental_uris":{"android":"levelo://app?vid=7880a39b-d3c6-4cfe-a267-a3687cffae59","ios":"levelo://app?vid=7880a39b-d3c6-4cfe-a267-a3687cffae59"},"vehicle_type_id":"4","last_reported":1768220839,"current_range_meters":5600,"station_id":"cpo36qri1sfpv3e86is0","pricing_plan_id":"cebpf4jnsgd1na2vs0mg"},{"bike_id":"ddea23c1-809f-4fd9-a44e-db75c4d83817","system_id":"levelo_inurba_marseille","lat":43.25305,"lon":5.4218,"is_reserved":false,"is_disabled":false,"rental_uris":{"android":"levelo://app?vid=ddea23c1-809f-4fd9-a44e-db75c4d83817","ios":"levelo://app?vid=ddea23c1-809f-4fd9-a44e-db75c4d83817"},"vehicle_type_id":"4","last_reported":1768220839,"current_range_meters":5600,"station_id":"st_d2m65c5bi1j21697t3ng","pricing_plan_id":"cebpf4jnsgd1na2vs0mg"},{"bike_id":"3bfeb899-0948-4fbf-b260-f016e0fb3ff3","system_id":"levelo_inurba_marseille","lat":43.29182,"lon":5.35802,"is_reserved":false,"is_disabled":false,"rental_uris":{"android":"levelo://app?vid=3bfeb899-0948-4fbf-b260-f016e0fb3ff3","ios":"levelo://app?vid=3bfeb899-0948-4fbf-b260-f016e0fb3ff3"},"vehicle_type_id":"4","last_reported":1768220839,"current_range_meters":5600,"station_id":"ce4bhb12rcd13ifvqel0","pricing_plan_id":"cebpf4jnsgd1na2vs0mg"},{"bike_id":"00d9f4c7-0603-4336-a794-12f84330cf32","system_id":"levelo_inurba_marseille","lat":43.32325,"lon":5.3705,"is_reserved":false,"is_disabled":false,"rental_uris":{"android":"levelo://app?vid=00d9f4c7-0603-4336-a794-12f84330cf32","ios":"levelo://app?vid=00d9f4c7-0603-4336-a794-12f84330cf32"},"vehicle_type_id":"4","last_reported":1768220839,"current_range_meters":5600,"station_id":"","pricing_plan_id":"cebpf4jnsgd1na2vs0mg"},{"bike_id":"a41874bc-f800-4b85-a299-319d69ce81ac","system_id":"levelo_inurba_marseille","lat":43.28481,"lon":5.38216,"is_reserved":false,"is_disabled":false,"rental_uris":{"android":"levelo://app?vid=a41874bc-f800-4b85-a299-319d69ce81ac","ios":"levelo://app?vid=a41874bc-f800-4b85-a299-319d69ce81ac"},"vehicle_type_id":"4","last_reported":1768220839,"current_range_meters":5600,"station_id":"","pricing_plan_id":"cebpf4jnsgd1na2vs0mg"},{"bike_id":"e79c7862-9fe1-46c3-9ca7-3e9fe89c13c1","system_id":"levelo_inurba_marseille","lat":43.25937,"lon":5.40911,"is_reserved":false,"is_disabled":false,"rental_uris":{"android":"levelo://app?vid=e79c7862-9fe1-46c3-9ca7-3e9fe89c13c1","ios":"levelo://app?vid=e79c7862-9fe1-46c3-9ca7-3e9fe89c13c1"},"vehicle_type_id":"4","last_reported":1768220839,"current_range_meters":5600,"station_id":"ce4bhm92rcd13ifvqglg","pricing_plan_id":"cebpf4jnsgd1na2vs0mg"},{"bike_id":"a8af2bc0-5857-4556-ad79-aa550dbde1f6","system_id":"levelo_inurba_marseille","lat":43.3134,"lon":5.36718,"is_reserved":false,"is_disabled":false,"rental_uris":{"android":"levelo://app?vid=a8af2bc0-5857-4556-ad79-aa550dbde1f6","ios":"levelo://app?vid=a8af2bc0-5857-4556-ad79-aa550dbde1f6"},"vehicle_type_id":"4","last_reported":1768220839,"current_range_meters":5600,"station_id":"ce4bgr92rcd13ifvqc6g","pricing_plan_id":"cebpf4jnsgd1na2vs0mg"},{"bike_id":"dd82badb-0340-46c2-988c-cc136ba24f6b","system_id":"levelo_inurba_marseille","lat":43.2979,"lon":5.38088,"is_reserved":false,"is_disabled":false,"rental_uris":{"android":"levelo://app?vid=dd82badb-0340-46c2-988c-cc136ba24f6b","ios":"levelo://app?vid=dd82badb-0340-46c2-988c-cc136ba24f6b"},"vehicle_type_id":"4","last_reported":1768220839,"current_range_meters":5600,"station_id":"ce4bgip2rcd13ifvqbb0","pricing_plan_id":"cebpf4jnsgd1na2vs0mg"},{"bike_id":"8f12e3a2-66b7-4ee3-86b6-4717efd08b68","system_id":"levelo_inurba_marseille","lat":43.27621,"lon":5.3611,"is_reserved":false,"is_disabled":false,"rental_uris":{"android":"levelo://app?vid=8f12e3a2-66b7-4ee3-86b6-4717efd08b68","ios":"levelo://app?vid=8f12e3a2-66b7-4ee3-86b6-4717efd08b68"},"vehicle_type_id":"4","last_reported":1768220839,"current_range_meters":5600,"station_id":"ce4bgj92rcd13ifvqbe0","pricing_plan_id":"cebpf4jnsgd1na2vs0mg"},{"bike_id":"25de325b-6279-471c-a08c-51e5c3372a91","system_id":"levelo_inurba_marseille","lat":43.28933,"lon":5.36637,"is_reserved":false,"is_disabled":false,"rental_uris":{"android":"levelo://app?vid=25de325b-6279-471c-a08c-51e5c3372a91","ios":"levelo://app?vid=25de325b-6279-471c-a08c-51e5c3372a91"},"vehicle_type_id":"4","last_reported":1768220839,"current_range_meters":5600,"station_id":"ce4bhap2rcd13ifvqek0","pricing_plan_id":"cebpf4jnsgd1na2vs0mg"},{"bike_id":"8f2d856f-c280-46c3-a933-99b8f46ce073","system_id":"levelo_inurba_marseille","lat":43.24079,"lon":5.37763,"is_reserved":false,"is_disabled":false,"rental_uris":{"android":"levelo://app?vid=8f2d856f-c280-46c3-a933-99b8f46ce073","ios":"levelo://app?vid=8f2d856f-c280-46c3-a933-99b8f46ce073"},"vehicle_type_id":"4","last_reported":1768220839,"current_range_meters":5600,"station_id":"ce4bhnp2rcd13ifvqgvg","pricing_plan_id":"cebpf4jnsgd1na2vs0mg"},{"bike_id":"1f205bc5-4a3e-4d82-a39c-37a793cbccbb","system_id":"levelo_inurba_marseille","lat":43.22933,"lon":5.35372,"is_reserved":false,"is_disabled":false,"rental_uris":{"android":"levelo://app?vid=1f205bc5-4a3e-4d82-a39c-37a793cbccbb","ios":"levelo://app?vid=1f205bc5-4a3e-4d82-a39c-37a793cbccbb"},"vehicle_type_id":"4","last_reported":1768220839,"current_range_meters":5600,"station_id":"cpo3532slgdg3j2ikp40","pricing_plan_id":"cebpf4jnsgd1na2vs0mg"},{"bike_id":"64abf877-4f8b-4a9c-bbc2-70d851787ca6","system_id":"levelo_inurba_marseille","lat":43.284729,"lon":5.484097,"is_reserved":false,"is_disabled":false,"rental_uris":{"android":"levelo://app?vid=64abf877-4f8b-4a9c-bbc2-70d851787ca6","ios":"levelo://app?vid=64abf877-4f8b-4a9c-bbc2-70d851787ca6"},"vehicle_type_id":"4","last_reported":1768220839,"current_range_meters":5600,"station_id":"","pricing_plan_id":"cebpf4jnsgd1na2vs0mg"},{"bike_id":"43f42260-220f-4af5-8e5e-4939c850d0b8","system_id":"levelo_inurba_marseille","lat":43.332765,"lon":5.412226,"is_reserved":false,"is_disabled":false,"rental_uris":{"android":"levelo://app?vid=43f42260-220f-4af5-8e5e-4939c850d0b8","ios":"levelo://app?vid=43f42260-220f-4af5-8e5e-4939c850d0b8"},"vehicle_type_id":"4","last_reported":1768220839,"current_range_meters":5600,"station_id":"","pricing_plan_id":"cebpf4jnsgd1na2vs0mg"},{"bike_id":"344b2517-af75-453a-9558-e63fa3203b49","system_id":"levelo_inurba_marseille","lat":43.2957,"lon":5.37505,"is_reserved":false,"is_disabled":false,"rental_uris":{"android":"levelo://app?vid=344b2517-af75-453a-9558-e63fa3203b49","ios":"levelo://app?vid=344b2517-af75-453a-9558-e63fa3203b49"},"vehicle_type_id":"4","last_reported":1768220839,"current_range_meters":6000,"station_id":"ce4bgh92rcd13ifvqb50","pricing_plan_id":"cebpf4jnsgd1na2vs0mg"},{"bike_id":"57504a4a-9ebf-489f-8b84-6b50e4f58a55","system_id":"levelo_inurba_marseille","lat":43.25575,"lon":5.38238,"is_reserved":false,"is_disabled":false,"rental_uris":{"android":"levelo://app?vid=57504a4a-9ebf-489f-8b84-6b50e4f58a55","ios":"levelo://app?vid=57504a4a-9ebf-489f-8b84-6b50e4f58a55"},"vehicle_type_id":"4","last_reported":1768220839,"current_range_meters":6000,"station_id":"ce4bhih2rcd13ifvqfs0","pricing_plan_id":"cebpf4jnsgd1na2vs0mg"},{"bike_id":"7cd2eb0f-c0de-4e2a-ab18-f7ce2558da4f","system_id":"levelo_inurba_marseille","lat":43.30367,"lon":5.37326,"is_reserved":false,"is_disabled":false,"rental_uris":{"android":"levelo://app?vid=7cd2eb0f-c0de-4e2a-ab18-f7ce2558da4f","ios":"levelo://app?vid=7cd2eb0f-c0de-4e2a-ab18-f7ce2558da4f"},"vehicle_type_id":"4","last_reported":1768220839,"current_range_meters":6000,"station_id":"","pricing_plan_id":"cebpf4jnsgd1na2vs0mg"},{"bike_id":"abd336f0-72b8-48ec-aebc-52f3fafa5084","system_id":"levelo_inurba_marseille","lat":43.23192,"lon":5.39992,"is_reserved":false,"is_disabled":false,"rental_uris":{"android":"levelo://app?vid=abd336f0-72b8-48ec-aebc-52f3fafa5084","ios":"levelo://app?vid=abd336f0-72b8-48ec-aebc-52f3fafa5084"},"vehicle_type_id":"4","last_reported":1768220839,"current_range_meters":6000,"station_id":"ce4bhn12rcd13ifvqgqg","pricing_plan_id":"cebpf4jnsgd1na2vs0mg"},{"bike_id":"ebc1fe3c-d8d2-4416-a03a-6751b6b9a856","system_id":"levelo_inurba_marseille","lat":43.28852,"lon":5.39322,"is_reserved":false,"is_disabled":true,"rental_uris":{"android":"levelo://app?vid=ebc1fe3c-d8d2-4416-a03a-6751b6b9a856","ios":"levelo://app?vid=ebc1fe3c-d8d2-4416-a03a-6751b6b9a856"},"vehicle_type_id":"4","last_reported":1768220839,"current_range_meters":6000,"station_id":"ce4bh2p2rcd13ifvqdi0","pricing_plan_id":"cebpf4jnsgd1na2vs0mg"},{"bike_id":"4e955f28-92b4-451c-a0d5-91b2f367aa7b","system_id":"levelo_inurba_marseille","lat":43.31724,"lon":5.37753,"is_reserved":false,"is_disabled":false,"rental_uris":{"android":"levelo://app?vid=4e955f28-92b4-451c-a0d5-91b2f367aa7b","ios":"levelo://app?vid=4e955f28-92b4-451c-a0d5-91b2f367aa7b"},"vehicle_type_id":"4","last_reported":1768220839,"current_range_meters":6000,"station_id":"ce4bgth2rcd13ifvqch0","pricing_plan_id":"cebpf4jnsgd1na2vs0mg"},{"bike_id":"3b894d59-ac9c-482e-a1a1-1a18a7bfeb4a","system_id":"levelo_inurba_marseille","lat":43.27375,"lon":5.36262,"is_reserved":false,"is_disabled":false,"rental_uris":{"android":"levelo://app?vid=3b894d59-ac9c-482e-a1a1-1a18a7bfeb4a","ios":"levelo://app?vid=3b894d59-ac9c-482e-a1a1-1a18a7bfeb4a"},"vehicle_type_id":"4","last_reported":1768220839,"current_range_meters":6000,"station_id":"ce4bhbh2rcd13ifvqeo0","pricing_plan_id":"cebpf4jnsgd1na2vs0mg"},{"bike_id":"52f3a5e6-8ff9-495f-8f72-2bc9ba40bf5e","system_id":"levelo_inurba_marseille","lat":43.2407,"lon":5.37765,"is_reserved":false,"is_disabled":false,"rental_uris":{"android":"levelo://app?vid=52f3a5e6-8ff9-495f-8f72-2bc9ba40bf5e","ios":"levelo://app?vid=52f3a5e6-8ff9-495f-8f72-2bc9ba40bf5e"},"vehicle_type_id":"4","last_reported":1768220839,"current_range_meters":6000,"station_id":"ce4bhnp2rcd13ifvqgvg","pricing_plan_id":"cebpf4jnsgd1na2vs0mg"},{"bike_id":"990570a4-8f6c-4dbc-86d6-2e768ee01557","system_id":"levelo_inurba_marseille","lat":43.29574,"lon":5.37508,"is_reserved":false,"is_disabled":true,"rental_uris":{"android":"levelo://app?vid=990570a4-8f6c-4dbc-86d6-2e768ee01557","ios":"levelo://app?vid=990570a4-8f6c-4dbc-86d6-2e768ee01557"},"vehicle_type_id":"4","last_reported":1768220839,"current_range_meters":6000,"station_id":"ce4bgh92rcd13ifvqb50","pricing_plan_id":"cebpf4jnsgd1na2vs0mg"},{"bike_id":"35aa2476-20d3-4639-83d2-bd6fb406ebc7","system_id":"levelo_inurba_marseille","lat":43.27488,"lon":5.42469,"is_reserved":false,"is_disabled":false,"rental_uris":{"android":"levelo://app?vid=35aa2476-20d3-4639-83d2-bd6fb406ebc7","ios":"levelo://app?vid=35aa2476-20d3-4639-83d2-bd6fb406ebc7"},"vehicle_type_id":"4","last_reported":1768220839,"current_range_meters":6000,"station_id":"ce4bhn92rcd13ifvqgrg","pricing_plan_id":"cebpf4jnsgd1na2vs0mg"},{"bike_id":"81252b01-7171-4dce-b5eb-147b8dd83975","system_id":"levelo_inurba_marseille","lat":43.23784,"lon":5.36639,"is_reserved":false,"is_disabled":false,"rental_uris":{"android":"levelo://app?vid=81252b01-7171-4dce-b5eb-147b8dd83975","ios":"levelo://app?vid=81252b01-7171-4dce-b5eb-147b8dd83975"},"vehicle_type_id":"4","last_reported":1768220839,"current_range_meters":6000,"station_id":"st_d3nk18o9ro0c73en2l3g","pricing_plan_id":"cebpf4jnsgd1na2vs0mg"},{"bike_id":"0bca6eba-1299-4afb-ac37-73c0c09d85e9","system_id":"levelo_inurba_marseille","lat":43.22555,"lon":5.41648,"is_reserved":false,"is_disabled":false,"rental_uris":{"android":"levelo://app?vid=0bca6eba-1299-4afb-ac37-73c0c09d85e9","ios":"levelo://app?vid=0bca6eba-1299-4afb-ac37-73c0c09d85e9"},"vehicle_type_id":"4","last_reported":1768220839,"current_range_meters":6000,"station_id":"st_d2o4gvlbi1j2169b742g","pricing_plan_id":"cebpf4jnsgd1na2vs0mg"},{"bike_id":"01e1cb3d-ae6b-458f-a3b0-303d5e74d84c","system_id":"levelo_inurba_marseille","lat":43.24998,"lon":5.38934,"is_reserved":false,"is_disabled":false,"rental_uris":{"android":"levelo://app?vid=01e1cb3d-ae6b-458f-a3b0-303d5e74d84c","ios":"levelo://app?vid=01e1cb3d-ae6b-458f-a3b0-303d5e74d84c"},"vehicle_type_id":"4","last_reported":1768220839,"current_range_meters":6000,"station_id":"ce4bhgp2rcd13ifvqfd0","pricing_plan_id":"cebpf4jnsgd1na2vs0mg"},{"bike_id":"b598a09a-2229-423e-9cac-8909eaba35e0","system_id":"levelo_inurba_marseille","lat":43.27908,"lon":5.39587,"is_reserved":false,"is_disabled":false,"rental_uris":{"android":"levelo://app?vid=b598a09a-2229-423e-9cac-8909eaba35e0","ios":"levelo://app?vid=b598a09a-2229-423e-9cac-8909eaba35e0"},"vehicle_type_id":"4","last_reported":1768220839,"current_range_meters":6000,"station_id":"ce4bhf92rcd13ifvqf40","pricing_plan_id":"cebpf4jnsgd1na2vs0mg"},{"bike_id":"49bb0250-b829-4d46-be2f-69f67bb3703d","system_id":"levelo_inurba_marseille","lat":43.24662,"lon":5.38172,"is_reserved":false,"is_disabled":false,"rental_uris":{"android":"levelo://app?vid=49bb0250-b829-4d46-be2f-69f67bb3703d","ios":"levelo://app?vid=49bb0250-b829-4d46-be2f-69f67bb3703d"},"vehicle_type_id":"4","last_reported":1768220839,"current_range_meters":6000,"station_id":"ce4bhih2rcd13ifvqfr0","pricing_plan_id":"cebpf4jnsgd1na2vs0mg"},{"bike_id":"539189ae-8f80-40cd-b04a-96f32054a91b","system_id":"levelo_inurba_marseille","lat":43.22935,"lon":5.35378,"is_reserved":false,"is_disabled":false,"rental_uris":{"android":"levelo://app?vid=539189ae-8f80-40cd-b04a-96f32054a91b","ios":"levelo://app?vid=539189ae-8f80-40cd-b04a-96f32054a91b"},"vehicle_type_id":"4","last_reported":1768220839,"current_range_meters":6000,"station_id":"cpo3532slgdg3j2ikp40","pricing_plan_id":"cebpf4jnsgd1na2vs0mg"},{"bike_id":"47d908b0-60af-4246-a241-03e77797bd8b","system_id":"levelo_inurba_marseille","lat":43.26698,"lon":5.38252,"is_reserved":false,"is_disabled":false,"rental_uris":{"android":"levelo://app?vid=47d908b0-60af-4246-a241-03e77797bd8b","ios":"levelo://app?vid=47d908b0-60af-4246-a241-03e77797bd8b"},"vehicle_type_id":"4","last_reported":1768220839,"current_range_meters":6000,"station_id":"ce4bhg92rcd13ifvqf90","pricing_plan_id":"cebpf4jnsgd1na2vs0mg"},{"bike_id":"98e7f826-d316-49e4-9922-294b0fc27cc4","system_id":"levelo_inurba_marseille","lat":43.290333,"lon":5.399719,"is_reserved":false,"is_disabled":false,"rental_uris":{"android":"levelo://app?vid=98e7f826-d316-49e4-9922-294b0fc27cc4","ios":"levelo://app?vid=98e7f826-d316-49e4-9922-294b0fc27cc4"},"vehicle_type_id":"4","last_reported":1768220839,"current_range_meters":6000,"station_id":"ce4bh392rcd13ifvqdm0","pricing_plan_id":"cebpf4jnsgd1na2vs0mg"},{"bike_id":"96c76d1b-f1c8-4739-895d-9edb5c2f3f2e","system_id":"levelo_inurba_marseille","lat":43.231525,"lon":5.437228,"is_reserved":false,"is_disabled":false,"rental_uris":{"android":"levelo://app?vid=96c76d1b-f1c8-4739-895d-9edb5c2f3f2e","ios":"levelo://app?vid=96c76d1b-f1c8-4739-895d-9edb5c2f3f2e"},"vehicle_type_id":"4","last_reported":1768220839,"current_range_meters":6000,"station_id":"ce4bhmp2rcd13ifvqgog","pricing_plan_id":"cebpf4jnsgd1na2vs0mg"},{"bike_id":"40a14c63-37bc-4ff8-a9c1-824f19b3d5ab","system_id":"levelo_inurba_marseille","lat":43.287231,"lon":5.379396,"is_reserved":false,"is_disabled":false,"rental_uris":{"android":"levelo://app?vid=40a14c63-37bc-4ff8-a9c1-824f19b3d5ab","ios":"levelo://app?vid=40a14c63-37bc-4ff8-a9c1-824f19b3d5ab"},"vehicle_type_id":"4","last_reported":1768220839,"current_range_meters":6000,"station_id":"ce4bh9p2rcd13ifvqec0","pricing_plan_id":"cebpf4jnsgd1na2vs0mg"},{"bike_id":"a5e7a8c7-990f-4805-83c9-aa3dcc9287c4","system_id":"levelo_inurba_marseille","lat":43.2256,"lon":5.41628,"is_reserved":false,"is_disabled":false,"rental_uris":{"android":"levelo://app?vid=a5e7a8c7-990f-4805-83c9-aa3dcc9287c4","ios":"levelo://app?vid=a5e7a8c7-990f-4805-83c9-aa3dcc9287c4"},"vehicle_type_id":"4","last_reported":1768220839,"current_range_meters":6000,"station_id":"st_d2o4gvlbi1j2169b742g","pricing_plan_id":"cebpf4jnsgd1na2vs0mg"},{"bike_id":"5a8fd8fd-40ac-4e7b-bed0-47ac32dd9b44","system_id":"levelo_inurba_marseille","lat":43.33768,"lon":5.37437,"is_reserved":false,"is_disabled":false,"rental_uris":{"android":"levelo://app?vid=5a8fd8fd-40ac-4e7b-bed0-47ac32dd9b44","ios":"levelo://app?vid=5a8fd8fd-40ac-4e7b-bed0-47ac32dd9b44"},"vehicle_type_id":"4","last_reported":1768220839,"current_range_meters":6400,"station_id":"","pricing_plan_id":"cebpf4jnsgd1na2vs0mg"},{"bike_id":"377f8bdc-87d8-4703-8854-38fdd0d9e304","system_id":"levelo_inurba_marseille","lat":43.30733,"lon":5.42433,"is_reserved":false,"is_disabled":false,"rental_uris":{"android":"levelo://app?vid=377f8bdc-87d8-4703-8854-38fdd0d9e304","ios":"levelo://app?vid=377f8bdc-87d8-4703-8854-38fdd0d9e304"},"vehicle_type_id":"4","last_reported":1768220839,"current_range_meters":6400,"station_id":"st_cvj6ca6bvosntc0bfgr0","pricing_plan_id":"cebpf4jnsgd1na2vs0mg"},{"bike_id":"23d32e9e-0234-4760-9b7c-ce798b878635","system_id":"levelo_inurba_marseille","lat":43.30182,"lon":5.38079,"is_reserved":false,"is_disabled":false,"rental_uris":{"android":"levelo://app?vid=23d32e9e-0234-4760-9b7c-ce798b878635","ios":"levelo://app?vid=23d32e9e-0234-4760-9b7c-ce798b878635"},"vehicle_type_id":"4","last_reported":1768220839,"current_range_meters":6400,"station_id":"ce4bgjp2rcd13ifvqbh0","pricing_plan_id":"cebpf4jnsgd1na2vs0mg"},{"bike_id":"3669d3e7-201a-45c1-89f6-34f6f0f8cefe","system_id":"levelo_inurba_marseille","lat":43.29042,"lon":5.39968,"is_reserved":false,"is_disabled":false,"rental_uris":{"android":"levelo://app?vid=3669d3e7-201a-45c1-89f6-34f6f0f8cefe","ios":"levelo://app?vid=3669d3e7-201a-45c1-89f6-34f6f0f8cefe"},"vehicle_type_id":"4","last_reported":1768220839,"current_range_meters":6400,"station_id":"ce4bh392rcd13ifvqdm0","pricing_plan_id":"cebpf4jnsgd1na2vs0mg"},{"bike_id":"75210b84-5483-4ee5-a7b1-49fe80173357","system_id":"levelo_inurba_marseille","lat":43.29555,"lon":5.37549,"is_reserved":false,"is_disabled":false,"rental_uris":{"android":"levelo://app?vid=75210b84-5483-4ee5-a7b1-49fe80173357","ios":"levelo://app?vid=75210b84-5483-4ee5-a7b1-49fe80173357"},"vehicle_type_id":"4","last_reported":1768220839,"current_range_meters":6400,"station_id":"ce4bgh92rcd13ifvqb50","pricing_plan_id":"cebpf4jnsgd1na2vs0mg"},{"bike_id":"6f550905-139d-4b8b-870d-4bbe29f9581e","system_id":"levelo_inurba_marseille","lat":43.303174,"lon":5.404425,"is_reserved":false,"is_disabled":false,"rental_uris":{"android":"levelo://app?vid=6f550905-139d-4b8b-870d-4bbe29f9581e","ios":"levelo://app?vid=6f550905-139d-4b8b-870d-4bbe29f9581e"},"vehicle_type_id":"4","last_reported":1768220839,"current_range_meters":6400,"station_id":"ce4bh012rcd13ifvqd10","pricing_plan_id":"cebpf4jnsgd1na2vs0mg"},{"bike_id":"781a299f-b672-4a4f-9914-f7d48ca09f1e","system_id":"levelo_inurba_marseille","lat":43.28528,"lon":5.42995,"is_reserved":false,"is_disabled":false,"rental_uris":{"android":"levelo://app?vid=781a299f-b672-4a4f-9914-f7d48ca09f1e","ios":"levelo://app?vid=781a299f-b672-4a4f-9914-f7d48ca09f1e"},"vehicle_type_id":"4","last_reported":1768220839,"current_range_meters":6400,"station_id":"","pricing_plan_id":"cebpf4jnsgd1na2vs0mg"},{"bike_id":"6e20a6ec-9be3-46ff-9a26-04c10f0e163d","system_id":"levelo_inurba_marseille","lat":43.28011,"lon":5.40908,"is_reserved":false,"is_disabled":false,"rental_uris":{"android":"levelo://app?vid=6e20a6ec-9be3-46ff-9a26-04c10f0e163d","ios":"levelo://app?vid=6e20a6ec-9be3-46ff-9a26-04c10f0e163d"},"vehicle_type_id":"4","last_reported":1768220839,"current_range_meters":6400,"station_id":"","pricing_plan_id":"cebpf4jnsgd1na2vs0mg"},{"bike_id":"962df299-06ff-4de6-b6e9-a48df32d1566","system_id":"levelo_inurba_marseille","lat":43.29191,"lon":5.39343,"is_reserved":false,"is_disabled":false,"rental_uris":{"android":"levelo://app?vid=962df299-06ff-4de6-b6e9-a48df32d1566","ios":"levelo://app?vid=962df299-06ff-4de6-b6e9-a48df32d1566"},"vehicle_type_id":"4","last_reported":1768220839,"current_range_meters":6400,"station_id":"ce4bh192rcd13ifvqdd0","pricing_plan_id":"cebpf4jnsgd1na2vs0mg"},{"bike_id":"882dd7ba-0ae9-4eea-a23c-b379119bd885","system_id":"levelo_inurba_marseille","lat":43.30014,"lon":5.37637,"is_reserved":false,"is_disabled":false,"rental_uris":{"android":"levelo://app?vid=882dd7ba-0ae9-4eea-a23c-b379119bd885","ios":"levelo://app?vid=882dd7ba-0ae9-4eea-a23c-b379119bd885"},"vehicle_type_id":"4","last_reported":1768220839,"current_range_meters":6400,"station_id":"","pricing_plan_id":"cebpf4jnsgd1na2vs0mg"},{"bike_id":"0c775061-5d19-4e95-982f-82821a94d84f","system_id":"levelo_inurba_marseille","lat":43.29929,"lon":5.37491,"is_reserved":false,"is_disabled":false,"rental_uris":{"android":"levelo://app?vid=0c775061-5d19-4e95-982f-82821a94d84f","ios":"levelo://app?vid=0c775061-5d19-4e95-982f-82821a94d84f"},"vehicle_type_id":"4","last_reported":1768220839,"current_range_meters":6400,"station_id":"ce4bgjh2rcd13ifvqbg0","pricing_plan_id":"cebpf4jnsgd1na2vs0mg"},{"bike_id":"9231e244-bb23-4d08-b86e-d3bec87ef44a","system_id":"levelo_inurba_marseille","lat":43.2861,"lon":5.35101,"is_reserved":false,"is_disabled":false,"rental_uris":{"android":"levelo://app?vid=9231e244-bb23-4d08-b86e-d3bec87ef44a","ios":"levelo://app?vid=9231e244-bb23-4d08-b86e-d3bec87ef44a"},"vehicle_type_id":"4","last_reported":1768220839,"current_range_meters":6400,"station_id":"ce4bhch2rcd13ifvqeug","pricing_plan_id":"cebpf4jnsgd1na2vs0mg"},{"bike_id":"d5c4ce22-f0ab-4b87-b677-f92d22e98e24","system_id":"levelo_inurba_marseille","lat":43.29029,"lon":5.35635,"is_reserved":false,"is_disabled":false,"rental_uris":{"android":"levelo://app?vid=d5c4ce22-f0ab-4b87-b677-f92d22e98e24","ios":"levelo://app?vid=d5c4ce22-f0ab-4b87-b677-f92d22e98e24"},"vehicle_type_id":"4","last_reported":1768220839,"current_range_meters":6400,"station_id":"ce4bhb92rcd13ifvqen0","pricing_plan_id":"cebpf4jnsgd1na2vs0mg"},{"bike_id":"cd958440-37ff-4feb-915e-44938e618dc0","system_id":"levelo_inurba_marseille","lat":43.3143,"lon":5.36886,"is_reserved":false,"is_disabled":false,"rental_uris":{"android":"levelo://app?vid=cd958440-37ff-4feb-915e-44938e618dc0","ios":"levelo://app?vid=cd958440-37ff-4feb-915e-44938e618dc0"},"vehicle_type_id":"4","last_reported":1768220839,"current_range_meters":6400,"station_id":"","pricing_plan_id":"cebpf4jnsgd1na2vs0mg"},{"bike_id":"1fe0ca8f-e2d6-4162-ab84-4a8751166906","system_id":"levelo_inurba_marseille","lat":43.2257,"lon":5.41623,"is_reserved":false,"is_disabled":false,"rental_uris":{"android":"levelo://app?vid=1fe0ca8f-e2d6-4162-ab84-4a8751166906","ios":"levelo://app?vid=1fe0ca8f-e2d6-4162-ab84-4a8751166906"},"vehicle_type_id":"4","last_reported":1768220839,"current_range_meters":6400,"station_id":"st_d2o4gvlbi1j2169b742g","pricing_plan_id":"cebpf4jnsgd1na2vs0mg"},{"bike_id":"2b67170a-8cc7-4347-8cbb-0ce1ee7ad759","system_id":"levelo_inurba_marseille","lat":43.29866,"lon":5.37686,"is_reserved":false,"is_disabled":false,"rental_uris":{"android":"levelo://app?vid=2b67170a-8cc7-4347-8cbb-0ce1ee7ad759","ios":"levelo://app?vid=2b67170a-8cc7-4347-8cbb-0ce1ee7ad759"},"vehicle_type_id":"4","last_reported":1768220839,"current_range_meters":6400,"station_id":"","pricing_plan_id":"cebpf4jnsgd1na2vs0mg"},{"bike_id":"b9ec9842-a32d-4209-b807-840ab3895464","system_id":"levelo_inurba_marseille","lat":43.29789,"lon":5.371076,"is_reserved":false,"is_disabled":false,"rental_uris":{"android":"levelo://app?vid=b9ec9842-a32d-4209-b807-840ab3895464","ios":"levelo://app?vid=b9ec9842-a32d-4209-b807-840ab3895464"},"vehicle_type_id":"4","last_reported":1768220839,"current_range_meters":6400,"station_id":"ce4bgop2rcd13ifvqc1g","pricing_plan_id":"cebpf4jnsgd1na2vs0mg"},{"bike_id":"d3b061ea-4a9c-4795-a465-bf6772714175","system_id":"levelo_inurba_marseille","lat":43.25341,"lon":5.42168,"is_reserved":false,"is_disabled":false,"rental_uris":{"android":"levelo://app?vid=d3b061ea-4a9c-4795-a465-bf6772714175","ios":"levelo://app?vid=d3b061ea-4a9c-4795-a465-bf6772714175"},"vehicle_type_id":"4","last_reported":1768220839,"current_range_meters":6400,"station_id":"st_d2m65c5bi1j21697t3ng","pricing_plan_id":"cebpf4jnsgd1na2vs0mg"},{"bike_id":"8f4c5aa9-3489-419b-bc65-be8369429a7d","system_id":"levelo_inurba_marseille","lat":43.262074,"lon":5.37927,"is_reserved":false,"is_disabled":true,"rental_uris":{"android":"levelo://app?vid=8f4c5aa9-3489-419b-bc65-be8369429a7d","ios":"levelo://app?vid=8f4c5aa9-3489-419b-bc65-be8369429a7d"},"vehicle_type_id":"4","last_reported":1768220839,"current_range_meters":6800,"station_id":"","pricing_plan_id":"cebpf4jnsgd1na2vs0mg"},{"bike_id":"0e03800e-b65d-47ab-abed-0119a66474ba","system_id":"levelo_inurba_marseille","lat":43.240667,"lon":5.377655,"is_reserved":false,"is_disabled":false,"rental_uris":{"android":"levelo://app?vid=0e03800e-b65d-47ab-abed-0119a66474ba","ios":"levelo://app?vid=0e03800e-b65d-47ab-abed-0119a66474ba"},"vehicle_type_id":"4","last_reported":1768220839,"current_range_meters":6800,"station_id":"ce4bhnp2rcd13ifvqgvg","pricing_plan_id":"cebpf4jnsgd1na2vs0mg"},{"bike_id":"70d27a35-4c80-44fa-95fa-1e2285e1b4f7","system_id":"levelo_inurba_marseille","lat":43.26225,"lon":5.37459,"is_reserved":false,"is_disabled":true,"rental_uris":{"android":"levelo://app?vid=70d27a35-4c80-44fa-95fa-1e2285e1b4f7","ios":"levelo://app?vid=70d27a35-4c80-44fa-95fa-1e2285e1b4f7"},"vehicle_type_id":"4","last_reported":1768220839,"current_range_meters":6800,"station_id":"ce4bhgp2rcd13ifvqfc0","pricing_plan_id":"cebpf4jnsgd1na2vs0mg"},{"bike_id":"d0f33b4a-24fd-4257-8d5c-fd10f6750fe8","system_id":"levelo_inurba_marseille","lat":43.25336,"lon":5.42172,"is_reserved":false,"is_disabled":false,"rental_uris":{"android":"levelo://app?vid=d0f33b4a-24fd-4257-8d5c-fd10f6750fe8","ios":"levelo://app?vid=d0f33b4a-24fd-4257-8d5c-fd10f6750fe8"},"vehicle_type_id":"4","last_reported":1768220839,"current_range_meters":6800,"station_id":"st_d2m65c5bi1j21697t3ng","pricing_plan_id":"cebpf4jnsgd1na2vs0mg"},{"bike_id":"64f2c2d6-c32a-42c8-9668-fcbadeeed537","system_id":"levelo_inurba_marseille","lat":43.23781,"lon":5.36631,"is_reserved":false,"is_disabled":false,"rental_uris":{"android":"levelo://app?vid=64f2c2d6-c32a-42c8-9668-fcbadeeed537","ios":"levelo://app?vid=64f2c2d6-c32a-42c8-9668-fcbadeeed537"},"vehicle_type_id":"4","last_reported":1768220839,"current_range_meters":6800,"station_id":"st_d3nk18o9ro0c73en2l3g","pricing_plan_id":"cebpf4jnsgd1na2vs0mg"},{"bike_id":"2c381f33-f50d-42f7-b9f2-2ecb363baad8","system_id":"levelo_inurba_marseille","lat":43.25959,"lon":5.40898,"is_reserved":false,"is_disabled":false,"rental_uris":{"android":"levelo://app?vid=2c381f33-f50d-42f7-b9f2-2ecb363baad8","ios":"levelo://app?vid=2c381f33-f50d-42f7-b9f2-2ecb363baad8"},"vehicle_type_id":"4","last_reported":1768220839,"current_range_meters":6800,"station_id":"ce4bhm92rcd13ifvqglg","pricing_plan_id":"cebpf4jnsgd1na2vs0mg"},{"bike_id":"26361a8d-ad24-4b4a-afce-741428ed5e6d","system_id":"levelo_inurba_marseille","lat":43.24073,"lon":5.37762,"is_reserved":false,"is_disabled":false,"rental_uris":{"android":"levelo://app?vid=26361a8d-ad24-4b4a-afce-741428ed5e6d","ios":"levelo://app?vid=26361a8d-ad24-4b4a-afce-741428ed5e6d"},"vehicle_type_id":"4","last_reported":1768220839,"current_range_meters":6800,"station_id":"ce4bhnp2rcd13ifvqgvg","pricing_plan_id":"cebpf4jnsgd1na2vs0mg"},{"bike_id":"9b068504-cee8-4c92-978c-5a1caf9751b6","system_id":"levelo_inurba_marseille","lat":43.27076,"lon":5.42277,"is_reserved":false,"is_disabled":false,"rental_uris":{"android":"levelo://app?vid=9b068504-cee8-4c92-978c-5a1caf9751b6","ios":"levelo://app?vid=9b068504-cee8-4c92-978c-5a1caf9751b6"},"vehicle_type_id":"4","last_reported":1768220839,"current_range_meters":6800,"station_id":"ce4bhk92rcd13ifvqgb0","pricing_plan_id":"cebpf4jnsgd1na2vs0mg"},{"bike_id":"c7e21aae-b51d-4a03-8692-0a56b38f185f","system_id":"levelo_inurba_marseille","lat":43.29136,"lon":5.37685,"is_reserved":false,"is_disabled":false,"rental_uris":{"android":"levelo://app?vid=c7e21aae-b51d-4a03-8692-0a56b38f185f","ios":"levelo://app?vid=c7e21aae-b51d-4a03-8692-0a56b38f185f"},"vehicle_type_id":"4","last_reported":1768220839,"current_range_meters":6800,"station_id":"","pricing_plan_id":"cebpf4jnsgd1na2vs0mg"},{"bike_id":"a7b334b3-33c8-4aba-ac31-00e03fb232ae","system_id":"levelo_inurba_marseille","lat":43.29566,"lon":5.39982,"is_reserved":false,"is_disabled":true,"rental_uris":{"android":"levelo://app?vid=a7b334b3-33c8-4aba-ac31-00e03fb232ae","ios":"levelo://app?vid=a7b334b3-33c8-4aba-ac31-00e03fb232ae"},"vehicle_type_id":"4","last_reported":1768220839,"current_range_meters":6800,"station_id":"ce4bh312rcd13ifvqdj0","pricing_plan_id":"cebpf4jnsgd1na2vs0mg"},{"bike_id":"f8142173-a7a8-4883-a708-73b2bfbb8f21","system_id":"levelo_inurba_marseille","lat":43.2618,"lon":5.37449,"is_reserved":false,"is_disabled":false,"rental_uris":{"android":"levelo://app?vid=f8142173-a7a8-4883-a708-73b2bfbb8f21","ios":"levelo://app?vid=f8142173-a7a8-4883-a708-73b2bfbb8f21"},"vehicle_type_id":"4","last_reported":1768220839,"current_range_meters":6800,"station_id":"ce4bhgp2rcd13ifvqfc0","pricing_plan_id":"cebpf4jnsgd1na2vs0mg"},{"bike_id":"6a7656be-940f-42be-91a8-c1dd31e8e876","system_id":"levelo_inurba_marseille","lat":43.22927,"lon":5.35375,"is_reserved":false,"is_disabled":false,"rental_uris":{"android":"levelo://app?vid=6a7656be-940f-42be-91a8-c1dd31e8e876","ios":"levelo://app?vid=6a7656be-940f-42be-91a8-c1dd31e8e876"},"vehicle_type_id":"4","last_reported":1768220839,"current_range_meters":6800,"station_id":"cpo3532slgdg3j2ikp40","pricing_plan_id":"cebpf4jnsgd1na2vs0mg"},{"bike_id":"444d24c9-2d72-4877-b34b-bdf869024cd6","system_id":"levelo_inurba_marseille","lat":43.22561,"lon":5.41636,"is_reserved":false,"is_disabled":false,"rental_uris":{"android":"levelo://app?vid=444d24c9-2d72-4877-b34b-bdf869024cd6","ios":"levelo://app?vid=444d24c9-2d72-4877-b34b-bdf869024cd6"},"vehicle_type_id":"4","last_reported":1768220839,"current_range_meters":6800,"station_id":"st_d2o4gvlbi1j2169b742g","pricing_plan_id":"cebpf4jnsgd1na2vs0mg"},{"bike_id":"bd500946-12f8-43a3-a714-f05cc642f8fd","system_id":"levelo_inurba_marseille","lat":43.24627,"lon":5.4307,"is_reserved":false,"is_disabled":false,"rental_uris":{"android":"levelo://app?vid=bd500946-12f8-43a3-a714-f05cc642f8fd","ios":"levelo://app?vid=bd500946-12f8-43a3-a714-f05cc642f8fd"},"vehicle_type_id":"4","last_reported":1768220839,"current_range_meters":6800,"station_id":"st_d2m6c4gdas8pm72e190g","pricing_plan_id":"cebpf4jnsgd1na2vs0mg"},{"bike_id":"9db0c6a2-0532-47d6-9e11-4501d4349639","system_id":"levelo_inurba_marseille","lat":43.31055,"lon":5.37188,"is_reserved":false,"is_disabled":false,"rental_uris":{"android":"levelo://app?vid=9db0c6a2-0532-47d6-9e11-4501d4349639","ios":"levelo://app?vid=9db0c6a2-0532-47d6-9e11-4501d4349639"},"vehicle_type_id":"4","last_reported":1768220839,"current_range_meters":6800,"station_id":"st_d4kl2rp97mjs73e7tdfg","pricing_plan_id":"cebpf4jnsgd1na2vs0mg"},{"bike_id":"19d3f4dd-0ead-4c30-a374-e64e1e69936c","system_id":"levelo_inurba_marseille","lat":43.24084,"lon":5.37765,"is_reserved":false,"is_disabled":false,"rental_uris":{"android":"levelo://app?vid=19d3f4dd-0ead-4c30-a374-e64e1e69936c","ios":"levelo://app?vid=19d3f4dd-0ead-4c30-a374-e64e1e69936c"},"vehicle_type_id":"4","last_reported":1768220839,"current_range_meters":6800,"station_id":"ce4bhnp2rcd13ifvqgvg","pricing_plan_id":"cebpf4jnsgd1na2vs0mg"},{"bike_id":"5eaa7009-e157-4b69-b935-83d5abdb0c3d","system_id":"levelo_inurba_marseille","lat":43.24168,"lon":5.36401,"is_reserved":false,"is_disabled":false,"rental_uris":{"android":"levelo://app?vid=5eaa7009-e157-4b69-b935-83d5abdb0c3d","ios":"levelo://app?vid=5eaa7009-e157-4b69-b935-83d5abdb0c3d"},"vehicle_type_id":"4","last_reported":1768220839,"current_range_meters":6800,"station_id":"cpo36qri1sfpv3e86is0","pricing_plan_id":"cebpf4jnsgd1na2vs0mg"},{"bike_id":"5f188eed-8638-4551-9668-478b429d53e6","system_id":"levelo_inurba_marseille","lat":43.24669,"lon":5.38155,"is_reserved":false,"is_disabled":false,"rental_uris":{"android":"levelo://app?vid=5f188eed-8638-4551-9668-478b429d53e6","ios":"levelo://app?vid=5f188eed-8638-4551-9668-478b429d53e6"},"vehicle_type_id":"4","last_reported":1768220839,"current_range_meters":6800,"station_id":"ce4bhih2rcd13ifvqfr0","pricing_plan_id":"cebpf4jnsgd1na2vs0mg"},{"bike_id":"5d5df986-a9af-4aac-959f-24360dffaa68","system_id":"levelo_inurba_marseille","lat":43.231905,"lon":5.355511,"is_reserved":false,"is_disabled":false,"rental_uris":{"android":"levelo://app?vid=5d5df986-a9af-4aac-959f-24360dffaa68","ios":"levelo://app?vid=5d5df986-a9af-4aac-959f-24360dffaa68"},"vehicle_type_id":"4","last_reported":1768220839,"current_range_meters":7200,"station_id":"ce4bhu92rcd13ifvqi70","pricing_plan_id":"cebpf4jnsgd1na2vs0mg"},{"bike_id":"6e8b6460-c748-40f6-9463-78b40d49f59d","system_id":"levelo_inurba_marseille","lat":43.25577,"lon":5.38251,"is_reserved":false,"is_disabled":true,"rental_uris":{"android":"levelo://app?vid=6e8b6460-c748-40f6-9463-78b40d49f59d","ios":"levelo://app?vid=6e8b6460-c748-40f6-9463-78b40d49f59d"},"vehicle_type_id":"4","last_reported":1768220839,"current_range_meters":7200,"station_id":"ce4bhih2rcd13ifvqfs0","pricing_plan_id":"cebpf4jnsgd1na2vs0mg"},{"bike_id":"c89382d7-74ba-405f-8e02-71142871c1e4","system_id":"levelo_inurba_marseille","lat":43.30856,"lon":5.40571,"is_reserved":false,"is_disabled":false,"rental_uris":{"android":"levelo://app?vid=c89382d7-74ba-405f-8e02-71142871c1e4","ios":"levelo://app?vid=c89382d7-74ba-405f-8e02-71142871c1e4"},"vehicle_type_id":"4","last_reported":1768220839,"current_range_meters":7200,"station_id":"","pricing_plan_id":"cebpf4jnsgd1na2vs0mg"},{"bike_id":"2a2afd37-6bb3-4a76-b03f-d3ac8c265b9f","system_id":"levelo_inurba_marseille","lat":43.29579,"lon":5.37503,"is_reserved":false,"is_disabled":true,"rental_uris":{"android":"levelo://app?vid=2a2afd37-6bb3-4a76-b03f-d3ac8c265b9f","ios":"levelo://app?vid=2a2afd37-6bb3-4a76-b03f-d3ac8c265b9f"},"vehicle_type_id":"4","last_reported":1768220839,"current_range_meters":7200,"station_id":"","pricing_plan_id":"cebpf4jnsgd1na2vs0mg"},{"bike_id":"5320cb85-e713-436f-9879-5ef50b431f55","system_id":"levelo_inurba_marseille","lat":43.2971,"lon":5.37857,"is_reserved":false,"is_disabled":false,"rental_uris":{"android":"levelo://app?vid=5320cb85-e713-436f-9879-5ef50b431f55","ios":"levelo://app?vid=5320cb85-e713-436f-9879-5ef50b431f55"},"vehicle_type_id":"4","last_reported":1768220839,"current_range_meters":7200,"station_id":"","pricing_plan_id":"cebpf4jnsgd1na2vs0mg"},{"bike_id":"594a75e9-663d-4136-a92e-c850f13505f6","system_id":"levelo_inurba_marseille","lat":43.3138,"lon":5.36807,"is_reserved":false,"is_disabled":false,"rental_uris":{"android":"levelo://app?vid=594a75e9-663d-4136-a92e-c850f13505f6","ios":"levelo://app?vid=594a75e9-663d-4136-a92e-c850f13505f6"},"vehicle_type_id":"4","last_reported":1768220839,"current_range_meters":7200,"station_id":"","pricing_plan_id":"cebpf4jnsgd1na2vs0mg"},{"bike_id":"af5669f3-2922-4011-8c2b-dbc246b81b04","system_id":"levelo_inurba_marseille","lat":43.22559,"lon":5.41629,"is_reserved":false,"is_disabled":false,"rental_uris":{"android":"levelo://app?vid=af5669f3-2922-4011-8c2b-dbc246b81b04","ios":"levelo://app?vid=af5669f3-2922-4011-8c2b-dbc246b81b04"},"vehicle_type_id":"4","last_reported":1768220839,"current_range_meters":7200,"station_id":"st_d2o4gvlbi1j2169b742g","pricing_plan_id":"cebpf4jnsgd1na2vs0mg"},{"bike_id":"2ba6848f-6e29-419a-a82a-5300f6b313ef","system_id":"levelo_inurba_marseille","lat":43.33155,"lon":5.37657,"is_reserved":false,"is_disabled":false,"rental_uris":{"android":"levelo://app?vid=2ba6848f-6e29-419a-a82a-5300f6b313ef","ios":"levelo://app?vid=2ba6848f-6e29-419a-a82a-5300f6b313ef"},"vehicle_type_id":"4","last_reported":1768220839,"current_range_meters":7200,"station_id":"st_d46cu089ee8s73dldbu0","pricing_plan_id":"cebpf4jnsgd1na2vs0mg"},{"bike_id":"662fa692-b6d7-4fa9-8c12-78c61f96f761","system_id":"levelo_inurba_marseille","lat":43.24067,"lon":5.3777,"is_reserved":false,"is_disabled":false,"rental_uris":{"android":"levelo://app?vid=662fa692-b6d7-4fa9-8c12-78c61f96f761","ios":"levelo://app?vid=662fa692-b6d7-4fa9-8c12-78c61f96f761"},"vehicle_type_id":"4","last_reported":1768220839,"current_range_meters":7200,"station_id":"ce4bhnp2rcd13ifvqgvg","pricing_plan_id":"cebpf4jnsgd1na2vs0mg"},{"bike_id":"7f0cb521-e464-4fe2-9e92-1a979338c414","system_id":"levelo_inurba_marseille","lat":43.27493,"lon":5.42451,"is_reserved":false,"is_disabled":false,"rental_uris":{"android":"levelo://app?vid=7f0cb521-e464-4fe2-9e92-1a979338c414","ios":"levelo://app?vid=7f0cb521-e464-4fe2-9e92-1a979338c414"},"vehicle_type_id":"4","last_reported":1768220839,"current_range_meters":7200,"station_id":"ce4bhn92rcd13ifvqgrg","pricing_plan_id":"cebpf4jnsgd1na2vs0mg"},{"bike_id":"e2f4b2db-8aa9-4f04-b302-11c754abf18e","system_id":"levelo_inurba_marseille","lat":43.22555,"lon":5.41626,"is_reserved":false,"is_disabled":false,"rental_uris":{"android":"levelo://app?vid=e2f4b2db-8aa9-4f04-b302-11c754abf18e","ios":"levelo://app?vid=e2f4b2db-8aa9-4f04-b302-11c754abf18e"},"vehicle_type_id":"4","last_reported":1768220839,"current_range_meters":7200,"station_id":"st_d2o4gvlbi1j2169b742g","pricing_plan_id":"cebpf4jnsgd1na2vs0mg"},{"bike_id":"026be423-163c-422d-9d5c-22ee0f503da9","system_id":"levelo_inurba_marseille","lat":43.246595,"lon":5.431481,"is_reserved":false,"is_disabled":false,"rental_uris":{"android":"levelo://app?vid=026be423-163c-422d-9d5c-22ee0f503da9","ios":"levelo://app?vid=026be423-163c-422d-9d5c-22ee0f503da9"},"vehicle_type_id":"4","last_reported":1768220839,"current_range_meters":7200,"station_id":"st_d2m6c4gdas8pm72e190g","pricing_plan_id":"cebpf4jnsgd1na2vs0mg"},{"bike_id":"11af0c92-c06a-443e-9535-f40b72ae3dc7","system_id":"levelo_inurba_marseille","lat":43.290387,"lon":5.363418,"is_reserved":false,"is_disabled":true,"rental_uris":{"android":"levelo://app?vid=11af0c92-c06a-443e-9535-f40b72ae3dc7","ios":"levelo://app?vid=11af0c92-c06a-443e-9535-f40b72ae3dc7"},"vehicle_type_id":"4","last_reported":1768220839,"current_range_meters":7200,"station_id":"","pricing_plan_id":"cebpf4jnsgd1na2vs0mg"},{"bike_id":"2d4a6806-c79d-459e-9e20-55eaaf0ce71e","system_id":"levelo_inurba_marseille","lat":43.27203,"lon":5.39206,"is_reserved":false,"is_disabled":false,"rental_uris":{"android":"levelo://app?vid=2d4a6806-c79d-459e-9e20-55eaaf0ce71e","ios":"levelo://app?vid=2d4a6806-c79d-459e-9e20-55eaaf0ce71e"},"vehicle_type_id":"4","last_reported":1768220839,"current_range_meters":7200,"station_id":"ce4bhhp2rcd13ifvqfm0","pricing_plan_id":"cebpf4jnsgd1na2vs0mg"},{"bike_id":"896e80f8-41a7-4291-8c2b-68ecc0866598","system_id":"levelo_inurba_marseille","lat":43.33154,"lon":5.37679,"is_reserved":false,"is_disabled":false,"rental_uris":{"android":"levelo://app?vid=896e80f8-41a7-4291-8c2b-68ecc0866598","ios":"levelo://app?vid=896e80f8-41a7-4291-8c2b-68ecc0866598"},"vehicle_type_id":"4","last_reported":1768220839,"current_range_meters":7200,"station_id":"st_d46cu089ee8s73dldbu0","pricing_plan_id":"cebpf4jnsgd1na2vs0mg"},{"bike_id":"7e1b8b05-445a-4c8d-9e80-9bb1809a853a","system_id":"levelo_inurba_marseille","lat":43.26691,"lon":5.38276,"is_reserved":false,"is_disabled":true,"rental_uris":{"android":"levelo://app?vid=7e1b8b05-445a-4c8d-9e80-9bb1809a853a","ios":"levelo://app?vid=7e1b8b05-445a-4c8d-9e80-9bb1809a853a"},"vehicle_type_id":"4","last_reported":1768220839,"current_range_meters":7200,"station_id":"ce4bhg92rcd13ifvqf90","pricing_plan_id":"cebpf4jnsgd1na2vs0mg"},{"bike_id":"0620df11-f12e-45ac-8b58-c6754705cf0e","system_id":"levelo_inurba_marseille","lat":43.323534,"lon":5.367453,"is_reserved":false,"is_disabled":false,"rental_uris":{"android":"levelo://app?vid=0620df11-f12e-45ac-8b58-c6754705cf0e","ios":"levelo://app?vid=0620df11-f12e-45ac-8b58-c6754705cf0e"},"vehicle_type_id":"4","last_reported":1768220839,"current_range_meters":7200,"station_id":"ce4bhsh2rcd13ifvqi2g","pricing_plan_id":"cebpf4jnsgd1na2vs0mg"},{"bike_id":"85c7fb83-0c4c-4505-9998-fc32e2fea5bd","system_id":"levelo_inurba_marseille","lat":43.283446,"lon":5.381063,"is_reserved":false,"is_disabled":false,"rental_uris":{"android":"levelo://app?vid=85c7fb83-0c4c-4505-9998-fc32e2fea5bd","ios":"levelo://app?vid=85c7fb83-0c4c-4505-9998-fc32e2fea5bd"},"vehicle_type_id":"4","last_reported":1768220839,"current_range_meters":7200,"station_id":"ce4bh412rcd13ifvqdr0","pricing_plan_id":"cebpf4jnsgd1na2vs0mg"},{"bike_id":"aa001726-78af-498e-a28f-d4169e65c9f2","system_id":"levelo_inurba_marseille","lat":43.277708,"lon":5.399494,"is_reserved":false,"is_disabled":false,"rental_uris":{"android":"levelo://app?vid=aa001726-78af-498e-a28f-d4169e65c9f2","ios":"levelo://app?vid=aa001726-78af-498e-a28f-d4169e65c9f2"},"vehicle_type_id":"4","last_reported":1768220839,"current_range_meters":7200,"station_id":"","pricing_plan_id":"cebpf4jnsgd1na2vs0mg"},{"bike_id":"7162ddae-545f-42e2-a417-160b6a4f0f38","system_id":"levelo_inurba_marseille","lat":43.28169,"lon":5.42621,"is_reserved":false,"is_disabled":false,"rental_uris":{"android":"levelo://app?vid=7162ddae-545f-42e2-a417-160b6a4f0f38","ios":"levelo://app?vid=7162ddae-545f-42e2-a417-160b6a4f0f38"},"vehicle_type_id":"4","last_reported":1768220839,"current_range_meters":7200,"station_id":"ce4bhnh2rcd13ifvqgug","pricing_plan_id":"cebpf4jnsgd1na2vs0mg"},{"bike_id":"18a790e3-67d4-451b-a4aa-9465f4aa5355","system_id":"levelo_inurba_marseille","lat":43.30409,"lon":5.39747,"is_reserved":false,"is_disabled":true,"rental_uris":{"android":"levelo://app?vid=18a790e3-67d4-451b-a4aa-9465f4aa5355","ios":"levelo://app?vid=18a790e3-67d4-451b-a4aa-9465f4aa5355"},"vehicle_type_id":"4","last_reported":1768220839,"current_range_meters":7200,"station_id":"ce4bh092rcd13ifvqd20","pricing_plan_id":"cebpf4jnsgd1na2vs0mg"},{"bike_id":"24ba2f80-60b7-4944-b7ed-dd0dea664de4","system_id":"levelo_inurba_marseille","lat":43.284762,"lon":5.48401,"is_reserved":false,"is_disabled":false,"rental_uris":{"android":"levelo://app?vid=24ba2f80-60b7-4944-b7ed-dd0dea664de4","ios":"levelo://app?vid=24ba2f80-60b7-4944-b7ed-dd0dea664de4"},"vehicle_type_id":"4","last_reported":1768220839,"current_range_meters":7200,"station_id":"st_d3svhcjqgbts73a3dn0g","pricing_plan_id":"cebpf4jnsgd1na2vs0mg"},{"bike_id":"f5363abc-d9a9-4de1-82d1-e9b4b42eb678","system_id":"levelo_inurba_marseille","lat":43.23182,"lon":5.35569,"is_reserved":false,"is_disabled":false,"rental_uris":{"android":"levelo://app?vid=f5363abc-d9a9-4de1-82d1-e9b4b42eb678","ios":"levelo://app?vid=f5363abc-d9a9-4de1-82d1-e9b4b42eb678"},"vehicle_type_id":"4","last_reported":1768220839,"current_range_meters":7200,"station_id":"ce4bhu92rcd13ifvqi70","pricing_plan_id":"cebpf4jnsgd1na2vs0mg"},{"bike_id":"5ebf41f9-21e0-4fa9-9608-800e48a2c083","system_id":"levelo_inurba_marseille","lat":43.24054,"lon":5.37735,"is_reserved":false,"is_disabled":false,"rental_uris":{"android":"levelo://app?vid=5ebf41f9-21e0-4fa9-9608-800e48a2c083","ios":"levelo://app?vid=5ebf41f9-21e0-4fa9-9608-800e48a2c083"},"vehicle_type_id":"4","last_reported":1768220839,"current_range_meters":7200,"station_id":"ce4bhnp2rcd13ifvqgvg","pricing_plan_id":"cebpf4jnsgd1na2vs0mg"},{"bike_id":"e35c9136-f237-423f-b0f2-de97de65ec0d","system_id":"levelo_inurba_marseille","lat":43.22553,"lon":5.41637,"is_reserved":false,"is_disabled":true,"rental_uris":{"android":"levelo://app?vid=e35c9136-f237-423f-b0f2-de97de65ec0d","ios":"levelo://app?vid=e35c9136-f237-423f-b0f2-de97de65ec0d"},"vehicle_type_id":"4","last_reported":1768220839,"current_range_meters":7200,"station_id":"st_d2o4gvlbi1j2169b742g","pricing_plan_id":"cebpf4jnsgd1na2vs0mg"},{"bike_id":"4f117f99-66a4-4bae-b6a8-a51d757eea15","system_id":"levelo_inurba_marseille","lat":43.30135,"lon":5.37414,"is_reserved":false,"is_disabled":false,"rental_uris":{"android":"levelo://app?vid=4f117f99-66a4-4bae-b6a8-a51d757eea15","ios":"levelo://app?vid=4f117f99-66a4-4bae-b6a8-a51d757eea15"},"vehicle_type_id":"4","last_reported":1768220839,"current_range_meters":8000,"station_id":"ce4bgs92rcd13ifvqcc0","pricing_plan_id":"cebpf4jnsgd1na2vs0mg"},{"bike_id":"95964741-c791-4424-a052-4608b2fbf0b9","system_id":"levelo_inurba_marseille","lat":43.30152,"lon":5.3809,"is_reserved":false,"is_disabled":false,"rental_uris":{"android":"levelo://app?vid=95964741-c791-4424-a052-4608b2fbf0b9","ios":"levelo://app?vid=95964741-c791-4424-a052-4608b2fbf0b9"},"vehicle_type_id":"4","last_reported":1768220839,"current_range_meters":8000,"station_id":"ce4bgjp2rcd13ifvqbh0","pricing_plan_id":"cebpf4jnsgd1na2vs0mg"},{"bike_id":"812ced7c-1786-446c-b74e-26d9552dbcd3","system_id":"levelo_inurba_marseille","lat":43.29473,"lon":5.37667,"is_reserved":false,"is_disabled":true,"rental_uris":{"android":"levelo://app?vid=812ced7c-1786-446c-b74e-26d9552dbcd3","ios":"levelo://app?vid=812ced7c-1786-446c-b74e-26d9552dbcd3"},"vehicle_type_id":"4","last_reported":1768220839,"current_range_meters":8000,"station_id":"","pricing_plan_id":"cebpf4jnsgd1na2vs0mg"},{"bike_id":"d3dfa112-87af-4fa9-98a3-b770bcf4b460","system_id":"levelo_inurba_marseille","lat":43.260583,"lon":5.393974,"is_reserved":false,"is_disabled":false,"rental_uris":{"android":"levelo://app?vid=d3dfa112-87af-4fa9-98a3-b770bcf4b460","ios":"levelo://app?vid=d3dfa112-87af-4fa9-98a3-b770bcf4b460"},"vehicle_type_id":"4","last_reported":1768220839,"current_range_meters":8000,"station_id":"ce4bhh92rcd13ifvqfj0","pricing_plan_id":"cebpf4jnsgd1na2vs0mg"},{"bike_id":"058aab42-3c75-4825-bb16-9f7ce3470dfc","system_id":"levelo_inurba_marseille","lat":43.25719,"lon":5.4111,"is_reserved":false,"is_disabled":false,"rental_uris":{"android":"levelo://app?vid=058aab42-3c75-4825-bb16-9f7ce3470dfc","ios":"levelo://app?vid=058aab42-3c75-4825-bb16-9f7ce3470dfc"},"vehicle_type_id":"4","last_reported":1768220839,"current_range_meters":8000,"station_id":"ce4bhkp2rcd13ifvqgd0","pricing_plan_id":"cebpf4jnsgd1na2vs0mg"},{"bike_id":"f75ed7de-6c2c-4836-8ef1-40173c9c6664","system_id":"levelo_inurba_marseille","lat":43.28617,"lon":5.35098,"is_reserved":false,"is_disabled":false,"rental_uris":{"android":"levelo://app?vid=f75ed7de-6c2c-4836-8ef1-40173c9c6664","ios":"levelo://app?vid=f75ed7de-6c2c-4836-8ef1-40173c9c6664"},"vehicle_type_id":"4","last_reported":1768220839,"current_range_meters":8000,"station_id":"ce4bhch2rcd13ifvqeug","pricing_plan_id":"cebpf4jnsgd1na2vs0mg"},{"bike_id":"43846e39-d512-471f-8683-3a740375e832","system_id":"levelo_inurba_marseille","lat":43.23959,"lon":5.36614,"is_reserved":false,"is_disabled":false,"rental_uris":{"android":"levelo://app?vid=43846e39-d512-471f-8683-3a740375e832","ios":"levelo://app?vid=43846e39-d512-471f-8683-3a740375e832"},"vehicle_type_id":"4","last_reported":1768220839,"current_range_meters":8000,"station_id":"ce4bhi12rcd13ifvqfp0","pricing_plan_id":"cebpf4jnsgd1na2vs0mg"},{"bike_id":"77594950-26d6-4043-a02a-b4fa6c431c28","system_id":"levelo_inurba_marseille","lat":43.32358,"lon":5.367449,"is_reserved":false,"is_disabled":false,"rental_uris":{"android":"levelo://app?vid=77594950-26d6-4043-a02a-b4fa6c431c28","ios":"levelo://app?vid=77594950-26d6-4043-a02a-b4fa6c431c28"},"vehicle_type_id":"4","last_reported":1768220839,"current_range_meters":8000,"station_id":"ce4bhsh2rcd13ifvqi2g","pricing_plan_id":"cebpf4jnsgd1na2vs0mg"},{"bike_id":"68c8e350-b404-44d3-ac96-eff70f01d2d2","system_id":"levelo_inurba_marseille","lat":43.2637,"lon":5.41074,"is_reserved":false,"is_disabled":false,"rental_uris":{"android":"levelo://app?vid=68c8e350-b404-44d3-ac96-eff70f01d2d2","ios":"levelo://app?vid=68c8e350-b404-44d3-ac96-eff70f01d2d2"},"vehicle_type_id":"4","last_reported":1768220839,"current_range_meters":8000,"station_id":"st_d4e5ca6na9uc73bfl5fg","pricing_plan_id":"cebpf4jnsgd1na2vs0mg"},{"bike_id":"497cd64c-54a8-4320-9be8-e763160518b0","system_id":"levelo_inurba_marseille","lat":43.2319,"lon":5.35562,"is_reserved":false,"is_disabled":false,"rental_uris":{"android":"levelo://app?vid=497cd64c-54a8-4320-9be8-e763160518b0","ios":"levelo://app?vid=497cd64c-54a8-4320-9be8-e763160518b0"},"vehicle_type_id":"4","last_reported":1768220839,"current_range_meters":8000,"station_id":"ce4bhu92rcd13ifvqi70","pricing_plan_id":"cebpf4jnsgd1na2vs0mg"},{"bike_id":"5b4c5a9a-7ec1-466b-ad8a-c4021c7e77eb","system_id":"levelo_inurba_marseille","lat":43.31218,"lon":5.36824,"is_reserved":false,"is_disabled":false,"rental_uris":{"android":"levelo://app?vid=5b4c5a9a-7ec1-466b-ad8a-c4021c7e77eb","ios":"levelo://app?vid=5b4c5a9a-7ec1-466b-ad8a-c4021c7e77eb"},"vehicle_type_id":"4","last_reported":1768220839,"current_range_meters":8000,"station_id":"ce4bgl92rcd13ifvqbq0","pricing_plan_id":"cebpf4jnsgd1na2vs0mg"},{"bike_id":"2d384d68-f7f7-4819-995c-d1839008a799","system_id":"levelo_inurba_marseille","lat":43.23844,"lon":5.36639,"is_reserved":false,"is_disabled":false,"rental_uris":{"android":"levelo://app?vid=2d384d68-f7f7-4819-995c-d1839008a799","ios":"levelo://app?vid=2d384d68-f7f7-4819-995c-d1839008a799"},"vehicle_type_id":"4","last_reported":1768220839,"current_range_meters":8000,"station_id":"","pricing_plan_id":"cebpf4jnsgd1na2vs0mg"},{"bike_id":"83387808-82d3-4de0-8af1-be67745099dd","system_id":"levelo_inurba_marseille","lat":43.248047,"lon":5.374562,"is_reserved":false,"is_disabled":false,"rental_uris":{"android":"levelo://app?vid=83387808-82d3-4de0-8af1-be67745099dd","ios":"levelo://app?vid=83387808-82d3-4de0-8af1-be67745099dd"},"vehicle_type_id":"4","last_reported":1768220839,"current_range_meters":8000,"station_id":"ce4bhgh2rcd13ifvqfb0","pricing_plan_id":"cebpf4jnsgd1na2vs0mg"},{"bike_id":"62bbe6d6-5621-46c1-97b8-3e71687c301f","system_id":"levelo_inurba_marseille","lat":43.300089,"lon":5.373529,"is_reserved":false,"is_disabled":false,"rental_uris":{"android":"levelo://app?vid=62bbe6d6-5621-46c1-97b8-3e71687c301f","ios":"levelo://app?vid=62bbe6d6-5621-46c1-97b8-3e71687c301f"},"vehicle_type_id":"4","last_reported":1768220839,"current_range_meters":8000,"station_id":"","pricing_plan_id":"cebpf4jnsgd1na2vs0mg"},{"bike_id":"6fe7d9de-dee4-44f0-8901-753dc360de4c","system_id":"levelo_inurba_marseille","lat":43.32359,"lon":5.36764,"is_reserved":false,"is_disabled":false,"rental_uris":{"android":"levelo://app?vid=6fe7d9de-dee4-44f0-8901-753dc360de4c","ios":"levelo://app?vid=6fe7d9de-dee4-44f0-8901-753dc360de4c"},"vehicle_type_id":"4","last_reported":1768220839,"current_range_meters":8000,"station_id":"ce4bhsh2rcd13ifvqi2g","pricing_plan_id":"cebpf4jnsgd1na2vs0mg"},{"bike_id":"756a807d-a652-4964-9cf9-2263cf850be9","system_id":"levelo_inurba_marseille","lat":43.279386,"lon":5.41049,"is_reserved":false,"is_disabled":false,"rental_uris":{"android":"levelo://app?vid=756a807d-a652-4964-9cf9-2263cf850be9","ios":"levelo://app?vid=756a807d-a652-4964-9cf9-2263cf850be9"},"vehicle_type_id":"4","last_reported":1768220839,"current_range_meters":8000,"station_id":"ce4bhnp2rcd13ifvqh0g","pricing_plan_id":"cebpf4jnsgd1na2vs0mg"},{"bike_id":"c6ca6a62-320d-489f-b999-c2742ad5cad7","system_id":"levelo_inurba_marseille","lat":43.2405,"lon":5.37768,"is_reserved":false,"is_disabled":false,"rental_uris":{"android":"levelo://app?vid=c6ca6a62-320d-489f-b999-c2742ad5cad7","ios":"levelo://app?vid=c6ca6a62-320d-489f-b999-c2742ad5cad7"},"vehicle_type_id":"4","last_reported":1768220839,"current_range_meters":8400,"station_id":"ce4bhnp2rcd13ifvqgvg","pricing_plan_id":"cebpf4jnsgd1na2vs0mg"},{"bike_id":"e8267cd6-5f5b-4af1-b219-15c536600aa5","system_id":"levelo_inurba_marseille","lat":43.265592,"lon":5.372838,"is_reserved":false,"is_disabled":false,"rental_uris":{"android":"levelo://app?vid=e8267cd6-5f5b-4af1-b219-15c536600aa5","ios":"levelo://app?vid=e8267cd6-5f5b-4af1-b219-15c536600aa5"},"vehicle_type_id":"4","last_reported":1768220839,"current_range_meters":8400,"station_id":"ce4bhg12rcd13ifvqf70","pricing_plan_id":"cebpf4jnsgd1na2vs0mg"},{"bike_id":"bba85f89-d77b-457b-8f4b-4bdcaf95f0a2","system_id":"levelo_inurba_marseille","lat":43.32315,"lon":5.36669,"is_reserved":false,"is_disabled":false,"rental_uris":{"android":"levelo://app?vid=bba85f89-d77b-457b-8f4b-4bdcaf95f0a2","ios":"levelo://app?vid=bba85f89-d77b-457b-8f4b-4bdcaf95f0a2"},"vehicle_type_id":"4","last_reported":1768220839,"current_range_meters":8400,"station_id":"","pricing_plan_id":"cebpf4jnsgd1na2vs0mg"},{"bike_id":"92f1b25a-9244-4fe0-822d-53990af79731","system_id":"levelo_inurba_marseille","lat":43.25088,"lon":5.39513,"is_reserved":false,"is_disabled":false,"rental_uris":{"android":"levelo://app?vid=92f1b25a-9244-4fe0-822d-53990af79731","ios":"levelo://app?vid=92f1b25a-9244-4fe0-822d-53990af79731"},"vehicle_type_id":"4","last_reported":1768220839,"current_range_meters":8400,"station_id":"ce4bhm12rcd13ifvqgkg","pricing_plan_id":"cebpf4jnsgd1na2vs0mg"},{"bike_id":"6a30a85f-77e1-4465-a45e-0668dd9abc34","system_id":"levelo_inurba_marseille","lat":43.244695,"lon":5.425373,"is_reserved":false,"is_disabled":false,"rental_uris":{"android":"levelo://app?vid=6a30a85f-77e1-4465-a45e-0668dd9abc34","ios":"levelo://app?vid=6a30a85f-77e1-4465-a45e-0668dd9abc34"},"vehicle_type_id":"4","last_reported":1768220839,"current_range_meters":8400,"station_id":"st_d4a3vfp97mjs738cd8kg","pricing_plan_id":"cebpf4jnsgd1na2vs0mg"},{"bike_id":"1c96b720-50a9-4b07-91f6-549c78da2225","system_id":"levelo_inurba_marseille","lat":43.29105,"lon":5.38153,"is_reserved":false,"is_disabled":false,"rental_uris":{"android":"levelo://app?vid=1c96b720-50a9-4b07-91f6-549c78da2225","ios":"levelo://app?vid=1c96b720-50a9-4b07-91f6-549c78da2225"},"vehicle_type_id":"4","last_reported":1768220839,"current_range_meters":8400,"station_id":"","pricing_plan_id":"cebpf4jnsgd1na2vs0mg"},{"bike_id":"0b5ae2c9-ef05-4cf7-8260-1762ae5d6eb8","system_id":"levelo_inurba_marseille","lat":43.26934,"lon":5.40246,"is_reserved":false,"is_disabled":false,"rental_uris":{"android":"levelo://app?vid=0b5ae2c9-ef05-4cf7-8260-1762ae5d6eb8","ios":"levelo://app?vid=0b5ae2c9-ef05-4cf7-8260-1762ae5d6eb8"},"vehicle_type_id":"4","last_reported":1768220839,"current_range_meters":8400,"station_id":"cjm6bp8fraef2m0cb0m0","pricing_plan_id":"cebpf4jnsgd1na2vs0mg"},{"bike_id":"f602578d-c1b4-416f-8234-08d67640a0d1","system_id":"levelo_inurba_marseille","lat":43.24073,"lon":5.37776,"is_reserved":false,"is_disabled":false,"rental_uris":{"android":"levelo://app?vid=f602578d-c1b4-416f-8234-08d67640a0d1","ios":"levelo://app?vid=f602578d-c1b4-416f-8234-08d67640a0d1"},"vehicle_type_id":"4","last_reported":1768220839,"current_range_meters":8400,"station_id":"ce4bhnp2rcd13ifvqgvg","pricing_plan_id":"cebpf4jnsgd1na2vs0mg"},{"bike_id":"74ad5475-095f-46a5-9199-3d2d20cb8ccc","system_id":"levelo_inurba_marseille","lat":43.26541,"lon":5.372989,"is_reserved":false,"is_disabled":false,"rental_uris":{"android":"levelo://app?vid=74ad5475-095f-46a5-9199-3d2d20cb8ccc","ios":"levelo://app?vid=74ad5475-095f-46a5-9199-3d2d20cb8ccc"},"vehicle_type_id":"4","last_reported":1768220839,"current_range_meters":8400,"station_id":"ce4bhg12rcd13ifvqf70","pricing_plan_id":"cebpf4jnsgd1na2vs0mg"},{"bike_id":"3ad02890-c33d-4360-be6d-058cb010065e","system_id":"levelo_inurba_marseille","lat":43.32896,"lon":5.389443,"is_reserved":false,"is_disabled":false,"rental_uris":{"android":"levelo://app?vid=3ad02890-c33d-4360-be6d-058cb010065e","ios":"levelo://app?vid=3ad02890-c33d-4360-be6d-058cb010065e"},"vehicle_type_id":"4","last_reported":1768220839,"current_range_meters":8400,"station_id":"","pricing_plan_id":"cebpf4jnsgd1na2vs0mg"},{"bike_id":"dd318c5a-f69e-477d-a72f-af46c0a68d04","system_id":"levelo_inurba_marseille","lat":43.282197,"lon":5.403671,"is_reserved":false,"is_disabled":false,"rental_uris":{"android":"levelo://app?vid=dd318c5a-f69e-477d-a72f-af46c0a68d04","ios":"levelo://app?vid=dd318c5a-f69e-477d-a72f-af46c0a68d04"},"vehicle_type_id":"4","last_reported":1768220839,"current_range_meters":8400,"station_id":"","pricing_plan_id":"cebpf4jnsgd1na2vs0mg"},{"bike_id":"c829e367-9a99-4330-9a4b-742cafb69344","system_id":"levelo_inurba_marseille","lat":43.31196,"lon":5.36852,"is_reserved":false,"is_disabled":false,"rental_uris":{"android":"levelo://app?vid=c829e367-9a99-4330-9a4b-742cafb69344","ios":"levelo://app?vid=c829e367-9a99-4330-9a4b-742cafb69344"},"vehicle_type_id":"4","last_reported":1768220839,"current_range_meters":8400,"station_id":"ce4bgl92rcd13ifvqbq0","pricing_plan_id":"cebpf4jnsgd1na2vs0mg"},{"bike_id":"9a751077-78e8-49b3-8944-6a638d6bed5e","system_id":"levelo_inurba_marseille","lat":43.29982,"lon":5.37354,"is_reserved":false,"is_disabled":false,"rental_uris":{"android":"levelo://app?vid=9a751077-78e8-49b3-8944-6a638d6bed5e","ios":"levelo://app?vid=9a751077-78e8-49b3-8944-6a638d6bed5e"},"vehicle_type_id":"4","last_reported":1768220839,"current_range_meters":8400,"station_id":"","pricing_plan_id":"cebpf4jnsgd1na2vs0mg"},{"bike_id":"0c660d60-0595-405c-abcc-a70079f104cb","system_id":"levelo_inurba_marseille","lat":43.30818,"lon":5.38143,"is_reserved":false,"is_disabled":false,"rental_uris":{"android":"levelo://app?vid=0c660d60-0595-405c-abcc-a70079f104cb","ios":"levelo://app?vid=0c660d60-0595-405c-abcc-a70079f104cb"},"vehicle_type_id":"4","last_reported":1768220839,"current_range_meters":8400,"station_id":"ce4bgt12rcd13ifvqce0","pricing_plan_id":"cebpf4jnsgd1na2vs0mg"},{"bike_id":"ae868ec9-5710-45cc-a2d4-a472e9a20155","system_id":"levelo_inurba_marseille","lat":43.31191,"lon":5.36876,"is_reserved":false,"is_disabled":false,"rental_uris":{"android":"levelo://app?vid=ae868ec9-5710-45cc-a2d4-a472e9a20155","ios":"levelo://app?vid=ae868ec9-5710-45cc-a2d4-a472e9a20155"},"vehicle_type_id":"4","last_reported":1768220839,"current_range_meters":8400,"station_id":"ce4bgl92rcd13ifvqbq0","pricing_plan_id":"cebpf4jnsgd1na2vs0mg"},{"bike_id":"02124f08-2fde-43cb-82e0-9f3b5082646a","system_id":"levelo_inurba_marseille","lat":43.279728,"lon":5.387373,"is_reserved":false,"is_disabled":false,"rental_uris":{"android":"levelo://app?vid=02124f08-2fde-43cb-82e0-9f3b5082646a","ios":"levelo://app?vid=02124f08-2fde-43cb-82e0-9f3b5082646a"},"vehicle_type_id":"4","last_reported":1768220839,"current_range_meters":8400,"station_id":"ce4bhg12rcd13ifvqf80","pricing_plan_id":"cebpf4jnsgd1na2vs0mg"},{"bike_id":"c195c56e-d1c8-41b4-9d75-15e577f143fa","system_id":"levelo_inurba_marseille","lat":43.27998,"lon":5.41672,"is_reserved":false,"is_disabled":false,"rental_uris":{"android":"levelo://app?vid=c195c56e-d1c8-41b4-9d75-15e577f143fa","ios":"levelo://app?vid=c195c56e-d1c8-41b4-9d75-15e577f143fa"},"vehicle_type_id":"4","last_reported":1768220839,"current_range_meters":8400,"station_id":"ce4bho12rcd13ifvqh1g","pricing_plan_id":"cebpf4jnsgd1na2vs0mg"},{"bike_id":"feb29159-4198-4b36-8679-2763c96f4194","system_id":"levelo_inurba_marseille","lat":43.26069,"lon":5.39398,"is_reserved":false,"is_disabled":false,"rental_uris":{"android":"levelo://app?vid=feb29159-4198-4b36-8679-2763c96f4194","ios":"levelo://app?vid=feb29159-4198-4b36-8679-2763c96f4194"},"vehicle_type_id":"4","last_reported":1768220839,"current_range_meters":8400,"station_id":"ce4bhh92rcd13ifvqfj0","pricing_plan_id":"cebpf4jnsgd1na2vs0mg"},{"bike_id":"5301c30f-c70c-4077-a90d-3c1f831d11bb","system_id":"levelo_inurba_marseille","lat":43.30442,"lon":5.38907,"is_reserved":false,"is_disabled":true,"rental_uris":{"android":"levelo://app?vid=5301c30f-c70c-4077-a90d-3c1f831d11bb","ios":"levelo://app?vid=5301c30f-c70c-4077-a90d-3c1f831d11bb"},"vehicle_type_id":"4","last_reported":1768220839,"current_range_meters":8400,"station_id":"ce4bgk12rcd13ifvqbi0","pricing_plan_id":"cebpf4jnsgd1na2vs0mg"},{"bike_id":"f3ab0268-17f8-48ca-905a-1726d768323c","system_id":"levelo_inurba_marseille","lat":43.33168,"lon":5.37707,"is_reserved":false,"is_disabled":false,"rental_uris":{"android":"levelo://app?vid=f3ab0268-17f8-48ca-905a-1726d768323c","ios":"levelo://app?vid=f3ab0268-17f8-48ca-905a-1726d768323c"},"vehicle_type_id":"4","last_reported":1768220839,"current_range_meters":8400,"station_id":"st_d46cu089ee8s73dldbu0","pricing_plan_id":"cebpf4jnsgd1na2vs0mg"},{"bike_id":"6991a21c-553f-41d7-887e-d8675ddcd84d","system_id":"levelo_inurba_marseille","lat":43.24076,"lon":5.37775,"is_reserved":false,"is_disabled":false,"rental_uris":{"android":"levelo://app?vid=6991a21c-553f-41d7-887e-d8675ddcd84d","ios":"levelo://app?vid=6991a21c-553f-41d7-887e-d8675ddcd84d"},"vehicle_type_id":"4","last_reported":1768220839,"current_range_meters":8400,"station_id":"ce4bhnp2rcd13ifvqgvg","pricing_plan_id":"cebpf4jnsgd1na2vs0mg"},{"bike_id":"134f1d6e-db49-425a-88b8-4335be29a6c2","system_id":"levelo_inurba_marseille","lat":43.24486,"lon":5.42528,"is_reserved":false,"is_disabled":false,"rental_uris":{"android":"levelo://app?vid=134f1d6e-db49-425a-88b8-4335be29a6c2","ios":"levelo://app?vid=134f1d6e-db49-425a-88b8-4335be29a6c2"},"vehicle_type_id":"4","last_reported":1768220839,"current_range_meters":8400,"station_id":"st_d4a3vfp97mjs738cd8kg","pricing_plan_id":"cebpf4jnsgd1na2vs0mg"},{"bike_id":"27906710-6f31-45c7-ac45-36660cf766b7","system_id":"levelo_inurba_marseille","lat":43.279679,"lon":5.387506,"is_reserved":false,"is_disabled":false,"rental_uris":{"android":"levelo://app?vid=27906710-6f31-45c7-ac45-36660cf766b7","ios":"levelo://app?vid=27906710-6f31-45c7-ac45-36660cf766b7"},"vehicle_type_id":"4","last_reported":1768220839,"current_range_meters":8400,"station_id":"ce4bhg12rcd13ifvqf80","pricing_plan_id":"cebpf4jnsgd1na2vs0mg"},{"bike_id":"71ea8545-9c98-4df0-9497-b31fe8e4483d","system_id":"levelo_inurba_marseille","lat":43.29263,"lon":5.37346,"is_reserved":false,"is_disabled":false,"rental_uris":{"android":"levelo://app?vid=71ea8545-9c98-4df0-9497-b31fe8e4483d","ios":"levelo://app?vid=71ea8545-9c98-4df0-9497-b31fe8e4483d"},"vehicle_type_id":"4","last_reported":1768220839,"current_range_meters":8400,"station_id":"","pricing_plan_id":"cebpf4jnsgd1na2vs0mg"},{"bike_id":"7024df19-8d56-4af5-a149-b1dceaf85a84","system_id":"levelo_inurba_marseille","lat":43.26055,"lon":5.39391,"is_reserved":false,"is_disabled":false,"rental_uris":{"android":"levelo://app?vid=7024df19-8d56-4af5-a149-b1dceaf85a84","ios":"levelo://app?vid=7024df19-8d56-4af5-a149-b1dceaf85a84"},"vehicle_type_id":"4","last_reported":1768220839,"current_range_meters":8400,"station_id":"ce4bhh92rcd13ifvqfj0","pricing_plan_id":"cebpf4jnsgd1na2vs0mg"},{"bike_id":"4ebab746-a710-42ea-88e7-cadfdf777e8c","system_id":"levelo_inurba_marseille","lat":43.30618,"lon":5.40518,"is_reserved":false,"is_disabled":false,"rental_uris":{"android":"levelo://app?vid=4ebab746-a710-42ea-88e7-cadfdf777e8c","ios":"levelo://app?vid=4ebab746-a710-42ea-88e7-cadfdf777e8c"},"vehicle_type_id":"4","last_reported":1768220839,"current_range_meters":8400,"station_id":"ce4bh112rcd13ifvqda0","pricing_plan_id":"cebpf4jnsgd1na2vs0mg"},{"bike_id":"4da4c03b-89a1-4525-86e4-fd8837b40922","system_id":"levelo_inurba_marseille","lat":43.28615,"lon":5.35116,"is_reserved":false,"is_disabled":false,"rental_uris":{"android":"levelo://app?vid=4da4c03b-89a1-4525-86e4-fd8837b40922","ios":"levelo://app?vid=4da4c03b-89a1-4525-86e4-fd8837b40922"},"vehicle_type_id":"4","last_reported":1768220839,"current_range_meters":8800,"station_id":"ce4bhch2rcd13ifvqeug","pricing_plan_id":"cebpf4jnsgd1na2vs0mg"},{"bike_id":"e88dc2b8-16b0-46e6-a4e1-b09322f34b27","system_id":"levelo_inurba_marseille","lat":43.32527,"lon":5.3647,"is_reserved":false,"is_disabled":false,"rental_uris":{"android":"levelo://app?vid=e88dc2b8-16b0-46e6-a4e1-b09322f34b27","ios":"levelo://app?vid=e88dc2b8-16b0-46e6-a4e1-b09322f34b27"},"vehicle_type_id":"4","last_reported":1768220839,"current_range_meters":8800,"station_id":"","pricing_plan_id":"cebpf4jnsgd1na2vs0mg"},{"bike_id":"4fe10ae3-44a7-4ccf-bca5-37f86bbc1dc3","system_id":"levelo_inurba_marseille","lat":43.309245,"lon":5.401752,"is_reserved":false,"is_disabled":false,"rental_uris":{"android":"levelo://app?vid=4fe10ae3-44a7-4ccf-bca5-37f86bbc1dc3","ios":"levelo://app?vid=4fe10ae3-44a7-4ccf-bca5-37f86bbc1dc3"},"vehicle_type_id":"4","last_reported":1768220839,"current_range_meters":8800,"station_id":"ce4bgvp2rcd13ifvqct0","pricing_plan_id":"cebpf4jnsgd1na2vs0mg"},{"bike_id":"6ccd0a7c-d978-4f54-a5a6-91c24f724d22","system_id":"levelo_inurba_marseille","lat":43.28252,"lon":5.35084,"is_reserved":false,"is_disabled":false,"rental_uris":{"android":"levelo://app?vid=6ccd0a7c-d978-4f54-a5a6-91c24f724d22","ios":"levelo://app?vid=6ccd0a7c-d978-4f54-a5a6-91c24f724d22"},"vehicle_type_id":"4","last_reported":1768220839,"current_range_meters":8800,"station_id":"ce4bhbp2rcd13ifvqerg","pricing_plan_id":"cebpf4jnsgd1na2vs0mg"},{"bike_id":"60fade31-777d-4fe8-8ebd-1c7b280b80b4","system_id":"levelo_inurba_marseille","lat":43.23531,"lon":5.35952,"is_reserved":false,"is_disabled":false,"rental_uris":{"android":"levelo://app?vid=60fade31-777d-4fe8-8ebd-1c7b280b80b4","ios":"levelo://app?vid=60fade31-777d-4fe8-8ebd-1c7b280b80b4"},"vehicle_type_id":"4","last_reported":1768220839,"current_range_meters":8800,"station_id":"","pricing_plan_id":"cebpf4jnsgd1na2vs0mg"},{"bike_id":"14633c52-4aad-4666-b2b6-e506aee2f3bc","system_id":"levelo_inurba_marseille","lat":43.25516,"lon":5.37659,"is_reserved":false,"is_disabled":false,"rental_uris":{"android":"levelo://app?vid=14633c52-4aad-4666-b2b6-e506aee2f3bc","ios":"levelo://app?vid=14633c52-4aad-4666-b2b6-e506aee2f3bc"},"vehicle_type_id":"4","last_reported":1768220839,"current_range_meters":8800,"station_id":"ce4bhh12rcd13ifvqff0","pricing_plan_id":"cebpf4jnsgd1na2vs0mg"},{"bike_id":"d9aa6db2-583e-49bd-87ec-f383ad3c7318","system_id":"levelo_inurba_marseille","lat":43.25574,"lon":5.38242,"is_reserved":false,"is_disabled":false,"rental_uris":{"android":"levelo://app?vid=d9aa6db2-583e-49bd-87ec-f383ad3c7318","ios":"levelo://app?vid=d9aa6db2-583e-49bd-87ec-f383ad3c7318"},"vehicle_type_id":"4","last_reported":1768220839,"current_range_meters":8800,"station_id":"ce4bhih2rcd13ifvqfs0","pricing_plan_id":"cebpf4jnsgd1na2vs0mg"},{"bike_id":"bda3e34b-cd73-4ed0-916a-acca04720cbe","system_id":"levelo_inurba_marseille","lat":43.26215,"lon":5.37932,"is_reserved":false,"is_disabled":true,"rental_uris":{"android":"levelo://app?vid=bda3e34b-cd73-4ed0-916a-acca04720cbe","ios":"levelo://app?vid=bda3e34b-cd73-4ed0-916a-acca04720cbe"},"vehicle_type_id":"4","last_reported":1768220839,"current_range_meters":8800,"station_id":"ce4bhjp2rcd13ifvqg90","pricing_plan_id":"cebpf4jnsgd1na2vs0mg"},{"bike_id":"b5ad4e8b-9197-4522-92c3-604273331829","system_id":"levelo_inurba_marseille","lat":43.323591,"lon":5.367445,"is_reserved":false,"is_disabled":false,"rental_uris":{"android":"levelo://app?vid=b5ad4e8b-9197-4522-92c3-604273331829","ios":"levelo://app?vid=b5ad4e8b-9197-4522-92c3-604273331829"},"vehicle_type_id":"4","last_reported":1768220839,"current_range_meters":8800,"station_id":"ce4bhsh2rcd13ifvqi2g","pricing_plan_id":"cebpf4jnsgd1na2vs0mg"},{"bike_id":"9566a0c9-dffe-4b99-818a-1657ea1bdefc","system_id":"levelo_inurba_marseille","lat":43.321129,"lon":5.367682,"is_reserved":false,"is_disabled":false,"rental_uris":{"android":"levelo://app?vid=9566a0c9-dffe-4b99-818a-1657ea1bdefc","ios":"levelo://app?vid=9566a0c9-dffe-4b99-818a-1657ea1bdefc"},"vehicle_type_id":"4","last_reported":1768220839,"current_range_meters":8800,"station_id":"ce4bhrh2rcd13ifvqhug","pricing_plan_id":"cebpf4jnsgd1na2vs0mg"},{"bike_id":"f417ccf2-e839-484b-883c-c1e5f62c7cfe","system_id":"levelo_inurba_marseille","lat":43.25872,"lon":5.39896,"is_reserved":false,"is_disabled":false,"rental_uris":{"android":"levelo://app?vid=f417ccf2-e839-484b-883c-c1e5f62c7cfe","ios":"levelo://app?vid=f417ccf2-e839-484b-883c-c1e5f62c7cfe"},"vehicle_type_id":"4","last_reported":1768220839,"current_range_meters":8800,"station_id":"ce4bhl92rcd13ifvqghg","pricing_plan_id":"cebpf4jnsgd1na2vs0mg"},{"bike_id":"1a5ac226-e09a-469e-9fd0-96b357aa4036","system_id":"levelo_inurba_marseille","lat":43.27966,"lon":5.38728,"is_reserved":false,"is_disabled":false,"rental_uris":{"android":"levelo://app?vid=1a5ac226-e09a-469e-9fd0-96b357aa4036","ios":"levelo://app?vid=1a5ac226-e09a-469e-9fd0-96b357aa4036"},"vehicle_type_id":"4","last_reported":1768220839,"current_range_meters":8800,"station_id":"ce4bhg12rcd13ifvqf80","pricing_plan_id":"cebpf4jnsgd1na2vs0mg"},{"bike_id":"30ef32cf-9a66-47a3-8503-0c915b8904e7","system_id":"levelo_inurba_marseille","lat":43.26523,"lon":5.37323,"is_reserved":false,"is_disabled":false,"rental_uris":{"android":"levelo://app?vid=30ef32cf-9a66-47a3-8503-0c915b8904e7","ios":"levelo://app?vid=30ef32cf-9a66-47a3-8503-0c915b8904e7"},"vehicle_type_id":"4","last_reported":1768220839,"current_range_meters":8800,"station_id":"ce4bhg12rcd13ifvqf70","pricing_plan_id":"cebpf4jnsgd1na2vs0mg"},{"bike_id":"8cc58e78-2609-40ef-8d5d-f294a62a1432","system_id":"levelo_inurba_marseille","lat":43.2417,"lon":5.36401,"is_reserved":false,"is_disabled":false,"rental_uris":{"android":"levelo://app?vid=8cc58e78-2609-40ef-8d5d-f294a62a1432","ios":"levelo://app?vid=8cc58e78-2609-40ef-8d5d-f294a62a1432"},"vehicle_type_id":"4","last_reported":1768220839,"current_range_meters":8800,"station_id":"cpo36qri1sfpv3e86is0","pricing_plan_id":"cebpf4jnsgd1na2vs0mg"},{"bike_id":"fec7a11b-8b18-4f8e-bb90-32df04a0160a","system_id":"levelo_inurba_marseille","lat":43.30147,"lon":5.38087,"is_reserved":false,"is_disabled":false,"rental_uris":{"android":"levelo://app?vid=fec7a11b-8b18-4f8e-bb90-32df04a0160a","ios":"levelo://app?vid=fec7a11b-8b18-4f8e-bb90-32df04a0160a"},"vehicle_type_id":"4","last_reported":1768220839,"current_range_meters":8800,"station_id":"ce4bgjp2rcd13ifvqbh0","pricing_plan_id":"cebpf4jnsgd1na2vs0mg"},{"bike_id":"afe6b74d-4c00-46fb-8159-e92d20ac6882","system_id":"levelo_inurba_marseille","lat":43.31285,"lon":5.38465,"is_reserved":false,"is_disabled":false,"rental_uris":{"android":"levelo://app?vid=afe6b74d-4c00-46fb-8159-e92d20ac6882","ios":"levelo://app?vid=afe6b74d-4c00-46fb-8159-e92d20ac6882"},"vehicle_type_id":"4","last_reported":1768220839,"current_range_meters":9200,"station_id":"","pricing_plan_id":"cebpf4jnsgd1na2vs0mg"},{"bike_id":"27b7fc98-4480-4444-a02b-4f98a16170ac","system_id":"levelo_inurba_marseille","lat":43.291896,"lon":5.357941,"is_reserved":false,"is_disabled":false,"rental_uris":{"android":"levelo://app?vid=27b7fc98-4480-4444-a02b-4f98a16170ac","ios":"levelo://app?vid=27b7fc98-4480-4444-a02b-4f98a16170ac"},"vehicle_type_id":"4","last_reported":1768220839,"current_range_meters":9200,"station_id":"ce4bhb12rcd13ifvqel0","pricing_plan_id":"cebpf4jnsgd1na2vs0mg"},{"bike_id":"3462251d-b955-4217-b84c-62132c2aa1ec","system_id":"levelo_inurba_marseille","lat":43.24163,"lon":5.36397,"is_reserved":false,"is_disabled":false,"rental_uris":{"android":"levelo://app?vid=3462251d-b955-4217-b84c-62132c2aa1ec","ios":"levelo://app?vid=3462251d-b955-4217-b84c-62132c2aa1ec"},"vehicle_type_id":"4","last_reported":1768220839,"current_range_meters":9200,"station_id":"cpo36qri1sfpv3e86is0","pricing_plan_id":"cebpf4jnsgd1na2vs0mg"},{"bike_id":"8ffc6a6a-c605-47a5-9b48-e04d1754c86e","system_id":"levelo_inurba_marseille","lat":43.28071,"lon":5.40705,"is_reserved":false,"is_disabled":false,"rental_uris":{"android":"levelo://app?vid=8ffc6a6a-c605-47a5-9b48-e04d1754c86e","ios":"levelo://app?vid=8ffc6a6a-c605-47a5-9b48-e04d1754c86e"},"vehicle_type_id":"4","last_reported":1768220839,"current_range_meters":9200,"station_id":"","pricing_plan_id":"cebpf4jnsgd1na2vs0mg"},{"bike_id":"806142aa-057c-4e12-94c7-713117008874","system_id":"levelo_inurba_marseille","lat":43.23961,"lon":5.36629,"is_reserved":false,"is_disabled":false,"rental_uris":{"android":"levelo://app?vid=806142aa-057c-4e12-94c7-713117008874","ios":"levelo://app?vid=806142aa-057c-4e12-94c7-713117008874"},"vehicle_type_id":"4","last_reported":1768220839,"current_range_meters":9200,"station_id":"ce4bhi12rcd13ifvqfp0","pricing_plan_id":"cebpf4jnsgd1na2vs0mg"},{"bike_id":"8283b3b6-ab9d-4995-83ec-916692eab7d5","system_id":"levelo_inurba_marseille","lat":43.27945,"lon":5.41031,"is_reserved":false,"is_disabled":false,"rental_uris":{"android":"levelo://app?vid=8283b3b6-ab9d-4995-83ec-916692eab7d5","ios":"levelo://app?vid=8283b3b6-ab9d-4995-83ec-916692eab7d5"},"vehicle_type_id":"4","last_reported":1768220839,"current_range_meters":9200,"station_id":"","pricing_plan_id":"cebpf4jnsgd1na2vs0mg"},{"bike_id":"8bbcb2ce-191c-41cc-b692-3ebf2a7f487f","system_id":"levelo_inurba_marseille","lat":43.26559,"lon":5.37296,"is_reserved":false,"is_disabled":false,"rental_uris":{"android":"levelo://app?vid=8bbcb2ce-191c-41cc-b692-3ebf2a7f487f","ios":"levelo://app?vid=8bbcb2ce-191c-41cc-b692-3ebf2a7f487f"},"vehicle_type_id":"4","last_reported":1768220839,"current_range_meters":9200,"station_id":"ce4bhg12rcd13ifvqf70","pricing_plan_id":"cebpf4jnsgd1na2vs0mg"},{"bike_id":"ce4e09a5-219a-4817-807f-82a8f5a458e9","system_id":"levelo_inurba_marseille","lat":43.29898,"lon":5.37797,"is_reserved":false,"is_disabled":false,"rental_uris":{"android":"levelo://app?vid=ce4e09a5-219a-4817-807f-82a8f5a458e9","ios":"levelo://app?vid=ce4e09a5-219a-4817-807f-82a8f5a458e9"},"vehicle_type_id":"4","last_reported":1768220839,"current_range_meters":9200,"station_id":"","pricing_plan_id":"cebpf4jnsgd1na2vs0mg"},{"bike_id":"784e1990-75dd-44de-ae58-fcc29019f8e2","system_id":"levelo_inurba_marseille","lat":43.27382,"lon":5.36257,"is_reserved":false,"is_disabled":false,"rental_uris":{"android":"levelo://app?vid=784e1990-75dd-44de-ae58-fcc29019f8e2","ios":"levelo://app?vid=784e1990-75dd-44de-ae58-fcc29019f8e2"},"vehicle_type_id":"4","last_reported":1768220839,"current_range_meters":9200,"station_id":"ce4bhbh2rcd13ifvqeo0","pricing_plan_id":"cebpf4jnsgd1na2vs0mg"},{"bike_id":"3fb59b37-5539-4129-81aa-6e5d75588597","system_id":"levelo_inurba_marseille","lat":43.250897,"lon":5.395231,"is_reserved":false,"is_disabled":false,"rental_uris":{"android":"levelo://app?vid=3fb59b37-5539-4129-81aa-6e5d75588597","ios":"levelo://app?vid=3fb59b37-5539-4129-81aa-6e5d75588597"},"vehicle_type_id":"4","last_reported":1768220839,"current_range_meters":9200,"station_id":"","pricing_plan_id":"cebpf4jnsgd1na2vs0mg"},{"bike_id":"185ecaf2-90c9-4fb6-b09d-a631a29cd50f","system_id":"levelo_inurba_marseille","lat":43.3015,"lon":5.38082,"is_reserved":false,"is_disabled":false,"rental_uris":{"android":"levelo://app?vid=185ecaf2-90c9-4fb6-b09d-a631a29cd50f","ios":"levelo://app?vid=185ecaf2-90c9-4fb6-b09d-a631a29cd50f"},"vehicle_type_id":"4","last_reported":1768220839,"current_range_meters":9200,"station_id":"ce4bgjp2rcd13ifvqbh0","pricing_plan_id":"cebpf4jnsgd1na2vs0mg"},{"bike_id":"be4d3841-b6ab-4e49-a592-260f9c6909a7","system_id":"levelo_inurba_marseille","lat":43.281995,"lon":5.405632,"is_reserved":false,"is_disabled":false,"rental_uris":{"android":"levelo://app?vid=be4d3841-b6ab-4e49-a592-260f9c6909a7","ios":"levelo://app?vid=be4d3841-b6ab-4e49-a592-260f9c6909a7"},"vehicle_type_id":"4","last_reported":1768220839,"current_range_meters":9200,"station_id":"","pricing_plan_id":"cebpf4jnsgd1na2vs0mg"},{"bike_id":"343dae66-a7dc-4831-a0b8-1225fba34d25","system_id":"levelo_inurba_marseille","lat":43.26237,"lon":5.40455,"is_reserved":false,"is_disabled":false,"rental_uris":{"android":"levelo://app?vid=343dae66-a7dc-4831-a0b8-1225fba34d25","ios":"levelo://app?vid=343dae66-a7dc-4831-a0b8-1225fba34d25"},"vehicle_type_id":"4","last_reported":1768220839,"current_range_meters":9200,"station_id":"ce4bhmh2rcd13ifvqgmg","pricing_plan_id":"cebpf4jnsgd1na2vs0mg"},{"bike_id":"2dc3a0ac-e79c-4a8f-aa09-4b3e95c0bad1","system_id":"levelo_inurba_marseille","lat":43.22583,"lon":5.41624,"is_reserved":false,"is_disabled":false,"rental_uris":{"android":"levelo://app?vid=2dc3a0ac-e79c-4a8f-aa09-4b3e95c0bad1","ios":"levelo://app?vid=2dc3a0ac-e79c-4a8f-aa09-4b3e95c0bad1"},"vehicle_type_id":"4","last_reported":1768220839,"current_range_meters":9200,"station_id":"st_d2o4gvlbi1j2169b742g","pricing_plan_id":"cebpf4jnsgd1na2vs0mg"},{"bike_id":"38467590-e1b1-4d62-afdd-3a676c2f2fc5","system_id":"levelo_inurba_marseille","lat":43.2317,"lon":5.35606,"is_reserved":false,"is_disabled":false,"rental_uris":{"android":"levelo://app?vid=38467590-e1b1-4d62-afdd-3a676c2f2fc5","ios":"levelo://app?vid=38467590-e1b1-4d62-afdd-3a676c2f2fc5"},"vehicle_type_id":"4","last_reported":1768220839,"current_range_meters":9200,"station_id":"ce4bhu92rcd13ifvqi70","pricing_plan_id":"cebpf4jnsgd1na2vs0mg"},{"bike_id":"6596cb90-601c-43f1-95e9-057cdb5dbd01","system_id":"levelo_inurba_marseille","lat":43.24082,"lon":5.3775,"is_reserved":false,"is_disabled":false,"rental_uris":{"android":"levelo://app?vid=6596cb90-601c-43f1-95e9-057cdb5dbd01","ios":"levelo://app?vid=6596cb90-601c-43f1-95e9-057cdb5dbd01"},"vehicle_type_id":"4","last_reported":1768220839,"current_range_meters":9600,"station_id":"ce4bhnp2rcd13ifvqgvg","pricing_plan_id":"cebpf4jnsgd1na2vs0mg"},{"bike_id":"b99cbea3-4b5c-46c6-90c3-fcfa05a94817","system_id":"levelo_inurba_marseille","lat":43.2417,"lon":5.36399,"is_reserved":false,"is_disabled":false,"rental_uris":{"android":"levelo://app?vid=b99cbea3-4b5c-46c6-90c3-fcfa05a94817","ios":"levelo://app?vid=b99cbea3-4b5c-46c6-90c3-fcfa05a94817"},"vehicle_type_id":"4","last_reported":1768220839,"current_range_meters":9600,"station_id":"cpo36qri1sfpv3e86is0","pricing_plan_id":"cebpf4jnsgd1na2vs0mg"},