{"last_updated":1746979827,"ttl":60,"version":"2.2","data":{"bikes":[{"bike_id":"b96e58df-a69b-494d-b729-0e498c2044ca","system_id":"levelo_inurba_marseille","lat":43.30262,"lon":5.4006,"is_reserved":false,"is_disabled":false,"rental_uris":{"android":"levelo://app?vid=b96e58df-a69b-494d-b729-0e498c2044ca","ios":"levelo://app?vid=b96e58df-a69b-494d-b729-0e498c2044ca"},"vehicle_type_id":"4","last_reported":1746979827,"current_range_meters":2800,"station_id":"ce4bgvh2rcd13ifvqcs0","pricing_plan_id":"cebpf4jnsgd1na2vs0mg"},{"bike_id":"f1e7120f-816a-4dc5-8b0e-2c0f518c3609","system_id":"levelo_inurba_marseille","lat":43.29711,"lon":5.36615,"is_reserved":false,"is_disabled":false,"rental_uris":{"android":"levelo://app?vid=f1e7120f-816a-4dc5-8b0e-2c0f518c3609","ios":"levelo://app?vid=f1e7120f-816a-4dc5-8b0e-2c0f518c3609"},"vehicle_type_id":"4","last_reported":1746979827,"current_range_meters":2800,"station_id":"ce4bgn12rcd13ifvqbt0","pricing_plan_id":"cebpf4jnsgd1na2vs0mg"},{"bike_id":"20d62d3a-f9ce-444c-ad20-a24efcb0537e","system_id":"levelo_inurba_marseille","lat":43.32007,"lon":5.38146,"is_reserved":false,"is_disabled":true,"rental_uris":{"android":"levelo://app?vid=20d62d3a-f9ce-444c-ad20-a24efcb0537e","ios":"levelo://app?vid=20d62d3a-f9ce-444c-ad20-a24efcb0537e"},"vehicle_type_id":"4","last_reported":1746979827,"current_range_meters":2800,"station_id":"ce4bhr12rcd13ifvqhpg","pricing_plan_id":"cebpf4jnsgd1na2vs0mg"},{"bike_id":"df39ca98-9252-4ddd-866a-23d9f482c501","system_id":"levelo_inurba_marseille","lat":43.286611,"lon":5.363432,"is_reserved":false,"is_disabled":true,"rental_uris":{"android":"levelo://app?vid=df39ca98-9252-4ddd-866a-23d9f482c501","ios":"levelo://app?vid=df39ca98-9252-4ddd-866a-23d9f482c501"},"vehicle_type_id":"4","last_reported":1746979827,"current_range_meters":3200,"station_id":"ce4bhah2rcd13ifvqej0","pricing_plan_id":"cebpf4jnsgd1na2vs0mg"},{"bike_id":"a2c63fe2-1a4c-4119-974b-15d485603b06","system_id":"levelo_inurba_marseille","lat":43.280704,"lon":5.368569,"is_reserved":false,"is_disabled":false,"rental_uris":{"android":"levelo://app?vid=a2c63fe2-1a4c-4119-974b-15d485603b06","ios":"levelo://app?vid=a2c63fe2-1a4c-4119-974b-15d485603b06"},"vehicle_type_id":"4","last_reported":1746979827,"current_range_meters":3200,"station_id":"","pricing_plan_id":"cebpf4jnsgd1na2vs0mg"},{"bike_id":"4abecfdf-019b-4468-8b66-b8b50eaa80ac","system_id":"levelo_inurba_marseille","lat":43.31039,"lon":5.37159,"is_reserved":false,"is_disabled":false,"rental_uris":{"android":"levelo://app?vid=4abecfdf-019b-4468-8b66-b8b50eaa80ac","ios":"levelo://app?vid=4abecfdf-019b-4468-8b66-b8b50eaa80ac"},"vehicle_type_id":"4","last_reported":1746979827,"current_range_meters":3200,"station_id":"","pricing_plan_id":"cebpf4jnsgd1na2vs0mg"},{"bike_id":"f0631f20-385b-4457-97b0-7a5756e83b8b","system_id":"levelo_inurba_marseille","lat":43.29002,"lon":5.35616,"is_reserved":false,"is_disabled":false,"rental_uris":{"android":"levelo://app?vid=f0631f20-385b-4457-97b0-7a5756e83b8b","ios":"levelo://app?vid=f0631f20-385b-4457-97b0-7a5756e83b8b"},"vehicle_type_id":"4","last_reported":1746979827,"current_range_meters":3200,"station_id":"ce4bhb92rcd13ifvqen0","pricing_plan_id":"cebpf4jnsgd1na2vs0mg"},{"bike_id":"5cb066f4-a21a-465c-9e3f-7469106c412d","system_id":"levelo_inurba_marseille","lat":43.30308,"lon":5.36897,"is_reserved":false,"is_disabled":false,"rental_uris":{"android":"levelo://app?vid=5cb066f4-a21a-465c-9e3f-7469106c412d","ios":"levelo://app?vid=5cb066f4-a21a-465c-9e3f-7469106c412d"},"vehicle_type_id":"4","last_reported":1746979827,"current_range_meters":6800,"station_id":"ce4bgqh2rcd13ifvqc5g","pricing_plan_id":"cebpf4jnsgd1na2vs0mg"},{"bike_id":"d49cb958-31fc-4efb-a0f1-b2fcb5ef742e","system_id":"levelo_inurba_marseille","lat":43.26189,"lon":5.374487,"is_reserved":false,"is_disabled":false,"rental_uris":{"android":"levelo://app?vid=d49cb958-31fc-4efb-a0f1-b2fcb5ef742e","ios":"levelo://app?vid=d49cb958-31fc-4efb-a0f1-b2fcb5ef742e"},"vehicle_type_id":"4","last_reported":1746979827,"current_range_meters":3600,"station_id":"ce4bhgp2rcd13ifvqfc0","pricing_plan_id":"cebpf4jnsgd1na2vs0mg"},{"bike_id":"1bf27557-74b3-43a9-aa73-e2657b864aaa","system_id":"levelo_inurba_marseille","lat":43.28267,"lon":5.35058,"is_reserved":false,"is_disabled":false,"rental_uris":{"android":"levelo://app?vid=1bf27557-74b3-43a9-aa73-e2657b864aaa","ios":"levelo://app?vid=1bf27557-74b3-43a9-aa73-e2657b864aaa"},"vehicle_type_id":"4","last_reported":1746979827,"current_range_meters":3600,"station_id":"ce4bhbp2rcd13ifvqerg","pricing_plan_id":"cebpf4jnsgd1na2vs0mg"},{"bike_id":"6d926ccd-1897-49aa-ad9e-278acb4882ab","system_id":"levelo_inurba_marseille","lat":43.26019,"lon":5.37548,"is_reserved":false,"is_disabled":false,"rental_uris":{"android":"levelo://app?vid=6d926ccd-1897-49aa-ad9e-278acb4882ab","ios":"levelo://app?vid=6d926ccd-1897-49aa-ad9e-278acb4882ab"},"vehicle_type_id":"4","last_reported":1746979827,"current_range_meters":4000,"station_id":"ce4bhgh2rcd13ifvqfa0","pricing_plan_id":"cebpf4jnsgd1na2vs0mg"},{"bike_id":"b02d3c45-c14f-4339-bb27-426479e784a8","system_id":"levelo_inurba_marseille","lat":43.30264,"lon":5.40072,"is_reserved":false,"is_disabled":false,"rental_uris":{"android":"levelo://app?vid=b02d3c45-c14f-4339-bb27-426479e784a8","ios":"levelo://app?vid=b02d3c45-c14f-4339-bb27-426479e784a8"},"vehicle_type_id":"4","last_reported":1746979827,"current_range_meters":4000,"station_id":"ce4bgvh2rcd13ifvqcs0","pricing_plan_id":"cebpf4jnsgd1na2vs0mg"},{"bike_id":"e45a1699-4f60-49c2-8624-b3478f76fe34","system_id":"levelo_inurba_marseille","lat":43.292323,"lon":5.360725,"is_reserved":false,"is_disabled":false,"rental_uris":{"android":"levelo://app?vid=e45a1699-4f60-49c2-8624-b3478f76fe34","ios":"levelo://app?vid=e45a1699-4f60-49c2-8624-b3478f76fe34"},"vehicle_type_id":"4","last_reported":1746979827,"current_range_meters":4400,"station_id":"ce4bhbh2rcd13ifvqeqg","pricing_plan_id":"cebpf4jnsgd1na2vs0mg"},{"bike_id":"3a4a7211-5a3c-4e4d-b0de-c619a1dfea5a","system_id":"levelo_inurba_marseille","lat":43.28999,"lon":5.35625,"is_reserved":false,"is_disabled":false,"rental_uris":{"android":"levelo://app?vid=3a4a7211-5a3c-4e4d-b0de-c619a1dfea5a","ios":"levelo://app?vid=3a4a7211-5a3c-4e4d-b0de-c619a1dfea5a"},"vehicle_type_id":"4","last_reported":1746979827,"current_range_meters":2800,"station_id":"ce4bhb92rcd13ifvqen0","pricing_plan_id":"cebpf4jnsgd1na2vs0mg"},{"bike_id":"c8871d60-de65-4dc9-8457-ca42730446e7","system_id":"levelo_inurba_marseille","lat":43.317553,"lon":5.387626,"is_reserved":false,"is_disabled":false,"rental_uris":{"android":"levelo://app?vid=c8871d60-de65-4dc9-8457-ca42730446e7","ios":"levelo://app?vid=c8871d60-de65-4dc9-8457-ca42730446e7"},"vehicle_type_id":"4","last_reported":1746979827,"current_range_meters":4400,"station_id":"","pricing_plan_id":"cebpf4jnsgd1na2vs0mg"},{"bike_id":"c13f6770-edfc-46b5-bb2d-9740a2cce6d4","system_id":"levelo_inurba_marseille","lat":43.255004,"lon":5.376459,"is_reserved":false,"is_disabled":true,"rental_uris":{"android":"levelo://app?vid=c13f6770-edfc-46b5-bb2d-9740a2cce6d4","ios":"levelo://app?vid=c13f6770-edfc-46b5-bb2d-9740a2cce6d4"},"vehicle_type_id":"4","last_reported":1746979827,"current_range_meters":4400,"station_id":"ce4bhh12rcd13ifvqff0","pricing_plan_id":"cebpf4jnsgd1na2vs0mg"},{"bike_id":"71972013-df6e-42a4-8862-4a97d8fd1219","system_id":"levelo_inurba_marseille","lat":43.29192,"lon":5.358,"is_reserved":false,"is_disabled":false,"rental_uris":{"android":"levelo://app?vid=71972013-df6e-42a4-8862-4a97d8fd1219","ios":"levelo://app?vid=71972013-df6e-42a4-8862-4a97d8fd1219"},"vehicle_type_id":"4","last_reported":1746979827,"current_range_meters":4800,"station_id":"ce4bhb12rcd13ifvqel0","pricing_plan_id":"cebpf4jnsgd1na2vs0mg"},{"bike_id":"4f39ef46-c182-492f-a9f2-8b71081efeff","system_id":"levelo_inurba_marseille","lat":43.25739,"lon":5.41133,"is_reserved":false,"is_disabled":false,"rental_uris":{"android":"levelo://app?vid=4f39ef46-c182-492f-a9f2-8b71081efeff","ios":"levelo://app?vid=4f39ef46-c182-492f-a9f2-8b71081efeff"},"vehicle_type_id":"4","last_reported":1746979827,"current_range_meters":4800,"station_id":"ce4bhkp2rcd13ifvqgd0","pricing_plan_id":"cebpf4jnsgd1na2vs0mg"},{"bike_id":"db60a015-3d56-4439-843a-71a3542ce221","system_id":"levelo_inurba_marseille","lat":43.28255,"lon":5.35047,"is_reserved":false,"is_disabled":false,"rental_uris":{"android":"levelo://app?vid=db60a015-3d56-4439-843a-71a3542ce221","ios":"levelo://app?vid=db60a015-3d56-4439-843a-71a3542ce221"},"vehicle_type_id":"4","last_reported":1746979827,"current_range_meters":4800,"station_id":"ce4bhbp2rcd13ifvqerg","pricing_plan_id":"cebpf4jnsgd1na2vs0mg"},{"bike_id":"00ac6899-e961-4326-8bea-7aaeb17427ae","system_id":"levelo_inurba_marseille","lat":43.28928,"lon":5.36628,"is_reserved":false,"is_disabled":false,"rental_uris":{"android":"levelo://app?vid=00ac6899-e961-4326-8bea-7aaeb17427ae","ios":"levelo://app?vid=00ac6899-e961-4326-8bea-7aaeb17427ae"},"vehicle_type_id":"4","last_reported":1746979827,"current_range_meters":5600,"station_id":"ce4bhap2rcd13ifvqek0","pricing_plan_id":"cebpf4jnsgd1na2vs0mg"},{"bike_id":"e233db95-dad8-4c99-a3c0-ddfbe03ea255","system_id":"levelo_inurba_marseille","lat":43.30333,"lon":5.40454,"is_reserved":false,"is_disabled":false,"rental_uris":{"android":"levelo://app?vid=e233db95-dad8-4c99-a3c0-ddfbe03ea255","ios":"levelo://app?vid=e233db95-dad8-4c99-a3c0-ddfbe03ea255"},"vehicle_type_id":"4","last_reported":1746979827,"current_range_meters":5600,"station_id":"ce4bh012rcd13ifvqd10","pricing_plan_id":"cebpf4jnsgd1na2vs0mg"},{"bike_id":"589b1aa9-fa32-43dc-9cfd-13b0aa07990e","system_id":"levelo_inurba_marseille","lat":43.29626,"lon":5.405643,"is_reserved":false,"is_disabled":false,"rental_uris":{"android":"levelo://app?vid=589b1aa9-fa32-43dc-9cfd-13b0aa07990e","ios":"levelo://app?vid=589b1aa9-fa32-43dc-9cfd-13b0aa07990e"},"vehicle_type_id":"4","last_reported":1746979827,"current_range_meters":5600,"station_id":"ce4bh0h2rcd13ifvqd60","pricing_plan_id":"cebpf4jnsgd1na2vs0mg"},{"bike_id":"06db2986-973f-4e14-952d-c6e1dbae0730","system_id":"levelo_inurba_marseille","lat":43.28267,"lon":5.35083,"is_reserved":false,"is_disabled":false,"rental_uris":{"android":"levelo://app?vid=06db2986-973f-4e14-952d-c6e1dbae0730","ios":"levelo://app?vid=06db2986-973f-4e14-952d-c6e1dbae0730"},"vehicle_type_id":"4","last_reported":1746979827,"current_range_meters":6400,"station_id":"ce4bhbp2rcd13ifvqerg","pricing_plan_id":"cebpf4jnsgd1na2vs0mg"},{"bike_id":"155d813a-9d96-4e56-8151-7263866d3819","system_id":"levelo_inurba_marseille","lat":43.24386,"lon":5.37056,"is_reserved":false,"is_disabled":false,"rental_uris":{"android":"levelo://app?vid=155d813a-9d96-4e56-8151-7263866d3819","ios":"levelo://app?vid=155d813a-9d96-4e56-8151-7263866d3819"},"vehicle_type_id":"4","last_reported":1746979827,"current_range_meters":0,"station_id":"ce4bhhh2rcd13ifvqfk0","pricing_plan_id":"cebpf4jnsgd1na2vs0mg"},{"bike_id":"f59eee9f-e758-4adf-b921-0d3cae8b2368","system_id":"levelo_inurba_marseille","lat":43.29264,"lon":5.37614,"is_reserved":false,"is_disabled":false,"rental_uris":{"android":"levelo://app?vid=f59eee9f-e758-4adf-b921-0d3cae8b2368","ios":"levelo://app?vid=f59eee9f-e758-4adf-b921-0d3cae8b2368"},"vehicle_type_id":"4","last_reported":1746979827,"current_range_meters":6400,"station_id":"ce4bgi12rcd13ifvqb80","pricing_plan_id":"cebpf4jnsgd1na2vs0mg"},{"bike_id":"77360d2c-d96a-4b4f-93d6-42e358e2be69","system_id":"levelo_inurba_marseille","lat":43.26555,"lon":5.37282,"is_reserved":false,"is_disabled":false,"rental_uris":{"android":"levelo://app?vid=77360d2c-d96a-4b4f-93d6-42e358e2be69","ios":"levelo://app?vid=77360d2c-d96a-4b4f-93d6-42e358e2be69"},"vehicle_type_id":"4","last_reported":1746979827,"current_range_meters":6400,"station_id":"ce4bhg12rcd13ifvqf70","pricing_plan_id":"cebpf4jnsgd1na2vs0mg"},{"bike_id":"814c300d-d261-4866-b022-44e7c5159380","system_id":"levelo_inurba_marseille","lat":43.24164,"lon":5.363983,"is_reserved":false,"is_disabled":true,"rental_uris":{"android":"levelo://app?vid=814c300d-d261-4866-b022-44e7c5159380","ios":"levelo://app?vid=814c300d-d261-4866-b022-44e7c5159380"},"vehicle_type_id":"4","last_reported":1746979827,"current_range_meters":6400,"station_id":"cpo36qri1sfpv3e86is0","pricing_plan_id":"cebpf4jnsgd1na2vs0mg"},{"bike_id":"b07c3576-77ee-49cd-bd12-6cba331ee523","system_id":"levelo_inurba_marseille","lat":43.29032,"lon":5.3562,"is_reserved":false,"is_disabled":true,"rental_uris":{"android":"levelo://app?vid=b07c3576-77ee-49cd-bd12-6cba331ee523","ios":"levelo://app?vid=b07c3576-77ee-49cd-bd12-6cba331ee523"},"vehicle_type_id":"4","last_reported":1746979827,"current_range_meters":6400,"station_id":"ce4bhb92rcd13ifvqen0","pricing_plan_id":"cebpf4jnsgd1na2vs0mg"},{"bike_id":"3729a250-0013-4eef-8d3a-f52d925c35f8","system_id":"levelo_inurba_marseille","lat":43.26576,"lon":5.3902,"is_reserved":false,"is_disabled":false,"rental_uris":{"android":"levelo://app?vid=3729a250-0013-4eef-8d3a-f52d925c35f8","ios":"levelo://app?vid=3729a250-0013-4eef-8d3a-f52d925c35f8"},"vehicle_type_id":"4","last_reported":1746979827,"current_range_meters":6400,"station_id":"ce4bhe12rcd13ifvqf30","pricing_plan_id":"cebpf4jnsgd1na2vs0mg"},{"bike_id":"ac735ebe-0a79-4ac5-8c3a-206119f61259","system_id":"levelo_inurba_marseille","lat":43.30193,"lon":5.36619,"is_reserved":false,"is_disabled":false,"rental_uris":{"android":"levelo://app?vid=ac735ebe-0a79-4ac5-8c3a-206119f61259","ios":"levelo://app?vid=ac735ebe-0a79-4ac5-8c3a-206119f61259"},"vehicle_type_id":"4","last_reported":1746979827,"current_range_meters":6400,"station_id":"ce4bgrh2rcd13ifvqc8g","pricing_plan_id":"cebpf4jnsgd1na2vs0mg"},{"bike_id":"a17f39b2-f822-4772-969b-c57dfc2c4d64","system_id":"levelo_inurba_marseille","lat":43.28835,"lon":5.358663,"is_reserved":false,"is_disabled":false,"rental_uris":{"android":"levelo://app?vid=a17f39b2-f822-4772-969b-c57dfc2c4d64","ios":"levelo://app?vid=a17f39b2-f822-4772-969b-c57dfc2c4d64"},"vehicle_type_id":"4","last_reported":1746979827,"current_range_meters":6400,"station_id":"ce4bgi92rcd13ifvqb90","pricing_plan_id":"cebpf4jnsgd1na2vs0mg"},{"bike_id":"0fa0ee9e-075d-4b83-bdc1-7aa1ce2767aa","system_id":"levelo_inurba_marseille","lat":43.28362,"lon":5.38627,"is_reserved":false,"is_disabled":false,"rental_uris":{"android":"levelo://app?vid=0fa0ee9e-075d-4b83-bdc1-7aa1ce2767aa","ios":"levelo://app?vid=0fa0ee9e-075d-4b83-bdc1-7aa1ce2767aa"},"vehicle_type_id":"4","last_reported":1746979827,"current_range_meters":6400,"station_id":"ce4bh492rcd13ifvqdvg","pricing_plan_id":"cebpf4jnsgd1na2vs0mg"},{"bike_id":"bc9439ed-dbf0-437f-af84-e57507bc4e30","system_id":"levelo_inurba_marseille","lat":43.26556,"lon":5.37289,"is_reserved":false,"is_disabled":false,"rental_uris":{"android":"levelo://app?vid=bc9439ed-dbf0-437f-af84-e57507bc4e30","ios":"levelo://app?vid=bc9439ed-dbf0-437f-af84-e57507bc4e30"},"vehicle_type_id":"4","last_reported":1746979827,"current_range_meters":6400,"station_id":"ce4bhg12rcd13ifvqf70","pricing_plan_id":"cebpf4jnsgd1na2vs0mg"},{"bike_id":"aef513b6-9202-4217-afcc-fcc8ec204d71","system_id":"levelo_inurba_marseille","lat":43.2827,"lon":5.35055,"is_reserved":false,"is_disabled":false,"rental_uris":{"android":"levelo://app?vid=aef513b6-9202-4217-afcc-fcc8ec204d71","ios":"levelo://app?vid=aef513b6-9202-4217-afcc-fcc8ec204d71"},"vehicle_type_id":"4","last_reported":1746979827,"current_range_meters":6400,"station_id":"ce4bhbp2rcd13ifvqerg","pricing_plan_id":"cebpf4jnsgd1na2vs0mg"},{"bike_id":"883f6a65-d749-4101-967a-931dbee5c30d","system_id":"levelo_inurba_marseille","lat":43.298392,"lon":5.362709,"is_reserved":false,"is_disabled":false,"rental_uris":{"android":"levelo://app?vid=883f6a65-d749-4101-967a-931dbee5c30d","ios":"levelo://app?vid=883f6a65-d749-4101-967a-931dbee5c30d"},"vehicle_type_id":"4","last_reported":1746979827,"current_range_meters":6400,"station_id":"ce4bgpp2rcd13ifvqc3g","pricing_plan_id":"cebpf4jnsgd1na2vs0mg"},{"bike_id":"9aeffb12-123b-4c06-9eef-a994f114051e","system_id":"levelo_inurba_marseille","lat":43.24166,"lon":5.3639,"is_reserved":false,"is_disabled":false,"rental_uris":{"android":"levelo://app?vid=9aeffb12-123b-4c06-9eef-a994f114051e","ios":"levelo://app?vid=9aeffb12-123b-4c06-9eef-a994f114051e"},"vehicle_type_id":"4","last_reported":1746979827,"current_range_meters":6400,"station_id":"cpo36qri1sfpv3e86is0","pricing_plan_id":"cebpf4jnsgd1na2vs0mg"},{"bike_id":"19b25a0e-718e-484c-b273-f0dcb738896c","system_id":"levelo_inurba_marseille","lat":43.28997,"lon":5.35643,"is_reserved":false,"is_disabled":true,"rental_uris":{"android":"levelo://app?vid=19b25a0e-718e-484c-b273-f0dcb738896c","ios":"levelo://app?vid=19b25a0e-718e-484c-b273-f0dcb738896c"},"vehicle_type_id":"4","last_reported":1746979827,"current_range_meters":6400,"station_id":"ce4bhb92rcd13ifvqen0","pricing_plan_id":"cebpf4jnsgd1na2vs0mg"},{"bike_id":"b4626043-4e62-4e08-8f06-77505dbb1458","system_id":"levelo_inurba_marseille","lat":43.23089,"lon":5.43599,"is_reserved":false,"is_disabled":false,"rental_uris":{"android":"levelo://app?vid=b4626043-4e62-4e08-8f06-77505dbb1458","ios":"levelo://app?vid=b4626043-4e62-4e08-8f06-77505dbb1458"},"vehicle_type_id":"4","last_reported":1746979827,"current_range_meters":6800,"station_id":"","pricing_plan_id":"cebpf4jnsgd1na2vs0mg"},{"bike_id":"aedac110-9a80-4055-b3bc-6fbbff4ed0bc","system_id":"levelo_inurba_marseille","lat":43.31723,"lon":5.37239,"is_reserved":false,"is_disabled":false,"rental_uris":{"android":"levelo://app?vid=aedac110-9a80-4055-b3bc-6fbbff4ed0bc","ios":"levelo://app?vid=aedac110-9a80-4055-b3bc-6fbbff4ed0bc"},"vehicle_type_id":"4","last_reported":1746979827,"current_range_meters":6800,"station_id":"","pricing_plan_id":"cebpf4jnsgd1na2vs0mg"},{"bike_id":"53fca63f-4dbe-431a-a066-c4a3c0234180","system_id":"levelo_inurba_marseille","lat":43.272141,"lon":5.410526,"is_reserved":false,"is_disabled":false,"rental_uris":{"android":"levelo://app?vid=53fca63f-4dbe-431a-a066-c4a3c0234180","ios":"levelo://app?vid=53fca63f-4dbe-431a-a066-c4a3c0234180"},"vehicle_type_id":"4","last_reported":1746979827,"current_range_meters":6800,"station_id":"ce4bhl12rcd13ifvqgf0","pricing_plan_id":"cebpf4jnsgd1na2vs0mg"},{"bike_id":"4d95bb63-99b0-42b3-854e-f3a2f3893882","system_id":"levelo_inurba_marseille","lat":43.31416,"lon":5.37591,"is_reserved":false,"is_disabled":false,"rental_uris":{"android":"levelo://app?vid=4d95bb63-99b0-42b3-854e-f3a2f3893882","ios":"levelo://app?vid=4d95bb63-99b0-42b3-854e-f3a2f3893882"},"vehicle_type_id":"4","last_reported":1746979827,"current_range_meters":7200,"station_id":"","pricing_plan_id":"cebpf4jnsgd1na2vs0mg"},{"bike_id":"c73ffbac-7172-47aa-a0bf-dc19ece191cd","system_id":"levelo_inurba_marseille","lat":43.28275,"lon":5.3509,"is_reserved":false,"is_disabled":false,"rental_uris":{"android":"levelo://app?vid=c73ffbac-7172-47aa-a0bf-dc19ece191cd","ios":"levelo://app?vid=c73ffbac-7172-47aa-a0bf-dc19ece191cd"},"vehicle_type_id":"4","last_reported":1746979827,"current_range_meters":7200,"station_id":"ce4bhbp2rcd13ifvqerg","pricing_plan_id":"cebpf4jnsgd1na2vs0mg"},{"bike_id":"a2514267-4fd8-409f-be6c-38268e63cec1","system_id":"levelo_inurba_marseille","lat":43.28359,"lon":5.38126,"is_reserved":false,"is_disabled":true,"rental_uris":{"android":"levelo://app?vid=a2514267-4fd8-409f-be6c-38268e63cec1","ios":"levelo://app?vid=a2514267-4fd8-409f-be6c-38268e63cec1"},"vehicle_type_id":"4","last_reported":1746979827,"current_range_meters":7200,"station_id":"ce4bh412rcd13ifvqdr0","pricing_plan_id":"cebpf4jnsgd1na2vs0mg"},{"bike_id":"b666ea7d-cc48-4755-9ebc-434c5f8fa50e","system_id":"levelo_inurba_marseille","lat":43.27612,"lon":5.3611,"is_reserved":false,"is_disabled":false,"rental_uris":{"android":"levelo://app?vid=b666ea7d-cc48-4755-9ebc-434c5f8fa50e","ios":"levelo://app?vid=b666ea7d-cc48-4755-9ebc-434c5f8fa50e"},"vehicle_type_id":"4","last_reported":1746979827,"current_range_meters":7200,"station_id":"ce4bgj92rcd13ifvqbe0","pricing_plan_id":"cebpf4jnsgd1na2vs0mg"},{"bike_id":"d2032ed6-5759-4405-882d-16b5408c8bf2","system_id":"levelo_inurba_marseille","lat":43.32484,"lon":5.36584,"is_reserved":false,"is_disabled":false,"rental_uris":{"android":"levelo://app?vid=d2032ed6-5759-4405-882d-16b5408c8bf2","ios":"levelo://app?vid=d2032ed6-5759-4405-882d-16b5408c8bf2"},"vehicle_type_id":"4","last_reported":1746979827,"current_range_meters":7200,"station_id":"ce4bhs12rcd13ifvqhvg","pricing_plan_id":"cebpf4jnsgd1na2vs0mg"},{"bike_id":"7fc8b844-3ebc-406b-97bd-7632b2b80dba","system_id":"levelo_inurba_marseille","lat":43.28422,"lon":5.34992,"is_reserved":false,"is_disabled":false,"rental_uris":{"android":"levelo://app?vid=7fc8b844-3ebc-406b-97bd-7632b2b80dba","ios":"levelo://app?vid=7fc8b844-3ebc-406b-97bd-7632b2b80dba"},"vehicle_type_id":"4","last_reported":1746979827,"current_range_meters":7200,"station_id":"ce4bhbh2rcd13ifvqepg","pricing_plan_id":"cebpf4jnsgd1na2vs0mg"},{"bike_id":"eb8057a9-6e37-49b6-bed9-3bbe021bbf8e","system_id":"levelo_inurba_marseille","lat":43.28412,"lon":5.34987,"is_reserved":false,"is_disabled":false,"rental_uris":{"android":"levelo://app?vid=eb8057a9-6e37-49b6-bed9-3bbe021bbf8e","ios":"levelo://app?vid=eb8057a9-6e37-49b6-bed9-3bbe021bbf8e"},"vehicle_type_id":"4","last_reported":1746979827,"current_range_meters":8000,"station_id":"ce4bhbh2rcd13ifvqepg","pricing_plan_id":"cebpf4jnsgd1na2vs0mg"},{"bike_id":"22359f1f-58db-4492-942f-814ad8f4ee11","system_id":"levelo_inurba_marseille","lat":43.295288,"lon":5.38554,"is_reserved":false,"is_disabled":false,"rental_uris":{"android":"levelo://app?vid=22359f1f-58db-4492-942f-814ad8f4ee11","ios":"levelo://app?vid=22359f1f-58db-4492-942f-814ad8f4ee11"},"vehicle_type_id":"4","last_reported":1746979827,"current_range_meters":8000,"station_id":"ce4bgih2rcd13ifvqba0","pricing_plan_id":"cebpf4jnsgd1na2vs0mg"},{"bike_id":"90699213-8274-436f-bb67-aab198828d40","system_id":"levelo_inurba_marseille","lat":43.32371,"lon":5.40631,"is_reserved":false,"is_disabled":false,"rental_uris":{"android":"levelo://app?vid=90699213-8274-436f-bb67-aab198828d40","ios":"levelo://app?vid=90699213-8274-436f-bb67-aab198828d40"},"vehicle_type_id":"4","last_reported":1746979827,"current_range_meters":8000,"station_id":"ce4bhq92rcd13ifvqhjg","pricing_plan_id":"cebpf4jnsgd1na2vs0mg"},{"bike_id":"4dbf8074-d12c-4117-ab6d-8931c5d0928f","system_id":"levelo_inurba_marseille","lat":43.27367,"lon":5.36248,"is_reserved":false,"is_disabled":false,"rental_uris":{"android":"levelo://app?vid=4dbf8074-d12c-4117-ab6d-8931c5d0928f","ios":"levelo://app?vid=4dbf8074-d12c-4117-ab6d-8931c5d0928f"},"vehicle_type_id":"4","last_reported":1746979827,"current_range_meters":8000,"station_id":"ce4bhbh2rcd13ifvqeo0","pricing_plan_id":"cebpf4jnsgd1na2vs0mg"},{"bike_id":"d5b667dd-1931-4e3c-94fb-3cfcb7eb0a7e","system_id":"levelo_inurba_marseille","lat":43.29521,"lon":5.39395,"is_reserved":false,"is_disabled":false,"rental_uris":{"android":"levelo://app?vid=d5b667dd-1931-4e3c-94fb-3cfcb7eb0a7e","ios":"levelo://app?vid=d5b667dd-1931-4e3c-94fb-3cfcb7eb0a7e"},"vehicle_type_id":"4","last_reported":1746979827,"current_range_meters":8800,"station_id":"ce4bh292rcd13ifvqdf0","pricing_plan_id":"cebpf4jnsgd1na2vs0mg"},{"bike_id":"055360b7-3226-4f50-821f-c1791277a616","system_id":"levelo_inurba_marseille","lat":43.26829,"lon":5.40254,"is_reserved":false,"is_disabled":false,"rental_uris":{"android":"levelo://app?vid=055360b7-3226-4f50-821f-c1791277a616","ios":"levelo://app?vid=055360b7-3226-4f50-821f-c1791277a616"},"vehicle_type_id":"4","last_reported":1746979827,"current_range_meters":8400,"station_id":"ce501612rcd8frsf0b60","pricing_plan_id":"cebpf4jnsgd1na2vs0mg"},{"bike_id":"091b2495-8506-43b4-b374-57e577b837c4","system_id":"levelo_inurba_marseille","lat":43.25114,"lon":5.4033,"is_reserved":false,"is_disabled":false,"rental_uris":{"android":"levelo://app?vid=091b2495-8506-43b4-b374-57e577b837c4","ios":"levelo://app?vid=091b2495-8506-43b4-b374-57e577b837c4"},"vehicle_type_id":"4","last_reported":1746979827,"current_range_meters":8800,"station_id":"ce4bhlh2rcd13ifvqgig","pricing_plan_id":"cebpf4jnsgd1na2vs0mg"},{"bike_id":"48b73517-8a40-4b3f-aad3-968dd3319f04","system_id":"levelo_inurba_marseille","lat":43.31703,"lon":5.43691,"is_reserved":false,"is_disabled":false,"rental_uris":{"android":"levelo://app?vid=48b73517-8a40-4b3f-aad3-968dd3319f04","ios":"levelo://app?vid=48b73517-8a40-4b3f-aad3-968dd3319f04"},"vehicle_type_id":"4","last_reported":1746979827,"current_range_meters":8800,"station_id":"ce4bhp92rcd13ifvqhcg","pricing_plan_id":"cebpf4jnsgd1na2vs0mg"},{"bike_id":"f1f47090-376e-489a-b9ad-7bf5f4813c6a","system_id":"levelo_inurba_marseille","lat":43.29747,"lon":5.37695,"is_reserved":false,"is_disabled":true,"rental_uris":{"android":"levelo://app?vid=f1f47090-376e-489a-b9ad-7bf5f4813c6a","ios":"levelo://app?vid=f1f47090-376e-489a-b9ad-7bf5f4813c6a"},"vehicle_type_id":"4","last_reported":1746979827,"current_range_meters":8800,"station_id":"ce4bgkh2rcd13ifvqbl0","pricing_plan_id":"cebpf4jnsgd1na2vs0mg"},{"bike_id":"7f809b37-7e47-4605-a692-023a2ad7e5f6","system_id":"levelo_inurba_marseille","lat":43.26022,"lon":5.37554,"is_reserved":false,"is_disabled":false,"rental_uris":{"android":"levelo://app?vid=7f809b37-7e47-4605-a692-023a2ad7e5f6","ios":"levelo://app?vid=7f809b37-7e47-4605-a692-023a2ad7e5f6"},"vehicle_type_id":"4","last_reported":1746979827,"current_range_meters":8800,"station_id":"ce4bhgh2rcd13ifvqfa0","pricing_plan_id":"cebpf4jnsgd1na2vs0mg"},{"bike_id":"19e2ac8c-18d0-494d-941a-ea3b37b70677","system_id":"levelo_inurba_marseille","lat":43.29004,"lon":5.35618,"is_reserved":false,"is_disabled":false,"rental_uris":{"android":"levelo://app?vid=19e2ac8c-18d0-494d-941a-ea3b37b70677","ios":"levelo://app?vid=19e2ac8c-18d0-494d-941a-ea3b37b70677"},"vehicle_type_id":"4","last_reported":1746979827,"current_range_meters":8800,"station_id":"ce4bhb92rcd13ifvqen0","pricing_plan_id":"cebpf4jnsgd1na2vs0mg"},{"bike_id":"de407930-1ec3-425d-b82c-31e3ea2c62a0","system_id":"levelo_inurba_marseille","lat":43.25045,"lon":5.37546,"is_reserved":false,"is_disabled":false,"rental_uris":{"android":"levelo://app?vid=de407930-1ec3-425d-b82c-31e3ea2c62a0","ios":"levelo://app?vid=de407930-1ec3-425d-b82c-31e3ea2c62a0"},"vehicle_type_id":"4","last_reported":1746979827,"current_range_meters":9200,"station_id":"","pricing_plan_id":"cebpf4jnsgd1na2vs0mg"},{"bike_id":"3aa75863-fce6-4b94-9f5b-9c0ad58d1acf","system_id":"levelo_inurba_marseille","lat":43.24182,"lon":5.3643,"is_reserved":false,"is_disabled":false,"rental_uris":{"android":"levelo://app?vid=3aa75863-fce6-4b94-9f5b-9c0ad58d1acf","ios":"levelo://app?vid=3aa75863-fce6-4b94-9f5b-9c0ad58d1acf"},"vehicle_type_id":"4","last_reported":1746979827,"current_range_meters":9200,"station_id":"cpo36qri1sfpv3e86is0","pricing_plan_id":"cebpf4jnsgd1na2vs0mg"},{"bike_id":"910f58e1-bc11-4d4a-be16-a826726f8216","system_id":"levelo_inurba_marseille","lat":43.29046,"lon":5.3588,"is_reserved":false,"is_disabled":true,"rental_uris":{"android":"levelo://app?vid=910f58e1-bc11-4d4a-be16-a826726f8216","ios":"levelo://app?vid=910f58e1-bc11-4d4a-be16-a826726f8216"},"vehicle_type_id":"4","last_reported":1746979827,"current_range_meters":9200,"station_id":"ce4bha92rcd13ifvqeg0","pricing_plan_id":"cebpf4jnsgd1na2vs0mg"},{"bike_id":"093772c5-fb44-482c-a0c3-8501aa31b989","system_id":"levelo_inurba_marseille","lat":43.29897,"lon":5.43671,"is_reserved":false,"is_disabled":false,"rental_uris":{"android":"levelo://app?vid=093772c5-fb44-482c-a0c3-8501aa31b989","ios":"levelo://app?vid=093772c5-fb44-482c-a0c3-8501aa31b989"},"vehicle_type_id":"4","last_reported":1746979827,"current_range_meters":9200,"station_id":"ce4bhpp2rcd13ifvqhfg","pricing_plan_id":"cebpf4jnsgd1na2vs0mg"},{"bike_id":"fc2577e7-1497-425b-9d4f-ab8d7dc843c6","system_id":"levelo_inurba_marseille","lat":43.33771,"lon":5.37485,"is_reserved":false,"is_disabled":false,"rental_uris":{"android":"levelo://app?vid=fc2577e7-1497-425b-9d4f-ab8d7dc843c6","ios":"levelo://app?vid=fc2577e7-1497-425b-9d4f-ab8d7dc843c6"},"vehicle_type_id":"4","last_reported":1746979827,"current_range_meters":9600,"station_id":"","pricing_plan_id":"cebpf4jnsgd1na2vs0mg"},{"bike_id":"cf06a58c-6b90-4ee6-b7ff-5b33ec523703","system_id":"levelo_inurba_marseille","lat":43.28597,"lon":5.41322,"is_reserved":false,"is_disabled":false,"rental_uris":{"android":"levelo://app?vid=cf06a58c-6b90-4ee6-b7ff-5b33ec523703","ios":"levelo://app?vid=cf06a58c-6b90-4ee6-b7ff-5b33ec523703"},"vehicle_type_id":"4","last_reported":1746979827,"current_range_meters":9600,"station_id":"","pricing_plan_id":"cebpf4jnsgd1na2vs0mg"},{"bike_id":"60be0a26-87f5-4fda-a138-f01ad11619f2","system_id":"levelo_inurba_marseille","lat":43.31081,"lon":5.42425,"is_reserved":false,"is_disabled":false,"rental_uris":{"android":"levelo://app?vid=60be0a26-87f5-4fda-a138-f01ad11619f2","ios":"levelo://app?vid=60be0a26-87f5-4fda-a138-f01ad11619f2"},"vehicle_type_id":"4","last_reported":1746979827,"current_range_meters":9600,"station_id":"ce4bhp92rcd13ifvqhag","pricing_plan_id":"cebpf4jnsgd1na2vs0mg"},{"bike_id":"9764053b-c3be-4735-bc89-2f8d76d0e7b6","system_id":"levelo_inurba_marseille","lat":43.27367,"lon":5.36252,"is_reserved":false,"is_disabled":false,"rental_uris":{"android":"levelo://app?vid=9764053b-c3be-4735-bc89-2f8d76d0e7b6","ios":"levelo://app?vid=9764053b-c3be-4735-bc89-2f8d76d0e7b6"},"vehicle_type_id":"4","last_reported":1746979827,"current_range_meters":9600,"station_id":"ce4bhbh2rcd13ifvqeo0","pricing_plan_id":"cebpf4jnsgd1na2vs0mg"},{"bike_id":"0f6b0e15-0881-4869-8149-be6704719908","system_id":"levelo_inurba_marseille","lat":43.30317,"lon":5.40468,"is_reserved":false,"is_disabled":false,"rental_uris":{"android":"levelo://app?vid=0f6b0e15-0881-4869-8149-be6704719908","ios":"levelo://app?vid=0f6b0e15-0881-4869-8149-be6704719908"},"vehicle_type_id":"4","last_reported":1746979827,"current_range_meters":9600,"station_id":"ce4bh012rcd13ifvqd10","pricing_plan_id":"cebpf4jnsgd1na2vs0mg"},{"bike_id":"771cabe0-f6cb-4aac-863c-554f84f4ca63","system_id":"levelo_inurba_marseille","lat":43.28285,"lon":5.35115,"is_reserved":false,"is_disabled":false,"rental_uris":{"android":"levelo://app?vid=771cabe0-f6cb-4aac-863c-554f84f4ca63","ios":"levelo://app?vid=771cabe0-f6cb-4aac-863c-554f84f4ca63"},"vehicle_type_id":"4","last_reported":1746979827,"current_range_meters":10000,"station_id":"","pricing_plan_id":"cebpf4jnsgd1na2vs0mg"},{"bike_id":"2798e3d5-2366-4b14-9fc1-fe19e37566fe","system_id":"levelo_inurba_marseille","lat":43.28415,"lon":5.34974,"is_reserved":false,"is_disabled":false,"rental_uris":{"android":"levelo://app?vid=2798e3d5-2366-4b14-9fc1-fe19e37566fe","ios":"levelo://app?vid=2798e3d5-2366-4b14-9fc1-fe19e37566fe"},"vehicle_type_id":"4","last_reported":1746979827,"current_range_meters":10000,"station_id":"ce4bhbh2rcd13ifvqepg","pricing_plan_id":"cebpf4jnsgd1na2vs0mg"},{"bike_id":"b910d0ca-82df-4dfa-bfb0-6907e68e5894","system_id":"levelo_inurba_marseille","lat":43.29254,"lon":5.40904,"is_reserved":false,"is_disabled":false,"rental_uris":{"android":"levelo://app?vid=b910d0ca-82df-4dfa-bfb0-6907e68e5894","ios":"levelo://app?vid=b910d0ca-82df-4dfa-bfb0-6907e68e5894"},"vehicle_type_id":"4","last_reported":1746979827,"current_range_meters":12000,"station_id":"ce4bh192rcd13ifvqdc0","pricing_plan_id":"cebpf4jnsgd1na2vs0mg"},{"bike_id":"4e752021-361b-4f5b-8feb-4eb1792b1b3d","system_id":"levelo_inurba_marseille","lat":43.30388,"lon":5.36746,"is_reserved":false,"is_disabled":false,"rental_uris":{"android":"levelo://app?vid=4e752021-361b-4f5b-8feb-4eb1792b1b3d","ios":"levelo://app?vid=4e752021-361b-4f5b-8feb-4eb1792b1b3d"},"vehicle_type_id":"4","last_reported":1746979827,"current_range_meters":10000,"station_id":"","pricing_plan_id":"cebpf4jnsgd1na2vs0mg"},{"bike_id":"d897ae5a-305a-4dfe-9639-e8ab90ae791e","system_id":"levelo_inurba_marseille","lat":43.23155,"lon":5.43723,"is_reserved":false,"is_disabled":false,"rental_uris":{"android":"levelo://app?vid=d897ae5a-305a-4dfe-9639-e8ab90ae791e","ios":"levelo://app?vid=d897ae5a-305a-4dfe-9639-e8ab90ae791e"},"vehicle_type_id":"4","last_reported":1746979827,"current_range_meters":10000,"station_id":"ce4bhmp2rcd13ifvqgog","pricing_plan_id":"cebpf4jnsgd1na2vs0mg"},{"bike_id":"5d616a98-f6a1-4789-a02d-abb0d20dd49c","system_id":"levelo_inurba_marseille","lat":43.23244,"lon":5.39992,"is_reserved":false,"is_disabled":true,"rental_uris":{"android":"levelo://app?vid=5d616a98-f6a1-4789-a02d-abb0d20dd49c","ios":"levelo://app?vid=5d616a98-f6a1-4789-a02d-abb0d20dd49c"},"vehicle_type_id":"4","last_reported":1746979827,"current_range_meters":10000,"station_id":"ce4bhn12rcd13ifvqgqg","pricing_plan_id":"cebpf4jnsgd1na2vs0mg"},{"bike_id":"5074160f-fd3c-4ff5-8b26-8f97977d264e","system_id":"levelo_inurba_marseille","lat":43.297853,"lon":5.381027,"is_reserved":false,"is_disabled":true,"rental_uris":{"android":"levelo://app?vid=5074160f-fd3c-4ff5-8b26-8f97977d264e","ios":"levelo://app?vid=5074160f-fd3c-4ff5-8b26-8f97977d264e"},"vehicle_type_id":"4","last_reported":1746979827,"current_range_meters":10000,"station_id":"ce4bgip2rcd13ifvqbb0","pricing_plan_id":"cebpf4jnsgd1na2vs0mg"},{"bike_id":"6d705489-d3d5-4e12-a28e-5d7bb8b109f3","system_id":"levelo_inurba_marseille","lat":43.26845,"lon":5.42763,"is_reserved":false,"is_disabled":false,"rental_uris":{"android":"levelo://app?vid=6d705489-d3d5-4e12-a28e-5d7bb8b109f3","ios":"levelo://app?vid=6d705489-d3d5-4e12-a28e-5d7bb8b109f3"},"vehicle_type_id":"4","last_reported":1746979827,"current_range_meters":10800,"station_id":"","pricing_plan_id":"cebpf4jnsgd1na2vs0mg"},{"bike_id":"5cde9878-2abc-47c6-a2d7-c359c1de1ca8","system_id":"levelo_inurba_marseille","lat":43.29845,"lon":5.36283,"is_reserved":false,"is_disabled":false,"rental_uris":{"android":"levelo://app?vid=5cde9878-2abc-47c6-a2d7-c359c1de1ca8","ios":"levelo://app?vid=5cde9878-2abc-47c6-a2d7-c359c1de1ca8"},"vehicle_type_id":"4","last_reported":1746979827,"current_range_meters":10800,"station_id":"ce4bgpp2rcd13ifvqc3g","pricing_plan_id":"cebpf4jnsgd1na2vs0mg"},{"bike_id":"d608fe0c-9b1b-43bf-8f88-20ff5561fe69","system_id":"levelo_inurba_marseille","lat":43.254527,"lon":5.377073,"is_reserved":false,"is_disabled":false,"rental_uris":{"android":"levelo://app?vid=d608fe0c-9b1b-43bf-8f88-20ff5561fe69","ios":"levelo://app?vid=d608fe0c-9b1b-43bf-8f88-20ff5561fe69"},"vehicle_type_id":"4","last_reported":1746979827,"current_range_meters":11200,"station_id":"ce4bhh12rcd13ifvqff0","pricing_plan_id":"cebpf4jnsgd1na2vs0mg"},{"bike_id":"e2434f42-8ebb-4eed-a218-d21bf35b3735","system_id":"levelo_inurba_marseille","lat":43.29809,"lon":5.3813,"is_reserved":false,"is_disabled":true,"rental_uris":{"android":"levelo://app?vid=e2434f42-8ebb-4eed-a218-d21bf35b3735","ios":"levelo://app?vid=e2434f42-8ebb-4eed-a218-d21bf35b3735"},"vehicle_type_id":"4","last_reported":1746979827,"current_range_meters":11200,"station_id":"ce4bgip2rcd13ifvqbb0","pricing_plan_id":"cebpf4jnsgd1na2vs0mg"},{"bike_id":"eb1fe6a3-6625-462d-abe8-d3a0076569ba","system_id":"levelo_inurba_marseille","lat":43.29413,"lon":5.3862,"is_reserved":false,"is_disabled":false,"rental_uris":{"android":"levelo://app?vid=eb1fe6a3-6625-462d-abe8-d3a0076569ba","ios":"levelo://app?vid=eb1fe6a3-6625-462d-abe8-d3a0076569ba"},"vehicle_type_id":"4","last_reported":1746979827,"current_range_meters":11200,"station_id":"ce4bh2h2rcd13ifvqdh0","pricing_plan_id":"cebpf4jnsgd1na2vs0mg"},{"bike_id":"6663a384-abed-48bd-861f-d563c5fcecd4","system_id":"levelo_inurba_marseille","lat":43.28436,"lon":5.3499,"is_reserved":false,"is_disabled":true,"rental_uris":{"android":"levelo://app?vid=6663a384-abed-48bd-861f-d563c5fcecd4","ios":"levelo://app?vid=6663a384-abed-48bd-861f-d563c5fcecd4"},"vehicle_type_id":"4","last_reported":1746979827,"current_range_meters":11200,"station_id":"ce4bhbh2rcd13ifvqepg","pricing_plan_id":"cebpf4jnsgd1na2vs0mg"},{"bike_id":"d0992e5d-1602-4d74-bb50-84174312cf3f","system_id":"levelo_inurba_marseille","lat":43.299494,"lon":5.397232,"is_reserved":false,"is_disabled":false,"rental_uris":{"android":"levelo://app?vid=d0992e5d-1602-4d74-bb50-84174312cf3f","ios":"levelo://app?vid=d0992e5d-1602-4d74-bb50-84174312cf3f"},"vehicle_type_id":"4","last_reported":1746979827,"current_range_meters":11200,"station_id":"ce4bh0h2rcd13ifvqd50","pricing_plan_id":"cebpf4jnsgd1na2vs0mg"},{"bike_id":"082c1f9f-4719-4cfe-b34a-37cfa3666b2e","system_id":"levelo_inurba_marseille","lat":43.28708,"lon":5.39996,"is_reserved":false,"is_disabled":true,"rental_uris":{"android":"levelo://app?vid=082c1f9f-4719-4cfe-b34a-37cfa3666b2e","ios":"levelo://app?vid=082c1f9f-4719-4cfe-b34a-37cfa3666b2e"},"vehicle_type_id":"4","last_reported":1746979827,"current_range_meters":11200,"station_id":"ce4bho92rcd13ifvqh3g","pricing_plan_id":"cebpf4jnsgd1na2vs0mg"},{"bike_id":"ed07da18-3e3d-41c5-b52a-7fd82bb6660e","system_id":"levelo_inurba_marseille","lat":43.26554,"lon":5.37279,"is_reserved":false,"is_disabled":false,"rental_uris":{"android":"levelo://app?vid=ed07da18-3e3d-41c5-b52a-7fd82bb6660e","ios":"levelo://app?vid=ed07da18-3e3d-41c5-b52a-7fd82bb6660e"},"vehicle_type_id":"4","last_reported":1746979827,"current_range_meters":11200,"station_id":"ce4bhg12rcd13ifvqf70","pricing_plan_id":"cebpf4jnsgd1na2vs0mg"},{"bike_id":"1aa4df1e-b9d7-49a5-be1c-9c35260290c3","system_id":"levelo_inurba_marseille","lat":43.26569,"lon":5.39013,"is_reserved":false,"is_disabled":false,"rental_uris":{"android":"levelo://app?vid=1aa4df1e-b9d7-49a5-be1c-9c35260290c3","ios":"levelo://app?vid=1aa4df1e-b9d7-49a5-be1c-9c35260290c3"},"vehicle_type_id":"4","last_reported":1746979827,"current_range_meters":11200,"station_id":"ce4bhe12rcd13ifvqf30","pricing_plan_id":"cebpf4jnsgd1na2vs0mg"},{"bike_id":"d83b7170-8eed-47c1-b0ec-1140d3a45dea","system_id":"levelo_inurba_marseille","lat":43.308136,"lon":5.43539,"is_reserved":false,"is_disabled":false,"rental_uris":{"android":"levelo://app?vid=d83b7170-8eed-47c1-b0ec-1140d3a45dea","ios":"levelo://app?vid=d83b7170-8eed-47c1-b0ec-1140d3a45dea"},"vehicle_type_id":"4","last_reported":1746979827,"current_range_meters":11200,"station_id":"ce4bhph2rcd13ifvqheg","pricing_plan_id":"cebpf4jnsgd1na2vs0mg"},{"bike_id":"c0149a31-d93c-402c-a88b-d6fa8b075616","system_id":"levelo_inurba_marseille","lat":43.29317,"lon":5.37562,"is_reserved":false,"is_disabled":false,"rental_uris":{"android":"levelo://app?vid=c0149a31-d93c-402c-a88b-d6fa8b075616","ios":"levelo://app?vid=c0149a31-d93c-402c-a88b-d6fa8b075616"},"vehicle_type_id":"4","last_reported":1746979827,"current_range_meters":12000,"station_id":"ce4bgi12rcd13ifvqb70","pricing_plan_id":"cebpf4jnsgd1na2vs0mg"},{"bike_id":"efc0a0d5-a353-4db4-9aad-8fb20bd2a998","system_id":"levelo_inurba_marseille","lat":43.25733,"lon":5.41124,"is_reserved":false,"is_disabled":false,"rental_uris":{"android":"levelo://app?vid=efc0a0d5-a353-4db4-9aad-8fb20bd2a998","ios":"levelo://app?vid=efc0a0d5-a353-4db4-9aad-8fb20bd2a998"},"vehicle_type_id":"4","last_reported":1746979827,"current_range_meters":11600,"station_id":"ce4bhkp2rcd13ifvqgd0","pricing_plan_id":"cebpf4jnsgd1na2vs0mg"},{"bike_id":"a1121b36-b5cd-4dda-96ef-13a3dfaa55e1","system_id":"levelo_inurba_marseille","lat":43.301401,"lon":5.387791,"is_reserved":false,"is_disabled":false,"rental_uris":{"android":"levelo://app?vid=a1121b36-b5cd-4dda-96ef-13a3dfaa55e1","ios":"levelo://app?vid=a1121b36-b5cd-4dda-96ef-13a3dfaa55e1"},"vehicle_type_id":"4","last_reported":1746979827,"current_range_meters":11600,"station_id":"","pricing_plan_id":"cebpf4jnsgd1na2vs0mg"},{"bike_id":"b867a1e6-686b-4e38-9b74-00620633a60c","system_id":"levelo_inurba_marseille","lat":43.28425,"lon":5.34984,"is_reserved":false,"is_disabled":false,"rental_uris":{"android":"levelo://app?vid=b867a1e6-686b-4e38-9b74-00620633a60c","ios":"levelo://app?vid=b867a1e6-686b-4e38-9b74-00620633a60c"},"vehicle_type_id":"4","last_reported":1746979827,"current_range_meters":11600,"station_id":"ce4bhbh2rcd13ifvqepg","pricing_plan_id":"cebpf4jnsgd1na2vs0mg"},{"bike_id":"f49edeae-a9bf-48f5-a8df-65d2d4059511","system_id":"levelo_inurba_marseille","lat":43.28936,"lon":5.36637,"is_reserved":false,"is_disabled":false,"rental_uris":{"android":"levelo://app?vid=f49edeae-a9bf-48f5-a8df-65d2d4059511","ios":"levelo://app?vid=f49edeae-a9bf-48f5-a8df-65d2d4059511"},"vehicle_type_id":"4","last_reported":1746979827,"current_range_meters":11600,"station_id":"ce4bhap2rcd13ifvqek0","pricing_plan_id":"cebpf4jnsgd1na2vs0mg"},{"bike_id":"c33c979d-9903-40dc-a17f-25ccdad88704","system_id":"levelo_inurba_marseille","lat":43.29516,"lon":5.39379,"is_reserved":false,"is_disabled":true,"rental_uris":{"android":"levelo://app?vid=c33c979d-9903-40dc-a17f-25ccdad88704","ios":"levelo://app?vid=c33c979d-9903-40dc-a17f-25ccdad88704"},"vehicle_type_id":"4","last_reported":1746979827,"current_range_meters":11600,"station_id":"ce4bh292rcd13ifvqdf0","pricing_plan_id":"cebpf4jnsgd1na2vs0mg"},{"bike_id":"e1e02132-aa73-4ff4-a28d-46270c1f6391","system_id":"levelo_inurba_marseille","lat":43.28435,"lon":5.34992,"is_reserved":false,"is_disabled":false,"rental_uris":{"android":"levelo://app?vid=e1e02132-aa73-4ff4-a28d-46270c1f6391","ios":"levelo://app?vid=e1e02132-aa73-4ff4-a28d-46270c1f6391"},"vehicle_type_id":"4","last_reported":1746979827,"current_range_meters":12000,"station_id":"ce4bhbh2rcd13ifvqepg","pricing_plan_id":"cebpf4jnsgd1na2vs0mg"},{"bike_id":"9ca5a64c-7fe5-4800-b304-f0a90074b325","system_id":"levelo_inurba_marseille","lat":43.31236,"lon":5.40737,"is_reserved":false,"is_disabled":false,"rental_uris":{"android":"levelo://app?vid=9ca5a64c-7fe5-4800-b304-f0a90074b325","ios":"levelo://app?vid=9ca5a64c-7fe5-4800-b304-f0a90074b325"},"vehicle_type_id":"4","last_reported":1746979827,"current_range_meters":12000,"station_id":"","pricing_plan_id":"cebpf4jnsgd1na2vs0mg"},{"bike_id":"95c07f58-992e-486e-9e01-f8c38af93653","system_id":"levelo_inurba_marseille","lat":43.30541,"lon":5.36682,"is_reserved":false,"is_disabled":true,"rental_uris":{"android":"levelo://app?vid=95c07f58-992e-486e-9e01-f8c38af93653","ios":"levelo://app?vid=95c07f58-992e-486e-9e01-f8c38af93653"},"vehicle_type_id":"4","last_reported":1746979827,"current_range_meters":12000,"station_id":"ce4bgrp2rcd13ifvqc9g","pricing_plan_id":"cebpf4jnsgd1na2vs0mg"},{"bike_id":"e687065f-88d4-47ea-bee5-d27b34ed323a","system_id":"levelo_inurba_marseille","lat":43.29595,"lon":5.38094,"is_reserved":false,"is_disabled":false,"rental_uris":{"android":"levelo://app?vid=e687065f-88d4-47ea-bee5-d27b34ed323a","ios":"levelo://app?vid=e687065f-88d4-47ea-bee5-d27b34ed323a"},"vehicle_type_id":"4","last_reported":1746979827,"current_range_meters":12000,"station_id":"ce4bgl12rcd13ifvqbo0","pricing_plan_id":"cebpf4jnsgd1na2vs0mg"},{"bike_id":"00330084-0aa9-4fb5-99ed-f77b7bd1d1f7","system_id":"levelo_inurba_marseille","lat":43.27318,"lon":5.39066,"is_reserved":false,"is_disabled":false,"rental_uris":{"android":"levelo://app?vid=00330084-0aa9-4fb5-99ed-f77b7bd1d1f7","ios":"levelo://app?vid=00330084-0aa9-4fb5-99ed-f77b7bd1d1f7"},"vehicle_type_id":"4","last_reported":1746979827,"current_range_meters":12400,"station_id":"ce4bhgp2rcd13ifvqfe0","pricing_plan_id":"cebpf4jnsgd1na2vs0mg"},{"bike_id":"de608a0b-278b-468e-957e-8246fb76906b","system_id":"levelo_inurba_marseille","lat":43.279922,"lon":5.387217,"is_reserved":false,"is_disabled":true,"rental_uris":{"android":"levelo://app?vid=de608a0b-278b-468e-957e-8246fb76906b","ios":"levelo://app?vid=de608a0b-278b-468e-957e-8246fb76906b"},"vehicle_type_id":"4","last_reported":1746979827,"current_range_meters":12400,"station_id":"ce4bhg12rcd13ifvqf80","pricing_plan_id":"cebpf4jnsgd1na2vs0mg"},{"bike_id":"ee5b88a1-b221-498c-88ac-0500cbd489f0","system_id":"levelo_inurba_marseille","lat":43.28263,"lon":5.35068,"is_reserved":false,"is_disabled":false,"rental_uris":{"android":"levelo://app?vid=ee5b88a1-b221-498c-88ac-0500cbd489f0","ios":"levelo://app?vid=ee5b88a1-b221-498c-88ac-0500cbd489f0"},"vehicle_type_id":"4","last_reported":1746979827,"current_range_meters":12400,"station_id":"ce4bhbp2rcd13ifvqerg","pricing_plan_id":"cebpf4jnsgd1na2vs0mg"},{"bike_id":"ac754be4-9e6a-4394-8db1-1077f1394b37","system_id":"levelo_inurba_marseille","lat":43.29208,"lon":5.35948,"is_reserved":false,"is_disabled":false,"rental_uris":{"android":"levelo://app?vid=ac754be4-9e6a-4394-8db1-1077f1394b37","ios":"levelo://app?vid=ac754be4-9e6a-4394-8db1-1077f1394b37"},"vehicle_type_id":"4","last_reported":1746979827,"current_range_meters":12800,"station_id":"","pricing_plan_id":"cebpf4jnsgd1na2vs0mg"},{"bike_id":"34c9cb98-5c3c-43a9-8437-45d3fc207e5d","system_id":"levelo_inurba_marseille","lat":43.28417,"lon":5.34992,"is_reserved":false,"is_disabled":false,"rental_uris":{"android":"levelo://app?vid=34c9cb98-5c3c-43a9-8437-45d3fc207e5d","ios":"levelo://app?vid=34c9cb98-5c3c-43a9-8437-45d3fc207e5d"},"vehicle_type_id":"4","last_reported":1746979827,"current_range_meters":13600,"station_id":"ce4bhbh2rcd13ifvqepg","pricing_plan_id":"cebpf4jnsgd1na2vs0mg"},{"bike_id":"940f7a9b-cdcb-496f-8df2-b3f0880af914","system_id":"levelo_inurba_marseille","lat":43.34258,"lon":5.3987,"is_reserved":false,"is_disabled":false,"rental_uris":{"android":"levelo://app?vid=940f7a9b-cdcb-496f-8df2-b3f0880af914","ios":"levelo://app?vid=940f7a9b-cdcb-496f-8df2-b3f0880af914"},"vehicle_type_id":"4","last_reported":1746979827,"current_range_meters":14000,"station_id":"","pricing_plan_id":"cebpf4jnsgd1na2vs0mg"},{"bike_id":"bab20466-91a2-48da-af64-7d429397e36e","system_id":"levelo_inurba_marseille","lat":43.21757,"lon":5.34628,"is_reserved":false,"is_disabled":false,"rental_uris":{"android":"levelo://app?vid=bab20466-91a2-48da-af64-7d429397e36e","ios":"levelo://app?vid=bab20466-91a2-48da-af64-7d429397e36e"},"vehicle_type_id":"4","last_reported":1746979827,"current_range_meters":14000,"station_id":"st_cvj6r9ubvosntc0bgbag","pricing_plan_id":"cebpf4jnsgd1na2vs0mg"},{"bike_id":"680ffa44-3fd1-412a-9365-03f333ecccdf","system_id":"levelo_inurba_marseille","lat":43.29006,"lon":5.35614,"is_reserved":false,"is_disabled":false,"rental_uris":{"android":"levelo://app?vid=680ffa44-3fd1-412a-9365-03f333ecccdf","ios":"levelo://app?vid=680ffa44-3fd1-412a-9365-03f333ecccdf"},"vehicle_type_id":"4","last_reported":1746979827,"current_range_meters":14000,"station_id":"ce4bhb92rcd13ifvqen0","pricing_plan_id":"cebpf4jnsgd1na2vs0mg"},{"bike_id":"d07efcd5-35a9-4ba0-82e2-2ee66f06d7a0","system_id":"levelo_inurba_marseille","lat":43.28271,"lon":5.35052,"is_reserved":false,"is_disabled":false,"rental_uris":{"android":"levelo://app?vid=d07efcd5-35a9-4ba0-82e2-2ee66f06d7a0","ios":"levelo://app?vid=d07efcd5-35a9-4ba0-82e2-2ee66f06d7a0"},"vehicle_type_id":"4","last_reported":1746979827,"current_range_meters":14000,"station_id":"ce4bhbp2rcd13ifvqerg","pricing_plan_id":"cebpf4jnsgd1na2vs0mg"},{"bike_id":"575a6c3a-6b6b-49af-847e-0c7f2a1bd7fe","system_id":"levelo_inurba_marseille","lat":43.28261,"lon":5.35068,"is_reserved":false,"is_disabled":false,"rental_uris":{"android":"levelo://app?vid=575a6c3a-6b6b-49af-847e-0c7f2a1bd7fe","ios":"levelo://app?vid=575a6c3a-6b6b-49af-847e-0c7f2a1bd7fe"},"vehicle_type_id":"4","last_reported":1746979827,"current_range_meters":14400,"station_id":"ce4bhbp2rcd13ifvqerg","pricing_plan_id":"cebpf4jnsgd1na2vs0mg"},{"bike_id":"511124d0-9966-465c-8422-6b1ac788aa23","system_id":"levelo_inurba_marseille","lat":43.2766,"lon":5.38842,"is_reserved":false,"is_disabled":false,"rental_uris":{"android":"levelo://app?vid=511124d0-9966-465c-8422-6b1ac788aa23","ios":"levelo://app?vid=511124d0-9966-465c-8422-6b1ac788aa23"},"vehicle_type_id":"4","last_reported":1746979827,"current_range_meters":14400,"station_id":"ce4bhi12rcd13ifvqfo0","pricing_plan_id":"cebpf4jnsgd1na2vs0mg"},{"bike_id":"ddede444-03a8-4331-b20d-55cae16ff0b4","system_id":"levelo_inurba_marseille","lat":43.24164,"lon":5.36389,"is_reserved":false,"is_disabled":false,"rental_uris":{"android":"levelo://app?vid=ddede444-03a8-4331-b20d-55cae16ff0b4","ios":"levelo://app?vid=ddede444-03a8-4331-b20d-55cae16ff0b4"},"vehicle_type_id":"4","last_reported":1746979827,"current_range_meters":14400,"station_id":"cpo36qri1sfpv3e86is0","pricing_plan_id":"cebpf4jnsgd1na2vs0mg"},{"bike_id":"cc62d2da-5a20-4806-9c3f-389790a326f5","system_id":"levelo_inurba_marseille","lat":43.24429,"lon":5.370865,"is_reserved":false,"is_disabled":true,"rental_uris":{"android":"levelo://app?vid=cc62d2da-5a20-4806-9c3f-389790a326f5","ios":"levelo://app?vid=cc62d2da-5a20-4806-9c3f-389790a326f5"},"vehicle_type_id":"4","last_reported":1746979827,"current_range_meters":14400,"station_id":"ce4bhhh2rcd13ifvqfk0","pricing_plan_id":"cebpf4jnsgd1na2vs0mg"},{"bike_id":"dc95e02c-1ba3-4459-8d55-a3771755dc22","system_id":"levelo_inurba_marseille","lat":43.29005,"lon":5.35608,"is_reserved":false,"is_disabled":false,"rental_uris":{"android":"levelo://app?vid=dc95e02c-1ba3-4459-8d55-a3771755dc22","ios":"levelo://app?vid=dc95e02c-1ba3-4459-8d55-a3771755dc22"},"vehicle_type_id":"4","last_reported":1746979827,"current_range_meters":14400,"station_id":"ce4bhb92rcd13ifvqen0","pricing_plan_id":"cebpf4jnsgd1na2vs0mg"},{"bike_id":"f52c819d-ca4b-4640-b458-b877db1bf990","system_id":"levelo_inurba_marseille","lat":43.2987,"lon":5.41017,"is_reserved":false,"is_disabled":false,"rental_uris":{"android":"levelo://app?vid=f52c819d-ca4b-4640-b458-b877db1bf990","ios":"levelo://app?vid=f52c819d-ca4b-4640-b458-b877db1bf990"},"vehicle_type_id":"4","last_reported":1746979827,"current_range_meters":14800,"station_id":"","pricing_plan_id":"cebpf4jnsgd1na2vs0mg"},{"bike_id":"fe8a300c-df4c-42e1-b092-cce77e5975ce","system_id":"levelo_inurba_marseille","lat":43.25747,"lon":5.41129,"is_reserved":false,"is_disabled":false,"rental_uris":{"android":"levelo://app?vid=fe8a300c-df4c-42e1-b092-cce77e5975ce","ios":"levelo://app?vid=fe8a300c-df4c-42e1-b092-cce77e5975ce"},"vehicle_type_id":"4","last_reported":1746979827,"current_range_meters":14800,"station_id":"ce4bhkp2rcd13ifvqgd0","pricing_plan_id":"cebpf4jnsgd1na2vs0mg"},{"bike_id":"8c963396-8a10-451f-bed2-8e6c01aeca4c","system_id":"levelo_inurba_marseille","lat":43.29274,"lon":5.36841,"is_reserved":false,"is_disabled":false,"rental_uris":{"android":"levelo://app?vid=8c963396-8a10-451f-bed2-8e6c01aeca4c","ios":"levelo://app?vid=8c963396-8a10-451f-bed2-8e6c01aeca4c"},"vehicle_type_id":"4","last_reported":1746979827,"current_range_meters":14800,"station_id":"ce4bhbp2rcd13ifvqesg","pricing_plan_id":"cebpf4jnsgd1na2vs0mg"},{"bike_id":"e64b6efa-8ad8-4af7-8d4d-f16b57fe35e2","system_id":"levelo_inurba_marseille","lat":43.28668,"lon":5.37073,"is_reserved":false,"is_disabled":true,"rental_uris":{"android":"levelo://app?vid=e64b6efa-8ad8-4af7-8d4d-f16b57fe35e2","ios":"levelo://app?vid=e64b6efa-8ad8-4af7-8d4d-f16b57fe35e2"},"vehicle_type_id":"4","last_reported":1746979827,"current_range_meters":14800,"station_id":"","pricing_plan_id":"cebpf4jnsgd1na2vs0mg"},{"bike_id":"d769f653-2284-4ccd-8df9-03b5aebbcb34","system_id":"levelo_inurba_marseille","lat":43.26993,"lon":5.43137,"is_reserved":false,"is_disabled":false,"rental_uris":{"android":"levelo://app?vid=d769f653-2284-4ccd-8df9-03b5aebbcb34","ios":"levelo://app?vid=d769f653-2284-4ccd-8df9-03b5aebbcb34"},"vehicle_type_id":"4","last_reported":1746979827,"current_range_meters":14800,"station_id":"","pricing_plan_id":"cebpf4jnsgd1na2vs0mg"},{"bike_id":"bfcc9c30-09a3-4ef3-823e-49fb796d1346","system_id":"levelo_inurba_marseille","lat":43.27608,"lon":5.36087,"is_reserved":false,"is_disabled":false,"rental_uris":{"android":"levelo://app?vid=bfcc9c30-09a3-4ef3-823e-49fb796d1346","ios":"levelo://app?vid=bfcc9c30-09a3-4ef3-823e-49fb796d1346"},"vehicle_type_id":"4","last_reported":1746979827,"current_range_meters":15200,"station_id":"ce4bgj92rcd13ifvqbe0","pricing_plan_id":"cebpf4jnsgd1na2vs0mg"},{"bike_id":"0a96b047-410f-4812-8d2d-8b206a02a2ac","system_id":"levelo_inurba_marseille","lat":43.23193,"lon":5.35576,"is_reserved":false,"is_disabled":false,"rental_uris":{"android":"levelo://app?vid=0a96b047-410f-4812-8d2d-8b206a02a2ac","ios":"levelo://app?vid=0a96b047-410f-4812-8d2d-8b206a02a2ac"},"vehicle_type_id":"4","last_reported":1746979827,"current_range_meters":15200,"station_id":"ce4bhu92rcd13ifvqi70","pricing_plan_id":"cebpf4jnsgd1na2vs0mg"},{"bike_id":"bc2bbec4-f228-4389-bf0b-7e9d04284f52","system_id":"levelo_inurba_marseille","lat":43.2955,"lon":5.42293,"is_reserved":false,"is_disabled":false,"rental_uris":{"android":"levelo://app?vid=bc2bbec4-f228-4389-bf0b-7e9d04284f52","ios":"levelo://app?vid=bc2bbec4-f228-4389-bf0b-7e9d04284f52"},"vehicle_type_id":"4","last_reported":1746979827,"current_range_meters":15200,"station_id":"ce4bhph2rcd13ifvqhdg","pricing_plan_id":"cebpf4jnsgd1na2vs0mg"},{"bike_id":"b9ef3a08-4fcb-46fb-abc5-ae1771a6a686","system_id":"levelo_inurba_marseille","lat":43.29336,"lon":5.4284,"is_reserved":false,"is_disabled":false,"rental_uris":{"android":"levelo://app?vid=b9ef3a08-4fcb-46fb-abc5-ae1771a6a686","ios":"levelo://app?vid=b9ef3a08-4fcb-46fb-abc5-ae1771a6a686"},"vehicle_type_id":"4","last_reported":1746979827,"current_range_meters":16000,"station_id":"","pricing_plan_id":"cebpf4jnsgd1na2vs0mg"},{"bike_id":"c37ca2b1-69dc-46e9-94be-7c01aebc93d5","system_id":"levelo_inurba_marseille","lat":43.30269,"lon":5.36682,"is_reserved":false,"is_disabled":false,"rental_uris":{"android":"levelo://app?vid=c37ca2b1-69dc-46e9-94be-7c01aebc93d5","ios":"levelo://app?vid=c37ca2b1-69dc-46e9-94be-7c01aebc93d5"},"vehicle_type_id":"4","last_reported":1746979827,"current_range_meters":16400,"station_id":"","pricing_plan_id":"cebpf4jnsgd1na2vs0mg"},{"bike_id":"a649b5dd-3357-4eb6-8669-d8d74e18bd8f","system_id":"levelo_inurba_marseille","lat":43.21768,"lon":5.34589,"is_reserved":false,"is_disabled":false,"rental_uris":{"android":"levelo://app?vid=a649b5dd-3357-4eb6-8669-d8d74e18bd8f","ios":"levelo://app?vid=a649b5dd-3357-4eb6-8669-d8d74e18bd8f"},"vehicle_type_id":"4","last_reported":1746979827,"current_range_meters":16400,"station_id":"st_cvj6r9ubvosntc0bgbag","pricing_plan_id":"cebpf4jnsgd1na2vs0mg"},{"bike_id":"f3c1b23e-7582-4e1d-afe6-9ce56b1d3ade","system_id":"levelo_inurba_marseille","lat":43.29001,"lon":5.35601,"is_reserved":false,"is_disabled":false,"rental_uris":{"android":"levelo://app?vid=f3c1b23e-7582-4e1d-afe6-9ce56b1d3ade","ios":"levelo://app?vid=f3c1b23e-7582-4e1d-afe6-9ce56b1d3ade"},"vehicle_type_id":"4","last_reported":1746979827,"current_range_meters":16400,"station_id":"ce4bhb92rcd13ifvqen0","pricing_plan_id":"cebpf4jnsgd1na2vs0mg"},{"bike_id":"2b840569-d0f6-4f02-ab67-b56c9730e4bf","system_id":"levelo_inurba_marseille","lat":43.27621,"lon":5.36115,"is_reserved":false,"is_disabled":false,"rental_uris":{"android":"levelo://app?vid=2b840569-d0f6-4f02-ab67-b56c9730e4bf","ios":"levelo://app?vid=2b840569-d0f6-4f02-ab67-b56c9730e4bf"},"vehicle_type_id":"4","last_reported":1746979827,"current_range_meters":16400,"station_id":"ce4bgj92rcd13ifvqbe0","pricing_plan_id":"cebpf4jnsgd1na2vs0mg"},{"bike_id":"c6e58aa3-d73b-4343-a6f3-d814914ad535","system_id":"levelo_inurba_marseille","lat":43.28998,"lon":5.35604,"is_reserved":false,"is_disabled":true,"rental_uris":{"android":"levelo://app?vid=c6e58aa3-d73b-4343-a6f3-d814914ad535","ios":"levelo://app?vid=c6e58aa3-d73b-4343-a6f3-d814914ad535"},"vehicle_type_id":"4","last_reported":1746979827,"current_range_meters":16400,"station_id":"ce4bhb92rcd13ifvqen0","pricing_plan_id":"cebpf4jnsgd1na2vs0mg"},{"bike_id":"a3cfbeb5-0ed1-4c8e-8d1d-c9603b834a27","system_id":"levelo_inurba_marseille","lat":43.32272,"lon":5.40654,"is_reserved":false,"is_disabled":false,"rental_uris":{"android":"levelo://app?vid=a3cfbeb5-0ed1-4c8e-8d1d-c9603b834a27","ios":"levelo://app?vid=a3cfbeb5-0ed1-4c8e-8d1d-c9603b834a27"},"vehicle_type_id":"4","last_reported":1746979827,"current_range_meters":16400,"station_id":"","pricing_plan_id":"cebpf4jnsgd1na2vs0mg"},{"bike_id":"8bad9aaa-0815-4d6f-8693-c86b6e8167ad","system_id":"levelo_inurba_marseille","lat":43.30908,"lon":5.36843,"is_reserved":false,"is_disabled":false,"rental_uris":{"android":"levelo://app?vid=8bad9aaa-0815-4d6f-8693-c86b6e8167ad","ios":"levelo://app?vid=8bad9aaa-0815-4d6f-8693-c86b6e8167ad"},"vehicle_type_id":"4","last_reported":1746979827,"current_range_meters":16400,"station_id":"ce4bgn92rcd13ifvqbvg","pricing_plan_id":"cebpf4jnsgd1na2vs0mg"},{"bike_id":"33b23cfc-306f-42b6-9075-331dfc7d0f42","system_id":"levelo_inurba_marseille","lat":43.29257,"lon":5.37615,"is_reserved":false,"is_disabled":false,"rental_uris":{"android":"levelo://app?vid=33b23cfc-306f-42b6-9075-331dfc7d0f42","ios":"levelo://app?vid=33b23cfc-306f-42b6-9075-331dfc7d0f42"},"vehicle_type_id":"4","last_reported":1746979827,"current_range_meters":16400,"station_id":"ce4bgi12rcd13ifvqb80","pricing_plan_id":"cebpf4jnsgd1na2vs0mg"},{"bike_id":"51bc31be-aca9-4ffe-afa8-2abfd963fc7b","system_id":"levelo_inurba_marseille","lat":43.29965,"lon":5.38506,"is_reserved":false,"is_disabled":false,"rental_uris":{"android":"levelo://app?vid=51bc31be-aca9-4ffe-afa8-2abfd963fc7b","ios":"levelo://app?vid=51bc31be-aca9-4ffe-afa8-2abfd963fc7b"},"vehicle_type_id":"4","last_reported":1746979827,"current_range_meters":16800,"station_id":"ce4bgj92rcd13ifvqbd0","pricing_plan_id":"cebpf4jnsgd1na2vs0mg"},{"bike_id":"a87fc351-df89-43ef-828e-16c06507e09d","system_id":"levelo_inurba_marseille","lat":43.23192,"lon":5.355473,"is_reserved":false,"is_disabled":false,"rental_uris":{"android":"levelo://app?vid=a87fc351-df89-43ef-828e-16c06507e09d","ios":"levelo://app?vid=a87fc351-df89-43ef-828e-16c06507e09d"},"vehicle_type_id":"4","last_reported":1746979827,"current_range_meters":16800,"station_id":"ce4bhu92rcd13ifvqi70","pricing_plan_id":"cebpf4jnsgd1na2vs0mg"},{"bike_id":"4762718c-a376-420c-be5d-ae5208641990","system_id":"levelo_inurba_marseille","lat":43.28478,"lon":5.35917,"is_reserved":false,"is_disabled":true,"rental_uris":{"android":"levelo://app?vid=4762718c-a376-420c-be5d-ae5208641990","ios":"levelo://app?vid=4762718c-a376-420c-be5d-ae5208641990"},"vehicle_type_id":"4","last_reported":1746979827,"current_range_meters":16800,"station_id":"ce4bhah2rcd13ifvqei0","pricing_plan_id":"cebpf4jnsgd1na2vs0mg"},{"bike_id":"18ce3d82-0770-4649-902e-28db0676ac91","system_id":"levelo_inurba_marseille","lat":43.21768,"lon":5.34594,"is_reserved":false,"is_disabled":false,"rental_uris":{"android":"levelo://app?vid=18ce3d82-0770-4649-902e-28db0676ac91","ios":"levelo://app?vid=18ce3d82-0770-4649-902e-28db0676ac91"},"vehicle_type_id":"4","last_reported":1746979827,"current_range_meters":16800,"station_id":"st_cvj6r9ubvosntc0bgbag","pricing_plan_id":"cebpf4jnsgd1na2vs0mg"},{"bike_id":"64052e33-ae69-4fa5-b697-23466981996c","system_id":"levelo_inurba_marseille","lat":43.26031,"lon":5.3755,"is_reserved":false,"is_disabled":false,"rental_uris":{"android":"levelo://app?vid=64052e33-ae69-4fa5-b697-23466981996c","ios":"levelo://app?vid=64052e33-ae69-4fa5-b697-23466981996c"},"vehicle_type_id":"4","last_reported":1746979827,"current_range_meters":16800,"station_id":"ce4bhgh2rcd13ifvqfa0","pricing_plan_id":"cebpf4jnsgd1na2vs0mg"},{"bike_id":"83a5dddc-f08f-476e-a316-d0e0dfb65037","system_id":"levelo_inurba_marseille","lat":43.3173,"lon":5.42427,"is_reserved":false,"is_disabled":false,"rental_uris":{"android":"levelo://app?vid=83a5dddc-f08f-476e-a316-d0e0dfb65037","ios":"levelo://app?vid=83a5dddc-f08f-476e-a316-d0e0dfb65037"},"vehicle_type_id":"4","last_reported":1746979827,"current_range_meters":17200,"station_id":"ce4bhp92rcd13ifvqhbg","pricing_plan_id":"cebpf4jnsgd1na2vs0mg"},{"bike_id":"3feea295-f7f7-4b47-9611-37ce765d5b7f","system_id":"levelo_inurba_marseille","lat":43.2978,"lon":5.371,"is_reserved":false,"is_disabled":false,"rental_uris":{"android":"levelo://app?vid=3feea295-f7f7-4b47-9611-37ce765d5b7f","ios":"levelo://app?vid=3feea295-f7f7-4b47-9611-37ce765d5b7f"},"vehicle_type_id":"4","last_reported":1746979827,"current_range_meters":17200,"station_id":"ce4bgop2rcd13ifvqc1g","pricing_plan_id":"cebpf4jnsgd1na2vs0mg"},{"bike_id":"77b898d6-83c3-4819-8f10-342d8faa3aa9","system_id":"levelo_inurba_marseille","lat":43.27079,"lon":5.42285,"is_reserved":false,"is_disabled":true,"rental_uris":{"android":"levelo://app?vid=77b898d6-83c3-4819-8f10-342d8faa3aa9","ios":"levelo://app?vid=77b898d6-83c3-4819-8f10-342d8faa3aa9"},"vehicle_type_id":"4","last_reported":1746979827,"current_range_meters":17200,"station_id":"ce4bhk92rcd13ifvqgb0","pricing_plan_id":"cebpf4jnsgd1na2vs0mg"},{"bike_id":"d8f85698-9cc7-4fac-ba09-0118aa7df1b5","system_id":"levelo_inurba_marseille","lat":43.31338,"lon":5.38486,"is_reserved":false,"is_disabled":true,"rental_uris":{"android":"levelo://app?vid=d8f85698-9cc7-4fac-ba09-0118aa7df1b5","ios":"levelo://app?vid=d8f85698-9cc7-4fac-ba09-0118aa7df1b5"},"vehicle_type_id":"4","last_reported":1746979827,"current_range_meters":17200,"station_id":"ce4bgt92rcd13ifvqcf0","pricing_plan_id":"cebpf4jnsgd1na2vs0mg"},{"bike_id":"5431cac8-f571-4e67-a874-9bf0a57f5aee","system_id":"levelo_inurba_marseille","lat":43.29638,"lon":5.37128,"is_reserved":false,"is_disabled":false,"rental_uris":{"android":"levelo://app?vid=5431cac8-f571-4e67-a874-9bf0a57f5aee","ios":"levelo://app?vid=5431cac8-f571-4e67-a874-9bf0a57f5aee"},"vehicle_type_id":"4","last_reported":1746979827,"current_range_meters":17600,"station_id":"ce4bgnh2rcd13ifvqc0g","pricing_plan_id":"cebpf4jnsgd1na2vs0mg"},{"bike_id":"69cfaeb7-9d49-4c22-b951-954e8215cf53","system_id":"levelo_inurba_marseille","lat":43.21748,"lon":5.34601,"is_reserved":false,"is_disabled":false,"rental_uris":{"android":"levelo://app?vid=69cfaeb7-9d49-4c22-b951-954e8215cf53","ios":"levelo://app?vid=69cfaeb7-9d49-4c22-b951-954e8215cf53"},"vehicle_type_id":"4","last_reported":1746979827,"current_range_meters":17600,"station_id":"st_cvj6r9ubvosntc0bgbag","pricing_plan_id":"cebpf4jnsgd1na2vs0mg"},{"bike_id":"0a4dc782-e1df-48ff-81bf-b707284fe935","system_id":"levelo_inurba_marseille","lat":43.28422,"lon":5.34979,"is_reserved":false,"is_disabled":true,"rental_uris":{"android":"levelo://app?vid=0a4dc782-e1df-48ff-81bf-b707284fe935","ios":"levelo://app?vid=0a4dc782-e1df-48ff-81bf-b707284fe935"},"vehicle_type_id":"4","last_reported":1746979827,"current_range_meters":17600,"station_id":"ce4bhbh2rcd13ifvqepg","pricing_plan_id":"cebpf4jnsgd1na2vs0mg"},{"bike_id":"b5e78fe0-9110-4031-aef2-3cd60439af18","system_id":"levelo_inurba_marseille","lat":43.29012,"lon":5.35619,"is_reserved":false,"is_disabled":false,"rental_uris":{"android":"levelo://app?vid=b5e78fe0-9110-4031-aef2-3cd60439af18","ios":"levelo://app?vid=b5e78fe0-9110-4031-aef2-3cd60439af18"},"vehicle_type_id":"4","last_reported":1746979827,"current_range_meters":18000,"station_id":"ce4bhb92rcd13ifvqen0","pricing_plan_id":"cebpf4jnsgd1na2vs0mg"},{"bike_id":"b6f0504a-f7d7-4a97-b810-e7c9e7b1c671","system_id":"levelo_inurba_marseille","lat":43.27911,"lon":5.4125,"is_reserved":false,"is_disabled":false,"rental_uris":{"android":"levelo://app?vid=b6f0504a-f7d7-4a97-b810-e7c9e7b1c671","ios":"levelo://app?vid=b6f0504a-f7d7-4a97-b810-e7c9e7b1c671"},"vehicle_type_id":"4","last_reported":1746979827,"current_range_meters":18000,"station_id":"","pricing_plan_id":"cebpf4jnsgd1na2vs0mg"},{"bike_id":"36a5c11b-0cfd-4fde-ba39-eeadc35dedb1","system_id":"levelo_inurba_marseille","lat":43.25117,"lon":5.40331,"is_reserved":false,"is_disabled":false,"rental_uris":{"android":"levelo://app?vid=36a5c11b-0cfd-4fde-ba39-eeadc35dedb1","ios":"levelo://app?vid=36a5c11b-0cfd-4fde-ba39-eeadc35dedb1"},"vehicle_type_id":"4","last_reported":1746979827,"current_range_meters":18000,"station_id":"","pricing_plan_id":"cebpf4jnsgd1na2vs0mg"},{"bike_id":"c9287863-f6c2-4d17-921e-36b50565c274","system_id":"levelo_inurba_marseille","lat":43.29374,"lon":5.37843,"is_reserved":false,"is_disabled":false,"rental_uris":{"android":"levelo://app?vid=c9287863-f6c2-4d17-921e-36b50565c274","ios":"levelo://app?vid=c9287863-f6c2-4d17-921e-36b50565c274"},"vehicle_type_id":"4","last_reported":1746979827,"current_range_meters":18000,"station_id":"ce4bgjh2rcd13ifvqbf0","pricing_plan_id":"cebpf4jnsgd1na2vs0mg"},{"bike_id":"38bc3caf-c321-4107-a67e-0091289aa092","system_id":"levelo_inurba_marseille","lat":43.278136,"lon":5.407079,"is_reserved":false,"is_disabled":false,"rental_uris":{"android":"levelo://app?vid=38bc3caf-c321-4107-a67e-0091289aa092","ios":"levelo://app?vid=38bc3caf-c321-4107-a67e-0091289aa092"},"vehicle_type_id":"4","last_reported":1746979827,"current_range_meters":18000,"station_id":"ce4bhnh2rcd13ifvqgtg","pricing_plan_id":"cebpf4jnsgd1na2vs0mg"},{"bike_id":"f3939a19-c5b8-4c85-818f-eb8e0faf293f","system_id":"levelo_inurba_marseille","lat":43.28263,"lon":5.35078,"is_reserved":false,"is_disabled":false,"rental_uris":{"android":"levelo://app?vid=f3939a19-c5b8-4c85-818f-eb8e0faf293f","ios":"levelo://app?vid=f3939a19-c5b8-4c85-818f-eb8e0faf293f"},"vehicle_type_id":"4","last_reported":1746979827,"current_range_meters":18000,"station_id":"ce4bhbp2rcd13ifvqerg","pricing_plan_id":"cebpf4jnsgd1na2vs0mg"},{"bike_id":"a0a24c30-fd73-4dbc-851f-9d1c4bb92b22","system_id":"levelo_inurba_marseille","lat":43.27378,"lon":5.36256,"is_reserved":false,"is_disabled":false,"rental_uris":{"android":"levelo://app?vid=a0a24c30-fd73-4dbc-851f-9d1c4bb92b22","ios":"levelo://app?vid=a0a24c30-fd73-4dbc-851f-9d1c4bb92b22"},"vehicle_type_id":"4","last_reported":1746979827,"current_range_meters":18000,"station_id":"ce4bhbh2rcd13ifvqeo0","pricing_plan_id":"cebpf4jnsgd1na2vs0mg"},{"bike_id":"7037f6b9-6e4e-4b36-91c5-48d813b3d156","system_id":"levelo_inurba_marseille","lat":43.28414,"lon":5.34998,"is_reserved":false,"is_disabled":false,"rental_uris":{"android":"levelo://app?vid=7037f6b9-6e4e-4b36-91c5-48d813b3d156","ios":"levelo://app?vid=7037f6b9-6e4e-4b36-91c5-48d813b3d156"},"vehicle_type_id":"4","last_reported":1746979827,"current_range_meters":18000,"station_id":"ce4bhbh2rcd13ifvqepg","pricing_plan_id":"cebpf4jnsgd1na2vs0mg"},{"bike_id":"4acac8a3-c0cc-4d68-9e96-d367eaa5458a","system_id":"levelo_inurba_marseille","lat":43.28267,"lon":5.35077,"is_reserved":false,"is_disabled":false,"rental_uris":{"android":"levelo://app?vid=4acac8a3-c0cc-4d68-9e96-d367eaa5458a","ios":"levelo://app?vid=4acac8a3-c0cc-4d68-9e96-d367eaa5458a"},"vehicle_type_id":"4","last_reported":1746979827,"current_range_meters":18800,"station_id":"ce4bhbp2rcd13ifvqerg","pricing_plan_id":"cebpf4jnsgd1na2vs0mg"},{"bike_id":"a0a7b749-df06-403a-9039-7dfe8d8079c9","system_id":"levelo_inurba_marseille","lat":43.23969,"lon":5.3666,"is_reserved":false,"is_disabled":true,"rental_uris":{"android":"levelo://app?vid=a0a7b749-df06-403a-9039-7dfe8d8079c9","ios":"levelo://app?vid=a0a7b749-df06-403a-9039-7dfe8d8079c9"},"vehicle_type_id":"4","last_reported":1746979827,"current_range_meters":18800,"station_id":"ce4bhi12rcd13ifvqfp0","pricing_plan_id":"cebpf4jnsgd1na2vs0mg"},{"bike_id":"923bc3c8-9653-42f6-ab2d-a12cb585d499","system_id":"levelo_inurba_marseille","lat":43.29438,"lon":5.38689,"is_reserved":false,"is_disabled":false,"rental_uris":{"android":"levelo://app?vid=923bc3c8-9653-42f6-ab2d-a12cb585d499","ios":"levelo://app?vid=923bc3c8-9653-42f6-ab2d-a12cb585d499"},"vehicle_type_id":"4","last_reported":1746979827,"current_range_meters":18800,"station_id":"","pricing_plan_id":"cebpf4jnsgd1na2vs0mg"},{"bike_id":"b63e6078-9c65-41bd-aa73-a2ddabd6b5de","system_id":"levelo_inurba_marseille","lat":43.2959,"lon":5.3673,"is_reserved":false,"is_disabled":true,"rental_uris":{"android":"levelo://app?vid=b63e6078-9c65-41bd-aa73-a2ddabd6b5de","ios":"levelo://app?vid=b63e6078-9c65-41bd-aa73-a2ddabd6b5de"},"vehicle_type_id":"4","last_reported":1746979827,"current_range_meters":18800,"station_id":"ce4bgph2rcd13ifvqc2g","pricing_plan_id":"cebpf4jnsgd1na2vs0mg"},{"bike_id":"69ed4c3e-b645-4bf8-91ad-18cd8b031e8e","system_id":"levelo_inurba_marseille","lat":43.28263,"lon":5.35095,"is_reserved":false,"is_disabled":false,"rental_uris":{"android":"levelo://app?vid=69ed4c3e-b645-4bf8-91ad-18cd8b031e8e","ios":"levelo://app?vid=69ed4c3e-b645-4bf8-91ad-18cd8b031e8e"},"vehicle_type_id":"4","last_reported":1746979827,"current_range_meters":19200,"station_id":"ce4bhbp2rcd13ifvqerg","pricing_plan_id":"cebpf4jnsgd1na2vs0mg"},{"bike_id":"2a2e92a8-9be2-42a0-8f8b-e8c99ed20b3a","system_id":"levelo_inurba_marseille","lat":43.23159,"lon":5.39932,"is_reserved":false,"is_disabled":false,"rental_uris":{"android":"levelo://app?vid=2a2e92a8-9be2-42a0-8f8b-e8c99ed20b3a","ios":"levelo://app?vid=2a2e92a8-9be2-42a0-8f8b-e8c99ed20b3a"},"vehicle_type_id":"4","last_reported":1746979827,"current_range_meters":19200,"station_id":"","pricing_plan_id":"cebpf4jnsgd1na2vs0mg"},{"bike_id":"9ac07f1c-7b81-4758-98cf-0c3a2b970896","system_id":"levelo_inurba_marseille","lat":43.28643,"lon":5.35076,"is_reserved":false,"is_disabled":false,"rental_uris":{"android":"levelo://app?vid=9ac07f1c-7b81-4758-98cf-0c3a2b970896","ios":"levelo://app?vid=9ac07f1c-7b81-4758-98cf-0c3a2b970896"},"vehicle_type_id":"4","last_reported":1746979827,"current_range_meters":19200,"station_id":"ce4bhch2rcd13ifvqeug","pricing_plan_id":"cebpf4jnsgd1na2vs0mg"},{"bike_id":"901d25d5-e0a4-4b9d-9519-beabbed3efe8","system_id":"levelo_inurba_marseille","lat":43.21216,"lon":5.35101,"is_reserved":false,"is_disabled":false,"rental_uris":{"android":"levelo://app?vid=901d25d5-e0a4-4b9d-9519-beabbed3efe8","ios":"levelo://app?vid=901d25d5-e0a4-4b9d-9519-beabbed3efe8"},"vehicle_type_id":"4","last_reported":1746979827,"current_range_meters":19200,"station_id":"st_cvj6sg6p6f1abm77japg","pricing_plan_id":"cebpf4jnsgd1na2vs0mg"},{"bike_id":"e01b8a3e-4bf0-4a1f-9cf2-445124b2f51d","system_id":"levelo_inurba_marseille","lat":43.27665,"lon":5.38874,"is_reserved":false,"is_disabled":false,"rental_uris":{"android":"levelo://app?vid=e01b8a3e-4bf0-4a1f-9cf2-445124b2f51d","ios":"levelo://app?vid=e01b8a3e-4bf0-4a1f-9cf2-445124b2f51d"},"vehicle_type_id":"4","last_reported":1746979827,"current_range_meters":19200,"station_id":"ce4bhi12rcd13ifvqfo0","pricing_plan_id":"cebpf4jnsgd1na2vs0mg"},{"bike_id":"aca142bd-2716-4ee3-8c04-bd27c952c647","system_id":"levelo_inurba_marseille","lat":43.26444,"lon":5.37503,"is_reserved":false,"is_disabled":false,"rental_uris":{"android":"levelo://app?vid=aca142bd-2716-4ee3-8c04-bd27c952c647","ios":"levelo://app?vid=aca142bd-2716-4ee3-8c04-bd27c952c647"},"vehicle_type_id":"4","last_reported":1746979827,"current_range_meters":19600,"station_id":"","pricing_plan_id":"cebpf4jnsgd1na2vs0mg"},{"bike_id":"49586744-1c04-4f2d-aed3-5b19531a74cd","system_id":"levelo_inurba_marseille","lat":43.24646,"lon":5.3889,"is_reserved":false,"is_disabled":false,"rental_uris":{"android":"levelo://app?vid=49586744-1c04-4f2d-aed3-5b19531a74cd","ios":"levelo://app?vid=49586744-1c04-4f2d-aed3-5b19531a74cd"},"vehicle_type_id":"4","last_reported":1746979827,"current_range_meters":19600,"station_id":"ce4bhg12rcd13ifvqf60","pricing_plan_id":"cebpf4jnsgd1na2vs0mg"},{"bike_id":"b07bfc09-4ee4-480d-951d-bf310d1d8d6c","system_id":"levelo_inurba_marseille","lat":43.321447,"lon":5.384547,"is_reserved":false,"is_disabled":false,"rental_uris":{"android":"levelo://app?vid=b07bfc09-4ee4-480d-951d-bf310d1d8d6c","ios":"levelo://app?vid=b07bfc09-4ee4-480d-951d-bf310d1d8d6c"},"vehicle_type_id":"4","last_reported":1746979827,"current_range_meters":19600,"station_id":"","pricing_plan_id":"cebpf4jnsgd1na2vs0mg"},{"bike_id":"12ce33db-0695-498b-9f78-c600a9908b36","system_id":"levelo_inurba_marseille","lat":43.28634,"lon":5.35094,"is_reserved":false,"is_disabled":true,"rental_uris":{"android":"levelo://app?vid=12ce33db-0695-498b-9f78-c600a9908b36","ios":"levelo://app?vid=12ce33db-0695-498b-9f78-c600a9908b36"},"vehicle_type_id":"4","last_reported":1746979827,"current_range_meters":19600,"station_id":"ce4bhch2rcd13ifvqeug","pricing_plan_id":"cebpf4jnsgd1na2vs0mg"},{"bike_id":"795414e6-0213-4f6d-890d-e9969dcc7d4b","system_id":"levelo_inurba_marseille","lat":43.30322,"lon":5.40433,"is_reserved":false,"is_disabled":false,"rental_uris":{"android":"levelo://app?vid=795414e6-0213-4f6d-890d-e9969dcc7d4b","ios":"levelo://app?vid=795414e6-0213-4f6d-890d-e9969dcc7d4b"},"vehicle_type_id":"4","last_reported":1746979827,"current_range_meters":19600,"station_id":"ce4bh012rcd13ifvqd10","pricing_plan_id":"cebpf4jnsgd1na2vs0mg"},{"bike_id":"496cd1f0-1974-4b04-b78b-749aecd4c74c","system_id":"levelo_inurba_marseille","lat":43.28456,"lon":5.35892,"is_reserved":false,"is_disabled":false,"rental_uris":{"android":"levelo://app?vid=496cd1f0-1974-4b04-b78b-749aecd4c74c","ios":"levelo://app?vid=496cd1f0-1974-4b04-b78b-749aecd4c74c"},"vehicle_type_id":"4","last_reported":1746979827,"current_range_meters":19600,"station_id":"ce4bhah2rcd13ifvqei0","pricing_plan_id":"cebpf4jnsgd1na2vs0mg"},{"bike_id":"80342cc5-9fd4-45e1-b025-35c76e989997","system_id":"levelo_inurba_marseille","lat":43.30303,"lon":5.39202,"is_reserved":false,"is_disabled":true,"rental_uris":{"android":"levelo://app?vid=80342cc5-9fd4-45e1-b025-35c76e989997","ios":"levelo://app?vid=80342cc5-9fd4-45e1-b025-35c76e989997"},"vehicle_type_id":"4","last_reported":1746979827,"current_range_meters":19600,"station_id":"ce4bgkh2rcd13ifvqbk0","pricing_plan_id":"cebpf4jnsgd1na2vs0mg"},{"bike_id":"cce25afc-6205-4a83-b930-910552ad5fe6","system_id":"levelo_inurba_marseille","lat":43.2901,"lon":5.35614,"is_reserved":false,"is_disabled":false,"rental_uris":{"android":"levelo://app?vid=cce25afc-6205-4a83-b930-910552ad5fe6","ios":"levelo://app?vid=cce25afc-6205-4a83-b930-910552ad5fe6"},"vehicle_type_id":"4","last_reported":1746979827,"current_range_meters":20000,"station_id":"ce4bhb92rcd13ifvqen0","pricing_plan_id":"cebpf4jnsgd1na2vs0mg"},{"bike_id":"803a18f2-87c4-4b12-b0dc-3a2487067925","system_id":"levelo_inurba_marseille","lat":43.29188,"lon":5.35809,"is_reserved":false,"is_disabled":false,"rental_uris":{"android":"levelo://app?vid=803a18f2-87c4-4b12-b0dc-3a2487067925","ios":"levelo://app?vid=803a18f2-87c4-4b12-b0dc-3a2487067925"},"vehicle_type_id":"4","last_reported":1746979827,"current_range_meters":20000,"station_id":"ce4bhb12rcd13ifvqel0","pricing_plan_id":"cebpf4jnsgd1na2vs0mg"},{"bike_id":"366cab92-afe2-42f0-9410-83676dc484f7","system_id":"levelo_inurba_marseille","lat":43.25111,"lon":5.40354,"is_reserved":false,"is_disabled":false,"rental_uris":{"android":"levelo://app?vid=366cab92-afe2-42f0-9410-83676dc484f7","ios":"levelo://app?vid=366cab92-afe2-42f0-9410-83676dc484f7"},"vehicle_type_id":"4","last_reported":1746979827,"current_range_meters":20000,"station_id":"ce4bhlh2rcd13ifvqgig","pricing_plan_id":"cebpf4jnsgd1na2vs0mg"},{"bike_id":"b336a229-0bf1-452c-97d8-afd000b0f02e","system_id":"levelo_inurba_marseille","lat":43.3255,"lon":5.36506,"is_reserved":false,"is_disabled":false,"rental_uris":{"android":"levelo://app?vid=b336a229-0bf1-452c-97d8-afd000b0f02e","ios":"levelo://app?vid=b336a229-0bf1-452c-97d8-afd000b0f02e"},"vehicle_type_id":"4","last_reported":1746979827,"current_range_meters":20400,"station_id":"","pricing_plan_id":"cebpf4jnsgd1na2vs0mg"},{"bike_id":"0c72129e-d0e0-46cc-90c0-d6b8ea594d16","system_id":"levelo_inurba_marseille","lat":43.21758,"lon":5.34605,"is_reserved":false,"is_disabled":false,"rental_uris":{"android":"levelo://app?vid=0c72129e-d0e0-46cc-90c0-d6b8ea594d16","ios":"levelo://app?vid=0c72129e-d0e0-46cc-90c0-d6b8ea594d16"},"vehicle_type_id":"4","last_reported":1746979827,"current_range_meters":20800,"station_id":"st_cvj6r9ubvosntc0bgbag","pricing_plan_id":"cebpf4jnsgd1na2vs0mg"},{"bike_id":"018a60ab-8856-4822-bb99-cc09bbb054c6","system_id":"levelo_inurba_marseille","lat":43.28615,"lon":5.35102,"is_reserved":false,"is_disabled":false,"rental_uris":{"android":"levelo://app?vid=018a60ab-8856-4822-bb99-cc09bbb054c6","ios":"levelo://app?vid=018a60ab-8856-4822-bb99-cc09bbb054c6"},"vehicle_type_id":"4","last_reported":1746979827,"current_range_meters":21600,"station_id":"ce4bhch2rcd13ifvqeug","pricing_plan_id":"cebpf4jnsgd1na2vs0mg"},{"bike_id":"95d69e90-ae9c-4300-a34f-5cc0d08fd59d","system_id":"levelo_inurba_marseille","lat":43.28421,"lon":5.34987,"is_reserved":false,"is_disabled":false,"rental_uris":{"android":"levelo://app?vid=95d69e90-ae9c-4300-a34f-5cc0d08fd59d","ios":"levelo://app?vid=95d69e90-ae9c-4300-a34f-5cc0d08fd59d"},"vehicle_type_id":"4","last_reported":1746979827,"current_range_meters":21600,"station_id":"ce4bhbh2rcd13ifvqepg","pricing_plan_id":"cebpf4jnsgd1na2vs0mg"},{"bike_id":"71ba7284-b15b-4756-9eea-9ce27e01610f","system_id":"levelo_inurba_marseille","lat":43.29884,"lon":5.38891,"is_reserved":false,"is_disabled":false,"rental_uris":{"android":"levelo://app?vid=71ba7284-b15b-4756-9eea-9ce27e01610f","ios":"levelo://app?vid=71ba7284-b15b-4756-9eea-9ce27e01610f"},"vehicle_type_id":"4","last_reported":1746979827,"current_range_meters":21600,"station_id":"ce4bh392rcd13ifvqdl0","pricing_plan_id":"cebpf4jnsgd1na2vs0mg"},{"bike_id":"8acb5c33-715c-472b-b181-6250c36ed015","system_id":"levelo_inurba_marseille","lat":43.301472,"lon":5.380864,"is_reserved":false,"is_disabled":true,"rental_uris":{"android":"levelo://app?vid=8acb5c33-715c-472b-b181-6250c36ed015","ios":"levelo://app?vid=8acb5c33-715c-472b-b181-6250c36ed015"},"vehicle_type_id":"4","last_reported":1746979827,"current_range_meters":21600,"station_id":"","pricing_plan_id":"cebpf4jnsgd1na2vs0mg"},{"bike_id":"2a92c18e-258c-48f7-a9ce-9f3e68be9cd4","system_id":"levelo_inurba_marseille","lat":43.27348,"lon":5.36222,"is_reserved":false,"is_disabled":false,"rental_uris":{"android":"levelo://app?vid=2a92c18e-258c-48f7-a9ce-9f3e68be9cd4","ios":"levelo://app?vid=2a92c18e-258c-48f7-a9ce-9f3e68be9cd4"},"vehicle_type_id":"4","last_reported":1746979827,"current_range_meters":22000,"station_id":"ce4bhbh2rcd13ifvqeo0","pricing_plan_id":"cebpf4jnsgd1na2vs0mg"},{"bike_id":"17767b59-eaba-48a0-a6c4-c5b221532b32","system_id":"levelo_inurba_marseille","lat":43.30159,"lon":5.37426,"is_reserved":false,"is_disabled":false,"rental_uris":{"android":"levelo://app?vid=17767b59-eaba-48a0-a6c4-c5b221532b32","ios":"levelo://app?vid=17767b59-eaba-48a0-a6c4-c5b221532b32"},"vehicle_type_id":"4","last_reported":1746979827,"current_range_meters":22000,"station_id":"ce4bgs92rcd13ifvqcc0","pricing_plan_id":"cebpf4jnsgd1na2vs0mg"},{"bike_id":"c9aa1e60-ea9d-4a4b-a027-730faca44254","system_id":"levelo_inurba_marseille","lat":43.25132,"lon":5.40275,"is_reserved":false,"is_disabled":false,"rental_uris":{"android":"levelo://app?vid=c9aa1e60-ea9d-4a4b-a027-730faca44254","ios":"levelo://app?vid=c9aa1e60-ea9d-4a4b-a027-730faca44254"},"vehicle_type_id":"4","last_reported":1746979827,"current_range_meters":22000,"station_id":"","pricing_plan_id":"cebpf4jnsgd1na2vs0mg"},{"bike_id":"d0d77266-b030-48e7-bb4a-e4747b4776ec","system_id":"levelo_inurba_marseille","lat":43.30129,"lon":5.39879,"is_reserved":false,"is_disabled":true,"rental_uris":{"android":"levelo://app?vid=d0d77266-b030-48e7-bb4a-e4747b4776ec","ios":"levelo://app?vid=d0d77266-b030-48e7-bb4a-e4747b4776ec"},"vehicle_type_id":"4","last_reported":1746979827,"current_range_meters":22000,"station_id":"ce4bh0h2rcd13ifvqd40","pricing_plan_id":"cebpf4jnsgd1na2vs0mg"},{"bike_id":"801ba7d8-cafb-4f42-8979-a70405aecf4f","system_id":"levelo_inurba_marseille","lat":43.2918,"lon":5.35796,"is_reserved":false,"is_disabled":false,"rental_uris":{"android":"levelo://app?vid=801ba7d8-cafb-4f42-8979-a70405aecf4f","ios":"levelo://app?vid=801ba7d8-cafb-4f42-8979-a70405aecf4f"},"vehicle_type_id":"4","last_reported":1746979827,"current_range_meters":22000,"station_id":"ce4bhb12rcd13ifvqel0","pricing_plan_id":"cebpf4jnsgd1na2vs0mg"},{"bike_id":"e52860fc-41e9-4082-9440-7927a3cfefca","system_id":"levelo_inurba_marseille","lat":43.31686,"lon":5.40469,"is_reserved":false,"is_disabled":false,"rental_uris":{"android":"levelo://app?vid=e52860fc-41e9-4082-9440-7927a3cfefca","ios":"levelo://app?vid=e52860fc-41e9-4082-9440-7927a3cfefca"},"vehicle_type_id":"4","last_reported":1746979827,"current_range_meters":22400,"station_id":"ce4bh012rcd13ifvqd00","pricing_plan_id":"cebpf4jnsgd1na2vs0mg"},{"bike_id":"274428a0-f624-470d-97ad-4d677cbd848f","system_id":"levelo_inurba_marseille","lat":43.27081,"lon":5.42283,"is_reserved":false,"is_disabled":false,"rental_uris":{"android":"levelo://app?vid=274428a0-f624-470d-97ad-4d677cbd848f","ios":"levelo://app?vid=274428a0-f624-470d-97ad-4d677cbd848f"},"vehicle_type_id":"4","last_reported":1746979827,"current_range_meters":22400,"station_id":"ce4bhk92rcd13ifvqgb0","pricing_plan_id":"cebpf4jnsgd1na2vs0mg"},{"bike_id":"af870e04-8d0c-4a00-a73d-c5c448081eaf","system_id":"levelo_inurba_marseille","lat":43.29028,"lon":5.38643,"is_reserved":false,"is_disabled":true,"rental_uris":{"android":"levelo://app?vid=af870e04-8d0c-4a00-a73d-c5c448081eaf","ios":"levelo://app?vid=af870e04-8d0c-4a00-a73d-c5c448081eaf"},"vehicle_type_id":"4","last_reported":1746979827,"current_range_meters":22400,"station_id":"ce4bh4p2rcd13ifvqe0g","pricing_plan_id":"cebpf4jnsgd1na2vs0mg"},{"bike_id":"ec44c8f2-8dd4-4197-8b86-a34514541a70","system_id":"levelo_inurba_marseille","lat":43.281588,"lon":5.426483,"is_reserved":false,"is_disabled":false,"rental_uris":{"android":"levelo://app?vid=ec44c8f2-8dd4-4197-8b86-a34514541a70","ios":"levelo://app?vid=ec44c8f2-8dd4-4197-8b86-a34514541a70"},"vehicle_type_id":"4","last_reported":1746979827,"current_range_meters":22400,"station_id":"ce4bhnh2rcd13ifvqgug","pricing_plan_id":"cebpf4jnsgd1na2vs0mg"},{"bike_id":"da33f86b-0df7-4aea-9a6d-75a51b552554","system_id":"levelo_inurba_marseille","lat":43.2841,"lon":5.34979,"is_reserved":false,"is_disabled":false,"rental_uris":{"android":"levelo://app?vid=da33f86b-0df7-4aea-9a6d-75a51b552554","ios":"levelo://app?vid=da33f86b-0df7-4aea-9a6d-75a51b552554"},"vehicle_type_id":"4","last_reported":1746979827,"current_range_meters":22400,"station_id":"ce4bhbh2rcd13ifvqepg","pricing_plan_id":"cebpf4jnsgd1na2vs0mg"},{"bike_id":"cc62fb95-f120-4890-a7b5-023aa7d7594d","system_id":"levelo_inurba_marseille","lat":43.29173,"lon":5.37165,"is_reserved":false,"is_disabled":false,"rental_uris":{"android":"levelo://app?vid=cc62fb95-f120-4890-a7b5-023aa7d7594d","ios":"levelo://app?vid=cc62fb95-f120-4890-a7b5-023aa7d7594d"},"vehicle_type_id":"4","last_reported":1746979827,"current_range_meters":22800,"station_id":"ce4bha92rcd13ifvqeh0","pricing_plan_id":"cebpf4jnsgd1na2vs0mg"},{"bike_id":"85f5341f-4e0f-4827-930f-53e92b68149b","system_id":"levelo_inurba_marseille","lat":43.30574,"lon":5.36556,"is_reserved":false,"is_disabled":false,"rental_uris":{"android":"levelo://app?vid=85f5341f-4e0f-4827-930f-53e92b68149b","ios":"levelo://app?vid=85f5341f-4e0f-4827-930f-53e92b68149b"},"vehicle_type_id":"4","last_reported":1746979827,"current_range_meters":22800,"station_id":"ce4bgs12rcd13ifvqcag","pricing_plan_id":"cebpf4jnsgd1na2vs0mg"},{"bike_id":"f55e00c8-45ac-4814-885b-23e51d8217eb","system_id":"levelo_inurba_marseille","lat":43.29,"lon":5.3561,"is_reserved":false,"is_disabled":false,"rental_uris":{"android":"levelo://app?vid=f55e00c8-45ac-4814-885b-23e51d8217eb","ios":"levelo://app?vid=f55e00c8-45ac-4814-885b-23e51d8217eb"},"vehicle_type_id":"4","last_reported":1746979827,"current_range_meters":22800,"station_id":"ce4bhb92rcd13ifvqen0","pricing_plan_id":"cebpf4jnsgd1na2vs0mg"},{"bike_id":"d699d913-a8af-4883-aaff-407a4f5d3731","system_id":"levelo_inurba_marseille","lat":43.29001,"lon":5.35621,"is_reserved":false,"is_disabled":false,"rental_uris":{"android":"levelo://app?vid=d699d913-a8af-4883-aaff-407a4f5d3731","ios":"levelo://app?vid=d699d913-a8af-4883-aaff-407a4f5d3731"},"vehicle_type_id":"4","last_reported":1746979827,"current_range_meters":22800,"station_id":"ce4bhb92rcd13ifvqen0","pricing_plan_id":"cebpf4jnsgd1na2vs0mg"},{"bike_id":"573e5634-0b50-4b94-8d05-c9589a90520f","system_id":"levelo_inurba_marseille","lat":43.28252,"lon":5.35069,"is_reserved":false,"is_disabled":false,"rental_uris":{"android":"levelo://app?vid=573e5634-0b50-4b94-8d05-c9589a90520f","ios":"levelo://app?vid=573e5634-0b50-4b94-8d05-c9589a90520f"},"vehicle_type_id":"4","last_reported":1746979827,"current_range_meters":22800,"station_id":"ce4bhbp2rcd13ifvqerg","pricing_plan_id":"cebpf4jnsgd1na2vs0mg"},{"bike_id":"4cb2e7dc-b71a-4068-ab9f-fb6c725d446d","system_id":"levelo_inurba_marseille","lat":43.284236,"lon":5.349708,"is_reserved":false,"is_disabled":false,"rental_uris":{"android":"levelo://app?vid=4cb2e7dc-b71a-4068-ab9f-fb6c725d446d","ios":"levelo://app?vid=4cb2e7dc-b71a-4068-ab9f-fb6c725d446d"},"vehicle_type_id":"4","last_reported":1746979827,"current_range_meters":22800,"station_id":"ce4bhbh2rcd13ifvqepg","pricing_plan_id":"cebpf4jnsgd1na2vs0mg"},{"bike_id":"c65512c4-82c1-47c2-bf84-cd1ad20db18e","system_id":"levelo_inurba_marseille","lat":43.32478,"lon":5.36554,"is_reserved":false,"is_disabled":false,"rental_uris":{"android":"levelo://app?vid=c65512c4-82c1-47c2-bf84-cd1ad20db18e","ios":"levelo://app?vid=c65512c4-82c1-47c2-bf84-cd1ad20db18e"},"vehicle_type_id":"4","last_reported":1746979827,"current_range_meters":22800,"station_id":"ce4bhs12rcd13ifvqhvg","pricing_plan_id":"cebpf4jnsgd1na2vs0mg"},{"bike_id":"ffa6c5d2-b256-4526-bd42-186673431272","system_id":"levelo_inurba_marseille","lat":43.29263,"lon":5.37594,"is_reserved":false,"is_disabled":false,"rental_uris":{"android":"levelo://app?vid=ffa6c5d2-b256-4526-bd42-186673431272","ios":"levelo://app?vid=ffa6c5d2-b256-4526-bd42-186673431272"},"vehicle_type_id":"4","last_reported":1746979827,"current_range_meters":23200,"station_id":"ce4bgi12rcd13ifvqb80","pricing_plan_id":"cebpf4jnsgd1na2vs0mg"},{"bike_id":"a546a166-3357-42b2-be14-012e05b92d7d","system_id":"levelo_inurba_marseille","lat":43.32588,"lon":5.4308,"is_reserved":false,"is_disabled":false,"rental_uris":{"android":"levelo://app?vid=a546a166-3357-42b2-be14-012e05b92d7d","ios":"levelo://app?vid=a546a166-3357-42b2-be14-012e05b92d7d"},"vehicle_type_id":"4","last_reported":1746979827,"current_range_meters":23200,"station_id":"","pricing_plan_id":"cebpf4jnsgd1na2vs0mg"},{"bike_id":"f1342c4c-a94b-4654-9628-680ba7db74df","system_id":"levelo_inurba_marseille","lat":43.23184,"lon":5.35583,"is_reserved":false,"is_disabled":true,"rental_uris":{"android":"levelo://app?vid=f1342c4c-a94b-4654-9628-680ba7db74df","ios":"levelo://app?vid=f1342c4c-a94b-4654-9628-680ba7db74df"},"vehicle_type_id":"4","last_reported":1746979827,"current_range_meters":23200,"station_id":"ce4bhu92rcd13ifvqi70","pricing_plan_id":"cebpf4jnsgd1na2vs0mg"},{"bike_id":"e613ac2c-5ebf-480f-945a-18ce1f93420d","system_id":"levelo_inurba_marseille","lat":43.28264,"lon":5.35077,"is_reserved":false,"is_disabled":false,"rental_uris":{"android":"levelo://app?vid=e613ac2c-5ebf-480f-945a-18ce1f93420d","ios":"levelo://app?vid=e613ac2c-5ebf-480f-945a-18ce1f93420d"},"vehicle_type_id":"4","last_reported":1746979827,"current_range_meters":23200,"station_id":"ce4bhbp2rcd13ifvqerg","pricing_plan_id":"cebpf4jnsgd1na2vs0mg"},{"bike_id":"7f9abf71-8019-498c-8243-8b5ce9ff851e","system_id":"levelo_inurba_marseille","lat":43.298539,"lon":5.362953,"is_reserved":false,"is_disabled":true,"rental_uris":{"android":"levelo://app?vid=7f9abf71-8019-498c-8243-8b5ce9ff851e","ios":"levelo://app?vid=7f9abf71-8019-498c-8243-8b5ce9ff851e"},"vehicle_type_id":"4","last_reported":1746979827,"current_range_meters":23200,"station_id":"","pricing_plan_id":"cebpf4jnsgd1na2vs0mg"},{"bike_id":"52502790-9ba9-4b82-8eee-224ce9dc0df2","system_id":"levelo_inurba_marseille","lat":43.261966,"lon":5.374459,"is_reserved":false,"is_disabled":true,"rental_uris":{"android":"levelo://app?vid=52502790-9ba9-4b82-8eee-224ce9dc0df2","ios":"levelo://app?vid=52502790-9ba9-4b82-8eee-224ce9dc0df2"},"vehicle_type_id":"4","last_reported":1746979827,"current_range_meters":24000,"station_id":"ce4bhgp2rcd13ifvqfc0","pricing_plan_id":"cebpf4jnsgd1na2vs0mg"},{"bike_id":"aa3ce5c4-582f-446f-89c8-9b462470aece","system_id":"levelo_inurba_marseille","lat":43.29004,"lon":5.35611,"is_reserved":false,"is_disabled":false,"rental_uris":{"android":"levelo://app?vid=aa3ce5c4-582f-446f-89c8-9b462470aece","ios":"levelo://app?vid=aa3ce5c4-582f-446f-89c8-9b462470aece"},"vehicle_type_id":"4","last_reported":1746979827,"current_range_meters":22400,"station_id":"ce4bhb92rcd13ifvqen0","pricing_plan_id":"cebpf4jnsgd1na2vs0mg"},{"bike_id":"2cc6ab33-b884-4b84-8f2e-73a9d9cc1642","system_id":"levelo_inurba_marseille","lat":43.28864,"lon":5.39312,"is_reserved":false,"is_disabled":true,"rental_uris":{"android":"levelo://app?vid=2cc6ab33-b884-4b84-8f2e-73a9d9cc1642","ios":"levelo://app?vid=2cc6ab33-b884-4b84-8f2e-73a9d9cc1642"},"vehicle_type_id":"4","last_reported":1746979827,"current_range_meters":24000,"station_id":"ce4bh2p2rcd13ifvqdi0","pricing_plan_id":"cebpf4jnsgd1na2vs0mg"},{"bike_id":"6916840e-4cbe-43f5-806a-e3c640a9e9ba","system_id":"levelo_inurba_marseille","lat":43.28426,"lon":5.34982,"is_reserved":false,"is_disabled":false,"rental_uris":{"android":"levelo://app?vid=6916840e-4cbe-43f5-806a-e3c640a9e9ba","ios":"levelo://app?vid=6916840e-4cbe-43f5-806a-e3c640a9e9ba"},"vehicle_type_id":"4","last_reported":1746979827,"current_range_meters":24000,"station_id":"ce4bhbh2rcd13ifvqepg","pricing_plan_id":"cebpf4jnsgd1na2vs0mg"},{"bike_id":"cc25aae6-3197-44f8-8471-8a0efb35cc4f","system_id":"levelo_inurba_marseille","lat":43.30622,"lon":5.36567,"is_reserved":false,"is_disabled":true,"rental_uris":{"android":"levelo://app?vid=cc25aae6-3197-44f8-8471-8a0efb35cc4f","ios":"levelo://app?vid=cc25aae6-3197-44f8-8471-8a0efb35cc4f"},"vehicle_type_id":"4","last_reported":1746979827,"current_range_meters":24000,"station_id":"","pricing_plan_id":"cebpf4jnsgd1na2vs0mg"},{"bike_id":"c84cc980-38fe-4761-924e-99f94b7ce9c7","system_id":"levelo_inurba_marseille","lat":43.337444,"lon":5.374475,"is_reserved":false,"is_disabled":true,"rental_uris":{"android":"levelo://app?vid=c84cc980-38fe-4761-924e-99f94b7ce9c7","ios":"levelo://app?vid=c84cc980-38fe-4761-924e-99f94b7ce9c7"},"vehicle_type_id":"4","last_reported":1746979827,"current_range_meters":24000,"station_id":"","pricing_plan_id":"cebpf4jnsgd1na2vs0mg"},{"bike_id":"c8d71eaf-6efa-4ba1-b5e7-3207bf73e6d1","system_id":"levelo_inurba_marseille","lat":43.29254,"lon":5.37627,"is_reserved":false,"is_disabled":false,"rental_uris":{"android":"levelo://app?vid=c8d71eaf-6efa-4ba1-b5e7-3207bf73e6d1","ios":"levelo://app?vid=c8d71eaf-6efa-4ba1-b5e7-3207bf73e6d1"},"vehicle_type_id":"4","last_reported":1746979827,"current_range_meters":24000,"station_id":"ce4bgi12rcd13ifvqb80","pricing_plan_id":"cebpf4jnsgd1na2vs0mg"},{"bike_id":"0a3e9417-6643-4978-9498-8312436bc84a","system_id":"levelo_inurba_marseille","lat":43.27628,"lon":5.36155,"is_reserved":false,"is_disabled":true,"rental_uris":{"android":"levelo://app?vid=0a3e9417-6643-4978-9498-8312436bc84a","ios":"levelo://app?vid=0a3e9417-6643-4978-9498-8312436bc84a"},"vehicle_type_id":"4","last_reported":1746979827,"current_range_meters":24000,"station_id":"ce4bgj92rcd13ifvqbe0","pricing_plan_id":"cebpf4jnsgd1na2vs0mg"},{"bike_id":"56587c22-a183-4d18-8a63-2f37bae3d9f6","system_id":"levelo_inurba_marseille","lat":43.26202,"lon":5.37434,"is_reserved":false,"is_disabled":false,"rental_uris":{"android":"levelo://app?vid=56587c22-a183-4d18-8a63-2f37bae3d9f6","ios":"levelo://app?vid=56587c22-a183-4d18-8a63-2f37bae3d9f6"},"vehicle_type_id":"4","last_reported":1746979827,"current_range_meters":24400,"station_id":"ce4bhgp2rcd13ifvqfc0","pricing_plan_id":"cebpf4jnsgd1na2vs0mg"},{"bike_id":"dc53d17a-6042-4f83-8552-4e608df3f076","system_id":"levelo_inurba_marseille","lat":43.25551,"lon":5.40126,"is_reserved":false,"is_disabled":false,"rental_uris":{"android":"levelo://app?vid=dc53d17a-6042-4f83-8552-4e608df3f076","ios":"levelo://app?vid=dc53d17a-6042-4f83-8552-4e608df3f076"},"vehicle_type_id":"4","last_reported":1746979827,"current_range_meters":24400,"station_id":"","pricing_plan_id":"cebpf4jnsgd1na2vs0mg"},{"bike_id":"21efc7cd-73d3-4b5e-853e-366bb7546dfc","system_id":"levelo_inurba_marseille","lat":43.28411,"lon":5.34979,"is_reserved":false,"is_disabled":false,"rental_uris":{"android":"levelo://app?vid=21efc7cd-73d3-4b5e-853e-366bb7546dfc","ios":"levelo://app?vid=21efc7cd-73d3-4b5e-853e-366bb7546dfc"},"vehicle_type_id":"4","last_reported":1746979827,"current_range_meters":24400,"station_id":"ce4bhbh2rcd13ifvqepg","pricing_plan_id":"cebpf4jnsgd1na2vs0mg"},{"bike_id":"0a58c277-b2a9-4dc8-87aa-cf12f87fe675","system_id":"levelo_inurba_marseille","lat":43.25113,"lon":5.40309,"is_reserved":false,"is_disabled":false,"rental_uris":{"android":"levelo://app?vid=0a58c277-b2a9-4dc8-87aa-cf12f87fe675","ios":"levelo://app?vid=0a58c277-b2a9-4dc8-87aa-cf12f87fe675"},"vehicle_type_id":"4","last_reported":1746979827,"current_range_meters":24400,"station_id":"ce4bhlh2rcd13ifvqgig","pricing_plan_id":"cebpf4jnsgd1na2vs0mg"},{"bike_id":"6deb05f9-7371-4827-b16a-15e0c7a1439a","system_id":"levelo_inurba_marseille","lat":43.28264,"lon":5.35063,"is_reserved":false,"is_disabled":false,"rental_uris":{"android":"levelo://app?vid=6deb05f9-7371-4827-b16a-15e0c7a1439a","ios":"levelo://app?vid=6deb05f9-7371-4827-b16a-15e0c7a1439a"},"vehicle_type_id":"4","last_reported":1746979827,"current_range_meters":24400,"station_id":"ce4bhbp2rcd13ifvqerg","pricing_plan_id":"cebpf4jnsgd1na2vs0mg"},{"bike_id":"f0933281-f8b5-4646-85b4-535b5e656f21","system_id":"levelo_inurba_marseille","lat":43.28427,"lon":5.34979,"is_reserved":false,"is_disabled":false,"rental_uris":{"android":"levelo://app?vid=f0933281-f8b5-4646-85b4-535b5e656f21","ios":"levelo://app?vid=f0933281-f8b5-4646-85b4-535b5e656f21"},"vehicle_type_id":"4","last_reported":1746979827,"current_range_meters":24400,"station_id":"ce4bhbh2rcd13ifvqepg","pricing_plan_id":"cebpf4jnsgd1na2vs0mg"},{"bike_id":"d3cbc46f-5375-4d60-978c-d259ee44514f","system_id":"levelo_inurba_marseille","lat":43.29308,"lon":5.37467,"is_reserved":false,"is_disabled":true,"rental_uris":{"android":"levelo://app?vid=d3cbc46f-5375-4d60-978c-d259ee44514f","ios":"levelo://app?vid=d3cbc46f-5375-4d60-978c-d259ee44514f"},"vehicle_type_id":"4","last_reported":1746979827,"current_range_meters":24800,"station_id":"","pricing_plan_id":"cebpf4jnsgd1na2vs0mg"},{"bike_id":"e140141b-4b6e-4f40-928c-78a9d0cedfc5","system_id":"levelo_inurba_marseille","lat":43.21749,"lon":5.34592,"is_reserved":false,"is_disabled":false,"rental_uris":{"android":"levelo://app?vid=e140141b-4b6e-4f40-928c-78a9d0cedfc5","ios":"levelo://app?vid=e140141b-4b6e-4f40-928c-78a9d0cedfc5"},"vehicle_type_id":"4","last_reported":1746979827,"current_range_meters":24800,"station_id":"st_cvj6r9ubvosntc0bgbag","pricing_plan_id":"cebpf4jnsgd1na2vs0mg"},{"bike_id":"34698a34-07f4-42bb-bd14-c6f455807b5e","system_id":"levelo_inurba_marseille","lat":43.28276,"lon":5.35083,"is_reserved":false,"is_disabled":false,"rental_uris":{"android":"levelo://app?vid=34698a34-07f4-42bb-bd14-c6f455807b5e","ios":"levelo://app?vid=34698a34-07f4-42bb-bd14-c6f455807b5e"},"vehicle_type_id":"4","last_reported":1746979827,"current_range_meters":24800,"station_id":"ce4bhbp2rcd13ifvqerg","pricing_plan_id":"cebpf4jnsgd1na2vs0mg"},{"bike_id":"301028d9-aeca-4824-a623-82a64d1d1010","system_id":"levelo_inurba_marseille","lat":43.28426,"lon":5.34991,"is_reserved":false,"is_disabled":false,"rental_uris":{"android":"levelo://app?vid=301028d9-aeca-4824-a623-82a64d1d1010","ios":"levelo://app?vid=301028d9-aeca-4824-a623-82a64d1d1010"},"vehicle_type_id":"4","last_reported":1746979827,"current_range_meters":24800,"station_id":"","pricing_plan_id":"cebpf4jnsgd1na2vs0mg"},{"bike_id":"fcf9463b-401b-4157-a5a9-4c36ca7d015d","system_id":"levelo_inurba_marseille","lat":43.306836,"lon":5.370549,"is_reserved":false,"is_disabled":false,"rental_uris":{"android":"levelo://app?vid=fcf9463b-401b-4157-a5a9-4c36ca7d015d","ios":"levelo://app?vid=fcf9463b-401b-4157-a5a9-4c36ca7d015d"},"vehicle_type_id":"4","last_reported":1746979827,"current_range_meters":24800,"station_id":"","pricing_plan_id":"cebpf4jnsgd1na2vs0mg"},{"bike_id":"025b2018-5ff3-4c4c-9661-1931d34e9be8","system_id":"levelo_inurba_marseille","lat":43.23562,"lon":5.36123,"is_reserved":false,"is_disabled":true,"rental_uris":{"android":"levelo://app?vid=025b2018-5ff3-4c4c-9661-1931d34e9be8","ios":"levelo://app?vid=025b2018-5ff3-4c4c-9661-1931d34e9be8"},"vehicle_type_id":"4","last_reported":1746979827,"current_range_meters":24800,"station_id":"","pricing_plan_id":"cebpf4jnsgd1na2vs0mg"},{"bike_id":"e9d4be9c-06fb-4f74-a90a-e05dc170c734","system_id":"levelo_inurba_marseille","lat":43.274971,"lon":5.424561,"is_reserved":false,"is_disabled":false,"rental_uris":{"android":"levelo://app?vid=e9d4be9c-06fb-4f74-a90a-e05dc170c734","ios":"levelo://app?vid=e9d4be9c-06fb-4f74-a90a-e05dc170c734"},"vehicle_type_id":"4","last_reported":1746979827,"current_range_meters":24800,"station_id":"ce4bhn92rcd13ifvqgrg","pricing_plan_id":"cebpf4jnsgd1na2vs0mg"},{"bike_id":"17038a1f-e697-48f2-ab73-7f3472033b26","system_id":"levelo_inurba_marseille","lat":43.2978,"lon":5.37097,"is_reserved":false,"is_disabled":false,"rental_uris":{"android":"levelo://app?vid=17038a1f-e697-48f2-ab73-7f3472033b26","ios":"levelo://app?vid=17038a1f-e697-48f2-ab73-7f3472033b26"},"vehicle_type_id":"4","last_reported":1746979827,"current_range_meters":24800,"station_id":"ce4bgop2rcd13ifvqc1g","pricing_plan_id":"cebpf4jnsgd1na2vs0mg"},{"bike_id":"e2b25ba6-71e2-40ed-967c-d53d22154f6a","system_id":"levelo_inurba_marseille","lat":43.30393,"lon":5.41906,"is_reserved":false,"is_disabled":false,"rental_uris":{"android":"levelo://app?vid=e2b25ba6-71e2-40ed-967c-d53d22154f6a","ios":"levelo://app?vid=e2b25ba6-71e2-40ed-967c-d53d22154f6a"},"vehicle_type_id":"4","last_reported":1746979827,"current_range_meters":24800,"station_id":"ce4bhop2rcd13ifvqh7g","pricing_plan_id":"cebpf4jnsgd1na2vs0mg"},{"bike_id":"8df756a4-4b96-4a93-bf32-996b8106b65f","system_id":"levelo_inurba_marseille","lat":43.30549,"lon":5.36537,"is_reserved":false,"is_disabled":true,"rental_uris":{"android":"levelo://app?vid=8df756a4-4b96-4a93-bf32-996b8106b65f","ios":"levelo://app?vid=8df756a4-4b96-4a93-bf32-996b8106b65f"},"vehicle_type_id":"4","last_reported":1746979827,"current_range_meters":24800,"station_id":"ce4bgs12rcd13ifvqcag","pricing_plan_id":"cebpf4jnsgd1na2vs0mg"},{"bike_id":"543a09e9-f3f2-482a-a555-071e7374f5c6","system_id":"levelo_inurba_marseille","lat":43.2179,"lon":5.34628,"is_reserved":false,"is_disabled":false,"rental_uris":{"android":"levelo://app?vid=543a09e9-f3f2-482a-a555-071e7374f5c6","ios":"levelo://app?vid=543a09e9-f3f2-482a-a555-071e7374f5c6"},"vehicle_type_id":"4","last_reported":1746979827,"current_range_meters":25200,"station_id":"st_cvj6r9ubvosntc0bgbag","pricing_plan_id":"cebpf4jnsgd1na2vs0mg"},{"bike_id":"ff04fad6-1ccb-4d5c-ae89-059e700afe05","system_id":"levelo_inurba_marseille","lat":43.27611,"lon":5.36113,"is_reserved":false,"is_disabled":false,"rental_uris":{"android":"levelo://app?vid=ff04fad6-1ccb-4d5c-ae89-059e700afe05","ios":"levelo://app?vid=ff04fad6-1ccb-4d5c-ae89-059e700afe05"},"vehicle_type_id":"4","last_reported":1746979827,"current_range_meters":25200,"station_id":"ce4bgj92rcd13ifvqbe0","pricing_plan_id":"cebpf4jnsgd1na2vs0mg"},{"bike_id":"25443a2c-0561-43cd-a7db-0eaf6ba7d484","system_id":"levelo_inurba_marseille","lat":43.2825,"lon":5.35079,"is_reserved":false,"is_disabled":false,"rental_uris":{"android":"levelo://app?vid=25443a2c-0561-43cd-a7db-0eaf6ba7d484","ios":"levelo://app?vid=25443a2c-0561-43cd-a7db-0eaf6ba7d484"},"vehicle_type_id":"4","last_reported":1746979827,"current_range_meters":25200,"station_id":"ce4bhbp2rcd13ifvqerg","pricing_plan_id":"cebpf4jnsgd1na2vs0mg"},{"bike_id":"29be47fd-cfe0-46ce-99b3-c07b10f1cffa","system_id":"levelo_inurba_marseille","lat":43.296362,"lon":5.37764,"is_reserved":false,"is_disabled":true,"rental_uris":{"android":"levelo://app?vid=29be47fd-cfe0-46ce-99b3-c07b10f1cffa","ios":"levelo://app?vid=29be47fd-cfe0-46ce-99b3-c07b10f1cffa"},"vehicle_type_id":"4","last_reported":1746979827,"current_range_meters":25200,"station_id":"ce4bgi92rcd13ifvqb90","pricing_plan_id":"cebpf4jnsgd1na2vs0mg"},