{"last_updated":1753560684,"ttl":60,"version":"2.2","data":{"bikes":[{"bike_id":"d1e9c7dd-91b8-4bbe-bf19-375f97a76459","system_id":"levelo_inurba_marseille","lat":43.2953,"lon":5.38538,"is_reserved":false,"is_disabled":false,"rental_uris":{"android":"levelo://app?vid=d1e9c7dd-91b8-4bbe-bf19-375f97a76459","ios":"levelo://app?vid=d1e9c7dd-91b8-4bbe-bf19-375f97a76459"},"vehicle_type_id":"4","last_reported":1753560684,"current_range_meters":2800,"station_id":"","pricing_plan_id":"cebpf4jnsgd1na2vs0mg"},{"bike_id":"0fb703b3-79e8-4c0d-b841-3c971b31bf19","system_id":"levelo_inurba_marseille","lat":43.28082,"lon":5.39659,"is_reserved":false,"is_disabled":false,"rental_uris":{"android":"levelo://app?vid=0fb703b3-79e8-4c0d-b841-3c971b31bf19","ios":"levelo://app?vid=0fb703b3-79e8-4c0d-b841-3c971b31bf19"},"vehicle_type_id":"4","last_reported":1753560684,"current_range_meters":2800,"station_id":"ce4bho12rcd13ifvqh2g","pricing_plan_id":"cebpf4jnsgd1na2vs0mg"},{"bike_id":"e19cd9bd-8f1f-4909-a624-5af678243303","system_id":"levelo_inurba_marseille","lat":43.29058,"lon":5.39862,"is_reserved":false,"is_disabled":false,"rental_uris":{"android":"levelo://app?vid=e19cd9bd-8f1f-4909-a624-5af678243303","ios":"levelo://app?vid=e19cd9bd-8f1f-4909-a624-5af678243303"},"vehicle_type_id":"4","last_reported":1753560684,"current_range_meters":2800,"station_id":"","pricing_plan_id":"cebpf4jnsgd1na2vs0mg"},{"bike_id":"bf158499-abf4-4716-ad20-df229fb20126","system_id":"levelo_inurba_marseille","lat":43.22501,"lon":5.34781,"is_reserved":false,"is_disabled":true,"rental_uris":{"android":"levelo://app?vid=bf158499-abf4-4716-ad20-df229fb20126","ios":"levelo://app?vid=bf158499-abf4-4716-ad20-df229fb20126"},"vehicle_type_id":"4","last_reported":1753560684,"current_range_meters":3200,"station_id":"","pricing_plan_id":"cebpf4jnsgd1na2vs0mg"},{"bike_id":"517b06a2-b995-4185-b3a7-7c03430b89fc","system_id":"levelo_inurba_marseille","lat":43.28668,"lon":5.38657,"is_reserved":false,"is_disabled":false,"rental_uris":{"android":"levelo://app?vid=517b06a2-b995-4185-b3a7-7c03430b89fc","ios":"levelo://app?vid=517b06a2-b995-4185-b3a7-7c03430b89fc"},"vehicle_type_id":"4","last_reported":1753560684,"current_range_meters":3600,"station_id":"ce4bh492rcd13ifvqdug","pricing_plan_id":"cebpf4jnsgd1na2vs0mg"},{"bike_id":"a9bcff15-70d8-4922-b020-1a5b437dd9fd","system_id":"levelo_inurba_marseille","lat":43.21387,"lon":5.35017,"is_reserved":false,"is_disabled":false,"rental_uris":{"android":"levelo://app?vid=a9bcff15-70d8-4922-b020-1a5b437dd9fd","ios":"levelo://app?vid=a9bcff15-70d8-4922-b020-1a5b437dd9fd"},"vehicle_type_id":"4","last_reported":1753560684,"current_range_meters":3600,"station_id":"","pricing_plan_id":"cebpf4jnsgd1na2vs0mg"},{"bike_id":"35e5cfd9-9a65-4cd2-9679-96a47c545711","system_id":"levelo_inurba_marseille","lat":43.26187,"lon":5.37452,"is_reserved":false,"is_disabled":false,"rental_uris":{"android":"levelo://app?vid=35e5cfd9-9a65-4cd2-9679-96a47c545711","ios":"levelo://app?vid=35e5cfd9-9a65-4cd2-9679-96a47c545711"},"vehicle_type_id":"4","last_reported":1753560684,"current_range_meters":4000,"station_id":"ce4bhgp2rcd13ifvqfc0","pricing_plan_id":"cebpf4jnsgd1na2vs0mg"},{"bike_id":"f28d2bb9-4217-4196-a573-ba6f4c172497","system_id":"levelo_inurba_marseille","lat":43.28156,"lon":5.36119,"is_reserved":false,"is_disabled":false,"rental_uris":{"android":"levelo://app?vid=f28d2bb9-4217-4196-a573-ba6f4c172497","ios":"levelo://app?vid=f28d2bb9-4217-4196-a573-ba6f4c172497"},"vehicle_type_id":"4","last_reported":1753560684,"current_range_meters":4000,"station_id":"","pricing_plan_id":"cebpf4jnsgd1na2vs0mg"},{"bike_id":"3e500ad1-a64b-496e-98ac-41b6ac264e17","system_id":"levelo_inurba_marseille","lat":43.29887,"lon":5.39739,"is_reserved":false,"is_disabled":true,"rental_uris":{"android":"levelo://app?vid=3e500ad1-a64b-496e-98ac-41b6ac264e17","ios":"levelo://app?vid=3e500ad1-a64b-496e-98ac-41b6ac264e17"},"vehicle_type_id":"4","last_reported":1753560684,"current_range_meters":4400,"station_id":"ce4bh0h2rcd13ifvqd50","pricing_plan_id":"cebpf4jnsgd1na2vs0mg"},{"bike_id":"c7d11cc2-0b13-44d2-9de4-428aa17b05e1","system_id":"levelo_inurba_marseille","lat":43.29029,"lon":5.38647,"is_reserved":false,"is_disabled":false,"rental_uris":{"android":"levelo://app?vid=c7d11cc2-0b13-44d2-9de4-428aa17b05e1","ios":"levelo://app?vid=c7d11cc2-0b13-44d2-9de4-428aa17b05e1"},"vehicle_type_id":"4","last_reported":1753560684,"current_range_meters":4400,"station_id":"ce4bh4p2rcd13ifvqe0g","pricing_plan_id":"cebpf4jnsgd1na2vs0mg"},{"bike_id":"e9b6ca85-c9db-4350-b2fa-e358f5b15a27","system_id":"levelo_inurba_marseille","lat":43.31222,"lon":5.36848,"is_reserved":false,"is_disabled":false,"rental_uris":{"android":"levelo://app?vid=e9b6ca85-c9db-4350-b2fa-e358f5b15a27","ios":"levelo://app?vid=e9b6ca85-c9db-4350-b2fa-e358f5b15a27"},"vehicle_type_id":"4","last_reported":1753560684,"current_range_meters":4400,"station_id":"ce4bgl92rcd13ifvqbq0","pricing_plan_id":"cebpf4jnsgd1na2vs0mg"},{"bike_id":"0cbf75cf-ca0f-428c-adaa-2b0c3e87944b","system_id":"levelo_inurba_marseille","lat":43.28202,"lon":5.35104,"is_reserved":false,"is_disabled":false,"rental_uris":{"android":"levelo://app?vid=0cbf75cf-ca0f-428c-adaa-2b0c3e87944b","ios":"levelo://app?vid=0cbf75cf-ca0f-428c-adaa-2b0c3e87944b"},"vehicle_type_id":"4","last_reported":1753560684,"current_range_meters":6000,"station_id":"","pricing_plan_id":"cebpf4jnsgd1na2vs0mg"},{"bike_id":"1c31f24b-2b9e-48c3-b103-bffd32b92420","system_id":"levelo_inurba_marseille","lat":43.33495,"lon":5.40874,"is_reserved":false,"is_disabled":false,"rental_uris":{"android":"levelo://app?vid=1c31f24b-2b9e-48c3-b103-bffd32b92420","ios":"levelo://app?vid=1c31f24b-2b9e-48c3-b103-bffd32b92420"},"vehicle_type_id":"4","last_reported":1753560684,"current_range_meters":5600,"station_id":"","pricing_plan_id":"cebpf4jnsgd1na2vs0mg"},{"bike_id":"6af7a72a-189c-4dbc-9282-a956426542ba","system_id":"levelo_inurba_marseille","lat":43.22512,"lon":5.34779,"is_reserved":false,"is_disabled":false,"rental_uris":{"android":"levelo://app?vid=6af7a72a-189c-4dbc-9282-a956426542ba","ios":"levelo://app?vid=6af7a72a-189c-4dbc-9282-a956426542ba"},"vehicle_type_id":"4","last_reported":1753560684,"current_range_meters":5600,"station_id":"","pricing_plan_id":"cebpf4jnsgd1na2vs0mg"},{"bike_id":"ff30a5ee-0e9d-4bfa-a593-c7beaf9df463","system_id":"levelo_inurba_marseille","lat":43.33535,"lon":5.36219,"is_reserved":false,"is_disabled":false,"rental_uris":{"android":"levelo://app?vid=ff30a5ee-0e9d-4bfa-a593-c7beaf9df463","ios":"levelo://app?vid=ff30a5ee-0e9d-4bfa-a593-c7beaf9df463"},"vehicle_type_id":"4","last_reported":1753560684,"current_range_meters":5600,"station_id":"","pricing_plan_id":"cebpf4jnsgd1na2vs0mg"},{"bike_id":"c6ae4f41-8811-4598-a536-aacde711e9dc","system_id":"levelo_inurba_marseille","lat":43.29246,"lon":5.38438,"is_reserved":false,"is_disabled":false,"rental_uris":{"android":"levelo://app?vid=c6ae4f41-8811-4598-a536-aacde711e9dc","ios":"levelo://app?vid=c6ae4f41-8811-4598-a536-aacde711e9dc"},"vehicle_type_id":"4","last_reported":1753560684,"current_range_meters":6000,"station_id":"ce4bh692rcd13ifvqea0","pricing_plan_id":"cebpf4jnsgd1na2vs0mg"},{"bike_id":"89dcea3a-f7f7-44b2-9d2c-a3300861829d","system_id":"levelo_inurba_marseille","lat":43.27881,"lon":5.39712,"is_reserved":false,"is_disabled":false,"rental_uris":{"android":"levelo://app?vid=89dcea3a-f7f7-44b2-9d2c-a3300861829d","ios":"levelo://app?vid=89dcea3a-f7f7-44b2-9d2c-a3300861829d"},"vehicle_type_id":"4","last_reported":1753560684,"current_range_meters":6000,"station_id":"","pricing_plan_id":"cebpf4jnsgd1na2vs0mg"},{"bike_id":"b137f772-a62f-40b3-8a15-168f768e4ac2","system_id":"levelo_inurba_marseille","lat":43.31363,"lon":5.38487,"is_reserved":false,"is_disabled":false,"rental_uris":{"android":"levelo://app?vid=b137f772-a62f-40b3-8a15-168f768e4ac2","ios":"levelo://app?vid=b137f772-a62f-40b3-8a15-168f768e4ac2"},"vehicle_type_id":"4","last_reported":1753560684,"current_range_meters":6000,"station_id":"ce4bgt92rcd13ifvqcf0","pricing_plan_id":"cebpf4jnsgd1na2vs0mg"},{"bike_id":"4a12b5a2-e9f0-4ab7-9dcd-d91be8d5e3b0","system_id":"levelo_inurba_marseille","lat":43.30543,"lon":5.36534,"is_reserved":false,"is_disabled":true,"rental_uris":{"android":"levelo://app?vid=4a12b5a2-e9f0-4ab7-9dcd-d91be8d5e3b0","ios":"levelo://app?vid=4a12b5a2-e9f0-4ab7-9dcd-d91be8d5e3b0"},"vehicle_type_id":"4","last_reported":1753560684,"current_range_meters":6000,"station_id":"ce4bgs12rcd13ifvqcag","pricing_plan_id":"cebpf4jnsgd1na2vs0mg"},{"bike_id":"be1f46e1-b208-4477-ac0e-0e8346ce7117","system_id":"levelo_inurba_marseille","lat":43.22508,"lon":5.34775,"is_reserved":false,"is_disabled":false,"rental_uris":{"android":"levelo://app?vid=be1f46e1-b208-4477-ac0e-0e8346ce7117","ios":"levelo://app?vid=be1f46e1-b208-4477-ac0e-0e8346ce7117"},"vehicle_type_id":"4","last_reported":1753560684,"current_range_meters":6400,"station_id":"st_cvj5dfep6f1abm77gieg","pricing_plan_id":"cebpf4jnsgd1na2vs0mg"},{"bike_id":"f7dc6376-259b-42d4-ad48-a6a242eeea28","system_id":"levelo_inurba_marseille","lat":43.30928,"lon":5.40146,"is_reserved":false,"is_disabled":false,"rental_uris":{"android":"levelo://app?vid=f7dc6376-259b-42d4-ad48-a6a242eeea28","ios":"levelo://app?vid=f7dc6376-259b-42d4-ad48-a6a242eeea28"},"vehicle_type_id":"4","last_reported":1753560684,"current_range_meters":6400,"station_id":"ce4bgvp2rcd13ifvqct0","pricing_plan_id":"cebpf4jnsgd1na2vs0mg"},{"bike_id":"cac6b145-40cb-4d72-82d7-4e39fccf8c3e","system_id":"levelo_inurba_marseille","lat":43.30548,"lon":5.36713,"is_reserved":false,"is_disabled":false,"rental_uris":{"android":"levelo://app?vid=cac6b145-40cb-4d72-82d7-4e39fccf8c3e","ios":"levelo://app?vid=cac6b145-40cb-4d72-82d7-4e39fccf8c3e"},"vehicle_type_id":"4","last_reported":1753560684,"current_range_meters":6400,"station_id":"ce4bgrp2rcd13ifvqc9g","pricing_plan_id":"cebpf4jnsgd1na2vs0mg"},{"bike_id":"659696a2-3854-4019-bdd0-5ad56ba4750d","system_id":"levelo_inurba_marseille","lat":43.28156,"lon":5.42649,"is_reserved":false,"is_disabled":true,"rental_uris":{"android":"levelo://app?vid=659696a2-3854-4019-bdd0-5ad56ba4750d","ios":"levelo://app?vid=659696a2-3854-4019-bdd0-5ad56ba4750d"},"vehicle_type_id":"4","last_reported":1753560684,"current_range_meters":6800,"station_id":"ce4bhnh2rcd13ifvqgug","pricing_plan_id":"cebpf4jnsgd1na2vs0mg"},{"bike_id":"f457f708-82e4-4479-96fb-90c891b186c6","system_id":"levelo_inurba_marseille","lat":43.30375,"lon":5.42487,"is_reserved":false,"is_disabled":false,"rental_uris":{"android":"levelo://app?vid=f457f708-82e4-4479-96fb-90c891b186c6","ios":"levelo://app?vid=f457f708-82e4-4479-96fb-90c891b186c6"},"vehicle_type_id":"4","last_reported":1753560684,"current_range_meters":4000,"station_id":"ce4bhoh2rcd13ifvqh6g","pricing_plan_id":"cebpf4jnsgd1na2vs0mg"},{"bike_id":"9556f6fd-cc42-4cc7-b77f-6b0d5c6d9408","system_id":"levelo_inurba_marseille","lat":43.260315,"lon":5.375416,"is_reserved":false,"is_disabled":false,"rental_uris":{"android":"levelo://app?vid=9556f6fd-cc42-4cc7-b77f-6b0d5c6d9408","ios":"levelo://app?vid=9556f6fd-cc42-4cc7-b77f-6b0d5c6d9408"},"vehicle_type_id":"4","last_reported":1753560684,"current_range_meters":6800,"station_id":"cpo3532slgdg3j2ikp40","pricing_plan_id":"cebpf4jnsgd1na2vs0mg"},{"bike_id":"1ed19a49-f975-4d4d-91ac-e1dcf001e0af","system_id":"levelo_inurba_marseille","lat":43.23967,"lon":5.36635,"is_reserved":false,"is_disabled":false,"rental_uris":{"android":"levelo://app?vid=1ed19a49-f975-4d4d-91ac-e1dcf001e0af","ios":"levelo://app?vid=1ed19a49-f975-4d4d-91ac-e1dcf001e0af"},"vehicle_type_id":"4","last_reported":1753560684,"current_range_meters":7200,"station_id":"ce4bhi12rcd13ifvqfp0","pricing_plan_id":"cebpf4jnsgd1na2vs0mg"},{"bike_id":"3540eb60-52c2-416e-9717-7bef9c01caab","system_id":"levelo_inurba_marseille","lat":43.29541,"lon":5.38542,"is_reserved":false,"is_disabled":false,"rental_uris":{"android":"levelo://app?vid=3540eb60-52c2-416e-9717-7bef9c01caab","ios":"levelo://app?vid=3540eb60-52c2-416e-9717-7bef9c01caab"},"vehicle_type_id":"4","last_reported":1753560684,"current_range_meters":7200,"station_id":"ce4bgih2rcd13ifvqba0","pricing_plan_id":"cebpf4jnsgd1na2vs0mg"},{"bike_id":"f5dd4eff-e590-4746-a85d-4380d4ee087d","system_id":"levelo_inurba_marseille","lat":43.29026,"lon":5.38646,"is_reserved":false,"is_disabled":false,"rental_uris":{"android":"levelo://app?vid=f5dd4eff-e590-4746-a85d-4380d4ee087d","ios":"levelo://app?vid=f5dd4eff-e590-4746-a85d-4380d4ee087d"},"vehicle_type_id":"4","last_reported":1753560684,"current_range_meters":7200,"station_id":"ce4bh4p2rcd13ifvqe0g","pricing_plan_id":"cebpf4jnsgd1na2vs0mg"},{"bike_id":"ac3ae55b-c759-4ea4-8abd-298fbeb52638","system_id":"levelo_inurba_marseille","lat":43.32113,"lon":5.36777,"is_reserved":false,"is_disabled":false,"rental_uris":{"android":"levelo://app?vid=ac3ae55b-c759-4ea4-8abd-298fbeb52638","ios":"levelo://app?vid=ac3ae55b-c759-4ea4-8abd-298fbeb52638"},"vehicle_type_id":"4","last_reported":1753560684,"current_range_meters":7200,"station_id":"ce4bhrh2rcd13ifvqhug","pricing_plan_id":"cebpf4jnsgd1na2vs0mg"},{"bike_id":"4d59e1de-b26d-45e9-93ba-2895a9a1ffbd","system_id":"levelo_inurba_marseille","lat":43.2951,"lon":5.38661,"is_reserved":false,"is_disabled":false,"rental_uris":{"android":"levelo://app?vid=4d59e1de-b26d-45e9-93ba-2895a9a1ffbd","ios":"levelo://app?vid=4d59e1de-b26d-45e9-93ba-2895a9a1ffbd"},"vehicle_type_id":"4","last_reported":1753560684,"current_range_meters":8000,"station_id":"","pricing_plan_id":"cebpf4jnsgd1na2vs0mg"},{"bike_id":"078febbd-6d49-4abf-8b46-d33f87f8da46","system_id":"levelo_inurba_marseille","lat":43.25452,"lon":5.38007,"is_reserved":false,"is_disabled":false,"rental_uris":{"android":"levelo://app?vid=078febbd-6d49-4abf-8b46-d33f87f8da46","ios":"levelo://app?vid=078febbd-6d49-4abf-8b46-d33f87f8da46"},"vehicle_type_id":"4","last_reported":1753560684,"current_range_meters":8000,"station_id":"","pricing_plan_id":"cebpf4jnsgd1na2vs0mg"},{"bike_id":"4177c350-b39d-4243-a455-e13f00e80b0a","system_id":"levelo_inurba_marseille","lat":43.26189,"lon":5.37448,"is_reserved":false,"is_disabled":true,"rental_uris":{"android":"levelo://app?vid=4177c350-b39d-4243-a455-e13f00e80b0a","ios":"levelo://app?vid=4177c350-b39d-4243-a455-e13f00e80b0a"},"vehicle_type_id":"4","last_reported":1753560684,"current_range_meters":8000,"station_id":"ce4bhgp2rcd13ifvqfc0","pricing_plan_id":"cebpf4jnsgd1na2vs0mg"},{"bike_id":"68efc304-0d41-4c98-a023-943580f46380","system_id":"levelo_inurba_marseille","lat":43.22495,"lon":5.34793,"is_reserved":false,"is_disabled":true,"rental_uris":{"android":"levelo://app?vid=68efc304-0d41-4c98-a023-943580f46380","ios":"levelo://app?vid=68efc304-0d41-4c98-a023-943580f46380"},"vehicle_type_id":"4","last_reported":1753560684,"current_range_meters":8000,"station_id":"st_cvj5dfep6f1abm77gieg","pricing_plan_id":"cebpf4jnsgd1na2vs0mg"},{"bike_id":"4804eb22-4e6f-4277-8659-0ce20ee5b0b6","system_id":"levelo_inurba_marseille","lat":43.313662,"lon":5.384866,"is_reserved":false,"is_disabled":false,"rental_uris":{"android":"levelo://app?vid=4804eb22-4e6f-4277-8659-0ce20ee5b0b6","ios":"levelo://app?vid=4804eb22-4e6f-4277-8659-0ce20ee5b0b6"},"vehicle_type_id":"4","last_reported":1753560684,"current_range_meters":8000,"station_id":"ce4bgt92rcd13ifvqcf0","pricing_plan_id":"cebpf4jnsgd1na2vs0mg"},{"bike_id":"845562e7-8619-4aab-88d9-46e2b2779b2c","system_id":"levelo_inurba_marseille","lat":43.2319,"lon":5.4,"is_reserved":false,"is_disabled":false,"rental_uris":{"android":"levelo://app?vid=845562e7-8619-4aab-88d9-46e2b2779b2c","ios":"levelo://app?vid=845562e7-8619-4aab-88d9-46e2b2779b2c"},"vehicle_type_id":"4","last_reported":1753560684,"current_range_meters":8000,"station_id":"ce4bhn12rcd13ifvqgqg","pricing_plan_id":"cebpf4jnsgd1na2vs0mg"},{"bike_id":"c1dcf064-7633-4f3e-9c7d-cf25342fb85f","system_id":"levelo_inurba_marseille","lat":43.27203,"lon":5.39185,"is_reserved":false,"is_disabled":true,"rental_uris":{"android":"levelo://app?vid=c1dcf064-7633-4f3e-9c7d-cf25342fb85f","ios":"levelo://app?vid=c1dcf064-7633-4f3e-9c7d-cf25342fb85f"},"vehicle_type_id":"4","last_reported":1753560684,"current_range_meters":8000,"station_id":"ce4bhhp2rcd13ifvqfm0","pricing_plan_id":"cebpf4jnsgd1na2vs0mg"},{"bike_id":"2ff2b766-7e49-40af-9c88-962641a43855","system_id":"levelo_inurba_marseille","lat":43.2656,"lon":5.37282,"is_reserved":false,"is_disabled":false,"rental_uris":{"android":"levelo://app?vid=2ff2b766-7e49-40af-9c88-962641a43855","ios":"levelo://app?vid=2ff2b766-7e49-40af-9c88-962641a43855"},"vehicle_type_id":"4","last_reported":1753560684,"current_range_meters":8400,"station_id":"ce4bhg12rcd13ifvqf70","pricing_plan_id":"cebpf4jnsgd1na2vs0mg"},{"bike_id":"efc9fa4a-5b10-4284-af0e-746bb6fb9a94","system_id":"levelo_inurba_marseille","lat":43.31358,"lon":5.38491,"is_reserved":false,"is_disabled":false,"rental_uris":{"android":"levelo://app?vid=efc9fa4a-5b10-4284-af0e-746bb6fb9a94","ios":"levelo://app?vid=efc9fa4a-5b10-4284-af0e-746bb6fb9a94"},"vehicle_type_id":"4","last_reported":1753560684,"current_range_meters":8400,"station_id":"ce4bgt92rcd13ifvqcf0","pricing_plan_id":"cebpf4jnsgd1na2vs0mg"},{"bike_id":"fa38850d-1101-4056-a874-887fac42d81d","system_id":"levelo_inurba_marseille","lat":43.3033,"lon":5.40442,"is_reserved":false,"is_disabled":false,"rental_uris":{"android":"levelo://app?vid=fa38850d-1101-4056-a874-887fac42d81d","ios":"levelo://app?vid=fa38850d-1101-4056-a874-887fac42d81d"},"vehicle_type_id":"4","last_reported":1753560684,"current_range_meters":8400,"station_id":"ce4bh012rcd13ifvqd10","pricing_plan_id":"cebpf4jnsgd1na2vs0mg"},{"bike_id":"40eaf862-a003-4768-ac75-b4b9be3d43f1","system_id":"levelo_inurba_marseille","lat":43.26205,"lon":5.37451,"is_reserved":false,"is_disabled":false,"rental_uris":{"android":"levelo://app?vid=40eaf862-a003-4768-ac75-b4b9be3d43f1","ios":"levelo://app?vid=40eaf862-a003-4768-ac75-b4b9be3d43f1"},"vehicle_type_id":"4","last_reported":1753560684,"current_range_meters":8400,"station_id":"ce4bhgp2rcd13ifvqfc0","pricing_plan_id":"cebpf4jnsgd1na2vs0mg"},{"bike_id":"c49430b4-18eb-4d6d-ab60-1ad85e196786","system_id":"levelo_inurba_marseille","lat":43.28673,"lon":5.36332,"is_reserved":false,"is_disabled":true,"rental_uris":{"android":"levelo://app?vid=c49430b4-18eb-4d6d-ab60-1ad85e196786","ios":"levelo://app?vid=c49430b4-18eb-4d6d-ab60-1ad85e196786"},"vehicle_type_id":"4","last_reported":1753560684,"current_range_meters":8400,"station_id":"ce4bhah2rcd13ifvqej0","pricing_plan_id":"cebpf4jnsgd1na2vs0mg"},{"bike_id":"b84dda7d-02a9-49f2-b13b-e5e056def628","system_id":"levelo_inurba_marseille","lat":43.29229,"lon":5.38476,"is_reserved":false,"is_disabled":false,"rental_uris":{"android":"levelo://app?vid=b84dda7d-02a9-49f2-b13b-e5e056def628","ios":"levelo://app?vid=b84dda7d-02a9-49f2-b13b-e5e056def628"},"vehicle_type_id":"4","last_reported":1753560684,"current_range_meters":8400,"station_id":"","pricing_plan_id":"cebpf4jnsgd1na2vs0mg"},{"bike_id":"13c4991c-3e29-4005-9c0f-381d2d699abf","system_id":"levelo_inurba_marseille","lat":43.289002,"lon":5.360396,"is_reserved":false,"is_disabled":false,"rental_uris":{"android":"levelo://app?vid=13c4991c-3e29-4005-9c0f-381d2d699abf","ios":"levelo://app?vid=13c4991c-3e29-4005-9c0f-381d2d699abf"},"vehicle_type_id":"4","last_reported":1753560684,"current_range_meters":8400,"station_id":"","pricing_plan_id":"cebpf4jnsgd1na2vs0mg"},{"bike_id":"dc9e1c82-30cc-40d0-b96b-43aa21b80cfe","system_id":"levelo_inurba_marseille","lat":43.21198,"lon":5.35095,"is_reserved":false,"is_disabled":false,"rental_uris":{"android":"levelo://app?vid=dc9e1c82-30cc-40d0-b96b-43aa21b80cfe","ios":"levelo://app?vid=dc9e1c82-30cc-40d0-b96b-43aa21b80cfe"},"vehicle_type_id":"4","last_reported":1753560684,"current_range_meters":8400,"station_id":"st_cvj6sg6p6f1abm77japg","pricing_plan_id":"cebpf4jnsgd1na2vs0mg"},{"bike_id":"1bac6cd8-6a7f-47d4-abbb-f67ba2e65f94","system_id":"levelo_inurba_marseille","lat":43.26205,"lon":5.3744,"is_reserved":false,"is_disabled":false,"rental_uris":{"android":"levelo://app?vid=1bac6cd8-6a7f-47d4-abbb-f67ba2e65f94","ios":"levelo://app?vid=1bac6cd8-6a7f-47d4-abbb-f67ba2e65f94"},"vehicle_type_id":"4","last_reported":1753560684,"current_range_meters":8400,"station_id":"ce4bhgp2rcd13ifvqfc0","pricing_plan_id":"cebpf4jnsgd1na2vs0mg"},{"bike_id":"baff93ed-5c28-417b-acd9-47c5590ea6d8","system_id":"levelo_inurba_marseille","lat":43.28355,"lon":5.38632,"is_reserved":false,"is_disabled":false,"rental_uris":{"android":"levelo://app?vid=baff93ed-5c28-417b-acd9-47c5590ea6d8","ios":"levelo://app?vid=baff93ed-5c28-417b-acd9-47c5590ea6d8"},"vehicle_type_id":"4","last_reported":1753560684,"current_range_meters":8800,"station_id":"ce4bh492rcd13ifvqdvg","pricing_plan_id":"cebpf4jnsgd1na2vs0mg"},{"bike_id":"abdd0d3f-effc-46df-a7f2-839ac68ee86c","system_id":"levelo_inurba_marseille","lat":43.28651,"lon":5.36364,"is_reserved":false,"is_disabled":false,"rental_uris":{"android":"levelo://app?vid=abdd0d3f-effc-46df-a7f2-839ac68ee86c","ios":"levelo://app?vid=abdd0d3f-effc-46df-a7f2-839ac68ee86c"},"vehicle_type_id":"4","last_reported":1753560684,"current_range_meters":8400,"station_id":"ce4bhah2rcd13ifvqej0","pricing_plan_id":"cebpf4jnsgd1na2vs0mg"},{"bike_id":"5f19d144-5d57-414e-bbd2-f77799874ad2","system_id":"levelo_inurba_marseille","lat":43.32663,"lon":5.40972,"is_reserved":false,"is_disabled":false,"rental_uris":{"android":"levelo://app?vid=5f19d144-5d57-414e-bbd2-f77799874ad2","ios":"levelo://app?vid=5f19d144-5d57-414e-bbd2-f77799874ad2"},"vehicle_type_id":"4","last_reported":1753560684,"current_range_meters":8800,"station_id":"ce4bhpp2rcd13ifvqhgg","pricing_plan_id":"cebpf4jnsgd1na2vs0mg"},{"bike_id":"43cf4049-15dd-4e8c-88a8-61cd8dc10bf5","system_id":"levelo_inurba_marseille","lat":43.33239,"lon":5.37891,"is_reserved":false,"is_disabled":false,"rental_uris":{"android":"levelo://app?vid=43cf4049-15dd-4e8c-88a8-61cd8dc10bf5","ios":"levelo://app?vid=43cf4049-15dd-4e8c-88a8-61cd8dc10bf5"},"vehicle_type_id":"4","last_reported":1753560684,"current_range_meters":8800,"station_id":"","pricing_plan_id":"cebpf4jnsgd1na2vs0mg"},{"bike_id":"f7359c97-f954-4939-9b42-a9aafe1bf6d6","system_id":"levelo_inurba_marseille","lat":43.26024,"lon":5.37551,"is_reserved":false,"is_disabled":false,"rental_uris":{"android":"levelo://app?vid=f7359c97-f954-4939-9b42-a9aafe1bf6d6","ios":"levelo://app?vid=f7359c97-f954-4939-9b42-a9aafe1bf6d6"},"vehicle_type_id":"4","last_reported":1753560684,"current_range_meters":8800,"station_id":"ce4bhgh2rcd13ifvqfa0","pricing_plan_id":"cebpf4jnsgd1na2vs0mg"},{"bike_id":"2c7a7be1-31b5-4c85-9efb-e344ecaee489","system_id":"levelo_inurba_marseille","lat":43.30247,"lon":5.40068,"is_reserved":false,"is_disabled":false,"rental_uris":{"android":"levelo://app?vid=2c7a7be1-31b5-4c85-9efb-e344ecaee489","ios":"levelo://app?vid=2c7a7be1-31b5-4c85-9efb-e344ecaee489"},"vehicle_type_id":"4","last_reported":1753560684,"current_range_meters":8800,"station_id":"ce4bgvh2rcd13ifvqcs0","pricing_plan_id":"cebpf4jnsgd1na2vs0mg"},{"bike_id":"e30cd698-5628-413d-a301-17c0cac74184","system_id":"levelo_inurba_marseille","lat":43.27837,"lon":5.39212,"is_reserved":false,"is_disabled":false,"rental_uris":{"android":"levelo://app?vid=e30cd698-5628-413d-a301-17c0cac74184","ios":"levelo://app?vid=e30cd698-5628-413d-a301-17c0cac74184"},"vehicle_type_id":"4","last_reported":1753560684,"current_range_meters":8800,"station_id":"ce4bhjp2rcd13ifvqga0","pricing_plan_id":"cebpf4jnsgd1na2vs0mg"},{"bike_id":"db52a829-b6a3-4b47-a8ef-30a50a18060b","system_id":"levelo_inurba_marseille","lat":43.29368,"lon":5.37879,"is_reserved":false,"is_disabled":false,"rental_uris":{"android":"levelo://app?vid=db52a829-b6a3-4b47-a8ef-30a50a18060b","ios":"levelo://app?vid=db52a829-b6a3-4b47-a8ef-30a50a18060b"},"vehicle_type_id":"4","last_reported":1753560684,"current_range_meters":8800,"station_id":"ce4bgjh2rcd13ifvqbf0","pricing_plan_id":"cebpf4jnsgd1na2vs0mg"},{"bike_id":"2598e986-7932-4935-a8a1-f877a3a17381","system_id":"levelo_inurba_marseille","lat":43.28974,"lon":5.37834,"is_reserved":false,"is_disabled":false,"rental_uris":{"android":"levelo://app?vid=2598e986-7932-4935-a8a1-f877a3a17381","ios":"levelo://app?vid=2598e986-7932-4935-a8a1-f877a3a17381"},"vehicle_type_id":"4","last_reported":1753560684,"current_range_meters":8800,"station_id":"ce4bh9p2rcd13ifvqed0","pricing_plan_id":"cebpf4jnsgd1na2vs0mg"},{"bike_id":"310b2400-dd2e-4320-8ec4-6b74e028c0c7","system_id":"levelo_inurba_marseille","lat":43.225043,"lon":5.347773,"is_reserved":false,"is_disabled":false,"rental_uris":{"android":"levelo://app?vid=310b2400-dd2e-4320-8ec4-6b74e028c0c7","ios":"levelo://app?vid=310b2400-dd2e-4320-8ec4-6b74e028c0c7"},"vehicle_type_id":"4","last_reported":1753560684,"current_range_meters":8800,"station_id":"","pricing_plan_id":"cebpf4jnsgd1na2vs0mg"},{"bike_id":"a0d60e44-246d-4cc0-aef3-dc664879b373","system_id":"levelo_inurba_marseille","lat":43.21756,"lon":5.34614,"is_reserved":false,"is_disabled":true,"rental_uris":{"android":"levelo://app?vid=a0d60e44-246d-4cc0-aef3-dc664879b373","ios":"levelo://app?vid=a0d60e44-246d-4cc0-aef3-dc664879b373"},"vehicle_type_id":"4","last_reported":1753560684,"current_range_meters":9200,"station_id":"st_cvj6r9ubvosntc0bgbag","pricing_plan_id":"cebpf4jnsgd1na2vs0mg"},{"bike_id":"636a1f60-6a39-42c8-ae46-fd9c16ca81f9","system_id":"levelo_inurba_marseille","lat":43.25113,"lon":5.40319,"is_reserved":false,"is_disabled":false,"rental_uris":{"android":"levelo://app?vid=636a1f60-6a39-42c8-ae46-fd9c16ca81f9","ios":"levelo://app?vid=636a1f60-6a39-42c8-ae46-fd9c16ca81f9"},"vehicle_type_id":"4","last_reported":1753560684,"current_range_meters":9200,"station_id":"ce4bhlh2rcd13ifvqgig","pricing_plan_id":"cebpf4jnsgd1na2vs0mg"},{"bike_id":"2bebf0cd-8ab1-4b0f-a50e-75ca58f017d7","system_id":"levelo_inurba_marseille","lat":43.28441,"lon":5.39196,"is_reserved":false,"is_disabled":false,"rental_uris":{"android":"levelo://app?vid=2bebf0cd-8ab1-4b0f-a50e-75ca58f017d7","ios":"levelo://app?vid=2bebf0cd-8ab1-4b0f-a50e-75ca58f017d7"},"vehicle_type_id":"4","last_reported":1753560684,"current_range_meters":9200,"station_id":"ce4bhoh2rcd13ifvqh5g","pricing_plan_id":"cebpf4jnsgd1na2vs0mg"},{"bike_id":"25457491-7d55-4fd5-84d9-1c5f650dc7b7","system_id":"levelo_inurba_marseille","lat":43.24176,"lon":5.39737,"is_reserved":false,"is_disabled":false,"rental_uris":{"android":"levelo://app?vid=25457491-7d55-4fd5-84d9-1c5f650dc7b7","ios":"levelo://app?vid=25457491-7d55-4fd5-84d9-1c5f650dc7b7"},"vehicle_type_id":"4","last_reported":1753560684,"current_range_meters":9200,"station_id":"ce4bhn12rcd13ifvqgpg","pricing_plan_id":"cebpf4jnsgd1na2vs0mg"},{"bike_id":"acdc15f3-f881-4795-bd43-7b1b297ebaa4","system_id":"levelo_inurba_marseille","lat":43.27066,"lon":5.4228,"is_reserved":false,"is_disabled":true,"rental_uris":{"android":"levelo://app?vid=acdc15f3-f881-4795-bd43-7b1b297ebaa4","ios":"levelo://app?vid=acdc15f3-f881-4795-bd43-7b1b297ebaa4"},"vehicle_type_id":"4","last_reported":1753560684,"current_range_meters":9200,"station_id":"ce4bhk92rcd13ifvqgb0","pricing_plan_id":"cebpf4jnsgd1na2vs0mg"},{"bike_id":"ab991371-506a-411d-b1d8-1efc5ac7cde6","system_id":"levelo_inurba_marseille","lat":43.228038,"lon":5.351784,"is_reserved":false,"is_disabled":false,"rental_uris":{"android":"levelo://app?vid=ab991371-506a-411d-b1d8-1efc5ac7cde6","ios":"levelo://app?vid=ab991371-506a-411d-b1d8-1efc5ac7cde6"},"vehicle_type_id":"4","last_reported":1753560684,"current_range_meters":9200,"station_id":"","pricing_plan_id":"cebpf4jnsgd1na2vs0mg"},{"bike_id":"dcb155a7-89f0-4bfb-a080-a31908c2fed3","system_id":"levelo_inurba_marseille","lat":43.29095,"lon":5.38133,"is_reserved":false,"is_disabled":false,"rental_uris":{"android":"levelo://app?vid=dcb155a7-89f0-4bfb-a080-a31908c2fed3","ios":"levelo://app?vid=dcb155a7-89f0-4bfb-a080-a31908c2fed3"},"vehicle_type_id":"4","last_reported":1753560684,"current_range_meters":9200,"station_id":"ce4bh512rcd13ifvqe2g","pricing_plan_id":"cebpf4jnsgd1na2vs0mg"},{"bike_id":"a3fe9995-2e3e-423b-9540-429a92fa997e","system_id":"levelo_inurba_marseille","lat":43.30199,"lon":5.37151,"is_reserved":false,"is_disabled":false,"rental_uris":{"android":"levelo://app?vid=a3fe9995-2e3e-423b-9540-429a92fa997e","ios":"levelo://app?vid=a3fe9995-2e3e-423b-9540-429a92fa997e"},"vehicle_type_id":"4","last_reported":1753560684,"current_range_meters":9200,"station_id":"","pricing_plan_id":"cebpf4jnsgd1na2vs0mg"},{"bike_id":"ecde7293-e8b5-44bd-8544-11733922f0af","system_id":"levelo_inurba_marseille","lat":43.29183,"lon":5.3714,"is_reserved":false,"is_disabled":false,"rental_uris":{"android":"levelo://app?vid=ecde7293-e8b5-44bd-8544-11733922f0af","ios":"levelo://app?vid=ecde7293-e8b5-44bd-8544-11733922f0af"},"vehicle_type_id":"4","last_reported":1753560684,"current_range_meters":9200,"station_id":"ce4bha92rcd13ifvqeh0","pricing_plan_id":"cebpf4jnsgd1na2vs0mg"},{"bike_id":"72baa102-4a07-4dd4-abca-6fd25a5c09a8","system_id":"levelo_inurba_marseille","lat":43.29533,"lon":5.38544,"is_reserved":false,"is_disabled":false,"rental_uris":{"android":"levelo://app?vid=72baa102-4a07-4dd4-abca-6fd25a5c09a8","ios":"levelo://app?vid=72baa102-4a07-4dd4-abca-6fd25a5c09a8"},"vehicle_type_id":"4","last_reported":1753560684,"current_range_meters":9200,"station_id":"ce4bgih2rcd13ifvqba0","pricing_plan_id":"cebpf4jnsgd1na2vs0mg"},{"bike_id":"43f6a05e-bffd-42de-95db-bda4a035b036","system_id":"levelo_inurba_marseille","lat":43.2927,"lon":5.38449,"is_reserved":false,"is_disabled":false,"rental_uris":{"android":"levelo://app?vid=43f6a05e-bffd-42de-95db-bda4a035b036","ios":"levelo://app?vid=43f6a05e-bffd-42de-95db-bda4a035b036"},"vehicle_type_id":"4","last_reported":1753560684,"current_range_meters":9200,"station_id":"ce4bh692rcd13ifvqea0","pricing_plan_id":"cebpf4jnsgd1na2vs0mg"},{"bike_id":"22dca147-1260-44d8-822d-d9d1d50cce31","system_id":"levelo_inurba_marseille","lat":43.27473,"lon":5.39584,"is_reserved":false,"is_disabled":false,"rental_uris":{"android":"levelo://app?vid=22dca147-1260-44d8-822d-d9d1d50cce31","ios":"levelo://app?vid=22dca147-1260-44d8-822d-d9d1d50cce31"},"vehicle_type_id":"4","last_reported":1753560684,"current_range_meters":9600,"station_id":"","pricing_plan_id":"cebpf4jnsgd1na2vs0mg"},{"bike_id":"64fb8bc2-1d90-4608-a519-44146b3d6adf","system_id":"levelo_inurba_marseille","lat":43.28887,"lon":5.36218,"is_reserved":false,"is_disabled":false,"rental_uris":{"android":"levelo://app?vid=64fb8bc2-1d90-4608-a519-44146b3d6adf","ios":"levelo://app?vid=64fb8bc2-1d90-4608-a519-44146b3d6adf"},"vehicle_type_id":"4","last_reported":1753560684,"current_range_meters":9600,"station_id":"","pricing_plan_id":"cebpf4jnsgd1na2vs0mg"},{"bike_id":"ebedf560-2962-4a10-89df-c049dab8b897","system_id":"levelo_inurba_marseille","lat":43.28447,"lon":5.39202,"is_reserved":false,"is_disabled":false,"rental_uris":{"android":"levelo://app?vid=ebedf560-2962-4a10-89df-c049dab8b897","ios":"levelo://app?vid=ebedf560-2962-4a10-89df-c049dab8b897"},"vehicle_type_id":"4","last_reported":1753560684,"current_range_meters":9200,"station_id":"ce4bhoh2rcd13ifvqh5g","pricing_plan_id":"cebpf4jnsgd1na2vs0mg"},{"bike_id":"b51f7435-dbc2-4c41-9df5-b51a8e8eecc6","system_id":"levelo_inurba_marseille","lat":43.29257,"lon":5.38441,"is_reserved":false,"is_disabled":false,"rental_uris":{"android":"levelo://app?vid=b51f7435-dbc2-4c41-9df5-b51a8e8eecc6","ios":"levelo://app?vid=b51f7435-dbc2-4c41-9df5-b51a8e8eecc6"},"vehicle_type_id":"4","last_reported":1753560684,"current_range_meters":9600,"station_id":"ce4bh692rcd13ifvqea0","pricing_plan_id":"cebpf4jnsgd1na2vs0mg"},{"bike_id":"a2192683-b358-4306-8dab-33ad2e0c8613","system_id":"levelo_inurba_marseille","lat":43.28414,"lon":5.37495,"is_reserved":false,"is_disabled":false,"rental_uris":{"android":"levelo://app?vid=a2192683-b358-4306-8dab-33ad2e0c8613","ios":"levelo://app?vid=a2192683-b358-4306-8dab-33ad2e0c8613"},"vehicle_type_id":"4","last_reported":1753560684,"current_range_meters":9600,"station_id":"ce4bh412rcd13ifvqds0","pricing_plan_id":"cebpf4jnsgd1na2vs0mg"},{"bike_id":"75a52d90-a84e-49e8-9197-7fd3f8d0259a","system_id":"levelo_inurba_marseille","lat":43.262238,"lon":5.374286,"is_reserved":false,"is_disabled":true,"rental_uris":{"android":"levelo://app?vid=75a52d90-a84e-49e8-9197-7fd3f8d0259a","ios":"levelo://app?vid=75a52d90-a84e-49e8-9197-7fd3f8d0259a"},"vehicle_type_id":"4","last_reported":1753560684,"current_range_meters":9600,"station_id":"","pricing_plan_id":"cebpf4jnsgd1na2vs0mg"},{"bike_id":"6b9db46f-667b-4f54-99f6-0c9a87d33972","system_id":"levelo_inurba_marseille","lat":43.28663,"lon":5.38659,"is_reserved":false,"is_disabled":false,"rental_uris":{"android":"levelo://app?vid=6b9db46f-667b-4f54-99f6-0c9a87d33972","ios":"levelo://app?vid=6b9db46f-667b-4f54-99f6-0c9a87d33972"},"vehicle_type_id":"4","last_reported":1753560684,"current_range_meters":9600,"station_id":"ce4bh492rcd13ifvqdug","pricing_plan_id":"cebpf4jnsgd1na2vs0mg"},{"bike_id":"abb351cb-092c-44cd-8391-e7a9beb4d4ce","system_id":"levelo_inurba_marseille","lat":43.297742,"lon":5.370994,"is_reserved":false,"is_disabled":false,"rental_uris":{"android":"levelo://app?vid=abb351cb-092c-44cd-8391-e7a9beb4d4ce","ios":"levelo://app?vid=abb351cb-092c-44cd-8391-e7a9beb4d4ce"},"vehicle_type_id":"4","last_reported":1753560684,"current_range_meters":9600,"station_id":"ce4bgop2rcd13ifvqc1g","pricing_plan_id":"cebpf4jnsgd1na2vs0mg"},{"bike_id":"b5c5fb35-8f51-4883-8cf0-4de24da6c1c7","system_id":"levelo_inurba_marseille","lat":43.29537,"lon":5.38536,"is_reserved":false,"is_disabled":false,"rental_uris":{"android":"levelo://app?vid=b5c5fb35-8f51-4883-8cf0-4de24da6c1c7","ios":"levelo://app?vid=b5c5fb35-8f51-4883-8cf0-4de24da6c1c7"},"vehicle_type_id":"4","last_reported":1753560684,"current_range_meters":10000,"station_id":"ce4bgih2rcd13ifvqba0","pricing_plan_id":"cebpf4jnsgd1na2vs0mg"},{"bike_id":"295de28f-5469-421c-873e-076d2fbd1d95","system_id":"levelo_inurba_marseille","lat":43.286095,"lon":5.370587,"is_reserved":false,"is_disabled":false,"rental_uris":{"android":"levelo://app?vid=295de28f-5469-421c-873e-076d2fbd1d95","ios":"levelo://app?vid=295de28f-5469-421c-873e-076d2fbd1d95"},"vehicle_type_id":"4","last_reported":1753560684,"current_range_meters":10000,"station_id":"ce4bht12rcd13ifvqi60","pricing_plan_id":"cebpf4jnsgd1na2vs0mg"},{"bike_id":"6ab0b13c-2ff1-417a-acfd-489d6800d4c9","system_id":"levelo_inurba_marseille","lat":43.27366,"lon":5.36288,"is_reserved":false,"is_disabled":true,"rental_uris":{"android":"levelo://app?vid=6ab0b13c-2ff1-417a-acfd-489d6800d4c9","ios":"levelo://app?vid=6ab0b13c-2ff1-417a-acfd-489d6800d4c9"},"vehicle_type_id":"4","last_reported":1753560684,"current_range_meters":10000,"station_id":"ce4bhbh2rcd13ifvqeo0","pricing_plan_id":"cebpf4jnsgd1na2vs0mg"},{"bike_id":"449ef528-b877-4a44-9afb-6de52f294c83","system_id":"levelo_inurba_marseille","lat":43.262053,"lon":5.37442,"is_reserved":false,"is_disabled":false,"rental_uris":{"android":"levelo://app?vid=449ef528-b877-4a44-9afb-6de52f294c83","ios":"levelo://app?vid=449ef528-b877-4a44-9afb-6de52f294c83"},"vehicle_type_id":"4","last_reported":1753560684,"current_range_meters":10800,"station_id":"ce4bhgp2rcd13ifvqfc0","pricing_plan_id":"cebpf4jnsgd1na2vs0mg"},{"bike_id":"d65551cd-a8d1-4327-a259-ac5852894a06","system_id":"levelo_inurba_marseille","lat":43.31323,"lon":5.39693,"is_reserved":false,"is_disabled":false,"rental_uris":{"android":"levelo://app?vid=d65551cd-a8d1-4327-a259-ac5852894a06","ios":"levelo://app?vid=d65551cd-a8d1-4327-a259-ac5852894a06"},"vehicle_type_id":"4","last_reported":1753560684,"current_range_meters":10800,"station_id":"ce4bgvp2rcd13ifvqcu0","pricing_plan_id":"cebpf4jnsgd1na2vs0mg"},{"bike_id":"7ec44e55-0cf6-4194-8ac4-18eb49d72873","system_id":"levelo_inurba_marseille","lat":43.295288,"lon":5.385394,"is_reserved":false,"is_disabled":false,"rental_uris":{"android":"levelo://app?vid=7ec44e55-0cf6-4194-8ac4-18eb49d72873","ios":"levelo://app?vid=7ec44e55-0cf6-4194-8ac4-18eb49d72873"},"vehicle_type_id":"4","last_reported":1753560684,"current_range_meters":10800,"station_id":"ce4bgih2rcd13ifvqba0","pricing_plan_id":"cebpf4jnsgd1na2vs0mg"},{"bike_id":"536c8a84-7190-41b8-97ac-c943e749bdf3","system_id":"levelo_inurba_marseille","lat":43.326604,"lon":5.40994,"is_reserved":false,"is_disabled":false,"rental_uris":{"android":"levelo://app?vid=536c8a84-7190-41b8-97ac-c943e749bdf3","ios":"levelo://app?vid=536c8a84-7190-41b8-97ac-c943e749bdf3"},"vehicle_type_id":"4","last_reported":1753560684,"current_range_meters":10800,"station_id":"","pricing_plan_id":"cebpf4jnsgd1na2vs0mg"},{"bike_id":"754f55fa-9cec-441a-8b6d-fedcd1f0cfca","system_id":"levelo_inurba_marseille","lat":43.2952,"lon":5.38533,"is_reserved":false,"is_disabled":false,"rental_uris":{"android":"levelo://app?vid=754f55fa-9cec-441a-8b6d-fedcd1f0cfca","ios":"levelo://app?vid=754f55fa-9cec-441a-8b6d-fedcd1f0cfca"},"vehicle_type_id":"4","last_reported":1753560684,"current_range_meters":10800,"station_id":"ce4bgih2rcd13ifvqba0","pricing_plan_id":"cebpf4jnsgd1na2vs0mg"},{"bike_id":"dddd4e1f-d303-422f-8a05-ab1159215706","system_id":"levelo_inurba_marseille","lat":43.30895,"lon":5.37201,"is_reserved":false,"is_disabled":false,"rental_uris":{"android":"levelo://app?vid=dddd4e1f-d303-422f-8a05-ab1159215706","ios":"levelo://app?vid=dddd4e1f-d303-422f-8a05-ab1159215706"},"vehicle_type_id":"4","last_reported":1753560684,"current_range_meters":10000,"station_id":"ce4bguh2rcd13ifvqckg","pricing_plan_id":"cebpf4jnsgd1na2vs0mg"},{"bike_id":"a33599f4-51c0-445c-80f6-1023d744aec9","system_id":"levelo_inurba_marseille","lat":43.26219,"lon":5.37448,"is_reserved":false,"is_disabled":false,"rental_uris":{"android":"levelo://app?vid=a33599f4-51c0-445c-80f6-1023d744aec9","ios":"levelo://app?vid=a33599f4-51c0-445c-80f6-1023d744aec9"},"vehicle_type_id":"4","last_reported":1753560684,"current_range_meters":10800,"station_id":"ce4bhgp2rcd13ifvqfc0","pricing_plan_id":"cebpf4jnsgd1na2vs0mg"},{"bike_id":"8aec49e9-2a7c-473f-936a-01f180d46c56","system_id":"levelo_inurba_marseille","lat":43.225044,"lon":5.347839,"is_reserved":false,"is_disabled":false,"rental_uris":{"android":"levelo://app?vid=8aec49e9-2a7c-473f-936a-01f180d46c56","ios":"levelo://app?vid=8aec49e9-2a7c-473f-936a-01f180d46c56"},"vehicle_type_id":"4","last_reported":1753560684,"current_range_meters":10800,"station_id":"st_cvj5dfep6f1abm77gieg","pricing_plan_id":"cebpf4jnsgd1na2vs0mg"},{"bike_id":"49745255-e461-4259-a8da-aac100b677a5","system_id":"levelo_inurba_marseille","lat":43.29361,"lon":5.3716,"is_reserved":false,"is_disabled":false,"rental_uris":{"android":"levelo://app?vid=49745255-e461-4259-a8da-aac100b677a5","ios":"levelo://app?vid=49745255-e461-4259-a8da-aac100b677a5"},"vehicle_type_id":"4","last_reported":1753560684,"current_range_meters":10800,"station_id":"","pricing_plan_id":"cebpf4jnsgd1na2vs0mg"},{"bike_id":"f2c0d178-a474-46a0-b002-379a7a30c411","system_id":"levelo_inurba_marseille","lat":43.29425,"lon":5.37576,"is_reserved":false,"is_disabled":false,"rental_uris":{"android":"levelo://app?vid=f2c0d178-a474-46a0-b002-379a7a30c411","ios":"levelo://app?vid=f2c0d178-a474-46a0-b002-379a7a30c411"},"vehicle_type_id":"4","last_reported":1753560684,"current_range_meters":11200,"station_id":"","pricing_plan_id":"cebpf4jnsgd1na2vs0mg"},{"bike_id":"c00269c4-bec3-4e78-a59a-052cc91cbaea","system_id":"levelo_inurba_marseille","lat":43.28429,"lon":5.39195,"is_reserved":false,"is_disabled":false,"rental_uris":{"android":"levelo://app?vid=c00269c4-bec3-4e78-a59a-052cc91cbaea","ios":"levelo://app?vid=c00269c4-bec3-4e78-a59a-052cc91cbaea"},"vehicle_type_id":"4","last_reported":1753560684,"current_range_meters":11200,"station_id":"ce4bhoh2rcd13ifvqh5g","pricing_plan_id":"cebpf4jnsgd1na2vs0mg"},{"bike_id":"de99b14c-9afd-4bdd-bc56-50354c110c3d","system_id":"levelo_inurba_marseille","lat":43.25467,"lon":5.37687,"is_reserved":false,"is_disabled":false,"rental_uris":{"android":"levelo://app?vid=de99b14c-9afd-4bdd-bc56-50354c110c3d","ios":"levelo://app?vid=de99b14c-9afd-4bdd-bc56-50354c110c3d"},"vehicle_type_id":"4","last_reported":1753560684,"current_range_meters":11200,"station_id":"","pricing_plan_id":"cebpf4jnsgd1na2vs0mg"},{"bike_id":"9bff4c30-7d52-4173-88ba-afd3702b54f6","system_id":"levelo_inurba_marseille","lat":43.27999,"lon":5.41673,"is_reserved":false,"is_disabled":false,"rental_uris":{"android":"levelo://app?vid=9bff4c30-7d52-4173-88ba-afd3702b54f6","ios":"levelo://app?vid=9bff4c30-7d52-4173-88ba-afd3702b54f6"},"vehicle_type_id":"4","last_reported":1753560684,"current_range_meters":11200,"station_id":"ce4bho12rcd13ifvqh1g","pricing_plan_id":"cebpf4jnsgd1na2vs0mg"},{"bike_id":"01919711-51c0-4b9e-863e-584f9a31b4ec","system_id":"levelo_inurba_marseille","lat":43.29881,"lon":5.39741,"is_reserved":false,"is_disabled":true,"rental_uris":{"android":"levelo://app?vid=01919711-51c0-4b9e-863e-584f9a31b4ec","ios":"levelo://app?vid=01919711-51c0-4b9e-863e-584f9a31b4ec"},"vehicle_type_id":"4","last_reported":1753560684,"current_range_meters":11200,"station_id":"ce4bh0h2rcd13ifvqd50","pricing_plan_id":"cebpf4jnsgd1na2vs0mg"},{"bike_id":"f5a8576c-98ae-4b7d-87b5-1d8d1de87cdc","system_id":"levelo_inurba_marseille","lat":43.29529,"lon":5.38536,"is_reserved":false,"is_disabled":false,"rental_uris":{"android":"levelo://app?vid=f5a8576c-98ae-4b7d-87b5-1d8d1de87cdc","ios":"levelo://app?vid=f5a8576c-98ae-4b7d-87b5-1d8d1de87cdc"},"vehicle_type_id":"4","last_reported":1753560684,"current_range_meters":11200,"station_id":"ce4bgih2rcd13ifvqba0","pricing_plan_id":"cebpf4jnsgd1na2vs0mg"},{"bike_id":"ffe22137-4938-43d3-8f51-f847e8b7e018","system_id":"levelo_inurba_marseille","lat":43.33605,"lon":5.41029,"is_reserved":false,"is_disabled":false,"rental_uris":{"android":"levelo://app?vid=ffe22137-4938-43d3-8f51-f847e8b7e018","ios":"levelo://app?vid=ffe22137-4938-43d3-8f51-f847e8b7e018"},"vehicle_type_id":"4","last_reported":1753560684,"current_range_meters":11200,"station_id":"ce4bhqh2rcd13ifvqhmg","pricing_plan_id":"cebpf4jnsgd1na2vs0mg"},{"bike_id":"ba8a4fd4-1ed0-4e88-9411-11459225781d","system_id":"levelo_inurba_marseille","lat":43.297785,"lon":5.371113,"is_reserved":false,"is_disabled":false,"rental_uris":{"android":"levelo://app?vid=ba8a4fd4-1ed0-4e88-9411-11459225781d","ios":"levelo://app?vid=ba8a4fd4-1ed0-4e88-9411-11459225781d"},"vehicle_type_id":"4","last_reported":1753560684,"current_range_meters":11200,"station_id":"ce4bgop2rcd13ifvqc1g","pricing_plan_id":"cebpf4jnsgd1na2vs0mg"},{"bike_id":"ca01fdbc-198c-4fef-a50f-4370582fba61","system_id":"levelo_inurba_marseille","lat":43.29912,"lon":5.38156,"is_reserved":false,"is_disabled":false,"rental_uris":{"android":"levelo://app?vid=ca01fdbc-198c-4fef-a50f-4370582fba61","ios":"levelo://app?vid=ca01fdbc-198c-4fef-a50f-4370582fba61"},"vehicle_type_id":"4","last_reported":1753560684,"current_range_meters":10800,"station_id":"ce4bgj12rcd13ifvqbc0","pricing_plan_id":"cebpf4jnsgd1na2vs0mg"},{"bike_id":"57755280-973c-4ff3-9c25-8f15e2c5b510","system_id":"levelo_inurba_marseille","lat":43.31872,"lon":5.37373,"is_reserved":false,"is_disabled":false,"rental_uris":{"android":"levelo://app?vid=57755280-973c-4ff3-9c25-8f15e2c5b510","ios":"levelo://app?vid=57755280-973c-4ff3-9c25-8f15e2c5b510"},"vehicle_type_id":"4","last_reported":1753560684,"current_range_meters":11200,"station_id":"","pricing_plan_id":"cebpf4jnsgd1na2vs0mg"},{"bike_id":"29b04cad-1697-44bc-b474-255fd056ecfb","system_id":"levelo_inurba_marseille","lat":43.23145,"lon":5.43748,"is_reserved":false,"is_disabled":false,"rental_uris":{"android":"levelo://app?vid=29b04cad-1697-44bc-b474-255fd056ecfb","ios":"levelo://app?vid=29b04cad-1697-44bc-b474-255fd056ecfb"},"vehicle_type_id":"4","last_reported":1753560684,"current_range_meters":11200,"station_id":"ce4bhmp2rcd13ifvqgog","pricing_plan_id":"cebpf4jnsgd1na2vs0mg"},{"bike_id":"73925dde-7d42-48d8-a0ff-958907b37938","system_id":"levelo_inurba_marseille","lat":43.29596,"lon":5.38108,"is_reserved":false,"is_disabled":false,"rental_uris":{"android":"levelo://app?vid=73925dde-7d42-48d8-a0ff-958907b37938","ios":"levelo://app?vid=73925dde-7d42-48d8-a0ff-958907b37938"},"vehicle_type_id":"4","last_reported":1753560684,"current_range_meters":11200,"station_id":"ce4bgl12rcd13ifvqbo0","pricing_plan_id":"cebpf4jnsgd1na2vs0mg"},{"bike_id":"96fc23b6-ba4f-42c2-86f0-74fc6a55eaec","system_id":"levelo_inurba_marseille","lat":43.28099,"lon":5.3785,"is_reserved":false,"is_disabled":false,"rental_uris":{"android":"levelo://app?vid=96fc23b6-ba4f-42c2-86f0-74fc6a55eaec","ios":"levelo://app?vid=96fc23b6-ba4f-42c2-86f0-74fc6a55eaec"},"vehicle_type_id":"4","last_reported":1753560684,"current_range_meters":11200,"station_id":"ce4bha12rcd13ifvqee0","pricing_plan_id":"cebpf4jnsgd1na2vs0mg"},{"bike_id":"06e69dab-b0cb-4df5-bf2c-53e42a882914","system_id":"levelo_inurba_marseille","lat":43.30146,"lon":5.37419,"is_reserved":false,"is_disabled":false,"rental_uris":{"android":"levelo://app?vid=06e69dab-b0cb-4df5-bf2c-53e42a882914","ios":"levelo://app?vid=06e69dab-b0cb-4df5-bf2c-53e42a882914"},"vehicle_type_id":"4","last_reported":1753560684,"current_range_meters":11600,"station_id":"ce4bgs92rcd13ifvqcc0","pricing_plan_id":"cebpf4jnsgd1na2vs0mg"},{"bike_id":"71946e5b-f718-4338-95f7-1c4ec6479f04","system_id":"levelo_inurba_marseille","lat":43.262104,"lon":5.37441,"is_reserved":false,"is_disabled":false,"rental_uris":{"android":"levelo://app?vid=71946e5b-f718-4338-95f7-1c4ec6479f04","ios":"levelo://app?vid=71946e5b-f718-4338-95f7-1c4ec6479f04"},"vehicle_type_id":"4","last_reported":1753560684,"current_range_meters":11600,"station_id":"ce4bhgp2rcd13ifvqfc0","pricing_plan_id":"cebpf4jnsgd1na2vs0mg"},{"bike_id":"de80e1f8-f338-4fdf-a46a-fb5d0e7700ed","system_id":"levelo_inurba_marseille","lat":43.23965,"lon":5.36625,"is_reserved":false,"is_disabled":false,"rental_uris":{"android":"levelo://app?vid=de80e1f8-f338-4fdf-a46a-fb5d0e7700ed","ios":"levelo://app?vid=de80e1f8-f338-4fdf-a46a-fb5d0e7700ed"},"vehicle_type_id":"4","last_reported":1753560684,"current_range_meters":11600,"station_id":"ce4bhi12rcd13ifvqfp0","pricing_plan_id":"cebpf4jnsgd1na2vs0mg"},{"bike_id":"5c2b3f97-4fb2-402a-b373-3aeb0900a371","system_id":"levelo_inurba_marseille","lat":43.2603,"lon":5.37551,"is_reserved":false,"is_disabled":false,"rental_uris":{"android":"levelo://app?vid=5c2b3f97-4fb2-402a-b373-3aeb0900a371","ios":"levelo://app?vid=5c2b3f97-4fb2-402a-b373-3aeb0900a371"},"vehicle_type_id":"4","last_reported":1753560684,"current_range_meters":11600,"station_id":"ce4bhgh2rcd13ifvqfa0","pricing_plan_id":"cebpf4jnsgd1na2vs0mg"},{"bike_id":"ab675060-4f97-48df-89e6-f451aa6dcad5","system_id":"levelo_inurba_marseille","lat":43.24813,"lon":5.37461,"is_reserved":false,"is_disabled":false,"rental_uris":{"android":"levelo://app?vid=ab675060-4f97-48df-89e6-f451aa6dcad5","ios":"levelo://app?vid=ab675060-4f97-48df-89e6-f451aa6dcad5"},"vehicle_type_id":"4","last_reported":1753560684,"current_range_meters":11600,"station_id":"ce4bhgh2rcd13ifvqfb0","pricing_plan_id":"cebpf4jnsgd1na2vs0mg"},{"bike_id":"d08af546-f672-4cdc-ae0a-11c744e804ce","system_id":"levelo_inurba_marseille","lat":43.27807,"lon":5.4071,"is_reserved":false,"is_disabled":false,"rental_uris":{"android":"levelo://app?vid=d08af546-f672-4cdc-ae0a-11c744e804ce","ios":"levelo://app?vid=d08af546-f672-4cdc-ae0a-11c744e804ce"},"vehicle_type_id":"4","last_reported":1753560684,"current_range_meters":11600,"station_id":"ce4bhnh2rcd13ifvqgtg","pricing_plan_id":"cebpf4jnsgd1na2vs0mg"},{"bike_id":"77d6c398-391f-4f16-a646-f1ad5191856e","system_id":"levelo_inurba_marseille","lat":43.30245,"lon":5.40061,"is_reserved":false,"is_disabled":false,"rental_uris":{"android":"levelo://app?vid=77d6c398-391f-4f16-a646-f1ad5191856e","ios":"levelo://app?vid=77d6c398-391f-4f16-a646-f1ad5191856e"},"vehicle_type_id":"4","last_reported":1753560684,"current_range_meters":11600,"station_id":"ce4bgvh2rcd13ifvqcs0","pricing_plan_id":"cebpf4jnsgd1na2vs0mg"},{"bike_id":"09447d92-0522-480e-b6b5-24959949ccf9","system_id":"levelo_inurba_marseille","lat":43.32418,"lon":5.36791,"is_reserved":false,"is_disabled":false,"rental_uris":{"android":"levelo://app?vid=09447d92-0522-480e-b6b5-24959949ccf9","ios":"levelo://app?vid=09447d92-0522-480e-b6b5-24959949ccf9"},"vehicle_type_id":"4","last_reported":1753560684,"current_range_meters":12000,"station_id":"","pricing_plan_id":"cebpf4jnsgd1na2vs0mg"},{"bike_id":"b5aab1b5-818a-4dfd-b7ae-70df5639e329","system_id":"levelo_inurba_marseille","lat":43.27059,"lon":5.42286,"is_reserved":false,"is_disabled":false,"rental_uris":{"android":"levelo://app?vid=b5aab1b5-818a-4dfd-b7ae-70df5639e329","ios":"levelo://app?vid=b5aab1b5-818a-4dfd-b7ae-70df5639e329"},"vehicle_type_id":"4","last_reported":1753560684,"current_range_meters":12000,"station_id":"ce4bhk92rcd13ifvqgb0","pricing_plan_id":"cebpf4jnsgd1na2vs0mg"},{"bike_id":"22c18818-21ba-4c9a-84b8-e03ade2dba42","system_id":"levelo_inurba_marseille","lat":43.2953,"lon":5.38524,"is_reserved":false,"is_disabled":false,"rental_uris":{"android":"levelo://app?vid=22c18818-21ba-4c9a-84b8-e03ade2dba42","ios":"levelo://app?vid=22c18818-21ba-4c9a-84b8-e03ade2dba42"},"vehicle_type_id":"4","last_reported":1753560684,"current_range_meters":12000,"station_id":"ce4bgih2rcd13ifvqba0","pricing_plan_id":"cebpf4jnsgd1na2vs0mg"},{"bike_id":"f2192a33-fb69-4d0a-9d56-9c133668a3db","system_id":"levelo_inurba_marseille","lat":43.29274,"lon":5.38438,"is_reserved":false,"is_disabled":false,"rental_uris":{"android":"levelo://app?vid=f2192a33-fb69-4d0a-9d56-9c133668a3db","ios":"levelo://app?vid=f2192a33-fb69-4d0a-9d56-9c133668a3db"},"vehicle_type_id":"4","last_reported":1753560684,"current_range_meters":12000,"station_id":"ce4bh692rcd13ifvqea0","pricing_plan_id":"cebpf4jnsgd1na2vs0mg"},{"bike_id":"419be0ea-494f-4e88-906c-e4e5c41ad3d9","system_id":"levelo_inurba_marseille","lat":43.28485,"lon":5.38418,"is_reserved":false,"is_disabled":false,"rental_uris":{"android":"levelo://app?vid=419be0ea-494f-4e88-906c-e4e5c41ad3d9","ios":"levelo://app?vid=419be0ea-494f-4e88-906c-e4e5c41ad3d9"},"vehicle_type_id":"4","last_reported":1753560684,"current_range_meters":12000,"station_id":"ce4bh512rcd13ifvqe3g","pricing_plan_id":"cebpf4jnsgd1na2vs0mg"},{"bike_id":"c0dbd0dd-0e76-42f4-b903-b011d4305f70","system_id":"levelo_inurba_marseille","lat":43.2319,"lon":5.35556,"is_reserved":false,"is_disabled":false,"rental_uris":{"android":"levelo://app?vid=c0dbd0dd-0e76-42f4-b903-b011d4305f70","ios":"levelo://app?vid=c0dbd0dd-0e76-42f4-b903-b011d4305f70"},"vehicle_type_id":"4","last_reported":1753560684,"current_range_meters":12000,"station_id":"ce4bhu92rcd13ifvqi70","pricing_plan_id":"cebpf4jnsgd1na2vs0mg"},{"bike_id":"1bd499a3-561d-4879-8ab0-5f538c66a5f1","system_id":"levelo_inurba_marseille","lat":43.25094,"lon":5.40324,"is_reserved":false,"is_disabled":false,"rental_uris":{"android":"levelo://app?vid=1bd499a3-561d-4879-8ab0-5f538c66a5f1","ios":"levelo://app?vid=1bd499a3-561d-4879-8ab0-5f538c66a5f1"},"vehicle_type_id":"4","last_reported":1753560684,"current_range_meters":12000,"station_id":"ce4bhlh2rcd13ifvqgig","pricing_plan_id":"cebpf4jnsgd1na2vs0mg"},{"bike_id":"d00b6abc-174d-48a1-8e37-47955a519e3f","system_id":"levelo_inurba_marseille","lat":43.22952,"lon":5.35386,"is_reserved":false,"is_disabled":false,"rental_uris":{"android":"levelo://app?vid=d00b6abc-174d-48a1-8e37-47955a519e3f","ios":"levelo://app?vid=d00b6abc-174d-48a1-8e37-47955a519e3f"},"vehicle_type_id":"4","last_reported":1753560684,"current_range_meters":12400,"station_id":"cpo3532slgdg3j2ikp40","pricing_plan_id":"cebpf4jnsgd1na2vs0mg"},{"bike_id":"af39779b-1c47-4e77-95ee-7415f5a6221e","system_id":"levelo_inurba_marseille","lat":43.29261,"lon":5.39363,"is_reserved":false,"is_disabled":false,"rental_uris":{"android":"levelo://app?vid=af39779b-1c47-4e77-95ee-7415f5a6221e","ios":"levelo://app?vid=af39779b-1c47-4e77-95ee-7415f5a6221e"},"vehicle_type_id":"4","last_reported":1753560684,"current_range_meters":12400,"station_id":"ce4bh192rcd13ifvqdd0","pricing_plan_id":"cebpf4jnsgd1na2vs0mg"},{"bike_id":"80cda384-a0de-4854-88d7-81c5eb0a10d1","system_id":"levelo_inurba_marseille","lat":43.289377,"lon":5.363969,"is_reserved":false,"is_disabled":true,"rental_uris":{"android":"levelo://app?vid=80cda384-a0de-4854-88d7-81c5eb0a10d1","ios":"levelo://app?vid=80cda384-a0de-4854-88d7-81c5eb0a10d1"},"vehicle_type_id":"4","last_reported":1753560684,"current_range_meters":12400,"station_id":"ce4bhc92rcd13ifvqetg","pricing_plan_id":"cebpf4jnsgd1na2vs0mg"},{"bike_id":"0d05a0ae-6728-4b3a-99c6-471b13b24f4d","system_id":"levelo_inurba_marseille","lat":43.25124,"lon":5.40316,"is_reserved":false,"is_disabled":false,"rental_uris":{"android":"levelo://app?vid=0d05a0ae-6728-4b3a-99c6-471b13b24f4d","ios":"levelo://app?vid=0d05a0ae-6728-4b3a-99c6-471b13b24f4d"},"vehicle_type_id":"4","last_reported":1753560684,"current_range_meters":12400,"station_id":"ce4bhlh2rcd13ifvqgig","pricing_plan_id":"cebpf4jnsgd1na2vs0mg"},{"bike_id":"712eae4e-1084-4185-9288-09a8a45998ca","system_id":"levelo_inurba_marseille","lat":43.29311,"lon":5.37179,"is_reserved":false,"is_disabled":false,"rental_uris":{"android":"levelo://app?vid=712eae4e-1084-4185-9288-09a8a45998ca","ios":"levelo://app?vid=712eae4e-1084-4185-9288-09a8a45998ca"},"vehicle_type_id":"4","last_reported":1753560684,"current_range_meters":12400,"station_id":"ce4bgh92rcd13ifvqb40","pricing_plan_id":"cebpf4jnsgd1na2vs0mg"},{"bike_id":"c4b20afb-bb94-4666-a540-e08142edf4ab","system_id":"levelo_inurba_marseille","lat":43.2926,"lon":5.38447,"is_reserved":false,"is_disabled":false,"rental_uris":{"android":"levelo://app?vid=c4b20afb-bb94-4666-a540-e08142edf4ab","ios":"levelo://app?vid=c4b20afb-bb94-4666-a540-e08142edf4ab"},"vehicle_type_id":"4","last_reported":1753560684,"current_range_meters":13600,"station_id":"ce4bh692rcd13ifvqea0","pricing_plan_id":"cebpf4jnsgd1na2vs0mg"},{"bike_id":"c3c2652b-f2d7-4ed4-89ec-9559feb01451","system_id":"levelo_inurba_marseille","lat":43.29226,"lon":5.360481,"is_reserved":false,"is_disabled":true,"rental_uris":{"android":"levelo://app?vid=c3c2652b-f2d7-4ed4-89ec-9559feb01451","ios":"levelo://app?vid=c3c2652b-f2d7-4ed4-89ec-9559feb01451"},"vehicle_type_id":"4","last_reported":1753560684,"current_range_meters":12800,"station_id":"ce4bhbh2rcd13ifvqeqg","pricing_plan_id":"cebpf4jnsgd1na2vs0mg"},{"bike_id":"c579ff75-cd9b-45c6-a6dc-35ac53a5f916","system_id":"levelo_inurba_marseille","lat":43.2795,"lon":5.41043,"is_reserved":false,"is_disabled":false,"rental_uris":{"android":"levelo://app?vid=c579ff75-cd9b-45c6-a6dc-35ac53a5f916","ios":"levelo://app?vid=c579ff75-cd9b-45c6-a6dc-35ac53a5f916"},"vehicle_type_id":"4","last_reported":1753560684,"current_range_meters":12800,"station_id":"ce4bhnp2rcd13ifvqh0g","pricing_plan_id":"cebpf4jnsgd1na2vs0mg"},{"bike_id":"dd5b3db2-62f9-4716-992d-435138b6493d","system_id":"levelo_inurba_marseille","lat":43.30802,"lon":5.38133,"is_reserved":false,"is_disabled":true,"rental_uris":{"android":"levelo://app?vid=dd5b3db2-62f9-4716-992d-435138b6493d","ios":"levelo://app?vid=dd5b3db2-62f9-4716-992d-435138b6493d"},"vehicle_type_id":"4","last_reported":1753560684,"current_range_meters":12800,"station_id":"ce4bgt12rcd13ifvqce0","pricing_plan_id":"cebpf4jnsgd1na2vs0mg"},{"bike_id":"3e7f512d-c1e0-49b1-a237-1dd2b80e25e7","system_id":"levelo_inurba_marseille","lat":43.2407,"lon":5.37763,"is_reserved":false,"is_disabled":false,"rental_uris":{"android":"levelo://app?vid=3e7f512d-c1e0-49b1-a237-1dd2b80e25e7","ios":"levelo://app?vid=3e7f512d-c1e0-49b1-a237-1dd2b80e25e7"},"vehicle_type_id":"4","last_reported":1753560684,"current_range_meters":12800,"station_id":"ce4bhnp2rcd13ifvqgvg","pricing_plan_id":"cebpf4jnsgd1na2vs0mg"},{"bike_id":"2fa9dd39-7ea8-42db-9ead-ca5e3675e815","system_id":"levelo_inurba_marseille","lat":43.30214,"lon":5.39471,"is_reserved":false,"is_disabled":true,"rental_uris":{"android":"levelo://app?vid=2fa9dd39-7ea8-42db-9ead-ca5e3675e815","ios":"levelo://app?vid=2fa9dd39-7ea8-42db-9ead-ca5e3675e815"},"vehicle_type_id":"4","last_reported":1753560684,"current_range_meters":12800,"station_id":"ce4bh0p2rcd13ifvqd70","pricing_plan_id":"cebpf4jnsgd1na2vs0mg"},{"bike_id":"5f593d5a-8fbc-4e76-945e-131364403797","system_id":"levelo_inurba_marseille","lat":43.30182,"lon":5.366197,"is_reserved":false,"is_disabled":false,"rental_uris":{"android":"levelo://app?vid=5f593d5a-8fbc-4e76-945e-131364403797","ios":"levelo://app?vid=5f593d5a-8fbc-4e76-945e-131364403797"},"vehicle_type_id":"4","last_reported":1753560684,"current_range_meters":13600,"station_id":"ce4bgrh2rcd13ifvqc8g","pricing_plan_id":"cebpf4jnsgd1na2vs0mg"},{"bike_id":"abb85e9f-0015-4865-b265-26c4eb222cd3","system_id":"levelo_inurba_marseille","lat":43.28363,"lon":5.38646,"is_reserved":false,"is_disabled":false,"rental_uris":{"android":"levelo://app?vid=abb85e9f-0015-4865-b265-26c4eb222cd3","ios":"levelo://app?vid=abb85e9f-0015-4865-b265-26c4eb222cd3"},"vehicle_type_id":"4","last_reported":1753560684,"current_range_meters":13600,"station_id":"ce4bh492rcd13ifvqdvg","pricing_plan_id":"cebpf4jnsgd1na2vs0mg"},{"bike_id":"d560cbe9-cfbd-419e-a2c0-ad5aaa8eb0e6","system_id":"levelo_inurba_marseille","lat":43.2793,"lon":5.41042,"is_reserved":false,"is_disabled":false,"rental_uris":{"android":"levelo://app?vid=d560cbe9-cfbd-419e-a2c0-ad5aaa8eb0e6","ios":"levelo://app?vid=d560cbe9-cfbd-419e-a2c0-ad5aaa8eb0e6"},"vehicle_type_id":"4","last_reported":1753560684,"current_range_meters":13600,"station_id":"ce4bhnp2rcd13ifvqh0g","pricing_plan_id":"cebpf4jnsgd1na2vs0mg"},{"bike_id":"ba93bb28-cf26-4afd-a786-6bc2f811c4cb","system_id":"levelo_inurba_marseille","lat":43.32413,"lon":5.40412,"is_reserved":false,"is_disabled":false,"rental_uris":{"android":"levelo://app?vid=ba93bb28-cf26-4afd-a786-6bc2f811c4cb","ios":"levelo://app?vid=ba93bb28-cf26-4afd-a786-6bc2f811c4cb"},"vehicle_type_id":"4","last_reported":1753560684,"current_range_meters":13600,"station_id":"","pricing_plan_id":"cebpf4jnsgd1na2vs0mg"},{"bike_id":"1b4f060d-024e-4b5b-a67b-2d78d44d6edb","system_id":"levelo_inurba_marseille","lat":43.225038,"lon":5.347762,"is_reserved":false,"is_disabled":true,"rental_uris":{"android":"levelo://app?vid=1b4f060d-024e-4b5b-a67b-2d78d44d6edb","ios":"levelo://app?vid=1b4f060d-024e-4b5b-a67b-2d78d44d6edb"},"vehicle_type_id":"4","last_reported":1753560684,"current_range_meters":13600,"station_id":"st_cvj5dfep6f1abm77gieg","pricing_plan_id":"cebpf4jnsgd1na2vs0mg"},{"bike_id":"da2dca42-f134-4e4a-82a2-b995476c594c","system_id":"levelo_inurba_marseille","lat":43.29591,"lon":5.37523,"is_reserved":false,"is_disabled":false,"rental_uris":{"android":"levelo://app?vid=da2dca42-f134-4e4a-82a2-b995476c594c","ios":"levelo://app?vid=da2dca42-f134-4e4a-82a2-b995476c594c"},"vehicle_type_id":"4","last_reported":1753560684,"current_range_meters":14000,"station_id":"ce4bgh92rcd13ifvqb50","pricing_plan_id":"cebpf4jnsgd1na2vs0mg"},{"bike_id":"0428cb8d-9dbb-49aa-bddf-f3e50aad81da","system_id":"levelo_inurba_marseille","lat":43.29256,"lon":5.36862,"is_reserved":false,"is_disabled":false,"rental_uris":{"android":"levelo://app?vid=0428cb8d-9dbb-49aa-bddf-f3e50aad81da","ios":"levelo://app?vid=0428cb8d-9dbb-49aa-bddf-f3e50aad81da"},"vehicle_type_id":"4","last_reported":1753560684,"current_range_meters":13600,"station_id":"ce4bhbp2rcd13ifvqesg","pricing_plan_id":"cebpf4jnsgd1na2vs0mg"},{"bike_id":"c151f0ea-151e-40ef-85ad-03da6ea95fb7","system_id":"levelo_inurba_marseille","lat":43.29527,"lon":5.38537,"is_reserved":false,"is_disabled":false,"rental_uris":{"android":"levelo://app?vid=c151f0ea-151e-40ef-85ad-03da6ea95fb7","ios":"levelo://app?vid=c151f0ea-151e-40ef-85ad-03da6ea95fb7"},"vehicle_type_id":"4","last_reported":1753560684,"current_range_meters":13600,"station_id":"ce4bgih2rcd13ifvqba0","pricing_plan_id":"cebpf4jnsgd1na2vs0mg"},{"bike_id":"d6ee06f2-fe1c-45b3-a0af-f7e52eb63fbb","system_id":"levelo_inurba_marseille","lat":43.305969,"lon":5.393657,"is_reserved":false,"is_disabled":false,"rental_uris":{"android":"levelo://app?vid=d6ee06f2-fe1c-45b3-a0af-f7e52eb63fbb","ios":"levelo://app?vid=d6ee06f2-fe1c-45b3-a0af-f7e52eb63fbb"},"vehicle_type_id":"4","last_reported":1753560684,"current_range_meters":13600,"station_id":"ce4bh0p2rcd13ifvqd80","pricing_plan_id":"cebpf4jnsgd1na2vs0mg"},{"bike_id":"2a0bb915-bfe7-4dbd-b1f6-e675f8d62b69","system_id":"levelo_inurba_marseille","lat":43.2952,"lon":5.38541,"is_reserved":false,"is_disabled":false,"rental_uris":{"android":"levelo://app?vid=2a0bb915-bfe7-4dbd-b1f6-e675f8d62b69","ios":"levelo://app?vid=2a0bb915-bfe7-4dbd-b1f6-e675f8d62b69"},"vehicle_type_id":"4","last_reported":1753560684,"current_range_meters":13600,"station_id":"ce4bgih2rcd13ifvqba0","pricing_plan_id":"cebpf4jnsgd1na2vs0mg"},{"bike_id":"8aaee75d-7ea8-43e0-8a73-b78122e45eaa","system_id":"levelo_inurba_marseille","lat":43.26558,"lon":5.37296,"is_reserved":false,"is_disabled":false,"rental_uris":{"android":"levelo://app?vid=8aaee75d-7ea8-43e0-8a73-b78122e45eaa","ios":"levelo://app?vid=8aaee75d-7ea8-43e0-8a73-b78122e45eaa"},"vehicle_type_id":"4","last_reported":1753560684,"current_range_meters":13600,"station_id":"ce4bhg12rcd13ifvqf70","pricing_plan_id":"cebpf4jnsgd1na2vs0mg"},{"bike_id":"73745872-0a21-4db0-b330-8e0de96feed8","system_id":"levelo_inurba_marseille","lat":43.26194,"lon":5.37453,"is_reserved":false,"is_disabled":false,"rental_uris":{"android":"levelo://app?vid=73745872-0a21-4db0-b330-8e0de96feed8","ios":"levelo://app?vid=73745872-0a21-4db0-b330-8e0de96feed8"},"vehicle_type_id":"4","last_reported":1753560684,"current_range_meters":13600,"station_id":"ce4bhgp2rcd13ifvqfc0","pricing_plan_id":"cebpf4jnsgd1na2vs0mg"},{"bike_id":"fe165cbd-2aa7-40d4-b28e-c33848c088c9","system_id":"levelo_inurba_marseille","lat":43.29623,"lon":5.37087,"is_reserved":false,"is_disabled":false,"rental_uris":{"android":"levelo://app?vid=fe165cbd-2aa7-40d4-b28e-c33848c088c9","ios":"levelo://app?vid=fe165cbd-2aa7-40d4-b28e-c33848c088c9"},"vehicle_type_id":"4","last_reported":1753560684,"current_range_meters":13600,"station_id":"","pricing_plan_id":"cebpf4jnsgd1na2vs0mg"},{"bike_id":"9377d52d-7c04-4205-81e5-05265b3eabff","system_id":"levelo_inurba_marseille","lat":43.28706,"lon":5.37936,"is_reserved":false,"is_disabled":true,"rental_uris":{"android":"levelo://app?vid=9377d52d-7c04-4205-81e5-05265b3eabff","ios":"levelo://app?vid=9377d52d-7c04-4205-81e5-05265b3eabff"},"vehicle_type_id":"4","last_reported":1753560684,"current_range_meters":14000,"station_id":"ce4bh9p2rcd13ifvqec0","pricing_plan_id":"cebpf4jnsgd1na2vs0mg"},{"bike_id":"d8ede7a6-2370-4585-9b4e-834634539090","system_id":"levelo_inurba_marseille","lat":43.22501,"lon":5.34795,"is_reserved":false,"is_disabled":false,"rental_uris":{"android":"levelo://app?vid=d8ede7a6-2370-4585-9b4e-834634539090","ios":"levelo://app?vid=d8ede7a6-2370-4585-9b4e-834634539090"},"vehicle_type_id":"4","last_reported":1753560684,"current_range_meters":14400,"station_id":"st_cvj5dfep6f1abm77gieg","pricing_plan_id":"cebpf4jnsgd1na2vs0mg"},{"bike_id":"3d3f7e5e-5f19-4daf-a8dd-75fa4f45d685","system_id":"levelo_inurba_marseille","lat":43.29611,"lon":5.37713,"is_reserved":false,"is_disabled":false,"rental_uris":{"android":"levelo://app?vid=3d3f7e5e-5f19-4daf-a8dd-75fa4f45d685","ios":"levelo://app?vid=3d3f7e5e-5f19-4daf-a8dd-75fa4f45d685"},"vehicle_type_id":"4","last_reported":1753560684,"current_range_meters":14000,"station_id":"","pricing_plan_id":"cebpf4jnsgd1na2vs0mg"},{"bike_id":"6f6095c0-83d6-4092-b45f-9f855889ecd2","system_id":"levelo_inurba_marseille","lat":43.26499,"lon":5.39535,"is_reserved":false,"is_disabled":false,"rental_uris":{"android":"levelo://app?vid=6f6095c0-83d6-4092-b45f-9f855889ecd2","ios":"levelo://app?vid=6f6095c0-83d6-4092-b45f-9f855889ecd2"},"vehicle_type_id":"4","last_reported":1753560684,"current_range_meters":14000,"station_id":"ce4bhi12rcd13ifvqfq0","pricing_plan_id":"cebpf4jnsgd1na2vs0mg"},{"bike_id":"d5a63dee-a415-40f6-88a8-f1d25d6ddaa1","system_id":"levelo_inurba_marseille","lat":43.290311,"lon":5.399895,"is_reserved":false,"is_disabled":true,"rental_uris":{"android":"levelo://app?vid=d5a63dee-a415-40f6-88a8-f1d25d6ddaa1","ios":"levelo://app?vid=d5a63dee-a415-40f6-88a8-f1d25d6ddaa1"},"vehicle_type_id":"4","last_reported":1753560684,"current_range_meters":14000,"station_id":"ce4bh392rcd13ifvqdm0","pricing_plan_id":"cebpf4jnsgd1na2vs0mg"},{"bike_id":"4f069cb2-e85f-44ab-8659-b3444c19b657","system_id":"levelo_inurba_marseille","lat":43.23191,"lon":5.35558,"is_reserved":false,"is_disabled":false,"rental_uris":{"android":"levelo://app?vid=4f069cb2-e85f-44ab-8659-b3444c19b657","ios":"levelo://app?vid=4f069cb2-e85f-44ab-8659-b3444c19b657"},"vehicle_type_id":"4","last_reported":1753560684,"current_range_meters":14000,"station_id":"ce4bhu92rcd13ifvqi70","pricing_plan_id":"cebpf4jnsgd1na2vs0mg"},{"bike_id":"61cd7fe3-237f-4708-afc7-dd8a81b4454c","system_id":"levelo_inurba_marseille","lat":43.229354,"lon":5.353795,"is_reserved":false,"is_disabled":false,"rental_uris":{"android":"levelo://app?vid=61cd7fe3-237f-4708-afc7-dd8a81b4454c","ios":"levelo://app?vid=61cd7fe3-237f-4708-afc7-dd8a81b4454c"},"vehicle_type_id":"4","last_reported":1753560684,"current_range_meters":14000,"station_id":"cpo3532slgdg3j2ikp40","pricing_plan_id":"cebpf4jnsgd1na2vs0mg"},{"bike_id":"adc99020-a046-4247-b3bb-abb9aabfb167","system_id":"levelo_inurba_marseille","lat":43.243979,"lon":5.370534,"is_reserved":false,"is_disabled":false,"rental_uris":{"android":"levelo://app?vid=adc99020-a046-4247-b3bb-abb9aabfb167","ios":"levelo://app?vid=adc99020-a046-4247-b3bb-abb9aabfb167"},"vehicle_type_id":"4","last_reported":1753560684,"current_range_meters":14000,"station_id":"ce4bhhh2rcd13ifvqfk0","pricing_plan_id":"cebpf4jnsgd1na2vs0mg"},{"bike_id":"a5e9ad6b-10ff-4324-aa18-6f802db3dc5a","system_id":"levelo_inurba_marseille","lat":43.26214,"lon":5.37447,"is_reserved":false,"is_disabled":false,"rental_uris":{"android":"levelo://app?vid=a5e9ad6b-10ff-4324-aa18-6f802db3dc5a","ios":"levelo://app?vid=a5e9ad6b-10ff-4324-aa18-6f802db3dc5a"},"vehicle_type_id":"4","last_reported":1753560684,"current_range_meters":14000,"station_id":"ce4bhgp2rcd13ifvqfc0","pricing_plan_id":"cebpf4jnsgd1na2vs0mg"},{"bike_id":"95bd8fd3-8a83-4ee7-85d6-75e6e14086ba","system_id":"levelo_inurba_marseille","lat":43.29568,"lon":5.37523,"is_reserved":false,"is_disabled":false,"rental_uris":{"android":"levelo://app?vid=95bd8fd3-8a83-4ee7-85d6-75e6e14086ba","ios":"levelo://app?vid=95bd8fd3-8a83-4ee7-85d6-75e6e14086ba"},"vehicle_type_id":"4","last_reported":1753560684,"current_range_meters":14000,"station_id":"ce4bgh92rcd13ifvqb50","pricing_plan_id":"cebpf4jnsgd1na2vs0mg"},{"bike_id":"ccceff92-72aa-4eb3-a467-85a2bd8173fd","system_id":"levelo_inurba_marseille","lat":43.26201,"lon":5.37451,"is_reserved":false,"is_disabled":false,"rental_uris":{"android":"levelo://app?vid=ccceff92-72aa-4eb3-a467-85a2bd8173fd","ios":"levelo://app?vid=ccceff92-72aa-4eb3-a467-85a2bd8173fd"},"vehicle_type_id":"4","last_reported":1753560684,"current_range_meters":14000,"station_id":"ce4bhgp2rcd13ifvqfc0","pricing_plan_id":"cebpf4jnsgd1na2vs0mg"},{"bike_id":"a1d5115b-997f-44a5-8b4b-21cb29757407","system_id":"levelo_inurba_marseille","lat":43.312151,"lon":5.373039,"is_reserved":false,"is_disabled":false,"rental_uris":{"android":"levelo://app?vid=a1d5115b-997f-44a5-8b4b-21cb29757407","ios":"levelo://app?vid=a1d5115b-997f-44a5-8b4b-21cb29757407"},"vehicle_type_id":"4","last_reported":1753560684,"current_range_meters":14000,"station_id":"","pricing_plan_id":"cebpf4jnsgd1na2vs0mg"},{"bike_id":"c34587a8-a019-4b34-8b52-b2a04d65fdd5","system_id":"levelo_inurba_marseille","lat":43.26037,"lon":5.37559,"is_reserved":false,"is_disabled":false,"rental_uris":{"android":"levelo://app?vid=c34587a8-a019-4b34-8b52-b2a04d65fdd5","ios":"levelo://app?vid=c34587a8-a019-4b34-8b52-b2a04d65fdd5"},"vehicle_type_id":"4","last_reported":1753560684,"current_range_meters":14000,"station_id":"ce4bhgh2rcd13ifvqfa0","pricing_plan_id":"cebpf4jnsgd1na2vs0mg"},{"bike_id":"df0f791d-69db-4d83-b453-7bc2067da214","system_id":"levelo_inurba_marseille","lat":43.23054,"lon":5.35489,"is_reserved":false,"is_disabled":false,"rental_uris":{"android":"levelo://app?vid=df0f791d-69db-4d83-b453-7bc2067da214","ios":"levelo://app?vid=df0f791d-69db-4d83-b453-7bc2067da214"},"vehicle_type_id":"4","last_reported":1753560684,"current_range_meters":14000,"station_id":"cpo3342slgdg3j2ifvpg","pricing_plan_id":"cebpf4jnsgd1na2vs0mg"},{"bike_id":"7e65c5ea-0429-45f5-a396-bd32e67f0744","system_id":"levelo_inurba_marseille","lat":43.33463,"lon":5.40043,"is_reserved":false,"is_disabled":false,"rental_uris":{"android":"levelo://app?vid=7e65c5ea-0429-45f5-a396-bd32e67f0744","ios":"levelo://app?vid=7e65c5ea-0429-45f5-a396-bd32e67f0744"},"vehicle_type_id":"4","last_reported":1753560684,"current_range_meters":14000,"station_id":"","pricing_plan_id":"cebpf4jnsgd1na2vs0mg"},{"bike_id":"898d1f8e-e261-4f25-9386-a6825028d102","system_id":"levelo_inurba_marseille","lat":43.29057,"lon":5.47389,"is_reserved":false,"is_disabled":false,"rental_uris":{"android":"levelo://app?vid=898d1f8e-e261-4f25-9386-a6825028d102","ios":"levelo://app?vid=898d1f8e-e261-4f25-9386-a6825028d102"},"vehicle_type_id":"4","last_reported":1753560684,"current_range_meters":14400,"station_id":"","pricing_plan_id":"cebpf4jnsgd1na2vs0mg"},{"bike_id":"fc5f8be1-50ab-444f-af79-b3eb4befa998","system_id":"levelo_inurba_marseille","lat":43.29108,"lon":5.38143,"is_reserved":false,"is_disabled":false,"rental_uris":{"android":"levelo://app?vid=fc5f8be1-50ab-444f-af79-b3eb4befa998","ios":"levelo://app?vid=fc5f8be1-50ab-444f-af79-b3eb4befa998"},"vehicle_type_id":"4","last_reported":1753560684,"current_range_meters":14400,"station_id":"ce4bh512rcd13ifvqe2g","pricing_plan_id":"cebpf4jnsgd1na2vs0mg"},{"bike_id":"8d974118-0cdc-4796-b67b-e8b7df44aaec","system_id":"levelo_inurba_marseille","lat":43.33605,"lon":5.41037,"is_reserved":false,"is_disabled":false,"rental_uris":{"android":"levelo://app?vid=8d974118-0cdc-4796-b67b-e8b7df44aaec","ios":"levelo://app?vid=8d974118-0cdc-4796-b67b-e8b7df44aaec"},"vehicle_type_id":"4","last_reported":1753560684,"current_range_meters":14400,"station_id":"ce4bhqh2rcd13ifvqhmg","pricing_plan_id":"cebpf4jnsgd1na2vs0mg"},{"bike_id":"a05343f6-5345-451e-92c9-8d14b4ec04eb","system_id":"levelo_inurba_marseille","lat":43.314919,"lon":5.373082,"is_reserved":false,"is_disabled":false,"rental_uris":{"android":"levelo://app?vid=a05343f6-5345-451e-92c9-8d14b4ec04eb","ios":"levelo://app?vid=a05343f6-5345-451e-92c9-8d14b4ec04eb"},"vehicle_type_id":"4","last_reported":1753560684,"current_range_meters":14400,"station_id":"","pricing_plan_id":"cebpf4jnsgd1na2vs0mg"},{"bike_id":"f3d9f4e3-18e1-46b0-943e-1414afeca2da","system_id":"levelo_inurba_marseille","lat":43.229321,"lon":5.353801,"is_reserved":false,"is_disabled":false,"rental_uris":{"android":"levelo://app?vid=f3d9f4e3-18e1-46b0-943e-1414afeca2da","ios":"levelo://app?vid=f3d9f4e3-18e1-46b0-943e-1414afeca2da"},"vehicle_type_id":"4","last_reported":1753560684,"current_range_meters":14400,"station_id":"cpo3532slgdg3j2ikp40","pricing_plan_id":"cebpf4jnsgd1na2vs0mg"},{"bike_id":"8a43fd17-f37d-4efa-9c86-e96e90492052","system_id":"levelo_inurba_marseille","lat":43.24812,"lon":5.37461,"is_reserved":false,"is_disabled":false,"rental_uris":{"android":"levelo://app?vid=8a43fd17-f37d-4efa-9c86-e96e90492052","ios":"levelo://app?vid=8a43fd17-f37d-4efa-9c86-e96e90492052"},"vehicle_type_id":"4","last_reported":1753560684,"current_range_meters":14400,"station_id":"ce4bhgh2rcd13ifvqfb0","pricing_plan_id":"cebpf4jnsgd1na2vs0mg"},{"bike_id":"1e5c96a6-9d0f-4d5f-85ef-5a5f8ac0317a","system_id":"levelo_inurba_marseille","lat":43.33442,"lon":5.39085,"is_reserved":false,"is_disabled":false,"rental_uris":{"android":"levelo://app?vid=1e5c96a6-9d0f-4d5f-85ef-5a5f8ac0317a","ios":"levelo://app?vid=1e5c96a6-9d0f-4d5f-85ef-5a5f8ac0317a"},"vehicle_type_id":"4","last_reported":1753560684,"current_range_meters":14400,"station_id":"","pricing_plan_id":"cebpf4jnsgd1na2vs0mg"},{"bike_id":"63c51af1-b51b-4388-a6ee-f6a6f18b7eae","system_id":"levelo_inurba_marseille","lat":43.2757,"lon":5.3843,"is_reserved":false,"is_disabled":false,"rental_uris":{"android":"levelo://app?vid=63c51af1-b51b-4388-a6ee-f6a6f18b7eae","ios":"levelo://app?vid=63c51af1-b51b-4388-a6ee-f6a6f18b7eae"},"vehicle_type_id":"4","last_reported":1753560684,"current_range_meters":14400,"station_id":"ce4bhh92rcd13ifvqfi0","pricing_plan_id":"cebpf4jnsgd1na2vs0mg"},{"bike_id":"c5794c7a-bb35-409f-9175-7d8933c8fd68","system_id":"levelo_inurba_marseille","lat":43.31116,"lon":5.39617,"is_reserved":false,"is_disabled":false,"rental_uris":{"android":"levelo://app?vid=c5794c7a-bb35-409f-9175-7d8933c8fd68","ios":"levelo://app?vid=c5794c7a-bb35-409f-9175-7d8933c8fd68"},"vehicle_type_id":"4","last_reported":1753560684,"current_range_meters":14400,"station_id":"","pricing_plan_id":"cebpf4jnsgd1na2vs0mg"},{"bike_id":"ea761412-1eeb-4678-b313-5e00a37595da","system_id":"levelo_inurba_marseille","lat":43.295227,"lon":5.385379,"is_reserved":false,"is_disabled":false,"rental_uris":{"android":"levelo://app?vid=ea761412-1eeb-4678-b313-5e00a37595da","ios":"levelo://app?vid=ea761412-1eeb-4678-b313-5e00a37595da"},"vehicle_type_id":"4","last_reported":1753560684,"current_range_meters":14400,"station_id":"ce4bgih2rcd13ifvqba0","pricing_plan_id":"cebpf4jnsgd1na2vs0mg"},{"bike_id":"01c900e2-f1fc-4e4a-9318-fbbc31f1b2ca","system_id":"levelo_inurba_marseille","lat":43.30556,"lon":5.36528,"is_reserved":false,"is_disabled":false,"rental_uris":{"android":"levelo://app?vid=01c900e2-f1fc-4e4a-9318-fbbc31f1b2ca","ios":"levelo://app?vid=01c900e2-f1fc-4e4a-9318-fbbc31f1b2ca"},"vehicle_type_id":"4","last_reported":1753560684,"current_range_meters":14400,"station_id":"ce4bgs12rcd13ifvqcag","pricing_plan_id":"cebpf4jnsgd1na2vs0mg"},{"bike_id":"481ac0fb-00e6-4499-98db-12144824b27f","system_id":"levelo_inurba_marseille","lat":43.26202,"lon":5.37432,"is_reserved":false,"is_disabled":false,"rental_uris":{"android":"levelo://app?vid=481ac0fb-00e6-4499-98db-12144824b27f","ios":"levelo://app?vid=481ac0fb-00e6-4499-98db-12144824b27f"},"vehicle_type_id":"4","last_reported":1753560684,"current_range_meters":14400,"station_id":"ce4bhgp2rcd13ifvqfc0","pricing_plan_id":"cebpf4jnsgd1na2vs0mg"},{"bike_id":"a7d896f9-ed90-400f-b521-60f094bf2ab7","system_id":"levelo_inurba_marseille","lat":43.21186,"lon":5.35084,"is_reserved":false,"is_disabled":false,"rental_uris":{"android":"levelo://app?vid=a7d896f9-ed90-400f-b521-60f094bf2ab7","ios":"levelo://app?vid=a7d896f9-ed90-400f-b521-60f094bf2ab7"},"vehicle_type_id":"4","last_reported":1753560684,"current_range_meters":14800,"station_id":"st_cvj6sg6p6f1abm77japg","pricing_plan_id":"cebpf4jnsgd1na2vs0mg"},{"bike_id":"bdc8ef21-146d-46ff-9c91-249dba0037c7","system_id":"levelo_inurba_marseille","lat":43.22928,"lon":5.35397,"is_reserved":false,"is_disabled":false,"rental_uris":{"android":"levelo://app?vid=bdc8ef21-146d-46ff-9c91-249dba0037c7","ios":"levelo://app?vid=bdc8ef21-146d-46ff-9c91-249dba0037c7"},"vehicle_type_id":"4","last_reported":1753560684,"current_range_meters":14800,"station_id":"cpo3532slgdg3j2ikp40","pricing_plan_id":"cebpf4jnsgd1na2vs0mg"},{"bike_id":"b895b54e-07d8-473e-85aa-63378254c806","system_id":"levelo_inurba_marseille","lat":43.22929,"lon":5.35383,"is_reserved":false,"is_disabled":false,"rental_uris":{"android":"levelo://app?vid=b895b54e-07d8-473e-85aa-63378254c806","ios":"levelo://app?vid=b895b54e-07d8-473e-85aa-63378254c806"},"vehicle_type_id":"4","last_reported":1753560684,"current_range_meters":14800,"station_id":"cpo3532slgdg3j2ikp40","pricing_plan_id":"cebpf4jnsgd1na2vs0mg"},{"bike_id":"43dbc09e-d0e4-4ddb-bafe-4f55874d23a9","system_id":"levelo_inurba_marseille","lat":43.30254,"lon":5.38243,"is_reserved":false,"is_disabled":false,"rental_uris":{"android":"levelo://app?vid=43dbc09e-d0e4-4ddb-bafe-4f55874d23a9","ios":"levelo://app?vid=43dbc09e-d0e4-4ddb-bafe-4f55874d23a9"},"vehicle_type_id":"4","last_reported":1753560684,"current_range_meters":14800,"station_id":"","pricing_plan_id":"cebpf4jnsgd1na2vs0mg"},{"bike_id":"3ef72bb7-fe1e-4de0-993a-abe70d469f2a","system_id":"levelo_inurba_marseille","lat":43.29658,"lon":5.37044,"is_reserved":false,"is_disabled":false,"rental_uris":{"android":"levelo://app?vid=3ef72bb7-fe1e-4de0-993a-abe70d469f2a","ios":"levelo://app?vid=3ef72bb7-fe1e-4de0-993a-abe70d469f2a"},"vehicle_type_id":"4","last_reported":1753560684,"current_range_meters":14800,"station_id":"","pricing_plan_id":"cebpf4jnsgd1na2vs0mg"},{"bike_id":"7442c8cc-663a-43fd-923e-16271475d9c0","system_id":"levelo_inurba_marseille","lat":43.29532,"lon":5.38552,"is_reserved":false,"is_disabled":false,"rental_uris":{"android":"levelo://app?vid=7442c8cc-663a-43fd-923e-16271475d9c0","ios":"levelo://app?vid=7442c8cc-663a-43fd-923e-16271475d9c0"},"vehicle_type_id":"4","last_reported":1753560684,"current_range_meters":15200,"station_id":"ce4bgih2rcd13ifvqba0","pricing_plan_id":"cebpf4jnsgd1na2vs0mg"},{"bike_id":"0c11f6c1-8064-42f4-a9d5-3b25c443f052","system_id":"levelo_inurba_marseille","lat":43.22929,"lon":5.35378,"is_reserved":false,"is_disabled":false,"rental_uris":{"android":"levelo://app?vid=0c11f6c1-8064-42f4-a9d5-3b25c443f052","ios":"levelo://app?vid=0c11f6c1-8064-42f4-a9d5-3b25c443f052"},"vehicle_type_id":"4","last_reported":1753560684,"current_range_meters":15200,"station_id":"cpo3532slgdg3j2ikp40","pricing_plan_id":"cebpf4jnsgd1na2vs0mg"},{"bike_id":"9dfdeb8a-ee13-4931-94b4-ad2b5f23aa4b","system_id":"levelo_inurba_marseille","lat":43.231869,"lon":5.399864,"is_reserved":false,"is_disabled":true,"rental_uris":{"android":"levelo://app?vid=9dfdeb8a-ee13-4931-94b4-ad2b5f23aa4b","ios":"levelo://app?vid=9dfdeb8a-ee13-4931-94b4-ad2b5f23aa4b"},"vehicle_type_id":"4","last_reported":1753560684,"current_range_meters":15200,"station_id":"ce4bhn12rcd13ifvqgqg","pricing_plan_id":"cebpf4jnsgd1na2vs0mg"},{"bike_id":"83fa11c0-0c11-49d2-a210-637e3fdff277","system_id":"levelo_inurba_marseille","lat":43.29107,"lon":5.38144,"is_reserved":false,"is_disabled":false,"rental_uris":{"android":"levelo://app?vid=83fa11c0-0c11-49d2-a210-637e3fdff277","ios":"levelo://app?vid=83fa11c0-0c11-49d2-a210-637e3fdff277"},"vehicle_type_id":"4","last_reported":1753560684,"current_range_meters":15200,"station_id":"ce4bh512rcd13ifvqe2g","pricing_plan_id":"cebpf4jnsgd1na2vs0mg"},{"bike_id":"89247566-f84f-43bd-a442-f58c3e33f7a3","system_id":"levelo_inurba_marseille","lat":43.29303,"lon":5.37188,"is_reserved":false,"is_disabled":false,"rental_uris":{"android":"levelo://app?vid=89247566-f84f-43bd-a442-f58c3e33f7a3","ios":"levelo://app?vid=89247566-f84f-43bd-a442-f58c3e33f7a3"},"vehicle_type_id":"4","last_reported":1753560684,"current_range_meters":15200,"station_id":"ce4bgh92rcd13ifvqb40","pricing_plan_id":"cebpf4jnsgd1na2vs0mg"},{"bike_id":"5b0fd53b-e2e8-4712-8ae1-12dc1280b452","system_id":"levelo_inurba_marseille","lat":43.29535,"lon":5.38531,"is_reserved":false,"is_disabled":false,"rental_uris":{"android":"levelo://app?vid=5b0fd53b-e2e8-4712-8ae1-12dc1280b452","ios":"levelo://app?vid=5b0fd53b-e2e8-4712-8ae1-12dc1280b452"},"vehicle_type_id":"4","last_reported":1753560684,"current_range_meters":15200,"station_id":"ce4bgih2rcd13ifvqba0","pricing_plan_id":"cebpf4jnsgd1na2vs0mg"},{"bike_id":"93edfebe-3d64-4f42-bb7d-14244296c803","system_id":"levelo_inurba_marseille","lat":43.27058,"lon":5.40267,"is_reserved":false,"is_disabled":false,"rental_uris":{"android":"levelo://app?vid=93edfebe-3d64-4f42-bb7d-14244296c803","ios":"levelo://app?vid=93edfebe-3d64-4f42-bb7d-14244296c803"},"vehicle_type_id":"4","last_reported":1753560684,"current_range_meters":15200,"station_id":"ce4bhk92rcd13ifvqgc0","pricing_plan_id":"cebpf4jnsgd1na2vs0mg"},{"bike_id":"15f3c594-4abb-452d-801d-4636525cd85b","system_id":"levelo_inurba_marseille","lat":43.29568,"lon":5.37498,"is_reserved":false,"is_disabled":false,"rental_uris":{"android":"levelo://app?vid=15f3c594-4abb-452d-801d-4636525cd85b","ios":"levelo://app?vid=15f3c594-4abb-452d-801d-4636525cd85b"},"vehicle_type_id":"4","last_reported":1753560684,"current_range_meters":15200,"station_id":"ce4bgh92rcd13ifvqb50","pricing_plan_id":"cebpf4jnsgd1na2vs0mg"},{"bike_id":"3373b990-855a-4413-88e1-982f325228bc","system_id":"levelo_inurba_marseille","lat":43.2962,"lon":5.37087,"is_reserved":false,"is_disabled":false,"rental_uris":{"android":"levelo://app?vid=3373b990-855a-4413-88e1-982f325228bc","ios":"levelo://app?vid=3373b990-855a-4413-88e1-982f325228bc"},"vehicle_type_id":"4","last_reported":1753560684,"current_range_meters":15200,"station_id":"","pricing_plan_id":"cebpf4jnsgd1na2vs0mg"},{"bike_id":"76874c93-4196-48c1-b4ce-9dc79e3034f2","system_id":"levelo_inurba_marseille","lat":43.31762,"lon":5.39024,"is_reserved":false,"is_disabled":false,"rental_uris":{"android":"levelo://app?vid=76874c93-4196-48c1-b4ce-9dc79e3034f2","ios":"levelo://app?vid=76874c93-4196-48c1-b4ce-9dc79e3034f2"},"vehicle_type_id":"4","last_reported":1753560684,"current_range_meters":16000,"station_id":"ce4bhqp2rcd13ifvqhng","pricing_plan_id":"cebpf4jnsgd1na2vs0mg"},{"bike_id":"aba58f33-bf28-4448-8af1-021d8e5460f0","system_id":"levelo_inurba_marseille","lat":43.29597,"lon":5.37725,"is_reserved":false,"is_disabled":false,"rental_uris":{"android":"levelo://app?vid=aba58f33-bf28-4448-8af1-021d8e5460f0","ios":"levelo://app?vid=aba58f33-bf28-4448-8af1-021d8e5460f0"},"vehicle_type_id":"4","last_reported":1753560684,"current_range_meters":16000,"station_id":"ce4bgi92rcd13ifvqb90","pricing_plan_id":"cebpf4jnsgd1na2vs0mg"},{"bike_id":"54405b04-0f04-4c64-af8f-9ccbb34ae9ba","system_id":"levelo_inurba_marseille","lat":43.28031,"lon":5.36942,"is_reserved":false,"is_disabled":false,"rental_uris":{"android":"levelo://app?vid=54405b04-0f04-4c64-af8f-9ccbb34ae9ba","ios":"levelo://app?vid=54405b04-0f04-4c64-af8f-9ccbb34ae9ba"},"vehicle_type_id":"4","last_reported":1753560684,"current_range_meters":16000,"station_id":"ce4bha12rcd13ifvqef0","pricing_plan_id":"cebpf4jnsgd1na2vs0mg"},{"bike_id":"35d8e9f0-1a6b-4e05-a20c-e80a74a09e8c","system_id":"levelo_inurba_marseille","lat":43.29275,"lon":5.38431,"is_reserved":false,"is_disabled":false,"rental_uris":{"android":"levelo://app?vid=35d8e9f0-1a6b-4e05-a20c-e80a74a09e8c","ios":"levelo://app?vid=35d8e9f0-1a6b-4e05-a20c-e80a74a09e8c"},"vehicle_type_id":"4","last_reported":1753560684,"current_range_meters":16000,"station_id":"ce4bh692rcd13ifvqea0","pricing_plan_id":"cebpf4jnsgd1na2vs0mg"},{"bike_id":"b1626bc8-c946-4c11-b39d-6fb6c1370c7f","system_id":"levelo_inurba_marseille","lat":43.2998,"lon":5.37172,"is_reserved":false,"is_disabled":false,"rental_uris":{"android":"levelo://app?vid=b1626bc8-c946-4c11-b39d-6fb6c1370c7f","ios":"levelo://app?vid=b1626bc8-c946-4c11-b39d-6fb6c1370c7f"},"vehicle_type_id":"4","last_reported":1753560684,"current_range_meters":16000,"station_id":"ce4bgr92rcd13ifvqc7g","pricing_plan_id":"cebpf4jnsgd1na2vs0mg"},{"bike_id":"6a6e6311-7c4a-4245-97f5-c5fbcbf4dc5f","system_id":"levelo_inurba_marseille","lat":43.31672,"lon":5.40481,"is_reserved":false,"is_disabled":false,"rental_uris":{"android":"levelo://app?vid=6a6e6311-7c4a-4245-97f5-c5fbcbf4dc5f","ios":"levelo://app?vid=6a6e6311-7c4a-4245-97f5-c5fbcbf4dc5f"},"vehicle_type_id":"4","last_reported":1753560684,"current_range_meters":16000,"station_id":"ce4bh012rcd13ifvqd00","pricing_plan_id":"cebpf4jnsgd1na2vs0mg"},{"bike_id":"05aa8176-1c8c-4ae8-ac3a-11e087a3eba6","system_id":"levelo_inurba_marseille","lat":43.30304,"lon":5.369,"is_reserved":false,"is_disabled":false,"rental_uris":{"android":"levelo://app?vid=05aa8176-1c8c-4ae8-ac3a-11e087a3eba6","ios":"levelo://app?vid=05aa8176-1c8c-4ae8-ac3a-11e087a3eba6"},"vehicle_type_id":"4","last_reported":1753560684,"current_range_meters":16000,"station_id":"ce4bgqh2rcd13ifvqc5g","pricing_plan_id":"cebpf4jnsgd1na2vs0mg"},{"bike_id":"c0bb5d73-ab82-4534-b6b3-a4263bb68a6b","system_id":"levelo_inurba_marseille","lat":43.29172,"lon":5.37144,"is_reserved":false,"is_disabled":false,"rental_uris":{"android":"levelo://app?vid=c0bb5d73-ab82-4534-b6b3-a4263bb68a6b","ios":"levelo://app?vid=c0bb5d73-ab82-4534-b6b3-a4263bb68a6b"},"vehicle_type_id":"4","last_reported":1753560684,"current_range_meters":16000,"station_id":"ce4bha92rcd13ifvqeh0","pricing_plan_id":"cebpf4jnsgd1na2vs0mg"},{"bike_id":"dfaa4d59-b8e4-4752-8b60-0d234120b6c7","system_id":"levelo_inurba_marseille","lat":43.29563,"lon":5.37514,"is_reserved":false,"is_disabled":false,"rental_uris":{"android":"levelo://app?vid=dfaa4d59-b8e4-4752-8b60-0d234120b6c7","ios":"levelo://app?vid=dfaa4d59-b8e4-4752-8b60-0d234120b6c7"},"vehicle_type_id":"4","last_reported":1753560684,"current_range_meters":16000,"station_id":"ce4bgh92rcd13ifvqb50","pricing_plan_id":"cebpf4jnsgd1na2vs0mg"},{"bike_id":"b9d90a33-242e-4108-916f-926fe59baba6","system_id":"levelo_inurba_marseille","lat":43.261942,"lon":5.374459,"is_reserved":false,"is_disabled":false,"rental_uris":{"android":"levelo://app?vid=b9d90a33-242e-4108-916f-926fe59baba6","ios":"levelo://app?vid=b9d90a33-242e-4108-916f-926fe59baba6"},"vehicle_type_id":"4","last_reported":1753560684,"current_range_meters":16000,"station_id":"ce4bhgp2rcd13ifvqfc0","pricing_plan_id":"cebpf4jnsgd1na2vs0mg"},{"bike_id":"02cab979-ccb2-40ce-bd89-cd624415fc04","system_id":"levelo_inurba_marseille","lat":43.27782,"lon":5.39941,"is_reserved":false,"is_disabled":false,"rental_uris":{"android":"levelo://app?vid=02cab979-ccb2-40ce-bd89-cd624415fc04","ios":"levelo://app?vid=02cab979-ccb2-40ce-bd89-cd624415fc04"},"vehicle_type_id":"4","last_reported":1753560684,"current_range_meters":16000,"station_id":"","pricing_plan_id":"cebpf4jnsgd1na2vs0mg"},{"bike_id":"1533361c-c8b0-46c4-bb07-47847e110ffc","system_id":"levelo_inurba_marseille","lat":43.2818,"lon":5.4264,"is_reserved":false,"is_disabled":false,"rental_uris":{"android":"levelo://app?vid=1533361c-c8b0-46c4-bb07-47847e110ffc","ios":"levelo://app?vid=1533361c-c8b0-46c4-bb07-47847e110ffc"},"vehicle_type_id":"4","last_reported":1753560684,"current_range_meters":16000,"station_id":"ce4bhnh2rcd13ifvqgug","pricing_plan_id":"cebpf4jnsgd1na2vs0mg"},{"bike_id":"831a3cf2-acf1-4d34-a389-e78eddcf9ddd","system_id":"levelo_inurba_marseille","lat":43.29529,"lon":5.38551,"is_reserved":false,"is_disabled":false,"rental_uris":{"android":"levelo://app?vid=831a3cf2-acf1-4d34-a389-e78eddcf9ddd","ios":"levelo://app?vid=831a3cf2-acf1-4d34-a389-e78eddcf9ddd"},"vehicle_type_id":"4","last_reported":1753560684,"current_range_meters":16000,"station_id":"ce4bgih2rcd13ifvqba0","pricing_plan_id":"cebpf4jnsgd1na2vs0mg"},{"bike_id":"93702d68-9606-419c-a5fe-eee999288ff0","system_id":"levelo_inurba_marseille","lat":43.29104,"lon":5.38141,"is_reserved":false,"is_disabled":false,"rental_uris":{"android":"levelo://app?vid=93702d68-9606-419c-a5fe-eee999288ff0","ios":"levelo://app?vid=93702d68-9606-419c-a5fe-eee999288ff0"},"vehicle_type_id":"4","last_reported":1753560684,"current_range_meters":16000,"station_id":"ce4bh512rcd13ifvqe2g","pricing_plan_id":"cebpf4jnsgd1na2vs0mg"},{"bike_id":"4e18c676-3072-42a7-b0dc-a224c48f4c81","system_id":"levelo_inurba_marseille","lat":43.28148,"lon":5.42639,"is_reserved":false,"is_disabled":false,"rental_uris":{"android":"levelo://app?vid=4e18c676-3072-42a7-b0dc-a224c48f4c81","ios":"levelo://app?vid=4e18c676-3072-42a7-b0dc-a224c48f4c81"},"vehicle_type_id":"4","last_reported":1753560684,"current_range_meters":16000,"station_id":"ce4bhnh2rcd13ifvqgug","pricing_plan_id":"cebpf4jnsgd1na2vs0mg"},{"bike_id":"c30add1c-722a-4888-bac9-0135f960554d","system_id":"levelo_inurba_marseille","lat":43.284461,"lon":5.391769,"is_reserved":false,"is_disabled":false,"rental_uris":{"android":"levelo://app?vid=c30add1c-722a-4888-bac9-0135f960554d","ios":"levelo://app?vid=c30add1c-722a-4888-bac9-0135f960554d"},"vehicle_type_id":"4","last_reported":1753560684,"current_range_meters":16000,"station_id":"ce4bhoh2rcd13ifvqh5g","pricing_plan_id":"cebpf4jnsgd1na2vs0mg"},{"bike_id":"838abc03-1e8a-4868-b4de-2e313ac067e5","system_id":"levelo_inurba_marseille","lat":43.29201,"lon":5.39337,"is_reserved":false,"is_disabled":false,"rental_uris":{"android":"levelo://app?vid=838abc03-1e8a-4868-b4de-2e313ac067e5","ios":"levelo://app?vid=838abc03-1e8a-4868-b4de-2e313ac067e5"},"vehicle_type_id":"4","last_reported":1753560684,"current_range_meters":16000,"station_id":"ce4bh192rcd13ifvqdd0","pricing_plan_id":"cebpf4jnsgd1na2vs0mg"},{"bike_id":"251e4141-bb33-4b44-92b1-bb84ad97edf4","system_id":"levelo_inurba_marseille","lat":43.247528,"lon":5.374344,"is_reserved":false,"is_disabled":false,"rental_uris":{"android":"levelo://app?vid=251e4141-bb33-4b44-92b1-bb84ad97edf4","ios":"levelo://app?vid=251e4141-bb33-4b44-92b1-bb84ad97edf4"},"vehicle_type_id":"4","last_reported":1753560684,"current_range_meters":16400,"station_id":"ce4bhgh2rcd13ifvqfb0","pricing_plan_id":"cebpf4jnsgd1na2vs0mg"},{"bike_id":"35a566bb-ed81-4ee9-931a-d06ebfce567b","system_id":"levelo_inurba_marseille","lat":43.2603,"lon":5.37544,"is_reserved":false,"is_disabled":false,"rental_uris":{"android":"levelo://app?vid=35a566bb-ed81-4ee9-931a-d06ebfce567b","ios":"levelo://app?vid=35a566bb-ed81-4ee9-931a-d06ebfce567b"},"vehicle_type_id":"4","last_reported":1753560684,"current_range_meters":16400,"station_id":"ce4bhgh2rcd13ifvqfa0","pricing_plan_id":"cebpf4jnsgd1na2vs0mg"},{"bike_id":"34a06ca1-6ed0-4d6c-b5e5-b429f450161e","system_id":"levelo_inurba_marseille","lat":43.29616,"lon":5.37723,"is_reserved":false,"is_disabled":false,"rental_uris":{"android":"levelo://app?vid=34a06ca1-6ed0-4d6c-b5e5-b429f450161e","ios":"levelo://app?vid=34a06ca1-6ed0-4d6c-b5e5-b429f450161e"},"vehicle_type_id":"4","last_reported":1753560684,"current_range_meters":16400,"station_id":"ce4bgi92rcd13ifvqb90","pricing_plan_id":"cebpf4jnsgd1na2vs0mg"},{"bike_id":"6c38f903-98fc-43f2-b709-3b1e9132591a","system_id":"levelo_inurba_marseille","lat":43.29578,"lon":5.37501,"is_reserved":false,"is_disabled":false,"rental_uris":{"android":"levelo://app?vid=6c38f903-98fc-43f2-b709-3b1e9132591a","ios":"levelo://app?vid=6c38f903-98fc-43f2-b709-3b1e9132591a"},"vehicle_type_id":"4","last_reported":1753560684,"current_range_meters":16400,"station_id":"ce4bgh92rcd13ifvqb50","pricing_plan_id":"cebpf4jnsgd1na2vs0mg"},{"bike_id":"957e7b45-0490-4fcf-af4e-ef2a5915bf5e","system_id":"levelo_inurba_marseille","lat":43.26214,"lon":5.37435,"is_reserved":false,"is_disabled":false,"rental_uris":{"android":"levelo://app?vid=957e7b45-0490-4fcf-af4e-ef2a5915bf5e","ios":"levelo://app?vid=957e7b45-0490-4fcf-af4e-ef2a5915bf5e"},"vehicle_type_id":"4","last_reported":1753560684,"current_range_meters":16400,"station_id":"ce4bhgp2rcd13ifvqfc0","pricing_plan_id":"cebpf4jnsgd1na2vs0mg"},{"bike_id":"89c854aa-01b4-4cc4-93a2-e8aeb4d676c6","system_id":"levelo_inurba_marseille","lat":43.2961,"lon":5.37735,"is_reserved":false,"is_disabled":false,"rental_uris":{"android":"levelo://app?vid=89c854aa-01b4-4cc4-93a2-e8aeb4d676c6","ios":"levelo://app?vid=89c854aa-01b4-4cc4-93a2-e8aeb4d676c6"},"vehicle_type_id":"4","last_reported":1753560684,"current_range_meters":16400,"station_id":"ce4bgi92rcd13ifvqb90","pricing_plan_id":"cebpf4jnsgd1na2vs0mg"},{"bike_id":"c3f920a0-181a-4f3b-8bbe-5050b7e98056","system_id":"levelo_inurba_marseille","lat":43.29262,"lon":5.38444,"is_reserved":false,"is_disabled":false,"rental_uris":{"android":"levelo://app?vid=c3f920a0-181a-4f3b-8bbe-5050b7e98056","ios":"levelo://app?vid=c3f920a0-181a-4f3b-8bbe-5050b7e98056"},"vehicle_type_id":"4","last_reported":1753560684,"current_range_meters":16400,"station_id":"ce4bh692rcd13ifvqea0","pricing_plan_id":"cebpf4jnsgd1na2vs0mg"},{"bike_id":"c3a5a1a9-8e4c-4154-abb5-5d047b7c1ce8","system_id":"levelo_inurba_marseille","lat":43.29571,"lon":5.37539,"is_reserved":false,"is_disabled":false,"rental_uris":{"android":"levelo://app?vid=c3a5a1a9-8e4c-4154-abb5-5d047b7c1ce8","ios":"levelo://app?vid=c3a5a1a9-8e4c-4154-abb5-5d047b7c1ce8"},"vehicle_type_id":"4","last_reported":1753560684,"current_range_meters":16400,"station_id":"ce4bgh92rcd13ifvqb50","pricing_plan_id":"cebpf4jnsgd1na2vs0mg"},{"bike_id":"90b0ef2d-fda9-41b1-8f39-20fc5c736165","system_id":"levelo_inurba_marseille","lat":43.27054,"lon":5.4027,"is_reserved":false,"is_disabled":false,"rental_uris":{"android":"levelo://app?vid=90b0ef2d-fda9-41b1-8f39-20fc5c736165","ios":"levelo://app?vid=90b0ef2d-fda9-41b1-8f39-20fc5c736165"},"vehicle_type_id":"4","last_reported":1753560684,"current_range_meters":16400,"station_id":"ce4bhk92rcd13ifvqgc0","pricing_plan_id":"cebpf4jnsgd1na2vs0mg"},{"bike_id":"0882cb1f-3452-4948-9092-ae8b81ea7cab","system_id":"levelo_inurba_marseille","lat":43.29269,"lon":5.3844,"is_reserved":false,"is_disabled":false,"rental_uris":{"android":"levelo://app?vid=0882cb1f-3452-4948-9092-ae8b81ea7cab","ios":"levelo://app?vid=0882cb1f-3452-4948-9092-ae8b81ea7cab"},"vehicle_type_id":"4","last_reported":1753560684,"current_range_meters":16800,"station_id":"ce4bh692rcd13ifvqea0","pricing_plan_id":"cebpf4jnsgd1na2vs0mg"},{"bike_id":"a2281c7a-8e76-4e2b-a15d-4dddab8c1278","system_id":"levelo_inurba_marseille","lat":43.28928,"lon":5.38395,"is_reserved":false,"is_disabled":false,"rental_uris":{"android":"levelo://app?vid=a2281c7a-8e76-4e2b-a15d-4dddab8c1278","ios":"levelo://app?vid=a2281c7a-8e76-4e2b-a15d-4dddab8c1278"},"vehicle_type_id":"4","last_reported":1753560684,"current_range_meters":16800,"station_id":"ce4bh612rcd13ifvqe6g","pricing_plan_id":"cebpf4jnsgd1na2vs0mg"},{"bike_id":"4e7192e1-3f7e-4a11-a793-d9bc51d11b9e","system_id":"levelo_inurba_marseille","lat":43.26021,"lon":5.37551,"is_reserved":false,"is_disabled":false,"rental_uris":{"android":"levelo://app?vid=4e7192e1-3f7e-4a11-a793-d9bc51d11b9e","ios":"levelo://app?vid=4e7192e1-3f7e-4a11-a793-d9bc51d11b9e"},"vehicle_type_id":"4","last_reported":1753560684,"current_range_meters":16800,"station_id":"ce4bhgh2rcd13ifvqfa0","pricing_plan_id":"cebpf4jnsgd1na2vs0mg"},{"bike_id":"e666153e-0d94-49fc-a285-a6a2347ef6ad","system_id":"levelo_inurba_marseille","lat":43.26944,"lon":5.38632,"is_reserved":false,"is_disabled":true,"rental_uris":{"android":"levelo://app?vid=e666153e-0d94-49fc-a285-a6a2347ef6ad","ios":"levelo://app?vid=e666153e-0d94-49fc-a285-a6a2347ef6ad"},"vehicle_type_id":"4","last_reported":1753560684,"current_range_meters":16800,"station_id":"ce4bhh92rcd13ifvqfh0","pricing_plan_id":"cebpf4jnsgd1na2vs0mg"},{"bike_id":"58ed0f13-0fc8-4e16-be93-7dab580b8c59","system_id":"levelo_inurba_marseille","lat":43.2929,"lon":5.37447,"is_reserved":false,"is_disabled":true,"rental_uris":{"android":"levelo://app?vid=58ed0f13-0fc8-4e16-be93-7dab580b8c59","ios":"levelo://app?vid=58ed0f13-0fc8-4e16-be93-7dab580b8c59"},"vehicle_type_id":"4","last_reported":1753560684,"current_range_meters":16400,"station_id":"ce4bgi12rcd13ifvqb70","pricing_plan_id":"cebpf4jnsgd1na2vs0mg"},{"bike_id":"adbc006e-c51d-4434-863c-610344ea30cd","system_id":"levelo_inurba_marseille","lat":43.21768,"lon":5.34637,"is_reserved":false,"is_disabled":true,"rental_uris":{"android":"levelo://app?vid=adbc006e-c51d-4434-863c-610344ea30cd","ios":"levelo://app?vid=adbc006e-c51d-4434-863c-610344ea30cd"},"vehicle_type_id":"4","last_reported":1753560684,"current_range_meters":16800,"station_id":"st_cvj6r9ubvosntc0bgbag","pricing_plan_id":"cebpf4jnsgd1na2vs0mg"},{"bike_id":"d2363060-12f5-4b79-946f-27712d7eedac","system_id":"levelo_inurba_marseille","lat":43.30941,"lon":5.40144,"is_reserved":false,"is_disabled":false,"rental_uris":{"android":"levelo://app?vid=d2363060-12f5-4b79-946f-27712d7eedac","ios":"levelo://app?vid=d2363060-12f5-4b79-946f-27712d7eedac"},"vehicle_type_id":"4","last_reported":1753560684,"current_range_meters":16800,"station_id":"ce4bgvp2rcd13ifvqct0","pricing_plan_id":"cebpf4jnsgd1na2vs0mg"},{"bike_id":"dc8eddc9-b807-4be2-ac1c-594f36a73ea8","system_id":"levelo_inurba_marseille","lat":43.26193,"lon":5.37467,"is_reserved":false,"is_disabled":false,"rental_uris":{"android":"levelo://app?vid=dc8eddc9-b807-4be2-ac1c-594f36a73ea8","ios":"levelo://app?vid=dc8eddc9-b807-4be2-ac1c-594f36a73ea8"},"vehicle_type_id":"4","last_reported":1753560684,"current_range_meters":16800,"station_id":"ce4bhgp2rcd13ifvqfc0","pricing_plan_id":"cebpf4jnsgd1na2vs0mg"},{"bike_id":"07bdf7f4-31e3-4166-8507-4452a98400cb","system_id":"levelo_inurba_marseille","lat":43.26212,"lon":5.37437,"is_reserved":false,"is_disabled":false,"rental_uris":{"android":"levelo://app?vid=07bdf7f4-31e3-4166-8507-4452a98400cb","ios":"levelo://app?vid=07bdf7f4-31e3-4166-8507-4452a98400cb"},"vehicle_type_id":"4","last_reported":1753560684,"current_range_meters":16800,"station_id":"ce4bhgp2rcd13ifvqfc0","pricing_plan_id":"cebpf4jnsgd1na2vs0mg"},{"bike_id":"295c9f40-ca7e-484c-8f1d-8e8d40a1416a","system_id":"levelo_inurba_marseille","lat":43.295319,"lon":5.385365,"is_reserved":false,"is_disabled":false,"rental_uris":{"android":"levelo://app?vid=295c9f40-ca7e-484c-8f1d-8e8d40a1416a","ios":"levelo://app?vid=295c9f40-ca7e-484c-8f1d-8e8d40a1416a"},"vehicle_type_id":"4","last_reported":1753560684,"current_range_meters":16800,"station_id":"ce4bgih2rcd13ifvqba0","pricing_plan_id":"cebpf4jnsgd1na2vs0mg"},{"bike_id":"de607548-fd5d-4830-980f-7f62a51b81df","system_id":"levelo_inurba_marseille","lat":43.29277,"lon":5.38445,"is_reserved":false,"is_disabled":false,"rental_uris":{"android":"levelo://app?vid=de607548-fd5d-4830-980f-7f62a51b81df","ios":"levelo://app?vid=de607548-fd5d-4830-980f-7f62a51b81df"},"vehicle_type_id":"4","last_reported":1753560684,"current_range_meters":17200,"station_id":"ce4bh692rcd13ifvqea0","pricing_plan_id":"cebpf4jnsgd1na2vs0mg"},{"bike_id":"0b208ff9-01fd-41b4-b9f2-dff7cd1ed5d9","system_id":"levelo_inurba_marseille","lat":43.2826,"lon":5.35071,"is_reserved":false,"is_disabled":false,"rental_uris":{"android":"levelo://app?vid=0b208ff9-01fd-41b4-b9f2-dff7cd1ed5d9","ios":"levelo://app?vid=0b208ff9-01fd-41b4-b9f2-dff7cd1ed5d9"},"vehicle_type_id":"4","last_reported":1753560684,"current_range_meters":17200,"station_id":"","pricing_plan_id":"cebpf4jnsgd1na2vs0mg"},{"bike_id":"484ce80f-12be-41fa-9586-784b84db2ffe","system_id":"levelo_inurba_marseille","lat":43.248212,"lon":5.374537,"is_reserved":false,"is_disabled":false,"rental_uris":{"android":"levelo://app?vid=484ce80f-12be-41fa-9586-784b84db2ffe","ios":"levelo://app?vid=484ce80f-12be-41fa-9586-784b84db2ffe"},"vehicle_type_id":"4","last_reported":1753560684,"current_range_meters":17200,"station_id":"ce4bhgh2rcd13ifvqfb0","pricing_plan_id":"cebpf4jnsgd1na2vs0mg"},{"bike_id":"a8033447-6195-422c-8c1e-ea7503a29e10","system_id":"levelo_inurba_marseille","lat":43.29246,"lon":5.38448,"is_reserved":false,"is_disabled":false,"rental_uris":{"android":"levelo://app?vid=a8033447-6195-422c-8c1e-ea7503a29e10","ios":"levelo://app?vid=a8033447-6195-422c-8c1e-ea7503a29e10"},"vehicle_type_id":"4","last_reported":1753560684,"current_range_meters":17200,"station_id":"ce4bh692rcd13ifvqea0","pricing_plan_id":"cebpf4jnsgd1na2vs0mg"},{"bike_id":"4fc3f15f-8cd3-4c1b-bd28-d29379440dad","system_id":"levelo_inurba_marseille","lat":43.31179,"lon":5.38719,"is_reserved":false,"is_disabled":false,"rental_uris":{"android":"levelo://app?vid=4fc3f15f-8cd3-4c1b-bd28-d29379440dad","ios":"levelo://app?vid=4fc3f15f-8cd3-4c1b-bd28-d29379440dad"},"vehicle_type_id":"4","last_reported":1753560684,"current_range_meters":17200,"station_id":"ce4bgv12rcd13ifvqcp0","pricing_plan_id":"cebpf4jnsgd1na2vs0mg"},{"bike_id":"01f2634f-d4b7-4f4d-8c66-f36499fcfa55","system_id":"levelo_inurba_marseille","lat":43.315327,"lon":5.38025,"is_reserved":false,"is_disabled":false,"rental_uris":{"android":"levelo://app?vid=01f2634f-d4b7-4f4d-8c66-f36499fcfa55","ios":"levelo://app?vid=01f2634f-d4b7-4f4d-8c66-f36499fcfa55"},"vehicle_type_id":"4","last_reported":1753560684,"current_range_meters":17200,"station_id":"ce4bhsp2rcd13ifvqi50","pricing_plan_id":"cebpf4jnsgd1na2vs0mg"},