{"last_updated":1739559992,"ttl":60,"version":"2.2","data":{"bikes":[{"bike_id":"9ca77c5e-e1f4-44bd-af07-d07da16236ff","system_id":"levelo_inurba_marseille","lat":43.27997,"lon":5.40015,"is_reserved":false,"is_disabled":false,"rental_uris":{"android":"levelo://app?vid=9ca77c5e-e1f4-44bd-af07-d07da16236ff","ios":"levelo://app?vid=9ca77c5e-e1f4-44bd-af07-d07da16236ff"},"vehicle_type_id":"4","last_reported":1739559992,"current_range_meters":6800,"station_id":"ce4bho92rcd13ifvqh4g","pricing_plan_id":"cebpf4jnsgd1na2vs0mg"},{"bike_id":"8dfdbe12-b35c-40b3-9608-e6563855b938","system_id":"levelo_inurba_marseille","lat":43.27809,"lon":5.40712,"is_reserved":false,"is_disabled":false,"rental_uris":{"android":"levelo://app?vid=8dfdbe12-b35c-40b3-9608-e6563855b938","ios":"levelo://app?vid=8dfdbe12-b35c-40b3-9608-e6563855b938"},"vehicle_type_id":"4","last_reported":1739559992,"current_range_meters":38800,"station_id":"ce4bhnh2rcd13ifvqgtg","pricing_plan_id":"cebpf4jnsgd1na2vs0mg"},{"bike_id":"72376f6e-a208-4a20-92fe-58cdd5092d6e","system_id":"levelo_inurba_marseille","lat":43.29294,"lon":5.3745,"is_reserved":false,"is_disabled":false,"rental_uris":{"android":"levelo://app?vid=72376f6e-a208-4a20-92fe-58cdd5092d6e","ios":"levelo://app?vid=72376f6e-a208-4a20-92fe-58cdd5092d6e"},"vehicle_type_id":"4","last_reported":1739559992,"current_range_meters":38800,"station_id":"ce4bgi12rcd13ifvqb70","pricing_plan_id":"cebpf4jnsgd1na2vs0mg"},{"bike_id":"719a875a-0651-4af4-9cdb-36248ea3b24a","system_id":"levelo_inurba_marseille","lat":43.28289,"lon":5.38952,"is_reserved":false,"is_disabled":false,"rental_uris":{"android":"levelo://app?vid=719a875a-0651-4af4-9cdb-36248ea3b24a","ios":"levelo://app?vid=719a875a-0651-4af4-9cdb-36248ea3b24a"},"vehicle_type_id":"4","last_reported":1739559992,"current_range_meters":15200,"station_id":"","pricing_plan_id":"cebpf4jnsgd1na2vs0mg"},{"bike_id":"c512bbcc-bcc1-4c6f-ab74-78699f47cd65","system_id":"levelo_inurba_marseille","lat":43.30301,"lon":5.36889,"is_reserved":false,"is_disabled":false,"rental_uris":{"android":"levelo://app?vid=c512bbcc-bcc1-4c6f-ab74-78699f47cd65","ios":"levelo://app?vid=c512bbcc-bcc1-4c6f-ab74-78699f47cd65"},"vehicle_type_id":"4","last_reported":1739559992,"current_range_meters":38800,"station_id":"ce4bgqh2rcd13ifvqc5g","pricing_plan_id":"cebpf4jnsgd1na2vs0mg"},{"bike_id":"43abdafd-6140-4b6a-a08b-ca9be9ff5d0b","system_id":"levelo_inurba_marseille","lat":43.28007,"lon":5.40012,"is_reserved":false,"is_disabled":false,"rental_uris":{"android":"levelo://app?vid=43abdafd-6140-4b6a-a08b-ca9be9ff5d0b","ios":"levelo://app?vid=43abdafd-6140-4b6a-a08b-ca9be9ff5d0b"},"vehicle_type_id":"4","last_reported":1739559992,"current_range_meters":16800,"station_id":"ce4bho92rcd13ifvqh4g","pricing_plan_id":"cebpf4jnsgd1na2vs0mg"},{"bike_id":"aeeb603c-9e21-471f-a3b4-471a46d5c228","system_id":"levelo_inurba_marseille","lat":43.24164,"lon":5.36386,"is_reserved":false,"is_disabled":false,"rental_uris":{"android":"levelo://app?vid=aeeb603c-9e21-471f-a3b4-471a46d5c228","ios":"levelo://app?vid=aeeb603c-9e21-471f-a3b4-471a46d5c228"},"vehicle_type_id":"4","last_reported":1739559992,"current_range_meters":20400,"station_id":"cpo36qri1sfpv3e86is0","pricing_plan_id":"cebpf4jnsgd1na2vs0mg"},{"bike_id":"1d4165b9-e8af-42e7-8e88-54a0f84b4f26","system_id":"levelo_inurba_marseille","lat":43.23201,"lon":5.39971,"is_reserved":false,"is_disabled":false,"rental_uris":{"android":"levelo://app?vid=1d4165b9-e8af-42e7-8e88-54a0f84b4f26","ios":"levelo://app?vid=1d4165b9-e8af-42e7-8e88-54a0f84b4f26"},"vehicle_type_id":"4","last_reported":1739559992,"current_range_meters":28800,"station_id":"ce4bhn12rcd13ifvqgqg","pricing_plan_id":"cebpf4jnsgd1na2vs0mg"},{"bike_id":"c1e76274-801b-4893-b793-e635178d8b86","system_id":"levelo_inurba_marseille","lat":43.23965,"lon":5.36624,"is_reserved":false,"is_disabled":false,"rental_uris":{"android":"levelo://app?vid=c1e76274-801b-4893-b793-e635178d8b86","ios":"levelo://app?vid=c1e76274-801b-4893-b793-e635178d8b86"},"vehicle_type_id":"4","last_reported":1739559992,"current_range_meters":38800,"station_id":"ce4bhi12rcd13ifvqfp0","pricing_plan_id":"cebpf4jnsgd1na2vs0mg"},{"bike_id":"3d55dfbc-79dc-4a16-8c46-cf49fec8982e","system_id":"levelo_inurba_marseille","lat":43.24403,"lon":5.3697,"is_reserved":false,"is_disabled":false,"rental_uris":{"android":"levelo://app?vid=3d55dfbc-79dc-4a16-8c46-cf49fec8982e","ios":"levelo://app?vid=3d55dfbc-79dc-4a16-8c46-cf49fec8982e"},"vehicle_type_id":"4","last_reported":1739559992,"current_range_meters":39200,"station_id":"ce4bhhh2rcd13ifvqfk0","pricing_plan_id":"cebpf4jnsgd1na2vs0mg"},{"bike_id":"2de1e167-8cc3-4010-9fa5-828b8b5fa45a","system_id":"levelo_inurba_marseille","lat":43.29685,"lon":5.37294,"is_reserved":false,"is_disabled":false,"rental_uris":{"android":"levelo://app?vid=2de1e167-8cc3-4010-9fa5-828b8b5fa45a","ios":"levelo://app?vid=2de1e167-8cc3-4010-9fa5-828b8b5fa45a"},"vehicle_type_id":"4","last_reported":1739559992,"current_range_meters":22000,"station_id":"ce4bgk12rcd13ifvqbj0","pricing_plan_id":"cebpf4jnsgd1na2vs0mg"},{"bike_id":"971ea11e-3586-4e99-837f-ffe6455b1bb5","system_id":"levelo_inurba_marseille","lat":43.30881,"lon":5.37183,"is_reserved":false,"is_disabled":false,"rental_uris":{"android":"levelo://app?vid=971ea11e-3586-4e99-837f-ffe6455b1bb5","ios":"levelo://app?vid=971ea11e-3586-4e99-837f-ffe6455b1bb5"},"vehicle_type_id":"4","last_reported":1739559992,"current_range_meters":24800,"station_id":"ce4bguh2rcd13ifvqckg","pricing_plan_id":"cebpf4jnsgd1na2vs0mg"},{"bike_id":"c74f8124-73dc-4bd8-a98e-9fa42c510bc4","system_id":"levelo_inurba_marseille","lat":43.2319,"lon":5.39981,"is_reserved":false,"is_disabled":false,"rental_uris":{"android":"levelo://app?vid=c74f8124-73dc-4bd8-a98e-9fa42c510bc4","ios":"levelo://app?vid=c74f8124-73dc-4bd8-a98e-9fa42c510bc4"},"vehicle_type_id":"4","last_reported":1739559992,"current_range_meters":28000,"station_id":"ce4bhn12rcd13ifvqgqg","pricing_plan_id":"cebpf4jnsgd1na2vs0mg"},{"bike_id":"eace11fc-366d-49db-ab9f-2f957d528477","system_id":"levelo_inurba_marseille","lat":43.255,"lon":5.37655,"is_reserved":false,"is_disabled":false,"rental_uris":{"android":"levelo://app?vid=eace11fc-366d-49db-ab9f-2f957d528477","ios":"levelo://app?vid=eace11fc-366d-49db-ab9f-2f957d528477"},"vehicle_type_id":"4","last_reported":1739559992,"current_range_meters":38400,"station_id":"ce4bhh12rcd13ifvqff0","pricing_plan_id":"cebpf4jnsgd1na2vs0mg"},{"bike_id":"001413bd-adb4-40c4-ac1a-dd8e692a2c76","system_id":"levelo_inurba_marseille","lat":43.29799,"lon":5.40403,"is_reserved":false,"is_disabled":false,"rental_uris":{"android":"levelo://app?vid=001413bd-adb4-40c4-ac1a-dd8e692a2c76","ios":"levelo://app?vid=001413bd-adb4-40c4-ac1a-dd8e692a2c76"},"vehicle_type_id":"4","last_reported":1739559992,"current_range_meters":12400,"station_id":"ce4bh112rcd13ifvqd90","pricing_plan_id":"cebpf4jnsgd1na2vs0mg"},{"bike_id":"5d2484e8-d08f-4bba-ae77-36cb31e97e9b","system_id":"levelo_inurba_marseille","lat":43.29547,"lon":5.42263,"is_reserved":false,"is_disabled":false,"rental_uris":{"android":"levelo://app?vid=5d2484e8-d08f-4bba-ae77-36cb31e97e9b","ios":"levelo://app?vid=5d2484e8-d08f-4bba-ae77-36cb31e97e9b"},"vehicle_type_id":"4","last_reported":1739559992,"current_range_meters":39200,"station_id":"ce4bhph2rcd13ifvqhdg","pricing_plan_id":"cebpf4jnsgd1na2vs0mg"},{"bike_id":"6b42f4f1-2360-420a-81a5-fa8f868ac30d","system_id":"levelo_inurba_marseille","lat":43.27191,"lon":5.39026,"is_reserved":false,"is_disabled":false,"rental_uris":{"android":"levelo://app?vid=6b42f4f1-2360-420a-81a5-fa8f868ac30d","ios":"levelo://app?vid=6b42f4f1-2360-420a-81a5-fa8f868ac30d"},"vehicle_type_id":"4","last_reported":1739559992,"current_range_meters":36800,"station_id":"","pricing_plan_id":"cebpf4jnsgd1na2vs0mg"},{"bike_id":"c3fc4d9c-9722-4fad-8d64-356a520f9340","system_id":"levelo_inurba_marseille","lat":43.30084,"lon":5.39069,"is_reserved":false,"is_disabled":false,"rental_uris":{"android":"levelo://app?vid=c3fc4d9c-9722-4fad-8d64-356a520f9340","ios":"levelo://app?vid=c3fc4d9c-9722-4fad-8d64-356a520f9340"},"vehicle_type_id":"4","last_reported":1739559992,"current_range_meters":36800,"station_id":"ce4bh192rcd13ifvqdb0","pricing_plan_id":"cebpf4jnsgd1na2vs0mg"},{"bike_id":"383f0330-37fa-411b-ab17-fa8a3c04450f","system_id":"levelo_inurba_marseille","lat":43.29603,"lon":5.37723,"is_reserved":false,"is_disabled":false,"rental_uris":{"android":"levelo://app?vid=383f0330-37fa-411b-ab17-fa8a3c04450f","ios":"levelo://app?vid=383f0330-37fa-411b-ab17-fa8a3c04450f"},"vehicle_type_id":"4","last_reported":1739559992,"current_range_meters":38800,"station_id":"ce4bgi92rcd13ifvqb90","pricing_plan_id":"cebpf4jnsgd1na2vs0mg"},{"bike_id":"d8620b1e-960d-45d2-8914-a60c69816402","system_id":"levelo_inurba_marseille","lat":43.29301,"lon":5.3717,"is_reserved":false,"is_disabled":false,"rental_uris":{"android":"levelo://app?vid=d8620b1e-960d-45d2-8914-a60c69816402","ios":"levelo://app?vid=d8620b1e-960d-45d2-8914-a60c69816402"},"vehicle_type_id":"4","last_reported":1739559992,"current_range_meters":19200,"station_id":"ce4bgh92rcd13ifvqb40","pricing_plan_id":"cebpf4jnsgd1na2vs0mg"},{"bike_id":"0b6f0a15-c917-40b7-b542-331e68506ed3","system_id":"levelo_inurba_marseille","lat":43.31889,"lon":5.40727,"is_reserved":false,"is_disabled":false,"rental_uris":{"android":"levelo://app?vid=0b6f0a15-c917-40b7-b542-331e68506ed3","ios":"levelo://app?vid=0b6f0a15-c917-40b7-b542-331e68506ed3"},"vehicle_type_id":"4","last_reported":1739559992,"current_range_meters":33600,"station_id":"ce4bhq12rcd13ifvqhig","pricing_plan_id":"cebpf4jnsgd1na2vs0mg"},{"bike_id":"b34c6303-752a-46a1-93ad-ddbc991e20b6","system_id":"levelo_inurba_marseille","lat":43.23058,"lon":5.3549,"is_reserved":false,"is_disabled":false,"rental_uris":{"android":"levelo://app?vid=b34c6303-752a-46a1-93ad-ddbc991e20b6","ios":"levelo://app?vid=b34c6303-752a-46a1-93ad-ddbc991e20b6"},"vehicle_type_id":"4","last_reported":1739559992,"current_range_meters":38800,"station_id":"cpo3342slgdg3j2ifvpg","pricing_plan_id":"cebpf4jnsgd1na2vs0mg"},{"bike_id":"5557cf88-c9b4-477c-9a10-d8d0753e4d48","system_id":"levelo_inurba_marseille","lat":43.27993,"lon":5.40022,"is_reserved":false,"is_disabled":false,"rental_uris":{"android":"levelo://app?vid=5557cf88-c9b4-477c-9a10-d8d0753e4d48","ios":"levelo://app?vid=5557cf88-c9b4-477c-9a10-d8d0753e4d48"},"vehicle_type_id":"4","last_reported":1739559992,"current_range_meters":28800,"station_id":"ce4bho92rcd13ifvqh4g","pricing_plan_id":"cebpf4jnsgd1na2vs0mg"},{"bike_id":"13bb508a-7599-467d-bafc-f8904e868281","system_id":"levelo_inurba_marseille","lat":43.29704,"lon":5.36595,"is_reserved":false,"is_disabled":false,"rental_uris":{"android":"levelo://app?vid=13bb508a-7599-467d-bafc-f8904e868281","ios":"levelo://app?vid=13bb508a-7599-467d-bafc-f8904e868281"},"vehicle_type_id":"4","last_reported":1739559992,"current_range_meters":25600,"station_id":"ce4bgn12rcd13ifvqbt0","pricing_plan_id":"cebpf4jnsgd1na2vs0mg"},{"bike_id":"e281aaf6-2aac-4d5c-ac7c-b5c666ddd22c","system_id":"levelo_inurba_marseille","lat":43.29174,"lon":5.37151,"is_reserved":false,"is_disabled":false,"rental_uris":{"android":"levelo://app?vid=e281aaf6-2aac-4d5c-ac7c-b5c666ddd22c","ios":"levelo://app?vid=e281aaf6-2aac-4d5c-ac7c-b5c666ddd22c"},"vehicle_type_id":"4","last_reported":1739559992,"current_range_meters":39200,"station_id":"ce4bha92rcd13ifvqeh0","pricing_plan_id":"cebpf4jnsgd1na2vs0mg"},{"bike_id":"1300f95a-15ad-4299-a221-177495e93e42","system_id":"levelo_inurba_marseille","lat":43.32648,"lon":5.40977,"is_reserved":false,"is_disabled":false,"rental_uris":{"android":"levelo://app?vid=1300f95a-15ad-4299-a221-177495e93e42","ios":"levelo://app?vid=1300f95a-15ad-4299-a221-177495e93e42"},"vehicle_type_id":"4","last_reported":1739559992,"current_range_meters":25600,"station_id":"ce4bhpp2rcd13ifvqhgg","pricing_plan_id":"cebpf4jnsgd1na2vs0mg"},{"bike_id":"59234d21-556f-417c-805c-86ab04d4b499","system_id":"levelo_inurba_marseille","lat":43.29244,"lon":5.38436,"is_reserved":false,"is_disabled":false,"rental_uris":{"android":"levelo://app?vid=59234d21-556f-417c-805c-86ab04d4b499","ios":"levelo://app?vid=59234d21-556f-417c-805c-86ab04d4b499"},"vehicle_type_id":"4","last_reported":1739559992,"current_range_meters":36800,"station_id":"ce4bh692rcd13ifvqea0","pricing_plan_id":"cebpf4jnsgd1na2vs0mg"},{"bike_id":"db0c59a5-e36c-460d-a199-b553cfb8a418","system_id":"levelo_inurba_marseille","lat":43.28372,"lon":5.42968,"is_reserved":false,"is_disabled":false,"rental_uris":{"android":"levelo://app?vid=db0c59a5-e36c-460d-a199-b553cfb8a418","ios":"levelo://app?vid=db0c59a5-e36c-460d-a199-b553cfb8a418"},"vehicle_type_id":"4","last_reported":1739559992,"current_range_meters":24800,"station_id":"","pricing_plan_id":"cebpf4jnsgd1na2vs0mg"},{"bike_id":"c7c728ef-0d92-473f-917c-a5cad5f14f86","system_id":"levelo_inurba_marseille","lat":43.31495,"lon":5.37308,"is_reserved":false,"is_disabled":false,"rental_uris":{"android":"levelo://app?vid=c7c728ef-0d92-473f-917c-a5cad5f14f86","ios":"levelo://app?vid=c7c728ef-0d92-473f-917c-a5cad5f14f86"},"vehicle_type_id":"4","last_reported":1739559992,"current_range_meters":38800,"station_id":"ce4bgt12rcd13ifvqcd0","pricing_plan_id":"cebpf4jnsgd1na2vs0mg"},{"bike_id":"a8dbbbc1-833f-4adc-991f-385660231801","system_id":"levelo_inurba_marseille","lat":43.29788,"lon":5.38117,"is_reserved":false,"is_disabled":false,"rental_uris":{"android":"levelo://app?vid=a8dbbbc1-833f-4adc-991f-385660231801","ios":"levelo://app?vid=a8dbbbc1-833f-4adc-991f-385660231801"},"vehicle_type_id":"4","last_reported":1739559992,"current_range_meters":38800,"station_id":"ce4bgip2rcd13ifvqbb0","pricing_plan_id":"cebpf4jnsgd1na2vs0mg"},{"bike_id":"d430bbf5-dcb4-4006-8220-7af0587abbc5","system_id":"levelo_inurba_marseille","lat":43.25071,"lon":5.39495,"is_reserved":false,"is_disabled":false,"rental_uris":{"android":"levelo://app?vid=d430bbf5-dcb4-4006-8220-7af0587abbc5","ios":"levelo://app?vid=d430bbf5-dcb4-4006-8220-7af0587abbc5"},"vehicle_type_id":"4","last_reported":1739559992,"current_range_meters":39200,"station_id":"ce4bhm12rcd13ifvqgkg","pricing_plan_id":"cebpf4jnsgd1na2vs0mg"},{"bike_id":"f1c49cdb-c423-415c-badc-8e4cfb5c6b43","system_id":"levelo_inurba_marseille","lat":43.29912,"lon":5.38377,"is_reserved":false,"is_disabled":false,"rental_uris":{"android":"levelo://app?vid=f1c49cdb-c423-415c-badc-8e4cfb5c6b43","ios":"levelo://app?vid=f1c49cdb-c423-415c-badc-8e4cfb5c6b43"},"vehicle_type_id":"4","last_reported":1739559992,"current_range_meters":8400,"station_id":"","pricing_plan_id":"cebpf4jnsgd1na2vs0mg"},{"bike_id":"5ac1b3e9-6624-4bab-a598-45ab544a1b2f","system_id":"levelo_inurba_marseille","lat":43.26688,"lon":5.38275,"is_reserved":false,"is_disabled":false,"rental_uris":{"android":"levelo://app?vid=5ac1b3e9-6624-4bab-a598-45ab544a1b2f","ios":"levelo://app?vid=5ac1b3e9-6624-4bab-a598-45ab544a1b2f"},"vehicle_type_id":"4","last_reported":1739559992,"current_range_meters":8400,"station_id":"ce4bhg92rcd13ifvqf90","pricing_plan_id":"cebpf4jnsgd1na2vs0mg"},{"bike_id":"a2b8b535-68ab-48b4-8f05-9e1a3fd245cc","system_id":"levelo_inurba_marseille","lat":43.31756,"lon":5.39018,"is_reserved":false,"is_disabled":false,"rental_uris":{"android":"levelo://app?vid=a2b8b535-68ab-48b4-8f05-9e1a3fd245cc","ios":"levelo://app?vid=a2b8b535-68ab-48b4-8f05-9e1a3fd245cc"},"vehicle_type_id":"4","last_reported":1739559992,"current_range_meters":35200,"station_id":"ce4bhqp2rcd13ifvqhng","pricing_plan_id":"cebpf4jnsgd1na2vs0mg"},{"bike_id":"6efd9de7-fb29-4972-be54-1e784b49d1b0","system_id":"levelo_inurba_marseille","lat":43.24809,"lon":5.37461,"is_reserved":false,"is_disabled":false,"rental_uris":{"android":"levelo://app?vid=6efd9de7-fb29-4972-be54-1e784b49d1b0","ios":"levelo://app?vid=6efd9de7-fb29-4972-be54-1e784b49d1b0"},"vehicle_type_id":"4","last_reported":1739559992,"current_range_meters":36400,"station_id":"ce4bhgh2rcd13ifvqfb0","pricing_plan_id":"cebpf4jnsgd1na2vs0mg"},{"bike_id":"2de3d260-2417-4bc8-86ce-3bc3b1a20af3","system_id":"levelo_inurba_marseille","lat":43.25497,"lon":5.37657,"is_reserved":false,"is_disabled":false,"rental_uris":{"android":"levelo://app?vid=2de3d260-2417-4bc8-86ce-3bc3b1a20af3","ios":"levelo://app?vid=2de3d260-2417-4bc8-86ce-3bc3b1a20af3"},"vehicle_type_id":"4","last_reported":1739559992,"current_range_meters":39200,"station_id":"ce4bhh12rcd13ifvqff0","pricing_plan_id":"cebpf4jnsgd1na2vs0mg"},{"bike_id":"fa1182c0-6e36-42d5-b45f-3fe635a22b14","system_id":"levelo_inurba_marseille","lat":43.29511,"lon":5.39047,"is_reserved":false,"is_disabled":false,"rental_uris":{"android":"levelo://app?vid=fa1182c0-6e36-42d5-b45f-3fe635a22b14","ios":"levelo://app?vid=fa1182c0-6e36-42d5-b45f-3fe635a22b14"},"vehicle_type_id":"4","last_reported":1739559992,"current_range_meters":38800,"station_id":"ce4bh3p2rcd13ifvqdp0","pricing_plan_id":"cebpf4jnsgd1na2vs0mg"},{"bike_id":"3f850650-d819-4f0f-9fb8-c46dc0235ff1","system_id":"levelo_inurba_marseille","lat":43.28487,"lon":5.38418,"is_reserved":false,"is_disabled":false,"rental_uris":{"android":"levelo://app?vid=3f850650-d819-4f0f-9fb8-c46dc0235ff1","ios":"levelo://app?vid=3f850650-d819-4f0f-9fb8-c46dc0235ff1"},"vehicle_type_id":"4","last_reported":1739559992,"current_range_meters":6400,"station_id":"ce4bh512rcd13ifvqe3g","pricing_plan_id":"cebpf4jnsgd1na2vs0mg"},{"bike_id":"1d31b2b1-b803-40b2-a44e-d7eb43c92877","system_id":"levelo_inurba_marseille","lat":43.23966,"lon":5.36645,"is_reserved":false,"is_disabled":false,"rental_uris":{"android":"levelo://app?vid=1d31b2b1-b803-40b2-a44e-d7eb43c92877","ios":"levelo://app?vid=1d31b2b1-b803-40b2-a44e-d7eb43c92877"},"vehicle_type_id":"4","last_reported":1739559992,"current_range_meters":16800,"station_id":"ce4bhi12rcd13ifvqfp0","pricing_plan_id":"cebpf4jnsgd1na2vs0mg"},{"bike_id":"0495ae58-ffe2-4172-8694-460bdd27c456","system_id":"levelo_inurba_marseille","lat":43.3046,"lon":5.379,"is_reserved":false,"is_disabled":false,"rental_uris":{"android":"levelo://app?vid=0495ae58-ffe2-4172-8694-460bdd27c456","ios":"levelo://app?vid=0495ae58-ffe2-4172-8694-460bdd27c456"},"vehicle_type_id":"4","last_reported":1739559992,"current_range_meters":28400,"station_id":"ce4bgup2rcd13ifvqcn0","pricing_plan_id":"cebpf4jnsgd1na2vs0mg"},{"bike_id":"3563b106-006c-46a8-83e7-d550bb4e6ace","system_id":"levelo_inurba_marseille","lat":43.29596,"lon":5.36747,"is_reserved":false,"is_disabled":false,"rental_uris":{"android":"levelo://app?vid=3563b106-006c-46a8-83e7-d550bb4e6ace","ios":"levelo://app?vid=3563b106-006c-46a8-83e7-d550bb4e6ace"},"vehicle_type_id":"4","last_reported":1739559992,"current_range_meters":16800,"station_id":"ce4bgph2rcd13ifvqc2g","pricing_plan_id":"cebpf4jnsgd1na2vs0mg"},{"bike_id":"f79c6747-5fcc-489b-9c36-345823f513dc","system_id":"levelo_inurba_marseille","lat":43.29787,"lon":5.3813,"is_reserved":false,"is_disabled":false,"rental_uris":{"android":"levelo://app?vid=f79c6747-5fcc-489b-9c36-345823f513dc","ios":"levelo://app?vid=f79c6747-5fcc-489b-9c36-345823f513dc"},"vehicle_type_id":"4","last_reported":1739559992,"current_range_meters":17600,"station_id":"ce4bgip2rcd13ifvqbb0","pricing_plan_id":"cebpf4jnsgd1na2vs0mg"},{"bike_id":"f92e748a-9f9b-4e54-8084-07e33515f3d5","system_id":"levelo_inurba_marseille","lat":43.27056,"lon":5.3934,"is_reserved":false,"is_disabled":true,"rental_uris":{"android":"levelo://app?vid=f92e748a-9f9b-4e54-8084-07e33515f3d5","ios":"levelo://app?vid=f92e748a-9f9b-4e54-8084-07e33515f3d5"},"vehicle_type_id":"4","last_reported":1739559992,"current_range_meters":0,"station_id":"","pricing_plan_id":"cebpf4jnsgd1na2vs0mg"},{"bike_id":"704ec19d-e7c0-4858-a423-dcfa560220a5","system_id":"levelo_inurba_marseille","lat":43.23191,"lon":5.39974,"is_reserved":false,"is_disabled":false,"rental_uris":{"android":"levelo://app?vid=704ec19d-e7c0-4858-a423-dcfa560220a5","ios":"levelo://app?vid=704ec19d-e7c0-4858-a423-dcfa560220a5"},"vehicle_type_id":"4","last_reported":1739559992,"current_range_meters":32400,"station_id":"ce4bhn12rcd13ifvqgqg","pricing_plan_id":"cebpf4jnsgd1na2vs0mg"},{"bike_id":"190dec22-0cb7-45f1-8633-559b8c1913e5","system_id":"levelo_inurba_marseille","lat":43.27569,"lon":5.38412,"is_reserved":false,"is_disabled":false,"rental_uris":{"android":"levelo://app?vid=190dec22-0cb7-45f1-8633-559b8c1913e5","ios":"levelo://app?vid=190dec22-0cb7-45f1-8633-559b8c1913e5"},"vehicle_type_id":"4","last_reported":1739559992,"current_range_meters":39200,"station_id":"ce4bhh92rcd13ifvqfi0","pricing_plan_id":"cebpf4jnsgd1na2vs0mg"},{"bike_id":"a368e357-5e2f-4c1b-82dc-4f234efba0e7","system_id":"levelo_inurba_marseille","lat":43.32478,"lon":5.36573,"is_reserved":false,"is_disabled":false,"rental_uris":{"android":"levelo://app?vid=a368e357-5e2f-4c1b-82dc-4f234efba0e7","ios":"levelo://app?vid=a368e357-5e2f-4c1b-82dc-4f234efba0e7"},"vehicle_type_id":"4","last_reported":1739559992,"current_range_meters":30400,"station_id":"ce4bhs12rcd13ifvqhvg","pricing_plan_id":"cebpf4jnsgd1na2vs0mg"},{"bike_id":"b67a36f6-5d8d-466d-a80a-a6d65fa91231","system_id":"levelo_inurba_marseille","lat":43.29704,"lon":5.36601,"is_reserved":false,"is_disabled":false,"rental_uris":{"android":"levelo://app?vid=b67a36f6-5d8d-466d-a80a-a6d65fa91231","ios":"levelo://app?vid=b67a36f6-5d8d-466d-a80a-a6d65fa91231"},"vehicle_type_id":"4","last_reported":1739559992,"current_range_meters":39200,"station_id":"ce4bgn12rcd13ifvqbt0","pricing_plan_id":"cebpf4jnsgd1na2vs0mg"},{"bike_id":"184ba64c-32a7-43f4-9f48-1f659be66ef5","system_id":"levelo_inurba_marseille","lat":43.28954,"lon":5.39613,"is_reserved":false,"is_disabled":false,"rental_uris":{"android":"levelo://app?vid=184ba64c-32a7-43f4-9f48-1f659be66ef5","ios":"levelo://app?vid=184ba64c-32a7-43f4-9f48-1f659be66ef5"},"vehicle_type_id":"4","last_reported":1739559992,"current_range_meters":39200,"station_id":"ce4bh3h2rcd13ifvqdn0","pricing_plan_id":"cebpf4jnsgd1na2vs0mg"},{"bike_id":"9cf8e6d9-67b8-441b-8ab4-08ef8560d2b0","system_id":"levelo_inurba_marseille","lat":43.33514,"lon":5.35585,"is_reserved":false,"is_disabled":true,"rental_uris":{"android":"levelo://app?vid=9cf8e6d9-67b8-441b-8ab4-08ef8560d2b0","ios":"levelo://app?vid=9cf8e6d9-67b8-441b-8ab4-08ef8560d2b0"},"vehicle_type_id":"4","last_reported":1739559992,"current_range_meters":0,"station_id":"","pricing_plan_id":"cebpf4jnsgd1na2vs0mg"},{"bike_id":"878ab609-0c0b-4fa0-a714-bfe832065817","system_id":"levelo_inurba_marseille","lat":43.30108,"lon":5.3986,"is_reserved":false,"is_disabled":false,"rental_uris":{"android":"levelo://app?vid=878ab609-0c0b-4fa0-a714-bfe832065817","ios":"levelo://app?vid=878ab609-0c0b-4fa0-a714-bfe832065817"},"vehicle_type_id":"4","last_reported":1739559992,"current_range_meters":38800,"station_id":"ce4bh0h2rcd13ifvqd40","pricing_plan_id":"cebpf4jnsgd1na2vs0mg"},{"bike_id":"d09d29bb-932f-4408-b52c-91120a92489e","system_id":"levelo_inurba_marseille","lat":43.29035,"lon":5.39958,"is_reserved":false,"is_disabled":false,"rental_uris":{"android":"levelo://app?vid=d09d29bb-932f-4408-b52c-91120a92489e","ios":"levelo://app?vid=d09d29bb-932f-4408-b52c-91120a92489e"},"vehicle_type_id":"4","last_reported":1739559992,"current_range_meters":27200,"station_id":"ce4bh392rcd13ifvqdm0","pricing_plan_id":"cebpf4jnsgd1na2vs0mg"},{"bike_id":"6279f888-1d4b-4ebb-b3f2-c7248902b00f","system_id":"levelo_inurba_marseille","lat":43.25501,"lon":5.37659,"is_reserved":false,"is_disabled":false,"rental_uris":{"android":"levelo://app?vid=6279f888-1d4b-4ebb-b3f2-c7248902b00f","ios":"levelo://app?vid=6279f888-1d4b-4ebb-b3f2-c7248902b00f"},"vehicle_type_id":"4","last_reported":1739559992,"current_range_meters":16400,"station_id":"ce4bhh12rcd13ifvqff0","pricing_plan_id":"cebpf4jnsgd1na2vs0mg"},{"bike_id":"d314a93b-e12b-4e2a-a573-5dbe457ad8f6","system_id":"levelo_inurba_marseille","lat":43.26563,"lon":5.39017,"is_reserved":false,"is_disabled":false,"rental_uris":{"android":"levelo://app?vid=d314a93b-e12b-4e2a-a573-5dbe457ad8f6","ios":"levelo://app?vid=d314a93b-e12b-4e2a-a573-5dbe457ad8f6"},"vehicle_type_id":"4","last_reported":1739559992,"current_range_meters":25600,"station_id":"ce4bhe12rcd13ifvqf30","pricing_plan_id":"cebpf4jnsgd1na2vs0mg"},{"bike_id":"811b63d6-9c3c-4b06-849e-3b400f65e795","system_id":"levelo_inurba_marseille","lat":43.24647,"lon":5.38899,"is_reserved":false,"is_disabled":false,"rental_uris":{"android":"levelo://app?vid=811b63d6-9c3c-4b06-849e-3b400f65e795","ios":"levelo://app?vid=811b63d6-9c3c-4b06-849e-3b400f65e795"},"vehicle_type_id":"4","last_reported":1739559992,"current_range_meters":14800,"station_id":"ce4bhg12rcd13ifvqf60","pricing_plan_id":"cebpf4jnsgd1na2vs0mg"},{"bike_id":"2e47466a-9748-48b7-be7d-2654ada33840","system_id":"levelo_inurba_marseille","lat":43.29976,"lon":5.38487,"is_reserved":false,"is_disabled":true,"rental_uris":{"android":"levelo://app?vid=2e47466a-9748-48b7-be7d-2654ada33840","ios":"levelo://app?vid=2e47466a-9748-48b7-be7d-2654ada33840"},"vehicle_type_id":"4","last_reported":1739559992,"current_range_meters":800,"station_id":"ce4bgj92rcd13ifvqbd0","pricing_plan_id":"cebpf4jnsgd1na2vs0mg"},{"bike_id":"0720b07a-7669-427f-b193-321bdc8bb8f7","system_id":"levelo_inurba_marseille","lat":43.29524,"lon":5.39398,"is_reserved":false,"is_disabled":false,"rental_uris":{"android":"levelo://app?vid=0720b07a-7669-427f-b193-321bdc8bb8f7","ios":"levelo://app?vid=0720b07a-7669-427f-b193-321bdc8bb8f7"},"vehicle_type_id":"4","last_reported":1739559992,"current_range_meters":37600,"station_id":"ce4bh292rcd13ifvqdf0","pricing_plan_id":"cebpf4jnsgd1na2vs0mg"},{"bike_id":"30c17d1c-05b7-4e08-99da-ed8ff80fd970","system_id":"levelo_inurba_marseille","lat":43.30946,"lon":5.39031,"is_reserved":false,"is_disabled":true,"rental_uris":{"android":"levelo://app?vid=30c17d1c-05b7-4e08-99da-ed8ff80fd970","ios":"levelo://app?vid=30c17d1c-05b7-4e08-99da-ed8ff80fd970"},"vehicle_type_id":"4","last_reported":1739559992,"current_range_meters":20400,"station_id":"ce4bgup2rcd13ifvqco0","pricing_plan_id":"cebpf4jnsgd1na2vs0mg"},{"bike_id":"e9199595-171a-4b86-9da1-bc54869854f1","system_id":"levelo_inurba_marseille","lat":43.26798,"lon":5.39424,"is_reserved":false,"is_disabled":false,"rental_uris":{"android":"levelo://app?vid=e9199595-171a-4b86-9da1-bc54869854f1","ios":"levelo://app?vid=e9199595-171a-4b86-9da1-bc54869854f1"},"vehicle_type_id":"4","last_reported":1739559992,"current_range_meters":27200,"station_id":"ce4bhh12rcd13ifvqfg0","pricing_plan_id":"cebpf4jnsgd1na2vs0mg"},{"bike_id":"51ab7186-5043-4bed-baca-73708608a302","system_id":"levelo_inurba_marseille","lat":43.29584,"lon":5.37026,"is_reserved":false,"is_disabled":true,"rental_uris":{"android":"levelo://app?vid=51ab7186-5043-4bed-baca-73708608a302","ios":"levelo://app?vid=51ab7186-5043-4bed-baca-73708608a302"},"vehicle_type_id":"4","last_reported":1739559992,"current_range_meters":0,"station_id":"","pricing_plan_id":"cebpf4jnsgd1na2vs0mg"},{"bike_id":"8a9801d8-23d2-44ea-86a3-965c675be2a2","system_id":"levelo_inurba_marseille","lat":43.31761,"lon":5.39007,"is_reserved":false,"is_disabled":false,"rental_uris":{"android":"levelo://app?vid=8a9801d8-23d2-44ea-86a3-965c675be2a2","ios":"levelo://app?vid=8a9801d8-23d2-44ea-86a3-965c675be2a2"},"vehicle_type_id":"4","last_reported":1739559992,"current_range_meters":38000,"station_id":"ce4bhqp2rcd13ifvqhng","pricing_plan_id":"cebpf4jnsgd1na2vs0mg"},{"bike_id":"854c5b4b-20e3-4b96-b73c-29f659f73441","system_id":"levelo_inurba_marseille","lat":43.31484,"lon":5.37305,"is_reserved":false,"is_disabled":false,"rental_uris":{"android":"levelo://app?vid=854c5b4b-20e3-4b96-b73c-29f659f73441","ios":"levelo://app?vid=854c5b4b-20e3-4b96-b73c-29f659f73441"},"vehicle_type_id":"4","last_reported":1739559992,"current_range_meters":17200,"station_id":"ce4bgt12rcd13ifvqcd0","pricing_plan_id":"cebpf4jnsgd1na2vs0mg"},{"bike_id":"d3fc5f7e-9983-4343-a9af-f36df7d45f29","system_id":"levelo_inurba_marseille","lat":43.23194,"lon":5.39972,"is_reserved":false,"is_disabled":false,"rental_uris":{"android":"levelo://app?vid=d3fc5f7e-9983-4343-a9af-f36df7d45f29","ios":"levelo://app?vid=d3fc5f7e-9983-4343-a9af-f36df7d45f29"},"vehicle_type_id":"4","last_reported":1739559992,"current_range_meters":18000,"station_id":"ce4bhn12rcd13ifvqgqg","pricing_plan_id":"cebpf4jnsgd1na2vs0mg"},{"bike_id":"bac6969b-52bc-48cc-ad44-24e52b62e686","system_id":"levelo_inurba_marseille","lat":43.25013,"lon":5.38928,"is_reserved":false,"is_disabled":false,"rental_uris":{"android":"levelo://app?vid=bac6969b-52bc-48cc-ad44-24e52b62e686","ios":"levelo://app?vid=bac6969b-52bc-48cc-ad44-24e52b62e686"},"vehicle_type_id":"4","last_reported":1739559992,"current_range_meters":22800,"station_id":"ce4bhgp2rcd13ifvqfd0","pricing_plan_id":"cebpf4jnsgd1na2vs0mg"},{"bike_id":"3726052c-435c-4e9a-97b4-6741247fd797","system_id":"levelo_inurba_marseille","lat":43.28418,"lon":5.34996,"is_reserved":false,"is_disabled":false,"rental_uris":{"android":"levelo://app?vid=3726052c-435c-4e9a-97b4-6741247fd797","ios":"levelo://app?vid=3726052c-435c-4e9a-97b4-6741247fd797"},"vehicle_type_id":"4","last_reported":1739559992,"current_range_meters":32000,"station_id":"ce4bhbh2rcd13ifvqepg","pricing_plan_id":"cebpf4jnsgd1na2vs0mg"},{"bike_id":"49cc0574-de3f-448a-b9a7-ad9a49e727aa","system_id":"levelo_inurba_marseille","lat":43.27984,"lon":5.41659,"is_reserved":false,"is_disabled":false,"rental_uris":{"android":"levelo://app?vid=49cc0574-de3f-448a-b9a7-ad9a49e727aa","ios":"levelo://app?vid=49cc0574-de3f-448a-b9a7-ad9a49e727aa"},"vehicle_type_id":"4","last_reported":1739559992,"current_range_meters":26800,"station_id":"ce4bho12rcd13ifvqh1g","pricing_plan_id":"cebpf4jnsgd1na2vs0mg"},{"bike_id":"c40e2cb9-b89c-4dbd-956b-535ef79f1d37","system_id":"levelo_inurba_marseille","lat":43.24809,"lon":5.37461,"is_reserved":false,"is_disabled":false,"rental_uris":{"android":"levelo://app?vid=c40e2cb9-b89c-4dbd-956b-535ef79f1d37","ios":"levelo://app?vid=c40e2cb9-b89c-4dbd-956b-535ef79f1d37"},"vehicle_type_id":"4","last_reported":1739559992,"current_range_meters":27200,"station_id":"ce4bhgh2rcd13ifvqfb0","pricing_plan_id":"cebpf4jnsgd1na2vs0mg"},{"bike_id":"97fd041f-8c60-424a-b5ae-0602fb75ba6a","system_id":"levelo_inurba_marseille","lat":43.29543,"lon":5.39041,"is_reserved":false,"is_disabled":false,"rental_uris":{"android":"levelo://app?vid=97fd041f-8c60-424a-b5ae-0602fb75ba6a","ios":"levelo://app?vid=97fd041f-8c60-424a-b5ae-0602fb75ba6a"},"vehicle_type_id":"4","last_reported":1739559992,"current_range_meters":38800,"station_id":"ce4bh3p2rcd13ifvqdp0","pricing_plan_id":"cebpf4jnsgd1na2vs0mg"},{"bike_id":"6d14ffd0-8cb0-40f3-8b6f-5b79b4098bae","system_id":"levelo_inurba_marseille","lat":43.28096,"lon":5.37863,"is_reserved":false,"is_disabled":false,"rental_uris":{"android":"levelo://app?vid=6d14ffd0-8cb0-40f3-8b6f-5b79b4098bae","ios":"levelo://app?vid=6d14ffd0-8cb0-40f3-8b6f-5b79b4098bae"},"vehicle_type_id":"4","last_reported":1739559992,"current_range_meters":36000,"station_id":"ce4bha12rcd13ifvqee0","pricing_plan_id":"cebpf4jnsgd1na2vs0mg"},{"bike_id":"333946c8-1518-4495-85da-e9172c26eb3f","system_id":"levelo_inurba_marseille","lat":43.28705,"lon":5.3738,"is_reserved":false,"is_disabled":false,"rental_uris":{"android":"levelo://app?vid=333946c8-1518-4495-85da-e9172c26eb3f","ios":"levelo://app?vid=333946c8-1518-4495-85da-e9172c26eb3f"},"vehicle_type_id":"4","last_reported":1739559992,"current_range_meters":30000,"station_id":"ce4bh3p2rcd13ifvqdq0","pricing_plan_id":"cebpf4jnsgd1na2vs0mg"},{"bike_id":"feb81031-ecb8-4db8-9c13-5977ea4c30a9","system_id":"levelo_inurba_marseille","lat":43.29551,"lon":5.37488,"is_reserved":false,"is_disabled":false,"rental_uris":{"android":"levelo://app?vid=feb81031-ecb8-4db8-9c13-5977ea4c30a9","ios":"levelo://app?vid=feb81031-ecb8-4db8-9c13-5977ea4c30a9"},"vehicle_type_id":"4","last_reported":1739559992,"current_range_meters":22000,"station_id":"ce4bgkp2rcd13ifvqbmg","pricing_plan_id":"cebpf4jnsgd1na2vs0mg"},{"bike_id":"00fe39b5-a07d-4519-92ec-b1540a067b97","system_id":"levelo_inurba_marseille","lat":43.30213,"lon":5.39479,"is_reserved":false,"is_disabled":false,"rental_uris":{"android":"levelo://app?vid=00fe39b5-a07d-4519-92ec-b1540a067b97","ios":"levelo://app?vid=00fe39b5-a07d-4519-92ec-b1540a067b97"},"vehicle_type_id":"4","last_reported":1739559992,"current_range_meters":4400,"station_id":"ce4bh0p2rcd13ifvqd70","pricing_plan_id":"cebpf4jnsgd1na2vs0mg"},{"bike_id":"c8c0516c-62b0-4cbf-88f8-60819aff6581","system_id":"levelo_inurba_marseille","lat":43.25494,"lon":5.3764,"is_reserved":false,"is_disabled":true,"rental_uris":{"android":"levelo://app?vid=c8c0516c-62b0-4cbf-88f8-60819aff6581","ios":"levelo://app?vid=c8c0516c-62b0-4cbf-88f8-60819aff6581"},"vehicle_type_id":"4","last_reported":1739559992,"current_range_meters":16800,"station_id":"ce4bhh12rcd13ifvqff0","pricing_plan_id":"cebpf4jnsgd1na2vs0mg"},{"bike_id":"1e059a21-f6ec-4591-9ae0-dced5b8bf4f6","system_id":"levelo_inurba_marseille","lat":43.30093,"lon":5.39072,"is_reserved":false,"is_disabled":false,"rental_uris":{"android":"levelo://app?vid=1e059a21-f6ec-4591-9ae0-dced5b8bf4f6","ios":"levelo://app?vid=1e059a21-f6ec-4591-9ae0-dced5b8bf4f6"},"vehicle_type_id":"4","last_reported":1739559992,"current_range_meters":38000,"station_id":"ce4bh192rcd13ifvqdb0","pricing_plan_id":"cebpf4jnsgd1na2vs0mg"},{"bike_id":"2e8fc403-db89-4ec8-942c-727343aeca53","system_id":"levelo_inurba_marseille","lat":43.28995,"lon":5.35605,"is_reserved":false,"is_disabled":false,"rental_uris":{"android":"levelo://app?vid=2e8fc403-db89-4ec8-942c-727343aeca53","ios":"levelo://app?vid=2e8fc403-db89-4ec8-942c-727343aeca53"},"vehicle_type_id":"4","last_reported":1739559992,"current_range_meters":39200,"station_id":"ce4bhb92rcd13ifvqen0","pricing_plan_id":"cebpf4jnsgd1na2vs0mg"},{"bike_id":"8c10e28e-5b4c-4154-8179-6f2ee2ae6eb5","system_id":"levelo_inurba_marseille","lat":43.26199,"lon":5.37931,"is_reserved":false,"is_disabled":false,"rental_uris":{"android":"levelo://app?vid=8c10e28e-5b4c-4154-8179-6f2ee2ae6eb5","ios":"levelo://app?vid=8c10e28e-5b4c-4154-8179-6f2ee2ae6eb5"},"vehicle_type_id":"4","last_reported":1739559992,"current_range_meters":38000,"station_id":"ce4bhjp2rcd13ifvqg90","pricing_plan_id":"cebpf4jnsgd1na2vs0mg"},{"bike_id":"a631f734-4aa1-4ec4-bfa7-ef8429122ef0","system_id":"levelo_inurba_marseille","lat":43.25723,"lon":5.41116,"is_reserved":false,"is_disabled":false,"rental_uris":{"android":"levelo://app?vid=a631f734-4aa1-4ec4-bfa7-ef8429122ef0","ios":"levelo://app?vid=a631f734-4aa1-4ec4-bfa7-ef8429122ef0"},"vehicle_type_id":"4","last_reported":1739559992,"current_range_meters":24400,"station_id":"ce4bhkp2rcd13ifvqgd0","pricing_plan_id":"cebpf4jnsgd1na2vs0mg"},{"bike_id":"a70729f0-bf50-486d-acf1-77ab278c9efb","system_id":"levelo_inurba_marseille","lat":43.27447,"lon":5.41039,"is_reserved":false,"is_disabled":false,"rental_uris":{"android":"levelo://app?vid=a70729f0-bf50-486d-acf1-77ab278c9efb","ios":"levelo://app?vid=a70729f0-bf50-486d-acf1-77ab278c9efb"},"vehicle_type_id":"4","last_reported":1739559992,"current_range_meters":16800,"station_id":"","pricing_plan_id":"cebpf4jnsgd1na2vs0mg"},{"bike_id":"cb2c880d-6099-4e99-b126-5db2ed775e84","system_id":"levelo_inurba_marseille","lat":43.25004,"lon":5.38931,"is_reserved":false,"is_disabled":false,"rental_uris":{"android":"levelo://app?vid=cb2c880d-6099-4e99-b126-5db2ed775e84","ios":"levelo://app?vid=cb2c880d-6099-4e99-b126-5db2ed775e84"},"vehicle_type_id":"4","last_reported":1739559992,"current_range_meters":38800,"station_id":"ce4bhgp2rcd13ifvqfd0","pricing_plan_id":"cebpf4jnsgd1na2vs0mg"},{"bike_id":"838d55fb-dd91-42c0-bd0a-19319617ddba","system_id":"levelo_inurba_marseille","lat":43.281531,"lon":5.426461,"is_reserved":false,"is_disabled":false,"rental_uris":{"android":"levelo://app?vid=838d55fb-dd91-42c0-bd0a-19319617ddba","ios":"levelo://app?vid=838d55fb-dd91-42c0-bd0a-19319617ddba"},"vehicle_type_id":"4","last_reported":1739559992,"current_range_meters":38800,"station_id":"ce4bhnh2rcd13ifvqgug","pricing_plan_id":"cebpf4jnsgd1na2vs0mg"},{"bike_id":"07cce0e4-c34c-4c6c-b7f3-11be90ceb56c","system_id":"levelo_inurba_marseille","lat":43.30251,"lon":5.39623,"is_reserved":false,"is_disabled":false,"rental_uris":{"android":"levelo://app?vid=07cce0e4-c34c-4c6c-b7f3-11be90ceb56c","ios":"levelo://app?vid=07cce0e4-c34c-4c6c-b7f3-11be90ceb56c"},"vehicle_type_id":"4","last_reported":1739559992,"current_range_meters":12000,"station_id":"","pricing_plan_id":"cebpf4jnsgd1na2vs0mg"},{"bike_id":"eb4b5a8a-7ccb-401a-ae98-94e0934d6e44","system_id":"levelo_inurba_marseille","lat":43.27995,"lon":5.41664,"is_reserved":false,"is_disabled":false,"rental_uris":{"android":"levelo://app?vid=eb4b5a8a-7ccb-401a-ae98-94e0934d6e44","ios":"levelo://app?vid=eb4b5a8a-7ccb-401a-ae98-94e0934d6e44"},"vehicle_type_id":"4","last_reported":1739559992,"current_range_meters":30400,"station_id":"ce4bho12rcd13ifvqh1g","pricing_plan_id":"cebpf4jnsgd1na2vs0mg"},{"bike_id":"2533b922-bc35-4de8-9109-768b6e8dc037","system_id":"levelo_inurba_marseille","lat":43.29263,"lon":5.38448,"is_reserved":false,"is_disabled":false,"rental_uris":{"android":"levelo://app?vid=2533b922-bc35-4de8-9109-768b6e8dc037","ios":"levelo://app?vid=2533b922-bc35-4de8-9109-768b6e8dc037"},"vehicle_type_id":"4","last_reported":1739559992,"current_range_meters":38800,"station_id":"ce4bh692rcd13ifvqea0","pricing_plan_id":"cebpf4jnsgd1na2vs0mg"},{"bike_id":"f95c598b-73a5-4793-bd58-d5ddde21f497","system_id":"levelo_inurba_marseille","lat":43.2861,"lon":5.35104,"is_reserved":false,"is_disabled":false,"rental_uris":{"android":"levelo://app?vid=f95c598b-73a5-4793-bd58-d5ddde21f497","ios":"levelo://app?vid=f95c598b-73a5-4793-bd58-d5ddde21f497"},"vehicle_type_id":"4","last_reported":1739559992,"current_range_meters":18000,"station_id":"ce4bhch2rcd13ifvqeug","pricing_plan_id":"cebpf4jnsgd1na2vs0mg"},{"bike_id":"f7722aa8-7dbb-40b4-8785-faf5a2e7b631","system_id":"levelo_inurba_marseille","lat":43.2501,"lon":5.38928,"is_reserved":false,"is_disabled":false,"rental_uris":{"android":"levelo://app?vid=f7722aa8-7dbb-40b4-8785-faf5a2e7b631","ios":"levelo://app?vid=f7722aa8-7dbb-40b4-8785-faf5a2e7b631"},"vehicle_type_id":"4","last_reported":1739559992,"current_range_meters":38800,"station_id":"ce4bhgp2rcd13ifvqfd0","pricing_plan_id":"cebpf4jnsgd1na2vs0mg"},{"bike_id":"78580374-70a8-4853-ac6b-e6acdbe16ef7","system_id":"levelo_inurba_marseille","lat":43.24824,"lon":5.37449,"is_reserved":false,"is_disabled":true,"rental_uris":{"android":"levelo://app?vid=78580374-70a8-4853-ac6b-e6acdbe16ef7","ios":"levelo://app?vid=78580374-70a8-4853-ac6b-e6acdbe16ef7"},"vehicle_type_id":"4","last_reported":1739559992,"current_range_meters":38800,"station_id":"ce4bhgh2rcd13ifvqfb0","pricing_plan_id":"cebpf4jnsgd1na2vs0mg"},{"bike_id":"f98b3cf7-0cb7-4bcf-83bb-ea4a678cea92","system_id":"levelo_inurba_marseille","lat":43.2926,"lon":5.38448,"is_reserved":false,"is_disabled":false,"rental_uris":{"android":"levelo://app?vid=f98b3cf7-0cb7-4bcf-83bb-ea4a678cea92","ios":"levelo://app?vid=f98b3cf7-0cb7-4bcf-83bb-ea4a678cea92"},"vehicle_type_id":"4","last_reported":1739559992,"current_range_meters":28400,"station_id":"ce4bh692rcd13ifvqea0","pricing_plan_id":"cebpf4jnsgd1na2vs0mg"},{"bike_id":"fbdcdc53-8f85-434d-8b26-70a82b6baba8","system_id":"levelo_inurba_marseille","lat":43.28674,"lon":5.38668,"is_reserved":false,"is_disabled":false,"rental_uris":{"android":"levelo://app?vid=fbdcdc53-8f85-434d-8b26-70a82b6baba8","ios":"levelo://app?vid=fbdcdc53-8f85-434d-8b26-70a82b6baba8"},"vehicle_type_id":"4","last_reported":1739559992,"current_range_meters":28800,"station_id":"ce4bh492rcd13ifvqdug","pricing_plan_id":"cebpf4jnsgd1na2vs0mg"},{"bike_id":"203fb8aa-7299-4114-85f2-8be5b5414709","system_id":"levelo_inurba_marseille","lat":43.31125,"lon":5.37829,"is_reserved":false,"is_disabled":false,"rental_uris":{"android":"levelo://app?vid=203fb8aa-7299-4114-85f2-8be5b5414709","ios":"levelo://app?vid=203fb8aa-7299-4114-85f2-8be5b5414709"},"vehicle_type_id":"4","last_reported":1739559992,"current_range_meters":38800,"station_id":"ce4bgt92rcd13ifvqcg0","pricing_plan_id":"cebpf4jnsgd1na2vs0mg"},{"bike_id":"e2c8ff28-6151-49e7-9785-1eab51fa964e","system_id":"levelo_inurba_marseille","lat":43.292597,"lon":5.384473,"is_reserved":false,"is_disabled":false,"rental_uris":{"android":"levelo://app?vid=e2c8ff28-6151-49e7-9785-1eab51fa964e","ios":"levelo://app?vid=e2c8ff28-6151-49e7-9785-1eab51fa964e"},"vehicle_type_id":"4","last_reported":1739559992,"current_range_meters":4000,"station_id":"ce4bh692rcd13ifvqea0","pricing_plan_id":"cebpf4jnsgd1na2vs0mg"},{"bike_id":"23849fcd-4bc4-44f6-8337-e9a9a16fe0e7","system_id":"levelo_inurba_marseille","lat":43.29738,"lon":5.47973,"is_reserved":false,"is_disabled":true,"rental_uris":{"android":"levelo://app?vid=23849fcd-4bc4-44f6-8337-e9a9a16fe0e7","ios":"levelo://app?vid=23849fcd-4bc4-44f6-8337-e9a9a16fe0e7"},"vehicle_type_id":"4","last_reported":1739559992,"current_range_meters":2000,"station_id":"","pricing_plan_id":"cebpf4jnsgd1na2vs0mg"},{"bike_id":"950913d6-c558-439d-9629-8e9eae444acb","system_id":"levelo_inurba_marseille","lat":43.28926,"lon":5.384,"is_reserved":false,"is_disabled":false,"rental_uris":{"android":"levelo://app?vid=950913d6-c558-439d-9629-8e9eae444acb","ios":"levelo://app?vid=950913d6-c558-439d-9629-8e9eae444acb"},"vehicle_type_id":"4","last_reported":1739559992,"current_range_meters":38000,"station_id":"ce4bh612rcd13ifvqe6g","pricing_plan_id":"cebpf4jnsgd1na2vs0mg"},{"bike_id":"cfe0acf1-54da-47d0-bd99-eef3449563be","system_id":"levelo_inurba_marseille","lat":43.28619,"lon":5.35109,"is_reserved":false,"is_disabled":false,"rental_uris":{"android":"levelo://app?vid=cfe0acf1-54da-47d0-bd99-eef3449563be","ios":"levelo://app?vid=cfe0acf1-54da-47d0-bd99-eef3449563be"},"vehicle_type_id":"4","last_reported":1739559992,"current_range_meters":38800,"station_id":"ce4bhch2rcd13ifvqeug","pricing_plan_id":"cebpf4jnsgd1na2vs0mg"},{"bike_id":"25a0020e-c454-4908-a019-edd94f18a655","system_id":"levelo_inurba_marseille","lat":43.31317,"lon":5.39702,"is_reserved":false,"is_disabled":false,"rental_uris":{"android":"levelo://app?vid=25a0020e-c454-4908-a019-edd94f18a655","ios":"levelo://app?vid=25a0020e-c454-4908-a019-edd94f18a655"},"vehicle_type_id":"4","last_reported":1739559992,"current_range_meters":29600,"station_id":"ce4bgvp2rcd13ifvqcu0","pricing_plan_id":"cebpf4jnsgd1na2vs0mg"},{"bike_id":"0af48d91-699f-4154-a42f-2a6306e599c5","system_id":"levelo_inurba_marseille","lat":43.27667,"lon":5.38876,"is_reserved":false,"is_disabled":false,"rental_uris":{"android":"levelo://app?vid=0af48d91-699f-4154-a42f-2a6306e599c5","ios":"levelo://app?vid=0af48d91-699f-4154-a42f-2a6306e599c5"},"vehicle_type_id":"4","last_reported":1739559992,"current_range_meters":38400,"station_id":"ce4bhi12rcd13ifvqfo0","pricing_plan_id":"cebpf4jnsgd1na2vs0mg"},{"bike_id":"d1b7e7c3-d876-4585-aa93-a701646b8c19","system_id":"levelo_inurba_marseille","lat":43.23211,"lon":5.39991,"is_reserved":false,"is_disabled":false,"rental_uris":{"android":"levelo://app?vid=d1b7e7c3-d876-4585-aa93-a701646b8c19","ios":"levelo://app?vid=d1b7e7c3-d876-4585-aa93-a701646b8c19"},"vehicle_type_id":"4","last_reported":1739559992,"current_range_meters":32800,"station_id":"ce4bhn12rcd13ifvqgqg","pricing_plan_id":"cebpf4jnsgd1na2vs0mg"},{"bike_id":"dc4fc55f-0ea9-49a1-bb39-4722eda2c2cd","system_id":"levelo_inurba_marseille","lat":43.29921,"lon":5.37656,"is_reserved":false,"is_disabled":false,"rental_uris":{"android":"levelo://app?vid=dc4fc55f-0ea9-49a1-bb39-4722eda2c2cd","ios":"levelo://app?vid=dc4fc55f-0ea9-49a1-bb39-4722eda2c2cd"},"vehicle_type_id":"4","last_reported":1739559992,"current_range_meters":20800,"station_id":"","pricing_plan_id":"cebpf4jnsgd1na2vs0mg"},{"bike_id":"652d8cbf-ce04-4163-a1e1-3194f3c0832e","system_id":"levelo_inurba_marseille","lat":43.29167,"lon":5.37149,"is_reserved":false,"is_disabled":false,"rental_uris":{"android":"levelo://app?vid=652d8cbf-ce04-4163-a1e1-3194f3c0832e","ios":"levelo://app?vid=652d8cbf-ce04-4163-a1e1-3194f3c0832e"},"vehicle_type_id":"4","last_reported":1739559992,"current_range_meters":12800,"station_id":"ce4bha92rcd13ifvqeh0","pricing_plan_id":"cebpf4jnsgd1na2vs0mg"},{"bike_id":"38f6a50e-4209-427d-8f0c-d54d40753d69","system_id":"levelo_inurba_marseille","lat":43.27376,"lon":5.36256,"is_reserved":false,"is_disabled":false,"rental_uris":{"android":"levelo://app?vid=38f6a50e-4209-427d-8f0c-d54d40753d69","ios":"levelo://app?vid=38f6a50e-4209-427d-8f0c-d54d40753d69"},"vehicle_type_id":"4","last_reported":1739559992,"current_range_meters":26000,"station_id":"ce4bhbh2rcd13ifvqeo0","pricing_plan_id":"cebpf4jnsgd1na2vs0mg"},{"bike_id":"c4988923-ef62-4908-8cdf-bb5f11cf7a73","system_id":"levelo_inurba_marseille","lat":43.28939,"lon":5.39629,"is_reserved":false,"is_disabled":false,"rental_uris":{"android":"levelo://app?vid=c4988923-ef62-4908-8cdf-bb5f11cf7a73","ios":"levelo://app?vid=c4988923-ef62-4908-8cdf-bb5f11cf7a73"},"vehicle_type_id":"4","last_reported":1739559992,"current_range_meters":15200,"station_id":"ce4bh3h2rcd13ifvqdn0","pricing_plan_id":"cebpf4jnsgd1na2vs0mg"},{"bike_id":"60ecf81d-270a-4c81-90cc-fe7ff8ae2501","system_id":"levelo_inurba_marseille","lat":43.29161,"lon":5.37159,"is_reserved":false,"is_disabled":false,"rental_uris":{"android":"levelo://app?vid=60ecf81d-270a-4c81-90cc-fe7ff8ae2501","ios":"levelo://app?vid=60ecf81d-270a-4c81-90cc-fe7ff8ae2501"},"vehicle_type_id":"4","last_reported":1739559992,"current_range_meters":37600,"station_id":"ce4bha92rcd13ifvqeh0","pricing_plan_id":"cebpf4jnsgd1na2vs0mg"},{"bike_id":"4ad51a02-f2dd-46e4-a406-ba69455ffee4","system_id":"levelo_inurba_marseille","lat":43.28019,"lon":5.40842,"is_reserved":false,"is_disabled":false,"rental_uris":{"android":"levelo://app?vid=4ad51a02-f2dd-46e4-a406-ba69455ffee4","ios":"levelo://app?vid=4ad51a02-f2dd-46e4-a406-ba69455ffee4"},"vehicle_type_id":"4","last_reported":1739559992,"current_range_meters":11200,"station_id":"","pricing_plan_id":"cebpf4jnsgd1na2vs0mg"},{"bike_id":"c4df4f16-0512-464a-a719-0bb1f3feadb0","system_id":"levelo_inurba_marseille","lat":43.32341,"lon":5.40644,"is_reserved":false,"is_disabled":false,"rental_uris":{"android":"levelo://app?vid=c4df4f16-0512-464a-a719-0bb1f3feadb0","ios":"levelo://app?vid=c4df4f16-0512-464a-a719-0bb1f3feadb0"},"vehicle_type_id":"4","last_reported":1739559992,"current_range_meters":22800,"station_id":"ce4bhq92rcd13ifvqhjg","pricing_plan_id":"cebpf4jnsgd1na2vs0mg"},{"bike_id":"bf7d337c-6423-4c9f-92a3-1b70d110e15a","system_id":"levelo_inurba_marseille","lat":43.25506,"lon":5.37663,"is_reserved":false,"is_disabled":false,"rental_uris":{"android":"levelo://app?vid=bf7d337c-6423-4c9f-92a3-1b70d110e15a","ios":"levelo://app?vid=bf7d337c-6423-4c9f-92a3-1b70d110e15a"},"vehicle_type_id":"4","last_reported":1739559992,"current_range_meters":27600,"station_id":"ce4bhh12rcd13ifvqff0","pricing_plan_id":"cebpf4jnsgd1na2vs0mg"},{"bike_id":"00a4e08f-061f-446d-9506-371f75a97092","system_id":"levelo_inurba_marseille","lat":43.28015,"lon":5.40012,"is_reserved":false,"is_disabled":false,"rental_uris":{"android":"levelo://app?vid=00a4e08f-061f-446d-9506-371f75a97092","ios":"levelo://app?vid=00a4e08f-061f-446d-9506-371f75a97092"},"vehicle_type_id":"4","last_reported":1739559992,"current_range_meters":20800,"station_id":"ce4bho92rcd13ifvqh4g","pricing_plan_id":"cebpf4jnsgd1na2vs0mg"},{"bike_id":"47c75f60-6aa0-4958-80ac-b688f48b2c53","system_id":"levelo_inurba_marseille","lat":43.287639,"lon":5.373739,"is_reserved":false,"is_disabled":false,"rental_uris":{"android":"levelo://app?vid=47c75f60-6aa0-4958-80ac-b688f48b2c53","ios":"levelo://app?vid=47c75f60-6aa0-4958-80ac-b688f48b2c53"},"vehicle_type_id":"4","last_reported":1739559992,"current_range_meters":27200,"station_id":"ce4bh3p2rcd13ifvqdq0","pricing_plan_id":"cebpf4jnsgd1na2vs0mg"},{"bike_id":"03eba1d0-92c1-4e6e-a4d0-7c546f2439c0","system_id":"levelo_inurba_marseille","lat":43.337444,"lon":5.374475,"is_reserved":false,"is_disabled":true,"rental_uris":{"android":"levelo://app?vid=03eba1d0-92c1-4e6e-a4d0-7c546f2439c0","ios":"levelo://app?vid=03eba1d0-92c1-4e6e-a4d0-7c546f2439c0"},"vehicle_type_id":"4","last_reported":1739559992,"current_range_meters":0,"station_id":"","pricing_plan_id":"cebpf4jnsgd1na2vs0mg"},{"bike_id":"1504eae3-2c47-4bb5-8078-902e9ea1cb61","system_id":"levelo_inurba_marseille","lat":43.27308,"lon":5.39119,"is_reserved":false,"is_disabled":false,"rental_uris":{"android":"levelo://app?vid=1504eae3-2c47-4bb5-8078-902e9ea1cb61","ios":"levelo://app?vid=1504eae3-2c47-4bb5-8078-902e9ea1cb61"},"vehicle_type_id":"4","last_reported":1739559992,"current_range_meters":29600,"station_id":"ce4bhgp2rcd13ifvqfe0","pricing_plan_id":"cebpf4jnsgd1na2vs0mg"},{"bike_id":"37d274bc-7488-45e2-be26-b72715489ecd","system_id":"levelo_inurba_marseille","lat":43.28441,"lon":5.39181,"is_reserved":false,"is_disabled":true,"rental_uris":{"android":"levelo://app?vid=37d274bc-7488-45e2-be26-b72715489ecd","ios":"levelo://app?vid=37d274bc-7488-45e2-be26-b72715489ecd"},"vehicle_type_id":"4","last_reported":1739559992,"current_range_meters":38400,"station_id":"ce4bhoh2rcd13ifvqh5g","pricing_plan_id":"cebpf4jnsgd1na2vs0mg"},{"bike_id":"8208b9be-b2fb-4d4a-9708-6254e17f01c5","system_id":"levelo_inurba_marseille","lat":43.25493,"lon":5.37634,"is_reserved":false,"is_disabled":false,"rental_uris":{"android":"levelo://app?vid=8208b9be-b2fb-4d4a-9708-6254e17f01c5","ios":"levelo://app?vid=8208b9be-b2fb-4d4a-9708-6254e17f01c5"},"vehicle_type_id":"4","last_reported":1739559992,"current_range_meters":36800,"station_id":"ce4bhh12rcd13ifvqff0","pricing_plan_id":"cebpf4jnsgd1na2vs0mg"},{"bike_id":"3e52f767-176d-42c4-8082-bb9bd127a4e7","system_id":"levelo_inurba_marseille","lat":43.28932,"lon":5.39627,"is_reserved":false,"is_disabled":false,"rental_uris":{"android":"levelo://app?vid=3e52f767-176d-42c4-8082-bb9bd127a4e7","ios":"levelo://app?vid=3e52f767-176d-42c4-8082-bb9bd127a4e7"},"vehicle_type_id":"4","last_reported":1739559992,"current_range_meters":38400,"station_id":"ce4bh3h2rcd13ifvqdn0","pricing_plan_id":"cebpf4jnsgd1na2vs0mg"},{"bike_id":"298b78b8-4711-4491-8ae5-3ff7e249ae10","system_id":"levelo_inurba_marseille","lat":43.31072,"lon":5.38349,"is_reserved":false,"is_disabled":false,"rental_uris":{"android":"levelo://app?vid=298b78b8-4711-4491-8ae5-3ff7e249ae10","ios":"levelo://app?vid=298b78b8-4711-4491-8ae5-3ff7e249ae10"},"vehicle_type_id":"4","last_reported":1739559992,"current_range_meters":38800,"station_id":"ce4bgv92rcd13ifvqcr0","pricing_plan_id":"cebpf4jnsgd1na2vs0mg"},{"bike_id":"5016e875-414a-41bd-8f00-6a5845e39ba6","system_id":"levelo_inurba_marseille","lat":43.3079,"lon":5.43526,"is_reserved":false,"is_disabled":false,"rental_uris":{"android":"levelo://app?vid=5016e875-414a-41bd-8f00-6a5845e39ba6","ios":"levelo://app?vid=5016e875-414a-41bd-8f00-6a5845e39ba6"},"vehicle_type_id":"4","last_reported":1739559992,"current_range_meters":33200,"station_id":"ce4bhph2rcd13ifvqheg","pricing_plan_id":"cebpf4jnsgd1na2vs0mg"},{"bike_id":"fa61b67b-5810-42bc-b9ba-3475b4c75262","system_id":"levelo_inurba_marseille","lat":43.28672,"lon":5.38662,"is_reserved":false,"is_disabled":false,"rental_uris":{"android":"levelo://app?vid=fa61b67b-5810-42bc-b9ba-3475b4c75262","ios":"levelo://app?vid=fa61b67b-5810-42bc-b9ba-3475b4c75262"},"vehicle_type_id":"4","last_reported":1739559992,"current_range_meters":28800,"station_id":"ce4bh492rcd13ifvqdug","pricing_plan_id":"cebpf4jnsgd1na2vs0mg"},{"bike_id":"196d03f5-f74e-41d4-b19f-2e7b9a5ee6e3","system_id":"levelo_inurba_marseille","lat":43.24169,"lon":5.39698,"is_reserved":false,"is_disabled":false,"rental_uris":{"android":"levelo://app?vid=196d03f5-f74e-41d4-b19f-2e7b9a5ee6e3","ios":"levelo://app?vid=196d03f5-f74e-41d4-b19f-2e7b9a5ee6e3"},"vehicle_type_id":"4","last_reported":1739559992,"current_range_meters":28400,"station_id":"ce4bhn12rcd13ifvqgpg","pricing_plan_id":"cebpf4jnsgd1na2vs0mg"},{"bike_id":"0e27a273-b179-4c27-8c6c-b607691a0412","system_id":"levelo_inurba_marseille","lat":43.291,"lon":5.38166,"is_reserved":false,"is_disabled":false,"rental_uris":{"android":"levelo://app?vid=0e27a273-b179-4c27-8c6c-b607691a0412","ios":"levelo://app?vid=0e27a273-b179-4c27-8c6c-b607691a0412"},"vehicle_type_id":"4","last_reported":1739559992,"current_range_meters":39200,"station_id":"ce4bh512rcd13ifvqe2g","pricing_plan_id":"cebpf4jnsgd1na2vs0mg"},{"bike_id":"c517f09e-0211-4728-8c03-b69a524b28b5","system_id":"levelo_inurba_marseille","lat":43.29265,"lon":5.38437,"is_reserved":false,"is_disabled":false,"rental_uris":{"android":"levelo://app?vid=c517f09e-0211-4728-8c03-b69a524b28b5","ios":"levelo://app?vid=c517f09e-0211-4728-8c03-b69a524b28b5"},"vehicle_type_id":"4","last_reported":1739559992,"current_range_meters":28800,"station_id":"ce4bh692rcd13ifvqea0","pricing_plan_id":"cebpf4jnsgd1na2vs0mg"},{"bike_id":"4b087907-7192-4276-99d8-c0bfb8a98ca3","system_id":"levelo_inurba_marseille","lat":43.23184,"lon":5.39986,"is_reserved":false,"is_disabled":false,"rental_uris":{"android":"levelo://app?vid=4b087907-7192-4276-99d8-c0bfb8a98ca3","ios":"levelo://app?vid=4b087907-7192-4276-99d8-c0bfb8a98ca3"},"vehicle_type_id":"4","last_reported":1739559992,"current_range_meters":36000,"station_id":"ce4bhn12rcd13ifvqgqg","pricing_plan_id":"cebpf4jnsgd1na2vs0mg"},{"bike_id":"d8862df1-5a1b-4c30-81f7-76986a61a804","system_id":"levelo_inurba_marseille","lat":43.29031,"lon":5.39961,"is_reserved":false,"is_disabled":false,"rental_uris":{"android":"levelo://app?vid=d8862df1-5a1b-4c30-81f7-76986a61a804","ios":"levelo://app?vid=d8862df1-5a1b-4c30-81f7-76986a61a804"},"vehicle_type_id":"4","last_reported":1739559992,"current_range_meters":30800,"station_id":"ce4bh392rcd13ifvqdm0","pricing_plan_id":"cebpf4jnsgd1na2vs0mg"},{"bike_id":"5b5e03ff-4912-41f9-8214-5454a5fb490b","system_id":"levelo_inurba_marseille","lat":43.28929,"lon":5.38392,"is_reserved":false,"is_disabled":false,"rental_uris":{"android":"levelo://app?vid=5b5e03ff-4912-41f9-8214-5454a5fb490b","ios":"levelo://app?vid=5b5e03ff-4912-41f9-8214-5454a5fb490b"},"vehicle_type_id":"4","last_reported":1739559992,"current_range_meters":30000,"station_id":"ce4bh612rcd13ifvqe6g","pricing_plan_id":"cebpf4jnsgd1na2vs0mg"},{"bike_id":"bd1fbd17-5ecd-4c2a-9290-d1ffd1a70214","system_id":"levelo_inurba_marseille","lat":43.2955,"lon":5.4228,"is_reserved":false,"is_disabled":false,"rental_uris":{"android":"levelo://app?vid=bd1fbd17-5ecd-4c2a-9290-d1ffd1a70214","ios":"levelo://app?vid=bd1fbd17-5ecd-4c2a-9290-d1ffd1a70214"},"vehicle_type_id":"4","last_reported":1739559992,"current_range_meters":36400,"station_id":"ce4bhph2rcd13ifvqhdg","pricing_plan_id":"cebpf4jnsgd1na2vs0mg"},{"bike_id":"f7c5b9b2-14e0-49a2-98a4-9b262a5a593b","system_id":"levelo_inurba_marseille","lat":43.29253,"lon":5.38442,"is_reserved":false,"is_disabled":false,"rental_uris":{"android":"levelo://app?vid=f7c5b9b2-14e0-49a2-98a4-9b262a5a593b","ios":"levelo://app?vid=f7c5b9b2-14e0-49a2-98a4-9b262a5a593b"},"vehicle_type_id":"4","last_reported":1739559992,"current_range_meters":16400,"station_id":"ce4bh692rcd13ifvqea0","pricing_plan_id":"cebpf4jnsgd1na2vs0mg"},{"bike_id":"3890a62e-0c8e-4ac8-97d5-3124804ec3f0","system_id":"levelo_inurba_marseille","lat":43.27057,"lon":5.40274,"is_reserved":false,"is_disabled":false,"rental_uris":{"android":"levelo://app?vid=3890a62e-0c8e-4ac8-97d5-3124804ec3f0","ios":"levelo://app?vid=3890a62e-0c8e-4ac8-97d5-3124804ec3f0"},"vehicle_type_id":"4","last_reported":1739559992,"current_range_meters":38800,"station_id":"ce4bhk92rcd13ifvqgc0","pricing_plan_id":"cebpf4jnsgd1na2vs0mg"},{"bike_id":"2dd501c4-5b4d-462e-95a3-76e7f61808aa","system_id":"levelo_inurba_marseille","lat":43.30308,"lon":5.39211,"is_reserved":false,"is_disabled":false,"rental_uris":{"android":"levelo://app?vid=2dd501c4-5b4d-462e-95a3-76e7f61808aa","ios":"levelo://app?vid=2dd501c4-5b4d-462e-95a3-76e7f61808aa"},"vehicle_type_id":"4","last_reported":1739559992,"current_range_meters":20800,"station_id":"ce4bgkh2rcd13ifvqbk0","pricing_plan_id":"cebpf4jnsgd1na2vs0mg"},{"bike_id":"aed7b3c6-3691-40cd-8f44-30286ce8d740","system_id":"levelo_inurba_marseille","lat":43.29607,"lon":5.37737,"is_reserved":false,"is_disabled":false,"rental_uris":{"android":"levelo://app?vid=aed7b3c6-3691-40cd-8f44-30286ce8d740","ios":"levelo://app?vid=aed7b3c6-3691-40cd-8f44-30286ce8d740"},"vehicle_type_id":"4","last_reported":1739559992,"current_range_meters":27600,"station_id":"ce4bgi92rcd13ifvqb90","pricing_plan_id":"cebpf4jnsgd1na2vs0mg"},{"bike_id":"59f1ac15-b8d7-4194-8b6b-5db0a84196af","system_id":"levelo_inurba_marseille","lat":43.27989,"lon":5.40013,"is_reserved":false,"is_disabled":false,"rental_uris":{"android":"levelo://app?vid=59f1ac15-b8d7-4194-8b6b-5db0a84196af","ios":"levelo://app?vid=59f1ac15-b8d7-4194-8b6b-5db0a84196af"},"vehicle_type_id":"4","last_reported":1739559992,"current_range_meters":10000,"station_id":"ce4bho92rcd13ifvqh4g","pricing_plan_id":"cebpf4jnsgd1na2vs0mg"},{"bike_id":"4a952340-3ff3-422a-8e56-52faffd8c272","system_id":"levelo_inurba_marseille","lat":43.30095,"lon":5.39078,"is_reserved":false,"is_disabled":false,"rental_uris":{"android":"levelo://app?vid=4a952340-3ff3-422a-8e56-52faffd8c272","ios":"levelo://app?vid=4a952340-3ff3-422a-8e56-52faffd8c272"},"vehicle_type_id":"4","last_reported":1739559992,"current_range_meters":38800,"station_id":"ce4bh192rcd13ifvqdb0","pricing_plan_id":"cebpf4jnsgd1na2vs0mg"},{"bike_id":"ff489825-db76-49d3-aa98-c1c0aaa6bdad","system_id":"levelo_inurba_marseille","lat":43.29241,"lon":5.36664,"is_reserved":false,"is_disabled":false,"rental_uris":{"android":"levelo://app?vid=ff489825-db76-49d3-aa98-c1c0aaa6bdad","ios":"levelo://app?vid=ff489825-db76-49d3-aa98-c1c0aaa6bdad"},"vehicle_type_id":"4","last_reported":1739559992,"current_range_meters":6400,"station_id":"","pricing_plan_id":"cebpf4jnsgd1na2vs0mg"},{"bike_id":"35c71859-d749-4d30-961a-91d1c38d6948","system_id":"levelo_inurba_marseille","lat":43.25087,"lon":5.39529,"is_reserved":false,"is_disabled":false,"rental_uris":{"android":"levelo://app?vid=35c71859-d749-4d30-961a-91d1c38d6948","ios":"levelo://app?vid=35c71859-d749-4d30-961a-91d1c38d6948"},"vehicle_type_id":"4","last_reported":1739559992,"current_range_meters":8400,"station_id":"ce4bhm12rcd13ifvqgkg","pricing_plan_id":"cebpf4jnsgd1na2vs0mg"},{"bike_id":"a601e99d-c150-494b-93ff-a6ff6e8c48a2","system_id":"levelo_inurba_marseille","lat":43.30423,"lon":5.39739,"is_reserved":false,"is_disabled":false,"rental_uris":{"android":"levelo://app?vid=a601e99d-c150-494b-93ff-a6ff6e8c48a2","ios":"levelo://app?vid=a601e99d-c150-494b-93ff-a6ff6e8c48a2"},"vehicle_type_id":"4","last_reported":1739559992,"current_range_meters":28000,"station_id":"ce4bh092rcd13ifvqd20","pricing_plan_id":"cebpf4jnsgd1na2vs0mg"},{"bike_id":"365b4f31-a341-4dc2-a7a8-de2ab475095d","system_id":"levelo_inurba_marseille","lat":43.29526,"lon":5.39397,"is_reserved":false,"is_disabled":true,"rental_uris":{"android":"levelo://app?vid=365b4f31-a341-4dc2-a7a8-de2ab475095d","ios":"levelo://app?vid=365b4f31-a341-4dc2-a7a8-de2ab475095d"},"vehicle_type_id":"4","last_reported":1739559992,"current_range_meters":1200,"station_id":"ce4bh292rcd13ifvqdf0","pricing_plan_id":"cebpf4jnsgd1na2vs0mg"},{"bike_id":"85d24a4d-5b3f-4a2c-957d-09d3f550ee51","system_id":"levelo_inurba_marseille","lat":43.27919,"lon":5.39584,"is_reserved":false,"is_disabled":false,"rental_uris":{"android":"levelo://app?vid=85d24a4d-5b3f-4a2c-957d-09d3f550ee51","ios":"levelo://app?vid=85d24a4d-5b3f-4a2c-957d-09d3f550ee51"},"vehicle_type_id":"4","last_reported":1739559992,"current_range_meters":38800,"station_id":"ce4bhf92rcd13ifvqf40","pricing_plan_id":"cebpf4jnsgd1na2vs0mg"},{"bike_id":"58852762-4a05-4f80-9bdf-b9b987cc064b","system_id":"levelo_inurba_marseille","lat":43.29567,"lon":5.3749,"is_reserved":false,"is_disabled":false,"rental_uris":{"android":"levelo://app?vid=58852762-4a05-4f80-9bdf-b9b987cc064b","ios":"levelo://app?vid=58852762-4a05-4f80-9bdf-b9b987cc064b"},"vehicle_type_id":"4","last_reported":1739559992,"current_range_meters":32800,"station_id":"ce4bgkp2rcd13ifvqbmg","pricing_plan_id":"cebpf4jnsgd1na2vs0mg"},{"bike_id":"34d190c8-c9ae-47ad-8f5a-8fd7ee28b595","system_id":"levelo_inurba_marseille","lat":43.28838,"lon":5.35842,"is_reserved":false,"is_disabled":false,"rental_uris":{"android":"levelo://app?vid=34d190c8-c9ae-47ad-8f5a-8fd7ee28b595","ios":"levelo://app?vid=34d190c8-c9ae-47ad-8f5a-8fd7ee28b595"},"vehicle_type_id":"4","last_reported":1739559992,"current_range_meters":30000,"station_id":"ce4bhb12rcd13ifvqem0","pricing_plan_id":"cebpf4jnsgd1na2vs0mg"},{"bike_id":"7bb3c3c1-6da2-4ce4-8250-65715dd162df","system_id":"levelo_inurba_marseille","lat":43.27439,"lon":5.39414,"is_reserved":false,"is_disabled":false,"rental_uris":{"android":"levelo://app?vid=7bb3c3c1-6da2-4ce4-8250-65715dd162df","ios":"levelo://app?vid=7bb3c3c1-6da2-4ce4-8250-65715dd162df"},"vehicle_type_id":"4","last_reported":1739559992,"current_range_meters":38800,"station_id":"ce4bhdp2rcd13ifvqf20","pricing_plan_id":"cebpf4jnsgd1na2vs0mg"},{"bike_id":"b3ea199c-adf6-4508-b4a8-bc94e82ed326","system_id":"levelo_inurba_marseille","lat":43.2926,"lon":5.3844,"is_reserved":false,"is_disabled":false,"rental_uris":{"android":"levelo://app?vid=b3ea199c-adf6-4508-b4a8-bc94e82ed326","ios":"levelo://app?vid=b3ea199c-adf6-4508-b4a8-bc94e82ed326"},"vehicle_type_id":"4","last_reported":1739559992,"current_range_meters":36800,"station_id":"ce4bh692rcd13ifvqea0","pricing_plan_id":"cebpf4jnsgd1na2vs0mg"},{"bike_id":"ee15d62f-95ce-4fcc-ae63-6e729a4345ce","system_id":"levelo_inurba_marseille","lat":43.24803,"lon":5.37454,"is_reserved":false,"is_disabled":false,"rental_uris":{"android":"levelo://app?vid=ee15d62f-95ce-4fcc-ae63-6e729a4345ce","ios":"levelo://app?vid=ee15d62f-95ce-4fcc-ae63-6e729a4345ce"},"vehicle_type_id":"4","last_reported":1739559992,"current_range_meters":20000,"station_id":"ce4bhgh2rcd13ifvqfb0","pricing_plan_id":"cebpf4jnsgd1na2vs0mg"},{"bike_id":"ba6ee90b-9d94-4f43-8358-366faab5901e","system_id":"levelo_inurba_marseille","lat":43.28077,"lon":5.39649,"is_reserved":false,"is_disabled":false,"rental_uris":{"android":"levelo://app?vid=ba6ee90b-9d94-4f43-8358-366faab5901e","ios":"levelo://app?vid=ba6ee90b-9d94-4f43-8358-366faab5901e"},"vehicle_type_id":"4","last_reported":1739559992,"current_range_meters":24000,"station_id":"ce4bho12rcd13ifvqh2g","pricing_plan_id":"cebpf4jnsgd1na2vs0mg"},{"bike_id":"469df817-c238-4d61-8781-dabb1a74fb52","system_id":"levelo_inurba_marseille","lat":43.30599,"lon":5.37208,"is_reserved":false,"is_disabled":false,"rental_uris":{"android":"levelo://app?vid=469df817-c238-4d61-8781-dabb1a74fb52","ios":"levelo://app?vid=469df817-c238-4d61-8781-dabb1a74fb52"},"vehicle_type_id":"4","last_reported":1739559992,"current_range_meters":36800,"station_id":"ce4bgqh2rcd13ifvqc4g","pricing_plan_id":"cebpf4jnsgd1na2vs0mg"},{"bike_id":"e444e49e-a9e0-4183-b573-4550baa4a888","system_id":"levelo_inurba_marseille","lat":43.29271,"lon":5.36842,"is_reserved":false,"is_disabled":false,"rental_uris":{"android":"levelo://app?vid=e444e49e-a9e0-4183-b573-4550baa4a888","ios":"levelo://app?vid=e444e49e-a9e0-4183-b573-4550baa4a888"},"vehicle_type_id":"4","last_reported":1739559992,"current_range_meters":28000,"station_id":"ce4bhbp2rcd13ifvqesg","pricing_plan_id":"cebpf4jnsgd1na2vs0mg"},{"bike_id":"5429a055-5c17-4863-ac08-ee7234bc7af8","system_id":"levelo_inurba_marseille","lat":43.32265,"lon":5.36828,"is_reserved":false,"is_disabled":false,"rental_uris":{"android":"levelo://app?vid=5429a055-5c17-4863-ac08-ee7234bc7af8","ios":"levelo://app?vid=5429a055-5c17-4863-ac08-ee7234bc7af8"},"vehicle_type_id":"4","last_reported":1739559992,"current_range_meters":36400,"station_id":"","pricing_plan_id":"cebpf4jnsgd1na2vs0mg"},{"bike_id":"83b4b289-b3c2-476b-869c-b6f97376787d","system_id":"levelo_inurba_marseille","lat":43.30583,"lon":5.37213,"is_reserved":false,"is_disabled":false,"rental_uris":{"android":"levelo://app?vid=83b4b289-b3c2-476b-869c-b6f97376787d","ios":"levelo://app?vid=83b4b289-b3c2-476b-869c-b6f97376787d"},"vehicle_type_id":"4","last_reported":1739559992,"current_range_meters":20000,"station_id":"ce4bgqh2rcd13ifvqc4g","pricing_plan_id":"cebpf4jnsgd1na2vs0mg"},{"bike_id":"6c54bd98-99ce-4c61-b914-dd19c3edf238","system_id":"levelo_inurba_marseille","lat":43.24801,"lon":5.37451,"is_reserved":false,"is_disabled":false,"rental_uris":{"android":"levelo://app?vid=6c54bd98-99ce-4c61-b914-dd19c3edf238","ios":"levelo://app?vid=6c54bd98-99ce-4c61-b914-dd19c3edf238"},"vehicle_type_id":"4","last_reported":1739559992,"current_range_meters":38800,"station_id":"ce4bhgh2rcd13ifvqfb0","pricing_plan_id":"cebpf4jnsgd1na2vs0mg"},{"bike_id":"859c79c3-9c5b-47b3-94ad-94355d1f1457","system_id":"levelo_inurba_marseille","lat":43.24389,"lon":5.37095,"is_reserved":false,"is_disabled":false,"rental_uris":{"android":"levelo://app?vid=859c79c3-9c5b-47b3-94ad-94355d1f1457","ios":"levelo://app?vid=859c79c3-9c5b-47b3-94ad-94355d1f1457"},"vehicle_type_id":"4","last_reported":1739559992,"current_range_meters":10800,"station_id":"ce4bhhh2rcd13ifvqfk0","pricing_plan_id":"cebpf4jnsgd1na2vs0mg"},{"bike_id":"70ac96e9-fd61-407a-9f8d-72ef7e3e8776","system_id":"levelo_inurba_marseille","lat":43.29287,"lon":5.37458,"is_reserved":false,"is_disabled":false,"rental_uris":{"android":"levelo://app?vid=70ac96e9-fd61-407a-9f8d-72ef7e3e8776","ios":"levelo://app?vid=70ac96e9-fd61-407a-9f8d-72ef7e3e8776"},"vehicle_type_id":"4","last_reported":1739559992,"current_range_meters":18000,"station_id":"ce4bgi12rcd13ifvqb70","pricing_plan_id":"cebpf4jnsgd1na2vs0mg"},{"bike_id":"16ddcca9-a1b9-417d-843f-cfc2f42dc3a4","system_id":"levelo_inurba_marseille","lat":43.28722,"lon":5.37927,"is_reserved":false,"is_disabled":false,"rental_uris":{"android":"levelo://app?vid=16ddcca9-a1b9-417d-843f-cfc2f42dc3a4","ios":"levelo://app?vid=16ddcca9-a1b9-417d-843f-cfc2f42dc3a4"},"vehicle_type_id":"4","last_reported":1739559992,"current_range_meters":14800,"station_id":"ce4bh9p2rcd13ifvqec0","pricing_plan_id":"cebpf4jnsgd1na2vs0mg"},{"bike_id":"3cd57c58-32d4-4672-ac45-97d214052a1d","system_id":"levelo_inurba_marseille","lat":43.29851,"lon":5.36285,"is_reserved":false,"is_disabled":false,"rental_uris":{"android":"levelo://app?vid=3cd57c58-32d4-4672-ac45-97d214052a1d","ios":"levelo://app?vid=3cd57c58-32d4-4672-ac45-97d214052a1d"},"vehicle_type_id":"4","last_reported":1739559992,"current_range_meters":38800,"station_id":"ce4bgpp2rcd13ifvqc3g","pricing_plan_id":"cebpf4jnsgd1na2vs0mg"},{"bike_id":"48a6ab81-6eb3-4cea-8975-4da656005769","system_id":"levelo_inurba_marseille","lat":43.29604,"lon":5.3809,"is_reserved":false,"is_disabled":false,"rental_uris":{"android":"levelo://app?vid=48a6ab81-6eb3-4cea-8975-4da656005769","ios":"levelo://app?vid=48a6ab81-6eb3-4cea-8975-4da656005769"},"vehicle_type_id":"4","last_reported":1739559992,"current_range_meters":31200,"station_id":"ce4bgl12rcd13ifvqbo0","pricing_plan_id":"cebpf4jnsgd1na2vs0mg"},{"bike_id":"9804370d-67f7-467c-ba53-33246b9ec675","system_id":"levelo_inurba_marseille","lat":43.29411,"lon":5.38633,"is_reserved":false,"is_disabled":false,"rental_uris":{"android":"levelo://app?vid=9804370d-67f7-467c-ba53-33246b9ec675","ios":"levelo://app?vid=9804370d-67f7-467c-ba53-33246b9ec675"},"vehicle_type_id":"4","last_reported":1739559992,"current_range_meters":38800,"station_id":"ce4bh2h2rcd13ifvqdh0","pricing_plan_id":"cebpf4jnsgd1na2vs0mg"},{"bike_id":"981f0c84-c763-4744-ab7e-6d6374d30546","system_id":"levelo_inurba_marseille","lat":43.25498,"lon":5.37651,"is_reserved":false,"is_disabled":false,"rental_uris":{"android":"levelo://app?vid=981f0c84-c763-4744-ab7e-6d6374d30546","ios":"levelo://app?vid=981f0c84-c763-4744-ab7e-6d6374d30546"},"vehicle_type_id":"4","last_reported":1739559992,"current_range_meters":39200,"station_id":"ce4bhh12rcd13ifvqff0","pricing_plan_id":"cebpf4jnsgd1na2vs0mg"},{"bike_id":"cf32f974-176f-413e-ae8d-12ed37a9cd2b","system_id":"levelo_inurba_marseille","lat":43.28908,"lon":5.42827,"is_reserved":false,"is_disabled":false,"rental_uris":{"android":"levelo://app?vid=cf32f974-176f-413e-ae8d-12ed37a9cd2b","ios":"levelo://app?vid=cf32f974-176f-413e-ae8d-12ed37a9cd2b"},"vehicle_type_id":"4","last_reported":1739559992,"current_range_meters":10000,"station_id":"","pricing_plan_id":"cebpf4jnsgd1na2vs0mg"},{"bike_id":"4c17efce-6413-4534-8267-7be847b3cdde","system_id":"levelo_inurba_marseille","lat":43.30094,"lon":5.39055,"is_reserved":false,"is_disabled":false,"rental_uris":{"android":"levelo://app?vid=4c17efce-6413-4534-8267-7be847b3cdde","ios":"levelo://app?vid=4c17efce-6413-4534-8267-7be847b3cdde"},"vehicle_type_id":"4","last_reported":1739559992,"current_range_meters":38800,"station_id":"ce4bh192rcd13ifvqdb0","pricing_plan_id":"cebpf4jnsgd1na2vs0mg"},{"bike_id":"24c9fd7a-dfb5-4755-9c33-7fb2bb66a39c","system_id":"levelo_inurba_marseille","lat":43.312232,"lon":5.37383,"is_reserved":false,"is_disabled":false,"rental_uris":{"android":"levelo://app?vid=24c9fd7a-dfb5-4755-9c33-7fb2bb66a39c","ios":"levelo://app?vid=24c9fd7a-dfb5-4755-9c33-7fb2bb66a39c"},"vehicle_type_id":"4","last_reported":1739559992,"current_range_meters":6800,"station_id":"","pricing_plan_id":"cebpf4jnsgd1na2vs0mg"},{"bike_id":"f3577e40-d3b4-4c9c-af82-d1b37865ee10","system_id":"levelo_inurba_marseille","lat":43.25611,"lon":5.38229,"is_reserved":false,"is_disabled":false,"rental_uris":{"android":"levelo://app?vid=f3577e40-d3b4-4c9c-af82-d1b37865ee10","ios":"levelo://app?vid=f3577e40-d3b4-4c9c-af82-d1b37865ee10"},"vehicle_type_id":"4","last_reported":1739559992,"current_range_meters":7200,"station_id":"ce4bhih2rcd13ifvqfs0","pricing_plan_id":"cebpf4jnsgd1na2vs0mg"},{"bike_id":"02dd5004-90f6-4274-b567-f6406bd72f04","system_id":"levelo_inurba_marseille","lat":43.27803,"lon":5.40711,"is_reserved":false,"is_disabled":false,"rental_uris":{"android":"levelo://app?vid=02dd5004-90f6-4274-b567-f6406bd72f04","ios":"levelo://app?vid=02dd5004-90f6-4274-b567-f6406bd72f04"},"vehicle_type_id":"4","last_reported":1739559992,"current_range_meters":6400,"station_id":"ce4bhnh2rcd13ifvqgtg","pricing_plan_id":"cebpf4jnsgd1na2vs0mg"},{"bike_id":"a0b5fc8f-c939-4ac7-b932-de16b49d87dc","system_id":"levelo_inurba_marseille","lat":43.30319,"lon":5.40443,"is_reserved":false,"is_disabled":false,"rental_uris":{"android":"levelo://app?vid=a0b5fc8f-c939-4ac7-b932-de16b49d87dc","ios":"levelo://app?vid=a0b5fc8f-c939-4ac7-b932-de16b49d87dc"},"vehicle_type_id":"4","last_reported":1739559992,"current_range_meters":36800,"station_id":"ce4bh012rcd13ifvqd10","pricing_plan_id":"cebpf4jnsgd1na2vs0mg"},{"bike_id":"4334a171-fa6f-4e4f-a3dd-f3ae934931ce","system_id":"levelo_inurba_marseille","lat":43.29573,"lon":5.3998,"is_reserved":false,"is_disabled":false,"rental_uris":{"android":"levelo://app?vid=4334a171-fa6f-4e4f-a3dd-f3ae934931ce","ios":"levelo://app?vid=4334a171-fa6f-4e4f-a3dd-f3ae934931ce"},"vehicle_type_id":"4","last_reported":1739559992,"current_range_meters":15200,"station_id":"ce4bh312rcd13ifvqdj0","pricing_plan_id":"cebpf4jnsgd1na2vs0mg"},{"bike_id":"08b02ff6-191d-4434-92b7-7e1a35cc7b31","system_id":"levelo_inurba_marseille","lat":43.2922,"lon":5.36068,"is_reserved":false,"is_disabled":false,"rental_uris":{"android":"levelo://app?vid=08b02ff6-191d-4434-92b7-7e1a35cc7b31","ios":"levelo://app?vid=08b02ff6-191d-4434-92b7-7e1a35cc7b31"},"vehicle_type_id":"4","last_reported":1739559992,"current_range_meters":28000,"station_id":"ce4bhbh2rcd13ifvqeqg","pricing_plan_id":"cebpf4jnsgd1na2vs0mg"},{"bike_id":"28003794-3145-4298-a79f-9ec68e952bb4","system_id":"levelo_inurba_marseille","lat":43.29624,"lon":5.40597,"is_reserved":false,"is_disabled":false,"rental_uris":{"android":"levelo://app?vid=28003794-3145-4298-a79f-9ec68e952bb4","ios":"levelo://app?vid=28003794-3145-4298-a79f-9ec68e952bb4"},"vehicle_type_id":"4","last_reported":1739559992,"current_range_meters":32000,"station_id":"ce4bh0h2rcd13ifvqd60","pricing_plan_id":"cebpf4jnsgd1na2vs0mg"},{"bike_id":"46f5d451-43bc-4724-ba4c-4c1a9fede2df","system_id":"levelo_inurba_marseille","lat":43.28405,"lon":5.37524,"is_reserved":false,"is_disabled":false,"rental_uris":{"android":"levelo://app?vid=46f5d451-43bc-4724-ba4c-4c1a9fede2df","ios":"levelo://app?vid=46f5d451-43bc-4724-ba4c-4c1a9fede2df"},"vehicle_type_id":"4","last_reported":1739559992,"current_range_meters":25600,"station_id":"ce4bh412rcd13ifvqds0","pricing_plan_id":"cebpf4jnsgd1na2vs0mg"},{"bike_id":"1033cf1d-9cf7-4be7-a6ad-b44ae9aed54f","system_id":"levelo_inurba_marseille","lat":43.28674,"lon":5.38657,"is_reserved":false,"is_disabled":false,"rental_uris":{"android":"levelo://app?vid=1033cf1d-9cf7-4be7-a6ad-b44ae9aed54f","ios":"levelo://app?vid=1033cf1d-9cf7-4be7-a6ad-b44ae9aed54f"},"vehicle_type_id":"4","last_reported":1739559992,"current_range_meters":12000,"station_id":"ce4bh492rcd13ifvqdug","pricing_plan_id":"cebpf4jnsgd1na2vs0mg"},{"bike_id":"e5e5a17e-27a5-454b-904b-e271a7fe6a76","system_id":"levelo_inurba_marseille","lat":43.28072,"lon":5.39639,"is_reserved":false,"is_disabled":false,"rental_uris":{"android":"levelo://app?vid=e5e5a17e-27a5-454b-904b-e271a7fe6a76","ios":"levelo://app?vid=e5e5a17e-27a5-454b-904b-e271a7fe6a76"},"vehicle_type_id":"4","last_reported":1739559992,"current_range_meters":33600,"station_id":"ce4bho12rcd13ifvqh2g","pricing_plan_id":"cebpf4jnsgd1na2vs0mg"},{"bike_id":"6583cb8c-929c-4879-839e-98fda62a9258","system_id":"levelo_inurba_marseille","lat":43.32288,"lon":5.38276,"is_reserved":false,"is_disabled":false,"rental_uris":{"android":"levelo://app?vid=6583cb8c-929c-4879-839e-98fda62a9258","ios":"levelo://app?vid=6583cb8c-929c-4879-839e-98fda62a9258"},"vehicle_type_id":"4","last_reported":1739559992,"current_range_meters":38800,"station_id":"ce4bhr12rcd13ifvqhqg","pricing_plan_id":"cebpf4jnsgd1na2vs0mg"},{"bike_id":"ddf1d674-41d6-443f-b0f1-1da7df267862","system_id":"levelo_inurba_marseille","lat":43.23063,"lon":5.35498,"is_reserved":false,"is_disabled":false,"rental_uris":{"android":"levelo://app?vid=ddf1d674-41d6-443f-b0f1-1da7df267862","ios":"levelo://app?vid=ddf1d674-41d6-443f-b0f1-1da7df267862"},"vehicle_type_id":"4","last_reported":1739559992,"current_range_meters":24800,"station_id":"cpo3342slgdg3j2ifvpg","pricing_plan_id":"cebpf4jnsgd1na2vs0mg"},{"bike_id":"7d940624-0e39-4c4d-b1c6-e89959873e30","system_id":"levelo_inurba_marseille","lat":43.24636,"lon":5.38917,"is_reserved":false,"is_disabled":false,"rental_uris":{"android":"levelo://app?vid=7d940624-0e39-4c4d-b1c6-e89959873e30","ios":"levelo://app?vid=7d940624-0e39-4c4d-b1c6-e89959873e30"},"vehicle_type_id":"4","last_reported":1739559992,"current_range_meters":15200,"station_id":"ce4bhg12rcd13ifvqf60","pricing_plan_id":"cebpf4jnsgd1na2vs0mg"},{"bike_id":"1a1cb256-3b19-4e4f-b9dc-dae154ac3702","system_id":"levelo_inurba_marseille","lat":43.26224,"lon":5.37421,"is_reserved":false,"is_disabled":false,"rental_uris":{"android":"levelo://app?vid=1a1cb256-3b19-4e4f-b9dc-dae154ac3702","ios":"levelo://app?vid=1a1cb256-3b19-4e4f-b9dc-dae154ac3702"},"vehicle_type_id":"4","last_reported":1739559992,"current_range_meters":31200,"station_id":"ce4bhgp2rcd13ifvqfc0","pricing_plan_id":"cebpf4jnsgd1na2vs0mg"},{"bike_id":"beb2041d-63f0-452d-b294-fc85bc8d4f9e","system_id":"levelo_inurba_marseille","lat":43.239659,"lon":5.366216,"is_reserved":false,"is_disabled":false,"rental_uris":{"android":"levelo://app?vid=beb2041d-63f0-452d-b294-fc85bc8d4f9e","ios":"levelo://app?vid=beb2041d-63f0-452d-b294-fc85bc8d4f9e"},"vehicle_type_id":"4","last_reported":1739559992,"current_range_meters":37600,"station_id":"ce4bhi12rcd13ifvqfp0","pricing_plan_id":"cebpf4jnsgd1na2vs0mg"},{"bike_id":"78be6242-0c31-4932-9bea-7d041837b9fe","system_id":"levelo_inurba_marseille","lat":43.31326,"lon":5.3969,"is_reserved":false,"is_disabled":false,"rental_uris":{"android":"levelo://app?vid=78be6242-0c31-4932-9bea-7d041837b9fe","ios":"levelo://app?vid=78be6242-0c31-4932-9bea-7d041837b9fe"},"vehicle_type_id":"4","last_reported":1739559992,"current_range_meters":15200,"station_id":"ce4bgvp2rcd13ifvqcu0","pricing_plan_id":"cebpf4jnsgd1na2vs0mg"},{"bike_id":"92aea044-4d8b-44cf-9d27-ca06a665dde5","system_id":"levelo_inurba_marseille","lat":43.30875,"lon":5.37189,"is_reserved":false,"is_disabled":false,"rental_uris":{"android":"levelo://app?vid=92aea044-4d8b-44cf-9d27-ca06a665dde5","ios":"levelo://app?vid=92aea044-4d8b-44cf-9d27-ca06a665dde5"},"vehicle_type_id":"4","last_reported":1739559992,"current_range_meters":29600,"station_id":"ce4bguh2rcd13ifvqckg","pricing_plan_id":"cebpf4jnsgd1na2vs0mg"},{"bike_id":"c9645a26-5874-480f-a11e-46d2257542e0","system_id":"levelo_inurba_marseille","lat":43.2754,"lon":5.38674,"is_reserved":false,"is_disabled":false,"rental_uris":{"android":"levelo://app?vid=c9645a26-5874-480f-a11e-46d2257542e0","ios":"levelo://app?vid=c9645a26-5874-480f-a11e-46d2257542e0"},"vehicle_type_id":"4","last_reported":1739559992,"current_range_meters":32400,"station_id":"","pricing_plan_id":"cebpf4jnsgd1na2vs0mg"},{"bike_id":"4450d397-c7c4-4c68-aed9-fa811598c082","system_id":"levelo_inurba_marseille","lat":43.32532,"lon":5.36544,"is_reserved":false,"is_disabled":false,"rental_uris":{"android":"levelo://app?vid=4450d397-c7c4-4c68-aed9-fa811598c082","ios":"levelo://app?vid=4450d397-c7c4-4c68-aed9-fa811598c082"},"vehicle_type_id":"4","last_reported":1739559992,"current_range_meters":28800,"station_id":"","pricing_plan_id":"cebpf4jnsgd1na2vs0mg"},{"bike_id":"d27b74ac-113c-4fd0-b908-2d78c11f3530","system_id":"levelo_inurba_marseille","lat":43.30447,"lon":5.38885,"is_reserved":false,"is_disabled":false,"rental_uris":{"android":"levelo://app?vid=d27b74ac-113c-4fd0-b908-2d78c11f3530","ios":"levelo://app?vid=d27b74ac-113c-4fd0-b908-2d78c11f3530"},"vehicle_type_id":"4","last_reported":1739559992,"current_range_meters":18000,"station_id":"ce4bgk12rcd13ifvqbi0","pricing_plan_id":"cebpf4jnsgd1na2vs0mg"},{"bike_id":"28a16aee-71d6-4cb1-b35a-d4320a6bf584","system_id":"levelo_inurba_marseille","lat":43.32358,"lon":5.38882,"is_reserved":false,"is_disabled":false,"rental_uris":{"android":"levelo://app?vid=28a16aee-71d6-4cb1-b35a-d4320a6bf584","ios":"levelo://app?vid=28a16aee-71d6-4cb1-b35a-d4320a6bf584"},"vehicle_type_id":"4","last_reported":1739559992,"current_range_meters":22000,"station_id":"ce4bhqp2rcd13ifvqhog","pricing_plan_id":"cebpf4jnsgd1na2vs0mg"},{"bike_id":"59cb679e-245c-46b7-bc74-dfa7c14bb16c","system_id":"levelo_inurba_marseille","lat":43.28989,"lon":5.35603,"is_reserved":false,"is_disabled":true,"rental_uris":{"android":"levelo://app?vid=59cb679e-245c-46b7-bc74-dfa7c14bb16c","ios":"levelo://app?vid=59cb679e-245c-46b7-bc74-dfa7c14bb16c"},"vehicle_type_id":"4","last_reported":1739559992,"current_range_meters":38800,"station_id":"ce4bhb92rcd13ifvqen0","pricing_plan_id":"cebpf4jnsgd1na2vs0mg"},{"bike_id":"b24f3555-58eb-4b73-aeb8-7954d82e3761","system_id":"levelo_inurba_marseille","lat":43.28037,"lon":5.36945,"is_reserved":false,"is_disabled":false,"rental_uris":{"android":"levelo://app?vid=b24f3555-58eb-4b73-aeb8-7954d82e3761","ios":"levelo://app?vid=b24f3555-58eb-4b73-aeb8-7954d82e3761"},"vehicle_type_id":"4","last_reported":1739559992,"current_range_meters":26000,"station_id":"ce4bha12rcd13ifvqef0","pricing_plan_id":"cebpf4jnsgd1na2vs0mg"},{"bike_id":"a8bc8483-ceef-456e-92ec-efcc9ae8cb95","system_id":"levelo_inurba_marseille","lat":43.27608,"lon":5.36121,"is_reserved":false,"is_disabled":false,"rental_uris":{"android":"levelo://app?vid=a8bc8483-ceef-456e-92ec-efcc9ae8cb95","ios":"levelo://app?vid=a8bc8483-ceef-456e-92ec-efcc9ae8cb95"},"vehicle_type_id":"4","last_reported":1739559992,"current_range_meters":37600,"station_id":"ce4bgj92rcd13ifvqbe0","pricing_plan_id":"cebpf4jnsgd1na2vs0mg"},{"bike_id":"62782877-d4c7-43e3-b7c0-213664038074","system_id":"levelo_inurba_marseille","lat":43.27858,"lon":5.40722,"is_reserved":false,"is_disabled":false,"rental_uris":{"android":"levelo://app?vid=62782877-d4c7-43e3-b7c0-213664038074","ios":"levelo://app?vid=62782877-d4c7-43e3-b7c0-213664038074"},"vehicle_type_id":"4","last_reported":1739559992,"current_range_meters":16400,"station_id":"","pricing_plan_id":"cebpf4jnsgd1na2vs0mg"},{"bike_id":"6b656e81-a99f-458b-b133-2509327cf097","system_id":"levelo_inurba_marseille","lat":43.28238,"lon":5.3596,"is_reserved":false,"is_disabled":false,"rental_uris":{"android":"levelo://app?vid=6b656e81-a99f-458b-b133-2509327cf097","ios":"levelo://app?vid=6b656e81-a99f-458b-b133-2509327cf097"},"vehicle_type_id":"4","last_reported":1739559992,"current_range_meters":12400,"station_id":"","pricing_plan_id":"cebpf4jnsgd1na2vs0mg"},{"bike_id":"fb27585c-d37a-46e8-9dff-7cf672c65eab","system_id":"levelo_inurba_marseille","lat":43.3015,"lon":5.374102,"is_reserved":false,"is_disabled":false,"rental_uris":{"android":"levelo://app?vid=fb27585c-d37a-46e8-9dff-7cf672c65eab","ios":"levelo://app?vid=fb27585c-d37a-46e8-9dff-7cf672c65eab"},"vehicle_type_id":"4","last_reported":1739559992,"current_range_meters":25600,"station_id":"ce4bgs92rcd13ifvqcc0","pricing_plan_id":"cebpf4jnsgd1na2vs0mg"},{"bike_id":"b7675672-ea91-4212-a3c2-1e75ea117425","system_id":"levelo_inurba_marseille","lat":43.28163,"lon":5.42628,"is_reserved":false,"is_disabled":true,"rental_uris":{"android":"levelo://app?vid=b7675672-ea91-4212-a3c2-1e75ea117425","ios":"levelo://app?vid=b7675672-ea91-4212-a3c2-1e75ea117425"},"vehicle_type_id":"4","last_reported":1739559992,"current_range_meters":0,"station_id":"ce4bhnh2rcd13ifvqgug","pricing_plan_id":"cebpf4jnsgd1na2vs0mg"},{"bike_id":"e3308e7d-2d35-4d5c-94ab-294935187072","system_id":"levelo_inurba_marseille","lat":43.31273,"lon":5.4017,"is_reserved":false,"is_disabled":false,"rental_uris":{"android":"levelo://app?vid=e3308e7d-2d35-4d5c-94ab-294935187072","ios":"levelo://app?vid=e3308e7d-2d35-4d5c-94ab-294935187072"},"vehicle_type_id":"4","last_reported":1739559992,"current_range_meters":20800,"station_id":"ce4bh092rcd13ifvqd30","pricing_plan_id":"cebpf4jnsgd1na2vs0mg"},{"bike_id":"8cd34743-59ad-4597-983e-df465622bf8b","system_id":"levelo_inurba_marseille","lat":43.286913,"lon":5.38666,"is_reserved":false,"is_disabled":false,"rental_uris":{"android":"levelo://app?vid=8cd34743-59ad-4597-983e-df465622bf8b","ios":"levelo://app?vid=8cd34743-59ad-4597-983e-df465622bf8b"},"vehicle_type_id":"4","last_reported":1739559992,"current_range_meters":39200,"station_id":"ce4bh492rcd13ifvqdug","pricing_plan_id":"cebpf4jnsgd1na2vs0mg"},{"bike_id":"e1361caa-3d30-4fe9-a1c9-9b0637192280","system_id":"levelo_inurba_marseille","lat":43.29558,"lon":5.42279,"is_reserved":false,"is_disabled":false,"rental_uris":{"android":"levelo://app?vid=e1361caa-3d30-4fe9-a1c9-9b0637192280","ios":"levelo://app?vid=e1361caa-3d30-4fe9-a1c9-9b0637192280"},"vehicle_type_id":"4","last_reported":1739559992,"current_range_meters":22400,"station_id":"ce4bhph2rcd13ifvqhdg","pricing_plan_id":"cebpf4jnsgd1na2vs0mg"},{"bike_id":"7678bbd9-1737-475a-a5c1-14efe837ac2d","system_id":"levelo_inurba_marseille","lat":43.27832,"lon":5.39203,"is_reserved":false,"is_disabled":false,"rental_uris":{"android":"levelo://app?vid=7678bbd9-1737-475a-a5c1-14efe837ac2d","ios":"levelo://app?vid=7678bbd9-1737-475a-a5c1-14efe837ac2d"},"vehicle_type_id":"4","last_reported":1739559992,"current_range_meters":36400,"station_id":"ce4bhjp2rcd13ifvqga0","pricing_plan_id":"cebpf4jnsgd1na2vs0mg"},{"bike_id":"7f1ff432-75de-4716-9c52-be31412327d8","system_id":"levelo_inurba_marseille","lat":43.30877,"lon":5.37183,"is_reserved":false,"is_disabled":false,"rental_uris":{"android":"levelo://app?vid=7f1ff432-75de-4716-9c52-be31412327d8","ios":"levelo://app?vid=7f1ff432-75de-4716-9c52-be31412327d8"},"vehicle_type_id":"4","last_reported":1739559992,"current_range_meters":11600,"station_id":"ce4bguh2rcd13ifvqckg","pricing_plan_id":"cebpf4jnsgd1na2vs0mg"},{"bike_id":"4df18ca1-d2d5-4e4f-84ca-1aa5f2e07468","system_id":"levelo_inurba_marseille","lat":43.28,"lon":5.40012,"is_reserved":false,"is_disabled":false,"rental_uris":{"android":"levelo://app?vid=4df18ca1-d2d5-4e4f-84ca-1aa5f2e07468","ios":"levelo://app?vid=4df18ca1-d2d5-4e4f-84ca-1aa5f2e07468"},"vehicle_type_id":"4","last_reported":1739559992,"current_range_meters":6400,"station_id":"ce4bho92rcd13ifvqh4g","pricing_plan_id":"cebpf4jnsgd1na2vs0mg"},{"bike_id":"62862006-05b4-4c32-b74d-3d73ca0f3a49","system_id":"levelo_inurba_marseille","lat":43.29493,"lon":5.36395,"is_reserved":false,"is_disabled":true,"rental_uris":{"android":"levelo://app?vid=62862006-05b4-4c32-b74d-3d73ca0f3a49","ios":"levelo://app?vid=62862006-05b4-4c32-b74d-3d73ca0f3a49"},"vehicle_type_id":"4","last_reported":1739559992,"current_range_meters":25200,"station_id":"","pricing_plan_id":"cebpf4jnsgd1na2vs0mg"},{"bike_id":"92d1ee13-e974-447f-aca6-7b5bff8f8b19","system_id":"levelo_inurba_marseille","lat":43.2807,"lon":5.39633,"is_reserved":false,"is_disabled":false,"rental_uris":{"android":"levelo://app?vid=92d1ee13-e974-447f-aca6-7b5bff8f8b19","ios":"levelo://app?vid=92d1ee13-e974-447f-aca6-7b5bff8f8b19"},"vehicle_type_id":"4","last_reported":1739559992,"current_range_meters":39200,"station_id":"ce4bho12rcd13ifvqh2g","pricing_plan_id":"cebpf4jnsgd1na2vs0mg"},{"bike_id":"55c71887-75ae-440f-aed8-5a0380896118","system_id":"levelo_inurba_marseille","lat":43.298501,"lon":5.362921,"is_reserved":false,"is_disabled":true,"rental_uris":{"android":"levelo://app?vid=55c71887-75ae-440f-aed8-5a0380896118","ios":"levelo://app?vid=55c71887-75ae-440f-aed8-5a0380896118"},"vehicle_type_id":"4","last_reported":1739559992,"current_range_meters":36000,"station_id":"ce4bgpp2rcd13ifvqc3g","pricing_plan_id":"cebpf4jnsgd1na2vs0mg"},{"bike_id":"a2ca41e8-f61d-4dd9-8bff-8f6c3c7174f6","system_id":"levelo_inurba_marseille","lat":43.30541,"lon":5.38424,"is_reserved":false,"is_disabled":false,"rental_uris":{"android":"levelo://app?vid=a2ca41e8-f61d-4dd9-8bff-8f6c3c7174f6","ios":"levelo://app?vid=a2ca41e8-f61d-4dd9-8bff-8f6c3c7174f6"},"vehicle_type_id":"4","last_reported":1739559992,"current_range_meters":36800,"station_id":"ce4bgg92rcd13ifvqb30","pricing_plan_id":"cebpf4jnsgd1na2vs0mg"},{"bike_id":"1315d94e-7023-4f97-8a4e-a6677fa7070f","system_id":"levelo_inurba_marseille","lat":43.29793,"lon":5.38108,"is_reserved":false,"is_disabled":false,"rental_uris":{"android":"levelo://app?vid=1315d94e-7023-4f97-8a4e-a6677fa7070f","ios":"levelo://app?vid=1315d94e-7023-4f97-8a4e-a6677fa7070f"},"vehicle_type_id":"4","last_reported":1739559992,"current_range_meters":33600,"station_id":"ce4bgip2rcd13ifvqbb0","pricing_plan_id":"cebpf4jnsgd1na2vs0mg"},{"bike_id":"5f431628-1b2d-4a9e-9493-29ef6605563f","system_id":"levelo_inurba_marseille","lat":43.29516,"lon":5.39028,"is_reserved":false,"is_disabled":true,"rental_uris":{"android":"levelo://app?vid=5f431628-1b2d-4a9e-9493-29ef6605563f","ios":"levelo://app?vid=5f431628-1b2d-4a9e-9493-29ef6605563f"},"vehicle_type_id":"4","last_reported":1739559992,"current_range_meters":38800,"station_id":"ce4bh3p2rcd13ifvqdp0","pricing_plan_id":"cebpf4jnsgd1na2vs0mg"},{"bike_id":"3760be46-9947-4266-a54f-ee253cc823c2","system_id":"levelo_inurba_marseille","lat":43.287,"lon":5.37421,"is_reserved":false,"is_disabled":false,"rental_uris":{"android":"levelo://app?vid=3760be46-9947-4266-a54f-ee253cc823c2","ios":"levelo://app?vid=3760be46-9947-4266-a54f-ee253cc823c2"},"vehicle_type_id":"4","last_reported":1739559992,"current_range_meters":38000,"station_id":"ce4bh3p2rcd13ifvqdq0","pricing_plan_id":"cebpf4jnsgd1na2vs0mg"},{"bike_id":"35ec5a07-8e7e-4598-8354-17ddd27a08c2","system_id":"levelo_inurba_marseille","lat":43.24809,"lon":5.37457,"is_reserved":false,"is_disabled":false,"rental_uris":{"android":"levelo://app?vid=35ec5a07-8e7e-4598-8354-17ddd27a08c2","ios":"levelo://app?vid=35ec5a07-8e7e-4598-8354-17ddd27a08c2"},"vehicle_type_id":"4","last_reported":1739559992,"current_range_meters":20000,"station_id":"ce4bhgh2rcd13ifvqfb0","pricing_plan_id":"cebpf4jnsgd1na2vs0mg"},{"bike_id":"2473cc94-4bcc-4a8d-9eb8-d2b25dddfb16","system_id":"levelo_inurba_marseille","lat":43.24815,"lon":5.37448,"is_reserved":false,"is_disabled":false,"rental_uris":{"android":"levelo://app?vid=2473cc94-4bcc-4a8d-9eb8-d2b25dddfb16","ios":"levelo://app?vid=2473cc94-4bcc-4a8d-9eb8-d2b25dddfb16"},"vehicle_type_id":"4","last_reported":1739559992,"current_range_meters":38800,"station_id":"ce4bhgh2rcd13ifvqfb0","pricing_plan_id":"cebpf4jnsgd1na2vs0mg"},{"bike_id":"e031351b-efdb-4640-8255-b69e1640bbff","system_id":"levelo_inurba_marseille","lat":43.24162,"lon":5.36403,"is_reserved":false,"is_disabled":false,"rental_uris":{"android":"levelo://app?vid=e031351b-efdb-4640-8255-b69e1640bbff","ios":"levelo://app?vid=e031351b-efdb-4640-8255-b69e1640bbff"},"vehicle_type_id":"4","last_reported":1739559992,"current_range_meters":33200,"station_id":"cpo36qri1sfpv3e86is0","pricing_plan_id":"cebpf4jnsgd1na2vs0mg"},{"bike_id":"c49fbe2c-7e7c-4dbb-8b74-0294a8e3fee5","system_id":"levelo_inurba_marseille","lat":43.292225,"lon":5.360535,"is_reserved":false,"is_disabled":false,"rental_uris":{"android":"levelo://app?vid=c49fbe2c-7e7c-4dbb-8b74-0294a8e3fee5","ios":"levelo://app?vid=c49fbe2c-7e7c-4dbb-8b74-0294a8e3fee5"},"vehicle_type_id":"4","last_reported":1739559992,"current_range_meters":38800,"station_id":"ce4bhbh2rcd13ifvqeqg","pricing_plan_id":"cebpf4jnsgd1na2vs0mg"},{"bike_id":"ebc15a6e-5853-45dd-820c-b689acec293e","system_id":"levelo_inurba_marseille","lat":43.279996,"lon":5.400064,"is_reserved":false,"is_disabled":false,"rental_uris":{"android":"levelo://app?vid=ebc15a6e-5853-45dd-820c-b689acec293e","ios":"levelo://app?vid=ebc15a6e-5853-45dd-820c-b689acec293e"},"vehicle_type_id":"4","last_reported":1739559992,"current_range_meters":25600,"station_id":"ce4bho92rcd13ifvqh4g","pricing_plan_id":"cebpf4jnsgd1na2vs0mg"},{"bike_id":"ee566f3d-0e78-4ced-ac1b-e3b33c18e89e","system_id":"levelo_inurba_marseille","lat":43.24388,"lon":5.3705,"is_reserved":false,"is_disabled":false,"rental_uris":{"android":"levelo://app?vid=ee566f3d-0e78-4ced-ac1b-e3b33c18e89e","ios":"levelo://app?vid=ee566f3d-0e78-4ced-ac1b-e3b33c18e89e"},"vehicle_type_id":"4","last_reported":1739559992,"current_range_meters":16400,"station_id":"ce4bhhh2rcd13ifvqfk0","pricing_plan_id":"cebpf4jnsgd1na2vs0mg"},{"bike_id":"3db59d0b-9726-43a0-8b94-28667c8160f7","system_id":"levelo_inurba_marseille","lat":43.2925,"lon":5.38442,"is_reserved":false,"is_disabled":false,"rental_uris":{"android":"levelo://app?vid=3db59d0b-9726-43a0-8b94-28667c8160f7","ios":"levelo://app?vid=3db59d0b-9726-43a0-8b94-28667c8160f7"},"vehicle_type_id":"4","last_reported":1739559992,"current_range_meters":9600,"station_id":"ce4bh692rcd13ifvqea0","pricing_plan_id":"cebpf4jnsgd1na2vs0mg"},{"bike_id":"fe2f6787-4ebb-4359-8526-74fd6a592b79","system_id":"levelo_inurba_marseille","lat":43.26923,"lon":5.38901,"is_reserved":false,"is_disabled":false,"rental_uris":{"android":"levelo://app?vid=fe2f6787-4ebb-4359-8526-74fd6a592b79","ios":"levelo://app?vid=fe2f6787-4ebb-4359-8526-74fd6a592b79"},"vehicle_type_id":"4","last_reported":1739559992,"current_range_meters":38800,"station_id":"ce4bhhh2rcd13ifvqfl0","pricing_plan_id":"cebpf4jnsgd1na2vs0mg"},{"bike_id":"bbeb47d8-43a0-4ae4-8001-a6f885f91a00","system_id":"levelo_inurba_marseille","lat":43.2407,"lon":5.37751,"is_reserved":false,"is_disabled":false,"rental_uris":{"android":"levelo://app?vid=bbeb47d8-43a0-4ae4-8001-a6f885f91a00","ios":"levelo://app?vid=bbeb47d8-43a0-4ae4-8001-a6f885f91a00"},"vehicle_type_id":"4","last_reported":1739559992,"current_range_meters":27200,"station_id":"ce4bhnp2rcd13ifvqgvg","pricing_plan_id":"cebpf4jnsgd1na2vs0mg"},{"bike_id":"5b76ad3a-410f-4799-991b-536d5aafe407","system_id":"levelo_inurba_marseille","lat":43.3051,"lon":5.36698,"is_reserved":false,"is_disabled":true,"rental_uris":{"android":"levelo://app?vid=5b76ad3a-410f-4799-991b-536d5aafe407","ios":"levelo://app?vid=5b76ad3a-410f-4799-991b-536d5aafe407"},"vehicle_type_id":"4","last_reported":1739559992,"current_range_meters":22800,"station_id":"ce4bgrp2rcd13ifvqc9g","pricing_plan_id":"cebpf4jnsgd1na2vs0mg"},{"bike_id":"21688434-0736-4c72-af43-d6a1ef76973b","system_id":"levelo_inurba_marseille","lat":43.27562,"lon":5.38419,"is_reserved":false,"is_disabled":false,"rental_uris":{"android":"levelo://app?vid=21688434-0736-4c72-af43-d6a1ef76973b","ios":"levelo://app?vid=21688434-0736-4c72-af43-d6a1ef76973b"},"vehicle_type_id":"4","last_reported":1739559992,"current_range_meters":26800,"station_id":"ce4bhh92rcd13ifvqfi0","pricing_plan_id":"cebpf4jnsgd1na2vs0mg"},{"bike_id":"9963e216-9016-4d39-9ca5-116cfee81a50","system_id":"levelo_inurba_marseille","lat":43.2942,"lon":5.38627,"is_reserved":false,"is_disabled":false,"rental_uris":{"android":"levelo://app?vid=9963e216-9016-4d39-9ca5-116cfee81a50","ios":"levelo://app?vid=9963e216-9016-4d39-9ca5-116cfee81a50"},"vehicle_type_id":"4","last_reported":1739559992,"current_range_meters":35200,"station_id":"ce4bh2h2rcd13ifvqdh0","pricing_plan_id":"cebpf4jnsgd1na2vs0mg"},{"bike_id":"093dcec6-2bbf-48d9-8bcf-4175e56dbd4a","system_id":"levelo_inurba_marseille","lat":43.28001,"lon":5.40017,"is_reserved":false,"is_disabled":false,"rental_uris":{"android":"levelo://app?vid=093dcec6-2bbf-48d9-8bcf-4175e56dbd4a","ios":"levelo://app?vid=093dcec6-2bbf-48d9-8bcf-4175e56dbd4a"},"vehicle_type_id":"4","last_reported":1739559992,"current_range_meters":31200,"station_id":"ce4bho92rcd13ifvqh4g","pricing_plan_id":"cebpf4jnsgd1na2vs0mg"},{"bike_id":"039f2d88-8811-413a-ae58-90344410f717","system_id":"levelo_inurba_marseille","lat":43.27997,"lon":5.40015,"is_reserved":false,"is_disabled":false,"rental_uris":{"android":"levelo://app?vid=039f2d88-8811-413a-ae58-90344410f717","ios":"levelo://app?vid=039f2d88-8811-413a-ae58-90344410f717"},"vehicle_type_id":"4","last_reported":1739559992,"current_range_meters":25200,"station_id":"ce4bho92rcd13ifvqh4g","pricing_plan_id":"cebpf4jnsgd1na2vs0mg"},{"bike_id":"a3a95077-3171-4558-91d0-0cd7ee8239cc","system_id":"levelo_inurba_marseille","lat":43.28414,"lon":5.37502,"is_reserved":false,"is_disabled":false,"rental_uris":{"android":"levelo://app?vid=a3a95077-3171-4558-91d0-0cd7ee8239cc","ios":"levelo://app?vid=a3a95077-3171-4558-91d0-0cd7ee8239cc"},"vehicle_type_id":"4","last_reported":1739559992,"current_range_meters":20800,"station_id":"ce4bh412rcd13ifvqds0","pricing_plan_id":"cebpf4jnsgd1na2vs0mg"},{"bike_id":"d16524fd-1846-457f-b283-98f894d30df6","system_id":"levelo_inurba_marseille","lat":43.2857,"lon":5.39494,"is_reserved":false,"is_disabled":false,"rental_uris":{"android":"levelo://app?vid=d16524fd-1846-457f-b283-98f894d30df6","ios":"levelo://app?vid=d16524fd-1846-457f-b283-98f894d30df6"},"vehicle_type_id":"4","last_reported":1739559992,"current_range_meters":20000,"station_id":"ce4bh292rcd13ifvqdg0","pricing_plan_id":"cebpf4jnsgd1na2vs0mg"},{"bike_id":"3643e00e-d557-45c3-9c3a-156a3faa0884","system_id":"levelo_inurba_marseille","lat":43.24391,"lon":5.37061,"is_reserved":false,"is_disabled":false,"rental_uris":{"android":"levelo://app?vid=3643e00e-d557-45c3-9c3a-156a3faa0884","ios":"levelo://app?vid=3643e00e-d557-45c3-9c3a-156a3faa0884"},"vehicle_type_id":"4","last_reported":1739559992,"current_range_meters":21600,"station_id":"ce4bhhh2rcd13ifvqfk0","pricing_plan_id":"cebpf4jnsgd1na2vs0mg"},{"bike_id":"f00a432d-6e5e-4ca0-a2b9-2ac1fcc4c4f4","system_id":"levelo_inurba_marseille","lat":43.27994,"lon":5.40018,"is_reserved":false,"is_disabled":false,"rental_uris":{"android":"levelo://app?vid=f00a432d-6e5e-4ca0-a2b9-2ac1fcc4c4f4","ios":"levelo://app?vid=f00a432d-6e5e-4ca0-a2b9-2ac1fcc4c4f4"},"vehicle_type_id":"4","last_reported":1739559992,"current_range_meters":20400,"station_id":"ce4bho92rcd13ifvqh4g","pricing_plan_id":"cebpf4jnsgd1na2vs0mg"},{"bike_id":"a0f3b484-b0e7-4ed2-8c7c-86fc1fec1e14","system_id":"levelo_inurba_marseille","lat":43.29619,"lon":5.37189,"is_reserved":false,"is_disabled":false,"rental_uris":{"android":"levelo://app?vid=a0f3b484-b0e7-4ed2-8c7c-86fc1fec1e14","ios":"levelo://app?vid=a0f3b484-b0e7-4ed2-8c7c-86fc1fec1e14"},"vehicle_type_id":"4","last_reported":1739559992,"current_range_meters":32000,"station_id":"ce4bgnh2rcd13ifvqc0g","pricing_plan_id":"cebpf4jnsgd1na2vs0mg"},{"bike_id":"64925662-2f77-48cb-923a-4ddcaabec186","system_id":"levelo_inurba_marseille","lat":43.28671,"lon":5.38662,"is_reserved":false,"is_disabled":false,"rental_uris":{"android":"levelo://app?vid=64925662-2f77-48cb-923a-4ddcaabec186","ios":"levelo://app?vid=64925662-2f77-48cb-923a-4ddcaabec186"},"vehicle_type_id":"4","last_reported":1739559992,"current_range_meters":38400,"station_id":"ce4bh492rcd13ifvqdug","pricing_plan_id":"cebpf4jnsgd1na2vs0mg"},{"bike_id":"4a860be5-f1f3-4789-b420-cf4e5e70ff75","system_id":"levelo_inurba_marseille","lat":43.29894,"lon":5.38145,"is_reserved":false,"is_disabled":false,"rental_uris":{"android":"levelo://app?vid=4a860be5-f1f3-4789-b420-cf4e5e70ff75","ios":"levelo://app?vid=4a860be5-f1f3-4789-b420-cf4e5e70ff75"},"vehicle_type_id":"4","last_reported":1739559992,"current_range_meters":38400,"station_id":"ce4bgj12rcd13ifvqbc0","pricing_plan_id":"cebpf4jnsgd1na2vs0mg"},{"bike_id":"7bea3487-1228-4eba-968c-e1e0fea8a17e","system_id":"levelo_inurba_marseille","lat":43.30423,"lon":5.39743,"is_reserved":false,"is_disabled":false,"rental_uris":{"android":"levelo://app?vid=7bea3487-1228-4eba-968c-e1e0fea8a17e","ios":"levelo://app?vid=7bea3487-1228-4eba-968c-e1e0fea8a17e"},"vehicle_type_id":"4","last_reported":1739559992,"current_range_meters":7200,"station_id":"ce4bh092rcd13ifvqd20","pricing_plan_id":"cebpf4jnsgd1na2vs0mg"},{"bike_id":"e42ec3e5-59ca-4e80-9c98-5acc3546e20f","system_id":"levelo_inurba_marseille","lat":43.29574,"lon":5.39982,"is_reserved":false,"is_disabled":false,"rental_uris":{"android":"levelo://app?vid=e42ec3e5-59ca-4e80-9c98-5acc3546e20f","ios":"levelo://app?vid=e42ec3e5-59ca-4e80-9c98-5acc3546e20f"},"vehicle_type_id":"4","last_reported":1739559992,"current_range_meters":28400,"station_id":"ce4bh312rcd13ifvqdj0","pricing_plan_id":"cebpf4jnsgd1na2vs0mg"},{"bike_id":"6ee9f485-19c3-4da4-a4ea-860958c3dd6a","system_id":"levelo_inurba_marseille","lat":43.2957,"lon":5.39966,"is_reserved":false,"is_disabled":true,"rental_uris":{"android":"levelo://app?vid=6ee9f485-19c3-4da4-a4ea-860958c3dd6a","ios":"levelo://app?vid=6ee9f485-19c3-4da4-a4ea-860958c3dd6a"},"vehicle_type_id":"4","last_reported":1739559992,"current_range_meters":38800,"station_id":"ce4bh312rcd13ifvqdj0","pricing_plan_id":"cebpf4jnsgd1na2vs0mg"},{"bike_id":"4b3b058c-c5a1-4062-abcf-879b0c789eeb","system_id":"levelo_inurba_marseille","lat":43.29513,"lon":5.39037,"is_reserved":false,"is_disabled":false,"rental_uris":{"android":"levelo://app?vid=4b3b058c-c5a1-4062-abcf-879b0c789eeb","ios":"levelo://app?vid=4b3b058c-c5a1-4062-abcf-879b0c789eeb"},"vehicle_type_id":"4","last_reported":1739559992,"current_range_meters":38800,"station_id":"ce4bh3p2rcd13ifvqdp0","pricing_plan_id":"cebpf4jnsgd1na2vs0mg"},{"bike_id":"2df63343-96c0-495f-b7c8-a21f325a4653","system_id":"levelo_inurba_marseille","lat":43.29532,"lon":5.37505,"is_reserved":false,"is_disabled":false,"rental_uris":{"android":"levelo://app?vid=2df63343-96c0-495f-b7c8-a21f325a4653","ios":"levelo://app?vid=2df63343-96c0-495f-b7c8-a21f325a4653"},"vehicle_type_id":"4","last_reported":1739559992,"current_range_meters":37600,"station_id":"ce4bgkp2rcd13ifvqbmg","pricing_plan_id":"cebpf4jnsgd1na2vs0mg"},{"bike_id":"90d6b28b-d2ff-499b-949c-5a4f2ff008b1","system_id":"levelo_inurba_marseille","lat":43.24391,"lon":5.37002,"is_reserved":false,"is_disabled":false,"rental_uris":{"android":"levelo://app?vid=90d6b28b-d2ff-499b-949c-5a4f2ff008b1","ios":"levelo://app?vid=90d6b28b-d2ff-499b-949c-5a4f2ff008b1"},"vehicle_type_id":"4","last_reported":1739559992,"current_range_meters":39200,"station_id":"ce4bhhh2rcd13ifvqfk0","pricing_plan_id":"cebpf4jnsgd1na2vs0mg"},{"bike_id":"b7e517c3-9dc8-4a4a-aada-46ba42403708","system_id":"levelo_inurba_marseille","lat":43.29877,"lon":5.39732,"is_reserved":false,"is_disabled":true,"rental_uris":{"android":"levelo://app?vid=b7e517c3-9dc8-4a4a-aada-46ba42403708","ios":"levelo://app?vid=b7e517c3-9dc8-4a4a-aada-46ba42403708"},