{"last_updated":1691924673,"ttl":30,"version":"2.2","data":{"bikes":[{"bike_id":"313cab3f-f02d-4dd6-972f-c3a1f747bda4","system_id":"levelo_inurba_marseille","lat":43.31341,"lon":5.367098,"is_reserved":false,"is_disabled":false,"rental_uris":{"android":"levelo://app?vid=313cab3f-f02d-4dd6-972f-c3a1f747bda4","ios":"levelo://app?vid=313cab3f-f02d-4dd6-972f-c3a1f747bda4"},"vehicle_type_id":"4","last_reported":1691924674,"current_range_meters":31200,"station_id":"ce4bgr92rcd13ifvqc6g","pricing_plan_id":"free"},{"bike_id":"d8b082c7-4a9c-4e4c-97b6-5e68317c2c74","system_id":"levelo_inurba_marseille","lat":43.31341,"lon":5.367098,"is_reserved":false,"is_disabled":false,"rental_uris":{"android":"levelo://app?vid=d8b082c7-4a9c-4e4c-97b6-5e68317c2c74","ios":"levelo://app?vid=d8b082c7-4a9c-4e4c-97b6-5e68317c2c74"},"vehicle_type_id":"4","last_reported":1691924674,"current_range_meters":31200,"station_id":"ce4bgr92rcd13ifvqc6g","pricing_plan_id":"free"},{"bike_id":"0d060bad-e690-4c4c-8fd3-aa9ff027cc60","system_id":"levelo_inurba_marseille","lat":43.31354,"lon":5.3671,"is_reserved":false,"is_disabled":false,"rental_uris":{"android":"levelo://app?vid=0d060bad-e690-4c4c-8fd3-aa9ff027cc60","ios":"levelo://app?vid=0d060bad-e690-4c4c-8fd3-aa9ff027cc60"},"vehicle_type_id":"4","last_reported":1691924674,"current_range_meters":31200,"station_id":"ce4bgr92rcd13ifvqc6g","pricing_plan_id":"free"},{"bike_id":"f7d16ff1-2903-4ef8-8b63-2a44bb7de3f9","system_id":"levelo_inurba_marseille","lat":43.312239,"lon":5.368562,"is_reserved":false,"is_disabled":false,"rental_uris":{"android":"levelo://app?vid=f7d16ff1-2903-4ef8-8b63-2a44bb7de3f9","ios":"levelo://app?vid=f7d16ff1-2903-4ef8-8b63-2a44bb7de3f9"},"vehicle_type_id":"4","last_reported":1691924674,"current_range_meters":22800,"station_id":"ce4bgl92rcd13ifvqbq0","pricing_plan_id":"free"},{"bike_id":"58945f6e-b039-4c1f-8243-744ed21874c3","system_id":"levelo_inurba_marseille","lat":43.312239,"lon":5.368562,"is_reserved":false,"is_disabled":false,"rental_uris":{"android":"levelo://app?vid=58945f6e-b039-4c1f-8243-744ed21874c3","ios":"levelo://app?vid=58945f6e-b039-4c1f-8243-744ed21874c3"},"vehicle_type_id":"4","last_reported":1691924674,"current_range_meters":800,"station_id":"ce4bgl92rcd13ifvqbq0","pricing_plan_id":"free"},{"bike_id":"0077a192-ccdc-4075-884e-d895dd29ee22","system_id":"levelo_inurba_marseille","lat":43.31472,"lon":5.36927,"is_reserved":false,"is_disabled":false,"rental_uris":{"android":"levelo://app?vid=0077a192-ccdc-4075-884e-d895dd29ee22","ios":"levelo://app?vid=0077a192-ccdc-4075-884e-d895dd29ee22"},"vehicle_type_id":"4","last_reported":1691924674,"current_range_meters":26400,"station_id":"","pricing_plan_id":"free"},{"bike_id":"63b668ce-5081-4603-a6f1-046383acc813","system_id":"levelo_inurba_marseille","lat":43.309076,"lon":5.368465,"is_reserved":false,"is_disabled":false,"rental_uris":{"android":"levelo://app?vid=63b668ce-5081-4603-a6f1-046383acc813","ios":"levelo://app?vid=63b668ce-5081-4603-a6f1-046383acc813"},"vehicle_type_id":"4","last_reported":1691924674,"current_range_meters":30400,"station_id":"ce4bgn92rcd13ifvqbvg","pricing_plan_id":"free"},{"bike_id":"938aa30d-92e6-446d-84d2-267b1d646ee9","system_id":"levelo_inurba_marseille","lat":43.314811,"lon":5.373104,"is_reserved":false,"is_disabled":false,"rental_uris":{"android":"levelo://app?vid=938aa30d-92e6-446d-84d2-267b1d646ee9","ios":"levelo://app?vid=938aa30d-92e6-446d-84d2-267b1d646ee9"},"vehicle_type_id":"4","last_reported":1691924674,"current_range_meters":14800,"station_id":"ce4bgt12rcd13ifvqcd0","pricing_plan_id":"free"},{"bike_id":"b48836a4-fda4-4d6a-aaa9-dc5d6f3b1f2b","system_id":"levelo_inurba_marseille","lat":43.30896,"lon":5.37184,"is_reserved":false,"is_disabled":false,"rental_uris":{"android":"levelo://app?vid=b48836a4-fda4-4d6a-aaa9-dc5d6f3b1f2b","ios":"levelo://app?vid=b48836a4-fda4-4d6a-aaa9-dc5d6f3b1f2b"},"vehicle_type_id":"4","last_reported":1691924674,"current_range_meters":2000,"station_id":"ce4bguh2rcd13ifvqckg","pricing_plan_id":"free"},{"bike_id":"7c43575f-f43a-49dc-a78e-f40555fce059","system_id":"levelo_inurba_marseille","lat":43.305712,"lon":5.365641,"is_reserved":false,"is_disabled":false,"rental_uris":{"android":"levelo://app?vid=7c43575f-f43a-49dc-a78e-f40555fce059","ios":"levelo://app?vid=7c43575f-f43a-49dc-a78e-f40555fce059"},"vehicle_type_id":"4","last_reported":1691924674,"current_range_meters":28000,"station_id":"ce4bgs12rcd13ifvqcag","pricing_plan_id":"free"},{"bike_id":"ef704da4-e751-4bb2-9fbe-9b806a1a226c","system_id":"levelo_inurba_marseille","lat":43.305714,"lon":5.365633,"is_reserved":false,"is_disabled":false,"rental_uris":{"android":"levelo://app?vid=ef704da4-e751-4bb2-9fbe-9b806a1a226c","ios":"levelo://app?vid=ef704da4-e751-4bb2-9fbe-9b806a1a226c"},"vehicle_type_id":"4","last_reported":1691924674,"current_range_meters":26400,"station_id":"ce4bgs12rcd13ifvqcag","pricing_plan_id":"free"},{"bike_id":"b46e606d-969d-4bbf-b3b9-b9601fe71b74","system_id":"levelo_inurba_marseille","lat":43.305706,"lon":5.365654,"is_reserved":false,"is_disabled":false,"rental_uris":{"android":"levelo://app?vid=b46e606d-969d-4bbf-b3b9-b9601fe71b74","ios":"levelo://app?vid=b46e606d-969d-4bbf-b3b9-b9601fe71b74"},"vehicle_type_id":"4","last_reported":1691924674,"current_range_meters":27600,"station_id":"ce4bgs12rcd13ifvqcag","pricing_plan_id":"free"},{"bike_id":"b41a32b9-b35c-4545-a25d-f034e90e7c8d","system_id":"levelo_inurba_marseille","lat":43.305706,"lon":5.365654,"is_reserved":false,"is_disabled":false,"rental_uris":{"android":"levelo://app?vid=b41a32b9-b35c-4545-a25d-f034e90e7c8d","ios":"levelo://app?vid=b41a32b9-b35c-4545-a25d-f034e90e7c8d"},"vehicle_type_id":"4","last_reported":1691924674,"current_range_meters":31200,"station_id":"ce4bgs12rcd13ifvqcag","pricing_plan_id":"free"},{"bike_id":"a6e102d4-d419-4597-a5af-30456c2f71ab","system_id":"levelo_inurba_marseille","lat":43.3053,"lon":5.36715,"is_reserved":false,"is_disabled":false,"rental_uris":{"android":"levelo://app?vid=a6e102d4-d419-4597-a5af-30456c2f71ab","ios":"levelo://app?vid=a6e102d4-d419-4597-a5af-30456c2f71ab"},"vehicle_type_id":"4","last_reported":1691924674,"current_range_meters":31200,"station_id":"ce4bgrp2rcd13ifvqc9g","pricing_plan_id":"free"},{"bike_id":"0824ae78-815d-4d79-9283-2916be0f8182","system_id":"levelo_inurba_marseille","lat":43.305368,"lon":5.367343,"is_reserved":false,"is_disabled":false,"rental_uris":{"android":"levelo://app?vid=0824ae78-815d-4d79-9283-2916be0f8182","ios":"levelo://app?vid=0824ae78-815d-4d79-9283-2916be0f8182"},"vehicle_type_id":"4","last_reported":1691924674,"current_range_meters":21200,"station_id":"ce4bgrp2rcd13ifvqc9g","pricing_plan_id":"free"},{"bike_id":"6b4e8b4f-3db3-44ba-af12-686aeff5001c","system_id":"levelo_inurba_marseille","lat":43.305368,"lon":5.367343,"is_reserved":false,"is_disabled":false,"rental_uris":{"android":"levelo://app?vid=6b4e8b4f-3db3-44ba-af12-686aeff5001c","ios":"levelo://app?vid=6b4e8b4f-3db3-44ba-af12-686aeff5001c"},"vehicle_type_id":"4","last_reported":1691924674,"current_range_meters":2000,"station_id":"ce4bgrp2rcd13ifvqc9g","pricing_plan_id":"free"},{"bike_id":"a20cf55c-b0b6-4eab-8f08-85615f7ab007","system_id":"levelo_inurba_marseille","lat":43.305706,"lon":5.365654,"is_reserved":false,"is_disabled":false,"rental_uris":{"android":"levelo://app?vid=a20cf55c-b0b6-4eab-8f08-85615f7ab007","ios":"levelo://app?vid=a20cf55c-b0b6-4eab-8f08-85615f7ab007"},"vehicle_type_id":"4","last_reported":1691924674,"current_range_meters":30400,"station_id":"ce4bgs12rcd13ifvqcag","pricing_plan_id":"free"},{"bike_id":"6168008f-1227-4ebf-8075-d2d6bcb48873","system_id":"levelo_inurba_marseille","lat":43.305706,"lon":5.365654,"is_reserved":false,"is_disabled":false,"rental_uris":{"android":"levelo://app?vid=6168008f-1227-4ebf-8075-d2d6bcb48873","ios":"levelo://app?vid=6168008f-1227-4ebf-8075-d2d6bcb48873"},"vehicle_type_id":"4","last_reported":1691924674,"current_range_meters":31200,"station_id":"ce4bgs12rcd13ifvqcag","pricing_plan_id":"free"},{"bike_id":"f723a466-86dd-43ed-a377-48644740d596","system_id":"levelo_inurba_marseille","lat":43.305706,"lon":5.365654,"is_reserved":false,"is_disabled":false,"rental_uris":{"android":"levelo://app?vid=f723a466-86dd-43ed-a377-48644740d596","ios":"levelo://app?vid=f723a466-86dd-43ed-a377-48644740d596"},"vehicle_type_id":"4","last_reported":1691924674,"current_range_meters":30000,"station_id":"ce4bgs12rcd13ifvqcag","pricing_plan_id":"free"},{"bike_id":"dc0104e0-a400-4ae7-b312-cd0732acf9da","system_id":"levelo_inurba_marseille","lat":43.305989,"lon":5.37225,"is_reserved":false,"is_disabled":false,"rental_uris":{"android":"levelo://app?vid=dc0104e0-a400-4ae7-b312-cd0732acf9da","ios":"levelo://app?vid=dc0104e0-a400-4ae7-b312-cd0732acf9da"},"vehicle_type_id":"4","last_reported":1691924674,"current_range_meters":30800,"station_id":"ce4bgqh2rcd13ifvqc4g","pricing_plan_id":"free"},{"bike_id":"b5228675-7a9d-4fde-b609-e88489ba9866","system_id":"levelo_inurba_marseille","lat":43.305989,"lon":5.37225,"is_reserved":false,"is_disabled":false,"rental_uris":{"android":"levelo://app?vid=b5228675-7a9d-4fde-b609-e88489ba9866","ios":"levelo://app?vid=b5228675-7a9d-4fde-b609-e88489ba9866"},"vehicle_type_id":"4","last_reported":1691924674,"current_range_meters":30000,"station_id":"ce4bgqh2rcd13ifvqc4g","pricing_plan_id":"free"},{"bike_id":"3b645562-bb47-4987-bc60-a4899659c56e","system_id":"levelo_inurba_marseille","lat":43.305989,"lon":5.37225,"is_reserved":false,"is_disabled":false,"rental_uris":{"android":"levelo://app?vid=3b645562-bb47-4987-bc60-a4899659c56e","ios":"levelo://app?vid=3b645562-bb47-4987-bc60-a4899659c56e"},"vehicle_type_id":"4","last_reported":1691924674,"current_range_meters":31200,"station_id":"ce4bgqh2rcd13ifvqc4g","pricing_plan_id":"free"},{"bike_id":"880b8e07-fefa-4bf7-a937-7f6a9da70876","system_id":"levelo_inurba_marseille","lat":43.305989,"lon":5.37225,"is_reserved":false,"is_disabled":false,"rental_uris":{"android":"levelo://app?vid=880b8e07-fefa-4bf7-a937-7f6a9da70876","ios":"levelo://app?vid=880b8e07-fefa-4bf7-a937-7f6a9da70876"},"vehicle_type_id":"4","last_reported":1691924674,"current_range_meters":31200,"station_id":"ce4bgqh2rcd13ifvqc4g","pricing_plan_id":"free"},{"bike_id":"aac10256-f69e-4556-83d8-faad27200778","system_id":"levelo_inurba_marseille","lat":43.3112,"lon":5.3777,"is_reserved":false,"is_disabled":false,"rental_uris":{"android":"levelo://app?vid=aac10256-f69e-4556-83d8-faad27200778","ios":"levelo://app?vid=aac10256-f69e-4556-83d8-faad27200778"},"vehicle_type_id":"4","last_reported":1691924674,"current_range_meters":23600,"station_id":"ce4bgt92rcd13ifvqcg0","pricing_plan_id":"free"},{"bike_id":"0b41ddf6-1860-4525-bed0-452a903d3f7c","system_id":"levelo_inurba_marseille","lat":43.3192,"lon":5.37449,"is_reserved":false,"is_disabled":false,"rental_uris":{"android":"levelo://app?vid=0b41ddf6-1860-4525-bed0-452a903d3f7c","ios":"levelo://app?vid=0b41ddf6-1860-4525-bed0-452a903d3f7c"},"vehicle_type_id":"4","last_reported":1691924674,"current_range_meters":16800,"station_id":"","pricing_plan_id":"free"},{"bike_id":"de460d34-bb09-4664-b305-4061da085597","system_id":"levelo_inurba_marseille","lat":43.31869,"lon":5.37705,"is_reserved":false,"is_disabled":false,"rental_uris":{"android":"levelo://app?vid=de460d34-bb09-4664-b305-4061da085597","ios":"levelo://app?vid=de460d34-bb09-4664-b305-4061da085597"},"vehicle_type_id":"4","last_reported":1691924674,"current_range_meters":20800,"station_id":"","pricing_plan_id":"free"},{"bike_id":"061c8d67-017d-436c-a69d-4739d7109d5f","system_id":"levelo_inurba_marseille","lat":43.31529,"lon":5.3802,"is_reserved":false,"is_disabled":false,"rental_uris":{"android":"levelo://app?vid=061c8d67-017d-436c-a69d-4739d7109d5f","ios":"levelo://app?vid=061c8d67-017d-436c-a69d-4739d7109d5f"},"vehicle_type_id":"4","last_reported":1691924674,"current_range_meters":12800,"station_id":"ce4bhsp2rcd13ifvqi50","pricing_plan_id":"free"},{"bike_id":"b5698e6e-13cb-4874-a1f7-a559392d3af4","system_id":"levelo_inurba_marseille","lat":43.315289,"lon":5.380349,"is_reserved":false,"is_disabled":false,"rental_uris":{"android":"levelo://app?vid=b5698e6e-13cb-4874-a1f7-a559392d3af4","ios":"levelo://app?vid=b5698e6e-13cb-4874-a1f7-a559392d3af4"},"vehicle_type_id":"4","last_reported":1691924674,"current_range_meters":31200,"station_id":"ce4bhsp2rcd13ifvqi50","pricing_plan_id":"free"},{"bike_id":"6a0232fa-80b1-4833-b4f3-d079d6504d6f","system_id":"levelo_inurba_marseille","lat":43.31534,"lon":5.38026,"is_reserved":false,"is_disabled":false,"rental_uris":{"android":"levelo://app?vid=6a0232fa-80b1-4833-b4f3-d079d6504d6f","ios":"levelo://app?vid=6a0232fa-80b1-4833-b4f3-d079d6504d6f"},"vehicle_type_id":"4","last_reported":1691924674,"current_range_meters":28000,"station_id":"ce4bhsp2rcd13ifvqi50","pricing_plan_id":"free"},{"bike_id":"1d4001ce-b10f-4932-8cf8-d78ab4da1b32","system_id":"levelo_inurba_marseille","lat":43.31527,"lon":5.38029,"is_reserved":false,"is_disabled":false,"rental_uris":{"android":"levelo://app?vid=1d4001ce-b10f-4932-8cf8-d78ab4da1b32","ios":"levelo://app?vid=1d4001ce-b10f-4932-8cf8-d78ab4da1b32"},"vehicle_type_id":"4","last_reported":1691924674,"current_range_meters":14400,"station_id":"ce4bhsp2rcd13ifvqi50","pricing_plan_id":"free"},{"bike_id":"f25a0e1f-48f4-44f5-b33e-ffb242f99f4e","system_id":"levelo_inurba_marseille","lat":43.30191,"lon":5.36602,"is_reserved":false,"is_disabled":false,"rental_uris":{"android":"levelo://app?vid=f25a0e1f-48f4-44f5-b33e-ffb242f99f4e","ios":"levelo://app?vid=f25a0e1f-48f4-44f5-b33e-ffb242f99f4e"},"vehicle_type_id":"4","last_reported":1691924674,"current_range_meters":7200,"station_id":"ce4bgrh2rcd13ifvqc8g","pricing_plan_id":"free"},{"bike_id":"b2a91bb1-c933-486e-9411-cc8a31554d8e","system_id":"levelo_inurba_marseille","lat":43.30801,"lon":5.38141,"is_reserved":false,"is_disabled":false,"rental_uris":{"android":"levelo://app?vid=b2a91bb1-c933-486e-9411-cc8a31554d8e","ios":"levelo://app?vid=b2a91bb1-c933-486e-9411-cc8a31554d8e"},"vehicle_type_id":"4","last_reported":1691924674,"current_range_meters":31200,"station_id":"ce4bgt12rcd13ifvqce0","pricing_plan_id":"free"},{"bike_id":"938cec51-2917-439d-9e8f-f307ae6c82c6","system_id":"levelo_inurba_marseille","lat":43.30805,"lon":5.38152,"is_reserved":false,"is_disabled":false,"rental_uris":{"android":"levelo://app?vid=938cec51-2917-439d-9e8f-f307ae6c82c6","ios":"levelo://app?vid=938cec51-2917-439d-9e8f-f307ae6c82c6"},"vehicle_type_id":"4","last_reported":1691924674,"current_range_meters":30000,"station_id":"ce4bgt12rcd13ifvqce0","pricing_plan_id":"free"},{"bike_id":"f7c48f58-f680-48b3-b0c0-13f39db4587a","system_id":"levelo_inurba_marseille","lat":43.30801,"lon":5.3815,"is_reserved":false,"is_disabled":false,"rental_uris":{"android":"levelo://app?vid=f7c48f58-f680-48b3-b0c0-13f39db4587a","ios":"levelo://app?vid=f7c48f58-f680-48b3-b0c0-13f39db4587a"},"vehicle_type_id":"4","last_reported":1691924674,"current_range_meters":31200,"station_id":"ce4bgt12rcd13ifvqce0","pricing_plan_id":"free"},{"bike_id":"d67f85c7-dfe0-4d26-8a79-07f5c282a78f","system_id":"levelo_inurba_marseille","lat":43.30799,"lon":5.38153,"is_reserved":false,"is_disabled":false,"rental_uris":{"android":"levelo://app?vid=d67f85c7-dfe0-4d26-8a79-07f5c282a78f","ios":"levelo://app?vid=d67f85c7-dfe0-4d26-8a79-07f5c282a78f"},"vehicle_type_id":"4","last_reported":1691924674,"current_range_meters":6000,"station_id":"ce4bgt12rcd13ifvqce0","pricing_plan_id":"free"},{"bike_id":"f18bba03-e212-4cd9-86f1-6ffd7956f84b","system_id":"levelo_inurba_marseille","lat":43.308012,"lon":5.381511,"is_reserved":false,"is_disabled":false,"rental_uris":{"android":"levelo://app?vid=f18bba03-e212-4cd9-86f1-6ffd7956f84b","ios":"levelo://app?vid=f18bba03-e212-4cd9-86f1-6ffd7956f84b"},"vehicle_type_id":"4","last_reported":1691924674,"current_range_meters":24800,"station_id":"ce4bgt12rcd13ifvqce0","pricing_plan_id":"free"},{"bike_id":"abc41536-1eba-46ce-9660-cc30f8936ad9","system_id":"levelo_inurba_marseille","lat":43.308012,"lon":5.381511,"is_reserved":false,"is_disabled":false,"rental_uris":{"android":"levelo://app?vid=abc41536-1eba-46ce-9660-cc30f8936ad9","ios":"levelo://app?vid=abc41536-1eba-46ce-9660-cc30f8936ad9"},"vehicle_type_id":"4","last_reported":1691924674,"current_range_meters":31200,"station_id":"ce4bgt12rcd13ifvqce0","pricing_plan_id":"free"},{"bike_id":"921e8b63-682a-4fb3-90fb-d913bd83c24c","system_id":"levelo_inurba_marseille","lat":43.3079,"lon":5.38154,"is_reserved":false,"is_disabled":false,"rental_uris":{"android":"levelo://app?vid=921e8b63-682a-4fb3-90fb-d913bd83c24c","ios":"levelo://app?vid=921e8b63-682a-4fb3-90fb-d913bd83c24c"},"vehicle_type_id":"4","last_reported":1691924674,"current_range_meters":31200,"station_id":"ce4bgt12rcd13ifvqce0","pricing_plan_id":"free"},{"bike_id":"6733dc9f-e5f1-4d83-8e11-0e48eb72e2f2","system_id":"levelo_inurba_marseille","lat":43.30794,"lon":5.38158,"is_reserved":false,"is_disabled":false,"rental_uris":{"android":"levelo://app?vid=6733dc9f-e5f1-4d83-8e11-0e48eb72e2f2","ios":"levelo://app?vid=6733dc9f-e5f1-4d83-8e11-0e48eb72e2f2"},"vehicle_type_id":"4","last_reported":1691924674,"current_range_meters":19200,"station_id":"ce4bgt12rcd13ifvqce0","pricing_plan_id":"free"},{"bike_id":"f9d86313-cb00-4ed4-b05e-52d4b9b3c5a8","system_id":"levelo_inurba_marseille","lat":43.308012,"lon":5.381511,"is_reserved":false,"is_disabled":false,"rental_uris":{"android":"levelo://app?vid=f9d86313-cb00-4ed4-b05e-52d4b9b3c5a8","ios":"levelo://app?vid=f9d86313-cb00-4ed4-b05e-52d4b9b3c5a8"},"vehicle_type_id":"4","last_reported":1691924674,"current_range_meters":22400,"station_id":"ce4bgt12rcd13ifvqce0","pricing_plan_id":"free"},{"bike_id":"fad61764-41ad-4111-b920-4e46ffb47f2a","system_id":"levelo_inurba_marseille","lat":43.30794,"lon":5.38166,"is_reserved":false,"is_disabled":false,"rental_uris":{"android":"levelo://app?vid=fad61764-41ad-4111-b920-4e46ffb47f2a","ios":"levelo://app?vid=fad61764-41ad-4111-b920-4e46ffb47f2a"},"vehicle_type_id":"4","last_reported":1691924674,"current_range_meters":10800,"station_id":"ce4bgt12rcd13ifvqce0","pricing_plan_id":"free"},{"bike_id":"e1783aa9-0189-4636-9019-253eb1fae059","system_id":"levelo_inurba_marseille","lat":43.304606,"lon":5.379026,"is_reserved":false,"is_disabled":false,"rental_uris":{"android":"levelo://app?vid=e1783aa9-0189-4636-9019-253eb1fae059","ios":"levelo://app?vid=e1783aa9-0189-4636-9019-253eb1fae059"},"vehicle_type_id":"4","last_reported":1691924674,"current_range_meters":27200,"station_id":"ce4bgup2rcd13ifvqcn0","pricing_plan_id":"free"},{"bike_id":"87e090c7-590b-451a-9f7a-67d1a87cfe19","system_id":"levelo_inurba_marseille","lat":43.304606,"lon":5.379026,"is_reserved":false,"is_disabled":false,"rental_uris":{"android":"levelo://app?vid=87e090c7-590b-451a-9f7a-67d1a87cfe19","ios":"levelo://app?vid=87e090c7-590b-451a-9f7a-67d1a87cfe19"},"vehicle_type_id":"4","last_reported":1691924674,"current_range_meters":4000,"station_id":"ce4bgup2rcd13ifvqcn0","pricing_plan_id":"free"},{"bike_id":"ff336bd1-d70e-4d21-97ae-5ea823f49e51","system_id":"levelo_inurba_marseille","lat":43.304606,"lon":5.379026,"is_reserved":false,"is_disabled":false,"rental_uris":{"android":"levelo://app?vid=ff336bd1-d70e-4d21-97ae-5ea823f49e51","ios":"levelo://app?vid=ff336bd1-d70e-4d21-97ae-5ea823f49e51"},"vehicle_type_id":"4","last_reported":1691924674,"current_range_meters":31200,"station_id":"ce4bgup2rcd13ifvqcn0","pricing_plan_id":"free"},{"bike_id":"9fa7bd6c-bbcb-48a7-a9cb-38da229cbbb9","system_id":"levelo_inurba_marseille","lat":43.304606,"lon":5.379026,"is_reserved":false,"is_disabled":false,"rental_uris":{"android":"levelo://app?vid=9fa7bd6c-bbcb-48a7-a9cb-38da229cbbb9","ios":"levelo://app?vid=9fa7bd6c-bbcb-48a7-a9cb-38da229cbbb9"},"vehicle_type_id":"4","last_reported":1691924674,"current_range_meters":31200,"station_id":"ce4bgup2rcd13ifvqcn0","pricing_plan_id":"free"},{"bike_id":"95bbbfde-6797-4cf8-9ade-a4757e1fdc87","system_id":"levelo_inurba_marseille","lat":43.304606,"lon":5.379026,"is_reserved":false,"is_disabled":false,"rental_uris":{"android":"levelo://app?vid=95bbbfde-6797-4cf8-9ade-a4757e1fdc87","ios":"levelo://app?vid=95bbbfde-6797-4cf8-9ade-a4757e1fdc87"},"vehicle_type_id":"4","last_reported":1691924674,"current_range_meters":30400,"station_id":"ce4bgup2rcd13ifvqcn0","pricing_plan_id":"free"},{"bike_id":"c0ebfafa-3740-4229-a0a9-7d305b3f8288","system_id":"levelo_inurba_marseille","lat":43.304606,"lon":5.379026,"is_reserved":false,"is_disabled":false,"rental_uris":{"android":"levelo://app?vid=c0ebfafa-3740-4229-a0a9-7d305b3f8288","ios":"levelo://app?vid=c0ebfafa-3740-4229-a0a9-7d305b3f8288"},"vehicle_type_id":"4","last_reported":1691924674,"current_range_meters":26800,"station_id":"ce4bgup2rcd13ifvqcn0","pricing_plan_id":"free"},{"bike_id":"753d40f7-ce75-45c1-beb7-383306a6ff22","system_id":"levelo_inurba_marseille","lat":43.304606,"lon":5.379026,"is_reserved":false,"is_disabled":false,"rental_uris":{"android":"levelo://app?vid=753d40f7-ce75-45c1-beb7-383306a6ff22","ios":"levelo://app?vid=753d40f7-ce75-45c1-beb7-383306a6ff22"},"vehicle_type_id":"4","last_reported":1691924674,"current_range_meters":28800,"station_id":"ce4bgup2rcd13ifvqcn0","pricing_plan_id":"free"},{"bike_id":"e7eba539-bb79-4d0e-b363-621b005ffccb","system_id":"levelo_inurba_marseille","lat":43.302784,"lon":5.377158,"is_reserved":false,"is_disabled":false,"rental_uris":{"android":"levelo://app?vid=e7eba539-bb79-4d0e-b363-621b005ffccb","ios":"levelo://app?vid=e7eba539-bb79-4d0e-b363-621b005ffccb"},"vehicle_type_id":"4","last_reported":1691924674,"current_range_meters":31200,"station_id":"ce4bguh2rcd13ifvqcj0","pricing_plan_id":"free"},{"bike_id":"769e9819-4f91-43df-9f92-b1327c8ed3ca","system_id":"levelo_inurba_marseille","lat":43.302784,"lon":5.377158,"is_reserved":false,"is_disabled":false,"rental_uris":{"android":"levelo://app?vid=769e9819-4f91-43df-9f92-b1327c8ed3ca","ios":"levelo://app?vid=769e9819-4f91-43df-9f92-b1327c8ed3ca"},"vehicle_type_id":"4","last_reported":1691924674,"current_range_meters":28800,"station_id":"ce4bguh2rcd13ifvqcj0","pricing_plan_id":"free"},{"bike_id":"92e46e1e-c2f2-4c08-a464-97d32b536faa","system_id":"levelo_inurba_marseille","lat":43.302784,"lon":5.377158,"is_reserved":false,"is_disabled":false,"rental_uris":{"android":"levelo://app?vid=92e46e1e-c2f2-4c08-a464-97d32b536faa","ios":"levelo://app?vid=92e46e1e-c2f2-4c08-a464-97d32b536faa"},"vehicle_type_id":"4","last_reported":1691924674,"current_range_meters":31200,"station_id":"ce4bguh2rcd13ifvqcj0","pricing_plan_id":"free"},{"bike_id":"3e72e3df-54e2-4962-a805-fcb0838ecbb9","system_id":"levelo_inurba_marseille","lat":43.302784,"lon":5.377158,"is_reserved":false,"is_disabled":false,"rental_uris":{"android":"levelo://app?vid=3e72e3df-54e2-4962-a805-fcb0838ecbb9","ios":"levelo://app?vid=3e72e3df-54e2-4962-a805-fcb0838ecbb9"},"vehicle_type_id":"4","last_reported":1691924674,"current_range_meters":24800,"station_id":"ce4bguh2rcd13ifvqcj0","pricing_plan_id":"free"},{"bike_id":"917a9348-fd9d-4300-a87c-bf5c87cb97da","system_id":"levelo_inurba_marseille","lat":43.302784,"lon":5.377158,"is_reserved":false,"is_disabled":false,"rental_uris":{"android":"levelo://app?vid=917a9348-fd9d-4300-a87c-bf5c87cb97da","ios":"levelo://app?vid=917a9348-fd9d-4300-a87c-bf5c87cb97da"},"vehicle_type_id":"4","last_reported":1691924674,"current_range_meters":31200,"station_id":"ce4bguh2rcd13ifvqcj0","pricing_plan_id":"free"},{"bike_id":"2c63e1f8-971e-4658-a046-323cd59e5e43","system_id":"levelo_inurba_marseille","lat":43.302784,"lon":5.377158,"is_reserved":false,"is_disabled":false,"rental_uris":{"android":"levelo://app?vid=2c63e1f8-971e-4658-a046-323cd59e5e43","ios":"levelo://app?vid=2c63e1f8-971e-4658-a046-323cd59e5e43"},"vehicle_type_id":"4","last_reported":1691924674,"current_range_meters":24400,"station_id":"ce4bguh2rcd13ifvqcj0","pricing_plan_id":"free"},{"bike_id":"2e3867cf-a089-413b-a236-843c790a8774","system_id":"levelo_inurba_marseille","lat":43.31993,"lon":5.38139,"is_reserved":false,"is_disabled":false,"rental_uris":{"android":"levelo://app?vid=2e3867cf-a089-413b-a236-843c790a8774","ios":"levelo://app?vid=2e3867cf-a089-413b-a236-843c790a8774"},"vehicle_type_id":"4","last_reported":1691924674,"current_range_meters":26800,"station_id":"ce4bhr12rcd13ifvqhpg","pricing_plan_id":"free"},{"bike_id":"6f8ef17a-7233-480b-bf5c-0670e618535f","system_id":"levelo_inurba_marseille","lat":43.319935,"lon":5.381699,"is_reserved":false,"is_disabled":false,"rental_uris":{"android":"levelo://app?vid=6f8ef17a-7233-480b-bf5c-0670e618535f","ios":"levelo://app?vid=6f8ef17a-7233-480b-bf5c-0670e618535f"},"vehicle_type_id":"4","last_reported":1691924674,"current_range_meters":31200,"station_id":"ce4bhr12rcd13ifvqhpg","pricing_plan_id":"free"},{"bike_id":"10ace6ff-ef76-4b4d-a04f-2ec52dd81c45","system_id":"levelo_inurba_marseille","lat":43.31993,"lon":5.38143,"is_reserved":false,"is_disabled":false,"rental_uris":{"android":"levelo://app?vid=10ace6ff-ef76-4b4d-a04f-2ec52dd81c45","ios":"levelo://app?vid=10ace6ff-ef76-4b4d-a04f-2ec52dd81c45"},"vehicle_type_id":"4","last_reported":1691924674,"current_range_meters":29600,"station_id":"ce4bhr12rcd13ifvqhpg","pricing_plan_id":"free"},{"bike_id":"5e5c1e16-199f-4ef0-8c70-2f49b894a02e","system_id":"levelo_inurba_marseille","lat":43.31996,"lon":5.38145,"is_reserved":false,"is_disabled":false,"rental_uris":{"android":"levelo://app?vid=5e5c1e16-199f-4ef0-8c70-2f49b894a02e","ios":"levelo://app?vid=5e5c1e16-199f-4ef0-8c70-2f49b894a02e"},"vehicle_type_id":"4","last_reported":1691924674,"current_range_meters":31200,"station_id":"ce4bhr12rcd13ifvqhpg","pricing_plan_id":"free"},{"bike_id":"5c520a1f-0fe0-438b-8102-58b76e955acb","system_id":"levelo_inurba_marseille","lat":43.3199,"lon":5.38151,"is_reserved":false,"is_disabled":false,"rental_uris":{"android":"levelo://app?vid=5c520a1f-0fe0-438b-8102-58b76e955acb","ios":"levelo://app?vid=5c520a1f-0fe0-438b-8102-58b76e955acb"},"vehicle_type_id":"4","last_reported":1691924674,"current_range_meters":31200,"station_id":"ce4bhr12rcd13ifvqhpg","pricing_plan_id":"free"},{"bike_id":"63566d2b-b520-4ccf-a0cf-dfac3229ca92","system_id":"levelo_inurba_marseille","lat":43.31996,"lon":5.38159,"is_reserved":false,"is_disabled":false,"rental_uris":{"android":"levelo://app?vid=63566d2b-b520-4ccf-a0cf-dfac3229ca92","ios":"levelo://app?vid=63566d2b-b520-4ccf-a0cf-dfac3229ca92"},"vehicle_type_id":"4","last_reported":1691924674,"current_range_meters":21600,"station_id":"ce4bhr12rcd13ifvqhpg","pricing_plan_id":"free"},{"bike_id":"41ae03c1-c023-441d-940b-35318de045dd","system_id":"levelo_inurba_marseille","lat":43.319935,"lon":5.381699,"is_reserved":false,"is_disabled":false,"rental_uris":{"android":"levelo://app?vid=41ae03c1-c023-441d-940b-35318de045dd","ios":"levelo://app?vid=41ae03c1-c023-441d-940b-35318de045dd"},"vehicle_type_id":"4","last_reported":1691924674,"current_range_meters":23600,"station_id":"ce4bhr12rcd13ifvqhpg","pricing_plan_id":"free"},{"bike_id":"53a56358-5376-4ff6-96d8-72dfac565852","system_id":"levelo_inurba_marseille","lat":43.31363,"lon":5.38487,"is_reserved":false,"is_disabled":false,"rental_uris":{"android":"levelo://app?vid=53a56358-5376-4ff6-96d8-72dfac565852","ios":"levelo://app?vid=53a56358-5376-4ff6-96d8-72dfac565852"},"vehicle_type_id":"4","last_reported":1691924674,"current_range_meters":18400,"station_id":"ce4bgt92rcd13ifvqcf0","pricing_plan_id":"free"},{"bike_id":"5862cf65-3976-44ce-9fed-af4ff88a2492","system_id":"levelo_inurba_marseille","lat":43.29936,"lon":5.36545,"is_reserved":false,"is_disabled":false,"rental_uris":{"android":"levelo://app?vid=5862cf65-3976-44ce-9fed-af4ff88a2492","ios":"levelo://app?vid=5862cf65-3976-44ce-9fed-af4ff88a2492"},"vehicle_type_id":"4","last_reported":1691924674,"current_range_meters":24800,"station_id":"ce4bgm92rcd13ifvqbr0","pricing_plan_id":"free"},{"bike_id":"dabd71a9-be06-476e-96c6-d4962a3b4729","system_id":"levelo_inurba_marseille","lat":43.29968,"lon":5.37167,"is_reserved":false,"is_disabled":false,"rental_uris":{"android":"levelo://app?vid=dabd71a9-be06-476e-96c6-d4962a3b4729","ios":"levelo://app?vid=dabd71a9-be06-476e-96c6-d4962a3b4729"},"vehicle_type_id":"4","last_reported":1691924674,"current_range_meters":9200,"station_id":"ce4bgr92rcd13ifvqc7g","pricing_plan_id":"free"},{"bike_id":"a21e0508-99a0-4115-8b3f-30714e35471b","system_id":"levelo_inurba_marseille","lat":43.298433,"lon":5.362774,"is_reserved":false,"is_disabled":false,"rental_uris":{"android":"levelo://app?vid=a21e0508-99a0-4115-8b3f-30714e35471b","ios":"levelo://app?vid=a21e0508-99a0-4115-8b3f-30714e35471b"},"vehicle_type_id":"4","last_reported":1691924674,"current_range_meters":31200,"station_id":"ce4bgpp2rcd13ifvqc3g","pricing_plan_id":"free"},{"bike_id":"1cd61685-df09-4afa-894c-5c3bf760620a","system_id":"levelo_inurba_marseille","lat":43.298433,"lon":5.362774,"is_reserved":false,"is_disabled":false,"rental_uris":{"android":"levelo://app?vid=1cd61685-df09-4afa-894c-5c3bf760620a","ios":"levelo://app?vid=1cd61685-df09-4afa-894c-5c3bf760620a"},"vehicle_type_id":"4","last_reported":1691924674,"current_range_meters":14400,"station_id":"ce4bgpp2rcd13ifvqc3g","pricing_plan_id":"free"},{"bike_id":"bc363792-99cb-4605-9993-1c20e6f30b91","system_id":"levelo_inurba_marseille","lat":43.299243,"lon":5.374807,"is_reserved":false,"is_disabled":false,"rental_uris":{"android":"levelo://app?vid=bc363792-99cb-4605-9993-1c20e6f30b91","ios":"levelo://app?vid=bc363792-99cb-4605-9993-1c20e6f30b91"},"vehicle_type_id":"4","last_reported":1691924674,"current_range_meters":5200,"station_id":"ce4bgjh2rcd13ifvqbg0","pricing_plan_id":"free"},{"bike_id":"d230ada0-3511-4b18-9c76-3789b2dcc691","system_id":"levelo_inurba_marseille","lat":43.298433,"lon":5.362774,"is_reserved":false,"is_disabled":false,"rental_uris":{"android":"levelo://app?vid=d230ada0-3511-4b18-9c76-3789b2dcc691","ios":"levelo://app?vid=d230ada0-3511-4b18-9c76-3789b2dcc691"},"vehicle_type_id":"4","last_reported":1691924674,"current_range_meters":31200,"station_id":"ce4bgpp2rcd13ifvqc3g","pricing_plan_id":"free"},{"bike_id":"378ec7e6-247a-4331-bd6e-b0280ced449b","system_id":"levelo_inurba_marseille","lat":43.298433,"lon":5.362774,"is_reserved":false,"is_disabled":false,"rental_uris":{"android":"levelo://app?vid=378ec7e6-247a-4331-bd6e-b0280ced449b","ios":"levelo://app?vid=378ec7e6-247a-4331-bd6e-b0280ced449b"},"vehicle_type_id":"4","last_reported":1691924674,"current_range_meters":10000,"station_id":"ce4bgpp2rcd13ifvqc3g","pricing_plan_id":"free"},{"bike_id":"80ec23b9-dbea-4eb4-9804-922a69a96d11","system_id":"levelo_inurba_marseille","lat":43.298433,"lon":5.362774,"is_reserved":false,"is_disabled":false,"rental_uris":{"android":"levelo://app?vid=80ec23b9-dbea-4eb4-9804-922a69a96d11","ios":"levelo://app?vid=80ec23b9-dbea-4eb4-9804-922a69a96d11"},"vehicle_type_id":"4","last_reported":1691924674,"current_range_meters":16000,"station_id":"ce4bgpp2rcd13ifvqc3g","pricing_plan_id":"free"},{"bike_id":"a76e02df-2271-438c-abfc-e1dbbc60f431","system_id":"levelo_inurba_marseille","lat":43.298433,"lon":5.362774,"is_reserved":false,"is_disabled":false,"rental_uris":{"android":"levelo://app?vid=a76e02df-2271-438c-abfc-e1dbbc60f431","ios":"levelo://app?vid=a76e02df-2271-438c-abfc-e1dbbc60f431"},"vehicle_type_id":"4","last_reported":1691924674,"current_range_meters":29600,"station_id":"ce4bgpp2rcd13ifvqc3g","pricing_plan_id":"free"},{"bike_id":"9221f19b-974d-46de-8fe5-86cc0a11686f","system_id":"levelo_inurba_marseille","lat":43.298433,"lon":5.362774,"is_reserved":false,"is_disabled":false,"rental_uris":{"android":"levelo://app?vid=9221f19b-974d-46de-8fe5-86cc0a11686f","ios":"levelo://app?vid=9221f19b-974d-46de-8fe5-86cc0a11686f"},"vehicle_type_id":"4","last_reported":1691924674,"current_range_meters":24800,"station_id":"ce4bgpp2rcd13ifvqc3g","pricing_plan_id":"free"},{"bike_id":"13760563-080f-457d-9e61-692cf59bc4d6","system_id":"levelo_inurba_marseille","lat":43.298433,"lon":5.362774,"is_reserved":false,"is_disabled":false,"rental_uris":{"android":"levelo://app?vid=13760563-080f-457d-9e61-692cf59bc4d6","ios":"levelo://app?vid=13760563-080f-457d-9e61-692cf59bc4d6"},"vehicle_type_id":"4","last_reported":1691924674,"current_range_meters":30800,"station_id":"ce4bgpp2rcd13ifvqc3g","pricing_plan_id":"free"},{"bike_id":"05d5f453-8c2a-44ae-86ab-3b80abb9e4d5","system_id":"levelo_inurba_marseille","lat":43.298433,"lon":5.362774,"is_reserved":false,"is_disabled":false,"rental_uris":{"android":"levelo://app?vid=05d5f453-8c2a-44ae-86ab-3b80abb9e4d5","ios":"levelo://app?vid=05d5f453-8c2a-44ae-86ab-3b80abb9e4d5"},"vehicle_type_id":"4","last_reported":1691924674,"current_range_meters":13200,"station_id":"ce4bgpp2rcd13ifvqc3g","pricing_plan_id":"free"},{"bike_id":"5ffd8654-48cc-423e-89c3-504df484b559","system_id":"levelo_inurba_marseille","lat":43.298433,"lon":5.362774,"is_reserved":false,"is_disabled":false,"rental_uris":{"android":"levelo://app?vid=5ffd8654-48cc-423e-89c3-504df484b559","ios":"levelo://app?vid=5ffd8654-48cc-423e-89c3-504df484b559"},"vehicle_type_id":"4","last_reported":1691924674,"current_range_meters":20000,"station_id":"ce4bgpp2rcd13ifvqc3g","pricing_plan_id":"free"},{"bike_id":"a4bacd14-7e10-4654-99d3-392a9231a191","system_id":"levelo_inurba_marseille","lat":43.298433,"lon":5.362774,"is_reserved":false,"is_disabled":false,"rental_uris":{"android":"levelo://app?vid=a4bacd14-7e10-4654-99d3-392a9231a191","ios":"levelo://app?vid=a4bacd14-7e10-4654-99d3-392a9231a191"},"vehicle_type_id":"4","last_reported":1691924674,"current_range_meters":30000,"station_id":"ce4bgpp2rcd13ifvqc3g","pricing_plan_id":"free"},{"bike_id":"1895699f-2a19-487b-a467-9caed101508f","system_id":"levelo_inurba_marseille","lat":43.299243,"lon":5.37481,"is_reserved":false,"is_disabled":false,"rental_uris":{"android":"levelo://app?vid=1895699f-2a19-487b-a467-9caed101508f","ios":"levelo://app?vid=1895699f-2a19-487b-a467-9caed101508f"},"vehicle_type_id":"4","last_reported":1691924674,"current_range_meters":30800,"station_id":"ce4bgjh2rcd13ifvqbg0","pricing_plan_id":"free"},{"bike_id":"bfd1cb13-3587-4990-9a29-53021796cc7a","system_id":"levelo_inurba_marseille","lat":43.299243,"lon":5.37481,"is_reserved":false,"is_disabled":false,"rental_uris":{"android":"levelo://app?vid=bfd1cb13-3587-4990-9a29-53021796cc7a","ios":"levelo://app?vid=bfd1cb13-3587-4990-9a29-53021796cc7a"},"vehicle_type_id":"4","last_reported":1691924674,"current_range_meters":31600,"station_id":"ce4bgjh2rcd13ifvqbg0","pricing_plan_id":"free"},{"bike_id":"29d0cb09-e4f8-415e-954e-90a8011fd93b","system_id":"levelo_inurba_marseille","lat":43.299243,"lon":5.37481,"is_reserved":false,"is_disabled":false,"rental_uris":{"android":"levelo://app?vid=29d0cb09-e4f8-415e-954e-90a8011fd93b","ios":"levelo://app?vid=29d0cb09-e4f8-415e-954e-90a8011fd93b"},"vehicle_type_id":"4","last_reported":1691924674,"current_range_meters":30400,"station_id":"ce4bgjh2rcd13ifvqbg0","pricing_plan_id":"free"},{"bike_id":"c67c1342-0d6a-458b-b7d2-87f78b556284","system_id":"levelo_inurba_marseille","lat":43.299243,"lon":5.37481,"is_reserved":false,"is_disabled":false,"rental_uris":{"android":"levelo://app?vid=c67c1342-0d6a-458b-b7d2-87f78b556284","ios":"levelo://app?vid=c67c1342-0d6a-458b-b7d2-87f78b556284"},"vehicle_type_id":"4","last_reported":1691924674,"current_range_meters":28000,"station_id":"ce4bgjh2rcd13ifvqbg0","pricing_plan_id":"free"},{"bike_id":"fa862a44-0f2b-4257-bdb9-e6a990f48ad9","system_id":"levelo_inurba_marseille","lat":43.299243,"lon":5.374807,"is_reserved":false,"is_disabled":false,"rental_uris":{"android":"levelo://app?vid=fa862a44-0f2b-4257-bdb9-e6a990f48ad9","ios":"levelo://app?vid=fa862a44-0f2b-4257-bdb9-e6a990f48ad9"},"vehicle_type_id":"4","last_reported":1691924674,"current_range_meters":31200,"station_id":"ce4bgjh2rcd13ifvqbg0","pricing_plan_id":"free"},{"bike_id":"026ee3db-f828-4ad6-9e78-43e60a812318","system_id":"levelo_inurba_marseille","lat":43.32279,"lon":5.38257,"is_reserved":false,"is_disabled":false,"rental_uris":{"android":"levelo://app?vid=026ee3db-f828-4ad6-9e78-43e60a812318","ios":"levelo://app?vid=026ee3db-f828-4ad6-9e78-43e60a812318"},"vehicle_type_id":"4","last_reported":1691924674,"current_range_meters":16400,"station_id":"ce4bhr12rcd13ifvqhqg","pricing_plan_id":"free"},{"bike_id":"5cef4262-f054-4974-9121-fc3d341ebbb0","system_id":"levelo_inurba_marseille","lat":43.32282,"lon":5.38267,"is_reserved":false,"is_disabled":false,"rental_uris":{"android":"levelo://app?vid=5cef4262-f054-4974-9121-fc3d341ebbb0","ios":"levelo://app?vid=5cef4262-f054-4974-9121-fc3d341ebbb0"},"vehicle_type_id":"4","last_reported":1691924674,"current_range_meters":9200,"station_id":"ce4bhr12rcd13ifvqhqg","pricing_plan_id":"free"},{"bike_id":"34544adb-53d3-44b1-86f1-bb8bc7dbf546","system_id":"levelo_inurba_marseille","lat":43.32285,"lon":5.38264,"is_reserved":false,"is_disabled":false,"rental_uris":{"android":"levelo://app?vid=34544adb-53d3-44b1-86f1-bb8bc7dbf546","ios":"levelo://app?vid=34544adb-53d3-44b1-86f1-bb8bc7dbf546"},"vehicle_type_id":"4","last_reported":1691924674,"current_range_meters":20800,"station_id":"ce4bhr12rcd13ifvqhqg","pricing_plan_id":"free"},{"bike_id":"ccde4fab-a619-4b85-80d1-631ae22c1186","system_id":"levelo_inurba_marseille","lat":43.32277,"lon":5.38277,"is_reserved":false,"is_disabled":false,"rental_uris":{"android":"levelo://app?vid=ccde4fab-a619-4b85-80d1-631ae22c1186","ios":"levelo://app?vid=ccde4fab-a619-4b85-80d1-631ae22c1186"},"vehicle_type_id":"4","last_reported":1691924674,"current_range_meters":15600,"station_id":"ce4bhr12rcd13ifvqhqg","pricing_plan_id":"free"},{"bike_id":"2a877c10-47b3-4336-884b-4186f2d4f096","system_id":"levelo_inurba_marseille","lat":43.32286,"lon":5.38267,"is_reserved":false,"is_disabled":false,"rental_uris":{"android":"levelo://app?vid=2a877c10-47b3-4336-884b-4186f2d4f096","ios":"levelo://app?vid=2a877c10-47b3-4336-884b-4186f2d4f096"},"vehicle_type_id":"4","last_reported":1691924674,"current_range_meters":10000,"station_id":"ce4bhr12rcd13ifvqhqg","pricing_plan_id":"free"},{"bike_id":"2e341b8a-19ca-467a-9062-4e524deac17d","system_id":"levelo_inurba_marseille","lat":43.32285,"lon":5.38269,"is_reserved":false,"is_disabled":false,"rental_uris":{"android":"levelo://app?vid=2e341b8a-19ca-467a-9062-4e524deac17d","ios":"levelo://app?vid=2e341b8a-19ca-467a-9062-4e524deac17d"},"vehicle_type_id":"4","last_reported":1691924674,"current_range_meters":24000,"station_id":"ce4bhr12rcd13ifvqhqg","pricing_plan_id":"free"},{"bike_id":"1b203c54-0be7-49b8-a54f-17ca79a8f7f4","system_id":"levelo_inurba_marseille","lat":43.32284,"lon":5.38271,"is_reserved":false,"is_disabled":false,"rental_uris":{"android":"levelo://app?vid=1b203c54-0be7-49b8-a54f-17ca79a8f7f4","ios":"levelo://app?vid=1b203c54-0be7-49b8-a54f-17ca79a8f7f4"},"vehicle_type_id":"4","last_reported":1691924674,"current_range_meters":16800,"station_id":"ce4bhr12rcd13ifvqhqg","pricing_plan_id":"free"},{"bike_id":"3d75ec31-9bc5-447c-81ba-d21539df621f","system_id":"levelo_inurba_marseille","lat":43.32283,"lon":5.38274,"is_reserved":false,"is_disabled":false,"rental_uris":{"android":"levelo://app?vid=3d75ec31-9bc5-447c-81ba-d21539df621f","ios":"levelo://app?vid=3d75ec31-9bc5-447c-81ba-d21539df621f"},"vehicle_type_id":"4","last_reported":1691924674,"current_range_meters":5600,"station_id":"ce4bhr12rcd13ifvqhqg","pricing_plan_id":"free"},{"bike_id":"cbdb1e2e-23aa-4305-8e8f-f1f9efca0a4f","system_id":"levelo_inurba_marseille","lat":43.32282,"lon":5.38278,"is_reserved":false,"is_disabled":false,"rental_uris":{"android":"levelo://app?vid=cbdb1e2e-23aa-4305-8e8f-f1f9efca0a4f","ios":"levelo://app?vid=cbdb1e2e-23aa-4305-8e8f-f1f9efca0a4f"},"vehicle_type_id":"4","last_reported":1691924674,"current_range_meters":18800,"station_id":"ce4bhr12rcd13ifvqhqg","pricing_plan_id":"free"},{"bike_id":"daf1c66e-67e4-446b-ab69-51ad2a5f2181","system_id":"levelo_inurba_marseille","lat":43.3229,"lon":5.3827,"is_reserved":false,"is_disabled":false,"rental_uris":{"android":"levelo://app?vid=daf1c66e-67e4-446b-ab69-51ad2a5f2181","ios":"levelo://app?vid=daf1c66e-67e4-446b-ab69-51ad2a5f2181"},"vehicle_type_id":"4","last_reported":1691924674,"current_range_meters":22400,"station_id":"ce4bhr12rcd13ifvqhqg","pricing_plan_id":"free"},{"bike_id":"4c0051b2-93b8-4cc5-a80a-2595421ac1f5","system_id":"levelo_inurba_marseille","lat":43.32285,"lon":5.38278,"is_reserved":false,"is_disabled":false,"rental_uris":{"android":"levelo://app?vid=4c0051b2-93b8-4cc5-a80a-2595421ac1f5","ios":"levelo://app?vid=4c0051b2-93b8-4cc5-a80a-2595421ac1f5"},"vehicle_type_id":"4","last_reported":1691924674,"current_range_meters":21600,"station_id":"ce4bhr12rcd13ifvqhqg","pricing_plan_id":"free"},{"bike_id":"454e4186-321d-4414-91ad-51d1deee69be","system_id":"levelo_inurba_marseille","lat":43.32292,"lon":5.38279,"is_reserved":false,"is_disabled":false,"rental_uris":{"android":"levelo://app?vid=454e4186-321d-4414-91ad-51d1deee69be","ios":"levelo://app?vid=454e4186-321d-4414-91ad-51d1deee69be"},"vehicle_type_id":"4","last_reported":1691924674,"current_range_meters":30000,"station_id":"ce4bhr12rcd13ifvqhqg","pricing_plan_id":"free"},{"bike_id":"53943a50-8d69-4b20-b459-cf6b8dbe01ba","system_id":"levelo_inurba_marseille","lat":43.32821,"lon":5.36694,"is_reserved":false,"is_disabled":false,"rental_uris":{"android":"levelo://app?vid=53943a50-8d69-4b20-b459-cf6b8dbe01ba","ios":"levelo://app?vid=53943a50-8d69-4b20-b459-cf6b8dbe01ba"},"vehicle_type_id":"4","last_reported":1691924674,"current_range_meters":1600,"station_id":"ce4bhs92rcd13ifvqi0g","pricing_plan_id":"free"},{"bike_id":"c11a3df8-6042-4dae-9c2b-44434cf23209","system_id":"levelo_inurba_marseille","lat":43.328371,"lon":5.366909,"is_reserved":false,"is_disabled":false,"rental_uris":{"android":"levelo://app?vid=c11a3df8-6042-4dae-9c2b-44434cf23209","ios":"levelo://app?vid=c11a3df8-6042-4dae-9c2b-44434cf23209"},"vehicle_type_id":"4","last_reported":1691924674,"current_range_meters":8000,"station_id":"ce4bhs92rcd13ifvqi0g","pricing_plan_id":"free"},{"bike_id":"ec9a3675-a78e-4c78-a064-c3d83a6bb132","system_id":"levelo_inurba_marseille","lat":43.32833,"lon":5.36678,"is_reserved":false,"is_disabled":false,"rental_uris":{"android":"levelo://app?vid=ec9a3675-a78e-4c78-a064-c3d83a6bb132","ios":"levelo://app?vid=ec9a3675-a78e-4c78-a064-c3d83a6bb132"},"vehicle_type_id":"4","last_reported":1691924674,"current_range_meters":26800,"station_id":"ce4bhs92rcd13ifvqi0g","pricing_plan_id":"free"},{"bike_id":"dd789220-e7b5-42c1-b9dc-dc4243148021","system_id":"levelo_inurba_marseille","lat":43.29712,"lon":5.36612,"is_reserved":false,"is_disabled":false,"rental_uris":{"android":"levelo://app?vid=dd789220-e7b5-42c1-b9dc-dc4243148021","ios":"levelo://app?vid=dd789220-e7b5-42c1-b9dc-dc4243148021"},"vehicle_type_id":"4","last_reported":1691924674,"current_range_meters":31200,"station_id":"ce4bgn12rcd13ifvqbt0","pricing_plan_id":"free"},{"bike_id":"2de22900-6e31-4015-bf41-9dee657dce82","system_id":"levelo_inurba_marseille","lat":43.29704,"lon":5.36611,"is_reserved":false,"is_disabled":false,"rental_uris":{"android":"levelo://app?vid=2de22900-6e31-4015-bf41-9dee657dce82","ios":"levelo://app?vid=2de22900-6e31-4015-bf41-9dee657dce82"},"vehicle_type_id":"4","last_reported":1691924674,"current_range_meters":30400,"station_id":"ce4bgn12rcd13ifvqbt0","pricing_plan_id":"free"},{"bike_id":"93c075fc-dd98-439c-b9c1-1a74e9757d26","system_id":"levelo_inurba_marseille","lat":43.29698,"lon":5.36619,"is_reserved":false,"is_disabled":false,"rental_uris":{"android":"levelo://app?vid=93c075fc-dd98-439c-b9c1-1a74e9757d26","ios":"levelo://app?vid=93c075fc-dd98-439c-b9c1-1a74e9757d26"},"vehicle_type_id":"4","last_reported":1691924674,"current_range_meters":1600,"station_id":"ce4bgn12rcd13ifvqbt0","pricing_plan_id":"free"},{"bike_id":"d5b7dc87-180d-4ba3-bca9-9f2261605ce2","system_id":"levelo_inurba_marseille","lat":43.29676,"lon":5.36595,"is_reserved":false,"is_disabled":false,"rental_uris":{"android":"levelo://app?vid=d5b7dc87-180d-4ba3-bca9-9f2261605ce2","ios":"levelo://app?vid=d5b7dc87-180d-4ba3-bca9-9f2261605ce2"},"vehicle_type_id":"4","last_reported":1691924674,"current_range_meters":14800,"station_id":"ce4bgn12rcd13ifvqbt0","pricing_plan_id":"free"},{"bike_id":"2f2a362f-4b47-43f2-a3b8-d760d8524066","system_id":"levelo_inurba_marseille","lat":43.29573,"lon":5.367355,"is_reserved":false,"is_disabled":false,"rental_uris":{"android":"levelo://app?vid=2f2a362f-4b47-43f2-a3b8-d760d8524066","ios":"levelo://app?vid=2f2a362f-4b47-43f2-a3b8-d760d8524066"},"vehicle_type_id":"4","last_reported":1691924674,"current_range_meters":31200,"station_id":"ce4bgph2rcd13ifvqc2g","pricing_plan_id":"free"},{"bike_id":"52f6d86f-fb6f-4037-bcf2-0f1a3e0396b0","system_id":"levelo_inurba_marseille","lat":43.29587,"lon":5.36739,"is_reserved":false,"is_disabled":false,"rental_uris":{"android":"levelo://app?vid=52f6d86f-fb6f-4037-bcf2-0f1a3e0396b0","ios":"levelo://app?vid=52f6d86f-fb6f-4037-bcf2-0f1a3e0396b0"},"vehicle_type_id":"4","last_reported":1691924674,"current_range_meters":23600,"station_id":"ce4bgph2rcd13ifvqc2g","pricing_plan_id":"free"},{"bike_id":"3a514c08-36de-4730-94d6-12615c6f48dd","system_id":"levelo_inurba_marseille","lat":43.29573,"lon":5.367355,"is_reserved":false,"is_disabled":false,"rental_uris":{"android":"levelo://app?vid=3a514c08-36de-4730-94d6-12615c6f48dd","ios":"levelo://app?vid=3a514c08-36de-4730-94d6-12615c6f48dd"},"vehicle_type_id":"4","last_reported":1691924674,"current_range_meters":20400,"station_id":"ce4bgph2rcd13ifvqc2g","pricing_plan_id":"free"},{"bike_id":"682760c0-7fcd-455c-8198-4cab1960585b","system_id":"levelo_inurba_marseille","lat":43.29579,"lon":5.36733,"is_reserved":false,"is_disabled":false,"rental_uris":{"android":"levelo://app?vid=682760c0-7fcd-455c-8198-4cab1960585b","ios":"levelo://app?vid=682760c0-7fcd-455c-8198-4cab1960585b"},"vehicle_type_id":"4","last_reported":1691924674,"current_range_meters":28400,"station_id":"ce4bgph2rcd13ifvqc2g","pricing_plan_id":"free"},{"bike_id":"9dfd5aaa-e2f6-4732-8ef5-0bcb3dbe5e1b","system_id":"levelo_inurba_marseille","lat":43.29573,"lon":5.367355,"is_reserved":false,"is_disabled":false,"rental_uris":{"android":"levelo://app?vid=9dfd5aaa-e2f6-4732-8ef5-0bcb3dbe5e1b","ios":"levelo://app?vid=9dfd5aaa-e2f6-4732-8ef5-0bcb3dbe5e1b"},"vehicle_type_id":"4","last_reported":1691924674,"current_range_meters":0,"station_id":"ce4bgph2rcd13ifvqc2g","pricing_plan_id":"free"},{"bike_id":"2c5541f4-976a-4c32-983b-a5e1f2bfa670","system_id":"levelo_inurba_marseille","lat":43.29576,"lon":5.36738,"is_reserved":false,"is_disabled":false,"rental_uris":{"android":"levelo://app?vid=2c5541f4-976a-4c32-983b-a5e1f2bfa670","ios":"levelo://app?vid=2c5541f4-976a-4c32-983b-a5e1f2bfa670"},"vehicle_type_id":"4","last_reported":1691924674,"current_range_meters":24000,"station_id":"ce4bgph2rcd13ifvqc2g","pricing_plan_id":"free"},{"bike_id":"a8672edb-9d54-4197-81e8-cbed58360031","system_id":"levelo_inurba_marseille","lat":43.29575,"lon":5.36738,"is_reserved":false,"is_disabled":false,"rental_uris":{"android":"levelo://app?vid=a8672edb-9d54-4197-81e8-cbed58360031","ios":"levelo://app?vid=a8672edb-9d54-4197-81e8-cbed58360031"},"vehicle_type_id":"4","last_reported":1691924674,"current_range_meters":27600,"station_id":"ce4bgph2rcd13ifvqc2g","pricing_plan_id":"free"},{"bike_id":"6bfe27b7-5fe2-4230-99b1-bcc4b80b78ac","system_id":"levelo_inurba_marseille","lat":43.29728,"lon":5.3768,"is_reserved":false,"is_disabled":false,"rental_uris":{"android":"levelo://app?vid=6bfe27b7-5fe2-4230-99b1-bcc4b80b78ac","ios":"levelo://app?vid=6bfe27b7-5fe2-4230-99b1-bcc4b80b78ac"},"vehicle_type_id":"4","last_reported":1691924674,"current_range_meters":31200,"station_id":"ce4bgkh2rcd13ifvqbl0","pricing_plan_id":"free"},{"bike_id":"7a3a4998-0319-4439-95e5-599862f5a652","system_id":"levelo_inurba_marseille","lat":43.296921,"lon":5.376579,"is_reserved":false,"is_disabled":false,"rental_uris":{"android":"levelo://app?vid=7a3a4998-0319-4439-95e5-599862f5a652","ios":"levelo://app?vid=7a3a4998-0319-4439-95e5-599862f5a652"},"vehicle_type_id":"4","last_reported":1691924674,"current_range_meters":31200,"station_id":"ce4bgkh2rcd13ifvqbl0","pricing_plan_id":"free"},{"bike_id":"3a07c603-ec80-4a45-bcb3-6f848a1f8bfb","system_id":"levelo_inurba_marseille","lat":43.29724,"lon":5.37697,"is_reserved":false,"is_disabled":false,"rental_uris":{"android":"levelo://app?vid=3a07c603-ec80-4a45-bcb3-6f848a1f8bfb","ios":"levelo://app?vid=3a07c603-ec80-4a45-bcb3-6f848a1f8bfb"},"vehicle_type_id":"4","last_reported":1691924674,"current_range_meters":17600,"station_id":"ce4bgkh2rcd13ifvqbl0","pricing_plan_id":"free"},{"bike_id":"78580a96-938a-49d3-b492-79726f31dcae","system_id":"levelo_inurba_marseille","lat":43.299028,"lon":5.381509,"is_reserved":false,"is_disabled":false,"rental_uris":{"android":"levelo://app?vid=78580a96-938a-49d3-b492-79726f31dcae","ios":"levelo://app?vid=78580a96-938a-49d3-b492-79726f31dcae"},"vehicle_type_id":"4","last_reported":1691924674,"current_range_meters":19600,"station_id":"ce4bgj12rcd13ifvqbc0","pricing_plan_id":"free"},{"bike_id":"9988bf4c-1754-4fcc-b433-51032d244f9d","system_id":"levelo_inurba_marseille","lat":43.29903,"lon":5.38135,"is_reserved":false,"is_disabled":false,"rental_uris":{"android":"levelo://app?vid=9988bf4c-1754-4fcc-b433-51032d244f9d","ios":"levelo://app?vid=9988bf4c-1754-4fcc-b433-51032d244f9d"},"vehicle_type_id":"4","last_reported":1691924674,"current_range_meters":25200,"station_id":"ce4bgj12rcd13ifvqbc0","pricing_plan_id":"free"},{"bike_id":"77600bcb-1377-416a-9b01-56485d975bc4","system_id":"levelo_inurba_marseille","lat":43.299028,"lon":5.381509,"is_reserved":false,"is_disabled":false,"rental_uris":{"android":"levelo://app?vid=77600bcb-1377-416a-9b01-56485d975bc4","ios":"levelo://app?vid=77600bcb-1377-416a-9b01-56485d975bc4"},"vehicle_type_id":"4","last_reported":1691924674,"current_range_meters":30800,"station_id":"ce4bgj12rcd13ifvqbc0","pricing_plan_id":"free"},{"bike_id":"86e8b2df-b25c-4be5-80d1-5d1103093dc4","system_id":"levelo_inurba_marseille","lat":43.309589,"lon":5.390258,"is_reserved":false,"is_disabled":false,"rental_uris":{"android":"levelo://app?vid=86e8b2df-b25c-4be5-80d1-5d1103093dc4","ios":"levelo://app?vid=86e8b2df-b25c-4be5-80d1-5d1103093dc4"},"vehicle_type_id":"4","last_reported":1691924674,"current_range_meters":24400,"station_id":"ce4bgup2rcd13ifvqco0","pricing_plan_id":"free"},{"bike_id":"3cc2c2c4-097a-40a4-89ed-1616c638cb14","system_id":"levelo_inurba_marseille","lat":43.317557,"lon":5.390173,"is_reserved":false,"is_disabled":false,"rental_uris":{"android":"levelo://app?vid=3cc2c2c4-097a-40a4-89ed-1616c638cb14","ios":"levelo://app?vid=3cc2c2c4-097a-40a4-89ed-1616c638cb14"},"vehicle_type_id":"4","last_reported":1691924674,"current_range_meters":32000,"station_id":"ce4bhqp2rcd13ifvqhng","pricing_plan_id":"free"},{"bike_id":"a75bdf28-ea4d-4de1-b981-e83dd688bf28","system_id":"levelo_inurba_marseille","lat":43.317557,"lon":5.390173,"is_reserved":false,"is_disabled":false,"rental_uris":{"android":"levelo://app?vid=a75bdf28-ea4d-4de1-b981-e83dd688bf28","ios":"levelo://app?vid=a75bdf28-ea4d-4de1-b981-e83dd688bf28"},"vehicle_type_id":"4","last_reported":1691924674,"current_range_meters":32000,"station_id":"ce4bhqp2rcd13ifvqhng","pricing_plan_id":"free"},{"bike_id":"81634f0c-d910-430a-a56c-f66f99bda6fc","system_id":"levelo_inurba_marseille","lat":43.317557,"lon":5.390173,"is_reserved":false,"is_disabled":false,"rental_uris":{"android":"levelo://app?vid=81634f0c-d910-430a-a56c-f66f99bda6fc","ios":"levelo://app?vid=81634f0c-d910-430a-a56c-f66f99bda6fc"},"vehicle_type_id":"4","last_reported":1691924674,"current_range_meters":12000,"station_id":"ce4bhqp2rcd13ifvqhng","pricing_plan_id":"free"},{"bike_id":"d220c1b3-bd32-4041-a1de-31d51cd6b34c","system_id":"levelo_inurba_marseille","lat":43.3176,"lon":5.39019,"is_reserved":false,"is_disabled":false,"rental_uris":{"android":"levelo://app?vid=d220c1b3-bd32-4041-a1de-31d51cd6b34c","ios":"levelo://app?vid=d220c1b3-bd32-4041-a1de-31d51cd6b34c"},"vehicle_type_id":"4","last_reported":1691924674,"current_range_meters":4800,"station_id":"ce4bhqp2rcd13ifvqhng","pricing_plan_id":"free"},{"bike_id":"d514f87d-1da8-4d41-8de2-e7b17de70724","system_id":"levelo_inurba_marseille","lat":43.317557,"lon":5.390173,"is_reserved":false,"is_disabled":false,"rental_uris":{"android":"levelo://app?vid=d514f87d-1da8-4d41-8de2-e7b17de70724","ios":"levelo://app?vid=d514f87d-1da8-4d41-8de2-e7b17de70724"},"vehicle_type_id":"4","last_reported":1691924674,"current_range_meters":31200,"station_id":"ce4bhqp2rcd13ifvqhng","pricing_plan_id":"free"},{"bike_id":"7f207164-bf07-4893-8486-3471c869ce11","system_id":"levelo_inurba_marseille","lat":43.298037,"lon":5.381066,"is_reserved":false,"is_disabled":false,"rental_uris":{"android":"levelo://app?vid=7f207164-bf07-4893-8486-3471c869ce11","ios":"levelo://app?vid=7f207164-bf07-4893-8486-3471c869ce11"},"vehicle_type_id":"4","last_reported":1691924674,"current_range_meters":27200,"station_id":"ce4bgip2rcd13ifvqbb0","pricing_plan_id":"free"},{"bike_id":"7f00ade9-3a33-4e07-ab90-47688d621342","system_id":"levelo_inurba_marseille","lat":43.298037,"lon":5.381066,"is_reserved":false,"is_disabled":false,"rental_uris":{"android":"levelo://app?vid=7f00ade9-3a33-4e07-ab90-47688d621342","ios":"levelo://app?vid=7f00ade9-3a33-4e07-ab90-47688d621342"},"vehicle_type_id":"4","last_reported":1691924674,"current_range_meters":18000,"station_id":"ce4bgip2rcd13ifvqbb0","pricing_plan_id":"free"},{"bike_id":"384d648f-b58d-4c9b-92ff-94a937c50372","system_id":"levelo_inurba_marseille","lat":43.30433,"lon":5.38888,"is_reserved":false,"is_disabled":false,"rental_uris":{"android":"levelo://app?vid=384d648f-b58d-4c9b-92ff-94a937c50372","ios":"levelo://app?vid=384d648f-b58d-4c9b-92ff-94a937c50372"},"vehicle_type_id":"4","last_reported":1691924674,"current_range_meters":27600,"station_id":"ce4bgk12rcd13ifvqbi0","pricing_plan_id":"free"},{"bike_id":"158c7bc3-5e7e-4e43-9249-14771c456949","system_id":"levelo_inurba_marseille","lat":43.3044,"lon":5.38895,"is_reserved":false,"is_disabled":false,"rental_uris":{"android":"levelo://app?vid=158c7bc3-5e7e-4e43-9249-14771c456949","ios":"levelo://app?vid=158c7bc3-5e7e-4e43-9249-14771c456949"},"vehicle_type_id":"4","last_reported":1691924674,"current_range_meters":15600,"station_id":"ce4bgk12rcd13ifvqbi0","pricing_plan_id":"free"},{"bike_id":"a0083d7d-0a70-4300-a643-161940feaa19","system_id":"levelo_inurba_marseille","lat":43.304274,"lon":5.388873,"is_reserved":false,"is_disabled":false,"rental_uris":{"android":"levelo://app?vid=a0083d7d-0a70-4300-a643-161940feaa19","ios":"levelo://app?vid=a0083d7d-0a70-4300-a643-161940feaa19"},"vehicle_type_id":"4","last_reported":1691924674,"current_range_meters":22800,"station_id":"ce4bgk12rcd13ifvqbi0","pricing_plan_id":"free"},{"bike_id":"e841ca80-1e4e-4f7b-8953-2dba273dc157","system_id":"levelo_inurba_marseille","lat":43.30429,"lon":5.38888,"is_reserved":false,"is_disabled":false,"rental_uris":{"android":"levelo://app?vid=e841ca80-1e4e-4f7b-8953-2dba273dc157","ios":"levelo://app?vid=e841ca80-1e4e-4f7b-8953-2dba273dc157"},"vehicle_type_id":"4","last_reported":1691924674,"current_range_meters":20800,"station_id":"ce4bgk12rcd13ifvqbi0","pricing_plan_id":"free"},{"bike_id":"6ad690d3-a2da-4707-9463-77d8b978329d","system_id":"levelo_inurba_marseille","lat":43.30435,"lon":5.38894,"is_reserved":false,"is_disabled":false,"rental_uris":{"android":"levelo://app?vid=6ad690d3-a2da-4707-9463-77d8b978329d","ios":"levelo://app?vid=6ad690d3-a2da-4707-9463-77d8b978329d"},"vehicle_type_id":"4","last_reported":1691924674,"current_range_meters":15600,"station_id":"ce4bgk12rcd13ifvqbi0","pricing_plan_id":"free"},{"bike_id":"e2e7844d-bd51-4add-ba37-39b2f52ef806","system_id":"levelo_inurba_marseille","lat":43.2978,"lon":5.38107,"is_reserved":false,"is_disabled":false,"rental_uris":{"android":"levelo://app?vid=e2e7844d-bd51-4add-ba37-39b2f52ef806","ios":"levelo://app?vid=e2e7844d-bd51-4add-ba37-39b2f52ef806"},"vehicle_type_id":"4","last_reported":1691924674,"current_range_meters":1600,"station_id":"ce4bgip2rcd13ifvqbb0","pricing_plan_id":"free"},{"bike_id":"cf5f6059-97ba-4fc7-a2ca-37e741c7082b","system_id":"levelo_inurba_marseille","lat":43.2978,"lon":5.3811,"is_reserved":false,"is_disabled":false,"rental_uris":{"android":"levelo://app?vid=cf5f6059-97ba-4fc7-a2ca-37e741c7082b","ios":"levelo://app?vid=cf5f6059-97ba-4fc7-a2ca-37e741c7082b"},"vehicle_type_id":"4","last_reported":1691924674,"current_range_meters":5200,"station_id":"ce4bgip2rcd13ifvqbb0","pricing_plan_id":"free"},{"bike_id":"a4df99ce-0488-49dd-a888-94686f562e88","system_id":"levelo_inurba_marseille","lat":43.295748,"lon":5.37522,"is_reserved":false,"is_disabled":false,"rental_uris":{"android":"levelo://app?vid=a4df99ce-0488-49dd-a888-94686f562e88","ios":"levelo://app?vid=a4df99ce-0488-49dd-a888-94686f562e88"},"vehicle_type_id":"4","last_reported":1691924674,"current_range_meters":28000,"station_id":"ce4bgh92rcd13ifvqb50","pricing_plan_id":"free"},{"bike_id":"e02314fc-4169-4203-91ce-032cbcce4fa5","system_id":"levelo_inurba_marseille","lat":43.304274,"lon":5.388873,"is_reserved":false,"is_disabled":false,"rental_uris":{"android":"levelo://app?vid=e02314fc-4169-4203-91ce-032cbcce4fa5","ios":"levelo://app?vid=e02314fc-4169-4203-91ce-032cbcce4fa5"},"vehicle_type_id":"4","last_reported":1691924674,"current_range_meters":24800,"station_id":"ce4bgk12rcd13ifvqbi0","pricing_plan_id":"free"},{"bike_id":"42615bc3-309f-4ece-9d79-ae43b9050b94","system_id":"levelo_inurba_marseille","lat":43.295279,"lon":5.375048,"is_reserved":false,"is_disabled":false,"rental_uris":{"android":"levelo://app?vid=42615bc3-309f-4ece-9d79-ae43b9050b94","ios":"levelo://app?vid=42615bc3-309f-4ece-9d79-ae43b9050b94"},"vehicle_type_id":"4","last_reported":1691924674,"current_range_meters":0,"station_id":"ce4bgkp2rcd13ifvqbmg","pricing_plan_id":"free"},{"bike_id":"ef503da3-5b73-4822-b4bc-3c9890880661","system_id":"levelo_inurba_marseille","lat":43.29962,"lon":5.38494,"is_reserved":false,"is_disabled":false,"rental_uris":{"android":"levelo://app?vid=ef503da3-5b73-4822-b4bc-3c9890880661","ios":"levelo://app?vid=ef503da3-5b73-4822-b4bc-3c9890880661"},"vehicle_type_id":"4","last_reported":1691924674,"current_range_meters":12000,"station_id":"","pricing_plan_id":"free"},{"bike_id":"cd9512ec-69f5-40bd-a008-4244321a0980","system_id":"levelo_inurba_marseille","lat":43.32365,"lon":5.38878,"is_reserved":false,"is_disabled":false,"rental_uris":{"android":"levelo://app?vid=cd9512ec-69f5-40bd-a008-4244321a0980","ios":"levelo://app?vid=cd9512ec-69f5-40bd-a008-4244321a0980"},"vehicle_type_id":"4","last_reported":1691924674,"current_range_meters":17200,"station_id":"ce4bhqp2rcd13ifvqhog","pricing_plan_id":"free"},{"bike_id":"b3acd50d-d5ee-4bc5-95ca-062c7b53daef","system_id":"levelo_inurba_marseille","lat":43.32367,"lon":5.388836,"is_reserved":false,"is_disabled":false,"rental_uris":{"android":"levelo://app?vid=b3acd50d-d5ee-4bc5-95ca-062c7b53daef","ios":"levelo://app?vid=b3acd50d-d5ee-4bc5-95ca-062c7b53daef"},"vehicle_type_id":"4","last_reported":1691924674,"current_range_meters":16000,"station_id":"ce4bhqp2rcd13ifvqhog","pricing_plan_id":"free"},{"bike_id":"c9a3c3ca-5300-4a91-9f4b-a4af5595df86","system_id":"levelo_inurba_marseille","lat":43.32364,"lon":5.38879,"is_reserved":false,"is_disabled":false,"rental_uris":{"android":"levelo://app?vid=c9a3c3ca-5300-4a91-9f4b-a4af5595df86","ios":"levelo://app?vid=c9a3c3ca-5300-4a91-9f4b-a4af5595df86"},"vehicle_type_id":"4","last_reported":1691924674,"current_range_meters":29600,"station_id":"ce4bhqp2rcd13ifvqhog","pricing_plan_id":"free"},{"bike_id":"38fd874f-7dd2-4d8f-a140-b79ff2b67088","system_id":"levelo_inurba_marseille","lat":43.32364,"lon":5.38885,"is_reserved":false,"is_disabled":false,"rental_uris":{"android":"levelo://app?vid=38fd874f-7dd2-4d8f-a140-b79ff2b67088","ios":"levelo://app?vid=38fd874f-7dd2-4d8f-a140-b79ff2b67088"},"vehicle_type_id":"4","last_reported":1691924674,"current_range_meters":24800,"station_id":"ce4bhqp2rcd13ifvqhog","pricing_plan_id":"free"},{"bike_id":"f2f4db6e-d111-4d65-acc1-8b804ffb8458","system_id":"levelo_inurba_marseille","lat":43.32364,"lon":5.38886,"is_reserved":false,"is_disabled":false,"rental_uris":{"android":"levelo://app?vid=f2f4db6e-d111-4d65-acc1-8b804ffb8458","ios":"levelo://app?vid=f2f4db6e-d111-4d65-acc1-8b804ffb8458"},"vehicle_type_id":"4","last_reported":1691924674,"current_range_meters":20000,"station_id":"ce4bhqp2rcd13ifvqhog","pricing_plan_id":"free"},{"bike_id":"bde900a9-cec3-4383-9830-0297c0623ef5","system_id":"levelo_inurba_marseille","lat":43.32367,"lon":5.388836,"is_reserved":false,"is_disabled":false,"rental_uris":{"android":"levelo://app?vid=bde900a9-cec3-4383-9830-0297c0623ef5","ios":"levelo://app?vid=bde900a9-cec3-4383-9830-0297c0623ef5"},"vehicle_type_id":"4","last_reported":1691924674,"current_range_meters":31600,"station_id":"ce4bhqp2rcd13ifvqhog","pricing_plan_id":"free"},{"bike_id":"5e84c512-195d-48fb-bf7b-198da60b8cfd","system_id":"levelo_inurba_marseille","lat":43.32367,"lon":5.38886,"is_reserved":false,"is_disabled":false,"rental_uris":{"android":"levelo://app?vid=5e84c512-195d-48fb-bf7b-198da60b8cfd","ios":"levelo://app?vid=5e84c512-195d-48fb-bf7b-198da60b8cfd"},"vehicle_type_id":"4","last_reported":1691924674,"current_range_meters":31200,"station_id":"ce4bhqp2rcd13ifvqhog","pricing_plan_id":"free"},{"bike_id":"32dd7654-0133-47e2-9c18-cc94c07dd34e","system_id":"levelo_inurba_marseille","lat":43.293249,"lon":5.371578,"is_reserved":false,"is_disabled":false,"rental_uris":{"android":"levelo://app?vid=32dd7654-0133-47e2-9c18-cc94c07dd34e","ios":"levelo://app?vid=32dd7654-0133-47e2-9c18-cc94c07dd34e"},"vehicle_type_id":"4","last_reported":1691924674,"current_range_meters":22400,"station_id":"ce4bgh92rcd13ifvqb40","pricing_plan_id":"free"},{"bike_id":"dbe406a0-e31d-4174-932b-0d8d584d17c2","system_id":"levelo_inurba_marseille","lat":43.292749,"lon":5.368398,"is_reserved":false,"is_disabled":false,"rental_uris":{"android":"levelo://app?vid=dbe406a0-e31d-4174-932b-0d8d584d17c2","ios":"levelo://app?vid=dbe406a0-e31d-4174-932b-0d8d584d17c2"},"vehicle_type_id":"4","last_reported":1691924674,"current_range_meters":30400,"station_id":"ce4bhbp2rcd13ifvqesg","pricing_plan_id":"free"},{"bike_id":"0429d3ce-15de-49f1-883a-60b4243afd47","system_id":"levelo_inurba_marseille","lat":43.305994,"lon":5.393687,"is_reserved":false,"is_disabled":false,"rental_uris":{"android":"levelo://app?vid=0429d3ce-15de-49f1-883a-60b4243afd47","ios":"levelo://app?vid=0429d3ce-15de-49f1-883a-60b4243afd47"},"vehicle_type_id":"4","last_reported":1691924674,"current_range_meters":6000,"station_id":"ce4bh0p2rcd13ifvqd80","pricing_plan_id":"free"},{"bike_id":"99149aa9-ab63-43a9-b7ff-46e213a15b86","system_id":"levelo_inurba_marseille","lat":43.302992,"lon":5.392136,"is_reserved":false,"is_disabled":false,"rental_uris":{"android":"levelo://app?vid=99149aa9-ab63-43a9-b7ff-46e213a15b86","ios":"levelo://app?vid=99149aa9-ab63-43a9-b7ff-46e213a15b86"},"vehicle_type_id":"4","last_reported":1691924674,"current_range_meters":28800,"station_id":"ce4bgkh2rcd13ifvqbk0","pricing_plan_id":"free"},{"bike_id":"1a7578c2-753a-4e5d-b1e0-f956c1f410b9","system_id":"levelo_inurba_marseille","lat":43.302992,"lon":5.392136,"is_reserved":false,"is_disabled":false,"rental_uris":{"android":"levelo://app?vid=1a7578c2-753a-4e5d-b1e0-f956c1f410b9","ios":"levelo://app?vid=1a7578c2-753a-4e5d-b1e0-f956c1f410b9"},"vehicle_type_id":"4","last_reported":1691924674,"current_range_meters":14800,"station_id":"ce4bgkh2rcd13ifvqbk0","pricing_plan_id":"free"},{"bike_id":"fd70979b-c3c6-4bd7-91f1-4f151e0e8385","system_id":"levelo_inurba_marseille","lat":43.302992,"lon":5.392136,"is_reserved":false,"is_disabled":false,"rental_uris":{"android":"levelo://app?vid=fd70979b-c3c6-4bd7-91f1-4f151e0e8385","ios":"levelo://app?vid=fd70979b-c3c6-4bd7-91f1-4f151e0e8385"},"vehicle_type_id":"4","last_reported":1691924674,"current_range_meters":30400,"station_id":"ce4bgkh2rcd13ifvqbk0","pricing_plan_id":"free"},{"bike_id":"eeae0ce0-cc23-46fc-82a9-63cd93437a36","system_id":"levelo_inurba_marseille","lat":43.302992,"lon":5.392136,"is_reserved":false,"is_disabled":false,"rental_uris":{"android":"levelo://app?vid=eeae0ce0-cc23-46fc-82a9-63cd93437a36","ios":"levelo://app?vid=eeae0ce0-cc23-46fc-82a9-63cd93437a36"},"vehicle_type_id":"4","last_reported":1691924674,"current_range_meters":30400,"station_id":"ce4bgkh2rcd13ifvqbk0","pricing_plan_id":"free"},{"bike_id":"b6bbf5a1-5a4d-4994-9957-2688de649c30","system_id":"levelo_inurba_marseille","lat":43.302992,"lon":5.392136,"is_reserved":false,"is_disabled":false,"rental_uris":{"android":"levelo://app?vid=b6bbf5a1-5a4d-4994-9957-2688de649c30","ios":"levelo://app?vid=b6bbf5a1-5a4d-4994-9957-2688de649c30"},"vehicle_type_id":"4","last_reported":1691924674,"current_range_meters":31200,"station_id":"ce4bgkh2rcd13ifvqbk0","pricing_plan_id":"free"},{"bike_id":"04e7f97c-5051-48f5-982c-4cd5922916e1","system_id":"levelo_inurba_marseille","lat":43.29221,"lon":5.36164,"is_reserved":false,"is_disabled":false,"rental_uris":{"android":"levelo://app?vid=04e7f97c-5051-48f5-982c-4cd5922916e1","ios":"levelo://app?vid=04e7f97c-5051-48f5-982c-4cd5922916e1"},"vehicle_type_id":"4","last_reported":1691924674,"current_range_meters":13200,"station_id":"ce4bhb12rcd13ifvqel0","pricing_plan_id":"free"},{"bike_id":"cda0f734-e050-44ae-806a-ca0c7bf6046d","system_id":"levelo_inurba_marseille","lat":43.300852,"lon":5.390859,"is_reserved":false,"is_disabled":false,"rental_uris":{"android":"levelo://app?vid=cda0f734-e050-44ae-806a-ca0c7bf6046d","ios":"levelo://app?vid=cda0f734-e050-44ae-806a-ca0c7bf6046d"},"vehicle_type_id":"4","last_reported":1691924674,"current_range_meters":27200,"station_id":"ce4bh192rcd13ifvqdb0","pricing_plan_id":"free"},{"bike_id":"303ac644-c8a5-4f60-affc-ac0534448be2","system_id":"levelo_inurba_marseille","lat":43.29873,"lon":5.38903,"is_reserved":false,"is_disabled":false,"rental_uris":{"android":"levelo://app?vid=303ac644-c8a5-4f60-affc-ac0534448be2","ios":"levelo://app?vid=303ac644-c8a5-4f60-affc-ac0534448be2"},"vehicle_type_id":"4","last_reported":1691924674,"current_range_meters":0,"station_id":"ce4bh392rcd13ifvqdl0","pricing_plan_id":"free"},{"bike_id":"7d1c2685-5701-4acb-8e47-1435af464208","system_id":"levelo_inurba_marseille","lat":43.291994,"lon":5.357886,"is_reserved":false,"is_disabled":false,"rental_uris":{"android":"levelo://app?vid=7d1c2685-5701-4acb-8e47-1435af464208","ios":"levelo://app?vid=7d1c2685-5701-4acb-8e47-1435af464208"},"vehicle_type_id":"4","last_reported":1691924674,"current_range_meters":3600,"station_id":"ce4bhb12rcd13ifvqel0","pricing_plan_id":"free"},{"bike_id":"965ed87a-27a7-495a-9e3d-8b325195f007","system_id":"levelo_inurba_marseille","lat":43.291994,"lon":5.357886,"is_reserved":false,"is_disabled":false,"rental_uris":{"android":"levelo://app?vid=965ed87a-27a7-495a-9e3d-8b325195f007","ios":"levelo://app?vid=965ed87a-27a7-495a-9e3d-8b325195f007"},"vehicle_type_id":"4","last_reported":1691924674,"current_range_meters":9200,"station_id":"ce4bhb12rcd13ifvqel0","pricing_plan_id":"free"},{"bike_id":"d0657ce7-03a0-449a-ae36-53e44ac2dc87","system_id":"levelo_inurba_marseille","lat":43.291994,"lon":5.357886,"is_reserved":false,"is_disabled":false,"rental_uris":{"android":"levelo://app?vid=d0657ce7-03a0-449a-ae36-53e44ac2dc87","ios":"levelo://app?vid=d0657ce7-03a0-449a-ae36-53e44ac2dc87"},"vehicle_type_id":"4","last_reported":1691924674,"current_range_meters":29600,"station_id":"ce4bhb12rcd13ifvqel0","pricing_plan_id":"free"},{"bike_id":"93a3ce4d-9af8-4205-a8f4-bd34e4ecbde9","system_id":"levelo_inurba_marseille","lat":43.291994,"lon":5.357886,"is_reserved":false,"is_disabled":false,"rental_uris":{"android":"levelo://app?vid=93a3ce4d-9af8-4205-a8f4-bd34e4ecbde9","ios":"levelo://app?vid=93a3ce4d-9af8-4205-a8f4-bd34e4ecbde9"},"vehicle_type_id":"4","last_reported":1691924674,"current_range_meters":4800,"station_id":"ce4bhb12rcd13ifvqel0","pricing_plan_id":"free"},{"bike_id":"f066424f-b1db-44a2-8505-25fa9243477c","system_id":"levelo_inurba_marseille","lat":43.29186,"lon":5.35798,"is_reserved":false,"is_disabled":false,"rental_uris":{"android":"levelo://app?vid=f066424f-b1db-44a2-8505-25fa9243477c","ios":"levelo://app?vid=f066424f-b1db-44a2-8505-25fa9243477c"},"vehicle_type_id":"4","last_reported":1691924674,"current_range_meters":27600,"station_id":"ce4bhb12rcd13ifvqel0","pricing_plan_id":"free"},{"bike_id":"5f0a7fc6-2d3b-4e7e-b129-865abc1cccc5","system_id":"levelo_inurba_marseille","lat":43.30883,"lon":5.39655,"is_reserved":false,"is_disabled":false,"rental_uris":{"android":"levelo://app?vid=5f0a7fc6-2d3b-4e7e-b129-865abc1cccc5","ios":"levelo://app?vid=5f0a7fc6-2d3b-4e7e-b129-865abc1cccc5"},"vehicle_type_id":"4","last_reported":1691924674,"current_range_meters":5200,"station_id":"ce4bh012rcd13ifvqcv0","pricing_plan_id":"free"},{"bike_id":"2fe1f269-a72d-4d14-bbfb-11a9704c7504","system_id":"levelo_inurba_marseille","lat":43.3089,"lon":5.39662,"is_reserved":false,"is_disabled":false,"rental_uris":{"android":"levelo://app?vid=2fe1f269-a72d-4d14-bbfb-11a9704c7504","ios":"levelo://app?vid=2fe1f269-a72d-4d14-bbfb-11a9704c7504"},"vehicle_type_id":"4","last_reported":1691924674,"current_range_meters":19200,"station_id":"ce4bh012rcd13ifvqcv0","pricing_plan_id":"free"},{"bike_id":"f1bbc1b6-d14b-432f-b868-fcdf6b84f530","system_id":"levelo_inurba_marseille","lat":43.30885,"lon":5.39661,"is_reserved":false,"is_disabled":false,"rental_uris":{"android":"levelo://app?vid=f1bbc1b6-d14b-432f-b868-fcdf6b84f530","ios":"levelo://app?vid=f1bbc1b6-d14b-432f-b868-fcdf6b84f530"},"vehicle_type_id":"4","last_reported":1691924674,"current_range_meters":18400,"station_id":"ce4bh012rcd13ifvqcv0","pricing_plan_id":"free"},{"bike_id":"fab1e0c6-d81b-4d4b-9f81-d9d130052626","system_id":"levelo_inurba_marseille","lat":43.29529,"lon":5.385581,"is_reserved":false,"is_disabled":false,"rental_uris":{"android":"levelo://app?vid=fab1e0c6-d81b-4d4b-9f81-d9d130052626","ios":"levelo://app?vid=fab1e0c6-d81b-4d4b-9f81-d9d130052626"},"vehicle_type_id":"4","last_reported":1691924674,"current_range_meters":18000,"station_id":"ce4bgih2rcd13ifvqba0","pricing_plan_id":"free"},{"bike_id":"b3fbb033-8c72-4599-9145-a1cc67d36580","system_id":"levelo_inurba_marseille","lat":43.290779,"lon":5.371482,"is_reserved":false,"is_disabled":false,"rental_uris":{"android":"levelo://app?vid=b3fbb033-8c72-4599-9145-a1cc67d36580","ios":"levelo://app?vid=b3fbb033-8c72-4599-9145-a1cc67d36580"},"vehicle_type_id":"4","last_reported":1691924674,"current_range_meters":7600,"station_id":"ce4bh5p2rcd13ifvqe4g","pricing_plan_id":"free"},{"bike_id":"7e5d1966-67c0-4f64-9b33-cd99237e303b","system_id":"levelo_inurba_marseille","lat":43.302008,"lon":5.394694,"is_reserved":false,"is_disabled":false,"rental_uris":{"android":"levelo://app?vid=7e5d1966-67c0-4f64-9b33-cd99237e303b","ios":"levelo://app?vid=7e5d1966-67c0-4f64-9b33-cd99237e303b"},"vehicle_type_id":"4","last_reported":1691924674,"current_range_meters":28000,"station_id":"ce4bh0p2rcd13ifvqd70","pricing_plan_id":"free"},{"bike_id":"0a9d137c-f395-4c0e-9e53-c5c59acadb57","system_id":"levelo_inurba_marseille","lat":43.29441,"lon":5.38654,"is_reserved":false,"is_disabled":false,"rental_uris":{"android":"levelo://app?vid=0a9d137c-f395-4c0e-9e53-c5c59acadb57","ios":"levelo://app?vid=0a9d137c-f395-4c0e-9e53-c5c59acadb57"},"vehicle_type_id":"4","last_reported":1691924674,"current_range_meters":10000,"station_id":"ce4bh2h2rcd13ifvqdh0","pricing_plan_id":"free"},{"bike_id":"b1c240a2-9140-4904-8564-430cddbf8170","system_id":"levelo_inurba_marseille","lat":43.304274,"lon":5.397513,"is_reserved":false,"is_disabled":false,"rental_uris":{"android":"levelo://app?vid=b1c240a2-9140-4904-8564-430cddbf8170","ios":"levelo://app?vid=b1c240a2-9140-4904-8564-430cddbf8170"},"vehicle_type_id":"4","last_reported":1691924674,"current_range_meters":28000,"station_id":"ce4bh092rcd13ifvqd20","pricing_plan_id":"free"},{"bike_id":"69c23820-b8c4-4b33-a6c2-28beb4ed1d2a","system_id":"levelo_inurba_marseille","lat":43.330357,"lon":5.38912,"is_reserved":false,"is_disabled":false,"rental_uris":{"android":"levelo://app?vid=69c23820-b8c4-4b33-a6c2-28beb4ed1d2a","ios":"levelo://app?vid=69c23820-b8c4-4b33-a6c2-28beb4ed1d2a"},"vehicle_type_id":"4","last_reported":1691924674,"current_range_meters":10000,"station_id":"","pricing_plan_id":"free"},{"bike_id":"e77dcc14-ec30-4502-9e90-a9b269722270","system_id":"levelo_inurba_marseille","lat":43.3304,"lon":5.38916,"is_reserved":false,"is_disabled":false,"rental_uris":{"android":"levelo://app?vid=e77dcc14-ec30-4502-9e90-a9b269722270","ios":"levelo://app?vid=e77dcc14-ec30-4502-9e90-a9b269722270"},"vehicle_type_id":"4","last_reported":1691924674,"current_range_meters":12800,"station_id":"ce4bhr92rcd13ifvqhrg","pricing_plan_id":"free"},{"bike_id":"735f2a98-16c5-4f52-be53-7e01213ddefe","system_id":"levelo_inurba_marseille","lat":43.33044,"lon":5.38912,"is_reserved":false,"is_disabled":false,"rental_uris":{"android":"levelo://app?vid=735f2a98-16c5-4f52-be53-7e01213ddefe","ios":"levelo://app?vid=735f2a98-16c5-4f52-be53-7e01213ddefe"},"vehicle_type_id":"4","last_reported":1691924674,"current_range_meters":9600,"station_id":"ce4bhr92rcd13ifvqhrg","pricing_plan_id":"free"},{"bike_id":"ff5f9e8a-cfa5-4ce7-9ff1-860a5c225a07","system_id":"levelo_inurba_marseille","lat":43.33043,"lon":5.38914,"is_reserved":false,"is_disabled":false,"rental_uris":{"android":"levelo://app?vid=ff5f9e8a-cfa5-4ce7-9ff1-860a5c225a07","ios":"levelo://app?vid=ff5f9e8a-cfa5-4ce7-9ff1-860a5c225a07"},"vehicle_type_id":"4","last_reported":1691924674,"current_range_meters":16800,"station_id":"ce4bhr92rcd13ifvqhrg","pricing_plan_id":"free"},{"bike_id":"8f878f28-ac1b-4cce-960b-11748c4b16d3","system_id":"levelo_inurba_marseille","lat":43.33047,"lon":5.3891,"is_reserved":false,"is_disabled":false,"rental_uris":{"android":"levelo://app?vid=8f878f28-ac1b-4cce-960b-11748c4b16d3","ios":"levelo://app?vid=8f878f28-ac1b-4cce-960b-11748c4b16d3"},"vehicle_type_id":"4","last_reported":1691924674,"current_range_meters":30400,"station_id":"ce4bhr92rcd13ifvqhrg","pricing_plan_id":"free"},{"bike_id":"4f262cef-c638-49c5-b40e-cc2f06e51424","system_id":"levelo_inurba_marseille","lat":43.33044,"lon":5.38917,"is_reserved":false,"is_disabled":false,"rental_uris":{"android":"levelo://app?vid=4f262cef-c638-49c5-b40e-cc2f06e51424","ios":"levelo://app?vid=4f262cef-c638-49c5-b40e-cc2f06e51424"},"vehicle_type_id":"4","last_reported":1691924674,"current_range_meters":15600,"station_id":"ce4bhr92rcd13ifvqhrg","pricing_plan_id":"free"},{"bike_id":"47c203c2-9161-4566-be98-b5184208f8e2","system_id":"levelo_inurba_marseille","lat":43.33046,"lon":5.38916,"is_reserved":false,"is_disabled":false,"rental_uris":{"android":"levelo://app?vid=47c203c2-9161-4566-be98-b5184208f8e2","ios":"levelo://app?vid=47c203c2-9161-4566-be98-b5184208f8e2"},"vehicle_type_id":"4","last_reported":1691924674,"current_range_meters":29600,"station_id":"ce4bhr92rcd13ifvqhrg","pricing_plan_id":"free"},{"bike_id":"e0c41950-c202-48da-97e0-4b2bcda2c9e7","system_id":"levelo_inurba_marseille","lat":43.33048,"lon":5.38916,"is_reserved":false,"is_disabled":false,"rental_uris":{"android":"levelo://app?vid=e0c41950-c202-48da-97e0-4b2bcda2c9e7","ios":"levelo://app?vid=e0c41950-c202-48da-97e0-4b2bcda2c9e7"},"vehicle_type_id":"4","last_reported":1691924674,"current_range_meters":8000,"station_id":"ce4bhr92rcd13ifvqhrg","pricing_plan_id":"free"},{"bike_id":"d92191b5-3897-428d-989c-4b986c7a7e64","system_id":"levelo_inurba_marseille","lat":43.29006,"lon":5.3561,"is_reserved":false,"is_disabled":false,"rental_uris":{"android":"levelo://app?vid=d92191b5-3897-428d-989c-4b986c7a7e64","ios":"levelo://app?vid=d92191b5-3897-428d-989c-4b986c7a7e64"},"vehicle_type_id":"4","last_reported":1691924674,"current_range_meters":14400,"station_id":"ce4bhb92rcd13ifvqen0","pricing_plan_id":"free"},{"bike_id":"3d4f9485-05e3-4530-850f-dac89566f289","system_id":"levelo_inurba_marseille","lat":43.33048,"lon":5.38917,"is_reserved":false,"is_disabled":false,"rental_uris":{"android":"levelo://app?vid=3d4f9485-05e3-4530-850f-dac89566f289","ios":"levelo://app?vid=3d4f9485-05e3-4530-850f-dac89566f289"},"vehicle_type_id":"4","last_reported":1691924674,"current_range_meters":30400,"station_id":"ce4bhr92rcd13ifvqhrg","pricing_plan_id":"free"},{"bike_id":"892867ae-c845-473e-87fc-2b3f5701ecf4","system_id":"levelo_inurba_marseille","lat":43.29005,"lon":5.35608,"is_reserved":false,"is_disabled":false,"rental_uris":{"android":"levelo://app?vid=892867ae-c845-473e-87fc-2b3f5701ecf4","ios":"levelo://app?vid=892867ae-c845-473e-87fc-2b3f5701ecf4"},"vehicle_type_id":"4","last_reported":1691924674,"current_range_meters":15200,"station_id":"ce4bhb92rcd13ifvqen0","pricing_plan_id":"free"},{"bike_id":"be005e4f-d207-40fd-bd99-241d744b2797","system_id":"levelo_inurba_marseille","lat":43.33085,"lon":5.38897,"is_reserved":false,"is_disabled":false,"rental_uris":{"android":"levelo://app?vid=be005e4f-d207-40fd-bd99-241d744b2797","ios":"levelo://app?vid=be005e4f-d207-40fd-bd99-241d744b2797"},"vehicle_type_id":"4","last_reported":1691924674,"current_range_meters":29600,"station_id":"ce4bhr92rcd13ifvqhrg","pricing_plan_id":"free"},{"bike_id":"065f13b6-eabe-4c4e-a4d3-ff2094de9ea8","system_id":"levelo_inurba_marseille","lat":43.2901,"lon":5.381269,"is_reserved":false,"is_disabled":false,"rental_uris":{"android":"levelo://app?vid=065f13b6-eabe-4c4e-a4d3-ff2094de9ea8","ios":"levelo://app?vid=065f13b6-eabe-4c4e-a4d3-ff2094de9ea8"},"vehicle_type_id":"4","last_reported":1691924674,"current_range_meters":31600,"station_id":"ce4bh4p2rcd13ifvqe1g","pricing_plan_id":"free"},{"bike_id":"a11b7775-55fd-446e-8054-10eab1f45772","system_id":"levelo_inurba_marseille","lat":43.30929,"lon":5.4013,"is_reserved":false,"is_disabled":false,"rental_uris":{"android":"levelo://app?vid=a11b7775-55fd-446e-8054-10eab1f45772","ios":"levelo://app?vid=a11b7775-55fd-446e-8054-10eab1f45772"},"vehicle_type_id":"4","last_reported":1691924674,"current_range_meters":17600,"station_id":"ce4bgvp2rcd13ifvqct0","pricing_plan_id":"free"},{"bike_id":"56efd3a6-6345-4029-a7d2-c4831efa6ecc","system_id":"levelo_inurba_marseille","lat":43.3127,"lon":5.40169,"is_reserved":false,"is_disabled":false,"rental_uris":{"android":"levelo://app?vid=56efd3a6-6345-4029-a7d2-c4831efa6ecc","ios":"levelo://app?vid=56efd3a6-6345-4029-a7d2-c4831efa6ecc"},"vehicle_type_id":"4","last_reported":1691924674,"current_range_meters":13200,"station_id":"ce4bh092rcd13ifvqd30","pricing_plan_id":"free"},{"bike_id":"20aa1289-af42-44ec-8c13-44eac66cea30","system_id":"levelo_inurba_marseille","lat":43.30929,"lon":5.40138,"is_reserved":false,"is_disabled":false,"rental_uris":{"android":"levelo://app?vid=20aa1289-af42-44ec-8c13-44eac66cea30","ios":"levelo://app?vid=20aa1289-af42-44ec-8c13-44eac66cea30"},"vehicle_type_id":"4","last_reported":1691924674,"current_range_meters":3600,"station_id":"ce4bgvp2rcd13ifvqct0","pricing_plan_id":"free"},{"bike_id":"a7446818-26be-4cbe-8434-e1f752f34894","system_id":"levelo_inurba_marseille","lat":43.31279,"lon":5.40172,"is_reserved":false,"is_disabled":false,"rental_uris":{"android":"levelo://app?vid=a7446818-26be-4cbe-8434-e1f752f34894","ios":"levelo://app?vid=a7446818-26be-4cbe-8434-e1f752f34894"},"vehicle_type_id":"4","last_reported":1691924674,"current_range_meters":30400,"station_id":"ce4bh092rcd13ifvqd30","pricing_plan_id":"free"},{"bike_id":"674da3a8-bf71-4123-a6f4-2ab72e12bbc0","system_id":"levelo_inurba_marseille","lat":43.31275,"lon":5.40173,"is_reserved":false,"is_disabled":false,"rental_uris":{"android":"levelo://app?vid=674da3a8-bf71-4123-a6f4-2ab72e12bbc0","ios":"levelo://app?vid=674da3a8-bf71-4123-a6f4-2ab72e12bbc0"},"vehicle_type_id":"4","last_reported":1691924674,"current_range_meters":10800,"station_id":"ce4bh092rcd13ifvqd30","pricing_plan_id":"free"},{"bike_id":"05f51894-462c-46fe-ad92-deb4fd2959c5","system_id":"levelo_inurba_marseille","lat":43.31259,"lon":5.40173,"is_reserved":false,"is_disabled":false,"rental_uris":{"android":"levelo://app?vid=05f51894-462c-46fe-ad92-deb4fd2959c5","ios":"levelo://app?vid=05f51894-462c-46fe-ad92-deb4fd2959c5"},"vehicle_type_id":"4","last_reported":1691924674,"current_range_meters":30400,"station_id":"ce4bh092rcd13ifvqd30","pricing_plan_id":"free"},{"bike_id":"37322ed8-3c19-4e24-b133-f6a6ab95a306","system_id":"levelo_inurba_marseille","lat":43.31259,"lon":5.40174,"is_reserved":false,"is_disabled":false,"rental_uris":{"android":"levelo://app?vid=37322ed8-3c19-4e24-b133-f6a6ab95a306","ios":"levelo://app?vid=37322ed8-3c19-4e24-b133-f6a6ab95a306"},"vehicle_type_id":"4","last_reported":1691924674,"current_range_meters":30000,"station_id":"ce4bh092rcd13ifvqd30","pricing_plan_id":"free"},{"bike_id":"a5f8d64b-cf5e-4ec4-8ddf-2c9182a2f179","system_id":"levelo_inurba_marseille","lat":43.30932,"lon":5.40143,"is_reserved":false,"is_disabled":false,"rental_uris":{"android":"levelo://app?vid=a5f8d64b-cf5e-4ec4-8ddf-2c9182a2f179","ios":"levelo://app?vid=a5f8d64b-cf5e-4ec4-8ddf-2c9182a2f179"},"vehicle_type_id":"4","last_reported":1691924674,"current_range_meters":10400,"station_id":"ce4bgvp2rcd13ifvqct0","pricing_plan_id":"free"},{"bike_id":"4691681c-cc21-4ae9-b6ca-248926886b77","system_id":"levelo_inurba_marseille","lat":43.31263,"lon":5.40175,"is_reserved":false,"is_disabled":false,"rental_uris":{"android":"levelo://app?vid=4691681c-cc21-4ae9-b6ca-248926886b77","ios":"levelo://app?vid=4691681c-cc21-4ae9-b6ca-248926886b77"},"vehicle_type_id":"4","last_reported":1691924674,"current_range_meters":31200,"station_id":"ce4bh092rcd13ifvqd30","pricing_plan_id":"free"},{"bike_id":"62c63e36-6638-4ecb-b7e4-f68cb811f1e2","system_id":"levelo_inurba_marseille","lat":43.30931,"lon":5.40145,"is_reserved":false,"is_disabled":false,"rental_uris":{"android":"levelo://app?vid=62c63e36-6638-4ecb-b7e4-f68cb811f1e2","ios":"levelo://app?vid=62c63e36-6638-4ecb-b7e4-f68cb811f1e2"},"vehicle_type_id":"4","last_reported":1691924674,"current_range_meters":29600,"station_id":"ce4bgvp2rcd13ifvqct0","pricing_plan_id":"free"},{"bike_id":"1c175ea2-ea73-4b03-89ea-e6afc8603a51","system_id":"levelo_inurba_marseille","lat":43.31266,"lon":5.40178,"is_reserved":false,"is_disabled":false,"rental_uris":{"android":"levelo://app?vid=1c175ea2-ea73-4b03-89ea-e6afc8603a51","ios":"levelo://app?vid=1c175ea2-ea73-4b03-89ea-e6afc8603a51"},"vehicle_type_id":"4","last_reported":1691924674,"current_range_meters":0,"station_id":"ce4bh092rcd13ifvqd30","pricing_plan_id":"free"},{"bike_id":"4c42908c-01d7-44ce-ad8b-0370984e5468","system_id":"levelo_inurba_marseille","lat":43.30922,"lon":5.40145,"is_reserved":false,"is_disabled":false,"rental_uris":{"android":"levelo://app?vid=4c42908c-01d7-44ce-ad8b-0370984e5468","ios":"levelo://app?vid=4c42908c-01d7-44ce-ad8b-0370984e5468"},"vehicle_type_id":"4","last_reported":1691924674,"current_range_meters":31200,"station_id":"ce4bgvp2rcd13ifvqct0","pricing_plan_id":"free"},{"bike_id":"6c1b2e96-734b-4eb5-b212-104952fa0a9e","system_id":"levelo_inurba_marseille","lat":43.30927,"lon":5.40148,"is_reserved":false,"is_disabled":false,"rental_uris":{"android":"levelo://app?vid=6c1b2e96-734b-4eb5-b212-104952fa0a9e","ios":"levelo://app?vid=6c1b2e96-734b-4eb5-b212-104952fa0a9e"},"vehicle_type_id":"4","last_reported":1691924674,"current_range_meters":3200,"station_id":"ce4bgvp2rcd13ifvqct0","pricing_plan_id":"free"},{"bike_id":"4e4cfdce-bc25-4af1-a1d2-109a14c54c14","system_id":"levelo_inurba_marseille","lat":43.30924,"lon":5.40149,"is_reserved":false,"is_disabled":false,"rental_uris":{"android":"levelo://app?vid=4e4cfdce-bc25-4af1-a1d2-109a14c54c14","ios":"levelo://app?vid=4e4cfdce-bc25-4af1-a1d2-109a14c54c14"},"vehicle_type_id":"4","last_reported":1691924674,"current_range_meters":30400,"station_id":"ce4bgvp2rcd13ifvqct0","pricing_plan_id":"free"},{"bike_id":"06d5e690-3514-4c61-bc95-22573244d064","system_id":"levelo_inurba_marseille","lat":43.30929,"lon":5.40151,"is_reserved":false,"is_disabled":false,"rental_uris":{"android":"levelo://app?vid=06d5e690-3514-4c61-bc95-22573244d064","ios":"levelo://app?vid=06d5e690-3514-4c61-bc95-22573244d064"},"vehicle_type_id":"4","last_reported":1691924674,"current_range_meters":31200,"station_id":"ce4bgvp2rcd13ifvqct0","pricing_plan_id":"free"},{"bike_id":"b9a62471-143c-4052-b091-d20b58997680","system_id":"levelo_inurba_marseille","lat":43.30643,"lon":5.40077,"is_reserved":false,"is_disabled":false,"rental_uris":{"android":"levelo://app?vid=b9a62471-143c-4052-b091-d20b58997680","ios":"levelo://app?vid=b9a62471-143c-4052-b091-d20b58997680"},"vehicle_type_id":"4","last_reported":1691924674,"current_range_meters":29200,"station_id":"ce4bh112rcd13ifvqda0","pricing_plan_id":"free"},{"bike_id":"d5368c62-4c98-4278-8b47-d3cb6ccca9a6","system_id":"levelo_inurba_marseille","lat":43.30635,"lon":5.40081,"is_reserved":false,"is_disabled":false,"rental_uris":{"android":"levelo://app?vid=d5368c62-4c98-4278-8b47-d3cb6ccca9a6","ios":"levelo://app?vid=d5368c62-4c98-4278-8b47-d3cb6ccca9a6"},"vehicle_type_id":"4","last_reported":1691924674,"current_range_meters":28400,"station_id":"ce4bh112rcd13ifvqda0","pricing_plan_id":"free"},{"bike_id":"1ad564c4-974c-4dc7-9395-ecbddf42829c","system_id":"levelo_inurba_marseille","lat":43.30646,"lon":5.40086,"is_reserved":false,"is_disabled":false,"rental_uris":{"android":"levelo://app?vid=1ad564c4-974c-4dc7-9395-ecbddf42829c","ios":"levelo://app?vid=1ad564c4-974c-4dc7-9395-ecbddf42829c"},"vehicle_type_id":"4","last_reported":1691924674,"current_range_meters":24000,"station_id":"ce4bh112rcd13ifvqda0","pricing_plan_id":"free"},{"bike_id":"5f1f1509-0682-465b-8911-ef53010cc1f7","system_id":"levelo_inurba_marseille","lat":43.30639,"lon":5.40087,"is_reserved":false,"is_disabled":false,"rental_uris":{"android":"levelo://app?vid=5f1f1509-0682-465b-8911-ef53010cc1f7","ios":"levelo://app?vid=5f1f1509-0682-465b-8911-ef53010cc1f7"},"vehicle_type_id":"4","last_reported":1691924674,"current_range_meters":10000,"station_id":"ce4bh112rcd13ifvqda0","pricing_plan_id":"free"},{"bike_id":"bddea8a8-6a40-447c-a39f-6c466dc238de","system_id":"levelo_inurba_marseille","lat":43.30648,"lon":5.40091,"is_reserved":false,"is_disabled":false,"rental_uris":{"android":"levelo://app?vid=bddea8a8-6a40-447c-a39f-6c466dc238de","ios":"levelo://app?vid=bddea8a8-6a40-447c-a39f-6c466dc238de"},"vehicle_type_id":"4","last_reported":1691924674,"current_range_meters":18400,"station_id":"ce4bh112rcd13ifvqda0","pricing_plan_id":"free"},{"bike_id":"2d4537fe-d59a-44e1-8bfc-7ef19a006f75","system_id":"levelo_inurba_marseille","lat":43.301117,"lon":5.398795,"is_reserved":false,"is_disabled":false,"rental_uris":{"android":"levelo://app?vid=2d4537fe-d59a-44e1-8bfc-7ef19a006f75","ios":"levelo://app?vid=2d4537fe-d59a-44e1-8bfc-7ef19a006f75"},"vehicle_type_id":"4","last_reported":1691924674,"current_range_meters":26800,"station_id":"ce4bh0h2rcd13ifvqd40","pricing_plan_id":"free"},{"bike_id":"5b59dfb2-fc3d-483b-8d41-adbaa0827d33","system_id":"levelo_inurba_marseille","lat":43.30639,"lon":5.40099,"is_reserved":false,"is_disabled":false,"rental_uris":{"android":"levelo://app?vid=5b59dfb2-fc3d-483b-8d41-adbaa0827d33","ios":"levelo://app?vid=5b59dfb2-fc3d-483b-8d41-adbaa0827d33"},"vehicle_type_id":"4","last_reported":1691924674,"current_range_meters":30400,"station_id":"ce4bh112rcd13ifvqda0","pricing_plan_id":"free"},{"bike_id":"aaa9cc36-e370-438c-b69a-42eb83e2831f","system_id":"levelo_inurba_marseille","lat":43.3065,"lon":5.40103,"is_reserved":false,"is_disabled":false,"rental_uris":{"android":"levelo://app?vid=aaa9cc36-e370-438c-b69a-42eb83e2831f","ios":"levelo://app?vid=aaa9cc36-e370-438c-b69a-42eb83e2831f"},"vehicle_type_id":"4","last_reported":1691924674,"current_range_meters":25200,"station_id":"ce4bh112rcd13ifvqda0","pricing_plan_id":"free"},{"bike_id":"915f802e-f31b-4c71-8de0-2a5fc39e5970","system_id":"levelo_inurba_marseille","lat":43.32994,"lon":5.39403,"is_reserved":false,"is_disabled":false,"rental_uris":{"android":"levelo://app?vid=915f802e-f31b-4c71-8de0-2a5fc39e5970","ios":"levelo://app?vid=915f802e-f31b-4c71-8de0-2a5fc39e5970"},"vehicle_type_id":"4","last_reported":1691924674,"current_range_meters":0,"station_id":"","pricing_plan_id":"free"},{"bike_id":"75199276-b705-4ad7-b6a9-49aeaa84628a","system_id":"levelo_inurba_marseille","lat":43.286591,"lon":5.363346,"is_reserved":false,"is_disabled":false,"rental_uris":{"android":"levelo://app?vid=75199276-b705-4ad7-b6a9-49aeaa84628a","ios":"levelo://app?vid=75199276-b705-4ad7-b6a9-49aeaa84628a"},"vehicle_type_id":"4","last_reported":1691924674,"current_range_meters":29600,"station_id":"ce4bhah2rcd13ifvqej0","pricing_plan_id":"free"},{"bike_id":"fca471d2-7319-43cd-99e7-20533642c762","system_id":"levelo_inurba_marseille","lat":43.286593,"lon":5.363346,"is_reserved":false,"is_disabled":false,"rental_uris":{"android":"levelo://app?vid=fca471d2-7319-43cd-99e7-20533642c762","ios":"levelo://app?vid=fca471d2-7319-43cd-99e7-20533642c762"},"vehicle_type_id":"4","last_reported":1691924674,"current_range_meters":20400,"station_id":"ce4bhah2rcd13ifvqej0","pricing_plan_id":"free"},{"bike_id":"e2fe80a7-2691-4c5a-93ae-3da3de2a7cc9","system_id":"levelo_inurba_marseille","lat":43.286593,"lon":5.363346,"is_reserved":false,"is_disabled":false,"rental_uris":{"android":"levelo://app?vid=e2fe80a7-2691-4c5a-93ae-3da3de2a7cc9","ios":"levelo://app?vid=e2fe80a7-2691-4c5a-93ae-3da3de2a7cc9"},"vehicle_type_id":"4","last_reported":1691924674,"current_range_meters":28800,"station_id":"ce4bhah2rcd13ifvqej0","pricing_plan_id":"free"},{"bike_id":"17143508-449d-432c-875f-19c626562b08","system_id":"levelo_inurba_marseille","lat":43.2987,"lon":5.3976,"is_reserved":false,"is_disabled":false,"rental_uris":{"android":"levelo://app?vid=17143508-449d-432c-875f-19c626562b08","ios":"levelo://app?vid=17143508-449d-432c-875f-19c626562b08"},"vehicle_type_id":"4","last_reported":1691924674,"current_range_meters":31200,"station_id":"ce4bh0h2rcd13ifvqd50","pricing_plan_id":"free"},{"bike_id":"1738ea0d-1e51-4939-989a-b9d0d9b5b4d8","system_id":"levelo_inurba_marseille","lat":43.29027,"lon":5.38639,"is_reserved":false,"is_disabled":false,"rental_uris":{"android":"levelo://app?vid=1738ea0d-1e51-4939-989a-b9d0d9b5b4d8","ios":"levelo://app?vid=1738ea0d-1e51-4939-989a-b9d0d9b5b4d8"},"vehicle_type_id":"4","last_reported":1691924674,"current_range_meters":31200,"station_id":"ce4bh4p2rcd13ifvqe0g","pricing_plan_id":"free"},{"bike_id":"1ea2b6f8-e221-4562-9c2a-dd1fc61aee48","system_id":"levelo_inurba_marseille","lat":43.28616,"lon":5.37063,"is_reserved":false,"is_disabled":false,"rental_uris":{"android":"levelo://app?vid=1ea2b6f8-e221-4562-9c2a-dd1fc61aee48","ios":"levelo://app?vid=1ea2b6f8-e221-4562-9c2a-dd1fc61aee48"},"vehicle_type_id":"4","last_reported":1691924674,"current_range_meters":9600,"station_id":"ce4bht12rcd13ifvqi60","pricing_plan_id":"free"},{"bike_id":"92795861-77ea-46e5-ac17-54112ca9b89b","system_id":"levelo_inurba_marseille","lat":43.286039,"lon":5.370681,"is_reserved":false,"is_disabled":false,"rental_uris":{"android":"levelo://app?vid=92795861-77ea-46e5-ac17-54112ca9b89b","ios":"levelo://app?vid=92795861-77ea-46e5-ac17-54112ca9b89b"},"vehicle_type_id":"4","last_reported":1691924674,"current_range_meters":13200,"station_id":"ce4bht12rcd13ifvqi60","pricing_plan_id":"free"},{"bike_id":"f5cdcf0d-803b-405b-992f-c25a0317a0a8","system_id":"levelo_inurba_marseille","lat":43.286039,"lon":5.370681,"is_reserved":false,"is_disabled":false,"rental_uris":{"android":"levelo://app?vid=f5cdcf0d-803b-405b-992f-c25a0317a0a8","ios":"levelo://app?vid=f5cdcf0d-803b-405b-992f-c25a0317a0a8"},"vehicle_type_id":"4","last_reported":1691924674,"current_range_meters":24800,"station_id":"ce4bht12rcd13ifvqi60","pricing_plan_id":"free"},{"bike_id":"8fc32131-b7df-4194-9057-157899a70416","system_id":"levelo_inurba_marseille","lat":43.287184,"lon":5.37937,"is_reserved":false,"is_disabled":false,"rental_uris":{"android":"levelo://app?vid=8fc32131-b7df-4194-9057-157899a70416","ios":"levelo://app?vid=8fc32131-b7df-4194-9057-157899a70416"},"vehicle_type_id":"4","last_reported":1691924674,"current_range_meters":19200,"station_id":"ce4bh9p2rcd13ifvqec0","pricing_plan_id":"free"},{"bike_id":"b3ad3f0a-61f7-4cb9-b524-6c0fd0b90971","system_id":"levelo_inurba_marseille","lat":43.31622,"lon":5.40414,"is_reserved":false,"is_disabled":false,"rental_uris":{"android":"levelo://app?vid=b3ad3f0a-61f7-4cb9-b524-6c0fd0b90971","ios":"levelo://app?vid=b3ad3f0a-61f7-4cb9-b524-6c0fd0b90971"},"vehicle_type_id":"4","last_reported":1691924674,"current_range_meters":1600,"station_id":"ce4bh012rcd13ifvqd00","pricing_plan_id":"free"},{"bike_id":"8d4af642-1c06-4370-8c75-d2ab4694b8c2","system_id":"levelo_inurba_marseille","lat":43.31642,"lon":5.4043,"is_reserved":false,"is_disabled":false,"rental_uris":{"android":"levelo://app?vid=8d4af642-1c06-4370-8c75-d2ab4694b8c2","ios":"levelo://app?vid=8d4af642-1c06-4370-8c75-d2ab4694b8c2"},"vehicle_type_id":"4","last_reported":1691924674,"current_range_meters":1200,"station_id":"ce4bh012rcd13ifvqd00","pricing_plan_id":"free"},{"bike_id":"bd0a5c64-abd5-416a-9a32-244e87c31d9c","system_id":"levelo_inurba_marseille","lat":43.316517,"lon":5.404375,"is_reserved":false,"is_disabled":false,"rental_uris":{"android":"levelo://app?vid=bd0a5c64-abd5-416a-9a32-244e87c31d9c","ios":"levelo://app?vid=bd0a5c64-abd5-416a-9a32-244e87c31d9c"},"vehicle_type_id":"4","last_reported":1691924674,"current_range_meters":26000,"station_id":"ce4bh012rcd13ifvqd00","pricing_plan_id":"free"},{"bike_id":"77581a92-54e4-4e37-ba4b-6d79402d5dde","system_id":"levelo_inurba_marseille","lat":43.316517,"lon":5.404375,"is_reserved":false,"is_disabled":false,"rental_uris":{"android":"levelo://app?vid=77581a92-54e4-4e37-ba4b-6d79402d5dde","ios":"levelo://app?vid=77581a92-54e4-4e37-ba4b-6d79402d5dde"},"vehicle_type_id":"4","last_reported":1691924674,"current_range_meters":23600,"station_id":"ce4bh012rcd13ifvqd00","pricing_plan_id":"free"},{"bike_id":"b4add8be-0881-43f9-b673-4b71151f22ab","system_id":"levelo_inurba_marseille","lat":43.284538,"lon":5.358657,"is_reserved":false,"is_disabled":false,"rental_uris":{"android":"levelo://app?vid=b4add8be-0881-43f9-b673-4b71151f22ab","ios":"levelo://app?vid=b4add8be-0881-43f9-b673-4b71151f22ab"},"vehicle_type_id":"4","last_reported":1691924674,"current_range_meters":26400,"station_id":"ce4bhah2rcd13ifvqei0","pricing_plan_id":"free"},{"bike_id":"d731c8ba-f0f6-4f00-896c-cbfdb8f9f7a5","system_id":"levelo_inurba_marseille","lat":43.284538,"lon":5.358657,"is_reserved":false,"is_disabled":false,"rental_uris":{"android":"levelo://app?vid=d731c8ba-f0f6-4f00-896c-cbfdb8f9f7a5","ios":"levelo://app?vid=d731c8ba-f0f6-4f00-896c-cbfdb8f9f7a5"},"vehicle_type_id":"4","last_reported":1691924674,"current_range_meters":25200,"station_id":"ce4bhah2rcd13ifvqei0","pricing_plan_id":"free"},{"bike_id":"f43e55e4-7255-4bfe-ad71-919952e0164a","system_id":"levelo_inurba_marseille","lat":43.284538,"lon":5.358657,"is_reserved":false,"is_disabled":false,"rental_uris":{"android":"levelo://app?vid=f43e55e4-7255-4bfe-ad71-919952e0164a","ios":"levelo://app?vid=f43e55e4-7255-4bfe-ad71-919952e0164a"},"vehicle_type_id":"4","last_reported":1691924674,"current_range_meters":18400,"station_id":"ce4bhah2rcd13ifvqei0","pricing_plan_id":"free"},{"bike_id":"f0fd47f9-e1d5-471f-b13c-5e0bbd0263b0","system_id":"levelo_inurba_marseille","lat":43.28457,"lon":5.35892,"is_reserved":false,"is_disabled":false,"rental_uris":{"android":"levelo://app?vid=f0fd47f9-e1d5-471f-b13c-5e0bbd0263b0","ios":"levelo://app?vid=f0fd47f9-e1d5-471f-b13c-5e0bbd0263b0"},"vehicle_type_id":"4","last_reported":1691924674,"current_range_meters":10000,"station_id":"ce4bhah2rcd13ifvqei0","pricing_plan_id":"free"},{"bike_id":"84c09467-e144-496a-907d-79ee812fddec","system_id":"levelo_inurba_marseille","lat":43.284538,"lon":5.358657,"is_reserved":false,"is_disabled":false,"rental_uris":{"android":"levelo://app?vid=84c09467-e144-496a-907d-79ee812fddec","ios":"levelo://app?vid=84c09467-e144-496a-907d-79ee812fddec"},"vehicle_type_id":"4","last_reported":1691924674,"current_range_meters":24000,"station_id":"ce4bhah2rcd13ifvqei0","pricing_plan_id":"free"},{"bike_id":"33e4141f-33b2-4487-b986-7feb5dfe391b","system_id":"levelo_inurba_marseille","lat":43.2862,"lon":5.35102,"is_reserved":false,"is_disabled":false,"rental_uris":{"android":"levelo://app?vid=33e4141f-33b2-4487-b986-7feb5dfe391b","ios":"levelo://app?vid=33e4141f-33b2-4487-b986-7feb5dfe391b"},"vehicle_type_id":"4","last_reported":1691924674,"current_range_meters":27200,"station_id":"ce4bhch2rcd13ifvqeug","pricing_plan_id":"free"},{"bike_id":"cb6de5ba-8c4f-493b-a194-34711060c7d8","system_id":"levelo_inurba_marseille","lat":43.285856,"lon":5.350771,"is_reserved":false,"is_disabled":false,"rental_uris":{"android":"levelo://app?vid=cb6de5ba-8c4f-493b-a194-34711060c7d8","ios":"levelo://app?vid=cb6de5ba-8c4f-493b-a194-34711060c7d8"},"vehicle_type_id":"4","last_reported":1691924674,"current_range_meters":10000,"station_id":"ce4bhch2rcd13ifvqeug","pricing_plan_id":"free"},{"bike_id":"5425285b-1a8c-4b9a-97c8-ea7ac18f67a6","system_id":"levelo_inurba_marseille","lat":43.285856,"lon":5.350771,"is_reserved":false,"is_disabled":false,"rental_uris":{"android":"levelo://app?vid=5425285b-1a8c-4b9a-97c8-ea7ac18f67a6","ios":"levelo://app?vid=5425285b-1a8c-4b9a-97c8-ea7ac18f67a6"},"vehicle_type_id":"4","last_reported":1691924674,"current_range_meters":22000,"station_id":"ce4bhch2rcd13ifvqeug","pricing_plan_id":"free"},{"bike_id":"a6a8e83c-dbcf-4bb5-a026-539e82dd3305","system_id":"levelo_inurba_marseille","lat":43.285856,"lon":5.350771,"is_reserved":false,"is_disabled":false,"rental_uris":{"android":"levelo://app?vid=a6a8e83c-dbcf-4bb5-a026-539e82dd3305","ios":"levelo://app?vid=a6a8e83c-dbcf-4bb5-a026-539e82dd3305"},"vehicle_type_id":"4","last_reported":1691924674,"current_range_meters":0,"station_id":"ce4bhch2rcd13ifvqeug","pricing_plan_id":"free"},{"bike_id":"3253f7e6-d8de-49c3-b697-e0e94d65b761","system_id":"levelo_inurba_marseille","lat":43.28617,"lon":5.3509,"is_reserved":false,"is_disabled":false,"rental_uris":{"android":"levelo://app?vid=3253f7e6-d8de-49c3-b697-e0e94d65b761","ios":"levelo://app?vid=3253f7e6-d8de-49c3-b697-e0e94d65b761"},"vehicle_type_id":"4","last_reported":1691924674,"current_range_meters":24400,"station_id":"ce4bhch2rcd13ifvqeug","pricing_plan_id":"free"},{"bike_id":"3abffe56-2fea-4cba-888a-bba818ced65e","system_id":"levelo_inurba_marseille","lat":43.28612,"lon":5.35102,"is_reserved":false,"is_disabled":false,"rental_uris":{"android":"levelo://app?vid=3abffe56-2fea-4cba-888a-bba818ced65e","ios":"levelo://app?vid=3abffe56-2fea-4cba-888a-bba818ced65e"},"vehicle_type_id":"4","last_reported":1691924674,"current_range_meters":18800,"station_id":"ce4bhch2rcd13ifvqeug","pricing_plan_id":"free"},{"bike_id":"2c0e59fa-0b13-4843-8c25-d7d7acfbcc30","system_id":"levelo_inurba_marseille","lat":43.286595,"lon":5.386795,"is_reserved":false,"is_disabled":false,"rental_uris":{"android":"levelo://app?vid=2c0e59fa-0b13-4843-8c25-d7d7acfbcc30","ios":"levelo://app?vid=2c0e59fa-0b13-4843-8c25-d7d7acfbcc30"},"vehicle_type_id":"4","last_reported":1691924674,"current_range_meters":26400,"station_id":"ce4bh492rcd13ifvqdug","pricing_plan_id":"free"},{"bike_id":"18d60405-7fcb-4f0d-a3c0-66a2bebff4ef","system_id":"levelo_inurba_marseille","lat":43.319179,"lon":5.407725,"is_reserved":false,"is_disabled":false,"rental_uris":{"android":"levelo://app?vid=18d60405-7fcb-4f0d-a3c0-66a2bebff4ef","ios":"levelo://app?vid=18d60405-7fcb-4f0d-a3c0-66a2bebff4ef"},"vehicle_type_id":"4","last_reported":1691924674,"current_range_meters":23600,"station_id":"ce4bhq12rcd13ifvqhig","pricing_plan_id":"free"},