{"last_updated":1700820495,"ttl":30,"version":"2.2","data":{"bikes":[{"bike_id":"3976ee32-97c3-4afa-965a-ffd466bdd50d","system_id":"levelo_inurba_marseille","lat":43.31341,"lon":5.367098,"is_reserved":false,"is_disabled":false,"rental_uris":{"android":"levelo://app?vid=3976ee32-97c3-4afa-965a-ffd466bdd50d","ios":"levelo://app?vid=3976ee32-97c3-4afa-965a-ffd466bdd50d"},"vehicle_type_id":"4","last_reported":1700820495,"current_range_meters":16000,"station_id":"ce4bgr92rcd13ifvqc6g","pricing_plan_id":"free"},{"bike_id":"948f716d-72b7-4179-8340-c15726f2a948","system_id":"levelo_inurba_marseille","lat":43.313391,"lon":5.36706,"is_reserved":false,"is_disabled":false,"rental_uris":{"android":"levelo://app?vid=948f716d-72b7-4179-8340-c15726f2a948","ios":"levelo://app?vid=948f716d-72b7-4179-8340-c15726f2a948"},"vehicle_type_id":"4","last_reported":1700820495,"current_range_meters":14000,"station_id":"ce4bgr92rcd13ifvqc6g","pricing_plan_id":"free"},{"bike_id":"f4d12bb3-dbf4-4762-8312-6a8151cd6f1f","system_id":"levelo_inurba_marseille","lat":43.31341,"lon":5.367098,"is_reserved":false,"is_disabled":false,"rental_uris":{"android":"levelo://app?vid=f4d12bb3-dbf4-4762-8312-6a8151cd6f1f","ios":"levelo://app?vid=f4d12bb3-dbf4-4762-8312-6a8151cd6f1f"},"vehicle_type_id":"4","last_reported":1700820495,"current_range_meters":31200,"station_id":"ce4bgr92rcd13ifvqc6g","pricing_plan_id":"free"},{"bike_id":"5a427959-cf38-4f14-88b0-9897f052df1a","system_id":"levelo_inurba_marseille","lat":43.312239,"lon":5.368562,"is_reserved":false,"is_disabled":false,"rental_uris":{"android":"levelo://app?vid=5a427959-cf38-4f14-88b0-9897f052df1a","ios":"levelo://app?vid=5a427959-cf38-4f14-88b0-9897f052df1a"},"vehicle_type_id":"4","last_reported":1700820495,"current_range_meters":24800,"station_id":"ce4bgl92rcd13ifvqbq0","pricing_plan_id":"free"},{"bike_id":"6f435786-82ed-4f45-ad5d-fd75ab222eee","system_id":"levelo_inurba_marseille","lat":43.309076,"lon":5.368465,"is_reserved":false,"is_disabled":false,"rental_uris":{"android":"levelo://app?vid=6f435786-82ed-4f45-ad5d-fd75ab222eee","ios":"levelo://app?vid=6f435786-82ed-4f45-ad5d-fd75ab222eee"},"vehicle_type_id":"4","last_reported":1700820495,"current_range_meters":8800,"station_id":"ce4bgn92rcd13ifvqbvg","pricing_plan_id":"free"},{"bike_id":"aff4c4bd-c502-4122-9fa9-5e0bd2b9e2bc","system_id":"levelo_inurba_marseille","lat":43.309076,"lon":5.368465,"is_reserved":false,"is_disabled":false,"rental_uris":{"android":"levelo://app?vid=aff4c4bd-c502-4122-9fa9-5e0bd2b9e2bc","ios":"levelo://app?vid=aff4c4bd-c502-4122-9fa9-5e0bd2b9e2bc"},"vehicle_type_id":"4","last_reported":1700820495,"current_range_meters":14800,"station_id":"ce4bgn92rcd13ifvqbvg","pricing_plan_id":"free"},{"bike_id":"11430954-102b-48d5-82d0-cd4738cf5660","system_id":"levelo_inurba_marseille","lat":43.309076,"lon":5.368465,"is_reserved":false,"is_disabled":false,"rental_uris":{"android":"levelo://app?vid=11430954-102b-48d5-82d0-cd4738cf5660","ios":"levelo://app?vid=11430954-102b-48d5-82d0-cd4738cf5660"},"vehicle_type_id":"4","last_reported":1700820495,"current_range_meters":21600,"station_id":"ce4bgn92rcd13ifvqbvg","pricing_plan_id":"free"},{"bike_id":"00810fed-52b8-45f4-8fa0-a3bbadff2793","system_id":"levelo_inurba_marseille","lat":43.309076,"lon":5.368465,"is_reserved":false,"is_disabled":false,"rental_uris":{"android":"levelo://app?vid=00810fed-52b8-45f4-8fa0-a3bbadff2793","ios":"levelo://app?vid=00810fed-52b8-45f4-8fa0-a3bbadff2793"},"vehicle_type_id":"4","last_reported":1700820495,"current_range_meters":1600,"station_id":"ce4bgn92rcd13ifvqbvg","pricing_plan_id":"free"},{"bike_id":"c6ffb2cb-b8bc-46d2-85da-bdeb36a79278","system_id":"levelo_inurba_marseille","lat":43.314811,"lon":5.373103,"is_reserved":false,"is_disabled":false,"rental_uris":{"android":"levelo://app?vid=c6ffb2cb-b8bc-46d2-85da-bdeb36a79278","ios":"levelo://app?vid=c6ffb2cb-b8bc-46d2-85da-bdeb36a79278"},"vehicle_type_id":"4","last_reported":1700820495,"current_range_meters":13200,"station_id":"ce4bgt12rcd13ifvqcd0","pricing_plan_id":"free"},{"bike_id":"5f7b4e86-fe94-4bea-8794-59b9a4a0f9a0","system_id":"levelo_inurba_marseille","lat":43.314811,"lon":5.373103,"is_reserved":false,"is_disabled":false,"rental_uris":{"android":"levelo://app?vid=5f7b4e86-fe94-4bea-8794-59b9a4a0f9a0","ios":"levelo://app?vid=5f7b4e86-fe94-4bea-8794-59b9a4a0f9a0"},"vehicle_type_id":"4","last_reported":1700820495,"current_range_meters":29200,"station_id":"ce4bgt12rcd13ifvqcd0","pricing_plan_id":"free"},{"bike_id":"b446cbde-7096-4bbf-8b31-e65347b1284d","system_id":"levelo_inurba_marseille","lat":43.309039,"lon":5.371797,"is_reserved":false,"is_disabled":false,"rental_uris":{"android":"levelo://app?vid=b446cbde-7096-4bbf-8b31-e65347b1284d","ios":"levelo://app?vid=b446cbde-7096-4bbf-8b31-e65347b1284d"},"vehicle_type_id":"4","last_reported":1700820495,"current_range_meters":31200,"station_id":"ce4bguh2rcd13ifvqckg","pricing_plan_id":"free"},{"bike_id":"b87c10e0-e678-4edc-b76a-14a8cf744431","system_id":"levelo_inurba_marseille","lat":43.309039,"lon":5.371797,"is_reserved":false,"is_disabled":false,"rental_uris":{"android":"levelo://app?vid=b87c10e0-e678-4edc-b76a-14a8cf744431","ios":"levelo://app?vid=b87c10e0-e678-4edc-b76a-14a8cf744431"},"vehicle_type_id":"4","last_reported":1700820495,"current_range_meters":31200,"station_id":"ce4bguh2rcd13ifvqckg","pricing_plan_id":"free"},{"bike_id":"48306e35-701e-4d42-b155-dccb0c7eeaec","system_id":"levelo_inurba_marseille","lat":43.309039,"lon":5.371797,"is_reserved":false,"is_disabled":false,"rental_uris":{"android":"levelo://app?vid=48306e35-701e-4d42-b155-dccb0c7eeaec","ios":"levelo://app?vid=48306e35-701e-4d42-b155-dccb0c7eeaec"},"vehicle_type_id":"4","last_reported":1700820495,"current_range_meters":8400,"station_id":"ce4bguh2rcd13ifvqckg","pricing_plan_id":"free"},{"bike_id":"630a1bf5-3ea9-4e60-aa8d-fd106442c32b","system_id":"levelo_inurba_marseille","lat":43.30546,"lon":5.36701,"is_reserved":false,"is_disabled":false,"rental_uris":{"android":"levelo://app?vid=630a1bf5-3ea9-4e60-aa8d-fd106442c32b","ios":"levelo://app?vid=630a1bf5-3ea9-4e60-aa8d-fd106442c32b"},"vehicle_type_id":"4","last_reported":1700820495,"current_range_meters":22800,"station_id":"ce4bgrp2rcd13ifvqc9g","pricing_plan_id":"free"},{"bike_id":"222d7e37-6eff-4b3f-b420-7d27d2fea60f","system_id":"levelo_inurba_marseille","lat":43.305368,"lon":5.367343,"is_reserved":false,"is_disabled":false,"rental_uris":{"android":"levelo://app?vid=222d7e37-6eff-4b3f-b420-7d27d2fea60f","ios":"levelo://app?vid=222d7e37-6eff-4b3f-b420-7d27d2fea60f"},"vehicle_type_id":"4","last_reported":1700820495,"current_range_meters":22400,"station_id":"ce4bgrp2rcd13ifvqc9g","pricing_plan_id":"free"},{"bike_id":"4eb7930c-a1a5-4a3e-82d3-0f291dea745a","system_id":"levelo_inurba_marseille","lat":43.305368,"lon":5.367343,"is_reserved":false,"is_disabled":false,"rental_uris":{"android":"levelo://app?vid=4eb7930c-a1a5-4a3e-82d3-0f291dea745a","ios":"levelo://app?vid=4eb7930c-a1a5-4a3e-82d3-0f291dea745a"},"vehicle_type_id":"4","last_reported":1700820495,"current_range_meters":22400,"station_id":"ce4bgrp2rcd13ifvqc9g","pricing_plan_id":"free"},{"bike_id":"8bc23b3e-7620-4590-91f5-766628ef04bd","system_id":"levelo_inurba_marseille","lat":43.305368,"lon":5.367343,"is_reserved":false,"is_disabled":false,"rental_uris":{"android":"levelo://app?vid=8bc23b3e-7620-4590-91f5-766628ef04bd","ios":"levelo://app?vid=8bc23b3e-7620-4590-91f5-766628ef04bd"},"vehicle_type_id":"4","last_reported":1700820495,"current_range_meters":25200,"station_id":"ce4bgrp2rcd13ifvqc9g","pricing_plan_id":"free"},{"bike_id":"b95b34d9-d462-4ee5-8e75-82650974e50f","system_id":"levelo_inurba_marseille","lat":43.305714,"lon":5.365633,"is_reserved":false,"is_disabled":false,"rental_uris":{"android":"levelo://app?vid=b95b34d9-d462-4ee5-8e75-82650974e50f","ios":"levelo://app?vid=b95b34d9-d462-4ee5-8e75-82650974e50f"},"vehicle_type_id":"4","last_reported":1700820495,"current_range_meters":16400,"station_id":"ce4bgs12rcd13ifvqcag","pricing_plan_id":"free"},{"bike_id":"51205c9b-3d27-46a9-8ca6-b4c68ad7cc5c","system_id":"levelo_inurba_marseille","lat":43.305714,"lon":5.365633,"is_reserved":false,"is_disabled":false,"rental_uris":{"android":"levelo://app?vid=51205c9b-3d27-46a9-8ca6-b4c68ad7cc5c","ios":"levelo://app?vid=51205c9b-3d27-46a9-8ca6-b4c68ad7cc5c"},"vehicle_type_id":"4","last_reported":1700820495,"current_range_meters":31200,"station_id":"ce4bgs12rcd13ifvqcag","pricing_plan_id":"free"},{"bike_id":"77eeb088-e463-4b29-80a5-8b7eb4a58a7b","system_id":"levelo_inurba_marseille","lat":43.305714,"lon":5.365633,"is_reserved":false,"is_disabled":false,"rental_uris":{"android":"levelo://app?vid=77eeb088-e463-4b29-80a5-8b7eb4a58a7b","ios":"levelo://app?vid=77eeb088-e463-4b29-80a5-8b7eb4a58a7b"},"vehicle_type_id":"4","last_reported":1700820495,"current_range_meters":30000,"station_id":"ce4bgs12rcd13ifvqcag","pricing_plan_id":"free"},{"bike_id":"c72bc89d-1dfb-4def-815b-6026950c5a6e","system_id":"levelo_inurba_marseille","lat":43.305714,"lon":5.365633,"is_reserved":false,"is_disabled":false,"rental_uris":{"android":"levelo://app?vid=c72bc89d-1dfb-4def-815b-6026950c5a6e","ios":"levelo://app?vid=c72bc89d-1dfb-4def-815b-6026950c5a6e"},"vehicle_type_id":"4","last_reported":1700820495,"current_range_meters":26000,"station_id":"ce4bgs12rcd13ifvqcag","pricing_plan_id":"free"},{"bike_id":"d261a666-0af6-49ad-a053-028d0de6affc","system_id":"levelo_inurba_marseille","lat":43.305706,"lon":5.365654,"is_reserved":false,"is_disabled":false,"rental_uris":{"android":"levelo://app?vid=d261a666-0af6-49ad-a053-028d0de6affc","ios":"levelo://app?vid=d261a666-0af6-49ad-a053-028d0de6affc"},"vehicle_type_id":"4","last_reported":1700820495,"current_range_meters":2400,"station_id":"ce4bgs12rcd13ifvqcag","pricing_plan_id":"free"},{"bike_id":"03aeff45-7844-4d47-acd1-8af45330d1a1","system_id":"levelo_inurba_marseille","lat":43.305714,"lon":5.365633,"is_reserved":false,"is_disabled":false,"rental_uris":{"android":"levelo://app?vid=03aeff45-7844-4d47-acd1-8af45330d1a1","ios":"levelo://app?vid=03aeff45-7844-4d47-acd1-8af45330d1a1"},"vehicle_type_id":"4","last_reported":1700820495,"current_range_meters":19600,"station_id":"ce4bgs12rcd13ifvqcag","pricing_plan_id":"free"},{"bike_id":"80b45c8b-c4fc-40e1-ac23-7604546e37bc","system_id":"levelo_inurba_marseille","lat":43.305714,"lon":5.365633,"is_reserved":false,"is_disabled":false,"rental_uris":{"android":"levelo://app?vid=80b45c8b-c4fc-40e1-ac23-7604546e37bc","ios":"levelo://app?vid=80b45c8b-c4fc-40e1-ac23-7604546e37bc"},"vehicle_type_id":"4","last_reported":1700820495,"current_range_meters":30800,"station_id":"ce4bgs12rcd13ifvqcag","pricing_plan_id":"free"},{"bike_id":"c1a9f473-0814-464f-bf69-299b0a8cd5c0","system_id":"levelo_inurba_marseille","lat":43.305714,"lon":5.365633,"is_reserved":false,"is_disabled":false,"rental_uris":{"android":"levelo://app?vid=c1a9f473-0814-464f-bf69-299b0a8cd5c0","ios":"levelo://app?vid=c1a9f473-0814-464f-bf69-299b0a8cd5c0"},"vehicle_type_id":"4","last_reported":1700820495,"current_range_meters":1600,"station_id":"ce4bgs12rcd13ifvqcag","pricing_plan_id":"free"},{"bike_id":"fe67b6cd-6da7-452b-a5aa-333b57ed9e58","system_id":"levelo_inurba_marseille","lat":43.305368,"lon":5.367343,"is_reserved":false,"is_disabled":false,"rental_uris":{"android":"levelo://app?vid=fe67b6cd-6da7-452b-a5aa-333b57ed9e58","ios":"levelo://app?vid=fe67b6cd-6da7-452b-a5aa-333b57ed9e58"},"vehicle_type_id":"4","last_reported":1700820495,"current_range_meters":0,"station_id":"ce4bgrp2rcd13ifvqc9g","pricing_plan_id":"free"},{"bike_id":"c7ba5f8c-cc62-4f9a-89ab-e3da034dc7ff","system_id":"levelo_inurba_marseille","lat":43.305706,"lon":5.365654,"is_reserved":false,"is_disabled":false,"rental_uris":{"android":"levelo://app?vid=c7ba5f8c-cc62-4f9a-89ab-e3da034dc7ff","ios":"levelo://app?vid=c7ba5f8c-cc62-4f9a-89ab-e3da034dc7ff"},"vehicle_type_id":"4","last_reported":1700820495,"current_range_meters":19200,"station_id":"ce4bgs12rcd13ifvqcag","pricing_plan_id":"free"},{"bike_id":"84fe0fec-ebb1-4d39-ae17-190a98ce8faa","system_id":"levelo_inurba_marseille","lat":43.305706,"lon":5.365654,"is_reserved":false,"is_disabled":false,"rental_uris":{"android":"levelo://app?vid=84fe0fec-ebb1-4d39-ae17-190a98ce8faa","ios":"levelo://app?vid=84fe0fec-ebb1-4d39-ae17-190a98ce8faa"},"vehicle_type_id":"4","last_reported":1700820495,"current_range_meters":14000,"station_id":"ce4bgs12rcd13ifvqcag","pricing_plan_id":"free"},{"bike_id":"a864e621-fb78-488f-8f4f-1165f8d80b90","system_id":"levelo_inurba_marseille","lat":43.305714,"lon":5.365633,"is_reserved":false,"is_disabled":false,"rental_uris":{"android":"levelo://app?vid=a864e621-fb78-488f-8f4f-1165f8d80b90","ios":"levelo://app?vid=a864e621-fb78-488f-8f4f-1165f8d80b90"},"vehicle_type_id":"4","last_reported":1700820495,"current_range_meters":24800,"station_id":"ce4bgs12rcd13ifvqcag","pricing_plan_id":"free"},{"bike_id":"b6dd5827-2613-44d3-acca-f7f13454348b","system_id":"levelo_inurba_marseille","lat":43.305368,"lon":5.367343,"is_reserved":false,"is_disabled":false,"rental_uris":{"android":"levelo://app?vid=b6dd5827-2613-44d3-acca-f7f13454348b","ios":"levelo://app?vid=b6dd5827-2613-44d3-acca-f7f13454348b"},"vehicle_type_id":"4","last_reported":1700820495,"current_range_meters":28400,"station_id":"ce4bgrp2rcd13ifvqc9g","pricing_plan_id":"free"},{"bike_id":"3c6eb6ff-9b97-4b2e-9a32-71cdca41a3d8","system_id":"levelo_inurba_marseille","lat":43.305706,"lon":5.365654,"is_reserved":false,"is_disabled":false,"rental_uris":{"android":"levelo://app?vid=3c6eb6ff-9b97-4b2e-9a32-71cdca41a3d8","ios":"levelo://app?vid=3c6eb6ff-9b97-4b2e-9a32-71cdca41a3d8"},"vehicle_type_id":"4","last_reported":1700820495,"current_range_meters":23600,"station_id":"ce4bgs12rcd13ifvqcag","pricing_plan_id":"free"},{"bike_id":"0ef3453b-8808-4c4d-aacc-8409d819dd63","system_id":"levelo_inurba_marseille","lat":43.305706,"lon":5.365654,"is_reserved":false,"is_disabled":false,"rental_uris":{"android":"levelo://app?vid=0ef3453b-8808-4c4d-aacc-8409d819dd63","ios":"levelo://app?vid=0ef3453b-8808-4c4d-aacc-8409d819dd63"},"vehicle_type_id":"4","last_reported":1700820495,"current_range_meters":19600,"station_id":"ce4bgs12rcd13ifvqcag","pricing_plan_id":"free"},{"bike_id":"96ac710a-2f89-445b-a8a2-87b8049cee9b","system_id":"levelo_inurba_marseille","lat":43.305706,"lon":5.365654,"is_reserved":false,"is_disabled":false,"rental_uris":{"android":"levelo://app?vid=96ac710a-2f89-445b-a8a2-87b8049cee9b","ios":"levelo://app?vid=96ac710a-2f89-445b-a8a2-87b8049cee9b"},"vehicle_type_id":"4","last_reported":1700820495,"current_range_meters":15600,"station_id":"ce4bgs12rcd13ifvqcag","pricing_plan_id":"free"},{"bike_id":"c33b5814-86af-45e8-98bd-4c5dde85bb45","system_id":"levelo_inurba_marseille","lat":43.305706,"lon":5.365654,"is_reserved":false,"is_disabled":false,"rental_uris":{"android":"levelo://app?vid=c33b5814-86af-45e8-98bd-4c5dde85bb45","ios":"levelo://app?vid=c33b5814-86af-45e8-98bd-4c5dde85bb45"},"vehicle_type_id":"4","last_reported":1700820495,"current_range_meters":5200,"station_id":"ce4bgs12rcd13ifvqcag","pricing_plan_id":"free"},{"bike_id":"376f46c3-12b8-4f91-b585-eec80acac1b6","system_id":"levelo_inurba_marseille","lat":43.3053,"lon":5.36699,"is_reserved":false,"is_disabled":false,"rental_uris":{"android":"levelo://app?vid=376f46c3-12b8-4f91-b585-eec80acac1b6","ios":"levelo://app?vid=376f46c3-12b8-4f91-b585-eec80acac1b6"},"vehicle_type_id":"4","last_reported":1700820495,"current_range_meters":16800,"station_id":"ce4bgrp2rcd13ifvqc9g","pricing_plan_id":"free"},{"bike_id":"f8867632-c836-458f-8bd0-ffad506867e9","system_id":"levelo_inurba_marseille","lat":43.305368,"lon":5.367343,"is_reserved":false,"is_disabled":false,"rental_uris":{"android":"levelo://app?vid=f8867632-c836-458f-8bd0-ffad506867e9","ios":"levelo://app?vid=f8867632-c836-458f-8bd0-ffad506867e9"},"vehicle_type_id":"4","last_reported":1700820495,"current_range_meters":21200,"station_id":"ce4bgrp2rcd13ifvqc9g","pricing_plan_id":"free"},{"bike_id":"e72d5dbe-d923-4a6c-96ab-dbe9156e538f","system_id":"levelo_inurba_marseille","lat":43.305706,"lon":5.365654,"is_reserved":false,"is_disabled":false,"rental_uris":{"android":"levelo://app?vid=e72d5dbe-d923-4a6c-96ab-dbe9156e538f","ios":"levelo://app?vid=e72d5dbe-d923-4a6c-96ab-dbe9156e538f"},"vehicle_type_id":"4","last_reported":1700820495,"current_range_meters":31200,"station_id":"ce4bgs12rcd13ifvqcag","pricing_plan_id":"free"},{"bike_id":"43bf5cf6-ac0a-4035-9884-61a3aec3d997","system_id":"levelo_inurba_marseille","lat":43.305706,"lon":5.365654,"is_reserved":false,"is_disabled":false,"rental_uris":{"android":"levelo://app?vid=43bf5cf6-ac0a-4035-9884-61a3aec3d997","ios":"levelo://app?vid=43bf5cf6-ac0a-4035-9884-61a3aec3d997"},"vehicle_type_id":"4","last_reported":1700820495,"current_range_meters":30800,"station_id":"ce4bgs12rcd13ifvqcag","pricing_plan_id":"free"},{"bike_id":"0eb4a9ac-8db2-4aa1-89c0-1ecb9e3298ff","system_id":"levelo_inurba_marseille","lat":43.305368,"lon":5.367343,"is_reserved":false,"is_disabled":false,"rental_uris":{"android":"levelo://app?vid=0eb4a9ac-8db2-4aa1-89c0-1ecb9e3298ff","ios":"levelo://app?vid=0eb4a9ac-8db2-4aa1-89c0-1ecb9e3298ff"},"vehicle_type_id":"4","last_reported":1700820495,"current_range_meters":17200,"station_id":"ce4bgrp2rcd13ifvqc9g","pricing_plan_id":"free"},{"bike_id":"af14356b-0d40-4f84-9f3f-b9b25a083254","system_id":"levelo_inurba_marseille","lat":43.305989,"lon":5.37225,"is_reserved":false,"is_disabled":false,"rental_uris":{"android":"levelo://app?vid=af14356b-0d40-4f84-9f3f-b9b25a083254","ios":"levelo://app?vid=af14356b-0d40-4f84-9f3f-b9b25a083254"},"vehicle_type_id":"4","last_reported":1700820495,"current_range_meters":25200,"station_id":"ce4bgqh2rcd13ifvqc4g","pricing_plan_id":"free"},{"bike_id":"e2b37795-9b09-4ac2-98f7-4242c3afbc98","system_id":"levelo_inurba_marseille","lat":43.305989,"lon":5.37225,"is_reserved":false,"is_disabled":false,"rental_uris":{"android":"levelo://app?vid=e2b37795-9b09-4ac2-98f7-4242c3afbc98","ios":"levelo://app?vid=e2b37795-9b09-4ac2-98f7-4242c3afbc98"},"vehicle_type_id":"4","last_reported":1700820495,"current_range_meters":28800,"station_id":"ce4bgqh2rcd13ifvqc4g","pricing_plan_id":"free"},{"bike_id":"6531a77a-6394-4124-a4ef-8f6fefa5495f","system_id":"levelo_inurba_marseille","lat":43.317075,"lon":5.377367,"is_reserved":false,"is_disabled":false,"rental_uris":{"android":"levelo://app?vid=6531a77a-6394-4124-a4ef-8f6fefa5495f","ios":"levelo://app?vid=6531a77a-6394-4124-a4ef-8f6fefa5495f"},"vehicle_type_id":"4","last_reported":1700820495,"current_range_meters":10800,"station_id":"ce4bgth2rcd13ifvqch0","pricing_plan_id":"free"},{"bike_id":"1377a259-4089-4d93-b5f8-15bda2106c6b","system_id":"levelo_inurba_marseille","lat":43.30304,"lon":5.368987,"is_reserved":false,"is_disabled":false,"rental_uris":{"android":"levelo://app?vid=1377a259-4089-4d93-b5f8-15bda2106c6b","ios":"levelo://app?vid=1377a259-4089-4d93-b5f8-15bda2106c6b"},"vehicle_type_id":"4","last_reported":1700820495,"current_range_meters":31200,"station_id":"ce4bgqh2rcd13ifvqc5g","pricing_plan_id":"free"},{"bike_id":"508c56e1-bf28-4848-bca9-f164cc6e9124","system_id":"levelo_inurba_marseille","lat":43.303046,"lon":5.368981,"is_reserved":false,"is_disabled":false,"rental_uris":{"android":"levelo://app?vid=508c56e1-bf28-4848-bca9-f164cc6e9124","ios":"levelo://app?vid=508c56e1-bf28-4848-bca9-f164cc6e9124"},"vehicle_type_id":"4","last_reported":1700820495,"current_range_meters":31200,"station_id":"ce4bgqh2rcd13ifvqc5g","pricing_plan_id":"free"},{"bike_id":"5432ebe5-659a-45a0-a8e1-89d3238e7a59","system_id":"levelo_inurba_marseille","lat":43.303068,"lon":5.369136,"is_reserved":false,"is_disabled":false,"rental_uris":{"android":"levelo://app?vid=5432ebe5-659a-45a0-a8e1-89d3238e7a59","ios":"levelo://app?vid=5432ebe5-659a-45a0-a8e1-89d3238e7a59"},"vehicle_type_id":"4","last_reported":1700820495,"current_range_meters":13200,"station_id":"ce4bgqh2rcd13ifvqc5g","pricing_plan_id":"free"},{"bike_id":"0fc90eda-92f1-47c4-9c41-4082c9a377ba","system_id":"levelo_inurba_marseille","lat":43.303046,"lon":5.368981,"is_reserved":false,"is_disabled":false,"rental_uris":{"android":"levelo://app?vid=0fc90eda-92f1-47c4-9c41-4082c9a377ba","ios":"levelo://app?vid=0fc90eda-92f1-47c4-9c41-4082c9a377ba"},"vehicle_type_id":"4","last_reported":1700820495,"current_range_meters":26400,"station_id":"ce4bgqh2rcd13ifvqc5g","pricing_plan_id":"free"},{"bike_id":"9553ef10-334b-4da0-a580-e61c22f99185","system_id":"levelo_inurba_marseille","lat":43.314085,"lon":5.38272,"is_reserved":false,"is_disabled":false,"rental_uris":{"android":"levelo://app?vid=9553ef10-334b-4da0-a580-e61c22f99185","ios":"levelo://app?vid=9553ef10-334b-4da0-a580-e61c22f99185"},"vehicle_type_id":"4","last_reported":1700820495,"current_range_meters":18800,"station_id":"","pricing_plan_id":"free"},{"bike_id":"b92df877-8cdb-403a-895c-21bd964ddc3a","system_id":"levelo_inurba_marseille","lat":43.304606,"lon":5.379026,"is_reserved":false,"is_disabled":false,"rental_uris":{"android":"levelo://app?vid=b92df877-8cdb-403a-895c-21bd964ddc3a","ios":"levelo://app?vid=b92df877-8cdb-403a-895c-21bd964ddc3a"},"vehicle_type_id":"4","last_reported":1700820495,"current_range_meters":11600,"station_id":"ce4bgup2rcd13ifvqcn0","pricing_plan_id":"free"},{"bike_id":"0a0ea16b-9cb2-4ca6-af29-0042edb6317c","system_id":"levelo_inurba_marseille","lat":43.30466,"lon":5.37902,"is_reserved":false,"is_disabled":false,"rental_uris":{"android":"levelo://app?vid=0a0ea16b-9cb2-4ca6-af29-0042edb6317c","ios":"levelo://app?vid=0a0ea16b-9cb2-4ca6-af29-0042edb6317c"},"vehicle_type_id":"4","last_reported":1700820495,"current_range_meters":6400,"station_id":"ce4bgup2rcd13ifvqcn0","pricing_plan_id":"free"},{"bike_id":"771dec50-9859-4ba1-9101-9df1b92b6b00","system_id":"levelo_inurba_marseille","lat":43.301429,"lon":5.37413,"is_reserved":false,"is_disabled":false,"rental_uris":{"android":"levelo://app?vid=771dec50-9859-4ba1-9101-9df1b92b6b00","ios":"levelo://app?vid=771dec50-9859-4ba1-9101-9df1b92b6b00"},"vehicle_type_id":"4","last_reported":1700820495,"current_range_meters":30400,"station_id":"ce4bgs92rcd13ifvqcc0","pricing_plan_id":"free"},{"bike_id":"78274b88-5341-4475-81b0-d5ccb2dca742","system_id":"levelo_inurba_marseille","lat":43.302784,"lon":5.377158,"is_reserved":false,"is_disabled":false,"rental_uris":{"android":"levelo://app?vid=78274b88-5341-4475-81b0-d5ccb2dca742","ios":"levelo://app?vid=78274b88-5341-4475-81b0-d5ccb2dca742"},"vehicle_type_id":"4","last_reported":1700820495,"current_range_meters":3600,"station_id":"ce4bguh2rcd13ifvqcj0","pricing_plan_id":"free"},{"bike_id":"045a13d1-573a-4ce8-b01f-4051f163e416","system_id":"levelo_inurba_marseille","lat":43.302784,"lon":5.377158,"is_reserved":false,"is_disabled":false,"rental_uris":{"android":"levelo://app?vid=045a13d1-573a-4ce8-b01f-4051f163e416","ios":"levelo://app?vid=045a13d1-573a-4ce8-b01f-4051f163e416"},"vehicle_type_id":"4","last_reported":1700820495,"current_range_meters":0,"station_id":"ce4bguh2rcd13ifvqcj0","pricing_plan_id":"free"},{"bike_id":"725dcb49-737c-4112-b5fa-a3b286a2b98a","system_id":"levelo_inurba_marseille","lat":43.30143,"lon":5.37413,"is_reserved":false,"is_disabled":false,"rental_uris":{"android":"levelo://app?vid=725dcb49-737c-4112-b5fa-a3b286a2b98a","ios":"levelo://app?vid=725dcb49-737c-4112-b5fa-a3b286a2b98a"},"vehicle_type_id":"4","last_reported":1700820495,"current_range_meters":31200,"station_id":"ce4bgs92rcd13ifvqcc0","pricing_plan_id":"free"},{"bike_id":"52b3d9e0-eb07-4b48-a73d-f17c79b4d433","system_id":"levelo_inurba_marseille","lat":43.31995,"lon":5.38145,"is_reserved":false,"is_disabled":false,"rental_uris":{"android":"levelo://app?vid=52b3d9e0-eb07-4b48-a73d-f17c79b4d433","ios":"levelo://app?vid=52b3d9e0-eb07-4b48-a73d-f17c79b4d433"},"vehicle_type_id":"4","last_reported":1700820495,"current_range_meters":6000,"station_id":"ce4bhr12rcd13ifvqhpg","pricing_plan_id":"free"},{"bike_id":"ddcd8fb5-e6f9-4509-b663-a5f016a9be0b","system_id":"levelo_inurba_marseille","lat":43.319935,"lon":5.381699,"is_reserved":false,"is_disabled":false,"rental_uris":{"android":"levelo://app?vid=ddcd8fb5-e6f9-4509-b663-a5f016a9be0b","ios":"levelo://app?vid=ddcd8fb5-e6f9-4509-b663-a5f016a9be0b"},"vehicle_type_id":"4","last_reported":1700820495,"current_range_meters":4000,"station_id":"ce4bhr12rcd13ifvqhpg","pricing_plan_id":"free"},{"bike_id":"b35d98a3-9c0d-4bc9-b7aa-dab5b52650cb","system_id":"levelo_inurba_marseille","lat":43.30202,"lon":5.38044,"is_reserved":false,"is_disabled":false,"rental_uris":{"android":"levelo://app?vid=b35d98a3-9c0d-4bc9-b7aa-dab5b52650cb","ios":"levelo://app?vid=b35d98a3-9c0d-4bc9-b7aa-dab5b52650cb"},"vehicle_type_id":"4","last_reported":1700820495,"current_range_meters":12800,"station_id":"","pricing_plan_id":"free"},{"bike_id":"c3045614-1eb8-488d-add5-337dc82beb2c","system_id":"levelo_inurba_marseille","lat":43.29848,"lon":5.36288,"is_reserved":false,"is_disabled":false,"rental_uris":{"android":"levelo://app?vid=c3045614-1eb8-488d-add5-337dc82beb2c","ios":"levelo://app?vid=c3045614-1eb8-488d-add5-337dc82beb2c"},"vehicle_type_id":"4","last_reported":1700820495,"current_range_meters":12400,"station_id":"ce4bgpp2rcd13ifvqc3g","pricing_plan_id":"free"},{"bike_id":"f3748efe-da41-477c-98e2-a88b339b44b0","system_id":"levelo_inurba_marseille","lat":43.298433,"lon":5.362774,"is_reserved":false,"is_disabled":false,"rental_uris":{"android":"levelo://app?vid=f3748efe-da41-477c-98e2-a88b339b44b0","ios":"levelo://app?vid=f3748efe-da41-477c-98e2-a88b339b44b0"},"vehicle_type_id":"4","last_reported":1700820495,"current_range_meters":1600,"station_id":"ce4bgpp2rcd13ifvqc3g","pricing_plan_id":"free"},{"bike_id":"c9491a41-4b0e-4d43-aeb2-6ceda6d39c87","system_id":"levelo_inurba_marseille","lat":43.298433,"lon":5.362774,"is_reserved":false,"is_disabled":false,"rental_uris":{"android":"levelo://app?vid=c9491a41-4b0e-4d43-aeb2-6ceda6d39c87","ios":"levelo://app?vid=c9491a41-4b0e-4d43-aeb2-6ceda6d39c87"},"vehicle_type_id":"4","last_reported":1700820495,"current_range_meters":26400,"station_id":"ce4bgpp2rcd13ifvqc3g","pricing_plan_id":"free"},{"bike_id":"3f61182c-8e06-48a9-848e-d3a1293e2985","system_id":"levelo_inurba_marseille","lat":43.298433,"lon":5.362774,"is_reserved":false,"is_disabled":false,"rental_uris":{"android":"levelo://app?vid=3f61182c-8e06-48a9-848e-d3a1293e2985","ios":"levelo://app?vid=3f61182c-8e06-48a9-848e-d3a1293e2985"},"vehicle_type_id":"4","last_reported":1700820495,"current_range_meters":20800,"station_id":"ce4bgpp2rcd13ifvqc3g","pricing_plan_id":"free"},{"bike_id":"799d357f-fd17-4290-b18b-f7a5ba9ec4b3","system_id":"levelo_inurba_marseille","lat":43.298433,"lon":5.362774,"is_reserved":false,"is_disabled":false,"rental_uris":{"android":"levelo://app?vid=799d357f-fd17-4290-b18b-f7a5ba9ec4b3","ios":"levelo://app?vid=799d357f-fd17-4290-b18b-f7a5ba9ec4b3"},"vehicle_type_id":"4","last_reported":1700820495,"current_range_meters":18400,"station_id":"ce4bgpp2rcd13ifvqc3g","pricing_plan_id":"free"},{"bike_id":"57f07daa-f979-41b2-bf81-49ff7a829b2a","system_id":"levelo_inurba_marseille","lat":43.32285,"lon":5.38259,"is_reserved":false,"is_disabled":false,"rental_uris":{"android":"levelo://app?vid=57f07daa-f979-41b2-bf81-49ff7a829b2a","ios":"levelo://app?vid=57f07daa-f979-41b2-bf81-49ff7a829b2a"},"vehicle_type_id":"4","last_reported":1700820495,"current_range_meters":7200,"station_id":"ce4bhr12rcd13ifvqhqg","pricing_plan_id":"free"},{"bike_id":"dd412918-8133-4190-a1ce-f4b6130f2f97","system_id":"levelo_inurba_marseille","lat":43.297794,"lon":5.370888,"is_reserved":false,"is_disabled":false,"rental_uris":{"android":"levelo://app?vid=dd412918-8133-4190-a1ce-f4b6130f2f97","ios":"levelo://app?vid=dd412918-8133-4190-a1ce-f4b6130f2f97"},"vehicle_type_id":"4","last_reported":1700820495,"current_range_meters":18400,"station_id":"ce4bgop2rcd13ifvqc1g","pricing_plan_id":"free"},{"bike_id":"8eccf735-9f13-4d66-89ee-04a7bf59eec2","system_id":"levelo_inurba_marseille","lat":43.322872,"lon":5.382756,"is_reserved":false,"is_disabled":false,"rental_uris":{"android":"levelo://app?vid=8eccf735-9f13-4d66-89ee-04a7bf59eec2","ios":"levelo://app?vid=8eccf735-9f13-4d66-89ee-04a7bf59eec2"},"vehicle_type_id":"4","last_reported":1700820495,"current_range_meters":30400,"station_id":"ce4bhr12rcd13ifvqhqg","pricing_plan_id":"free"},{"bike_id":"ddd3fff7-fc57-48f9-825f-f47d18d1dbee","system_id":"levelo_inurba_marseille","lat":43.328237,"lon":5.366763,"is_reserved":false,"is_disabled":false,"rental_uris":{"android":"levelo://app?vid=ddd3fff7-fc57-48f9-825f-f47d18d1dbee","ios":"levelo://app?vid=ddd3fff7-fc57-48f9-825f-f47d18d1dbee"},"vehicle_type_id":"4","last_reported":1700820495,"current_range_meters":0,"station_id":"ce4bhs92rcd13ifvqi0g","pricing_plan_id":"free"},{"bike_id":"02f1d3d5-0f04-4159-9b7b-17f28025ba66","system_id":"levelo_inurba_marseille","lat":43.328371,"lon":5.366909,"is_reserved":false,"is_disabled":false,"rental_uris":{"android":"levelo://app?vid=02f1d3d5-0f04-4159-9b7b-17f28025ba66","ios":"levelo://app?vid=02f1d3d5-0f04-4159-9b7b-17f28025ba66"},"vehicle_type_id":"4","last_reported":1700820495,"current_range_meters":6800,"station_id":"ce4bhs92rcd13ifvqi0g","pricing_plan_id":"free"},{"bike_id":"8c0dfeec-db05-4e2b-b859-6249803048bc","system_id":"levelo_inurba_marseille","lat":43.297163,"lon":5.365866,"is_reserved":false,"is_disabled":false,"rental_uris":{"android":"levelo://app?vid=8c0dfeec-db05-4e2b-b859-6249803048bc","ios":"levelo://app?vid=8c0dfeec-db05-4e2b-b859-6249803048bc"},"vehicle_type_id":"4","last_reported":1700820495,"current_range_meters":24000,"station_id":"ce4bgn12rcd13ifvqbt0","pricing_plan_id":"free"},{"bike_id":"c89cade2-e67c-487a-ac47-609658bb176e","system_id":"levelo_inurba_marseille","lat":43.297163,"lon":5.365866,"is_reserved":false,"is_disabled":false,"rental_uris":{"android":"levelo://app?vid=c89cade2-e67c-487a-ac47-609658bb176e","ios":"levelo://app?vid=c89cade2-e67c-487a-ac47-609658bb176e"},"vehicle_type_id":"4","last_reported":1700820495,"current_range_meters":26400,"station_id":"ce4bgn12rcd13ifvqbt0","pricing_plan_id":"free"},{"bike_id":"4d7509f5-9559-42ca-a60d-bef9e80f0981","system_id":"levelo_inurba_marseille","lat":43.299579,"lon":5.379146,"is_reserved":false,"is_disabled":false,"rental_uris":{"android":"levelo://app?vid=4d7509f5-9559-42ca-a60d-bef9e80f0981","ios":"levelo://app?vid=4d7509f5-9559-42ca-a60d-bef9e80f0981"},"vehicle_type_id":"4","last_reported":1700820495,"current_range_meters":0,"station_id":"","pricing_plan_id":"free"},{"bike_id":"70ccd700-de3b-4b61-9b8d-286a32eed3f6","system_id":"levelo_inurba_marseille","lat":43.29573,"lon":5.367355,"is_reserved":false,"is_disabled":false,"rental_uris":{"android":"levelo://app?vid=70ccd700-de3b-4b61-9b8d-286a32eed3f6","ios":"levelo://app?vid=70ccd700-de3b-4b61-9b8d-286a32eed3f6"},"vehicle_type_id":"4","last_reported":1700820495,"current_range_meters":23200,"station_id":"ce4bgph2rcd13ifvqc2g","pricing_plan_id":"free"},{"bike_id":"f950440e-18b4-40bc-a1c8-2dd81a70e72d","system_id":"levelo_inurba_marseille","lat":43.29573,"lon":5.367355,"is_reserved":false,"is_disabled":false,"rental_uris":{"android":"levelo://app?vid=f950440e-18b4-40bc-a1c8-2dd81a70e72d","ios":"levelo://app?vid=f950440e-18b4-40bc-a1c8-2dd81a70e72d"},"vehicle_type_id":"4","last_reported":1700820495,"current_range_meters":25200,"station_id":"ce4bgph2rcd13ifvqc2g","pricing_plan_id":"free"},{"bike_id":"35fe842e-908f-4538-b312-7dddc2fb2652","system_id":"levelo_inurba_marseille","lat":43.309589,"lon":5.390258,"is_reserved":false,"is_disabled":false,"rental_uris":{"android":"levelo://app?vid=35fe842e-908f-4538-b312-7dddc2fb2652","ios":"levelo://app?vid=35fe842e-908f-4538-b312-7dddc2fb2652"},"vehicle_type_id":"4","last_reported":1700820495,"current_range_meters":16800,"station_id":"ce4bgup2rcd13ifvqco0","pricing_plan_id":"free"},{"bike_id":"2a695ef4-b090-459e-8fd0-25e339883ac5","system_id":"levelo_inurba_marseille","lat":43.309589,"lon":5.390258,"is_reserved":false,"is_disabled":false,"rental_uris":{"android":"levelo://app?vid=2a695ef4-b090-459e-8fd0-25e339883ac5","ios":"levelo://app?vid=2a695ef4-b090-459e-8fd0-25e339883ac5"},"vehicle_type_id":"4","last_reported":1700820495,"current_range_meters":31600,"station_id":"ce4bgup2rcd13ifvqco0","pricing_plan_id":"free"},{"bike_id":"5733243b-f660-48cd-889a-61ae82f9f001","system_id":"levelo_inurba_marseille","lat":43.305714,"lon":5.365633,"is_reserved":false,"is_disabled":false,"rental_uris":{"android":"levelo://app?vid=5733243b-f660-48cd-889a-61ae82f9f001","ios":"levelo://app?vid=5733243b-f660-48cd-889a-61ae82f9f001"},"vehicle_type_id":"4","last_reported":1700820495,"current_range_meters":18400,"station_id":"ce4bgs12rcd13ifvqcag","pricing_plan_id":"free"},{"bike_id":"5d3fc9e2-b7a3-40bc-ae24-042208810db4","system_id":"levelo_inurba_marseille","lat":43.309589,"lon":5.390258,"is_reserved":false,"is_disabled":false,"rental_uris":{"android":"levelo://app?vid=5d3fc9e2-b7a3-40bc-ae24-042208810db4","ios":"levelo://app?vid=5d3fc9e2-b7a3-40bc-ae24-042208810db4"},"vehicle_type_id":"4","last_reported":1700820495,"current_range_meters":22000,"station_id":"ce4bgup2rcd13ifvqco0","pricing_plan_id":"free"},{"bike_id":"7bbfaa23-e6f5-4611-a5f9-38c97c00eb43","system_id":"levelo_inurba_marseille","lat":43.309589,"lon":5.390258,"is_reserved":false,"is_disabled":false,"rental_uris":{"android":"levelo://app?vid=7bbfaa23-e6f5-4611-a5f9-38c97c00eb43","ios":"levelo://app?vid=7bbfaa23-e6f5-4611-a5f9-38c97c00eb43"},"vehicle_type_id":"4","last_reported":1700820495,"current_range_meters":24000,"station_id":"ce4bgup2rcd13ifvqco0","pricing_plan_id":"free"},{"bike_id":"16304e3b-4bd7-49a6-8adf-29afefb83b38","system_id":"levelo_inurba_marseille","lat":43.309589,"lon":5.390258,"is_reserved":false,"is_disabled":false,"rental_uris":{"android":"levelo://app?vid=16304e3b-4bd7-49a6-8adf-29afefb83b38","ios":"levelo://app?vid=16304e3b-4bd7-49a6-8adf-29afefb83b38"},"vehicle_type_id":"4","last_reported":1700820495,"current_range_meters":30800,"station_id":"ce4bgup2rcd13ifvqco0","pricing_plan_id":"free"},{"bike_id":"1dd7041b-e111-421a-8fc5-e2b7ab6f439a","system_id":"levelo_inurba_marseille","lat":43.309589,"lon":5.390258,"is_reserved":false,"is_disabled":false,"rental_uris":{"android":"levelo://app?vid=1dd7041b-e111-421a-8fc5-e2b7ab6f439a","ios":"levelo://app?vid=1dd7041b-e111-421a-8fc5-e2b7ab6f439a"},"vehicle_type_id":"4","last_reported":1700820495,"current_range_meters":24800,"station_id":"ce4bgup2rcd13ifvqco0","pricing_plan_id":"free"},{"bike_id":"f802f4b8-4e2c-466d-8c31-7bd4a23ab145","system_id":"levelo_inurba_marseille","lat":43.309589,"lon":5.390258,"is_reserved":false,"is_disabled":false,"rental_uris":{"android":"levelo://app?vid=f802f4b8-4e2c-466d-8c31-7bd4a23ab145","ios":"levelo://app?vid=f802f4b8-4e2c-466d-8c31-7bd4a23ab145"},"vehicle_type_id":"4","last_reported":1700820495,"current_range_meters":0,"station_id":"ce4bgup2rcd13ifvqco0","pricing_plan_id":"free"},{"bike_id":"e870a805-2fbd-40ae-aeb8-108dc772ed5d","system_id":"levelo_inurba_marseille","lat":43.31759,"lon":5.390253,"is_reserved":false,"is_disabled":false,"rental_uris":{"android":"levelo://app?vid=e870a805-2fbd-40ae-aeb8-108dc772ed5d","ios":"levelo://app?vid=e870a805-2fbd-40ae-aeb8-108dc772ed5d"},"vehicle_type_id":"4","last_reported":1700820495,"current_range_meters":0,"station_id":"ce4bhqp2rcd13ifvqhng","pricing_plan_id":"free"},{"bike_id":"1e712022-75db-42c5-8d84-dfb499aaed0a","system_id":"levelo_inurba_marseille","lat":43.298037,"lon":5.381066,"is_reserved":false,"is_disabled":false,"rental_uris":{"android":"levelo://app?vid=1e712022-75db-42c5-8d84-dfb499aaed0a","ios":"levelo://app?vid=1e712022-75db-42c5-8d84-dfb499aaed0a"},"vehicle_type_id":"4","last_reported":1700820495,"current_range_meters":4400,"station_id":"ce4bgip2rcd13ifvqbb0","pricing_plan_id":"free"},{"bike_id":"5b736aca-063b-4e50-a4f2-24c35743e5e9","system_id":"levelo_inurba_marseille","lat":43.29596,"lon":5.37727,"is_reserved":false,"is_disabled":false,"rental_uris":{"android":"levelo://app?vid=5b736aca-063b-4e50-a4f2-24c35743e5e9","ios":"levelo://app?vid=5b736aca-063b-4e50-a4f2-24c35743e5e9"},"vehicle_type_id":"4","last_reported":1700820495,"current_range_meters":20000,"station_id":"ce4bgi92rcd13ifvqb90","pricing_plan_id":"free"},{"bike_id":"3343097e-1ed6-4fab-b521-f8a7f986cbf7","system_id":"levelo_inurba_marseille","lat":43.295279,"lon":5.375048,"is_reserved":false,"is_disabled":false,"rental_uris":{"android":"levelo://app?vid=3343097e-1ed6-4fab-b521-f8a7f986cbf7","ios":"levelo://app?vid=3343097e-1ed6-4fab-b521-f8a7f986cbf7"},"vehicle_type_id":"4","last_reported":1700820495,"current_range_meters":0,"station_id":"ce4bgkp2rcd13ifvqbmg","pricing_plan_id":"free"},{"bike_id":"9a6f1074-5c36-4c92-a4e6-32457a12bbee","system_id":"levelo_inurba_marseille","lat":43.295279,"lon":5.375048,"is_reserved":false,"is_disabled":false,"rental_uris":{"android":"levelo://app?vid=9a6f1074-5c36-4c92-a4e6-32457a12bbee","ios":"levelo://app?vid=9a6f1074-5c36-4c92-a4e6-32457a12bbee"},"vehicle_type_id":"4","last_reported":1700820495,"current_range_meters":27200,"station_id":"ce4bgkp2rcd13ifvqbmg","pricing_plan_id":"free"},{"bike_id":"6b621983-5e9e-42f7-990d-ad5a093820d2","system_id":"levelo_inurba_marseille","lat":43.293801,"lon":5.363066,"is_reserved":false,"is_disabled":false,"rental_uris":{"android":"levelo://app?vid=6b621983-5e9e-42f7-990d-ad5a093820d2","ios":"levelo://app?vid=6b621983-5e9e-42f7-990d-ad5a093820d2"},"vehicle_type_id":"4","last_reported":1700820495,"current_range_meters":4800,"station_id":"","pricing_plan_id":"free"},{"bike_id":"c35a6482-0ebf-440b-aeaa-a7f5794c28ee","system_id":"levelo_inurba_marseille","lat":43.29602,"lon":5.381084,"is_reserved":false,"is_disabled":false,"rental_uris":{"android":"levelo://app?vid=c35a6482-0ebf-440b-aeaa-a7f5794c28ee","ios":"levelo://app?vid=c35a6482-0ebf-440b-aeaa-a7f5794c28ee"},"vehicle_type_id":"4","last_reported":1700820495,"current_range_meters":12400,"station_id":"ce4bgl12rcd13ifvqbo0","pricing_plan_id":"free"},{"bike_id":"40651570-2caa-481e-83f2-ed9b577fc84a","system_id":"levelo_inurba_marseille","lat":43.323685,"lon":5.389215,"is_reserved":false,"is_disabled":false,"rental_uris":{"android":"levelo://app?vid=40651570-2caa-481e-83f2-ed9b577fc84a","ios":"levelo://app?vid=40651570-2caa-481e-83f2-ed9b577fc84a"},"vehicle_type_id":"4","last_reported":1700820495,"current_range_meters":13200,"station_id":"ce4bhqp2rcd13ifvqhog","pricing_plan_id":"free"},{"bike_id":"bbd8c562-748c-4992-b875-f41124e123f7","system_id":"levelo_inurba_marseille","lat":43.295983,"lon":5.380947,"is_reserved":false,"is_disabled":false,"rental_uris":{"android":"levelo://app?vid=bbd8c562-748c-4992-b875-f41124e123f7","ios":"levelo://app?vid=bbd8c562-748c-4992-b875-f41124e123f7"},"vehicle_type_id":"4","last_reported":1700820495,"current_range_meters":20800,"station_id":"ce4bgl12rcd13ifvqbo0","pricing_plan_id":"free"},{"bike_id":"4f4e05cd-7e88-4ca0-a752-91e2aa2ae27c","system_id":"levelo_inurba_marseille","lat":43.292685,"lon":5.368485,"is_reserved":false,"is_disabled":false,"rental_uris":{"android":"levelo://app?vid=4f4e05cd-7e88-4ca0-a752-91e2aa2ae27c","ios":"levelo://app?vid=4f4e05cd-7e88-4ca0-a752-91e2aa2ae27c"},"vehicle_type_id":"4","last_reported":1700820495,"current_range_meters":0,"station_id":"ce4bhbp2rcd13ifvqesg","pricing_plan_id":"free"},{"bike_id":"9da694cb-976a-4826-805d-8e628dcff131","system_id":"levelo_inurba_marseille","lat":43.2936,"lon":5.37835,"is_reserved":false,"is_disabled":false,"rental_uris":{"android":"levelo://app?vid=9da694cb-976a-4826-805d-8e628dcff131","ios":"levelo://app?vid=9da694cb-976a-4826-805d-8e628dcff131"},"vehicle_type_id":"4","last_reported":1700820495,"current_range_meters":11200,"station_id":"ce4bgjh2rcd13ifvqbf0","pricing_plan_id":"free"},{"bike_id":"44e6f16c-314b-4a9e-bacb-ebb424265026","system_id":"levelo_inurba_marseille","lat":43.292311,"lon":5.360731,"is_reserved":false,"is_disabled":false,"rental_uris":{"android":"levelo://app?vid=44e6f16c-314b-4a9e-bacb-ebb424265026","ios":"levelo://app?vid=44e6f16c-314b-4a9e-bacb-ebb424265026"},"vehicle_type_id":"4","last_reported":1700820495,"current_range_meters":27200,"station_id":"ce4bhbh2rcd13ifvqeqg","pricing_plan_id":"free"},{"bike_id":"a193e712-e2dc-46eb-9162-a703c91af4f7","system_id":"levelo_inurba_marseille","lat":43.292663,"lon":5.376394,"is_reserved":false,"is_disabled":false,"rental_uris":{"android":"levelo://app?vid=a193e712-e2dc-46eb-9162-a703c91af4f7","ios":"levelo://app?vid=a193e712-e2dc-46eb-9162-a703c91af4f7"},"vehicle_type_id":"4","last_reported":1700820495,"current_range_meters":22000,"station_id":"ce4bgi12rcd13ifvqb80","pricing_plan_id":"free"},{"bike_id":"d0cb0478-7849-4cee-9b4c-22ffce517e00","system_id":"levelo_inurba_marseille","lat":43.291671,"lon":5.371575,"is_reserved":false,"is_disabled":false,"rental_uris":{"android":"levelo://app?vid=d0cb0478-7849-4cee-9b4c-22ffce517e00","ios":"levelo://app?vid=d0cb0478-7849-4cee-9b4c-22ffce517e00"},"vehicle_type_id":"4","last_reported":1700820495,"current_range_meters":15600,"station_id":"ce4bha92rcd13ifvqeh0","pricing_plan_id":"free"},{"bike_id":"7fb53e6a-55f3-47ce-aa7c-8a95176c58dd","system_id":"levelo_inurba_marseille","lat":43.309047,"lon":5.396551,"is_reserved":false,"is_disabled":false,"rental_uris":{"android":"levelo://app?vid=7fb53e6a-55f3-47ce-aa7c-8a95176c58dd","ios":"levelo://app?vid=7fb53e6a-55f3-47ce-aa7c-8a95176c58dd"},"vehicle_type_id":"4","last_reported":1700820495,"current_range_meters":6800,"station_id":"ce4bh012rcd13ifvqcv0","pricing_plan_id":"free"},{"bike_id":"1d10a1b1-d55f-4279-928a-9c6858f32ca9","system_id":"levelo_inurba_marseille","lat":43.33211,"lon":5.38112,"is_reserved":false,"is_disabled":false,"rental_uris":{"android":"levelo://app?vid=1d10a1b1-d55f-4279-928a-9c6858f32ca9","ios":"levelo://app?vid=1d10a1b1-d55f-4279-928a-9c6858f32ca9"},"vehicle_type_id":"4","last_reported":1700820495,"current_range_meters":0,"station_id":"","pricing_plan_id":"free"},{"bike_id":"abeaec4e-8d26-4137-9c60-3b835f79d7e6","system_id":"levelo_inurba_marseille","lat":43.294153,"lon":5.386305,"is_reserved":false,"is_disabled":false,"rental_uris":{"android":"levelo://app?vid=abeaec4e-8d26-4137-9c60-3b835f79d7e6","ios":"levelo://app?vid=abeaec4e-8d26-4137-9c60-3b835f79d7e6"},"vehicle_type_id":"4","last_reported":1700820495,"current_range_meters":16400,"station_id":"ce4bh2h2rcd13ifvqdh0","pricing_plan_id":"free"},{"bike_id":"366460f3-eef0-48a2-b014-19621b1efdb9","system_id":"levelo_inurba_marseille","lat":43.28941,"lon":5.36408,"is_reserved":false,"is_disabled":false,"rental_uris":{"android":"levelo://app?vid=366460f3-eef0-48a2-b014-19621b1efdb9","ios":"levelo://app?vid=366460f3-eef0-48a2-b014-19621b1efdb9"},"vehicle_type_id":"4","last_reported":1700820495,"current_range_meters":14000,"station_id":"ce4bhc92rcd13ifvqetg","pricing_plan_id":"free"},{"bike_id":"5d100be7-7881-4ceb-b38d-9a52d0a75e19","system_id":"levelo_inurba_marseille","lat":43.304296,"lon":5.397513,"is_reserved":false,"is_disabled":false,"rental_uris":{"android":"levelo://app?vid=5d100be7-7881-4ceb-b38d-9a52d0a75e19","ios":"levelo://app?vid=5d100be7-7881-4ceb-b38d-9a52d0a75e19"},"vehicle_type_id":"4","last_reported":1700820495,"current_range_meters":20000,"station_id":"ce4bh092rcd13ifvqd20","pricing_plan_id":"free"},{"bike_id":"6904b484-132c-42a8-a3c7-a1f453b205cd","system_id":"levelo_inurba_marseille","lat":43.330442,"lon":5.389148,"is_reserved":false,"is_disabled":false,"rental_uris":{"android":"levelo://app?vid=6904b484-132c-42a8-a3c7-a1f453b205cd","ios":"levelo://app?vid=6904b484-132c-42a8-a3c7-a1f453b205cd"},"vehicle_type_id":"4","last_reported":1700820495,"current_range_meters":18800,"station_id":"ce4bhr92rcd13ifvqhrg","pricing_plan_id":"free"},{"bike_id":"a9224cb7-5453-4df4-a648-87cd048f71a5","system_id":"levelo_inurba_marseille","lat":43.33045,"lon":5.38913,"is_reserved":false,"is_disabled":false,"rental_uris":{"android":"levelo://app?vid=a9224cb7-5453-4df4-a648-87cd048f71a5","ios":"levelo://app?vid=a9224cb7-5453-4df4-a648-87cd048f71a5"},"vehicle_type_id":"4","last_reported":1700820495,"current_range_meters":0,"station_id":"","pricing_plan_id":"free"},{"bike_id":"42704df7-7d2b-4d81-9e6e-2b928b8ef9d0","system_id":"levelo_inurba_marseille","lat":43.290104,"lon":5.356111,"is_reserved":false,"is_disabled":false,"rental_uris":{"android":"levelo://app?vid=42704df7-7d2b-4d81-9e6e-2b928b8ef9d0","ios":"levelo://app?vid=42704df7-7d2b-4d81-9e6e-2b928b8ef9d0"},"vehicle_type_id":"4","last_reported":1700820495,"current_range_meters":24400,"station_id":"ce4bhb92rcd13ifvqen0","pricing_plan_id":"free"},{"bike_id":"b65e3639-e548-41e0-abfb-e36fedc1f2dd","system_id":"levelo_inurba_marseille","lat":43.290103,"lon":5.356114,"is_reserved":false,"is_disabled":false,"rental_uris":{"android":"levelo://app?vid=b65e3639-e548-41e0-abfb-e36fedc1f2dd","ios":"levelo://app?vid=b65e3639-e548-41e0-abfb-e36fedc1f2dd"},"vehicle_type_id":"4","last_reported":1700820495,"current_range_meters":23600,"station_id":"ce4bhb92rcd13ifvqen0","pricing_plan_id":"free"},{"bike_id":"23d9a9f3-edb9-4742-abee-1818ec159060","system_id":"levelo_inurba_marseille","lat":43.33046,"lon":5.38924,"is_reserved":false,"is_disabled":false,"rental_uris":{"android":"levelo://app?vid=23d9a9f3-edb9-4742-abee-1818ec159060","ios":"levelo://app?vid=23d9a9f3-edb9-4742-abee-1818ec159060"},"vehicle_type_id":"4","last_reported":1700820495,"current_range_meters":25200,"station_id":"ce4bhr92rcd13ifvqhrg","pricing_plan_id":"free"},{"bike_id":"cecfc2fa-6645-436f-973e-d00bd3349937","system_id":"levelo_inurba_marseille","lat":43.29524,"lon":5.39049,"is_reserved":false,"is_disabled":false,"rental_uris":{"android":"levelo://app?vid=cecfc2fa-6645-436f-973e-d00bd3349937","ios":"levelo://app?vid=cecfc2fa-6645-436f-973e-d00bd3349937"},"vehicle_type_id":"4","last_reported":1700820495,"current_range_meters":5600,"station_id":"","pricing_plan_id":"free"},{"bike_id":"dc1e1922-36ef-469e-be44-30c5b19cde89","system_id":"levelo_inurba_marseille","lat":43.28856,"lon":5.358371,"is_reserved":false,"is_disabled":false,"rental_uris":{"android":"levelo://app?vid=dc1e1922-36ef-469e-be44-30c5b19cde89","ios":"levelo://app?vid=dc1e1922-36ef-469e-be44-30c5b19cde89"},"vehicle_type_id":"4","last_reported":1700820495,"current_range_meters":29200,"station_id":"ce4bhb12rcd13ifvqem0","pricing_plan_id":"free"},{"bike_id":"6cdb4001-bbfd-4d88-957d-555ecf137c1a","system_id":"levelo_inurba_marseille","lat":43.287179,"lon":5.373788,"is_reserved":false,"is_disabled":false,"rental_uris":{"android":"levelo://app?vid=6cdb4001-bbfd-4d88-957d-555ecf137c1a","ios":"levelo://app?vid=6cdb4001-bbfd-4d88-957d-555ecf137c1a"},"vehicle_type_id":"4","last_reported":1700820495,"current_range_meters":17200,"station_id":"","pricing_plan_id":"free"},{"bike_id":"b7f0d7d8-fd96-4ba1-9f11-8742e030e08c","system_id":"levelo_inurba_marseille","lat":43.298681,"lon":5.397225,"is_reserved":false,"is_disabled":false,"rental_uris":{"android":"levelo://app?vid=b7f0d7d8-fd96-4ba1-9f11-8742e030e08c","ios":"levelo://app?vid=b7f0d7d8-fd96-4ba1-9f11-8742e030e08c"},"vehicle_type_id":"4","last_reported":1700820495,"current_range_meters":17200,"station_id":"ce4bh0h2rcd13ifvqd50","pricing_plan_id":"free"},{"bike_id":"275827c1-bbaa-4ffc-880e-b6c9a82a9974","system_id":"levelo_inurba_marseille","lat":43.302759,"lon":5.400793,"is_reserved":false,"is_disabled":false,"rental_uris":{"android":"levelo://app?vid=275827c1-bbaa-4ffc-880e-b6c9a82a9974","ios":"levelo://app?vid=275827c1-bbaa-4ffc-880e-b6c9a82a9974"},"vehicle_type_id":"4","last_reported":1700820495,"current_range_meters":24400,"station_id":"ce4bgvh2rcd13ifvqcs0","pricing_plan_id":"free"},{"bike_id":"dbd1db2a-8bd7-43ce-9445-d39c45a1ceb0","system_id":"levelo_inurba_marseille","lat":43.302759,"lon":5.400793,"is_reserved":false,"is_disabled":false,"rental_uris":{"android":"levelo://app?vid=dbd1db2a-8bd7-43ce-9445-d39c45a1ceb0","ios":"levelo://app?vid=dbd1db2a-8bd7-43ce-9445-d39c45a1ceb0"},"vehicle_type_id":"4","last_reported":1700820495,"current_range_meters":11200,"station_id":"ce4bgvh2rcd13ifvqcs0","pricing_plan_id":"free"},{"bike_id":"35f3ec96-509a-4d1d-8302-7797827aa0ac","system_id":"levelo_inurba_marseille","lat":43.30251,"lon":5.40095,"is_reserved":false,"is_disabled":false,"rental_uris":{"android":"levelo://app?vid=35f3ec96-509a-4d1d-8302-7797827aa0ac","ios":"levelo://app?vid=35f3ec96-509a-4d1d-8302-7797827aa0ac"},"vehicle_type_id":"4","last_reported":1700820495,"current_range_meters":20800,"station_id":"ce4bgvh2rcd13ifvqcs0","pricing_plan_id":"free"},{"bike_id":"85c995a5-09df-4e68-9220-a299f51d12da","system_id":"levelo_inurba_marseille","lat":43.287184,"lon":5.37937,"is_reserved":false,"is_disabled":false,"rental_uris":{"android":"levelo://app?vid=85c995a5-09df-4e68-9220-a299f51d12da","ios":"levelo://app?vid=85c995a5-09df-4e68-9220-a299f51d12da"},"vehicle_type_id":"4","last_reported":1700820495,"current_range_meters":20800,"station_id":"ce4bh9p2rcd13ifvqec0","pricing_plan_id":"free"},{"bike_id":"d14cd9f7-531b-464e-9c84-1fbc4cc3adf7","system_id":"levelo_inurba_marseille","lat":43.287185,"lon":5.379373,"is_reserved":false,"is_disabled":false,"rental_uris":{"android":"levelo://app?vid=d14cd9f7-531b-464e-9c84-1fbc4cc3adf7","ios":"levelo://app?vid=d14cd9f7-531b-464e-9c84-1fbc4cc3adf7"},"vehicle_type_id":"4","last_reported":1700820495,"current_range_meters":27600,"station_id":"ce4bh9p2rcd13ifvqec0","pricing_plan_id":"free"},{"bike_id":"ac3c5531-9e4c-43fb-98e2-1df187f8ae8d","system_id":"levelo_inurba_marseille","lat":43.28482,"lon":5.38417,"is_reserved":false,"is_disabled":false,"rental_uris":{"android":"levelo://app?vid=ac3c5531-9e4c-43fb-98e2-1df187f8ae8d","ios":"levelo://app?vid=ac3c5531-9e4c-43fb-98e2-1df187f8ae8d"},"vehicle_type_id":"4","last_reported":1700820495,"current_range_meters":0,"station_id":"ce4bh512rcd13ifvqe3g","pricing_plan_id":"free"},{"bike_id":"d34671f2-7678-44ca-92c6-49c95f7aa31a","system_id":"levelo_inurba_marseille","lat":43.284787,"lon":5.384116,"is_reserved":false,"is_disabled":false,"rental_uris":{"android":"levelo://app?vid=d34671f2-7678-44ca-92c6-49c95f7aa31a","ios":"levelo://app?vid=d34671f2-7678-44ca-92c6-49c95f7aa31a"},"vehicle_type_id":"4","last_reported":1700820495,"current_range_meters":19600,"station_id":"ce4bh512rcd13ifvqe3g","pricing_plan_id":"free"},{"bike_id":"98dcb11e-91b2-4689-9937-7cfb8a5541ba","system_id":"levelo_inurba_marseille","lat":43.288501,"lon":5.393087,"is_reserved":false,"is_disabled":false,"rental_uris":{"android":"levelo://app?vid=98dcb11e-91b2-4689-9937-7cfb8a5541ba","ios":"levelo://app?vid=98dcb11e-91b2-4689-9937-7cfb8a5541ba"},"vehicle_type_id":"4","last_reported":1700820495,"current_range_meters":2800,"station_id":"ce4bh2p2rcd13ifvqdi0","pricing_plan_id":"free"},{"bike_id":"e2284003-4e46-4e0a-93e7-73d05c3666d9","system_id":"levelo_inurba_marseille","lat":43.33479,"lon":5.39788,"is_reserved":false,"is_disabled":false,"rental_uris":{"android":"levelo://app?vid=e2284003-4e46-4e0a-93e7-73d05c3666d9","ios":"levelo://app?vid=e2284003-4e46-4e0a-93e7-73d05c3666d9"},"vehicle_type_id":"4","last_reported":1700820495,"current_range_meters":25200,"station_id":"","pricing_plan_id":"free"},{"bike_id":"b4bc6c19-20e6-4b1e-b989-40d4ba171e93","system_id":"levelo_inurba_marseille","lat":43.33528,"lon":5.39761,"is_reserved":false,"is_disabled":false,"rental_uris":{"android":"levelo://app?vid=b4bc6c19-20e6-4b1e-b989-40d4ba171e93","ios":"levelo://app?vid=b4bc6c19-20e6-4b1e-b989-40d4ba171e93"},"vehicle_type_id":"4","last_reported":1700820495,"current_range_meters":6000,"station_id":"","pricing_plan_id":"free"},{"bike_id":"d88c6fa6-574e-45c4-8492-cb8062571710","system_id":"levelo_inurba_marseille","lat":43.292724,"lon":5.401131,"is_reserved":false,"is_disabled":false,"rental_uris":{"android":"levelo://app?vid=d88c6fa6-574e-45c4-8492-cb8062571710","ios":"levelo://app?vid=d88c6fa6-574e-45c4-8492-cb8062571710"},"vehicle_type_id":"4","last_reported":1700820495,"current_range_meters":23600,"station_id":"ce4bh312rcd13ifvqdk0","pricing_plan_id":"free"},{"bike_id":"fc231c5f-d015-44c9-bf62-cb4400e16e74","system_id":"levelo_inurba_marseille","lat":43.29169,"lon":5.40007,"is_reserved":false,"is_disabled":false,"rental_uris":{"android":"levelo://app?vid=fc231c5f-d015-44c9-bf62-cb4400e16e74","ios":"levelo://app?vid=fc231c5f-d015-44c9-bf62-cb4400e16e74"},"vehicle_type_id":"4","last_reported":1700820495,"current_range_meters":6800,"station_id":"","pricing_plan_id":"free"},{"bike_id":"11128761-6914-49db-a417-29528d7b7f60","system_id":"levelo_inurba_marseille","lat":43.282754,"lon":5.350519,"is_reserved":false,"is_disabled":false,"rental_uris":{"android":"levelo://app?vid=11128761-6914-49db-a417-29528d7b7f60","ios":"levelo://app?vid=11128761-6914-49db-a417-29528d7b7f60"},"vehicle_type_id":"4","last_reported":1700820495,"current_range_meters":28000,"station_id":"ce4bhbp2rcd13ifvqerg","pricing_plan_id":"free"},{"bike_id":"20771b68-858f-4c8c-ae0c-2e209df0d9b4","system_id":"levelo_inurba_marseille","lat":43.282754,"lon":5.350519,"is_reserved":false,"is_disabled":false,"rental_uris":{"android":"levelo://app?vid=20771b68-858f-4c8c-ae0c-2e209df0d9b4","ios":"levelo://app?vid=20771b68-858f-4c8c-ae0c-2e209df0d9b4"},"vehicle_type_id":"4","last_reported":1700820495,"current_range_meters":23200,"station_id":"ce4bhbp2rcd13ifvqerg","pricing_plan_id":"free"},{"bike_id":"6ca31bcc-d07d-4f79-9f89-cef8468eadd4","system_id":"levelo_inurba_marseille","lat":43.281044,"lon":5.378308,"is_reserved":false,"is_disabled":false,"rental_uris":{"android":"levelo://app?vid=6ca31bcc-d07d-4f79-9f89-cef8468eadd4","ios":"levelo://app?vid=6ca31bcc-d07d-4f79-9f89-cef8468eadd4"},"vehicle_type_id":"4","last_reported":1700820495,"current_range_meters":26400,"station_id":"ce4bha12rcd13ifvqee0","pricing_plan_id":"free"},{"bike_id":"dce51cde-6103-40b4-8c09-2c26464f88c7","system_id":"levelo_inurba_marseille","lat":43.290412,"lon":5.399633,"is_reserved":false,"is_disabled":false,"rental_uris":{"android":"levelo://app?vid=dce51cde-6103-40b4-8c09-2c26464f88c7","ios":"levelo://app?vid=dce51cde-6103-40b4-8c09-2c26464f88c7"},"vehicle_type_id":"4","last_reported":1700820495,"current_range_meters":30800,"station_id":"ce4bh392rcd13ifvqdm0","pricing_plan_id":"free"},{"bike_id":"3ad44d9b-922e-44a3-9fc4-62194c6f5629","system_id":"levelo_inurba_marseille","lat":43.281044,"lon":5.378308,"is_reserved":false,"is_disabled":false,"rental_uris":{"android":"levelo://app?vid=3ad44d9b-922e-44a3-9fc4-62194c6f5629","ios":"levelo://app?vid=3ad44d9b-922e-44a3-9fc4-62194c6f5629"},"vehicle_type_id":"4","last_reported":1700820495,"current_range_meters":26000,"station_id":"ce4bha12rcd13ifvqee0","pricing_plan_id":"free"},{"bike_id":"109fcf71-4962-44ff-9de8-26cba3a767e0","system_id":"levelo_inurba_marseille","lat":43.326605,"lon":5.409903,"is_reserved":false,"is_disabled":false,"rental_uris":{"android":"levelo://app?vid=109fcf71-4962-44ff-9de8-26cba3a767e0","ios":"levelo://app?vid=109fcf71-4962-44ff-9de8-26cba3a767e0"},"vehicle_type_id":"4","last_reported":1700820495,"current_range_meters":14800,"station_id":"ce4bhpp2rcd13ifvqhgg","pricing_plan_id":"free"},{"bike_id":"5de45e7e-42bc-4fd8-9d52-80f700812aa8","system_id":"levelo_inurba_marseille","lat":43.326605,"lon":5.409903,"is_reserved":false,"is_disabled":false,"rental_uris":{"android":"levelo://app?vid=5de45e7e-42bc-4fd8-9d52-80f700812aa8","ios":"levelo://app?vid=5de45e7e-42bc-4fd8-9d52-80f700812aa8"},"vehicle_type_id":"4","last_reported":1700820495,"current_range_meters":20000,"station_id":"ce4bhpp2rcd13ifvqhgg","pricing_plan_id":"free"},{"bike_id":"e8997d84-e9e0-4aaa-a76a-c6d2af7271c7","system_id":"levelo_inurba_marseille","lat":43.298797,"lon":5.410352,"is_reserved":false,"is_disabled":false,"rental_uris":{"android":"levelo://app?vid=e8997d84-e9e0-4aaa-a76a-c6d2af7271c7","ios":"levelo://app?vid=e8997d84-e9e0-4aaa-a76a-c6d2af7271c7"},"vehicle_type_id":"4","last_reported":1700820495,"current_range_meters":400,"station_id":"","pricing_plan_id":"free"},{"bike_id":"efd95772-556a-4225-846a-a15cf865133a","system_id":"levelo_inurba_marseille","lat":43.287154,"lon":5.399979,"is_reserved":false,"is_disabled":false,"rental_uris":{"android":"levelo://app?vid=efd95772-556a-4225-846a-a15cf865133a","ios":"levelo://app?vid=efd95772-556a-4225-846a-a15cf865133a"},"vehicle_type_id":"4","last_reported":1700820495,"current_range_meters":13600,"station_id":"ce4bho92rcd13ifvqh3g","pricing_plan_id":"free"},{"bike_id":"8b20fa08-6ae1-47a7-bb7d-56160fdff54a","system_id":"levelo_inurba_marseille","lat":43.287154,"lon":5.399979,"is_reserved":false,"is_disabled":false,"rental_uris":{"android":"levelo://app?vid=8b20fa08-6ae1-47a7-bb7d-56160fdff54a","ios":"levelo://app?vid=8b20fa08-6ae1-47a7-bb7d-56160fdff54a"},"vehicle_type_id":"4","last_reported":1700820495,"current_range_meters":18000,"station_id":"ce4bho92rcd13ifvqh3g","pricing_plan_id":"free"},{"bike_id":"e0992a0d-3dca-4037-b504-626819a84e37","system_id":"levelo_inurba_marseille","lat":43.320045,"lon":5.415046,"is_reserved":false,"is_disabled":false,"rental_uris":{"android":"levelo://app?vid=e0992a0d-3dca-4037-b504-626819a84e37","ios":"levelo://app?vid=e0992a0d-3dca-4037-b504-626819a84e37"},"vehicle_type_id":"4","last_reported":1700820495,"current_range_meters":26000,"station_id":"ce4bhq92rcd13ifvqhkg","pricing_plan_id":"free"},{"bike_id":"8c89d5e3-8e37-4976-9fd0-abb2717f2280","system_id":"levelo_inurba_marseille","lat":43.29261,"lon":5.40915,"is_reserved":false,"is_disabled":false,"rental_uris":{"android":"levelo://app?vid=8c89d5e3-8e37-4976-9fd0-abb2717f2280","ios":"levelo://app?vid=8c89d5e3-8e37-4976-9fd0-abb2717f2280"},"vehicle_type_id":"4","last_reported":1700820495,"current_range_meters":22000,"station_id":"ce4bh192rcd13ifvqdc0","pricing_plan_id":"free"},{"bike_id":"a954200a-e694-4ead-9ad3-420e90b99780","system_id":"levelo_inurba_marseille","lat":43.29252,"lon":5.40908,"is_reserved":false,"is_disabled":false,"rental_uris":{"android":"levelo://app?vid=a954200a-e694-4ead-9ad3-420e90b99780","ios":"levelo://app?vid=a954200a-e694-4ead-9ad3-420e90b99780"},"vehicle_type_id":"4","last_reported":1700820495,"current_range_meters":0,"station_id":"ce4bh192rcd13ifvqdc0","pricing_plan_id":"free"},{"bike_id":"380bea03-66b9-494a-9d3c-ad0da1c35a22","system_id":"levelo_inurba_marseille","lat":43.29367,"lon":5.412604,"is_reserved":false,"is_disabled":false,"rental_uris":{"android":"levelo://app?vid=380bea03-66b9-494a-9d3c-ad0da1c35a22","ios":"levelo://app?vid=380bea03-66b9-494a-9d3c-ad0da1c35a22"},"vehicle_type_id":"4","last_reported":1700820495,"current_range_meters":0,"station_id":"","pricing_plan_id":"free"},{"bike_id":"77b2220b-84ee-499a-86aa-c09591cf69e5","system_id":"levelo_inurba_marseille","lat":43.273613,"lon":5.362705,"is_reserved":false,"is_disabled":false,"rental_uris":{"android":"levelo://app?vid=77b2220b-84ee-499a-86aa-c09591cf69e5","ios":"levelo://app?vid=77b2220b-84ee-499a-86aa-c09591cf69e5"},"vehicle_type_id":"4","last_reported":1700820495,"current_range_meters":23200,"station_id":"ce4bhbh2rcd13ifvqeo0","pricing_plan_id":"free"},{"bike_id":"ad9fbbfd-a631-4f7d-954a-00dfd627a043","system_id":"levelo_inurba_marseille","lat":43.275625,"lon":5.384392,"is_reserved":false,"is_disabled":false,"rental_uris":{"android":"levelo://app?vid=ad9fbbfd-a631-4f7d-954a-00dfd627a043","ios":"levelo://app?vid=ad9fbbfd-a631-4f7d-954a-00dfd627a043"},"vehicle_type_id":"4","last_reported":1700820495,"current_range_meters":26000,"station_id":"ce4bhh92rcd13ifvqfi0","pricing_plan_id":"free"},{"bike_id":"2e63016a-34e5-40f5-84d9-668c39bbde6d","system_id":"levelo_inurba_marseille","lat":43.336134,"lon":5.410341,"is_reserved":false,"is_disabled":false,"rental_uris":{"android":"levelo://app?vid=2e63016a-34e5-40f5-84d9-668c39bbde6d","ios":"levelo://app?vid=2e63016a-34e5-40f5-84d9-668c39bbde6d"},"vehicle_type_id":"4","last_reported":1700820495,"current_range_meters":17600,"station_id":"ce4bhqh2rcd13ifvqhmg","pricing_plan_id":"free"},{"bike_id":"9a8f26ec-f183-465f-9363-2c44d4d80177","system_id":"levelo_inurba_marseille","lat":43.33612,"lon":5.410321,"is_reserved":false,"is_disabled":false,"rental_uris":{"android":"levelo://app?vid=9a8f26ec-f183-465f-9363-2c44d4d80177","ios":"levelo://app?vid=9a8f26ec-f183-465f-9363-2c44d4d80177"},"vehicle_type_id":"4","last_reported":1700820495,"current_range_meters":26400,"station_id":"ce4bhqh2rcd13ifvqhmg","pricing_plan_id":"free"},{"bike_id":"c65bccb9-79e2-4f2e-84cf-b24ef0047055","system_id":"levelo_inurba_marseille","lat":43.336134,"lon":5.410341,"is_reserved":false,"is_disabled":false,"rental_uris":{"android":"levelo://app?vid=c65bccb9-79e2-4f2e-84cf-b24ef0047055","ios":"levelo://app?vid=c65bccb9-79e2-4f2e-84cf-b24ef0047055"},"vehicle_type_id":"4","last_reported":1700820495,"current_range_meters":26800,"station_id":"ce4bhqh2rcd13ifvqhmg","pricing_plan_id":"free"},{"bike_id":"99cdfccc-b6d1-4d42-a20b-b719e8222b3e","system_id":"levelo_inurba_marseille","lat":43.33612,"lon":5.410321,"is_reserved":false,"is_disabled":false,"rental_uris":{"android":"levelo://app?vid=99cdfccc-b6d1-4d42-a20b-b719e8222b3e","ios":"levelo://app?vid=99cdfccc-b6d1-4d42-a20b-b719e8222b3e"},"vehicle_type_id":"4","last_reported":1700820495,"current_range_meters":30000,"station_id":"ce4bhqh2rcd13ifvqhmg","pricing_plan_id":"free"},{"bike_id":"fc8a50fc-7fb9-4b58-ae5e-3658ebaf4b71","system_id":"levelo_inurba_marseille","lat":43.341804,"lon":5.406072,"is_reserved":false,"is_disabled":false,"rental_uris":{"android":"levelo://app?vid=fc8a50fc-7fb9-4b58-ae5e-3658ebaf4b71","ios":"levelo://app?vid=fc8a50fc-7fb9-4b58-ae5e-3658ebaf4b71"},"vehicle_type_id":"4","last_reported":1700820495,"current_range_meters":5600,"station_id":"","pricing_plan_id":"free"},{"bike_id":"ee3353de-ad16-41b2-900b-c0d5b5e68caf","system_id":"levelo_inurba_marseille","lat":43.340804,"lon":5.410219,"is_reserved":false,"is_disabled":false,"rental_uris":{"android":"levelo://app?vid=ee3353de-ad16-41b2-900b-c0d5b5e68caf","ios":"levelo://app?vid=ee3353de-ad16-41b2-900b-c0d5b5e68caf"},"vehicle_type_id":"4","last_reported":1700820495,"current_range_meters":31200,"station_id":"ce4bhqh2rcd13ifvqhlg","pricing_plan_id":"free"},{"bike_id":"422eaa23-7465-45a6-8f34-ef03bb0d0a13","system_id":"levelo_inurba_marseille","lat":43.340804,"lon":5.410219,"is_reserved":false,"is_disabled":false,"rental_uris":{"android":"levelo://app?vid=422eaa23-7465-45a6-8f34-ef03bb0d0a13","ios":"levelo://app?vid=422eaa23-7465-45a6-8f34-ef03bb0d0a13"},"vehicle_type_id":"4","last_reported":1700820495,"current_range_meters":24400,"station_id":"ce4bhqh2rcd13ifvqhlg","pricing_plan_id":"free"},{"bike_id":"f6d19d1b-693b-4963-ba5a-4b930cec88fd","system_id":"levelo_inurba_marseille","lat":43.340804,"lon":5.410219,"is_reserved":false,"is_disabled":false,"rental_uris":{"android":"levelo://app?vid=f6d19d1b-693b-4963-ba5a-4b930cec88fd","ios":"levelo://app?vid=f6d19d1b-693b-4963-ba5a-4b930cec88fd"},"vehicle_type_id":"4","last_reported":1700820495,"current_range_meters":30800,"station_id":"ce4bhqh2rcd13ifvqhlg","pricing_plan_id":"free"},{"bike_id":"784eedf8-1ff9-494d-91cc-6d6e4e868912","system_id":"levelo_inurba_marseille","lat":43.340804,"lon":5.410219,"is_reserved":false,"is_disabled":false,"rental_uris":{"android":"levelo://app?vid=784eedf8-1ff9-494d-91cc-6d6e4e868912","ios":"levelo://app?vid=784eedf8-1ff9-494d-91cc-6d6e4e868912"},"vehicle_type_id":"4","last_reported":1700820495,"current_range_meters":29200,"station_id":"ce4bhqh2rcd13ifvqhlg","pricing_plan_id":"free"},{"bike_id":"e0251fd8-4e40-4ecc-8379-605029ccde6c","system_id":"levelo_inurba_marseille","lat":43.340804,"lon":5.410219,"is_reserved":false,"is_disabled":false,"rental_uris":{"android":"levelo://app?vid=e0251fd8-4e40-4ecc-8379-605029ccde6c","ios":"levelo://app?vid=e0251fd8-4e40-4ecc-8379-605029ccde6c"},"vehicle_type_id":"4","last_reported":1700820495,"current_range_meters":23200,"station_id":"ce4bhqh2rcd13ifvqhlg","pricing_plan_id":"free"},{"bike_id":"8cf32a11-a7f1-4b41-a589-35b58f8d38f6","system_id":"levelo_inurba_marseille","lat":43.340804,"lon":5.410219,"is_reserved":false,"is_disabled":false,"rental_uris":{"android":"levelo://app?vid=8cf32a11-a7f1-4b41-a589-35b58f8d38f6","ios":"levelo://app?vid=8cf32a11-a7f1-4b41-a589-35b58f8d38f6"},"vehicle_type_id":"4","last_reported":1700820495,"current_range_meters":28400,"station_id":"ce4bhqh2rcd13ifvqhlg","pricing_plan_id":"free"},{"bike_id":"48565e36-de67-4c6a-8337-460138cf3900","system_id":"levelo_inurba_marseille","lat":43.340804,"lon":5.410219,"is_reserved":false,"is_disabled":false,"rental_uris":{"android":"levelo://app?vid=48565e36-de67-4c6a-8337-460138cf3900","ios":"levelo://app?vid=48565e36-de67-4c6a-8337-460138cf3900"},"vehicle_type_id":"4","last_reported":1700820495,"current_range_meters":13200,"station_id":"ce4bhqh2rcd13ifvqhlg","pricing_plan_id":"free"},{"bike_id":"42402f9f-a5de-4464-b628-42de40584ac1","system_id":"levelo_inurba_marseille","lat":43.340804,"lon":5.410219,"is_reserved":false,"is_disabled":false,"rental_uris":{"android":"levelo://app?vid=42402f9f-a5de-4464-b628-42de40584ac1","ios":"levelo://app?vid=42402f9f-a5de-4464-b628-42de40584ac1"},"vehicle_type_id":"4","last_reported":1700820495,"current_range_meters":3200,"station_id":"ce4bhqh2rcd13ifvqhlg","pricing_plan_id":"free"},{"bike_id":"b784f7c7-3fbc-4eb4-b66d-df1b8f3f85cc","system_id":"levelo_inurba_marseille","lat":43.340804,"lon":5.410219,"is_reserved":false,"is_disabled":false,"rental_uris":{"android":"levelo://app?vid=b784f7c7-3fbc-4eb4-b66d-df1b8f3f85cc","ios":"levelo://app?vid=b784f7c7-3fbc-4eb4-b66d-df1b8f3f85cc"},"vehicle_type_id":"4","last_reported":1700820495,"current_range_meters":16800,"station_id":"ce4bhqh2rcd13ifvqhlg","pricing_plan_id":"free"},{"bike_id":"97314e2c-922d-4926-8482-13ffc8f97786","system_id":"levelo_inurba_marseille","lat":43.340804,"lon":5.410219,"is_reserved":false,"is_disabled":false,"rental_uris":{"android":"levelo://app?vid=97314e2c-922d-4926-8482-13ffc8f97786","ios":"levelo://app?vid=97314e2c-922d-4926-8482-13ffc8f97786"},"vehicle_type_id":"4","last_reported":1700820495,"current_range_meters":13600,"station_id":"ce4bhqh2rcd13ifvqhlg","pricing_plan_id":"free"},{"bike_id":"04c48993-d044-41c4-9cb8-117723655329","system_id":"levelo_inurba_marseille","lat":43.340804,"lon":5.410219,"is_reserved":false,"is_disabled":false,"rental_uris":{"android":"levelo://app?vid=04c48993-d044-41c4-9cb8-117723655329","ios":"levelo://app?vid=04c48993-d044-41c4-9cb8-117723655329"},"vehicle_type_id":"4","last_reported":1700820495,"current_range_meters":19600,"station_id":"ce4bhqh2rcd13ifvqhlg","pricing_plan_id":"free"},{"bike_id":"614f7aec-0302-4ab4-b9a6-259e7ed28ad7","system_id":"levelo_inurba_marseille","lat":43.274103,"lon":5.394016,"is_reserved":false,"is_disabled":false,"rental_uris":{"android":"levelo://app?vid=614f7aec-0302-4ab4-b9a6-259e7ed28ad7","ios":"levelo://app?vid=614f7aec-0302-4ab4-b9a6-259e7ed28ad7"},"vehicle_type_id":"4","last_reported":1700820495,"current_range_meters":21600,"station_id":"ce4bhdp2rcd13ifvqf20","pricing_plan_id":"free"},{"bike_id":"bda7536b-a64d-4e0d-aa00-8717a0191105","system_id":"levelo_inurba_marseille","lat":43.273125,"lon":5.390731,"is_reserved":false,"is_disabled":false,"rental_uris":{"android":"levelo://app?vid=bda7536b-a64d-4e0d-aa00-8717a0191105","ios":"levelo://app?vid=bda7536b-a64d-4e0d-aa00-8717a0191105"},"vehicle_type_id":"4","last_reported":1700820495,"current_range_meters":28000,"station_id":"ce4bhgp2rcd13ifvqfe0","pricing_plan_id":"free"},{"bike_id":"0b9c598b-3185-4b81-a8cc-dbcc658d8615","system_id":"levelo_inurba_marseille","lat":43.27314,"lon":5.39092,"is_reserved":false,"is_disabled":false,"rental_uris":{"android":"levelo://app?vid=0b9c598b-3185-4b81-a8cc-dbcc658d8615","ios":"levelo://app?vid=0b9c598b-3185-4b81-a8cc-dbcc658d8615"},"vehicle_type_id":"4","last_reported":1700820495,"current_range_meters":19200,"station_id":"ce4bhgp2rcd13ifvqfe0","pricing_plan_id":"free"},{"bike_id":"8275ed6b-64cd-402c-8294-185c9f16cdd5","system_id":"levelo_inurba_marseille","lat":43.274099,"lon":5.394019,"is_reserved":false,"is_disabled":false,"rental_uris":{"android":"levelo://app?vid=8275ed6b-64cd-402c-8294-185c9f16cdd5","ios":"levelo://app?vid=8275ed6b-64cd-402c-8294-185c9f16cdd5"},"vehicle_type_id":"4","last_reported":1700820495,"current_range_meters":25600,"station_id":"ce4bhdp2rcd13ifvqf20","pricing_plan_id":"free"},{"bike_id":"d3430d0d-8b70-4f43-9dcf-5582e2f58e2a","system_id":"levelo_inurba_marseille","lat":43.27208,"lon":5.39193,"is_reserved":false,"is_disabled":false,"rental_uris":{"android":"levelo://app?vid=d3430d0d-8b70-4f43-9dcf-5582e2f58e2a","ios":"levelo://app?vid=d3430d0d-8b70-4f43-9dcf-5582e2f58e2a"},"vehicle_type_id":"4","last_reported":1700820495,"current_range_meters":16800,"station_id":"ce4bhhp2rcd13ifvqfm0","pricing_plan_id":"free"},{"bike_id":"48c1fbfb-e6c4-4c56-a75c-55416f8bb4c3","system_id":"levelo_inurba_marseille","lat":43.27189,"lon":5.39306,"is_reserved":false,"is_disabled":false,"rental_uris":{"android":"levelo://app?vid=48c1fbfb-e6c4-4c56-a75c-55416f8bb4c3","ios":"levelo://app?vid=48c1fbfb-e6c4-4c56-a75c-55416f8bb4c3"},"vehicle_type_id":"4","last_reported":1700820495,"current_range_meters":24400,"station_id":"","pricing_plan_id":"free"},{"bike_id":"f4a0a1b8-6621-4fb9-9a2b-2bd55f48c55b","system_id":"levelo_inurba_marseille","lat":43.269467,"lon":5.386439,"is_reserved":false,"is_disabled":false,"rental_uris":{"android":"levelo://app?vid=f4a0a1b8-6621-4fb9-9a2b-2bd55f48c55b","ios":"levelo://app?vid=f4a0a1b8-6621-4fb9-9a2b-2bd55f48c55b"},"vehicle_type_id":"4","last_reported":1700820495,"current_range_meters":16400,"station_id":"ce4bhh92rcd13ifvqfh0","pricing_plan_id":"free"},{"bike_id":"3f890ca1-7eba-46c6-b86b-b0f92424a267","system_id":"levelo_inurba_marseille","lat":43.269467,"lon":5.386439,"is_reserved":false,"is_disabled":false,"rental_uris":{"android":"levelo://app?vid=3f890ca1-7eba-46c6-b86b-b0f92424a267","ios":"levelo://app?vid=3f890ca1-7eba-46c6-b86b-b0f92424a267"},"vehicle_type_id":"4","last_reported":1700820495,"current_range_meters":23200,"station_id":"ce4bhh92rcd13ifvqfh0","pricing_plan_id":"free"},{"bike_id":"0dce8a02-28e4-4bd7-970b-ba8635323d25","system_id":"levelo_inurba_marseille","lat":43.269467,"lon":5.386439,"is_reserved":false,"is_disabled":false,"rental_uris":{"android":"levelo://app?vid=0dce8a02-28e4-4bd7-970b-ba8635323d25","ios":"levelo://app?vid=0dce8a02-28e4-4bd7-970b-ba8635323d25"},"vehicle_type_id":"4","last_reported":1700820495,"current_range_meters":24800,"station_id":"ce4bhh92rcd13ifvqfh0","pricing_plan_id":"free"},{"bike_id":"c9ac3473-4cdb-4cf1-9a12-26cab065a558","system_id":"levelo_inurba_marseille","lat":43.269467,"lon":5.386439,"is_reserved":false,"is_disabled":false,"rental_uris":{"android":"levelo://app?vid=c9ac3473-4cdb-4cf1-9a12-26cab065a558","ios":"levelo://app?vid=c9ac3473-4cdb-4cf1-9a12-26cab065a558"},"vehicle_type_id":"4","last_reported":1700820495,"current_range_meters":25200,"station_id":"ce4bhh92rcd13ifvqfh0","pricing_plan_id":"free"},{"bike_id":"c00a7075-0c49-4d7a-8c3c-816c2fc5c06f","system_id":"levelo_inurba_marseille","lat":43.269467,"lon":5.386439,"is_reserved":false,"is_disabled":false,"rental_uris":{"android":"levelo://app?vid=c00a7075-0c49-4d7a-8c3c-816c2fc5c06f","ios":"levelo://app?vid=c00a7075-0c49-4d7a-8c3c-816c2fc5c06f"},"vehicle_type_id":"4","last_reported":1700820495,"current_range_meters":31200,"station_id":"ce4bhh92rcd13ifvqfh0","pricing_plan_id":"free"},{"bike_id":"f3cc7aeb-d1d9-41cf-bc7f-7c49b6322b39","system_id":"levelo_inurba_marseille","lat":43.269467,"lon":5.386439,"is_reserved":false,"is_disabled":false,"rental_uris":{"android":"levelo://app?vid=f3cc7aeb-d1d9-41cf-bc7f-7c49b6322b39","ios":"levelo://app?vid=f3cc7aeb-d1d9-41cf-bc7f-7c49b6322b39"},"vehicle_type_id":"4","last_reported":1700820495,"current_range_meters":15600,"station_id":"ce4bhh92rcd13ifvqfh0","pricing_plan_id":"free"},{"bike_id":"91cf7d6d-6a48-40d6-a390-a469feb9c050","system_id":"levelo_inurba_marseille","lat":43.269467,"lon":5.386439,"is_reserved":false,"is_disabled":false,"rental_uris":{"android":"levelo://app?vid=91cf7d6d-6a48-40d6-a390-a469feb9c050","ios":"levelo://app?vid=91cf7d6d-6a48-40d6-a390-a469feb9c050"},"vehicle_type_id":"4","last_reported":1700820495,"current_range_meters":14400,"station_id":"ce4bhh92rcd13ifvqfh0","pricing_plan_id":"free"},{"bike_id":"836105e5-fae8-4bc7-91ee-a0e1fa65b8cc","system_id":"levelo_inurba_marseille","lat":43.279465,"lon":5.410561,"is_reserved":false,"is_disabled":false,"rental_uris":{"android":"levelo://app?vid=836105e5-fae8-4bc7-91ee-a0e1fa65b8cc","ios":"levelo://app?vid=836105e5-fae8-4bc7-91ee-a0e1fa65b8cc"},"vehicle_type_id":"4","last_reported":1700820495,"current_range_meters":9200,"station_id":"ce4bhnp2rcd13ifvqh0g","pricing_plan_id":"free"},{"bike_id":"f60e0cdd-f643-4f09-b32f-53fdd78bcbb4","system_id":"levelo_inurba_marseille","lat":43.279476,"lon":5.410514,"is_reserved":false,"is_disabled":false,"rental_uris":{"android":"levelo://app?vid=f60e0cdd-f643-4f09-b32f-53fdd78bcbb4","ios":"levelo://app?vid=f60e0cdd-f643-4f09-b32f-53fdd78bcbb4"},"vehicle_type_id":"4","last_reported":1700820495,"current_range_meters":0,"station_id":"ce4bhnp2rcd13ifvqh0g","pricing_plan_id":"free"},{"bike_id":"4b084f2c-adb7-4cd1-9f15-6c7d7b135df0","system_id":"levelo_inurba_marseille","lat":43.26681,"lon":5.382694,"is_reserved":false,"is_disabled":false,"rental_uris":{"android":"levelo://app?vid=4b084f2c-adb7-4cd1-9f15-6c7d7b135df0","ios":"levelo://app?vid=4b084f2c-adb7-4cd1-9f15-6c7d7b135df0"},"vehicle_type_id":"4","last_reported":1700820495,"current_range_meters":12400,"station_id":"ce4bhg92rcd13ifvqf90","pricing_plan_id":"free"},{"bike_id":"41de51a6-505b-4bd1-af98-8b03e9811828","system_id":"levelo_inurba_marseille","lat":43.26681,"lon":5.382694,"is_reserved":false,"is_disabled":false,"rental_uris":{"android":"levelo://app?vid=41de51a6-505b-4bd1-af98-8b03e9811828","ios":"levelo://app?vid=41de51a6-505b-4bd1-af98-8b03e9811828"},"vehicle_type_id":"4","last_reported":1700820495,"current_range_meters":31200,"station_id":"ce4bhg92rcd13ifvqf90","pricing_plan_id":"free"},{"bike_id":"b449913f-9aa9-4545-a71e-3edfee803c9a","system_id":"levelo_inurba_marseille","lat":43.26681,"lon":5.382694,"is_reserved":false,"is_disabled":false,"rental_uris":{"android":"levelo://app?vid=b449913f-9aa9-4545-a71e-3edfee803c9a","ios":"levelo://app?vid=b449913f-9aa9-4545-a71e-3edfee803c9a"},"vehicle_type_id":"4","last_reported":1700820495,"current_range_meters":12800,"station_id":"ce4bhg92rcd13ifvqf90","pricing_plan_id":"free"},{"bike_id":"5ec37495-81bc-46b1-a4f7-391a399eccdf","system_id":"levelo_inurba_marseille","lat":43.26683,"lon":5.38271,"is_reserved":false,"is_disabled":false,"rental_uris":{"android":"levelo://app?vid=5ec37495-81bc-46b1-a4f7-391a399eccdf","ios":"levelo://app?vid=5ec37495-81bc-46b1-a4f7-391a399eccdf"},"vehicle_type_id":"4","last_reported":1700820495,"current_range_meters":7600,"station_id":"ce4bhg92rcd13ifvqf90","pricing_plan_id":"free"},{"bike_id":"0be125ec-fbaf-4743-ada4-8c6df08c6219","system_id":"levelo_inurba_marseille","lat":43.26683,"lon":5.38271,"is_reserved":false,"is_disabled":false,"rental_uris":{"android":"levelo://app?vid=0be125ec-fbaf-4743-ada4-8c6df08c6219","ios":"levelo://app?vid=0be125ec-fbaf-4743-ada4-8c6df08c6219"},"vehicle_type_id":"4","last_reported":1700820495,"current_range_meters":2400,"station_id":"ce4bhg92rcd13ifvqf90","pricing_plan_id":"free"},{"bike_id":"c4074fae-ec9c-4ed9-95a4-6884210b5735","system_id":"levelo_inurba_marseille","lat":43.26683,"lon":5.38276,"is_reserved":false,"is_disabled":false,"rental_uris":{"android":"levelo://app?vid=c4074fae-ec9c-4ed9-95a4-6884210b5735","ios":"levelo://app?vid=c4074fae-ec9c-4ed9-95a4-6884210b5735"},"vehicle_type_id":"4","last_reported":1700820495,"current_range_meters":16800,"station_id":"ce4bhg92rcd13ifvqf90","pricing_plan_id":"free"},{"bike_id":"b31125dc-1605-449b-a5a1-0dc6eb7a8360","system_id":"levelo_inurba_marseille","lat":43.26683,"lon":5.38277,"is_reserved":false,"is_disabled":false,"rental_uris":{"android":"levelo://app?vid=b31125dc-1605-449b-a5a1-0dc6eb7a8360","ios":"levelo://app?vid=b31125dc-1605-449b-a5a1-0dc6eb7a8360"},"vehicle_type_id":"4","last_reported":1700820495,"current_range_meters":7600,"station_id":"ce4bhg92rcd13ifvqf90","pricing_plan_id":"free"},{"bike_id":"a1c6dbae-6a50-4808-b409-93cda7db7bfc","system_id":"levelo_inurba_marseille","lat":43.26681,"lon":5.38274,"is_reserved":false,"is_disabled":false,"rental_uris":{"android":"levelo://app?vid=a1c6dbae-6a50-4808-b409-93cda7db7bfc","ios":"levelo://app?vid=a1c6dbae-6a50-4808-b409-93cda7db7bfc"},"vehicle_type_id":"4","last_reported":1700820495,"current_range_meters":5200,"station_id":"ce4bhg92rcd13ifvqf90","pricing_plan_id":"free"},{"bike_id":"e5e9fc9f-3310-44d2-aece-a9a06023fa18","system_id":"levelo_inurba_marseille","lat":43.26681,"lon":5.382694,"is_reserved":false,"is_disabled":false,"rental_uris":{"android":"levelo://app?vid=e5e9fc9f-3310-44d2-aece-a9a06023fa18","ios":"levelo://app?vid=e5e9fc9f-3310-44d2-aece-a9a06023fa18"},"vehicle_type_id":"4","last_reported":1700820495,"current_range_meters":28000,"station_id":"ce4bhg92rcd13ifvqf90","pricing_plan_id":"free"},{"bike_id":"d7f17dc5-6588-4a8f-83ee-16175f3f3b78","system_id":"levelo_inurba_marseille","lat":43.265714,"lon":5.372891,"is_reserved":false,"is_disabled":false,"rental_uris":{"android":"levelo://app?vid=d7f17dc5-6588-4a8f-83ee-16175f3f3b78","ios":"levelo://app?vid=d7f17dc5-6588-4a8f-83ee-16175f3f3b78"},"vehicle_type_id":"4","last_reported":1700820495,"current_range_meters":14400,"station_id":"ce4bhg12rcd13ifvqf70","pricing_plan_id":"free"},{"bike_id":"e00df8e9-8083-4b8d-bd2f-958912a002c0","system_id":"levelo_inurba_marseille","lat":43.26681,"lon":5.382694,"is_reserved":false,"is_disabled":false,"rental_uris":{"android":"levelo://app?vid=e00df8e9-8083-4b8d-bd2f-958912a002c0","ios":"levelo://app?vid=e00df8e9-8083-4b8d-bd2f-958912a002c0"},"vehicle_type_id":"4","last_reported":1700820495,"current_range_meters":31200,"station_id":"ce4bhg92rcd13ifvqf90","pricing_plan_id":"free"},{"bike_id":"afca0fe0-702c-4607-8149-ab8757df2f63","system_id":"levelo_inurba_marseille","lat":43.265714,"lon":5.372891,"is_reserved":false,"is_disabled":false,"rental_uris":{"android":"levelo://app?vid=afca0fe0-702c-4607-8149-ab8757df2f63","ios":"levelo://app?vid=afca0fe0-702c-4607-8149-ab8757df2f63"},"vehicle_type_id":"4","last_reported":1700820495,"current_range_meters":0,"station_id":"ce4bhg12rcd13ifvqf70","pricing_plan_id":"free"},{"bike_id":"7dbe6933-5cdc-4140-acb7-c4617a3c5263","system_id":"levelo_inurba_marseille","lat":43.26681,"lon":5.382694,"is_reserved":false,"is_disabled":false,"rental_uris":{"android":"levelo://app?vid=7dbe6933-5cdc-4140-acb7-c4617a3c5263","ios":"levelo://app?vid=7dbe6933-5cdc-4140-acb7-c4617a3c5263"},"vehicle_type_id":"4","last_reported":1700820495,"current_range_meters":24000,"station_id":"ce4bhg92rcd13ifvqf90","pricing_plan_id":"free"},{"bike_id":"72b1047d-07d2-47c4-9805-d565409aa9fb","system_id":"levelo_inurba_marseille","lat":43.26677,"lon":5.38275,"is_reserved":false,"is_disabled":false,"rental_uris":{"android":"levelo://app?vid=72b1047d-07d2-47c4-9805-d565409aa9fb","ios":"levelo://app?vid=72b1047d-07d2-47c4-9805-d565409aa9fb"},"vehicle_type_id":"4","last_reported":1700820495,"current_range_meters":24000,"station_id":"ce4bhg92rcd13ifvqf90","pricing_plan_id":"free"},{"bike_id":"28e8ce00-6b21-4e06-9930-c7c4408cc650","system_id":"levelo_inurba_marseille","lat":43.326174,"lon":5.430584,"is_reserved":false,"is_disabled":false,"rental_uris":{"android":"levelo://app?vid=28e8ce00-6b21-4e06-9930-c7c4408cc650","ios":"levelo://app?vid=28e8ce00-6b21-4e06-9930-c7c4408cc650"},"vehicle_type_id":"4","last_reported":1700820495,"current_range_meters":0,"station_id":"","pricing_plan_id":"free"},{"bike_id":"e1c5aebc-ee6b-4705-aa75-1033e20494cf","system_id":"levelo_inurba_marseille","lat":43.27991,"lon":5.41669,"is_reserved":false,"is_disabled":false,"rental_uris":{"android":"levelo://app?vid=e1c5aebc-ee6b-4705-aa75-1033e20494cf","ios":"levelo://app?vid=e1c5aebc-ee6b-4705-aa75-1033e20494cf"},"vehicle_type_id":"4","last_reported":1700820495,"current_range_meters":0,"station_id":"ce4bho12rcd13ifvqh1g","pricing_plan_id":"free"},{"bike_id":"159b6751-3549-4498-beed-ddd6bdea7b10","system_id":"levelo_inurba_marseille","lat":43.267966,"lon":5.393976,"is_reserved":false,"is_disabled":false,"rental_uris":{"android":"levelo://app?vid=159b6751-3549-4498-beed-ddd6bdea7b10","ios":"levelo://app?vid=159b6751-3549-4498-beed-ddd6bdea7b10"},"vehicle_type_id":"4","last_reported":1700820495,"current_range_meters":31200,"station_id":"ce4bhh12rcd13ifvqfg0","pricing_plan_id":"free"},{"bike_id":"2b5f0b27-ae58-4e9e-bd76-c585f78e8a73","system_id":"levelo_inurba_marseille","lat":43.26386,"lon":5.37454,"is_reserved":false,"is_disabled":false,"rental_uris":{"android":"levelo://app?vid=2b5f0b27-ae58-4e9e-bd76-c585f78e8a73","ios":"levelo://app?vid=2b5f0b27-ae58-4e9e-bd76-c585f78e8a73"},"vehicle_type_id":"4","last_reported":1700820495,"current_range_meters":15200,"station_id":"","pricing_plan_id":"free"},{"bike_id":"077feb49-0b77-43e5-b5b8-20e98b7b2224","system_id":"levelo_inurba_marseille","lat":43.265571,"lon":5.390032,"is_reserved":false,"is_disabled":false,"rental_uris":{"android":"levelo://app?vid=077feb49-0b77-43e5-b5b8-20e98b7b2224","ios":"levelo://app?vid=077feb49-0b77-43e5-b5b8-20e98b7b2224"},"vehicle_type_id":"4","last_reported":1700820495,"current_range_meters":10400,"station_id":"ce4bhe12rcd13ifvqf30","pricing_plan_id":"free"},{"bike_id":"6f8a2a5c-2acd-409e-819e-5be97e56985e","system_id":"levelo_inurba_marseille","lat":43.265569,"lon":5.390047,"is_reserved":false,"is_disabled":false,"rental_uris":{"android":"levelo://app?vid=6f8a2a5c-2acd-409e-819e-5be97e56985e","ios":"levelo://app?vid=6f8a2a5c-2acd-409e-819e-5be97e56985e"},"vehicle_type_id":"4","last_reported":1700820495,"current_range_meters":18400,"station_id":"ce4bhe12rcd13ifvqf30","pricing_plan_id":"free"},{"bike_id":"adfeee04-9fac-42ec-8e12-fcaa20ff5082","system_id":"levelo_inurba_marseille","lat":43.269415,"lon":5.40253,"is_reserved":false,"is_disabled":false,"rental_uris":{"android":"levelo://app?vid=adfeee04-9fac-42ec-8e12-fcaa20ff5082","ios":"levelo://app?vid=adfeee04-9fac-42ec-8e12-fcaa20ff5082"},"vehicle_type_id":"4","last_reported":1700820495,"current_range_meters":19200,"station_id":"cjm6bp8fraef2m0cb0m0","pricing_plan_id":"free"},{"bike_id":"1d4347c6-1922-4388-ad6b-aca1fc4e68fc","system_id":"levelo_inurba_marseille","lat":43.261782,"lon":5.374515,"is_reserved":false,"is_disabled":false,"rental_uris":{"android":"levelo://app?vid=1d4347c6-1922-4388-ad6b-aca1fc4e68fc","ios":"levelo://app?vid=1d4347c6-1922-4388-ad6b-aca1fc4e68fc"},"vehicle_type_id":"4","last_reported":1700820495,"current_range_meters":20800,"station_id":"ce4bhgp2rcd13ifvqfc0","pricing_plan_id":"free"},{"bike_id":"a6750c07-c05f-4d8f-bb08-91439711bd36","system_id":"levelo_inurba_marseille","lat":43.261782,"lon":5.374515,"is_reserved":false,"is_disabled":false,"rental_uris":{"android":"levelo://app?vid=a6750c07-c05f-4d8f-bb08-91439711bd36","ios":"levelo://app?vid=a6750c07-c05f-4d8f-bb08-91439711bd36"},"vehicle_type_id":"4","last_reported":1700820495,"current_range_meters":23200,"station_id":"ce4bhgp2rcd13ifvqfc0","pricing_plan_id":"free"},{"bike_id":"f23d8119-b478-4639-98c5-6883279f9f84","system_id":"levelo_inurba_marseille","lat":43.317104,"lon":5.436818,"is_reserved":false,"is_disabled":false,"rental_uris":{"android":"levelo://app?vid=f23d8119-b478-4639-98c5-6883279f9f84","ios":"levelo://app?vid=f23d8119-b478-4639-98c5-6883279f9f84"},"vehicle_type_id":"4","last_reported":1700820495,"current_range_meters":7200,"station_id":"ce4bhp92rcd13ifvqhcg","pricing_plan_id":"free"},{"bike_id":"d924d271-f127-4834-b6ef-9ee3219f6397","system_id":"levelo_inurba_marseille","lat":43.262012,"lon":5.379307,"is_reserved":false,"is_disabled":false,"rental_uris":{"android":"levelo://app?vid=d924d271-f127-4834-b6ef-9ee3219f6397","ios":"levelo://app?vid=d924d271-f127-4834-b6ef-9ee3219f6397"},"vehicle_type_id":"4","last_reported":1700820495,"current_range_meters":28400,"station_id":"ce4bhjp2rcd13ifvqg90","pricing_plan_id":"free"},{"bike_id":"f3b0ed62-250d-437d-ba4f-f1b2c452c97a","system_id":"levelo_inurba_marseille","lat":43.271368,"lon":5.40928,"is_reserved":false,"is_disabled":false,"rental_uris":{"android":"levelo://app?vid=f3b0ed62-250d-437d-ba4f-f1b2c452c97a","ios":"levelo://app?vid=f3b0ed62-250d-437d-ba4f-f1b2c452c97a"},"vehicle_type_id":"4","last_reported":1700820495,"current_range_meters":30000,"station_id":"ce4bhl12rcd13ifvqgf0","pricing_plan_id":"free"},{"bike_id":"e927cc78-55fc-4406-a26c-5d780237e426","system_id":"levelo_inurba_marseille","lat":43.267959,"lon":5.402687,"is_reserved":false,"is_disabled":false,"rental_uris":{"android":"levelo://app?vid=e927cc78-55fc-4406-a26c-5d780237e426","ios":"levelo://app?vid=e927cc78-55fc-4406-a26c-5d780237e426"},"vehicle_type_id":"4","last_reported":1700820495,"current_range_meters":19600,"station_id":"ce501612rcd8frsf0b60","pricing_plan_id":"free"},{"bike_id":"d0bb53f7-f1b8-4609-a668-27efdac67f66","system_id":"levelo_inurba_marseille","lat":43.26301,"lon":5.38842,"is_reserved":false,"is_disabled":false,"rental_uris":{"android":"levelo://app?vid=d0bb53f7-f1b8-4609-a668-27efdac67f66","ios":"levelo://app?vid=d0bb53f7-f1b8-4609-a668-27efdac67f66"},"vehicle_type_id":"4","last_reported":1700820495,"current_range_meters":0,"station_id":"","pricing_plan_id":"free"},{"bike_id":"efe02d19-0356-4f27-85ef-675447d0f7ba","system_id":"levelo_inurba_marseille","lat":43.29897,"lon":5.43659,"is_reserved":false,"is_disabled":false,"rental_uris":{"android":"levelo://app?vid=efe02d19-0356-4f27-85ef-675447d0f7ba","ios":"levelo://app?vid=efe02d19-0356-4f27-85ef-675447d0f7ba"},"vehicle_type_id":"4","last_reported":1700820495,"current_range_meters":14800,"station_id":"ce4bhpp2rcd13ifvqhfg","pricing_plan_id":"free"},{"bike_id":"44e68911-123f-4b40-8072-71d4bd200254","system_id":"levelo_inurba_marseille","lat":43.2607,"lon":5.393983,"is_reserved":false,"is_disabled":false,"rental_uris":{"android":"levelo://app?vid=44e68911-123f-4b40-8072-71d4bd200254","ios":"levelo://app?vid=44e68911-123f-4b40-8072-71d4bd200254"},"vehicle_type_id":"4","last_reported":1700820495,"current_range_meters":22000,"station_id":"ce4bhh92rcd13ifvqfj0","pricing_plan_id":"free"},{"bike_id":"03cbab79-793c-4835-9336-cb0ceff9c47c","system_id":"levelo_inurba_marseille","lat":43.2607,"lon":5.393983,"is_reserved":false,"is_disabled":false,"rental_uris":{"android":"levelo://app?vid=03cbab79-793c-4835-9336-cb0ceff9c47c","ios":"levelo://app?vid=03cbab79-793c-4835-9336-cb0ceff9c47c"},"vehicle_type_id":"4","last_reported":1700820495,"current_range_meters":30400,"station_id":"ce4bhh92rcd13ifvqfj0","pricing_plan_id":"free"},{"bike_id":"ed10dec1-bd0c-40b2-83b5-12f997dfdba9","system_id":"levelo_inurba_marseille","lat":43.260912,"lon":5.397584,"is_reserved":false,"is_disabled":false,"rental_uris":{"android":"levelo://app?vid=ed10dec1-bd0c-40b2-83b5-12f997dfdba9","ios":"levelo://app?vid=ed10dec1-bd0c-40b2-83b5-12f997dfdba9"},"vehicle_type_id":"4","last_reported":1700820495,"current_range_meters":9600,"station_id":"ce4bhi12rcd13ifvqfq0","pricing_plan_id":"free"},{"bike_id":"b9ecb8a7-c5d6-4138-8dd6-b536db94eeac","system_id":"levelo_inurba_marseille","lat":43.275028,"lon":5.424534,"is_reserved":false,"is_disabled":false,"rental_uris":{"android":"levelo://app?vid=b9ecb8a7-c5d6-4138-8dd6-b536db94eeac","ios":"levelo://app?vid=b9ecb8a7-c5d6-4138-8dd6-b536db94eeac"},"vehicle_type_id":"4","last_reported":1700820495,"current_range_meters":9200,"station_id":"ce4bhn92rcd13ifvqgrg","pricing_plan_id":"free"},{"bike_id":"85c7641d-2eab-4387-90d8-46403395a09c","system_id":"levelo_inurba_marseille","lat":43.275028,"lon":5.424534,"is_reserved":false,"is_disabled":false,"rental_uris":{"android":"levelo://app?vid=85c7641d-2eab-4387-90d8-46403395a09c","ios":"levelo://app?vid=85c7641d-2eab-4387-90d8-46403395a09c"},"vehicle_type_id":"4","last_reported":1700820495,"current_range_meters":22400,"station_id":"ce4bhn92rcd13ifvqgrg","pricing_plan_id":"free"},{"bike_id":"d5428c69-6267-42b0-ad5b-23c28eb35f4e","system_id":"levelo_inurba_marseille","lat":43.275028,"lon":5.424534,"is_reserved":false,"is_disabled":false,"rental_uris":{"android":"levelo://app?vid=d5428c69-6267-42b0-ad5b-23c28eb35f4e","ios":"levelo://app?vid=d5428c69-6267-42b0-ad5b-23c28eb35f4e"},"vehicle_type_id":"4","last_reported":1700820495,"current_range_meters":31600,"station_id":"ce4bhn92rcd13ifvqgrg","pricing_plan_id":"free"},{"bike_id":"4375544f-4bb5-438a-aea0-9fbd66f75851","system_id":"levelo_inurba_marseille","lat":43.275028,"lon":5.424534,"is_reserved":false,"is_disabled":false,"rental_uris":{"android":"levelo://app?vid=4375544f-4bb5-438a-aea0-9fbd66f75851","ios":"levelo://app?vid=4375544f-4bb5-438a-aea0-9fbd66f75851"},"vehicle_type_id":"4","last_reported":1700820495,"current_range_meters":31200,"station_id":"ce4bhn92rcd13ifvqgrg","pricing_plan_id":"free"},{"bike_id":"53958ed3-2b8c-4b58-9b6c-8a41a3f0cd86","system_id":"levelo_inurba_marseille","lat":43.275028,"lon":5.424534,"is_reserved":false,"is_disabled":false,"rental_uris":{"android":"levelo://app?vid=53958ed3-2b8c-4b58-9b6c-8a41a3f0cd86","ios":"levelo://app?vid=53958ed3-2b8c-4b58-9b6c-8a41a3f0cd86"},"vehicle_type_id":"4","last_reported":1700820495,"current_range_meters":16000,"station_id":"ce4bhn92rcd13ifvqgrg","pricing_plan_id":"free"},{"bike_id":"40939fb8-fbda-486c-9153-887730788ea2","system_id":"levelo_inurba_marseille","lat":43.275028,"lon":5.424534,"is_reserved":false,"is_disabled":false,"rental_uris":{"android":"levelo://app?vid=40939fb8-fbda-486c-9153-887730788ea2","ios":"levelo://app?vid=40939fb8-fbda-486c-9153-887730788ea2"},"vehicle_type_id":"4","last_reported":1700820495,"current_range_meters":31200,"station_id":"ce4bhn92rcd13ifvqgrg","pricing_plan_id":"free"},{"bike_id":"f0a3069b-711c-411d-9a5c-272050b4df33","system_id":"levelo_inurba_marseille","lat":43.275028,"lon":5.424534,"is_reserved":false,"is_disabled":false,"rental_uris":{"android":"levelo://app?vid=f0a3069b-711c-411d-9a5c-272050b4df33","ios":"levelo://app?vid=f0a3069b-711c-411d-9a5c-272050b4df33"},"vehicle_type_id":"4","last_reported":1700820495,"current_range_meters":31200,"station_id":"ce4bhn92rcd13ifvqgrg","pricing_plan_id":"free"},{"bike_id":"2d5f8104-4ad1-4747-a697-468266bbe403","system_id":"levelo_inurba_marseille","lat":43.26085,"lon":5.39763,"is_reserved":false,"is_disabled":false,"rental_uris":{"android":"levelo://app?vid=2d5f8104-4ad1-4747-a697-468266bbe403","ios":"levelo://app?vid=2d5f8104-4ad1-4747-a697-468266bbe403"},"vehicle_type_id":"4","last_reported":1700820495,"current_range_meters":20400,"station_id":"ce4bhi12rcd13ifvqfq0","pricing_plan_id":"free"},{"bike_id":"29779f80-e84a-4c79-8764-79089d58678b","system_id":"levelo_inurba_marseille","lat":43.26084,"lon":5.3977,"is_reserved":false,"is_disabled":false,"rental_uris":{"android":"levelo://app?vid=29779f80-e84a-4c79-8764-79089d58678b","ios":"levelo://app?vid=29779f80-e84a-4c79-8764-79089d58678b"},"vehicle_type_id":"4","last_reported":1700820495,"current_range_meters":13600,"station_id":"ce4bhi12rcd13ifvqfq0","pricing_plan_id":"free"},{"bike_id":"13ceecd1-0152-4fe3-ba15-3cca81dce8a4","system_id":"levelo_inurba_marseille","lat":43.260909,"lon":5.397591,"is_reserved":false,"is_disabled":false,"rental_uris":{"android":"levelo://app?vid=13ceecd1-0152-4fe3-ba15-3cca81dce8a4","ios":"levelo://app?vid=13ceecd1-0152-4fe3-ba15-3cca81dce8a4"},"vehicle_type_id":"4","last_reported":1700820495,"current_range_meters":27600,"station_id":"ce4bhi12rcd13ifvqfq0","pricing_plan_id":"free"},{"bike_id":"80438f1e-5ce5-43bb-b8b0-62680314de25","system_id":"levelo_inurba_marseille","lat":43.2558,"lon":5.3823,"is_reserved":false,"is_disabled":false,"rental_uris":{"android":"levelo://app?vid=80438f1e-5ce5-43bb-b8b0-62680314de25","ios":"levelo://app?vid=80438f1e-5ce5-43bb-b8b0-62680314de25"},"vehicle_type_id":"4","last_reported":1700820495,"current_range_meters":12400,"station_id":"ce4bhih2rcd13ifvqfs0","pricing_plan_id":"free"},{"bike_id":"b3384bf5-3f46-46e0-a888-8bacfbf48075","system_id":"levelo_inurba_marseille","lat":43.258224,"lon":5.394369,"is_reserved":false,"is_disabled":false,"rental_uris":{"android":"levelo://app?vid=b3384bf5-3f46-46e0-a888-8bacfbf48075","ios":"levelo://app?vid=b3384bf5-3f46-46e0-a888-8bacfbf48075"},"vehicle_type_id":"4","last_reported":1700820495,"current_range_meters":14800,"station_id":"ce4bhip2rcd13ifvqft0","pricing_plan_id":"free"},{"bike_id":"01f18477-7f59-4b0d-8af2-e5176560be69","system_id":"levelo_inurba_marseille","lat":43.258224,"lon":5.394369,"is_reserved":false,"is_disabled":false,"rental_uris":{"android":"levelo://app?vid=01f18477-7f59-4b0d-8af2-e5176560be69","ios":"levelo://app?vid=01f18477-7f59-4b0d-8af2-e5176560be69"},"vehicle_type_id":"4","last_reported":1700820495,"current_range_meters":20000,"station_id":"ce4bhip2rcd13ifvqft0","pricing_plan_id":"free"},{"bike_id":"366d4463-05e4-4347-b3e4-9b0937c36590","system_id":"levelo_inurba_marseille","lat":43.270687,"lon":5.422775,"is_reserved":false,"is_disabled":false,"rental_uris":{"android":"levelo://app?vid=366d4463-05e4-4347-b3e4-9b0937c36590","ios":"levelo://app?vid=366d4463-05e4-4347-b3e4-9b0937c36590"},"vehicle_type_id":"4","last_reported":1700820495,"current_range_meters":11600,"station_id":"ce4bhk92rcd13ifvqgb0","pricing_plan_id":"free"},{"bike_id":"486c6fb0-3e67-418c-9525-31e5ac8f440e","system_id":"levelo_inurba_marseille","lat":43.270721,"lon":5.422764,"is_reserved":false,"is_disabled":false,"rental_uris":{"android":"levelo://app?vid=486c6fb0-3e67-418c-9525-31e5ac8f440e","ios":"levelo://app?vid=486c6fb0-3e67-418c-9525-31e5ac8f440e"},"vehicle_type_id":"4","last_reported":1700820495,"current_range_meters":18400,"station_id":"ce4bhk92rcd13ifvqgb0","pricing_plan_id":"free"},{"bike_id":"605204e4-ff01-4eb6-b05d-ba3488ef5ad8","system_id":"levelo_inurba_marseille","lat":43.259013,"lon":5.409301,"is_reserved":false,"is_disabled":false,"rental_uris":{"android":"levelo://app?vid=605204e4-ff01-4eb6-b05d-ba3488ef5ad8","ios":"levelo://app?vid=605204e4-ff01-4eb6-b05d-ba3488ef5ad8"},"vehicle_type_id":"4","last_reported":1700820495,"current_range_meters":23200,"station_id":"ce4bhm92rcd13ifvqglg","pricing_plan_id":"free"},{"bike_id":"965abc21-b25a-483f-ac76-62b13d10dab3","system_id":"levelo_inurba_marseille","lat":43.259377,"lon":5.40906,"is_reserved":false,"is_disabled":false,"rental_uris":{"android":"levelo://app?vid=965abc21-b25a-483f-ac76-62b13d10dab3","ios":"levelo://app?vid=965abc21-b25a-483f-ac76-62b13d10dab3"},"vehicle_type_id":"4","last_reported":1700820495,"current_range_meters":12000,"station_id":"ce4bhm92rcd13ifvqglg","pricing_plan_id":"free"},{"bike_id":"f9c9bebe-2f92-4043-bd93-6ce132701176","system_id":"levelo_inurba_marseille","lat":43.2479,"lon":5.374457,"is_reserved":false,"is_disabled":false,"rental_uris":{"android":"levelo://app?vid=f9c9bebe-2f92-4043-bd93-6ce132701176","ios":"levelo://app?vid=f9c9bebe-2f92-4043-bd93-6ce132701176"},"vehicle_type_id":"4","last_reported":1700820495,"current_range_meters":26800,"station_id":"ce4bhgh2rcd13ifvqfb0","pricing_plan_id":"free"},{"bike_id":"83665c31-4529-4688-822c-c62114641fdc","system_id":"levelo_inurba_marseille","lat":43.2479,"lon":5.374457,"is_reserved":false,"is_disabled":false,"rental_uris":{"android":"levelo://app?vid=83665c31-4529-4688-822c-c62114641fdc","ios":"levelo://app?vid=83665c31-4529-4688-822c-c62114641fdc"},"vehicle_type_id":"4","last_reported":1700820495,"current_range_meters":24000,"station_id":"ce4bhgh2rcd13ifvqfb0","pricing_plan_id":"free"},{"bike_id":"8b2f4673-8019-49f3-a802-e81090c5d1b9","system_id":"levelo_inurba_marseille","lat":43.24662,"lon":5.37677,"is_reserved":false,"is_disabled":false,"rental_uris":{"android":"levelo://app?vid=8b2f4673-8019-49f3-a802-e81090c5d1b9","ios":"levelo://app?vid=8b2f4673-8019-49f3-a802-e81090c5d1b9"},"vehicle_type_id":"4","last_reported":1700820495,"current_range_meters":17600,"station_id":"","pricing_plan_id":"free"},{"bike_id":"395cea4b-fa7b-47f7-b8d1-3ad5825b0958","system_id":"levelo_inurba_marseille","lat":43.24693,"lon":5.382096,"is_reserved":false,"is_disabled":false,"rental_uris":{"android":"levelo://app?vid=395cea4b-fa7b-47f7-b8d1-3ad5825b0958","ios":"levelo://app?vid=395cea4b-fa7b-47f7-b8d1-3ad5825b0958"},"vehicle_type_id":"4","last_reported":1700820495,"current_range_meters":3200,"station_id":"ce4bhih2rcd13ifvqfr0","pricing_plan_id":"free"},{"bike_id":"969b658f-c7ec-4c18-9d03-e6b76e87a51c","system_id":"levelo_inurba_marseille","lat":43.24693,"lon":5.382096,"is_reserved":false,"is_disabled":false,"rental_uris":{"android":"levelo://app?vid=969b658f-c7ec-4c18-9d03-e6b76e87a51c","ios":"levelo://app?vid=969b658f-c7ec-4c18-9d03-e6b76e87a51c"},"vehicle_type_id":"4","last_reported":1700820495,"current_range_meters":12000,"station_id":"ce4bhih2rcd13ifvqfr0","pricing_plan_id":"free"},{"bike_id":"61f21c6f-600b-41bf-b6aa-f9874ad72097","system_id":"levelo_inurba_marseille","lat":43.24693,"lon":5.382096,"is_reserved":false,"is_disabled":false,"rental_uris":{"android":"levelo://app?vid=61f21c6f-600b-41bf-b6aa-f9874ad72097","ios":"levelo://app?vid=61f21c6f-600b-41bf-b6aa-f9874ad72097"},"vehicle_type_id":"4","last_reported":1700820495,"current_range_meters":24400,"station_id":"ce4bhih2rcd13ifvqfr0","pricing_plan_id":"free"},{"bike_id":"baac3414-8257-4921-bb1c-7b9c80cc8266","system_id":"levelo_inurba_marseille","lat":43.24661,"lon":5.38166,"is_reserved":false,"is_disabled":false,"rental_uris":{"android":"levelo://app?vid=baac3414-8257-4921-bb1c-7b9c80cc8266","ios":"levelo://app?vid=baac3414-8257-4921-bb1c-7b9c80cc8266"},"vehicle_type_id":"4","last_reported":1700820495,"current_range_meters":16800,"station_id":"ce4bhih2rcd13ifvqfr0","pricing_plan_id":"free"},{"bike_id":"afbcc0a3-e494-4164-99a1-d404ffd8d530","system_id":"levelo_inurba_marseille","lat":43.25102,"lon":5.403214,"is_reserved":false,"is_disabled":false,"rental_uris":{"android":"levelo://app?vid=afbcc0a3-e494-4164-99a1-d404ffd8d530","ios":"levelo://app?vid=afbcc0a3-e494-4164-99a1-d404ffd8d530"},"vehicle_type_id":"4","last_reported":1700820495,"current_range_meters":18800,"station_id":"ce4bhlh2rcd13ifvqgig","pricing_plan_id":"free"},{"bike_id":"536867e4-0199-4385-b193-cdb3dab4bb59","system_id":"levelo_inurba_marseille","lat":43.25102,"lon":5.403214,"is_reserved":false,"is_disabled":false,"rental_uris":{"android":"levelo://app?vid=536867e4-0199-4385-b193-cdb3dab4bb59","ios":"levelo://app?vid=536867e4-0199-4385-b193-cdb3dab4bb59"},"vehicle_type_id":"4","last_reported":1700820495,"current_range_meters":17200,"station_id":"ce4bhlh2rcd13ifvqgig","pricing_plan_id":"free"},{"bike_id":"cd0657f4-1742-499b-bc21-90fa5bf02dba","system_id":"levelo_inurba_marseille","lat":43.24076,"lon":5.37754,"is_reserved":false,"is_disabled":false,"rental_uris":{"android":"levelo://app?vid=cd0657f4-1742-499b-bc21-90fa5bf02dba","ios":"levelo://app?vid=cd0657f4-1742-499b-bc21-90fa5bf02dba"},"vehicle_type_id":"4","last_reported":1700820495,"current_range_meters":20000,"station_id":"ce4bhnp2rcd13ifvqgvg","pricing_plan_id":"free"},{"bike_id":"57d6b358-bc37-4d2c-8eac-3de3563055b7","system_id":"levelo_inurba_marseille","lat":43.24076,"lon":5.37756,"is_reserved":false,"is_disabled":false,"rental_uris":{"android":"levelo://app?vid=57d6b358-bc37-4d2c-8eac-3de3563055b7","ios":"levelo://app?vid=57d6b358-bc37-4d2c-8eac-3de3563055b7"},"vehicle_type_id":"4","last_reported":1700820495,"current_range_meters":0,"station_id":"ce4bhnp2rcd13ifvqgvg","pricing_plan_id":"free"},{"bike_id":"408e5222-fb4e-49c2-acd5-d69ad65ef77b","system_id":"levelo_inurba_marseille","lat":43.24076,"lon":5.37759,"is_reserved":false,"is_disabled":false,"rental_uris":{"android":"levelo://app?vid=408e5222-fb4e-49c2-acd5-d69ad65ef77b","ios":"levelo://app?vid=408e5222-fb4e-49c2-acd5-d69ad65ef77b"},