{"last_updated":1750151533,"ttl":60,"version":"2.2","data":{"bikes":[{"bike_id":"3da29fb8-fc97-44c6-b9ac-31dd456b2fd4","system_id":"levelo_inurba_marseille","lat":43.33771,"lon":5.37424,"is_reserved":false,"is_disabled":true,"rental_uris":{"android":"levelo://app?vid=3da29fb8-fc97-44c6-b9ac-31dd456b2fd4","ios":"levelo://app?vid=3da29fb8-fc97-44c6-b9ac-31dd456b2fd4"},"vehicle_type_id":"4","last_reported":1750151533,"current_range_meters":0,"station_id":"","pricing_plan_id":"cebpf4jnsgd1na2vs0mg"},{"bike_id":"01861ad8-a8d7-4be6-816e-651927c87584","system_id":"levelo_inurba_marseille","lat":43.33751,"lon":5.37456,"is_reserved":false,"is_disabled":true,"rental_uris":{"android":"levelo://app?vid=01861ad8-a8d7-4be6-816e-651927c87584","ios":"levelo://app?vid=01861ad8-a8d7-4be6-816e-651927c87584"},"vehicle_type_id":"4","last_reported":1750151533,"current_range_meters":0,"station_id":"","pricing_plan_id":"cebpf4jnsgd1na2vs0mg"},{"bike_id":"b81ba2bd-624d-43c3-b702-6c0cdad38ab2","system_id":"levelo_inurba_marseille","lat":43.31122,"lon":5.39338,"is_reserved":false,"is_disabled":true,"rental_uris":{"android":"levelo://app?vid=b81ba2bd-624d-43c3-b702-6c0cdad38ab2","ios":"levelo://app?vid=b81ba2bd-624d-43c3-b702-6c0cdad38ab2"},"vehicle_type_id":"4","last_reported":1750151533,"current_range_meters":0,"station_id":"","pricing_plan_id":"cebpf4jnsgd1na2vs0mg"},{"bike_id":"d2bd57c8-6b64-48db-ad24-5398eb3fd9d6","system_id":"levelo_inurba_marseille","lat":43.337444,"lon":5.374475,"is_reserved":false,"is_disabled":true,"rental_uris":{"android":"levelo://app?vid=d2bd57c8-6b64-48db-ad24-5398eb3fd9d6","ios":"levelo://app?vid=d2bd57c8-6b64-48db-ad24-5398eb3fd9d6"},"vehicle_type_id":"4","last_reported":1750151533,"current_range_meters":0,"station_id":"","pricing_plan_id":"cebpf4jnsgd1na2vs0mg"},{"bike_id":"62a493c7-4534-4419-ad43-0582de34a72a","system_id":"levelo_inurba_marseille","lat":43.21366,"lon":5.355183,"is_reserved":false,"is_disabled":true,"rental_uris":{"android":"levelo://app?vid=62a493c7-4534-4419-ad43-0582de34a72a","ios":"levelo://app?vid=62a493c7-4534-4419-ad43-0582de34a72a"},"vehicle_type_id":"4","last_reported":1750151533,"current_range_meters":0,"station_id":"","pricing_plan_id":"cebpf4jnsgd1na2vs0mg"},{"bike_id":"93af304b-67b5-47b8-a3fd-e0775f7cde8c","system_id":"levelo_inurba_marseille","lat":43.21518,"lon":5.3474,"is_reserved":false,"is_disabled":true,"rental_uris":{"android":"levelo://app?vid=93af304b-67b5-47b8-a3fd-e0775f7cde8c","ios":"levelo://app?vid=93af304b-67b5-47b8-a3fd-e0775f7cde8c"},"vehicle_type_id":"4","last_reported":1750151533,"current_range_meters":0,"station_id":"","pricing_plan_id":"cebpf4jnsgd1na2vs0mg"},{"bike_id":"d6609b4f-333b-43c1-9ebe-8726f5e76e88","system_id":"levelo_inurba_marseille","lat":43.337444,"lon":5.374475,"is_reserved":false,"is_disabled":true,"rental_uris":{"android":"levelo://app?vid=d6609b4f-333b-43c1-9ebe-8726f5e76e88","ios":"levelo://app?vid=d6609b4f-333b-43c1-9ebe-8726f5e76e88"},"vehicle_type_id":"4","last_reported":1750151533,"current_range_meters":0,"station_id":"","pricing_plan_id":"cebpf4jnsgd1na2vs0mg"},{"bike_id":"7c6fdbaa-49a0-4e5c-bca1-a07989fcd59f","system_id":"levelo_inurba_marseille","lat":43.31258,"lon":5.38632,"is_reserved":false,"is_disabled":true,"rental_uris":{"android":"levelo://app?vid=7c6fdbaa-49a0-4e5c-bca1-a07989fcd59f","ios":"levelo://app?vid=7c6fdbaa-49a0-4e5c-bca1-a07989fcd59f"},"vehicle_type_id":"4","last_reported":1750151533,"current_range_meters":0,"station_id":"","pricing_plan_id":"cebpf4jnsgd1na2vs0mg"},{"bike_id":"847b7937-2e44-484f-ab16-3c8e0ccd8830","system_id":"levelo_inurba_marseille","lat":43.3137,"lon":5.38495,"is_reserved":false,"is_disabled":true,"rental_uris":{"android":"levelo://app?vid=847b7937-2e44-484f-ab16-3c8e0ccd8830","ios":"levelo://app?vid=847b7937-2e44-484f-ab16-3c8e0ccd8830"},"vehicle_type_id":"4","last_reported":1750151533,"current_range_meters":0,"station_id":"ce4bgt92rcd13ifvqcf0","pricing_plan_id":"cebpf4jnsgd1na2vs0mg"},{"bike_id":"c35ce775-9a64-4526-9987-e8626ee01eb5","system_id":"levelo_inurba_marseille","lat":43.309374,"lon":5.401389,"is_reserved":false,"is_disabled":true,"rental_uris":{"android":"levelo://app?vid=c35ce775-9a64-4526-9987-e8626ee01eb5","ios":"levelo://app?vid=c35ce775-9a64-4526-9987-e8626ee01eb5"},"vehicle_type_id":"4","last_reported":1750151533,"current_range_meters":0,"station_id":"ce4bgvp2rcd13ifvqct0","pricing_plan_id":"cebpf4jnsgd1na2vs0mg"},{"bike_id":"e5d73f9a-0641-42db-93dd-babb4daef7fe","system_id":"levelo_inurba_marseille","lat":43.29283,"lon":5.40119,"is_reserved":false,"is_disabled":true,"rental_uris":{"android":"levelo://app?vid=e5d73f9a-0641-42db-93dd-babb4daef7fe","ios":"levelo://app?vid=e5d73f9a-0641-42db-93dd-babb4daef7fe"},"vehicle_type_id":"4","last_reported":1750151533,"current_range_meters":0,"station_id":"ce4bh312rcd13ifvqdk0","pricing_plan_id":"cebpf4jnsgd1na2vs0mg"},{"bike_id":"91ddf5e9-e954-44d5-95b9-bf84408e49c0","system_id":"levelo_inurba_marseille","lat":43.29019,"lon":5.38643,"is_reserved":false,"is_disabled":true,"rental_uris":{"android":"levelo://app?vid=91ddf5e9-e954-44d5-95b9-bf84408e49c0","ios":"levelo://app?vid=91ddf5e9-e954-44d5-95b9-bf84408e49c0"},"vehicle_type_id":"4","last_reported":1750151533,"current_range_meters":0,"station_id":"ce4bh4p2rcd13ifvqe0g","pricing_plan_id":"cebpf4jnsgd1na2vs0mg"},{"bike_id":"04276415-42b1-4736-aa9f-2d33227b99de","system_id":"levelo_inurba_marseille","lat":43.3093,"lon":5.40153,"is_reserved":false,"is_disabled":true,"rental_uris":{"android":"levelo://app?vid=04276415-42b1-4736-aa9f-2d33227b99de","ios":"levelo://app?vid=04276415-42b1-4736-aa9f-2d33227b99de"},"vehicle_type_id":"4","last_reported":1750151533,"current_range_meters":400,"station_id":"ce4bgvp2rcd13ifvqct0","pricing_plan_id":"cebpf4jnsgd1na2vs0mg"},{"bike_id":"8ee7d802-1625-4cdd-bd91-fabb8eb988be","system_id":"levelo_inurba_marseille","lat":43.30959,"lon":5.39039,"is_reserved":false,"is_disabled":true,"rental_uris":{"android":"levelo://app?vid=8ee7d802-1625-4cdd-bd91-fabb8eb988be","ios":"levelo://app?vid=8ee7d802-1625-4cdd-bd91-fabb8eb988be"},"vehicle_type_id":"4","last_reported":1750151533,"current_range_meters":800,"station_id":"ce4bgup2rcd13ifvqco0","pricing_plan_id":"cebpf4jnsgd1na2vs0mg"},{"bike_id":"4bdf1556-fb5c-4217-b6d4-b3ac5c63a403","system_id":"levelo_inurba_marseille","lat":43.24379,"lon":5.37076,"is_reserved":false,"is_disabled":true,"rental_uris":{"android":"levelo://app?vid=4bdf1556-fb5c-4217-b6d4-b3ac5c63a403","ios":"levelo://app?vid=4bdf1556-fb5c-4217-b6d4-b3ac5c63a403"},"vehicle_type_id":"4","last_reported":1750151533,"current_range_meters":800,"station_id":"ce4bhhh2rcd13ifvqfk0","pricing_plan_id":"cebpf4jnsgd1na2vs0mg"},{"bike_id":"db16bf96-25d9-4ac3-919f-a5052f86098e","system_id":"levelo_inurba_marseille","lat":43.321098,"lon":5.367688,"is_reserved":false,"is_disabled":true,"rental_uris":{"android":"levelo://app?vid=db16bf96-25d9-4ac3-919f-a5052f86098e","ios":"levelo://app?vid=db16bf96-25d9-4ac3-919f-a5052f86098e"},"vehicle_type_id":"4","last_reported":1750151533,"current_range_meters":800,"station_id":"ce4bhrh2rcd13ifvqhug","pricing_plan_id":"cebpf4jnsgd1na2vs0mg"},{"bike_id":"aac0fc11-191e-42ff-91e6-143cca72b34b","system_id":"levelo_inurba_marseille","lat":43.23197,"lon":5.35558,"is_reserved":false,"is_disabled":true,"rental_uris":{"android":"levelo://app?vid=aac0fc11-191e-42ff-91e6-143cca72b34b","ios":"levelo://app?vid=aac0fc11-191e-42ff-91e6-143cca72b34b"},"vehicle_type_id":"4","last_reported":1750151533,"current_range_meters":800,"station_id":"ce4bhu92rcd13ifvqi70","pricing_plan_id":"cebpf4jnsgd1na2vs0mg"},{"bike_id":"1bdeab2b-8a5c-4d0a-a74c-8ffa3e6ce050","system_id":"levelo_inurba_marseille","lat":43.30747,"lon":5.42441,"is_reserved":false,"is_disabled":true,"rental_uris":{"android":"levelo://app?vid=1bdeab2b-8a5c-4d0a-a74c-8ffa3e6ce050","ios":"levelo://app?vid=1bdeab2b-8a5c-4d0a-a74c-8ffa3e6ce050"},"vehicle_type_id":"4","last_reported":1750151533,"current_range_meters":800,"station_id":"st_cvj6ca6bvosntc0bfgr0","pricing_plan_id":"cebpf4jnsgd1na2vs0mg"},{"bike_id":"78598e55-d0d2-470c-8e96-7ce991ec3dff","system_id":"levelo_inurba_marseille","lat":43.30961,"lon":5.39047,"is_reserved":false,"is_disabled":true,"rental_uris":{"android":"levelo://app?vid=78598e55-d0d2-470c-8e96-7ce991ec3dff","ios":"levelo://app?vid=78598e55-d0d2-470c-8e96-7ce991ec3dff"},"vehicle_type_id":"4","last_reported":1750151533,"current_range_meters":1200,"station_id":"ce4bgup2rcd13ifvqco0","pricing_plan_id":"cebpf4jnsgd1na2vs0mg"},{"bike_id":"f9087ae9-bb60-464e-bbdb-41f15a6250e7","system_id":"levelo_inurba_marseille","lat":43.29264,"lon":5.38441,"is_reserved":false,"is_disabled":true,"rental_uris":{"android":"levelo://app?vid=f9087ae9-bb60-464e-bbdb-41f15a6250e7","ios":"levelo://app?vid=f9087ae9-bb60-464e-bbdb-41f15a6250e7"},"vehicle_type_id":"4","last_reported":1750151533,"current_range_meters":1200,"station_id":"ce4bh692rcd13ifvqea0","pricing_plan_id":"cebpf4jnsgd1na2vs0mg"},{"bike_id":"1d7dc2d6-5290-4ee0-84ff-a3f5bc5198b4","system_id":"levelo_inurba_marseille","lat":43.27929,"lon":5.39576,"is_reserved":false,"is_disabled":true,"rental_uris":{"android":"levelo://app?vid=1d7dc2d6-5290-4ee0-84ff-a3f5bc5198b4","ios":"levelo://app?vid=1d7dc2d6-5290-4ee0-84ff-a3f5bc5198b4"},"vehicle_type_id":"4","last_reported":1750151533,"current_range_meters":1200,"station_id":"ce4bhf92rcd13ifvqf40","pricing_plan_id":"cebpf4jnsgd1na2vs0mg"},{"bike_id":"dbfce7a3-3423-4296-b193-a177dea644ac","system_id":"levelo_inurba_marseille","lat":43.27279,"lon":5.41609,"is_reserved":false,"is_disabled":true,"rental_uris":{"android":"levelo://app?vid=dbfce7a3-3423-4296-b193-a177dea644ac","ios":"levelo://app?vid=dbfce7a3-3423-4296-b193-a177dea644ac"},"vehicle_type_id":"4","last_reported":1750151533,"current_range_meters":1600,"station_id":"","pricing_plan_id":"cebpf4jnsgd1na2vs0mg"},{"bike_id":"78b6571a-5bb7-4c98-a108-349322dc0cf2","system_id":"levelo_inurba_marseille","lat":43.27998,"lon":5.38675,"is_reserved":false,"is_disabled":true,"rental_uris":{"android":"levelo://app?vid=78b6571a-5bb7-4c98-a108-349322dc0cf2","ios":"levelo://app?vid=78b6571a-5bb7-4c98-a108-349322dc0cf2"},"vehicle_type_id":"4","last_reported":1750151533,"current_range_meters":1600,"station_id":"","pricing_plan_id":"cebpf4jnsgd1na2vs0mg"},{"bike_id":"f843c7d2-34ad-4d25-8c83-e1bfbe863bfb","system_id":"levelo_inurba_marseille","lat":43.29253,"lon":5.38446,"is_reserved":false,"is_disabled":true,"rental_uris":{"android":"levelo://app?vid=f843c7d2-34ad-4d25-8c83-e1bfbe863bfb","ios":"levelo://app?vid=f843c7d2-34ad-4d25-8c83-e1bfbe863bfb"},"vehicle_type_id":"4","last_reported":1750151533,"current_range_meters":1600,"station_id":"ce4bh692rcd13ifvqea0","pricing_plan_id":"cebpf4jnsgd1na2vs0mg"},{"bike_id":"f16a5698-ddc2-4e59-97f5-5526424b5a60","system_id":"levelo_inurba_marseille","lat":43.211879,"lon":5.350748,"is_reserved":false,"is_disabled":true,"rental_uris":{"android":"levelo://app?vid=f16a5698-ddc2-4e59-97f5-5526424b5a60","ios":"levelo://app?vid=f16a5698-ddc2-4e59-97f5-5526424b5a60"},"vehicle_type_id":"4","last_reported":1750151533,"current_range_meters":1600,"station_id":"st_cvj6sg6p6f1abm77japg","pricing_plan_id":"cebpf4jnsgd1na2vs0mg"},{"bike_id":"4167b3fe-24d9-4be6-acd7-ecd8e6bd7026","system_id":"levelo_inurba_marseille","lat":43.33089,"lon":5.37907,"is_reserved":false,"is_disabled":false,"rental_uris":{"android":"levelo://app?vid=4167b3fe-24d9-4be6-acd7-ecd8e6bd7026","ios":"levelo://app?vid=4167b3fe-24d9-4be6-acd7-ecd8e6bd7026"},"vehicle_type_id":"4","last_reported":1750151533,"current_range_meters":2800,"station_id":"","pricing_plan_id":"cebpf4jnsgd1na2vs0mg"},{"bike_id":"b9e37238-9abe-4b8b-b932-edaee33a7e59","system_id":"levelo_inurba_marseille","lat":43.27471,"lon":5.38991,"is_reserved":false,"is_disabled":false,"rental_uris":{"android":"levelo://app?vid=b9e37238-9abe-4b8b-b932-edaee33a7e59","ios":"levelo://app?vid=b9e37238-9abe-4b8b-b932-edaee33a7e59"},"vehicle_type_id":"4","last_reported":1750151533,"current_range_meters":3200,"station_id":"","pricing_plan_id":"cebpf4jnsgd1na2vs0mg"},{"bike_id":"650a0df7-5039-4f0e-b2cb-89836c693f5c","system_id":"levelo_inurba_marseille","lat":43.301727,"lon":5.373288,"is_reserved":false,"is_disabled":false,"rental_uris":{"android":"levelo://app?vid=650a0df7-5039-4f0e-b2cb-89836c693f5c","ios":"levelo://app?vid=650a0df7-5039-4f0e-b2cb-89836c693f5c"},"vehicle_type_id":"4","last_reported":1750151533,"current_range_meters":3600,"station_id":"","pricing_plan_id":"cebpf4jnsgd1na2vs0mg"},{"bike_id":"81c3a106-279e-4d1d-9439-a3d6a6ad516d","system_id":"levelo_inurba_marseille","lat":43.2925,"lon":5.37622,"is_reserved":false,"is_disabled":false,"rental_uris":{"android":"levelo://app?vid=81c3a106-279e-4d1d-9439-a3d6a6ad516d","ios":"levelo://app?vid=81c3a106-279e-4d1d-9439-a3d6a6ad516d"},"vehicle_type_id":"4","last_reported":1750151533,"current_range_meters":3600,"station_id":"ce4bgi12rcd13ifvqb80","pricing_plan_id":"cebpf4jnsgd1na2vs0mg"},{"bike_id":"55f88da3-43dd-428f-a51d-c608d3a7dd85","system_id":"levelo_inurba_marseille","lat":43.30778,"lon":5.3766,"is_reserved":false,"is_disabled":false,"rental_uris":{"android":"levelo://app?vid=55f88da3-43dd-428f-a51d-c608d3a7dd85","ios":"levelo://app?vid=55f88da3-43dd-428f-a51d-c608d3a7dd85"},"vehicle_type_id":"4","last_reported":1750151533,"current_range_meters":4000,"station_id":"ce4bgv92rcd13ifvqcq0","pricing_plan_id":"cebpf4jnsgd1na2vs0mg"},{"bike_id":"bda4715f-95c2-4107-8954-e1e56a63a1ee","system_id":"levelo_inurba_marseille","lat":43.33723,"lon":5.39187,"is_reserved":false,"is_disabled":false,"rental_uris":{"android":"levelo://app?vid=bda4715f-95c2-4107-8954-e1e56a63a1ee","ios":"levelo://app?vid=bda4715f-95c2-4107-8954-e1e56a63a1ee"},"vehicle_type_id":"4","last_reported":1750151533,"current_range_meters":4000,"station_id":"ce4bhr92rcd13ifvqhsg","pricing_plan_id":"cebpf4jnsgd1na2vs0mg"},{"bike_id":"8d297b38-f666-4a46-9dee-0132f800019c","system_id":"levelo_inurba_marseille","lat":43.32204,"lon":5.38664,"is_reserved":false,"is_disabled":false,"rental_uris":{"android":"levelo://app?vid=8d297b38-f666-4a46-9dee-0132f800019c","ios":"levelo://app?vid=8d297b38-f666-4a46-9dee-0132f800019c"},"vehicle_type_id":"4","last_reported":1750151533,"current_range_meters":4400,"station_id":"","pricing_plan_id":"cebpf4jnsgd1na2vs0mg"},{"bike_id":"355d33db-d830-4abb-a2f9-34e06aea68bc","system_id":"levelo_inurba_marseille","lat":43.32224,"lon":5.38107,"is_reserved":false,"is_disabled":false,"rental_uris":{"android":"levelo://app?vid=355d33db-d830-4abb-a2f9-34e06aea68bc","ios":"levelo://app?vid=355d33db-d830-4abb-a2f9-34e06aea68bc"},"vehicle_type_id":"4","last_reported":1750151533,"current_range_meters":5600,"station_id":"","pricing_plan_id":"cebpf4jnsgd1na2vs0mg"},{"bike_id":"f03501b3-7634-4444-9a22-7f996a732b4a","system_id":"levelo_inurba_marseille","lat":43.31377,"lon":5.36696,"is_reserved":false,"is_disabled":false,"rental_uris":{"android":"levelo://app?vid=f03501b3-7634-4444-9a22-7f996a732b4a","ios":"levelo://app?vid=f03501b3-7634-4444-9a22-7f996a732b4a"},"vehicle_type_id":"4","last_reported":1750151533,"current_range_meters":6000,"station_id":"ce4bgr92rcd13ifvqc6g","pricing_plan_id":"cebpf4jnsgd1na2vs0mg"},{"bike_id":"79eeb666-d8d8-469a-94d3-68222c812a1d","system_id":"levelo_inurba_marseille","lat":43.31796,"lon":5.37465,"is_reserved":false,"is_disabled":false,"rental_uris":{"android":"levelo://app?vid=79eeb666-d8d8-469a-94d3-68222c812a1d","ios":"levelo://app?vid=79eeb666-d8d8-469a-94d3-68222c812a1d"},"vehicle_type_id":"4","last_reported":1750151533,"current_range_meters":6400,"station_id":"","pricing_plan_id":"cebpf4jnsgd1na2vs0mg"},{"bike_id":"dcb87a9a-18f8-41c6-9134-949f31e21b42","system_id":"levelo_inurba_marseille","lat":43.27002,"lon":5.39949,"is_reserved":false,"is_disabled":false,"rental_uris":{"android":"levelo://app?vid=dcb87a9a-18f8-41c6-9134-949f31e21b42","ios":"levelo://app?vid=dcb87a9a-18f8-41c6-9134-949f31e21b42"},"vehicle_type_id":"4","last_reported":1750151533,"current_range_meters":6400,"station_id":"","pricing_plan_id":"cebpf4jnsgd1na2vs0mg"},{"bike_id":"10d8703f-8168-48d3-b44c-9eaaf686e239","system_id":"levelo_inurba_marseille","lat":43.30598,"lon":5.37171,"is_reserved":false,"is_disabled":false,"rental_uris":{"android":"levelo://app?vid=10d8703f-8168-48d3-b44c-9eaaf686e239","ios":"levelo://app?vid=10d8703f-8168-48d3-b44c-9eaaf686e239"},"vehicle_type_id":"4","last_reported":1750151533,"current_range_meters":6400,"station_id":"ce4bgqh2rcd13ifvqc4g","pricing_plan_id":"cebpf4jnsgd1na2vs0mg"},{"bike_id":"aaa77f42-f320-46b8-a2d7-157eeb5fea72","system_id":"levelo_inurba_marseille","lat":43.28615,"lon":5.35111,"is_reserved":false,"is_disabled":false,"rental_uris":{"android":"levelo://app?vid=aaa77f42-f320-46b8-a2d7-157eeb5fea72","ios":"levelo://app?vid=aaa77f42-f320-46b8-a2d7-157eeb5fea72"},"vehicle_type_id":"4","last_reported":1750151533,"current_range_meters":6400,"station_id":"ce4bhch2rcd13ifvqeug","pricing_plan_id":"cebpf4jnsgd1na2vs0mg"},{"bike_id":"d654637f-58e6-49a9-826b-64dd85d4fe00","system_id":"levelo_inurba_marseille","lat":43.29583,"lon":5.36737,"is_reserved":false,"is_disabled":false,"rental_uris":{"android":"levelo://app?vid=d654637f-58e6-49a9-826b-64dd85d4fe00","ios":"levelo://app?vid=d654637f-58e6-49a9-826b-64dd85d4fe00"},"vehicle_type_id":"4","last_reported":1750151533,"current_range_meters":6800,"station_id":"ce4bgph2rcd13ifvqc2g","pricing_plan_id":"cebpf4jnsgd1na2vs0mg"},{"bike_id":"f924883e-9cea-490d-a005-2b179fe7a10d","system_id":"levelo_inurba_marseille","lat":43.30151,"lon":5.38087,"is_reserved":false,"is_disabled":false,"rental_uris":{"android":"levelo://app?vid=f924883e-9cea-490d-a005-2b179fe7a10d","ios":"levelo://app?vid=f924883e-9cea-490d-a005-2b179fe7a10d"},"vehicle_type_id":"4","last_reported":1750151533,"current_range_meters":7200,"station_id":"ce4bgjp2rcd13ifvqbh0","pricing_plan_id":"cebpf4jnsgd1na2vs0mg"},{"bike_id":"26a09134-8508-4070-aaff-ae574614f5c0","system_id":"levelo_inurba_marseille","lat":43.312253,"lon":5.368663,"is_reserved":false,"is_disabled":false,"rental_uris":{"android":"levelo://app?vid=26a09134-8508-4070-aaff-ae574614f5c0","ios":"levelo://app?vid=26a09134-8508-4070-aaff-ae574614f5c0"},"vehicle_type_id":"4","last_reported":1750151533,"current_range_meters":7200,"station_id":"ce4bgl92rcd13ifvqbq0","pricing_plan_id":"cebpf4jnsgd1na2vs0mg"},{"bike_id":"7d8647da-5a19-4374-9e57-788f0b38886a","system_id":"levelo_inurba_marseille","lat":43.29786,"lon":5.37108,"is_reserved":false,"is_disabled":false,"rental_uris":{"android":"levelo://app?vid=7d8647da-5a19-4374-9e57-788f0b38886a","ios":"levelo://app?vid=7d8647da-5a19-4374-9e57-788f0b38886a"},"vehicle_type_id":"4","last_reported":1750151533,"current_range_meters":7200,"station_id":"ce4bgop2rcd13ifvqc1g","pricing_plan_id":"cebpf4jnsgd1na2vs0mg"},{"bike_id":"172ec774-308c-4efd-90cc-abb7f470eb1a","system_id":"levelo_inurba_marseille","lat":43.27324,"lon":5.39078,"is_reserved":false,"is_disabled":false,"rental_uris":{"android":"levelo://app?vid=172ec774-308c-4efd-90cc-abb7f470eb1a","ios":"levelo://app?vid=172ec774-308c-4efd-90cc-abb7f470eb1a"},"vehicle_type_id":"4","last_reported":1750151533,"current_range_meters":7200,"station_id":"ce4bhgp2rcd13ifvqfe0","pricing_plan_id":"cebpf4jnsgd1na2vs0mg"},{"bike_id":"3042c9e5-c5a5-4a11-94d1-8e536b5e25f7","system_id":"levelo_inurba_marseille","lat":43.211941,"lon":5.350722,"is_reserved":false,"is_disabled":false,"rental_uris":{"android":"levelo://app?vid=3042c9e5-c5a5-4a11-94d1-8e536b5e25f7","ios":"levelo://app?vid=3042c9e5-c5a5-4a11-94d1-8e536b5e25f7"},"vehicle_type_id":"4","last_reported":1750151533,"current_range_meters":7200,"station_id":"st_cvj6sg6p6f1abm77japg","pricing_plan_id":"cebpf4jnsgd1na2vs0mg"},{"bike_id":"6e347ca0-ee16-4d11-90b2-8bba0f4d6380","system_id":"levelo_inurba_marseille","lat":43.31345,"lon":5.36716,"is_reserved":false,"is_disabled":false,"rental_uris":{"android":"levelo://app?vid=6e347ca0-ee16-4d11-90b2-8bba0f4d6380","ios":"levelo://app?vid=6e347ca0-ee16-4d11-90b2-8bba0f4d6380"},"vehicle_type_id":"4","last_reported":1750151533,"current_range_meters":8000,"station_id":"ce4bgr92rcd13ifvqc6g","pricing_plan_id":"cebpf4jnsgd1na2vs0mg"},{"bike_id":"cfc82a10-8d52-42f6-94f0-8ed715236c6e","system_id":"levelo_inurba_marseille","lat":43.30955,"lon":5.39044,"is_reserved":false,"is_disabled":false,"rental_uris":{"android":"levelo://app?vid=cfc82a10-8d52-42f6-94f0-8ed715236c6e","ios":"levelo://app?vid=cfc82a10-8d52-42f6-94f0-8ed715236c6e"},"vehicle_type_id":"4","last_reported":1750151533,"current_range_meters":8000,"station_id":"ce4bgup2rcd13ifvqco0","pricing_plan_id":"cebpf4jnsgd1na2vs0mg"},{"bike_id":"56153621-fc4d-473f-bbe1-f9b29431b9a0","system_id":"levelo_inurba_marseille","lat":43.28984,"lon":5.37833,"is_reserved":false,"is_disabled":false,"rental_uris":{"android":"levelo://app?vid=56153621-fc4d-473f-bbe1-f9b29431b9a0","ios":"levelo://app?vid=56153621-fc4d-473f-bbe1-f9b29431b9a0"},"vehicle_type_id":"4","last_reported":1750151533,"current_range_meters":8000,"station_id":"ce4bh9p2rcd13ifvqed0","pricing_plan_id":"cebpf4jnsgd1na2vs0mg"},{"bike_id":"adbb8bb9-bfdd-4cca-aa22-9d75ec7abd3a","system_id":"levelo_inurba_marseille","lat":43.29307,"lon":5.37456,"is_reserved":false,"is_disabled":false,"rental_uris":{"android":"levelo://app?vid=adbb8bb9-bfdd-4cca-aa22-9d75ec7abd3a","ios":"levelo://app?vid=adbb8bb9-bfdd-4cca-aa22-9d75ec7abd3a"},"vehicle_type_id":"4","last_reported":1750151533,"current_range_meters":8400,"station_id":"ce4bgi12rcd13ifvqb70","pricing_plan_id":"cebpf4jnsgd1na2vs0mg"},{"bike_id":"374973ab-3559-44e6-8617-52bb195891d8","system_id":"levelo_inurba_marseille","lat":43.29534,"lon":5.38542,"is_reserved":false,"is_disabled":false,"rental_uris":{"android":"levelo://app?vid=374973ab-3559-44e6-8617-52bb195891d8","ios":"levelo://app?vid=374973ab-3559-44e6-8617-52bb195891d8"},"vehicle_type_id":"4","last_reported":1750151533,"current_range_meters":8400,"station_id":"ce4bgih2rcd13ifvqba0","pricing_plan_id":"cebpf4jnsgd1na2vs0mg"},{"bike_id":"98fa00ce-a438-4812-a731-b3f5176ce7f8","system_id":"levelo_inurba_marseille","lat":43.28614,"lon":5.35106,"is_reserved":false,"is_disabled":false,"rental_uris":{"android":"levelo://app?vid=98fa00ce-a438-4812-a731-b3f5176ce7f8","ios":"levelo://app?vid=98fa00ce-a438-4812-a731-b3f5176ce7f8"},"vehicle_type_id":"4","last_reported":1750151533,"current_range_meters":8400,"station_id":"ce4bhch2rcd13ifvqeug","pricing_plan_id":"cebpf4jnsgd1na2vs0mg"},{"bike_id":"6afc644c-08c3-42de-8619-3f94e2ba41cd","system_id":"levelo_inurba_marseille","lat":43.299086,"lon":5.436633,"is_reserved":false,"is_disabled":false,"rental_uris":{"android":"levelo://app?vid=6afc644c-08c3-42de-8619-3f94e2ba41cd","ios":"levelo://app?vid=6afc644c-08c3-42de-8619-3f94e2ba41cd"},"vehicle_type_id":"4","last_reported":1750151533,"current_range_meters":8400,"station_id":"ce4bhpp2rcd13ifvqhfg","pricing_plan_id":"cebpf4jnsgd1na2vs0mg"},{"bike_id":"545d22d0-4bdb-4967-b574-d0f808cfcbea","system_id":"levelo_inurba_marseille","lat":43.21189,"lon":5.35072,"is_reserved":false,"is_disabled":false,"rental_uris":{"android":"levelo://app?vid=545d22d0-4bdb-4967-b574-d0f808cfcbea","ios":"levelo://app?vid=545d22d0-4bdb-4967-b574-d0f808cfcbea"},"vehicle_type_id":"4","last_reported":1750151533,"current_range_meters":8400,"station_id":"st_cvj6sg6p6f1abm77japg","pricing_plan_id":"cebpf4jnsgd1na2vs0mg"},{"bike_id":"843544c9-a252-47f5-8d4e-232ea89f3c84","system_id":"levelo_inurba_marseille","lat":43.29434,"lon":5.39743,"is_reserved":false,"is_disabled":false,"rental_uris":{"android":"levelo://app?vid=843544c9-a252-47f5-8d4e-232ea89f3c84","ios":"levelo://app?vid=843544c9-a252-47f5-8d4e-232ea89f3c84"},"vehicle_type_id":"4","last_reported":1750151533,"current_range_meters":8800,"station_id":"ce4bh3h2rcd13ifvqdo0","pricing_plan_id":"cebpf4jnsgd1na2vs0mg"},{"bike_id":"8d4aa2da-9beb-4ee4-9e89-5965923e0030","system_id":"levelo_inurba_marseille","lat":43.28481,"lon":5.38426,"is_reserved":false,"is_disabled":false,"rental_uris":{"android":"levelo://app?vid=8d4aa2da-9beb-4ee4-9e89-5965923e0030","ios":"levelo://app?vid=8d4aa2da-9beb-4ee4-9e89-5965923e0030"},"vehicle_type_id":"4","last_reported":1750151533,"current_range_meters":8800,"station_id":"ce4bh512rcd13ifvqe3g","pricing_plan_id":"cebpf4jnsgd1na2vs0mg"},{"bike_id":"b9e6904e-19e9-45b5-9ac1-b029114d6544","system_id":"levelo_inurba_marseille","lat":43.31388,"lon":5.36728,"is_reserved":false,"is_disabled":false,"rental_uris":{"android":"levelo://app?vid=b9e6904e-19e9-45b5-9ac1-b029114d6544","ios":"levelo://app?vid=b9e6904e-19e9-45b5-9ac1-b029114d6544"},"vehicle_type_id":"4","last_reported":1750151533,"current_range_meters":9200,"station_id":"","pricing_plan_id":"cebpf4jnsgd1na2vs0mg"},{"bike_id":"7db2dafb-5c52-41eb-95fb-ee667194c9d2","system_id":"levelo_inurba_marseille","lat":43.30949,"lon":5.39029,"is_reserved":false,"is_disabled":false,"rental_uris":{"android":"levelo://app?vid=7db2dafb-5c52-41eb-95fb-ee667194c9d2","ios":"levelo://app?vid=7db2dafb-5c52-41eb-95fb-ee667194c9d2"},"vehicle_type_id":"4","last_reported":1750151533,"current_range_meters":9200,"station_id":"ce4bgup2rcd13ifvqco0","pricing_plan_id":"cebpf4jnsgd1na2vs0mg"},{"bike_id":"9b4c173c-8f71-4166-83e6-9c79bcccf875","system_id":"levelo_inurba_marseille","lat":43.28261,"lon":5.35062,"is_reserved":false,"is_disabled":false,"rental_uris":{"android":"levelo://app?vid=9b4c173c-8f71-4166-83e6-9c79bcccf875","ios":"levelo://app?vid=9b4c173c-8f71-4166-83e6-9c79bcccf875"},"vehicle_type_id":"4","last_reported":1750151533,"current_range_meters":9200,"station_id":"ce4bhbp2rcd13ifvqerg","pricing_plan_id":"cebpf4jnsgd1na2vs0mg"},{"bike_id":"caf6f3e2-bc1e-413d-8e76-c9f27e19c5f2","system_id":"levelo_inurba_marseille","lat":43.26552,"lon":5.37285,"is_reserved":false,"is_disabled":false,"rental_uris":{"android":"levelo://app?vid=caf6f3e2-bc1e-413d-8e76-c9f27e19c5f2","ios":"levelo://app?vid=caf6f3e2-bc1e-413d-8e76-c9f27e19c5f2"},"vehicle_type_id":"4","last_reported":1750151533,"current_range_meters":9200,"station_id":"ce4bhg12rcd13ifvqf70","pricing_plan_id":"cebpf4jnsgd1na2vs0mg"},{"bike_id":"50c39119-4714-4616-8b98-47b9529168d0","system_id":"levelo_inurba_marseille","lat":43.27069,"lon":5.4228,"is_reserved":false,"is_disabled":false,"rental_uris":{"android":"levelo://app?vid=50c39119-4714-4616-8b98-47b9529168d0","ios":"levelo://app?vid=50c39119-4714-4616-8b98-47b9529168d0"},"vehicle_type_id":"4","last_reported":1750151533,"current_range_meters":9200,"station_id":"ce4bhk92rcd13ifvqgb0","pricing_plan_id":"cebpf4jnsgd1na2vs0mg"},{"bike_id":"865ec628-0f51-463e-a384-6e3ca00f4a84","system_id":"levelo_inurba_marseille","lat":43.231489,"lon":5.437011,"is_reserved":false,"is_disabled":false,"rental_uris":{"android":"levelo://app?vid=865ec628-0f51-463e-a384-6e3ca00f4a84","ios":"levelo://app?vid=865ec628-0f51-463e-a384-6e3ca00f4a84"},"vehicle_type_id":"4","last_reported":1750151533,"current_range_meters":9200,"station_id":"ce4bhmp2rcd13ifvqgog","pricing_plan_id":"cebpf4jnsgd1na2vs0mg"},{"bike_id":"3053fffc-393c-45b8-9b30-68ad54766752","system_id":"levelo_inurba_marseille","lat":43.32659,"lon":5.40991,"is_reserved":false,"is_disabled":false,"rental_uris":{"android":"levelo://app?vid=3053fffc-393c-45b8-9b30-68ad54766752","ios":"levelo://app?vid=3053fffc-393c-45b8-9b30-68ad54766752"},"vehicle_type_id":"4","last_reported":1750151533,"current_range_meters":9200,"station_id":"ce4bhpp2rcd13ifvqhgg","pricing_plan_id":"cebpf4jnsgd1na2vs0mg"},{"bike_id":"da3e1724-606c-4f9a-9130-d56dd48e22e0","system_id":"levelo_inurba_marseille","lat":43.32956,"lon":5.40599,"is_reserved":false,"is_disabled":false,"rental_uris":{"android":"levelo://app?vid=da3e1724-606c-4f9a-9130-d56dd48e22e0","ios":"levelo://app?vid=da3e1724-606c-4f9a-9130-d56dd48e22e0"},"vehicle_type_id":"4","last_reported":1750151533,"current_range_meters":9600,"station_id":"","pricing_plan_id":"cebpf4jnsgd1na2vs0mg"},{"bike_id":"64c6d212-acc6-47e3-9e04-fbaf04a7ed4e","system_id":"levelo_inurba_marseille","lat":43.26986,"lon":5.38761,"is_reserved":false,"is_disabled":false,"rental_uris":{"android":"levelo://app?vid=64c6d212-acc6-47e3-9e04-fbaf04a7ed4e","ios":"levelo://app?vid=64c6d212-acc6-47e3-9e04-fbaf04a7ed4e"},"vehicle_type_id":"4","last_reported":1750151533,"current_range_meters":9600,"station_id":"","pricing_plan_id":"cebpf4jnsgd1na2vs0mg"},{"bike_id":"f4f8a471-f7c4-43ed-b80b-b56be0a5ffa5","system_id":"levelo_inurba_marseille","lat":43.29263,"lon":5.37626,"is_reserved":false,"is_disabled":false,"rental_uris":{"android":"levelo://app?vid=f4f8a471-f7c4-43ed-b80b-b56be0a5ffa5","ios":"levelo://app?vid=f4f8a471-f7c4-43ed-b80b-b56be0a5ffa5"},"vehicle_type_id":"4","last_reported":1750151533,"current_range_meters":9600,"station_id":"ce4bgi12rcd13ifvqb80","pricing_plan_id":"cebpf4jnsgd1na2vs0mg"},{"bike_id":"6a9e261d-8f49-4b8c-b291-d5400f395389","system_id":"levelo_inurba_marseille","lat":43.3056,"lon":5.36698,"is_reserved":false,"is_disabled":false,"rental_uris":{"android":"levelo://app?vid=6a9e261d-8f49-4b8c-b291-d5400f395389","ios":"levelo://app?vid=6a9e261d-8f49-4b8c-b291-d5400f395389"},"vehicle_type_id":"4","last_reported":1750151533,"current_range_meters":9600,"station_id":"ce4bgrp2rcd13ifvqc9g","pricing_plan_id":"cebpf4jnsgd1na2vs0mg"},{"bike_id":"0626f844-851d-46f7-b927-0098a85ccedf","system_id":"levelo_inurba_marseille","lat":43.301392,"lon":5.374195,"is_reserved":false,"is_disabled":false,"rental_uris":{"android":"levelo://app?vid=0626f844-851d-46f7-b927-0098a85ccedf","ios":"levelo://app?vid=0626f844-851d-46f7-b927-0098a85ccedf"},"vehicle_type_id":"4","last_reported":1750151533,"current_range_meters":9600,"station_id":"ce4bgs92rcd13ifvqcc0","pricing_plan_id":"cebpf4jnsgd1na2vs0mg"},{"bike_id":"53e14c43-2c77-4740-a7aa-d78a15455e3e","system_id":"levelo_inurba_marseille","lat":43.28356,"lon":5.38635,"is_reserved":false,"is_disabled":false,"rental_uris":{"android":"levelo://app?vid=53e14c43-2c77-4740-a7aa-d78a15455e3e","ios":"levelo://app?vid=53e14c43-2c77-4740-a7aa-d78a15455e3e"},"vehicle_type_id":"4","last_reported":1750151533,"current_range_meters":9600,"station_id":"ce4bh492rcd13ifvqdvg","pricing_plan_id":"cebpf4jnsgd1na2vs0mg"},{"bike_id":"508fd1d5-464f-447c-b6cf-cfaa3ce05e3f","system_id":"levelo_inurba_marseille","lat":43.30375,"lon":5.42492,"is_reserved":false,"is_disabled":false,"rental_uris":{"android":"levelo://app?vid=508fd1d5-464f-447c-b6cf-cfaa3ce05e3f","ios":"levelo://app?vid=508fd1d5-464f-447c-b6cf-cfaa3ce05e3f"},"vehicle_type_id":"4","last_reported":1750151533,"current_range_meters":9600,"station_id":"ce4bhoh2rcd13ifvqh6g","pricing_plan_id":"cebpf4jnsgd1na2vs0mg"},{"bike_id":"16d1eb4f-e479-477d-b2cb-5fd8838c33e7","system_id":"levelo_inurba_marseille","lat":43.22934,"lon":5.35377,"is_reserved":false,"is_disabled":false,"rental_uris":{"android":"levelo://app?vid=16d1eb4f-e479-477d-b2cb-5fd8838c33e7","ios":"levelo://app?vid=16d1eb4f-e479-477d-b2cb-5fd8838c33e7"},"vehicle_type_id":"4","last_reported":1750151533,"current_range_meters":9600,"station_id":"cpo3532slgdg3j2ikp40","pricing_plan_id":"cebpf4jnsgd1na2vs0mg"},{"bike_id":"495ed5a6-10f8-4ae0-9798-3eec6b4ecf2c","system_id":"levelo_inurba_marseille","lat":43.2623,"lon":5.39323,"is_reserved":false,"is_disabled":false,"rental_uris":{"android":"levelo://app?vid=495ed5a6-10f8-4ae0-9798-3eec6b4ecf2c","ios":"levelo://app?vid=495ed5a6-10f8-4ae0-9798-3eec6b4ecf2c"},"vehicle_type_id":"4","last_reported":1750151533,"current_range_meters":10000,"station_id":"","pricing_plan_id":"cebpf4jnsgd1na2vs0mg"},{"bike_id":"356258c8-0ad6-493b-b5a4-77e865070f65","system_id":"levelo_inurba_marseille","lat":43.32611,"lon":5.41973,"is_reserved":false,"is_disabled":false,"rental_uris":{"android":"levelo://app?vid=356258c8-0ad6-493b-b5a4-77e865070f65","ios":"levelo://app?vid=356258c8-0ad6-493b-b5a4-77e865070f65"},"vehicle_type_id":"4","last_reported":1750151533,"current_range_meters":10000,"station_id":"","pricing_plan_id":"cebpf4jnsgd1na2vs0mg"},{"bike_id":"a71d6554-b76e-45cb-bbdb-f22b0e98760b","system_id":"levelo_inurba_marseille","lat":43.24803,"lon":5.37458,"is_reserved":false,"is_disabled":false,"rental_uris":{"android":"levelo://app?vid=a71d6554-b76e-45cb-bbdb-f22b0e98760b","ios":"levelo://app?vid=a71d6554-b76e-45cb-bbdb-f22b0e98760b"},"vehicle_type_id":"4","last_reported":1750151533,"current_range_meters":10000,"station_id":"ce4bhgh2rcd13ifvqfb0","pricing_plan_id":"cebpf4jnsgd1na2vs0mg"},{"bike_id":"b35914ae-da38-46fc-9230-b3564743afac","system_id":"levelo_inurba_marseille","lat":43.31687,"lon":5.40473,"is_reserved":false,"is_disabled":false,"rental_uris":{"android":"levelo://app?vid=b35914ae-da38-46fc-9230-b3564743afac","ios":"levelo://app?vid=b35914ae-da38-46fc-9230-b3564743afac"},"vehicle_type_id":"4","last_reported":1750151533,"current_range_meters":10800,"station_id":"ce4bh012rcd13ifvqd00","pricing_plan_id":"cebpf4jnsgd1na2vs0mg"},{"bike_id":"d8b6dd4e-7acd-47f2-abf9-b42c3835000e","system_id":"levelo_inurba_marseille","lat":43.26216,"lon":5.37446,"is_reserved":false,"is_disabled":false,"rental_uris":{"android":"levelo://app?vid=d8b6dd4e-7acd-47f2-abf9-b42c3835000e","ios":"levelo://app?vid=d8b6dd4e-7acd-47f2-abf9-b42c3835000e"},"vehicle_type_id":"4","last_reported":1750151533,"current_range_meters":10800,"station_id":"ce4bhgp2rcd13ifvqfc0","pricing_plan_id":"cebpf4jnsgd1na2vs0mg"},{"bike_id":"e1bc2e62-2b65-4eae-8a3a-fa9d39b1292b","system_id":"levelo_inurba_marseille","lat":43.2768,"lon":5.38875,"is_reserved":false,"is_disabled":false,"rental_uris":{"android":"levelo://app?vid=e1bc2e62-2b65-4eae-8a3a-fa9d39b1292b","ios":"levelo://app?vid=e1bc2e62-2b65-4eae-8a3a-fa9d39b1292b"},"vehicle_type_id":"4","last_reported":1750151533,"current_range_meters":10800,"station_id":"ce4bhi12rcd13ifvqfo0","pricing_plan_id":"cebpf4jnsgd1na2vs0mg"},{"bike_id":"18dceca6-8e62-4102-b176-c3c34838a810","system_id":"levelo_inurba_marseille","lat":43.26491,"lon":5.39542,"is_reserved":false,"is_disabled":false,"rental_uris":{"android":"levelo://app?vid=18dceca6-8e62-4102-b176-c3c34838a810","ios":"levelo://app?vid=18dceca6-8e62-4102-b176-c3c34838a810"},"vehicle_type_id":"4","last_reported":1750151533,"current_range_meters":10800,"station_id":"ce4bhi12rcd13ifvqfq0","pricing_plan_id":"cebpf4jnsgd1na2vs0mg"},{"bike_id":"117e1a3a-95bf-446b-9b14-85d6b5424d11","system_id":"levelo_inurba_marseille","lat":43.30543,"lon":5.38428,"is_reserved":false,"is_disabled":false,"rental_uris":{"android":"levelo://app?vid=117e1a3a-95bf-446b-9b14-85d6b5424d11","ios":"levelo://app?vid=117e1a3a-95bf-446b-9b14-85d6b5424d11"},"vehicle_type_id":"4","last_reported":1750151533,"current_range_meters":11200,"station_id":"ce4bgg92rcd13ifvqb30","pricing_plan_id":"cebpf4jnsgd1na2vs0mg"},{"bike_id":"f2fa202b-e55c-46d2-a0d4-7a6cc0ec1c47","system_id":"levelo_inurba_marseille","lat":43.23154,"lon":5.43701,"is_reserved":false,"is_disabled":false,"rental_uris":{"android":"levelo://app?vid=f2fa202b-e55c-46d2-a0d4-7a6cc0ec1c47","ios":"levelo://app?vid=f2fa202b-e55c-46d2-a0d4-7a6cc0ec1c47"},"vehicle_type_id":"4","last_reported":1750151533,"current_range_meters":11200,"station_id":"ce4bhmp2rcd13ifvqgog","pricing_plan_id":"cebpf4jnsgd1na2vs0mg"},{"bike_id":"b109a649-3601-4b2c-9651-fc7b9b860c21","system_id":"levelo_inurba_marseille","lat":43.27497,"lon":5.42447,"is_reserved":false,"is_disabled":false,"rental_uris":{"android":"levelo://app?vid=b109a649-3601-4b2c-9651-fc7b9b860c21","ios":"levelo://app?vid=b109a649-3601-4b2c-9651-fc7b9b860c21"},"vehicle_type_id":"4","last_reported":1750151533,"current_range_meters":11200,"station_id":"ce4bhn92rcd13ifvqgrg","pricing_plan_id":"cebpf4jnsgd1na2vs0mg"},{"bike_id":"3b136301-d892-4bf1-aa15-695ec30464ca","system_id":"levelo_inurba_marseille","lat":43.32085,"lon":5.3677,"is_reserved":false,"is_disabled":false,"rental_uris":{"android":"levelo://app?vid=3b136301-d892-4bf1-aa15-695ec30464ca","ios":"levelo://app?vid=3b136301-d892-4bf1-aa15-695ec30464ca"},"vehicle_type_id":"4","last_reported":1750151533,"current_range_meters":11200,"station_id":"ce4bhrh2rcd13ifvqhug","pricing_plan_id":"cebpf4jnsgd1na2vs0mg"},{"bike_id":"ebfb692b-f013-40a4-b271-1cca54572bce","system_id":"levelo_inurba_marseille","lat":43.30793,"lon":5.37639,"is_reserved":false,"is_disabled":false,"rental_uris":{"android":"levelo://app?vid=ebfb692b-f013-40a4-b271-1cca54572bce","ios":"levelo://app?vid=ebfb692b-f013-40a4-b271-1cca54572bce"},"vehicle_type_id":"4","last_reported":1750151533,"current_range_meters":11600,"station_id":"ce4bgv92rcd13ifvqcq0","pricing_plan_id":"cebpf4jnsgd1na2vs0mg"},{"bike_id":"25960fd9-8509-4555-9b23-fa4fae1e21d0","system_id":"levelo_inurba_marseille","lat":43.29014,"lon":5.38205,"is_reserved":false,"is_disabled":false,"rental_uris":{"android":"levelo://app?vid=25960fd9-8509-4555-9b23-fa4fae1e21d0","ios":"levelo://app?vid=25960fd9-8509-4555-9b23-fa4fae1e21d0"},"vehicle_type_id":"4","last_reported":1750151533,"current_range_meters":12000,"station_id":"","pricing_plan_id":"cebpf4jnsgd1na2vs0mg"},{"bike_id":"bbb0cc31-e1e5-43b8-99ed-ab72f91f8232","system_id":"levelo_inurba_marseille","lat":43.29506,"lon":5.37513,"is_reserved":false,"is_disabled":false,"rental_uris":{"android":"levelo://app?vid=bbb0cc31-e1e5-43b8-99ed-ab72f91f8232","ios":"levelo://app?vid=bbb0cc31-e1e5-43b8-99ed-ab72f91f8232"},"vehicle_type_id":"4","last_reported":1750151533,"current_range_meters":12000,"station_id":"ce4bgkp2rcd13ifvqbmg","pricing_plan_id":"cebpf4jnsgd1na2vs0mg"},{"bike_id":"303fdf26-39f1-4d0f-9a70-1065559f877a","system_id":"levelo_inurba_marseille","lat":43.30605,"lon":5.37233,"is_reserved":false,"is_disabled":false,"rental_uris":{"android":"levelo://app?vid=303fdf26-39f1-4d0f-9a70-1065559f877a","ios":"levelo://app?vid=303fdf26-39f1-4d0f-9a70-1065559f877a"},"vehicle_type_id":"4","last_reported":1750151533,"current_range_meters":12000,"station_id":"ce4bgqh2rcd13ifvqc4g","pricing_plan_id":"cebpf4jnsgd1na2vs0mg"},{"bike_id":"16d68f95-fb5b-4ba3-9ef5-8e4bba56f279","system_id":"levelo_inurba_marseille","lat":43.3136,"lon":5.38503,"is_reserved":false,"is_disabled":false,"rental_uris":{"android":"levelo://app?vid=16d68f95-fb5b-4ba3-9ef5-8e4bba56f279","ios":"levelo://app?vid=16d68f95-fb5b-4ba3-9ef5-8e4bba56f279"},"vehicle_type_id":"4","last_reported":1750151533,"current_range_meters":12000,"station_id":"ce4bgt92rcd13ifvqcf0","pricing_plan_id":"cebpf4jnsgd1na2vs0mg"},{"bike_id":"de71a536-1af7-4dc4-bab0-1c59a6599910","system_id":"levelo_inurba_marseille","lat":43.28366,"lon":5.38628,"is_reserved":false,"is_disabled":false,"rental_uris":{"android":"levelo://app?vid=de71a536-1af7-4dc4-bab0-1c59a6599910","ios":"levelo://app?vid=de71a536-1af7-4dc4-bab0-1c59a6599910"},"vehicle_type_id":"4","last_reported":1750151533,"current_range_meters":12000,"station_id":"ce4bh492rcd13ifvqdvg","pricing_plan_id":"cebpf4jnsgd1na2vs0mg"},{"bike_id":"1da7ab44-329a-41ed-b444-ba6bd8a3d2d9","system_id":"levelo_inurba_marseille","lat":43.2827,"lon":5.35075,"is_reserved":false,"is_disabled":false,"rental_uris":{"android":"levelo://app?vid=1da7ab44-329a-41ed-b444-ba6bd8a3d2d9","ios":"levelo://app?vid=1da7ab44-329a-41ed-b444-ba6bd8a3d2d9"},"vehicle_type_id":"4","last_reported":1750151533,"current_range_meters":12000,"station_id":"ce4bhbp2rcd13ifvqerg","pricing_plan_id":"cebpf4jnsgd1na2vs0mg"},{"bike_id":"cf0b7e8f-23ce-4844-b6f6-bc3fe4b9236b","system_id":"levelo_inurba_marseille","lat":43.23131,"lon":5.43699,"is_reserved":false,"is_disabled":false,"rental_uris":{"android":"levelo://app?vid=cf0b7e8f-23ce-4844-b6f6-bc3fe4b9236b","ios":"levelo://app?vid=cf0b7e8f-23ce-4844-b6f6-bc3fe4b9236b"},"vehicle_type_id":"4","last_reported":1750151533,"current_range_meters":12000,"station_id":"ce4bhmp2rcd13ifvqgog","pricing_plan_id":"cebpf4jnsgd1na2vs0mg"},{"bike_id":"c0907a52-2f53-46d6-b0d9-465cf27cd9a0","system_id":"levelo_inurba_marseille","lat":43.27999,"lon":5.41662,"is_reserved":false,"is_disabled":false,"rental_uris":{"android":"levelo://app?vid=c0907a52-2f53-46d6-b0d9-465cf27cd9a0","ios":"levelo://app?vid=c0907a52-2f53-46d6-b0d9-465cf27cd9a0"},"vehicle_type_id":"4","last_reported":1750151533,"current_range_meters":12000,"station_id":"ce4bho12rcd13ifvqh1g","pricing_plan_id":"cebpf4jnsgd1na2vs0mg"},{"bike_id":"222abc74-91c7-44a6-88b6-c71afabef20f","system_id":"levelo_inurba_marseille","lat":43.32489,"lon":5.36566,"is_reserved":false,"is_disabled":false,"rental_uris":{"android":"levelo://app?vid=222abc74-91c7-44a6-88b6-c71afabef20f","ios":"levelo://app?vid=222abc74-91c7-44a6-88b6-c71afabef20f"},"vehicle_type_id":"4","last_reported":1750151533,"current_range_meters":12000,"station_id":"ce4bhs12rcd13ifvqhvg","pricing_plan_id":"cebpf4jnsgd1na2vs0mg"},{"bike_id":"ce8379c9-1877-4b53-8daf-0dadeb476dcd","system_id":"levelo_inurba_marseille","lat":43.31231,"lon":5.36869,"is_reserved":false,"is_disabled":false,"rental_uris":{"android":"levelo://app?vid=ce8379c9-1877-4b53-8daf-0dadeb476dcd","ios":"levelo://app?vid=ce8379c9-1877-4b53-8daf-0dadeb476dcd"},"vehicle_type_id":"4","last_reported":1750151533,"current_range_meters":12400,"station_id":"ce4bgl92rcd13ifvqbq0","pricing_plan_id":"cebpf4jnsgd1na2vs0mg"},{"bike_id":"d15e97b3-501f-458f-810d-aadce744705f","system_id":"levelo_inurba_marseille","lat":43.31194,"lon":5.36871,"is_reserved":false,"is_disabled":false,"rental_uris":{"android":"levelo://app?vid=d15e97b3-501f-458f-810d-aadce744705f","ios":"levelo://app?vid=d15e97b3-501f-458f-810d-aadce744705f"},"vehicle_type_id":"4","last_reported":1750151533,"current_range_meters":12400,"station_id":"ce4bgl92rcd13ifvqbq0","pricing_plan_id":"cebpf4jnsgd1na2vs0mg"},{"bike_id":"3e7b8491-a9fe-4853-89ef-e89057246ce7","system_id":"levelo_inurba_marseille","lat":43.30549,"lon":5.36538,"is_reserved":false,"is_disabled":false,"rental_uris":{"android":"levelo://app?vid=3e7b8491-a9fe-4853-89ef-e89057246ce7","ios":"levelo://app?vid=3e7b8491-a9fe-4853-89ef-e89057246ce7"},"vehicle_type_id":"4","last_reported":1750151533,"current_range_meters":12400,"station_id":"ce4bgs12rcd13ifvqcag","pricing_plan_id":"cebpf4jnsgd1na2vs0mg"},{"bike_id":"90147876-6cbf-491b-9bd2-467e7d37564d","system_id":"levelo_inurba_marseille","lat":43.29258,"lon":5.40904,"is_reserved":false,"is_disabled":false,"rental_uris":{"android":"levelo://app?vid=90147876-6cbf-491b-9bd2-467e7d37564d","ios":"levelo://app?vid=90147876-6cbf-491b-9bd2-467e7d37564d"},"vehicle_type_id":"4","last_reported":1750151533,"current_range_meters":12400,"station_id":"ce4bh192rcd13ifvqdc0","pricing_plan_id":"cebpf4jnsgd1na2vs0mg"},{"bike_id":"a51813a8-7366-4e85-b788-575b55843d78","system_id":"levelo_inurba_marseille","lat":43.28284,"lon":5.35082,"is_reserved":false,"is_disabled":false,"rental_uris":{"android":"levelo://app?vid=a51813a8-7366-4e85-b788-575b55843d78","ios":"levelo://app?vid=a51813a8-7366-4e85-b788-575b55843d78"},"vehicle_type_id":"4","last_reported":1750151533,"current_range_meters":12400,"station_id":"ce4bhbp2rcd13ifvqerg","pricing_plan_id":"cebpf4jnsgd1na2vs0mg"},{"bike_id":"fecb1707-00a5-41d4-8e5a-64177f296127","system_id":"levelo_inurba_marseille","lat":43.25929,"lon":5.40878,"is_reserved":false,"is_disabled":false,"rental_uris":{"android":"levelo://app?vid=fecb1707-00a5-41d4-8e5a-64177f296127","ios":"levelo://app?vid=fecb1707-00a5-41d4-8e5a-64177f296127"},"vehicle_type_id":"4","last_reported":1750151533,"current_range_meters":12400,"station_id":"ce4bhm92rcd13ifvqglg","pricing_plan_id":"cebpf4jnsgd1na2vs0mg"},{"bike_id":"1e373418-986e-4d3c-9ff7-c37dd7c7a214","system_id":"levelo_inurba_marseille","lat":43.29899,"lon":5.43661,"is_reserved":false,"is_disabled":false,"rental_uris":{"android":"levelo://app?vid=1e373418-986e-4d3c-9ff7-c37dd7c7a214","ios":"levelo://app?vid=1e373418-986e-4d3c-9ff7-c37dd7c7a214"},"vehicle_type_id":"4","last_reported":1750151533,"current_range_meters":12400,"station_id":"ce4bhpp2rcd13ifvqhfg","pricing_plan_id":"cebpf4jnsgd1na2vs0mg"},{"bike_id":"cf284577-5c10-485f-822d-787805988478","system_id":"levelo_inurba_marseille","lat":43.28702,"lon":5.37388,"is_reserved":false,"is_disabled":false,"rental_uris":{"android":"levelo://app?vid=cf284577-5c10-485f-822d-787805988478","ios":"levelo://app?vid=cf284577-5c10-485f-822d-787805988478"},"vehicle_type_id":"4","last_reported":1750151533,"current_range_meters":12800,"station_id":"ce4bh3p2rcd13ifvqdq0","pricing_plan_id":"cebpf4jnsgd1na2vs0mg"},{"bike_id":"30cd9817-86b6-4a45-8951-a1ef254a09b6","system_id":"levelo_inurba_marseille","lat":43.25937,"lon":5.40908,"is_reserved":false,"is_disabled":false,"rental_uris":{"android":"levelo://app?vid=30cd9817-86b6-4a45-8951-a1ef254a09b6","ios":"levelo://app?vid=30cd9817-86b6-4a45-8951-a1ef254a09b6"},"vehicle_type_id":"4","last_reported":1750151533,"current_range_meters":12800,"station_id":"ce4bhm92rcd13ifvqglg","pricing_plan_id":"cebpf4jnsgd1na2vs0mg"},{"bike_id":"163eb2cf-70a7-4f4c-aa60-696f0c9d161d","system_id":"levelo_inurba_marseille","lat":43.29162,"lon":5.37158,"is_reserved":false,"is_disabled":false,"rental_uris":{"android":"levelo://app?vid=163eb2cf-70a7-4f4c-aa60-696f0c9d161d","ios":"levelo://app?vid=163eb2cf-70a7-4f4c-aa60-696f0c9d161d"},"vehicle_type_id":"4","last_reported":1750151533,"current_range_meters":13600,"station_id":"ce4bha92rcd13ifvqeh0","pricing_plan_id":"cebpf4jnsgd1na2vs0mg"},{"bike_id":"af2982b1-87fc-4dff-a192-d22092f4238f","system_id":"levelo_inurba_marseille","lat":43.23148,"lon":5.43723,"is_reserved":false,"is_disabled":false,"rental_uris":{"android":"levelo://app?vid=af2982b1-87fc-4dff-a192-d22092f4238f","ios":"levelo://app?vid=af2982b1-87fc-4dff-a192-d22092f4238f"},"vehicle_type_id":"4","last_reported":1750151533,"current_range_meters":13600,"station_id":"ce4bhmp2rcd13ifvqgog","pricing_plan_id":"cebpf4jnsgd1na2vs0mg"},{"bike_id":"0e27dafc-21df-4fb1-bd36-2450a7866702","system_id":"levelo_inurba_marseille","lat":43.27162,"lon":5.39996,"is_reserved":false,"is_disabled":false,"rental_uris":{"android":"levelo://app?vid=0e27dafc-21df-4fb1-bd36-2450a7866702","ios":"levelo://app?vid=0e27dafc-21df-4fb1-bd36-2450a7866702"},"vehicle_type_id":"4","last_reported":1750151533,"current_range_meters":14000,"station_id":"","pricing_plan_id":"cebpf4jnsgd1na2vs0mg"},{"bike_id":"37fb4cb9-ac55-4fb3-bf78-22fd1089407e","system_id":"levelo_inurba_marseille","lat":43.30152,"lon":5.3808,"is_reserved":false,"is_disabled":false,"rental_uris":{"android":"levelo://app?vid=37fb4cb9-ac55-4fb3-bf78-22fd1089407e","ios":"levelo://app?vid=37fb4cb9-ac55-4fb3-bf78-22fd1089407e"},"vehicle_type_id":"4","last_reported":1750151533,"current_range_meters":14000,"station_id":"ce4bgjp2rcd13ifvqbh0","pricing_plan_id":"cebpf4jnsgd1na2vs0mg"},{"bike_id":"6fad1b9b-f237-41b5-b8e7-d4365887ea99","system_id":"levelo_inurba_marseille","lat":43.24389,"lon":5.37055,"is_reserved":false,"is_disabled":false,"rental_uris":{"android":"levelo://app?vid=6fad1b9b-f237-41b5-b8e7-d4365887ea99","ios":"levelo://app?vid=6fad1b9b-f237-41b5-b8e7-d4365887ea99"},"vehicle_type_id":"4","last_reported":1750151533,"current_range_meters":14000,"station_id":"ce4bhhh2rcd13ifvqfk0","pricing_plan_id":"cebpf4jnsgd1na2vs0mg"},{"bike_id":"7696af42-38fc-4b07-9fab-113899479dae","system_id":"levelo_inurba_marseille","lat":43.241649,"lon":5.363906,"is_reserved":false,"is_disabled":false,"rental_uris":{"android":"levelo://app?vid=7696af42-38fc-4b07-9fab-113899479dae","ios":"levelo://app?vid=7696af42-38fc-4b07-9fab-113899479dae"},"vehicle_type_id":"4","last_reported":1750151533,"current_range_meters":14000,"station_id":"cpo36qri1sfpv3e86is0","pricing_plan_id":"cebpf4jnsgd1na2vs0mg"},{"bike_id":"eca25bd6-1b44-4388-a7b0-074a85a4f502","system_id":"levelo_inurba_marseille","lat":43.31097,"lon":5.3973,"is_reserved":false,"is_disabled":false,"rental_uris":{"android":"levelo://app?vid=eca25bd6-1b44-4388-a7b0-074a85a4f502","ios":"levelo://app?vid=eca25bd6-1b44-4388-a7b0-074a85a4f502"},"vehicle_type_id":"4","last_reported":1750151533,"current_range_meters":14400,"station_id":"","pricing_plan_id":"cebpf4jnsgd1na2vs0mg"},{"bike_id":"c3a85d82-d355-452b-b875-bcb870078fc5","system_id":"levelo_inurba_marseille","lat":43.30597,"lon":5.37232,"is_reserved":false,"is_disabled":false,"rental_uris":{"android":"levelo://app?vid=c3a85d82-d355-452b-b875-bcb870078fc5","ios":"levelo://app?vid=c3a85d82-d355-452b-b875-bcb870078fc5"},"vehicle_type_id":"4","last_reported":1750151533,"current_range_meters":14400,"station_id":"ce4bgqh2rcd13ifvqc4g","pricing_plan_id":"cebpf4jnsgd1na2vs0mg"},{"bike_id":"74c0b4ca-a0a5-4b38-9644-fb008924b5e9","system_id":"levelo_inurba_marseille","lat":43.30955,"lon":5.39036,"is_reserved":false,"is_disabled":false,"rental_uris":{"android":"levelo://app?vid=74c0b4ca-a0a5-4b38-9644-fb008924b5e9","ios":"levelo://app?vid=74c0b4ca-a0a5-4b38-9644-fb008924b5e9"},"vehicle_type_id":"4","last_reported":1750151533,"current_range_meters":14400,"station_id":"ce4bgup2rcd13ifvqco0","pricing_plan_id":"cebpf4jnsgd1na2vs0mg"},{"bike_id":"3ea7f880-0d2f-43b8-aa3d-31bc88b3034e","system_id":"levelo_inurba_marseille","lat":43.28841,"lon":5.35857,"is_reserved":false,"is_disabled":false,"rental_uris":{"android":"levelo://app?vid=3ea7f880-0d2f-43b8-aa3d-31bc88b3034e","ios":"levelo://app?vid=3ea7f880-0d2f-43b8-aa3d-31bc88b3034e"},"vehicle_type_id":"4","last_reported":1750151533,"current_range_meters":14400,"station_id":"ce4bhb12rcd13ifvqem0","pricing_plan_id":"cebpf4jnsgd1na2vs0mg"},{"bike_id":"23faa242-b87c-4fff-86ab-796a829c920c","system_id":"levelo_inurba_marseille","lat":43.268503,"lon":5.393881,"is_reserved":false,"is_disabled":false,"rental_uris":{"android":"levelo://app?vid=23faa242-b87c-4fff-86ab-796a829c920c","ios":"levelo://app?vid=23faa242-b87c-4fff-86ab-796a829c920c"},"vehicle_type_id":"4","last_reported":1750151533,"current_range_meters":14400,"station_id":"ce4bhmp2rcd13ifvqgog","pricing_plan_id":"cebpf4jnsgd1na2vs0mg"},{"bike_id":"08ac4abd-a447-481b-9b73-07be2e562c59","system_id":"levelo_inurba_marseille","lat":43.31227,"lon":5.36868,"is_reserved":false,"is_disabled":false,"rental_uris":{"android":"levelo://app?vid=08ac4abd-a447-481b-9b73-07be2e562c59","ios":"levelo://app?vid=08ac4abd-a447-481b-9b73-07be2e562c59"},"vehicle_type_id":"4","last_reported":1750151533,"current_range_meters":14800,"station_id":"ce4bgl92rcd13ifvqbq0","pricing_plan_id":"cebpf4jnsgd1na2vs0mg"},{"bike_id":"c21d768e-36ff-4f90-9267-1b36e3675254","system_id":"levelo_inurba_marseille","lat":43.29933,"lon":5.36557,"is_reserved":false,"is_disabled":false,"rental_uris":{"android":"levelo://app?vid=c21d768e-36ff-4f90-9267-1b36e3675254","ios":"levelo://app?vid=c21d768e-36ff-4f90-9267-1b36e3675254"},"vehicle_type_id":"4","last_reported":1750151533,"current_range_meters":14800,"station_id":"ce4bgm92rcd13ifvqbr0","pricing_plan_id":"cebpf4jnsgd1na2vs0mg"},{"bike_id":"6c4f2e88-032c-4a28-97af-29dfff1d554d","system_id":"levelo_inurba_marseille","lat":43.30541,"lon":5.36537,"is_reserved":false,"is_disabled":false,"rental_uris":{"android":"levelo://app?vid=6c4f2e88-032c-4a28-97af-29dfff1d554d","ios":"levelo://app?vid=6c4f2e88-032c-4a28-97af-29dfff1d554d"},"vehicle_type_id":"4","last_reported":1750151533,"current_range_meters":14800,"station_id":"ce4bgs12rcd13ifvqcag","pricing_plan_id":"cebpf4jnsgd1na2vs0mg"},{"bike_id":"32d8ae12-ba2c-45ca-ad56-21f314ab8f61","system_id":"levelo_inurba_marseille","lat":43.29159,"lon":5.37148,"is_reserved":false,"is_disabled":false,"rental_uris":{"android":"levelo://app?vid=32d8ae12-ba2c-45ca-ad56-21f314ab8f61","ios":"levelo://app?vid=32d8ae12-ba2c-45ca-ad56-21f314ab8f61"},"vehicle_type_id":"4","last_reported":1750151533,"current_range_meters":14800,"station_id":"ce4bha92rcd13ifvqeh0","pricing_plan_id":"cebpf4jnsgd1na2vs0mg"},{"bike_id":"381bd0ad-ce73-4a4f-b643-1e1c87957c84","system_id":"levelo_inurba_marseille","lat":43.2407,"lon":5.37768,"is_reserved":false,"is_disabled":false,"rental_uris":{"android":"levelo://app?vid=381bd0ad-ce73-4a4f-b643-1e1c87957c84","ios":"levelo://app?vid=381bd0ad-ce73-4a4f-b643-1e1c87957c84"},"vehicle_type_id":"4","last_reported":1750151533,"current_range_meters":14800,"station_id":"ce4bhnp2rcd13ifvqgvg","pricing_plan_id":"cebpf4jnsgd1na2vs0mg"},{"bike_id":"6d392914-420e-49a0-9a62-e1c19d840639","system_id":"levelo_inurba_marseille","lat":43.30376,"lon":5.42521,"is_reserved":false,"is_disabled":false,"rental_uris":{"android":"levelo://app?vid=6d392914-420e-49a0-9a62-e1c19d840639","ios":"levelo://app?vid=6d392914-420e-49a0-9a62-e1c19d840639"},"vehicle_type_id":"4","last_reported":1750151533,"current_range_meters":14800,"station_id":"ce4bhoh2rcd13ifvqh6g","pricing_plan_id":"cebpf4jnsgd1na2vs0mg"},{"bike_id":"8f3ce912-d888-4d21-b0ae-50b62344cd42","system_id":"levelo_inurba_marseille","lat":43.24164,"lon":5.36386,"is_reserved":false,"is_disabled":false,"rental_uris":{"android":"levelo://app?vid=8f3ce912-d888-4d21-b0ae-50b62344cd42","ios":"levelo://app?vid=8f3ce912-d888-4d21-b0ae-50b62344cd42"},"vehicle_type_id":"4","last_reported":1750151533,"current_range_meters":14800,"station_id":"cpo36qri1sfpv3e86is0","pricing_plan_id":"cebpf4jnsgd1na2vs0mg"},{"bike_id":"28afc698-506e-444a-a9c2-0c6102156f88","system_id":"levelo_inurba_marseille","lat":43.30134,"lon":5.37419,"is_reserved":false,"is_disabled":false,"rental_uris":{"android":"levelo://app?vid=28afc698-506e-444a-a9c2-0c6102156f88","ios":"levelo://app?vid=28afc698-506e-444a-a9c2-0c6102156f88"},"vehicle_type_id":"4","last_reported":1750151533,"current_range_meters":15200,"station_id":"ce4bgs92rcd13ifvqcc0","pricing_plan_id":"cebpf4jnsgd1na2vs0mg"},{"bike_id":"661fdabc-3bf4-4c32-982d-cd17a28f3ac8","system_id":"levelo_inurba_marseille","lat":43.31366,"lon":5.38428,"is_reserved":false,"is_disabled":false,"rental_uris":{"android":"levelo://app?vid=661fdabc-3bf4-4c32-982d-cd17a28f3ac8","ios":"levelo://app?vid=661fdabc-3bf4-4c32-982d-cd17a28f3ac8"},"vehicle_type_id":"4","last_reported":1750151533,"current_range_meters":15200,"station_id":"ce4bho12rcd13ifvqh1g","pricing_plan_id":"cebpf4jnsgd1na2vs0mg"},{"bike_id":"83cfee7d-980d-496a-98c8-745c7e44c68d","system_id":"levelo_inurba_marseille","lat":43.3287,"lon":5.39091,"is_reserved":false,"is_disabled":false,"rental_uris":{"android":"levelo://app?vid=83cfee7d-980d-496a-98c8-745c7e44c68d","ios":"levelo://app?vid=83cfee7d-980d-496a-98c8-745c7e44c68d"},"vehicle_type_id":"4","last_reported":1750151533,"current_range_meters":16000,"station_id":"","pricing_plan_id":"cebpf4jnsgd1na2vs0mg"},{"bike_id":"26464f4b-1e3b-4f18-b2a2-99ce7626ffd3","system_id":"levelo_inurba_marseille","lat":43.29585,"lon":5.36733,"is_reserved":false,"is_disabled":false,"rental_uris":{"android":"levelo://app?vid=26464f4b-1e3b-4f18-b2a2-99ce7626ffd3","ios":"levelo://app?vid=26464f4b-1e3b-4f18-b2a2-99ce7626ffd3"},"vehicle_type_id":"4","last_reported":1750151533,"current_range_meters":16000,"station_id":"ce4bgph2rcd13ifvqc2g","pricing_plan_id":"cebpf4jnsgd1na2vs0mg"},{"bike_id":"76a46d21-a92c-4901-b4e4-7d445d5abe18","system_id":"levelo_inurba_marseille","lat":43.3132,"lon":5.36719,"is_reserved":false,"is_disabled":false,"rental_uris":{"android":"levelo://app?vid=76a46d21-a92c-4901-b4e4-7d445d5abe18","ios":"levelo://app?vid=76a46d21-a92c-4901-b4e4-7d445d5abe18"},"vehicle_type_id":"4","last_reported":1750151533,"current_range_meters":16000,"station_id":"ce4bgr92rcd13ifvqc6g","pricing_plan_id":"cebpf4jnsgd1na2vs0mg"},{"bike_id":"5a12ca7e-f405-49b0-8b5e-d38683ca3f26","system_id":"levelo_inurba_marseille","lat":43.27369,"lon":5.36261,"is_reserved":false,"is_disabled":false,"rental_uris":{"android":"levelo://app?vid=5a12ca7e-f405-49b0-8b5e-d38683ca3f26","ios":"levelo://app?vid=5a12ca7e-f405-49b0-8b5e-d38683ca3f26"},"vehicle_type_id":"4","last_reported":1750151533,"current_range_meters":16000,"station_id":"ce4bhbh2rcd13ifvqeo0","pricing_plan_id":"cebpf4jnsgd1na2vs0mg"},{"bike_id":"94f2397b-d51a-47fe-aa49-13fe8c5d8a89","system_id":"levelo_inurba_marseille","lat":43.272031,"lon":5.391817,"is_reserved":false,"is_disabled":false,"rental_uris":{"android":"levelo://app?vid=94f2397b-d51a-47fe-aa49-13fe8c5d8a89","ios":"levelo://app?vid=94f2397b-d51a-47fe-aa49-13fe8c5d8a89"},"vehicle_type_id":"4","last_reported":1750151533,"current_range_meters":16000,"station_id":"ce4bhhp2rcd13ifvqfm0","pricing_plan_id":"cebpf4jnsgd1na2vs0mg"},{"bike_id":"16b20cc7-21ba-4e44-8dab-d629469e9ac5","system_id":"levelo_inurba_marseille","lat":43.26494,"lon":5.39541,"is_reserved":false,"is_disabled":false,"rental_uris":{"android":"levelo://app?vid=16b20cc7-21ba-4e44-8dab-d629469e9ac5","ios":"levelo://app?vid=16b20cc7-21ba-4e44-8dab-d629469e9ac5"},"vehicle_type_id":"4","last_reported":1750151533,"current_range_meters":16000,"station_id":"ce4bhi12rcd13ifvqfq0","pricing_plan_id":"cebpf4jnsgd1na2vs0mg"},{"bike_id":"2090556a-ebe6-4fcd-b60b-df67d7c8e4f7","system_id":"levelo_inurba_marseille","lat":43.29896,"lon":5.43654,"is_reserved":false,"is_disabled":false,"rental_uris":{"android":"levelo://app?vid=2090556a-ebe6-4fcd-b60b-df67d7c8e4f7","ios":"levelo://app?vid=2090556a-ebe6-4fcd-b60b-df67d7c8e4f7"},"vehicle_type_id":"4","last_reported":1750151533,"current_range_meters":16000,"station_id":"ce4bhpp2rcd13ifvqhfg","pricing_plan_id":"cebpf4jnsgd1na2vs0mg"},{"bike_id":"22cf017d-1434-4f23-b2bd-e75d03dad59f","system_id":"levelo_inurba_marseille","lat":43.30543,"lon":5.3654,"is_reserved":false,"is_disabled":false,"rental_uris":{"android":"levelo://app?vid=22cf017d-1434-4f23-b2bd-e75d03dad59f","ios":"levelo://app?vid=22cf017d-1434-4f23-b2bd-e75d03dad59f"},"vehicle_type_id":"4","last_reported":1750151533,"current_range_meters":16400,"station_id":"ce4bgs12rcd13ifvqcag","pricing_plan_id":"cebpf4jnsgd1na2vs0mg"},{"bike_id":"af612d59-81b8-42e6-a678-8f8f0574dc44","system_id":"levelo_inurba_marseille","lat":43.30945,"lon":5.3903,"is_reserved":false,"is_disabled":false,"rental_uris":{"android":"levelo://app?vid=af612d59-81b8-42e6-a678-8f8f0574dc44","ios":"levelo://app?vid=af612d59-81b8-42e6-a678-8f8f0574dc44"},"vehicle_type_id":"4","last_reported":1750151533,"current_range_meters":16400,"station_id":"ce4bgup2rcd13ifvqco0","pricing_plan_id":"cebpf4jnsgd1na2vs0mg"},{"bike_id":"808ee353-17f1-4059-9816-8c42979e4455","system_id":"levelo_inurba_marseille","lat":43.325392,"lon":5.414478,"is_reserved":false,"is_disabled":false,"rental_uris":{"android":"levelo://app?vid=808ee353-17f1-4059-9816-8c42979e4455","ios":"levelo://app?vid=808ee353-17f1-4059-9816-8c42979e4455"},"vehicle_type_id":"4","last_reported":1750151533,"current_range_meters":16400,"station_id":"ce4bhq12rcd13ifvqhhg","pricing_plan_id":"cebpf4jnsgd1na2vs0mg"},{"bike_id":"675ba28e-d230-4f78-89cd-e8c81d8da15f","system_id":"levelo_inurba_marseille","lat":43.21192,"lon":5.35066,"is_reserved":false,"is_disabled":false,"rental_uris":{"android":"levelo://app?vid=675ba28e-d230-4f78-89cd-e8c81d8da15f","ios":"levelo://app?vid=675ba28e-d230-4f78-89cd-e8c81d8da15f"},"vehicle_type_id":"4","last_reported":1750151533,"current_range_meters":16400,"station_id":"st_cvj6sg6p6f1abm77japg","pricing_plan_id":"cebpf4jnsgd1na2vs0mg"},{"bike_id":"a7ec6a62-1b82-4c52-93cf-05b15da9a017","system_id":"levelo_inurba_marseille","lat":43.28857,"lon":5.35858,"is_reserved":false,"is_disabled":false,"rental_uris":{"android":"levelo://app?vid=a7ec6a62-1b82-4c52-93cf-05b15da9a017","ios":"levelo://app?vid=a7ec6a62-1b82-4c52-93cf-05b15da9a017"},"vehicle_type_id":"4","last_reported":1750151533,"current_range_meters":16800,"station_id":"ce4bhb12rcd13ifvqem0","pricing_plan_id":"cebpf4jnsgd1na2vs0mg"},{"bike_id":"dab6fb6d-3e6d-412b-a0e1-f672326dbd00","system_id":"levelo_inurba_marseille","lat":43.241869,"lon":5.397366,"is_reserved":false,"is_disabled":false,"rental_uris":{"android":"levelo://app?vid=dab6fb6d-3e6d-412b-a0e1-f672326dbd00","ios":"levelo://app?vid=dab6fb6d-3e6d-412b-a0e1-f672326dbd00"},"vehicle_type_id":"4","last_reported":1750151533,"current_range_meters":16800,"station_id":"ce4bhn12rcd13ifvqgpg","pricing_plan_id":"cebpf4jnsgd1na2vs0mg"},{"bike_id":"3518210a-6d90-482f-a11b-11cb7c94acd1","system_id":"levelo_inurba_marseille","lat":43.26473,"lon":5.39178,"is_reserved":false,"is_disabled":false,"rental_uris":{"android":"levelo://app?vid=3518210a-6d90-482f-a11b-11cb7c94acd1","ios":"levelo://app?vid=3518210a-6d90-482f-a11b-11cb7c94acd1"},"vehicle_type_id":"4","last_reported":1750151533,"current_range_meters":17200,"station_id":"","pricing_plan_id":"cebpf4jnsgd1na2vs0mg"},{"bike_id":"de0f7c2b-5974-4035-a240-8ed367c0e3f3","system_id":"levelo_inurba_marseille","lat":43.319705,"lon":5.376206,"is_reserved":false,"is_disabled":false,"rental_uris":{"android":"levelo://app?vid=de0f7c2b-5974-4035-a240-8ed367c0e3f3","ios":"levelo://app?vid=de0f7c2b-5974-4035-a240-8ed367c0e3f3"},"vehicle_type_id":"4","last_reported":1750151533,"current_range_meters":17200,"station_id":"","pricing_plan_id":"cebpf4jnsgd1na2vs0mg"},{"bike_id":"7bab1357-0955-44b8-b824-f7514e893fad","system_id":"levelo_inurba_marseille","lat":43.29563,"lon":5.37501,"is_reserved":false,"is_disabled":false,"rental_uris":{"android":"levelo://app?vid=7bab1357-0955-44b8-b824-f7514e893fad","ios":"levelo://app?vid=7bab1357-0955-44b8-b824-f7514e893fad"},"vehicle_type_id":"4","last_reported":1750151533,"current_range_meters":17200,"station_id":"ce4bgh92rcd13ifvqb50","pricing_plan_id":"cebpf4jnsgd1na2vs0mg"},{"bike_id":"dae87834-0c61-4232-8c60-bb1fc649c9a6","system_id":"levelo_inurba_marseille","lat":43.31372,"lon":5.38497,"is_reserved":false,"is_disabled":false,"rental_uris":{"android":"levelo://app?vid=dae87834-0c61-4232-8c60-bb1fc649c9a6","ios":"levelo://app?vid=dae87834-0c61-4232-8c60-bb1fc649c9a6"},"vehicle_type_id":"4","last_reported":1750151533,"current_range_meters":17200,"station_id":"ce4bgt92rcd13ifvqcf0","pricing_plan_id":"cebpf4jnsgd1na2vs0mg"},{"bike_id":"8803a5df-ac05-453e-a1bd-e131b62af64d","system_id":"levelo_inurba_marseille","lat":43.3133,"lon":5.3969,"is_reserved":false,"is_disabled":false,"rental_uris":{"android":"levelo://app?vid=8803a5df-ac05-453e-a1bd-e131b62af64d","ios":"levelo://app?vid=8803a5df-ac05-453e-a1bd-e131b62af64d"},"vehicle_type_id":"4","last_reported":1750151533,"current_range_meters":17200,"station_id":"ce4bgvp2rcd13ifvqcu0","pricing_plan_id":"cebpf4jnsgd1na2vs0mg"},{"bike_id":"1dca189b-e58d-407e-91a0-5d0b482c7bd9","system_id":"levelo_inurba_marseille","lat":43.2827,"lon":5.35066,"is_reserved":false,"is_disabled":false,"rental_uris":{"android":"levelo://app?vid=1dca189b-e58d-407e-91a0-5d0b482c7bd9","ios":"levelo://app?vid=1dca189b-e58d-407e-91a0-5d0b482c7bd9"},"vehicle_type_id":"4","last_reported":1750151533,"current_range_meters":17200,"station_id":"ce4bhbp2rcd13ifvqerg","pricing_plan_id":"cebpf4jnsgd1na2vs0mg"},{"bike_id":"19c5351d-714b-4de6-a639-f5efdb503680","system_id":"levelo_inurba_marseille","lat":43.24802,"lon":5.37457,"is_reserved":false,"is_disabled":false,"rental_uris":{"android":"levelo://app?vid=19c5351d-714b-4de6-a639-f5efdb503680","ios":"levelo://app?vid=19c5351d-714b-4de6-a639-f5efdb503680"},"vehicle_type_id":"4","last_reported":1750151533,"current_range_meters":17200,"station_id":"ce4bhgh2rcd13ifvqfb0","pricing_plan_id":"cebpf4jnsgd1na2vs0mg"},{"bike_id":"36524040-5ddc-46d3-9046-b6da01071eae","system_id":"levelo_inurba_marseille","lat":43.25926,"lon":5.40894,"is_reserved":false,"is_disabled":false,"rental_uris":{"android":"levelo://app?vid=36524040-5ddc-46d3-9046-b6da01071eae","ios":"levelo://app?vid=36524040-5ddc-46d3-9046-b6da01071eae"},"vehicle_type_id":"4","last_reported":1750151533,"current_range_meters":17200,"station_id":"ce4bhm92rcd13ifvqglg","pricing_plan_id":"cebpf4jnsgd1na2vs0mg"},{"bike_id":"31ac1c6c-b608-4f86-8941-e01ea9ffa527","system_id":"levelo_inurba_marseille","lat":43.259248,"lon":5.40885,"is_reserved":false,"is_disabled":false,"rental_uris":{"android":"levelo://app?vid=31ac1c6c-b608-4f86-8941-e01ea9ffa527","ios":"levelo://app?vid=31ac1c6c-b608-4f86-8941-e01ea9ffa527"},"vehicle_type_id":"4","last_reported":1750151533,"current_range_meters":17200,"station_id":"ce4bhm92rcd13ifvqglg","pricing_plan_id":"cebpf4jnsgd1na2vs0mg"},{"bike_id":"59f7ee1e-cb39-4b14-9a4e-63f9f5b5d4e4","system_id":"levelo_inurba_marseille","lat":43.23153,"lon":5.43706,"is_reserved":false,"is_disabled":false,"rental_uris":{"android":"levelo://app?vid=59f7ee1e-cb39-4b14-9a4e-63f9f5b5d4e4","ios":"levelo://app?vid=59f7ee1e-cb39-4b14-9a4e-63f9f5b5d4e4"},"vehicle_type_id":"4","last_reported":1750151533,"current_range_meters":17200,"station_id":"ce4bhmp2rcd13ifvqgog","pricing_plan_id":"cebpf4jnsgd1na2vs0mg"},{"bike_id":"4b9479ef-e54b-47bb-b3a8-384d3699ed97","system_id":"levelo_inurba_marseille","lat":43.22933,"lon":5.35374,"is_reserved":false,"is_disabled":false,"rental_uris":{"android":"levelo://app?vid=4b9479ef-e54b-47bb-b3a8-384d3699ed97","ios":"levelo://app?vid=4b9479ef-e54b-47bb-b3a8-384d3699ed97"},"vehicle_type_id":"4","last_reported":1750151533,"current_range_meters":17200,"station_id":"cpo3532slgdg3j2ikp40","pricing_plan_id":"cebpf4jnsgd1na2vs0mg"},{"bike_id":"68b69c32-2076-4a85-9793-aa4899be2f55","system_id":"levelo_inurba_marseille","lat":43.21181,"lon":5.35085,"is_reserved":false,"is_disabled":false,"rental_uris":{"android":"levelo://app?vid=68b69c32-2076-4a85-9793-aa4899be2f55","ios":"levelo://app?vid=68b69c32-2076-4a85-9793-aa4899be2f55"},"vehicle_type_id":"4","last_reported":1750151533,"current_range_meters":17200,"station_id":"st_cvj6sg6p6f1abm77japg","pricing_plan_id":"cebpf4jnsgd1na2vs0mg"},{"bike_id":"28da8b92-f209-4378-9080-73750680ec6e","system_id":"levelo_inurba_marseille","lat":43.23131,"lon":5.35511,"is_reserved":false,"is_disabled":false,"rental_uris":{"android":"levelo://app?vid=28da8b92-f209-4378-9080-73750680ec6e","ios":"levelo://app?vid=28da8b92-f209-4378-9080-73750680ec6e"},"vehicle_type_id":"4","last_reported":1750151533,"current_range_meters":17600,"station_id":"","pricing_plan_id":"cebpf4jnsgd1na2vs0mg"},{"bike_id":"8147594e-7ae7-415c-9eba-dbba76c21b49","system_id":"levelo_inurba_marseille","lat":43.30909,"lon":5.36848,"is_reserved":false,"is_disabled":false,"rental_uris":{"android":"levelo://app?vid=8147594e-7ae7-415c-9eba-dbba76c21b49","ios":"levelo://app?vid=8147594e-7ae7-415c-9eba-dbba76c21b49"},"vehicle_type_id":"4","last_reported":1750151533,"current_range_meters":17600,"station_id":"ce4bgn92rcd13ifvqbvg","pricing_plan_id":"cebpf4jnsgd1na2vs0mg"},{"bike_id":"b7034ea7-d075-47c3-94a4-68ecc159fc76","system_id":"levelo_inurba_marseille","lat":43.29774,"lon":5.37091,"is_reserved":false,"is_disabled":false,"rental_uris":{"android":"levelo://app?vid=b7034ea7-d075-47c3-94a4-68ecc159fc76","ios":"levelo://app?vid=b7034ea7-d075-47c3-94a4-68ecc159fc76"},"vehicle_type_id":"4","last_reported":1750151533,"current_range_meters":17600,"station_id":"ce4bgop2rcd13ifvqc1g","pricing_plan_id":"cebpf4jnsgd1na2vs0mg"},{"bike_id":"e216d0c4-3ec4-4672-8a27-6e07ebc7488f","system_id":"levelo_inurba_marseille","lat":43.30612,"lon":5.37212,"is_reserved":false,"is_disabled":false,"rental_uris":{"android":"levelo://app?vid=e216d0c4-3ec4-4672-8a27-6e07ebc7488f","ios":"levelo://app?vid=e216d0c4-3ec4-4672-8a27-6e07ebc7488f"},"vehicle_type_id":"4","last_reported":1750151533,"current_range_meters":17600,"station_id":"ce4bgqh2rcd13ifvqc4g","pricing_plan_id":"cebpf4jnsgd1na2vs0mg"},{"bike_id":"42a5f760-aefe-436f-9423-553fea8d1d4f","system_id":"levelo_inurba_marseille","lat":43.294055,"lon":5.386638,"is_reserved":false,"is_disabled":false,"rental_uris":{"android":"levelo://app?vid=42a5f760-aefe-436f-9423-553fea8d1d4f","ios":"levelo://app?vid=42a5f760-aefe-436f-9423-553fea8d1d4f"},"vehicle_type_id":"4","last_reported":1750151533,"current_range_meters":17600,"station_id":"ce4bh3p2rcd13ifvqdp0","pricing_plan_id":"cebpf4jnsgd1na2vs0mg"},{"bike_id":"7c96d29c-0c2f-4ab3-a52f-18629a00b848","system_id":"levelo_inurba_marseille","lat":43.2737,"lon":5.36257,"is_reserved":false,"is_disabled":false,"rental_uris":{"android":"levelo://app?vid=7c96d29c-0c2f-4ab3-a52f-18629a00b848","ios":"levelo://app?vid=7c96d29c-0c2f-4ab3-a52f-18629a00b848"},"vehicle_type_id":"4","last_reported":1750151533,"current_range_meters":17600,"station_id":"ce4bhbh2rcd13ifvqeo0","pricing_plan_id":"cebpf4jnsgd1na2vs0mg"},{"bike_id":"6fb9eb53-4009-4a7d-afc2-085c87fcfb5b","system_id":"levelo_inurba_marseille","lat":43.28173,"lon":5.42641,"is_reserved":false,"is_disabled":false,"rental_uris":{"android":"levelo://app?vid=6fb9eb53-4009-4a7d-afc2-085c87fcfb5b","ios":"levelo://app?vid=6fb9eb53-4009-4a7d-afc2-085c87fcfb5b"},"vehicle_type_id":"4","last_reported":1750151533,"current_range_meters":17600,"station_id":"ce4bhnh2rcd13ifvqgug","pricing_plan_id":"cebpf4jnsgd1na2vs0mg"},{"bike_id":"2f0f7865-53e4-4955-8eb9-1bb98bf95595","system_id":"levelo_inurba_marseille","lat":43.31766,"lon":5.3757,"is_reserved":false,"is_disabled":false,"rental_uris":{"android":"levelo://app?vid=2f0f7865-53e4-4955-8eb9-1bb98bf95595","ios":"levelo://app?vid=2f0f7865-53e4-4955-8eb9-1bb98bf95595"},"vehicle_type_id":"4","last_reported":1750151533,"current_range_meters":18000,"station_id":"","pricing_plan_id":"cebpf4jnsgd1na2vs0mg"},{"bike_id":"de0bda34-41a6-4231-8ed4-c93e07fc3176","system_id":"levelo_inurba_marseille","lat":43.3265,"lon":5.37518,"is_reserved":false,"is_disabled":false,"rental_uris":{"android":"levelo://app?vid=de0bda34-41a6-4231-8ed4-c93e07fc3176","ios":"levelo://app?vid=de0bda34-41a6-4231-8ed4-c93e07fc3176"},"vehicle_type_id":"4","last_reported":1750151533,"current_range_meters":18000,"station_id":"","pricing_plan_id":"cebpf4jnsgd1na2vs0mg"},{"bike_id":"684d8c5c-35ac-4eec-a993-ce657192e40d","system_id":"levelo_inurba_marseille","lat":43.26197,"lon":5.37446,"is_reserved":false,"is_disabled":false,"rental_uris":{"android":"levelo://app?vid=684d8c5c-35ac-4eec-a993-ce657192e40d","ios":"levelo://app?vid=684d8c5c-35ac-4eec-a993-ce657192e40d"},"vehicle_type_id":"4","last_reported":1750151533,"current_range_meters":18000,"station_id":"ce4bhgp2rcd13ifvqfc0","pricing_plan_id":"cebpf4jnsgd1na2vs0mg"},{"bike_id":"7effa1d6-6762-4d51-b05b-edbcec45e3c4","system_id":"levelo_inurba_marseille","lat":43.25728,"lon":5.41101,"is_reserved":false,"is_disabled":false,"rental_uris":{"android":"levelo://app?vid=7effa1d6-6762-4d51-b05b-edbcec45e3c4","ios":"levelo://app?vid=7effa1d6-6762-4d51-b05b-edbcec45e3c4"},"vehicle_type_id":"4","last_reported":1750151533,"current_range_meters":18000,"station_id":"ce4bhkp2rcd13ifvqgd0","pricing_plan_id":"cebpf4jnsgd1na2vs0mg"},{"bike_id":"51490275-adbe-42c8-8c02-8d0998bae051","system_id":"levelo_inurba_marseille","lat":43.25727,"lon":5.41109,"is_reserved":false,"is_disabled":false,"rental_uris":{"android":"levelo://app?vid=51490275-adbe-42c8-8c02-8d0998bae051","ios":"levelo://app?vid=51490275-adbe-42c8-8c02-8d0998bae051"},"vehicle_type_id":"4","last_reported":1750151533,"current_range_meters":18000,"station_id":"ce4bhkp2rcd13ifvqgd0","pricing_plan_id":"cebpf4jnsgd1na2vs0mg"},{"bike_id":"d8cca091-a0fe-4f51-8c26-021946b118f8","system_id":"levelo_inurba_marseille","lat":43.24178,"lon":5.39716,"is_reserved":false,"is_disabled":false,"rental_uris":{"android":"levelo://app?vid=d8cca091-a0fe-4f51-8c26-021946b118f8","ios":"levelo://app?vid=d8cca091-a0fe-4f51-8c26-021946b118f8"},"vehicle_type_id":"4","last_reported":1750151533,"current_range_meters":18000,"station_id":"ce4bhn12rcd13ifvqgpg","pricing_plan_id":"cebpf4jnsgd1na2vs0mg"},{"bike_id":"8d8216b7-70be-4e0e-b02f-ed276d5ecd5f","system_id":"levelo_inurba_marseille","lat":43.23062,"lon":5.35486,"is_reserved":false,"is_disabled":false,"rental_uris":{"android":"levelo://app?vid=8d8216b7-70be-4e0e-b02f-ed276d5ecd5f","ios":"levelo://app?vid=8d8216b7-70be-4e0e-b02f-ed276d5ecd5f"},"vehicle_type_id":"4","last_reported":1750151533,"current_range_meters":18000,"station_id":"cpo3342slgdg3j2ifvpg","pricing_plan_id":"cebpf4jnsgd1na2vs0mg"},{"bike_id":"4b8da722-ee9e-48a4-a5e5-3a8a10364708","system_id":"levelo_inurba_marseille","lat":43.31221,"lon":5.37815,"is_reserved":false,"is_disabled":false,"rental_uris":{"android":"levelo://app?vid=4b8da722-ee9e-48a4-a5e5-3a8a10364708","ios":"levelo://app?vid=4b8da722-ee9e-48a4-a5e5-3a8a10364708"},"vehicle_type_id":"4","last_reported":1750151533,"current_range_meters":18800,"station_id":"","pricing_plan_id":"cebpf4jnsgd1na2vs0mg"},{"bike_id":"340be65c-b1c6-4c4d-9220-0a4ce317397f","system_id":"levelo_inurba_marseille","lat":43.30955,"lon":5.39042,"is_reserved":false,"is_disabled":false,"rental_uris":{"android":"levelo://app?vid=340be65c-b1c6-4c4d-9220-0a4ce317397f","ios":"levelo://app?vid=340be65c-b1c6-4c4d-9220-0a4ce317397f"},"vehicle_type_id":"4","last_reported":1750151533,"current_range_meters":18800,"station_id":"ce4bgup2rcd13ifvqco0","pricing_plan_id":"cebpf4jnsgd1na2vs0mg"},{"bike_id":"464d87a7-5926-47c6-abf0-dbc0f4d5cde9","system_id":"levelo_inurba_marseille","lat":43.28486,"lon":5.38407,"is_reserved":false,"is_disabled":false,"rental_uris":{"android":"levelo://app?vid=464d87a7-5926-47c6-abf0-dbc0f4d5cde9","ios":"levelo://app?vid=464d87a7-5926-47c6-abf0-dbc0f4d5cde9"},"vehicle_type_id":"4","last_reported":1750151533,"current_range_meters":18800,"station_id":"ce4bh512rcd13ifvqe3g","pricing_plan_id":"cebpf4jnsgd1na2vs0mg"},{"bike_id":"7371f90f-9b55-495c-80ca-ced193a8a445","system_id":"levelo_inurba_marseille","lat":43.25587,"lon":5.38246,"is_reserved":false,"is_disabled":false,"rental_uris":{"android":"levelo://app?vid=7371f90f-9b55-495c-80ca-ced193a8a445","ios":"levelo://app?vid=7371f90f-9b55-495c-80ca-ced193a8a445"},"vehicle_type_id":"4","last_reported":1750151533,"current_range_meters":18800,"station_id":"ce4bhih2rcd13ifvqfs0","pricing_plan_id":"cebpf4jnsgd1na2vs0mg"},{"bike_id":"ec8a5813-87d9-41f8-869b-8f85dfb8de2c","system_id":"levelo_inurba_marseille","lat":43.27839,"lon":5.39213,"is_reserved":false,"is_disabled":false,"rental_uris":{"android":"levelo://app?vid=ec8a5813-87d9-41f8-869b-8f85dfb8de2c","ios":"levelo://app?vid=ec8a5813-87d9-41f8-869b-8f85dfb8de2c"},"vehicle_type_id":"4","last_reported":1750151533,"current_range_meters":18800,"station_id":"ce4bhjp2rcd13ifvqga0","pricing_plan_id":"cebpf4jnsgd1na2vs0mg"},{"bike_id":"5cbdd979-131e-4b0a-a5c9-96ef156802c9","system_id":"levelo_inurba_marseille","lat":43.28416,"lon":5.39221,"is_reserved":false,"is_disabled":false,"rental_uris":{"android":"levelo://app?vid=5cbdd979-131e-4b0a-a5c9-96ef156802c9","ios":"levelo://app?vid=5cbdd979-131e-4b0a-a5c9-96ef156802c9"},"vehicle_type_id":"4","last_reported":1750151533,"current_range_meters":18800,"station_id":"ce4bhoh2rcd13ifvqh5g","pricing_plan_id":"cebpf4jnsgd1na2vs0mg"},{"bike_id":"5368191c-8628-4477-9906-bb5596f6e17f","system_id":"levelo_inurba_marseille","lat":43.31723,"lon":5.42403,"is_reserved":false,"is_disabled":false,"rental_uris":{"android":"levelo://app?vid=5368191c-8628-4477-9906-bb5596f6e17f","ios":"levelo://app?vid=5368191c-8628-4477-9906-bb5596f6e17f"},"vehicle_type_id":"4","last_reported":1750151533,"current_range_meters":18800,"station_id":"ce4bhp92rcd13ifvqhbg","pricing_plan_id":"cebpf4jnsgd1na2vs0mg"},{"bike_id":"cc8086c3-023b-4662-b7ba-91199240f1a1","system_id":"levelo_inurba_marseille","lat":43.2305,"lon":5.3551,"is_reserved":false,"is_disabled":false,"rental_uris":{"android":"levelo://app?vid=cc8086c3-023b-4662-b7ba-91199240f1a1","ios":"levelo://app?vid=cc8086c3-023b-4662-b7ba-91199240f1a1"},"vehicle_type_id":"4","last_reported":1750151533,"current_range_meters":18800,"station_id":"cpo3342slgdg3j2ifvpg","pricing_plan_id":"cebpf4jnsgd1na2vs0mg"},{"bike_id":"4cda9327-46c6-426e-87dd-c291d5dc5ff7","system_id":"levelo_inurba_marseille","lat":43.21201,"lon":5.3506,"is_reserved":false,"is_disabled":false,"rental_uris":{"android":"levelo://app?vid=4cda9327-46c6-426e-87dd-c291d5dc5ff7","ios":"levelo://app?vid=4cda9327-46c6-426e-87dd-c291d5dc5ff7"},"vehicle_type_id":"4","last_reported":1750151533,"current_range_meters":18800,"station_id":"st_cvj6sg6p6f1abm77japg","pricing_plan_id":"cebpf4jnsgd1na2vs0mg"},{"bike_id":"2bcdbebc-789a-4460-923a-20ef9246776d","system_id":"levelo_inurba_marseille","lat":43.21188,"lon":5.35069,"is_reserved":false,"is_disabled":false,"rental_uris":{"android":"levelo://app?vid=2bcdbebc-789a-4460-923a-20ef9246776d","ios":"levelo://app?vid=2bcdbebc-789a-4460-923a-20ef9246776d"},"vehicle_type_id":"4","last_reported":1750151533,"current_range_meters":18800,"station_id":"st_cvj6sg6p6f1abm77japg","pricing_plan_id":"cebpf4jnsgd1na2vs0mg"},{"bike_id":"4ce5b165-f22d-40cf-abd3-1cb294861955","system_id":"levelo_inurba_marseille","lat":43.21198,"lon":5.35072,"is_reserved":false,"is_disabled":false,"rental_uris":{"android":"levelo://app?vid=4ce5b165-f22d-40cf-abd3-1cb294861955","ios":"levelo://app?vid=4ce5b165-f22d-40cf-abd3-1cb294861955"},"vehicle_type_id":"4","last_reported":1750151533,"current_range_meters":19200,"station_id":"","pricing_plan_id":"cebpf4jnsgd1na2vs0mg"},{"bike_id":"778bfcea-25e5-406c-8cbe-c80ec7c3b00f","system_id":"levelo_inurba_marseille","lat":43.33751,"lon":5.35591,"is_reserved":false,"is_disabled":false,"rental_uris":{"android":"levelo://app?vid=778bfcea-25e5-406c-8cbe-c80ec7c3b00f","ios":"levelo://app?vid=778bfcea-25e5-406c-8cbe-c80ec7c3b00f"},"vehicle_type_id":"4","last_reported":1750151533,"current_range_meters":19200,"station_id":"","pricing_plan_id":"cebpf4jnsgd1na2vs0mg"},{"bike_id":"92e6d730-8a16-4e47-a46b-4f9adceb8d18","system_id":"levelo_inurba_marseille","lat":43.293,"lon":5.37436,"is_reserved":false,"is_disabled":false,"rental_uris":{"android":"levelo://app?vid=92e6d730-8a16-4e47-a46b-4f9adceb8d18","ios":"levelo://app?vid=92e6d730-8a16-4e47-a46b-4f9adceb8d18"},"vehicle_type_id":"4","last_reported":1750151533,"current_range_meters":19200,"station_id":"ce4bgi12rcd13ifvqb70","pricing_plan_id":"cebpf4jnsgd1na2vs0mg"},{"bike_id":"c85eedfa-48b9-4839-a461-3c8c329eabc6","system_id":"levelo_inurba_marseille","lat":43.3053,"lon":5.36527,"is_reserved":false,"is_disabled":false,"rental_uris":{"android":"levelo://app?vid=c85eedfa-48b9-4839-a461-3c8c329eabc6","ios":"levelo://app?vid=c85eedfa-48b9-4839-a461-3c8c329eabc6"},"vehicle_type_id":"4","last_reported":1750151533,"current_range_meters":19200,"station_id":"ce4bgs12rcd13ifvqcag","pricing_plan_id":"cebpf4jnsgd1na2vs0mg"},{"bike_id":"9bfb787e-1f19-42b4-842a-23ba1d186bb1","system_id":"levelo_inurba_marseille","lat":43.30557,"lon":5.36539,"is_reserved":false,"is_disabled":false,"rental_uris":{"android":"levelo://app?vid=9bfb787e-1f19-42b4-842a-23ba1d186bb1","ios":"levelo://app?vid=9bfb787e-1f19-42b4-842a-23ba1d186bb1"},"vehicle_type_id":"4","last_reported":1750151533,"current_range_meters":19200,"station_id":"ce4bgs12rcd13ifvqcag","pricing_plan_id":"cebpf4jnsgd1na2vs0mg"},{"bike_id":"819aa901-cd25-4f87-8ada-faa6e708ebd8","system_id":"levelo_inurba_marseille","lat":43.30141,"lon":5.37418,"is_reserved":false,"is_disabled":false,"rental_uris":{"android":"levelo://app?vid=819aa901-cd25-4f87-8ada-faa6e708ebd8","ios":"levelo://app?vid=819aa901-cd25-4f87-8ada-faa6e708ebd8"},"vehicle_type_id":"4","last_reported":1750151533,"current_range_meters":19200,"station_id":"ce4bgs92rcd13ifvqcc0","pricing_plan_id":"cebpf4jnsgd1na2vs0mg"},{"bike_id":"c96f7ece-1f22-42d2-911f-4e427c6c876c","system_id":"levelo_inurba_marseille","lat":43.29869,"lon":5.39737,"is_reserved":false,"is_disabled":false,"rental_uris":{"android":"levelo://app?vid=c96f7ece-1f22-42d2-911f-4e427c6c876c","ios":"levelo://app?vid=c96f7ece-1f22-42d2-911f-4e427c6c876c"},"vehicle_type_id":"4","last_reported":1750151533,"current_range_meters":19200,"station_id":"ce4bh0h2rcd13ifvqd50","pricing_plan_id":"cebpf4jnsgd1na2vs0mg"},{"bike_id":"9353f201-9ea2-4308-9fd8-7a27f94fc263","system_id":"levelo_inurba_marseille","lat":43.26552,"lon":5.37284,"is_reserved":false,"is_disabled":false,"rental_uris":{"android":"levelo://app?vid=9353f201-9ea2-4308-9fd8-7a27f94fc263","ios":"levelo://app?vid=9353f201-9ea2-4308-9fd8-7a27f94fc263"},"vehicle_type_id":"4","last_reported":1750151533,"current_range_meters":19200,"station_id":"ce4bhg12rcd13ifvqf70","pricing_plan_id":"cebpf4jnsgd1na2vs0mg"},{"bike_id":"8091669e-b6cd-4510-b57c-ba2f65ab364e","system_id":"levelo_inurba_marseille","lat":43.262333,"lon":5.404506,"is_reserved":false,"is_disabled":false,"rental_uris":{"android":"levelo://app?vid=8091669e-b6cd-4510-b57c-ba2f65ab364e","ios":"levelo://app?vid=8091669e-b6cd-4510-b57c-ba2f65ab364e"},"vehicle_type_id":"4","last_reported":1750151533,"current_range_meters":19200,"station_id":"ce4bhmh2rcd13ifvqgmg","pricing_plan_id":"cebpf4jnsgd1na2vs0mg"},{"bike_id":"11e1cf9a-1d31-4b7e-85b7-96ca547e8c86","system_id":"levelo_inurba_marseille","lat":43.28,"lon":5.4002,"is_reserved":false,"is_disabled":false,"rental_uris":{"android":"levelo://app?vid=11e1cf9a-1d31-4b7e-85b7-96ca547e8c86","ios":"levelo://app?vid=11e1cf9a-1d31-4b7e-85b7-96ca547e8c86"},"vehicle_type_id":"4","last_reported":1750151533,"current_range_meters":19200,"station_id":"ce4bho92rcd13ifvqh4g","pricing_plan_id":"cebpf4jnsgd1na2vs0mg"},{"bike_id":"74a6ff70-18de-4d50-9f69-12f96bc42daf","system_id":"levelo_inurba_marseille","lat":43.30375,"lon":5.42489,"is_reserved":false,"is_disabled":false,"rental_uris":{"android":"levelo://app?vid=74a6ff70-18de-4d50-9f69-12f96bc42daf","ios":"levelo://app?vid=74a6ff70-18de-4d50-9f69-12f96bc42daf"},"vehicle_type_id":"4","last_reported":1750151533,"current_range_meters":19200,"station_id":"ce4bhoh2rcd13ifvqh6g","pricing_plan_id":"cebpf4jnsgd1na2vs0mg"},{"bike_id":"653a05d9-205d-420f-b0c9-a638667f0917","system_id":"levelo_inurba_marseille","lat":43.21189,"lon":5.35061,"is_reserved":false,"is_disabled":false,"rental_uris":{"android":"levelo://app?vid=653a05d9-205d-420f-b0c9-a638667f0917","ios":"levelo://app?vid=653a05d9-205d-420f-b0c9-a638667f0917"},"vehicle_type_id":"4","last_reported":1750151533,"current_range_meters":19200,"station_id":"st_cvj6sg6p6f1abm77japg","pricing_plan_id":"cebpf4jnsgd1na2vs0mg"},{"bike_id":"5351ea89-0900-4187-b42f-fac8a3bd3686","system_id":"levelo_inurba_marseille","lat":43.29515,"lon":5.37505,"is_reserved":false,"is_disabled":false,"rental_uris":{"android":"levelo://app?vid=5351ea89-0900-4187-b42f-fac8a3bd3686","ios":"levelo://app?vid=5351ea89-0900-4187-b42f-fac8a3bd3686"},"vehicle_type_id":"4","last_reported":1750151533,"current_range_meters":19600,"station_id":"ce4bgkp2rcd13ifvqbmg","pricing_plan_id":"cebpf4jnsgd1na2vs0mg"},{"bike_id":"15c8ae02-8e99-4704-aa0b-0b411ebbfdc4","system_id":"levelo_inurba_marseille","lat":43.30528,"lon":5.36561,"is_reserved":false,"is_disabled":false,"rental_uris":{"android":"levelo://app?vid=15c8ae02-8e99-4704-aa0b-0b411ebbfdc4","ios":"levelo://app?vid=15c8ae02-8e99-4704-aa0b-0b411ebbfdc4"},"vehicle_type_id":"4","last_reported":1750151533,"current_range_meters":19600,"station_id":"ce4bgs12rcd13ifvqcag","pricing_plan_id":"cebpf4jnsgd1na2vs0mg"},{"bike_id":"da8cc840-3f38-441f-b73b-adf71d881afe","system_id":"levelo_inurba_marseille","lat":43.30878,"lon":5.39651,"is_reserved":false,"is_disabled":false,"rental_uris":{"android":"levelo://app?vid=da8cc840-3f38-441f-b73b-adf71d881afe","ios":"levelo://app?vid=da8cc840-3f38-441f-b73b-adf71d881afe"},"vehicle_type_id":"4","last_reported":1750151533,"current_range_meters":19600,"station_id":"ce4bh012rcd13ifvqcv0","pricing_plan_id":"cebpf4jnsgd1na2vs0mg"},{"bike_id":"3a3c0798-67af-41c2-8611-325c0b3cd12d","system_id":"levelo_inurba_marseille","lat":43.31686,"lon":5.40468,"is_reserved":false,"is_disabled":false,"rental_uris":{"android":"levelo://app?vid=3a3c0798-67af-41c2-8611-325c0b3cd12d","ios":"levelo://app?vid=3a3c0798-67af-41c2-8611-325c0b3cd12d"},"vehicle_type_id":"4","last_reported":1750151533,"current_range_meters":19600,"station_id":"ce4bh012rcd13ifvqd00","pricing_plan_id":"cebpf4jnsgd1na2vs0mg"},{"bike_id":"4430f526-386b-4826-b31a-f518a97a031e","system_id":"levelo_inurba_marseille","lat":43.29645,"lon":5.4059,"is_reserved":false,"is_disabled":false,"rental_uris":{"android":"levelo://app?vid=4430f526-386b-4826-b31a-f518a97a031e","ios":"levelo://app?vid=4430f526-386b-4826-b31a-f518a97a031e"},"vehicle_type_id":"4","last_reported":1750151533,"current_range_meters":19600,"station_id":"ce4bh0h2rcd13ifvqd60","pricing_plan_id":"cebpf4jnsgd1na2vs0mg"},{"bike_id":"11efcbec-fc72-460f-8d8e-0732cab4d619","system_id":"levelo_inurba_marseille","lat":43.27371,"lon":5.36262,"is_reserved":false,"is_disabled":false,"rental_uris":{"android":"levelo://app?vid=11efcbec-fc72-460f-8d8e-0732cab4d619","ios":"levelo://app?vid=11efcbec-fc72-460f-8d8e-0732cab4d619"},"vehicle_type_id":"4","last_reported":1750151533,"current_range_meters":19600,"station_id":"ce4bhbh2rcd13ifvqeo0","pricing_plan_id":"cebpf4jnsgd1na2vs0mg"},{"bike_id":"78adb94c-3882-4bff-a0f4-a7b26a4c06be","system_id":"levelo_inurba_marseille","lat":43.28421,"lon":5.34987,"is_reserved":false,"is_disabled":false,"rental_uris":{"android":"levelo://app?vid=78adb94c-3882-4bff-a0f4-a7b26a4c06be","ios":"levelo://app?vid=78adb94c-3882-4bff-a0f4-a7b26a4c06be"},"vehicle_type_id":"4","last_reported":1750151533,"current_range_meters":19600,"station_id":"ce4bhbh2rcd13ifvqepg","pricing_plan_id":"cebpf4jnsgd1na2vs0mg"},{"bike_id":"12b0f1e3-6f71-46e0-9b3f-67e9b6c5fd92","system_id":"levelo_inurba_marseille","lat":43.28266,"lon":5.3506,"is_reserved":false,"is_disabled":false,"rental_uris":{"android":"levelo://app?vid=12b0f1e3-6f71-46e0-9b3f-67e9b6c5fd92","ios":"levelo://app?vid=12b0f1e3-6f71-46e0-9b3f-67e9b6c5fd92"},"vehicle_type_id":"4","last_reported":1750151533,"current_range_meters":19600,"station_id":"ce4bhbp2rcd13ifvqerg","pricing_plan_id":"cebpf4jnsgd1na2vs0mg"},{"bike_id":"3d073f3b-913d-4417-9778-b86838d8eee4","system_id":"levelo_inurba_marseille","lat":43.25576,"lon":5.38245,"is_reserved":false,"is_disabled":false,"rental_uris":{"android":"levelo://app?vid=3d073f3b-913d-4417-9778-b86838d8eee4","ios":"levelo://app?vid=3d073f3b-913d-4417-9778-b86838d8eee4"},"vehicle_type_id":"4","last_reported":1750151533,"current_range_meters":19600,"station_id":"ce4bhih2rcd13ifvqfs0","pricing_plan_id":"cebpf4jnsgd1na2vs0mg"},{"bike_id":"ae1a1e4b-b44a-4b7f-bf60-016a7fa91655","system_id":"levelo_inurba_marseille","lat":43.25719,"lon":5.41087,"is_reserved":false,"is_disabled":false,"rental_uris":{"android":"levelo://app?vid=ae1a1e4b-b44a-4b7f-bf60-016a7fa91655","ios":"levelo://app?vid=ae1a1e4b-b44a-4b7f-bf60-016a7fa91655"},"vehicle_type_id":"4","last_reported":1750151533,"current_range_meters":19600,"station_id":"ce4bhkp2rcd13ifvqgd0","pricing_plan_id":"cebpf4jnsgd1na2vs0mg"},{"bike_id":"b5df771f-0292-4acc-afde-88c7e4fb1865","system_id":"levelo_inurba_marseille","lat":43.24167,"lon":5.39737,"is_reserved":false,"is_disabled":false,"rental_uris":{"android":"levelo://app?vid=b5df771f-0292-4acc-afde-88c7e4fb1865","ios":"levelo://app?vid=b5df771f-0292-4acc-afde-88c7e4fb1865"},"vehicle_type_id":"4","last_reported":1750151533,"current_range_meters":19600,"station_id":"ce4bhn12rcd13ifvqgpg","pricing_plan_id":"cebpf4jnsgd1na2vs0mg"},{"bike_id":"268aafb4-1331-426c-97bc-a7d6564caeb6","system_id":"levelo_inurba_marseille","lat":43.32905,"lon":5.37936,"is_reserved":false,"is_disabled":false,"rental_uris":{"android":"levelo://app?vid=268aafb4-1331-426c-97bc-a7d6564caeb6","ios":"levelo://app?vid=268aafb4-1331-426c-97bc-a7d6564caeb6"},"vehicle_type_id":"4","last_reported":1750151533,"current_range_meters":20000,"station_id":"","pricing_plan_id":"cebpf4jnsgd1na2vs0mg"},{"bike_id":"da673152-9896-4ca2-b97e-e91498f03642","system_id":"levelo_inurba_marseille","lat":43.30967,"lon":5.39034,"is_reserved":false,"is_disabled":false,"rental_uris":{"android":"levelo://app?vid=da673152-9896-4ca2-b97e-e91498f03642","ios":"levelo://app?vid=da673152-9896-4ca2-b97e-e91498f03642"},"vehicle_type_id":"4","last_reported":1750151533,"current_range_meters":20000,"station_id":"ce4bgup2rcd13ifvqco0","pricing_plan_id":"cebpf4jnsgd1na2vs0mg"},{"bike_id":"c9742b3e-1a99-4797-b975-b285c1ce2f0e","system_id":"levelo_inurba_marseille","lat":43.3079,"lon":5.37646,"is_reserved":false,"is_disabled":false,"rental_uris":{"android":"levelo://app?vid=c9742b3e-1a99-4797-b975-b285c1ce2f0e","ios":"levelo://app?vid=c9742b3e-1a99-4797-b975-b285c1ce2f0e"},"vehicle_type_id":"4","last_reported":1750151533,"current_range_meters":20000,"station_id":"ce4bgv92rcd13ifvqcq0","pricing_plan_id":"cebpf4jnsgd1na2vs0mg"},{"bike_id":"60ad2800-db5c-429a-9022-21fbf6fa587e","system_id":"levelo_inurba_marseille","lat":43.28685,"lon":5.38676,"is_reserved":false,"is_disabled":false,"rental_uris":{"android":"levelo://app?vid=60ad2800-db5c-429a-9022-21fbf6fa587e","ios":"levelo://app?vid=60ad2800-db5c-429a-9022-21fbf6fa587e"},"vehicle_type_id":"4","last_reported":1750151533,"current_range_meters":20000,"station_id":"ce4bh492rcd13ifvqdug","pricing_plan_id":"cebpf4jnsgd1na2vs0mg"},{"bike_id":"ca36c242-b02b-486e-8219-7d60039f80ad","system_id":"levelo_inurba_marseille","lat":43.284821,"lon":5.385626,"is_reserved":false,"is_disabled":false,"rental_uris":{"android":"levelo://app?vid=ca36c242-b02b-486e-8219-7d60039f80ad","ios":"levelo://app?vid=ca36c242-b02b-486e-8219-7d60039f80ad"},"vehicle_type_id":"4","last_reported":1750151533,"current_range_meters":20000,"station_id":"ce4bh8p2rcd13ifvqeb0","pricing_plan_id":"cebpf4jnsgd1na2vs0mg"},{"bike_id":"3eaf5d76-7bdb-454a-8e3f-54f986b432e6","system_id":"levelo_inurba_marseille","lat":43.31387,"lon":5.36703,"is_reserved":false,"is_disabled":false,"rental_uris":{"android":"levelo://app?vid=3eaf5d76-7bdb-454a-8e3f-54f986b432e6","ios":"levelo://app?vid=3eaf5d76-7bdb-454a-8e3f-54f986b432e6"},"vehicle_type_id":"4","last_reported":1750151533,"current_range_meters":20400,"station_id":"","pricing_plan_id":"cebpf4jnsgd1na2vs0mg"},{"bike_id":"bea5595f-dc4e-4787-a000-3ba86a97e39d","system_id":"levelo_inurba_marseille","lat":43.31327,"lon":5.36718,"is_reserved":false,"is_disabled":false,"rental_uris":{"android":"levelo://app?vid=bea5595f-dc4e-4787-a000-3ba86a97e39d","ios":"levelo://app?vid=bea5595f-dc4e-4787-a000-3ba86a97e39d"},"vehicle_type_id":"4","last_reported":1750151533,"current_range_meters":20400,"station_id":"ce4bgr92rcd13ifvqc6g","pricing_plan_id":"cebpf4jnsgd1na2vs0mg"},{"bike_id":"0b2db292-accb-4746-ae40-c88799d2ae0e","system_id":"levelo_inurba_marseille","lat":43.31488,"lon":5.3731,"is_reserved":false,"is_disabled":false,"rental_uris":{"android":"levelo://app?vid=0b2db292-accb-4746-ae40-c88799d2ae0e","ios":"levelo://app?vid=0b2db292-accb-4746-ae40-c88799d2ae0e"},"vehicle_type_id":"4","last_reported":1750151533,"current_range_meters":20400,"station_id":"ce4bgt12rcd13ifvqcd0","pricing_plan_id":"cebpf4jnsgd1na2vs0mg"},{"bike_id":"8a81b062-8f0c-4baf-9b7a-c9230918e69a","system_id":"levelo_inurba_marseille","lat":43.31168,"lon":5.38722,"is_reserved":false,"is_disabled":false,"rental_uris":{"android":"levelo://app?vid=8a81b062-8f0c-4baf-9b7a-c9230918e69a","ios":"levelo://app?vid=8a81b062-8f0c-4baf-9b7a-c9230918e69a"},"vehicle_type_id":"4","last_reported":1750151533,"current_range_meters":20400,"station_id":"ce4bgv12rcd13ifvqcp0","pricing_plan_id":"cebpf4jnsgd1na2vs0mg"},{"bike_id":"56b6da7b-a16f-4c5a-80c6-8969568f0b76","system_id":"levelo_inurba_marseille","lat":43.255747,"lon":5.382431,"is_reserved":false,"is_disabled":false,"rental_uris":{"android":"levelo://app?vid=56b6da7b-a16f-4c5a-80c6-8969568f0b76","ios":"levelo://app?vid=56b6da7b-a16f-4c5a-80c6-8969568f0b76"},"vehicle_type_id":"4","last_reported":1750151533,"current_range_meters":20400,"station_id":"ce4bhih2rcd13ifvqfs0","pricing_plan_id":"cebpf4jnsgd1na2vs0mg"},{"bike_id":"d94b8ebd-d85f-4178-a007-a120009de472","system_id":"levelo_inurba_marseille","lat":43.27049,"lon":5.40257,"is_reserved":false,"is_disabled":false,"rental_uris":{"android":"levelo://app?vid=d94b8ebd-d85f-4178-a007-a120009de472","ios":"levelo://app?vid=d94b8ebd-d85f-4178-a007-a120009de472"},"vehicle_type_id":"4","last_reported":1750151533,"current_range_meters":20400,"station_id":"ce4bhk92rcd13ifvqgc0","pricing_plan_id":"cebpf4jnsgd1na2vs0mg"},{"bike_id":"1c724053-b460-4aee-a0dc-bd4b9a89ec38","system_id":"levelo_inurba_marseille","lat":43.23154,"lon":5.437,"is_reserved":false,"is_disabled":false,"rental_uris":{"android":"levelo://app?vid=1c724053-b460-4aee-a0dc-bd4b9a89ec38","ios":"levelo://app?vid=1c724053-b460-4aee-a0dc-bd4b9a89ec38"},"vehicle_type_id":"4","last_reported":1750151533,"current_range_meters":20400,"station_id":"ce4bhmp2rcd13ifvqgog","pricing_plan_id":"cebpf4jnsgd1na2vs0mg"},{"bike_id":"b2efe958-c75f-4907-8aab-2a929dd7b2e4","system_id":"levelo_inurba_marseille","lat":43.309484,"lon":5.390406,"is_reserved":false,"is_disabled":false,"rental_uris":{"android":"levelo://app?vid=b2efe958-c75f-4907-8aab-2a929dd7b2e4","ios":"levelo://app?vid=b2efe958-c75f-4907-8aab-2a929dd7b2e4"},"vehicle_type_id":"4","last_reported":1750151533,"current_range_meters":20800,"station_id":"ce4bgup2rcd13ifvqco0","pricing_plan_id":"cebpf4jnsgd1na2vs0mg"},{"bike_id":"9c7dc62d-189f-455c-acc5-54fc0b683f24","system_id":"levelo_inurba_marseille","lat":43.282618,"lon":5.350702,"is_reserved":false,"is_disabled":false,"rental_uris":{"android":"levelo://app?vid=9c7dc62d-189f-455c-acc5-54fc0b683f24","ios":"levelo://app?vid=9c7dc62d-189f-455c-acc5-54fc0b683f24"},"vehicle_type_id":"4","last_reported":1750151533,"current_range_meters":20800,"station_id":"ce4bhbp2rcd13ifvqerg","pricing_plan_id":"cebpf4jnsgd1na2vs0mg"},{"bike_id":"456e3e01-d483-4af3-ad8c-fac20db5c110","system_id":"levelo_inurba_marseille","lat":43.24183,"lon":5.39724,"is_reserved":false,"is_disabled":false,"rental_uris":{"android":"levelo://app?vid=456e3e01-d483-4af3-ad8c-fac20db5c110","ios":"levelo://app?vid=456e3e01-d483-4af3-ad8c-fac20db5c110"},"vehicle_type_id":"4","last_reported":1750151533,"current_range_meters":20800,"station_id":"ce4bhn12rcd13ifvqgpg","pricing_plan_id":"cebpf4jnsgd1na2vs0mg"},{"bike_id":"7cf90edd-e557-4014-aa54-29c8c8124749","system_id":"levelo_inurba_marseille","lat":43.30296,"lon":5.39209,"is_reserved":false,"is_disabled":false,"rental_uris":{"android":"levelo://app?vid=7cf90edd-e557-4014-aa54-29c8c8124749","ios":"levelo://app?vid=7cf90edd-e557-4014-aa54-29c8c8124749"},"vehicle_type_id":"4","last_reported":1750151533,"current_range_meters":21600,"station_id":"ce4bgkh2rcd13ifvqbk0","pricing_plan_id":"cebpf4jnsgd1na2vs0mg"},{"bike_id":"1ec1fdeb-870d-4a40-bfab-4cf6dc0f9eb7","system_id":"levelo_inurba_marseille","lat":43.31489,"lon":5.37304,"is_reserved":false,"is_disabled":false,"rental_uris":{"android":"levelo://app?vid=1ec1fdeb-870d-4a40-bfab-4cf6dc0f9eb7","ios":"levelo://app?vid=1ec1fdeb-870d-4a40-bfab-4cf6dc0f9eb7"},"vehicle_type_id":"4","last_reported":1750151533,"current_range_meters":21600,"station_id":"ce4bgt12rcd13ifvqcd0","pricing_plan_id":"cebpf4jnsgd1na2vs0mg"},{"bike_id":"ed890612-611c-4383-ab13-42af41bec67a","system_id":"levelo_inurba_marseille","lat":43.29,"lon":5.35609,"is_reserved":false,"is_disabled":false,"rental_uris":{"android":"levelo://app?vid=ed890612-611c-4383-ab13-42af41bec67a","ios":"levelo://app?vid=ed890612-611c-4383-ab13-42af41bec67a"},"vehicle_type_id":"4","last_reported":1750151533,"current_range_meters":21600,"station_id":"ce4bhb92rcd13ifvqen0","pricing_plan_id":"cebpf4jnsgd1na2vs0mg"},{"bike_id":"80927306-d20e-4708-bfac-4bceb1a09ad3","system_id":"levelo_inurba_marseille","lat":43.28265,"lon":5.35072,"is_reserved":false,"is_disabled":false,"rental_uris":{"android":"levelo://app?vid=80927306-d20e-4708-bfac-4bceb1a09ad3","ios":"levelo://app?vid=80927306-d20e-4708-bfac-4bceb1a09ad3"},"vehicle_type_id":"4","last_reported":1750151533,"current_range_meters":21600,"station_id":"ce4bhbp2rcd13ifvqerg","pricing_plan_id":"cebpf4jnsgd1na2vs0mg"},{"bike_id":"7ab828d7-bff8-42f2-a98a-78f3ebd2297f","system_id":"levelo_inurba_marseille","lat":43.255067,"lon":5.376317,"is_reserved":false,"is_disabled":false,"rental_uris":{"android":"levelo://app?vid=7ab828d7-bff8-42f2-a98a-78f3ebd2297f","ios":"levelo://app?vid=7ab828d7-bff8-42f2-a98a-78f3ebd2297f"},"vehicle_type_id":"4","last_reported":1750151533,"current_range_meters":21600,"station_id":"ce4bhh12rcd13ifvqff0","pricing_plan_id":"cebpf4jnsgd1na2vs0mg"},{"bike_id":"950c7e60-3d69-4ac2-9f3d-36953e13bc4e","system_id":"levelo_inurba_marseille","lat":43.27055,"lon":5.40262,"is_reserved":false,"is_disabled":false,"rental_uris":{"android":"levelo://app?vid=950c7e60-3d69-4ac2-9f3d-36953e13bc4e","ios":"levelo://app?vid=950c7e60-3d69-4ac2-9f3d-36953e13bc4e"},"vehicle_type_id":"4","last_reported":1750151533,"current_range_meters":21600,"station_id":"ce4bhk92rcd13ifvqgc0","pricing_plan_id":"cebpf4jnsgd1na2vs0mg"},{"bike_id":"99063c5c-7a62-4dd8-b35f-eea924f59c0a","system_id":"levelo_inurba_marseille","lat":43.23154,"lon":5.43698,"is_reserved":false,"is_disabled":false,"rental_uris":{"android":"levelo://app?vid=99063c5c-7a62-4dd8-b35f-eea924f59c0a","ios":"levelo://app?vid=99063c5c-7a62-4dd8-b35f-eea924f59c0a"},"vehicle_type_id":"4","last_reported":1750151533,"current_range_meters":21600,"station_id":"ce4bhmp2rcd13ifvqgog","pricing_plan_id":"cebpf4jnsgd1na2vs0mg"},{"bike_id":"c1a365b0-0621-4b52-8abd-be472da267f5","system_id":"levelo_inurba_marseille","lat":43.30906,"lon":5.3684,"is_reserved":false,"is_disabled":false,"rental_uris":{"android":"levelo://app?vid=c1a365b0-0621-4b52-8abd-be472da267f5","ios":"levelo://app?vid=c1a365b0-0621-4b52-8abd-be472da267f5"},"vehicle_type_id":"4","last_reported":1750151533,"current_range_meters":22000,"station_id":"ce4bgn92rcd13ifvqbvg","pricing_plan_id":"cebpf4jnsgd1na2vs0mg"},{"bike_id":"d938709e-1e21-427c-b2c2-53c66838c574","system_id":"levelo_inurba_marseille","lat":43.30533,"lon":5.36527,"is_reserved":false,"is_disabled":false,"rental_uris":{"android":"levelo://app?vid=d938709e-1e21-427c-b2c2-53c66838c574","ios":"levelo://app?vid=d938709e-1e21-427c-b2c2-53c66838c574"},"vehicle_type_id":"4","last_reported":1750151533,"current_range_meters":22000,"station_id":"ce4bgs12rcd13ifvqcag","pricing_plan_id":"cebpf4jnsgd1na2vs0mg"},{"bike_id":"7fa5836b-a298-414b-842a-e5b06d8bc206","system_id":"levelo_inurba_marseille","lat":43.30953,"lon":5.39037,"is_reserved":false,"is_disabled":false,"rental_uris":{"android":"levelo://app?vid=7fa5836b-a298-414b-842a-e5b06d8bc206","ios":"levelo://app?vid=7fa5836b-a298-414b-842a-e5b06d8bc206"},"vehicle_type_id":"4","last_reported":1750151533,"current_range_meters":22000,"station_id":"ce4bgup2rcd13ifvqco0","pricing_plan_id":"cebpf4jnsgd1na2vs0mg"},{"bike_id":"4ecd22b1-52be-4922-b6c2-5541eaea2f43","system_id":"levelo_inurba_marseille","lat":43.30641,"lon":5.40092,"is_reserved":false,"is_disabled":false,"rental_uris":{"android":"levelo://app?vid=4ecd22b1-52be-4922-b6c2-5541eaea2f43","ios":"levelo://app?vid=4ecd22b1-52be-4922-b6c2-5541eaea2f43"},"vehicle_type_id":"4","last_reported":1750151533,"current_range_meters":22000,"station_id":"ce4bh112rcd13ifvqda0","pricing_plan_id":"cebpf4jnsgd1na2vs0mg"},{"bike_id":"f1fd66bd-cfc2-46bc-a7de-0fb26acfec32","system_id":"levelo_inurba_marseille","lat":43.25709,"lon":5.41113,"is_reserved":false,"is_disabled":false,"rental_uris":{"android":"levelo://app?vid=f1fd66bd-cfc2-46bc-a7de-0fb26acfec32","ios":"levelo://app?vid=f1fd66bd-cfc2-46bc-a7de-0fb26acfec32"},"vehicle_type_id":"4","last_reported":1750151533,"current_range_meters":22000,"station_id":"ce4bhkp2rcd13ifvqgd0","pricing_plan_id":"cebpf4jnsgd1na2vs0mg"},{"bike_id":"61185e51-def2-4557-89b9-f06c340ff2e2","system_id":"levelo_inurba_marseille","lat":43.2119,"lon":5.35064,"is_reserved":false,"is_disabled":false,"rental_uris":{"android":"levelo://app?vid=61185e51-def2-4557-89b9-f06c340ff2e2","ios":"levelo://app?vid=61185e51-def2-4557-89b9-f06c340ff2e2"},"vehicle_type_id":"4","last_reported":1750151533,"current_range_meters":22000,"station_id":"st_cvj6sg6p6f1abm77japg","pricing_plan_id":"cebpf4jnsgd1na2vs0mg"},{"bike_id":"dec2aafc-811c-4f0b-9708-ae041d3abcfb","system_id":"levelo_inurba_marseille","lat":43.3321,"lon":5.43027,"is_reserved":false,"is_disabled":false,"rental_uris":{"android":"levelo://app?vid=dec2aafc-811c-4f0b-9708-ae041d3abcfb","ios":"levelo://app?vid=dec2aafc-811c-4f0b-9708-ae041d3abcfb"},"vehicle_type_id":"4","last_reported":1750151533,"current_range_meters":22400,"station_id":"","pricing_plan_id":"cebpf4jnsgd1na2vs0mg"},