{"last_updated":1743095346,"ttl":60,"version":"2.2","data":{"bikes":[{"bike_id":"bf6d3711-68f5-4721-8ea8-2d0601182f38","system_id":"levelo_inurba_marseille","lat":43.33746,"lon":5.3745,"is_reserved":false,"is_disabled":true,"rental_uris":{"android":"levelo://app?vid=bf6d3711-68f5-4721-8ea8-2d0601182f38","ios":"levelo://app?vid=bf6d3711-68f5-4721-8ea8-2d0601182f38"},"vehicle_type_id":"4","last_reported":1743095346,"current_range_meters":0,"station_id":"","pricing_plan_id":"cebpf4jnsgd1na2vs0mg"},{"bike_id":"fc8e8371-f4e9-4721-bc19-563801e389dc","system_id":"levelo_inurba_marseille","lat":43.337444,"lon":5.374475,"is_reserved":false,"is_disabled":false,"rental_uris":{"android":"levelo://app?vid=fc8e8371-f4e9-4721-bc19-563801e389dc","ios":"levelo://app?vid=fc8e8371-f4e9-4721-bc19-563801e389dc"},"vehicle_type_id":"4","last_reported":1743095346,"current_range_meters":10800,"station_id":"","pricing_plan_id":"cebpf4jnsgd1na2vs0mg"},{"bike_id":"54739101-93ac-4ff2-ac89-3384dd1e877c","system_id":"levelo_inurba_marseille","lat":43.31537,"lon":5.37867,"is_reserved":false,"is_disabled":true,"rental_uris":{"android":"levelo://app?vid=54739101-93ac-4ff2-ac89-3384dd1e877c","ios":"levelo://app?vid=54739101-93ac-4ff2-ac89-3384dd1e877c"},"vehicle_type_id":"4","last_reported":1743095346,"current_range_meters":0,"station_id":"","pricing_plan_id":"cebpf4jnsgd1na2vs0mg"},{"bike_id":"306bbe1b-255e-465f-9c82-619129be6b5a","system_id":"levelo_inurba_marseille","lat":43.26571,"lon":5.39621,"is_reserved":false,"is_disabled":true,"rental_uris":{"android":"levelo://app?vid=306bbe1b-255e-465f-9c82-619129be6b5a","ios":"levelo://app?vid=306bbe1b-255e-465f-9c82-619129be6b5a"},"vehicle_type_id":"4","last_reported":1743095346,"current_range_meters":0,"station_id":"","pricing_plan_id":"cebpf4jnsgd1na2vs0mg"},{"bike_id":"be6725c0-5c09-4663-99b8-0b7371d27e21","system_id":"levelo_inurba_marseille","lat":43.25492,"lon":5.37551,"is_reserved":false,"is_disabled":true,"rental_uris":{"android":"levelo://app?vid=be6725c0-5c09-4663-99b8-0b7371d27e21","ios":"levelo://app?vid=be6725c0-5c09-4663-99b8-0b7371d27e21"},"vehicle_type_id":"4","last_reported":1743095346,"current_range_meters":0,"station_id":"","pricing_plan_id":"cebpf4jnsgd1na2vs0mg"},{"bike_id":"e01b37d2-694f-4478-b219-216c31b79260","system_id":"levelo_inurba_marseille","lat":43.2525,"lon":5.38085,"is_reserved":false,"is_disabled":true,"rental_uris":{"android":"levelo://app?vid=e01b37d2-694f-4478-b219-216c31b79260","ios":"levelo://app?vid=e01b37d2-694f-4478-b219-216c31b79260"},"vehicle_type_id":"4","last_reported":1743095346,"current_range_meters":0,"station_id":"","pricing_plan_id":"cebpf4jnsgd1na2vs0mg"},{"bike_id":"72e5db2b-9562-475e-acb8-d0f54f5a254a","system_id":"levelo_inurba_marseille","lat":43.26066,"lon":5.41564,"is_reserved":false,"is_disabled":true,"rental_uris":{"android":"levelo://app?vid=72e5db2b-9562-475e-acb8-d0f54f5a254a","ios":"levelo://app?vid=72e5db2b-9562-475e-acb8-d0f54f5a254a"},"vehicle_type_id":"4","last_reported":1743095346,"current_range_meters":0,"station_id":"","pricing_plan_id":"cebpf4jnsgd1na2vs0mg"},{"bike_id":"634c433d-3db3-4fd8-8be9-8b653dae530e","system_id":"levelo_inurba_marseille","lat":43.280373,"lon":5.389897,"is_reserved":false,"is_disabled":true,"rental_uris":{"android":"levelo://app?vid=634c433d-3db3-4fd8-8be9-8b653dae530e","ios":"levelo://app?vid=634c433d-3db3-4fd8-8be9-8b653dae530e"},"vehicle_type_id":"4","last_reported":1743095346,"current_range_meters":0,"station_id":"","pricing_plan_id":"cebpf4jnsgd1na2vs0mg"},{"bike_id":"e25b4970-a4ae-45aa-a7b0-4a6f20439764","system_id":"levelo_inurba_marseille","lat":43.30304,"lon":5.39228,"is_reserved":false,"is_disabled":true,"rental_uris":{"android":"levelo://app?vid=e25b4970-a4ae-45aa-a7b0-4a6f20439764","ios":"levelo://app?vid=e25b4970-a4ae-45aa-a7b0-4a6f20439764"},"vehicle_type_id":"4","last_reported":1743095346,"current_range_meters":0,"station_id":"ce4bgkh2rcd13ifvqbk0","pricing_plan_id":"cebpf4jnsgd1na2vs0mg"},{"bike_id":"7d8d8f0b-eb9f-48bd-8edc-04cdf527693c","system_id":"levelo_inurba_marseille","lat":43.31073,"lon":5.38361,"is_reserved":false,"is_disabled":true,"rental_uris":{"android":"levelo://app?vid=7d8d8f0b-eb9f-48bd-8edc-04cdf527693c","ios":"levelo://app?vid=7d8d8f0b-eb9f-48bd-8edc-04cdf527693c"},"vehicle_type_id":"4","last_reported":1743095346,"current_range_meters":0,"station_id":"ce4bgv92rcd13ifvqcr0","pricing_plan_id":"cebpf4jnsgd1na2vs0mg"},{"bike_id":"6a4ea83b-1e76-4d6a-8c6b-1028470a9b03","system_id":"levelo_inurba_marseille","lat":43.3132,"lon":5.39694,"is_reserved":false,"is_disabled":true,"rental_uris":{"android":"levelo://app?vid=6a4ea83b-1e76-4d6a-8c6b-1028470a9b03","ios":"levelo://app?vid=6a4ea83b-1e76-4d6a-8c6b-1028470a9b03"},"vehicle_type_id":"4","last_reported":1743095346,"current_range_meters":0,"station_id":"ce4bgvp2rcd13ifvqcu0","pricing_plan_id":"cebpf4jnsgd1na2vs0mg"},{"bike_id":"277bdcfe-b35e-4f4a-abd7-a1ff5322676c","system_id":"levelo_inurba_marseille","lat":43.30142,"lon":5.39911,"is_reserved":false,"is_disabled":true,"rental_uris":{"android":"levelo://app?vid=277bdcfe-b35e-4f4a-abd7-a1ff5322676c","ios":"levelo://app?vid=277bdcfe-b35e-4f4a-abd7-a1ff5322676c"},"vehicle_type_id":"4","last_reported":1743095346,"current_range_meters":0,"station_id":"ce4bh0h2rcd13ifvqd40","pricing_plan_id":"cebpf4jnsgd1na2vs0mg"},{"bike_id":"109774f8-12e7-4b0e-afd7-0094627241bf","system_id":"levelo_inurba_marseille","lat":43.29799,"lon":5.40403,"is_reserved":false,"is_disabled":true,"rental_uris":{"android":"levelo://app?vid=109774f8-12e7-4b0e-afd7-0094627241bf","ios":"levelo://app?vid=109774f8-12e7-4b0e-afd7-0094627241bf"},"vehicle_type_id":"4","last_reported":1743095346,"current_range_meters":0,"station_id":"ce4bh112rcd13ifvqd90","pricing_plan_id":"cebpf4jnsgd1na2vs0mg"},{"bike_id":"1019c9dc-715f-4d46-971a-8dd2317088bb","system_id":"levelo_inurba_marseille","lat":43.28432,"lon":5.35009,"is_reserved":false,"is_disabled":true,"rental_uris":{"android":"levelo://app?vid=1019c9dc-715f-4d46-971a-8dd2317088bb","ios":"levelo://app?vid=1019c9dc-715f-4d46-971a-8dd2317088bb"},"vehicle_type_id":"4","last_reported":1743095346,"current_range_meters":0,"station_id":"ce4bhbh2rcd13ifvqepg","pricing_plan_id":"cebpf4jnsgd1na2vs0mg"},{"bike_id":"5ed734c7-ccef-4570-b16b-7306641874ba","system_id":"levelo_inurba_marseille","lat":43.28257,"lon":5.35081,"is_reserved":false,"is_disabled":true,"rental_uris":{"android":"levelo://app?vid=5ed734c7-ccef-4570-b16b-7306641874ba","ios":"levelo://app?vid=5ed734c7-ccef-4570-b16b-7306641874ba"},"vehicle_type_id":"4","last_reported":1743095346,"current_range_meters":0,"station_id":"ce4bhbp2rcd13ifvqerg","pricing_plan_id":"cebpf4jnsgd1na2vs0mg"},{"bike_id":"96f7b6a4-ccff-4d63-b91f-1919d47a67cb","system_id":"levelo_inurba_marseille","lat":43.248,"lon":5.37452,"is_reserved":false,"is_disabled":true,"rental_uris":{"android":"levelo://app?vid=96f7b6a4-ccff-4d63-b91f-1919d47a67cb","ios":"levelo://app?vid=96f7b6a4-ccff-4d63-b91f-1919d47a67cb"},"vehicle_type_id":"4","last_reported":1743095346,"current_range_meters":0,"station_id":"ce4bhgh2rcd13ifvqfb0","pricing_plan_id":"cebpf4jnsgd1na2vs0mg"},{"bike_id":"020aaecf-a752-4d4b-a346-08b514b7c952","system_id":"levelo_inurba_marseille","lat":43.2722,"lon":5.39194,"is_reserved":false,"is_disabled":true,"rental_uris":{"android":"levelo://app?vid=020aaecf-a752-4d4b-a346-08b514b7c952","ios":"levelo://app?vid=020aaecf-a752-4d4b-a346-08b514b7c952"},"vehicle_type_id":"4","last_reported":1743095346,"current_range_meters":0,"station_id":"ce4bhhp2rcd13ifvqfm0","pricing_plan_id":"cebpf4jnsgd1na2vs0mg"},{"bike_id":"52fbf9b7-a8f2-4463-a353-e413423e9159","system_id":"levelo_inurba_marseille","lat":43.270528,"lon":5.402598,"is_reserved":false,"is_disabled":true,"rental_uris":{"android":"levelo://app?vid=52fbf9b7-a8f2-4463-a353-e413423e9159","ios":"levelo://app?vid=52fbf9b7-a8f2-4463-a353-e413423e9159"},"vehicle_type_id":"4","last_reported":1743095346,"current_range_meters":0,"station_id":"ce4bhk92rcd13ifvqgc0","pricing_plan_id":"cebpf4jnsgd1na2vs0mg"},{"bike_id":"0104b178-7537-4f95-89f9-8746db5b05fd","system_id":"levelo_inurba_marseille","lat":43.26215,"lon":5.40475,"is_reserved":false,"is_disabled":true,"rental_uris":{"android":"levelo://app?vid=0104b178-7537-4f95-89f9-8746db5b05fd","ios":"levelo://app?vid=0104b178-7537-4f95-89f9-8746db5b05fd"},"vehicle_type_id":"4","last_reported":1743095346,"current_range_meters":0,"station_id":"ce4bhmh2rcd13ifvqgmg","pricing_plan_id":"cebpf4jnsgd1na2vs0mg"},{"bike_id":"d1956415-f74a-4acb-b065-259517664373","system_id":"levelo_inurba_marseille","lat":43.23154,"lon":5.43726,"is_reserved":false,"is_disabled":true,"rental_uris":{"android":"levelo://app?vid=d1956415-f74a-4acb-b065-259517664373","ios":"levelo://app?vid=d1956415-f74a-4acb-b065-259517664373"},"vehicle_type_id":"4","last_reported":1743095346,"current_range_meters":0,"station_id":"ce4bhmp2rcd13ifvqgog","pricing_plan_id":"cebpf4jnsgd1na2vs0mg"},{"bike_id":"8c1357e0-9a6f-43fa-ab44-79de7de7967d","system_id":"levelo_inurba_marseille","lat":43.30403,"lon":5.41312,"is_reserved":false,"is_disabled":true,"rental_uris":{"android":"levelo://app?vid=8c1357e0-9a6f-43fa-ab44-79de7de7967d","ios":"levelo://app?vid=8c1357e0-9a6f-43fa-ab44-79de7de7967d"},"vehicle_type_id":"4","last_reported":1743095346,"current_range_meters":0,"station_id":"ce4bhop2rcd13ifvqh8g","pricing_plan_id":"cebpf4jnsgd1na2vs0mg"},{"bike_id":"c11b4714-b517-4ec1-af74-cadc2ea5111f","system_id":"levelo_inurba_marseille","lat":43.32053,"lon":5.41575,"is_reserved":false,"is_disabled":true,"rental_uris":{"android":"levelo://app?vid=c11b4714-b517-4ec1-af74-cadc2ea5111f","ios":"levelo://app?vid=c11b4714-b517-4ec1-af74-cadc2ea5111f"},"vehicle_type_id":"4","last_reported":1743095346,"current_range_meters":0,"station_id":"ce4bhq92rcd13ifvqhkg","pricing_plan_id":"cebpf4jnsgd1na2vs0mg"},{"bike_id":"4649e927-318c-42c4-b7b0-fd6953f92e48","system_id":"levelo_inurba_marseille","lat":43.28274,"lon":5.35063,"is_reserved":false,"is_disabled":true,"rental_uris":{"android":"levelo://app?vid=4649e927-318c-42c4-b7b0-fd6953f92e48","ios":"levelo://app?vid=4649e927-318c-42c4-b7b0-fd6953f92e48"},"vehicle_type_id":"4","last_reported":1743095346,"current_range_meters":400,"station_id":"ce4bhbp2rcd13ifvqerg","pricing_plan_id":"cebpf4jnsgd1na2vs0mg"},{"bike_id":"64bb6e91-658e-427f-8850-3d52477a152f","system_id":"levelo_inurba_marseille","lat":43.24803,"lon":5.37455,"is_reserved":false,"is_disabled":true,"rental_uris":{"android":"levelo://app?vid=64bb6e91-658e-427f-8850-3d52477a152f","ios":"levelo://app?vid=64bb6e91-658e-427f-8850-3d52477a152f"},"vehicle_type_id":"4","last_reported":1743095346,"current_range_meters":400,"station_id":"ce4bhgh2rcd13ifvqfb0","pricing_plan_id":"cebpf4jnsgd1na2vs0mg"},{"bike_id":"4b4f18f9-1948-4d9f-91c0-d5128d8839d9","system_id":"levelo_inurba_marseille","lat":43.26782,"lon":5.39493,"is_reserved":false,"is_disabled":true,"rental_uris":{"android":"levelo://app?vid=4b4f18f9-1948-4d9f-91c0-d5128d8839d9","ios":"levelo://app?vid=4b4f18f9-1948-4d9f-91c0-d5128d8839d9"},"vehicle_type_id":"4","last_reported":1743095346,"current_range_meters":800,"station_id":"","pricing_plan_id":"cebpf4jnsgd1na2vs0mg"},{"bike_id":"90ca1ee2-57da-464e-a41f-c7dbaf7e93f9","system_id":"levelo_inurba_marseille","lat":43.2811,"lon":5.39859,"is_reserved":false,"is_disabled":true,"rental_uris":{"android":"levelo://app?vid=90ca1ee2-57da-464e-a41f-c7dbaf7e93f9","ios":"levelo://app?vid=90ca1ee2-57da-464e-a41f-c7dbaf7e93f9"},"vehicle_type_id":"4","last_reported":1743095346,"current_range_meters":800,"station_id":"","pricing_plan_id":"cebpf4jnsgd1na2vs0mg"},{"bike_id":"6468285c-2588-4053-b99a-53ad6bf6b9c8","system_id":"levelo_inurba_marseille","lat":43.30927,"lon":5.40139,"is_reserved":false,"is_disabled":true,"rental_uris":{"android":"levelo://app?vid=6468285c-2588-4053-b99a-53ad6bf6b9c8","ios":"levelo://app?vid=6468285c-2588-4053-b99a-53ad6bf6b9c8"},"vehicle_type_id":"4","last_reported":1743095346,"current_range_meters":800,"station_id":"ce4bgvp2rcd13ifvqct0","pricing_plan_id":"cebpf4jnsgd1na2vs0mg"},{"bike_id":"814c49fe-2e74-4a0d-ad91-e8d7ff92b09f","system_id":"levelo_inurba_marseille","lat":43.30097,"lon":5.39091,"is_reserved":false,"is_disabled":true,"rental_uris":{"android":"levelo://app?vid=814c49fe-2e74-4a0d-ad91-e8d7ff92b09f","ios":"levelo://app?vid=814c49fe-2e74-4a0d-ad91-e8d7ff92b09f"},"vehicle_type_id":"4","last_reported":1743095346,"current_range_meters":800,"station_id":"ce4bh192rcd13ifvqdb0","pricing_plan_id":"cebpf4jnsgd1na2vs0mg"},{"bike_id":"5fcf13a5-1e55-45c2-8d2d-2218fa009973","system_id":"levelo_inurba_marseille","lat":43.28853,"lon":5.39301,"is_reserved":false,"is_disabled":true,"rental_uris":{"android":"levelo://app?vid=5fcf13a5-1e55-45c2-8d2d-2218fa009973","ios":"levelo://app?vid=5fcf13a5-1e55-45c2-8d2d-2218fa009973"},"vehicle_type_id":"4","last_reported":1743095346,"current_range_meters":800,"station_id":"ce4bh2p2rcd13ifvqdi0","pricing_plan_id":"cebpf4jnsgd1na2vs0mg"},{"bike_id":"0543857f-2cb7-43a4-939e-5e4e0a2e9997","system_id":"levelo_inurba_marseille","lat":43.28367,"lon":5.38618,"is_reserved":false,"is_disabled":true,"rental_uris":{"android":"levelo://app?vid=0543857f-2cb7-43a4-939e-5e4e0a2e9997","ios":"levelo://app?vid=0543857f-2cb7-43a4-939e-5e4e0a2e9997"},"vehicle_type_id":"4","last_reported":1743095346,"current_range_meters":800,"station_id":"ce4bh492rcd13ifvqdvg","pricing_plan_id":"cebpf4jnsgd1na2vs0mg"},{"bike_id":"40ca557e-a848-4197-bd4a-f49785e65628","system_id":"levelo_inurba_marseille","lat":43.28622,"lon":5.35093,"is_reserved":false,"is_disabled":true,"rental_uris":{"android":"levelo://app?vid=40ca557e-a848-4197-bd4a-f49785e65628","ios":"levelo://app?vid=40ca557e-a848-4197-bd4a-f49785e65628"},"vehicle_type_id":"4","last_reported":1743095346,"current_range_meters":800,"station_id":"ce4bhch2rcd13ifvqeug","pricing_plan_id":"cebpf4jnsgd1na2vs0mg"},{"bike_id":"52e15b2f-4e51-4e53-8646-92bac48009a4","system_id":"levelo_inurba_marseille","lat":43.25822,"lon":5.39434,"is_reserved":false,"is_disabled":true,"rental_uris":{"android":"levelo://app?vid=52e15b2f-4e51-4e53-8646-92bac48009a4","ios":"levelo://app?vid=52e15b2f-4e51-4e53-8646-92bac48009a4"},"vehicle_type_id":"4","last_reported":1743095346,"current_range_meters":800,"station_id":"ce4bhip2rcd13ifvqft0","pricing_plan_id":"cebpf4jnsgd1na2vs0mg"},{"bike_id":"6b68b9ab-6cd2-4816-9040-f5fc3121639e","system_id":"levelo_inurba_marseille","lat":43.32044,"lon":5.41538,"is_reserved":false,"is_disabled":true,"rental_uris":{"android":"levelo://app?vid=6b68b9ab-6cd2-4816-9040-f5fc3121639e","ios":"levelo://app?vid=6b68b9ab-6cd2-4816-9040-f5fc3121639e"},"vehicle_type_id":"4","last_reported":1743095346,"current_range_meters":800,"station_id":"ce4bhq92rcd13ifvqhkg","pricing_plan_id":"cebpf4jnsgd1na2vs0mg"},{"bike_id":"72ba7552-8970-4978-a598-855488dec630","system_id":"levelo_inurba_marseille","lat":43.30903,"lon":5.36847,"is_reserved":false,"is_disabled":true,"rental_uris":{"android":"levelo://app?vid=72ba7552-8970-4978-a598-855488dec630","ios":"levelo://app?vid=72ba7552-8970-4978-a598-855488dec630"},"vehicle_type_id":"4","last_reported":1743095346,"current_range_meters":1200,"station_id":"ce4bgn92rcd13ifvqbvg","pricing_plan_id":"cebpf4jnsgd1na2vs0mg"},{"bike_id":"02b81487-df60-4c66-bd97-dcb60f8486fe","system_id":"levelo_inurba_marseille","lat":43.31713,"lon":5.37741,"is_reserved":false,"is_disabled":true,"rental_uris":{"android":"levelo://app?vid=02b81487-df60-4c66-bd97-dcb60f8486fe","ios":"levelo://app?vid=02b81487-df60-4c66-bd97-dcb60f8486fe"},"vehicle_type_id":"4","last_reported":1743095346,"current_range_meters":1200,"station_id":"ce4bgth2rcd13ifvqch0","pricing_plan_id":"cebpf4jnsgd1na2vs0mg"},{"bike_id":"3aa2d9f5-f038-410c-868f-e3bbc22500b8","system_id":"levelo_inurba_marseille","lat":43.28861,"lon":5.35857,"is_reserved":false,"is_disabled":true,"rental_uris":{"android":"levelo://app?vid=3aa2d9f5-f038-410c-868f-e3bbc22500b8","ios":"levelo://app?vid=3aa2d9f5-f038-410c-868f-e3bbc22500b8"},"vehicle_type_id":"4","last_reported":1743095346,"current_range_meters":1200,"station_id":"ce4bhb12rcd13ifvqem0","pricing_plan_id":"cebpf4jnsgd1na2vs0mg"},{"bike_id":"26a0b660-b955-48af-8b9b-f4a86aa3b5eb","system_id":"levelo_inurba_marseille","lat":43.28265,"lon":5.35068,"is_reserved":false,"is_disabled":true,"rental_uris":{"android":"levelo://app?vid=26a0b660-b955-48af-8b9b-f4a86aa3b5eb","ios":"levelo://app?vid=26a0b660-b955-48af-8b9b-f4a86aa3b5eb"},"vehicle_type_id":"4","last_reported":1743095346,"current_range_meters":1200,"station_id":"ce4bhbp2rcd13ifvqerg","pricing_plan_id":"cebpf4jnsgd1na2vs0mg"},{"bike_id":"b70f87f1-4462-4506-ac7f-5582c4f61b0d","system_id":"levelo_inurba_marseille","lat":43.26026,"lon":5.37549,"is_reserved":false,"is_disabled":true,"rental_uris":{"android":"levelo://app?vid=b70f87f1-4462-4506-ac7f-5582c4f61b0d","ios":"levelo://app?vid=b70f87f1-4462-4506-ac7f-5582c4f61b0d"},"vehicle_type_id":"4","last_reported":1743095346,"current_range_meters":1200,"station_id":"ce4bhgh2rcd13ifvqfa0","pricing_plan_id":"cebpf4jnsgd1na2vs0mg"},{"bike_id":"0117b03f-7e9b-4ff8-8c09-3bf976931b1d","system_id":"levelo_inurba_marseille","lat":43.28156,"lon":5.42646,"is_reserved":false,"is_disabled":true,"rental_uris":{"android":"levelo://app?vid=0117b03f-7e9b-4ff8-8c09-3bf976931b1d","ios":"levelo://app?vid=0117b03f-7e9b-4ff8-8c09-3bf976931b1d"},"vehicle_type_id":"4","last_reported":1743095346,"current_range_meters":1200,"station_id":"ce4bhnh2rcd13ifvqgug","pricing_plan_id":"cebpf4jnsgd1na2vs0mg"},{"bike_id":"e74d4912-29cb-4f21-a6c1-9b670a53592f","system_id":"levelo_inurba_marseille","lat":43.28852,"lon":5.39311,"is_reserved":false,"is_disabled":true,"rental_uris":{"android":"levelo://app?vid=e74d4912-29cb-4f21-a6c1-9b670a53592f","ios":"levelo://app?vid=e74d4912-29cb-4f21-a6c1-9b670a53592f"},"vehicle_type_id":"4","last_reported":1743095346,"current_range_meters":1600,"station_id":"ce4bh2p2rcd13ifvqdi0","pricing_plan_id":"cebpf4jnsgd1na2vs0mg"},{"bike_id":"4e8b3849-fdbd-40f9-97b7-2b92eb2cb356","system_id":"levelo_inurba_marseille","lat":43.28471,"lon":5.35878,"is_reserved":false,"is_disabled":true,"rental_uris":{"android":"levelo://app?vid=4e8b3849-fdbd-40f9-97b7-2b92eb2cb356","ios":"levelo://app?vid=4e8b3849-fdbd-40f9-97b7-2b92eb2cb356"},"vehicle_type_id":"4","last_reported":1743095346,"current_range_meters":1600,"station_id":"ce4bhah2rcd13ifvqei0","pricing_plan_id":"cebpf4jnsgd1na2vs0mg"},{"bike_id":"9962e3e9-1815-4cd8-a092-08e2c3a51bf8","system_id":"levelo_inurba_marseille","lat":43.28269,"lon":5.35088,"is_reserved":false,"is_disabled":true,"rental_uris":{"android":"levelo://app?vid=9962e3e9-1815-4cd8-a092-08e2c3a51bf8","ios":"levelo://app?vid=9962e3e9-1815-4cd8-a092-08e2c3a51bf8"},"vehicle_type_id":"4","last_reported":1743095346,"current_range_meters":1600,"station_id":"ce4bhbp2rcd13ifvqerg","pricing_plan_id":"cebpf4jnsgd1na2vs0mg"},{"bike_id":"fff7a924-bdde-4dc1-84ef-0423e805de3a","system_id":"levelo_inurba_marseille","lat":43.25088,"lon":5.39522,"is_reserved":false,"is_disabled":true,"rental_uris":{"android":"levelo://app?vid=fff7a924-bdde-4dc1-84ef-0423e805de3a","ios":"levelo://app?vid=fff7a924-bdde-4dc1-84ef-0423e805de3a"},"vehicle_type_id":"4","last_reported":1743095346,"current_range_meters":1600,"station_id":"ce4bhm12rcd13ifvqgkg","pricing_plan_id":"cebpf4jnsgd1na2vs0mg"},{"bike_id":"9a71ebfb-d47c-492a-be95-bae2dcc9bb12","system_id":"levelo_inurba_marseille","lat":43.250998,"lon":5.39522,"is_reserved":false,"is_disabled":true,"rental_uris":{"android":"levelo://app?vid=9a71ebfb-d47c-492a-be95-bae2dcc9bb12","ios":"levelo://app?vid=9a71ebfb-d47c-492a-be95-bae2dcc9bb12"},"vehicle_type_id":"4","last_reported":1743095346,"current_range_meters":1600,"station_id":"ce4bhm12rcd13ifvqgkg","pricing_plan_id":"cebpf4jnsgd1na2vs0mg"},{"bike_id":"b90ea539-cd4c-4e2f-8708-ffa01e215a77","system_id":"levelo_inurba_marseille","lat":43.2862,"lon":5.38452,"is_reserved":false,"is_disabled":true,"rental_uris":{"android":"levelo://app?vid=b90ea539-cd4c-4e2f-8708-ffa01e215a77","ios":"levelo://app?vid=b90ea539-cd4c-4e2f-8708-ffa01e215a77"},"vehicle_type_id":"4","last_reported":1743095346,"current_range_meters":2000,"station_id":"","pricing_plan_id":"cebpf4jnsgd1na2vs0mg"},{"bike_id":"def721af-064a-45dc-98c5-8eea253e9b01","system_id":"levelo_inurba_marseille","lat":43.30209,"lon":5.39463,"is_reserved":false,"is_disabled":true,"rental_uris":{"android":"levelo://app?vid=def721af-064a-45dc-98c5-8eea253e9b01","ios":"levelo://app?vid=def721af-064a-45dc-98c5-8eea253e9b01"},"vehicle_type_id":"4","last_reported":1743095346,"current_range_meters":2000,"station_id":"ce4bh0p2rcd13ifvqd70","pricing_plan_id":"cebpf4jnsgd1na2vs0mg"},{"bike_id":"eaa652a6-1843-41c9-b56f-a576333b2bc3","system_id":"levelo_inurba_marseille","lat":43.28109,"lon":5.3784,"is_reserved":false,"is_disabled":true,"rental_uris":{"android":"levelo://app?vid=eaa652a6-1843-41c9-b56f-a576333b2bc3","ios":"levelo://app?vid=eaa652a6-1843-41c9-b56f-a576333b2bc3"},"vehicle_type_id":"4","last_reported":1743095346,"current_range_meters":2000,"station_id":"ce4bha12rcd13ifvqee0","pricing_plan_id":"cebpf4jnsgd1na2vs0mg"},{"bike_id":"a23db6b8-d1bc-45c4-a2eb-3cf216bfafa9","system_id":"levelo_inurba_marseille","lat":43.27063,"lon":5.40258,"is_reserved":false,"is_disabled":true,"rental_uris":{"android":"levelo://app?vid=a23db6b8-d1bc-45c4-a2eb-3cf216bfafa9","ios":"levelo://app?vid=a23db6b8-d1bc-45c4-a2eb-3cf216bfafa9"},"vehicle_type_id":"4","last_reported":1743095346,"current_range_meters":2000,"station_id":"ce4bhk92rcd13ifvqgc0","pricing_plan_id":"cebpf4jnsgd1na2vs0mg"},{"bike_id":"7f9d372a-e6f4-41de-bfd4-626023e27690","system_id":"levelo_inurba_marseille","lat":43.28183,"lon":5.44263,"is_reserved":false,"is_disabled":false,"rental_uris":{"android":"levelo://app?vid=7f9d372a-e6f4-41de-bfd4-626023e27690","ios":"levelo://app?vid=7f9d372a-e6f4-41de-bfd4-626023e27690"},"vehicle_type_id":"4","last_reported":1743095346,"current_range_meters":2800,"station_id":"","pricing_plan_id":"cebpf4jnsgd1na2vs0mg"},{"bike_id":"39132323-c731-49ab-98e3-c68cfd77b0de","system_id":"levelo_inurba_marseille","lat":43.26411,"lon":5.40401,"is_reserved":false,"is_disabled":false,"rental_uris":{"android":"levelo://app?vid=39132323-c731-49ab-98e3-c68cfd77b0de","ios":"levelo://app?vid=39132323-c731-49ab-98e3-c68cfd77b0de"},"vehicle_type_id":"4","last_reported":1743095346,"current_range_meters":2800,"station_id":"","pricing_plan_id":"cebpf4jnsgd1na2vs0mg"},{"bike_id":"b70aa2ec-a2df-45dd-a2f1-22f434f23738","system_id":"levelo_inurba_marseille","lat":43.31488,"lon":5.3731,"is_reserved":false,"is_disabled":false,"rental_uris":{"android":"levelo://app?vid=b70aa2ec-a2df-45dd-a2f1-22f434f23738","ios":"levelo://app?vid=b70aa2ec-a2df-45dd-a2f1-22f434f23738"},"vehicle_type_id":"4","last_reported":1743095346,"current_range_meters":2800,"station_id":"ce4bgt12rcd13ifvqcd0","pricing_plan_id":"cebpf4jnsgd1na2vs0mg"},{"bike_id":"141a85b2-91fc-45d9-9576-5b0d25056d2c","system_id":"levelo_inurba_marseille","lat":43.3064,"lon":5.40074,"is_reserved":false,"is_disabled":false,"rental_uris":{"android":"levelo://app?vid=141a85b2-91fc-45d9-9576-5b0d25056d2c","ios":"levelo://app?vid=141a85b2-91fc-45d9-9576-5b0d25056d2c"},"vehicle_type_id":"4","last_reported":1743095346,"current_range_meters":2800,"station_id":"ce4bh112rcd13ifvqda0","pricing_plan_id":"cebpf4jnsgd1na2vs0mg"},{"bike_id":"a6e290de-96e2-448e-8127-63ce7cb02a7b","system_id":"levelo_inurba_marseille","lat":43.2904,"lon":5.38644,"is_reserved":false,"is_disabled":false,"rental_uris":{"android":"levelo://app?vid=a6e290de-96e2-448e-8127-63ce7cb02a7b","ios":"levelo://app?vid=a6e290de-96e2-448e-8127-63ce7cb02a7b"},"vehicle_type_id":"4","last_reported":1743095346,"current_range_meters":2800,"station_id":"ce4bh4p2rcd13ifvqe0g","pricing_plan_id":"cebpf4jnsgd1na2vs0mg"},{"bike_id":"e66f022e-62cc-49af-bc07-d8cb76b312ff","system_id":"levelo_inurba_marseille","lat":43.2904,"lon":5.39952,"is_reserved":false,"is_disabled":false,"rental_uris":{"android":"levelo://app?vid=e66f022e-62cc-49af-bc07-d8cb76b312ff","ios":"levelo://app?vid=e66f022e-62cc-49af-bc07-d8cb76b312ff"},"vehicle_type_id":"4","last_reported":1743095346,"current_range_meters":2800,"station_id":"ce4bh512rcd13ifvqe3g","pricing_plan_id":"cebpf4jnsgd1na2vs0mg"},{"bike_id":"68233f5d-8507-4507-9bf2-b6f8aa7c5b4b","system_id":"levelo_inurba_marseille","lat":43.28002,"lon":5.40009,"is_reserved":false,"is_disabled":false,"rental_uris":{"android":"levelo://app?vid=68233f5d-8507-4507-9bf2-b6f8aa7c5b4b","ios":"levelo://app?vid=68233f5d-8507-4507-9bf2-b6f8aa7c5b4b"},"vehicle_type_id":"4","last_reported":1743095346,"current_range_meters":2800,"station_id":"ce4bho92rcd13ifvqh4g","pricing_plan_id":"cebpf4jnsgd1na2vs0mg"},{"bike_id":"3d81f6da-fe9d-4934-ad4c-1141e1eecd92","system_id":"levelo_inurba_marseille","lat":43.24156,"lon":5.36415,"is_reserved":false,"is_disabled":false,"rental_uris":{"android":"levelo://app?vid=3d81f6da-fe9d-4934-ad4c-1141e1eecd92","ios":"levelo://app?vid=3d81f6da-fe9d-4934-ad4c-1141e1eecd92"},"vehicle_type_id":"4","last_reported":1743095346,"current_range_meters":2800,"station_id":"cpo36qri1sfpv3e86is0","pricing_plan_id":"cebpf4jnsgd1na2vs0mg"},{"bike_id":"b3d3d79e-40ed-49f4-a20f-717b11f903ff","system_id":"levelo_inurba_marseille","lat":43.29094,"lon":5.38128,"is_reserved":false,"is_disabled":false,"rental_uris":{"android":"levelo://app?vid=b3d3d79e-40ed-49f4-a20f-717b11f903ff","ios":"levelo://app?vid=b3d3d79e-40ed-49f4-a20f-717b11f903ff"},"vehicle_type_id":"4","last_reported":1743095346,"current_range_meters":3200,"station_id":"ce4bh512rcd13ifvqe2g","pricing_plan_id":"cebpf4jnsgd1na2vs0mg"},{"bike_id":"01b7a3e9-0dab-4c73-a7c5-7e899101b89b","system_id":"levelo_inurba_marseille","lat":43.29259,"lon":5.38444,"is_reserved":false,"is_disabled":false,"rental_uris":{"android":"levelo://app?vid=01b7a3e9-0dab-4c73-a7c5-7e899101b89b","ios":"levelo://app?vid=01b7a3e9-0dab-4c73-a7c5-7e899101b89b"},"vehicle_type_id":"4","last_reported":1743095346,"current_range_meters":3200,"station_id":"ce4bh692rcd13ifvqea0","pricing_plan_id":"cebpf4jnsgd1na2vs0mg"},{"bike_id":"fff11007-0f88-48cf-ab6e-08dd068a2185","system_id":"levelo_inurba_marseille","lat":43.27375,"lon":5.36258,"is_reserved":false,"is_disabled":false,"rental_uris":{"android":"levelo://app?vid=fff11007-0f88-48cf-ab6e-08dd068a2185","ios":"levelo://app?vid=fff11007-0f88-48cf-ab6e-08dd068a2185"},"vehicle_type_id":"4","last_reported":1743095346,"current_range_meters":3200,"station_id":"ce4bhbh2rcd13ifvqeo0","pricing_plan_id":"cebpf4jnsgd1na2vs0mg"},{"bike_id":"0783eca1-0764-47b0-b135-cf78e535741e","system_id":"levelo_inurba_marseille","lat":43.23184,"lon":5.3999,"is_reserved":false,"is_disabled":false,"rental_uris":{"android":"levelo://app?vid=0783eca1-0764-47b0-b135-cf78e535741e","ios":"levelo://app?vid=0783eca1-0764-47b0-b135-cf78e535741e"},"vehicle_type_id":"4","last_reported":1743095346,"current_range_meters":3600,"station_id":"ce4bhn12rcd13ifvqgqg","pricing_plan_id":"cebpf4jnsgd1na2vs0mg"},{"bike_id":"8dbc82e0-7591-41b2-bae0-90ae8a68db93","system_id":"levelo_inurba_marseille","lat":43.30811,"lon":5.4347,"is_reserved":false,"is_disabled":false,"rental_uris":{"android":"levelo://app?vid=8dbc82e0-7591-41b2-bae0-90ae8a68db93","ios":"levelo://app?vid=8dbc82e0-7591-41b2-bae0-90ae8a68db93"},"vehicle_type_id":"4","last_reported":1743095346,"current_range_meters":3600,"station_id":"ce4bhph2rcd13ifvqheg","pricing_plan_id":"cebpf4jnsgd1na2vs0mg"},{"bike_id":"f639ec0b-ed1e-41fb-8420-26b500df4945","system_id":"levelo_inurba_marseille","lat":43.29795,"lon":5.39347,"is_reserved":false,"is_disabled":false,"rental_uris":{"android":"levelo://app?vid=f639ec0b-ed1e-41fb-8420-26b500df4945","ios":"levelo://app?vid=f639ec0b-ed1e-41fb-8420-26b500df4945"},"vehicle_type_id":"4","last_reported":1743095346,"current_range_meters":3600,"station_id":"chh1huq6cuj3fo74tm60","pricing_plan_id":"cebpf4jnsgd1na2vs0mg"},{"bike_id":"4bca1ad7-08fc-4950-98c7-27f2983f242d","system_id":"levelo_inurba_marseille","lat":43.26946,"lon":5.40249,"is_reserved":false,"is_disabled":false,"rental_uris":{"android":"levelo://app?vid=4bca1ad7-08fc-4950-98c7-27f2983f242d","ios":"levelo://app?vid=4bca1ad7-08fc-4950-98c7-27f2983f242d"},"vehicle_type_id":"4","last_reported":1743095346,"current_range_meters":3600,"station_id":"cjm6bp8fraef2m0cb0m0","pricing_plan_id":"cebpf4jnsgd1na2vs0mg"},{"bike_id":"1e0b2636-48a1-4292-92c0-73b807651a12","system_id":"levelo_inurba_marseille","lat":43.289703,"lon":5.37838,"is_reserved":false,"is_disabled":false,"rental_uris":{"android":"levelo://app?vid=1e0b2636-48a1-4292-92c0-73b807651a12","ios":"levelo://app?vid=1e0b2636-48a1-4292-92c0-73b807651a12"},"vehicle_type_id":"4","last_reported":1743095346,"current_range_meters":4000,"station_id":"ce4bgip2rcd13ifvqbb0","pricing_plan_id":"cebpf4jnsgd1na2vs0mg"},{"bike_id":"c27b3a6f-2efc-4ce4-990e-c61a4852816d","system_id":"levelo_inurba_marseille","lat":43.30192,"lon":5.36625,"is_reserved":false,"is_disabled":false,"rental_uris":{"android":"levelo://app?vid=c27b3a6f-2efc-4ce4-990e-c61a4852816d","ios":"levelo://app?vid=c27b3a6f-2efc-4ce4-990e-c61a4852816d"},"vehicle_type_id":"4","last_reported":1743095346,"current_range_meters":4000,"station_id":"ce4bgrh2rcd13ifvqc8g","pricing_plan_id":"cebpf4jnsgd1na2vs0mg"},{"bike_id":"275a6341-9f04-4c65-ab3f-4130d6a105ab","system_id":"levelo_inurba_marseille","lat":43.266952,"lon":5.382314,"is_reserved":false,"is_disabled":false,"rental_uris":{"android":"levelo://app?vid=275a6341-9f04-4c65-ab3f-4130d6a105ab","ios":"levelo://app?vid=275a6341-9f04-4c65-ab3f-4130d6a105ab"},"vehicle_type_id":"4","last_reported":1743095346,"current_range_meters":4000,"station_id":"ce4bhg12rcd13ifvqf60","pricing_plan_id":"cebpf4jnsgd1na2vs0mg"},{"bike_id":"96813cd0-0cee-4f6f-91cf-707f2245da85","system_id":"levelo_inurba_marseille","lat":43.23191,"lon":5.39992,"is_reserved":false,"is_disabled":false,"rental_uris":{"android":"levelo://app?vid=96813cd0-0cee-4f6f-91cf-707f2245da85","ios":"levelo://app?vid=96813cd0-0cee-4f6f-91cf-707f2245da85"},"vehicle_type_id":"4","last_reported":1743095346,"current_range_meters":4000,"station_id":"ce4bhn12rcd13ifvqgqg","pricing_plan_id":"cebpf4jnsgd1na2vs0mg"},{"bike_id":"6b64788c-92c9-495a-90af-1731dec4424c","system_id":"levelo_inurba_marseille","lat":43.29962,"lon":5.385,"is_reserved":false,"is_disabled":false,"rental_uris":{"android":"levelo://app?vid=6b64788c-92c9-495a-90af-1731dec4424c","ios":"levelo://app?vid=6b64788c-92c9-495a-90af-1731dec4424c"},"vehicle_type_id":"4","last_reported":1743095346,"current_range_meters":4400,"station_id":"ce4bgj92rcd13ifvqbd0","pricing_plan_id":"cebpf4jnsgd1na2vs0mg"},{"bike_id":"26fa4ee6-134c-4940-bad2-2c722f5cdf32","system_id":"levelo_inurba_marseille","lat":43.30394,"lon":5.41302,"is_reserved":false,"is_disabled":false,"rental_uris":{"android":"levelo://app?vid=26fa4ee6-134c-4940-bad2-2c722f5cdf32","ios":"levelo://app?vid=26fa4ee6-134c-4940-bad2-2c722f5cdf32"},"vehicle_type_id":"4","last_reported":1743095346,"current_range_meters":4400,"station_id":"ce4bhop2rcd13ifvqh8g","pricing_plan_id":"cebpf4jnsgd1na2vs0mg"},{"bike_id":"8d5c578e-9aa5-4f11-a515-f87994ff7de1","system_id":"levelo_inurba_marseille","lat":43.30136,"lon":5.38779,"is_reserved":false,"is_disabled":false,"rental_uris":{"android":"levelo://app?vid=8d5c578e-9aa5-4f11-a515-f87994ff7de1","ios":"levelo://app?vid=8d5c578e-9aa5-4f11-a515-f87994ff7de1"},"vehicle_type_id":"4","last_reported":1743095346,"current_range_meters":4800,"station_id":"ce4bghh2rcd13ifvqb60","pricing_plan_id":"cebpf4jnsgd1na2vs0mg"},{"bike_id":"1b0d150d-fc8a-49ef-9100-149f7e6103b2","system_id":"levelo_inurba_marseille","lat":43.291346,"lon":5.369926,"is_reserved":false,"is_disabled":false,"rental_uris":{"android":"levelo://app?vid=1b0d150d-fc8a-49ef-9100-149f7e6103b2","ios":"levelo://app?vid=1b0d150d-fc8a-49ef-9100-149f7e6103b2"},"vehicle_type_id":"4","last_reported":1743095346,"current_range_meters":4800,"station_id":"ce4bhap2rcd13ifvqek0","pricing_plan_id":"cebpf4jnsgd1na2vs0mg"},{"bike_id":"8c9316b0-ddd5-4053-9211-3329ccff6503","system_id":"levelo_inurba_marseille","lat":43.305641,"lon":5.370201,"is_reserved":false,"is_disabled":false,"rental_uris":{"android":"levelo://app?vid=8c9316b0-ddd5-4053-9211-3329ccff6503","ios":"levelo://app?vid=8c9316b0-ddd5-4053-9211-3329ccff6503"},"vehicle_type_id":"4","last_reported":1743095346,"current_range_meters":4800,"station_id":"ce4bhr92rcd13ifvqhsg","pricing_plan_id":"cebpf4jnsgd1na2vs0mg"},{"bike_id":"4d29673d-54e7-48d2-9c9f-1d02cf66fc24","system_id":"levelo_inurba_marseille","lat":43.28617,"lon":5.38437,"is_reserved":false,"is_disabled":false,"rental_uris":{"android":"levelo://app?vid=4d29673d-54e7-48d2-9c9f-1d02cf66fc24","ios":"levelo://app?vid=4d29673d-54e7-48d2-9c9f-1d02cf66fc24"},"vehicle_type_id":"4","last_reported":1743095346,"current_range_meters":5600,"station_id":"","pricing_plan_id":"cebpf4jnsgd1na2vs0mg"},{"bike_id":"c2fbe9c8-90b0-4e05-92d7-3507d48d097a","system_id":"levelo_inurba_marseille","lat":43.27179,"lon":5.40997,"is_reserved":false,"is_disabled":false,"rental_uris":{"android":"levelo://app?vid=c2fbe9c8-90b0-4e05-92d7-3507d48d097a","ios":"levelo://app?vid=c2fbe9c8-90b0-4e05-92d7-3507d48d097a"},"vehicle_type_id":"4","last_reported":1743095346,"current_range_meters":5600,"station_id":"ce4bhl12rcd13ifvqgf0","pricing_plan_id":"cebpf4jnsgd1na2vs0mg"},{"bike_id":"1dd765a9-64b4-439c-a196-df55419cc971","system_id":"levelo_inurba_marseille","lat":43.24152,"lon":5.36447,"is_reserved":false,"is_disabled":false,"rental_uris":{"android":"levelo://app?vid=1dd765a9-64b4-439c-a196-df55419cc971","ios":"levelo://app?vid=1dd765a9-64b4-439c-a196-df55419cc971"},"vehicle_type_id":"4","last_reported":1743095346,"current_range_meters":5600,"station_id":"cpo36qri1sfpv3e86is0","pricing_plan_id":"cebpf4jnsgd1na2vs0mg"},{"bike_id":"77a4a853-5ded-4efd-99b0-5cf5c02d5f76","system_id":"levelo_inurba_marseille","lat":43.284058,"lon":5.349814,"is_reserved":false,"is_disabled":false,"rental_uris":{"android":"levelo://app?vid=77a4a853-5ded-4efd-99b0-5cf5c02d5f76","ios":"levelo://app?vid=77a4a853-5ded-4efd-99b0-5cf5c02d5f76"},"vehicle_type_id":"4","last_reported":1743095346,"current_range_meters":6000,"station_id":"ce4bgrh2rcd13ifvqc8g","pricing_plan_id":"cebpf4jnsgd1na2vs0mg"},{"bike_id":"42ecab8a-3554-46f4-9a30-8db3af05ad8d","system_id":"levelo_inurba_marseille","lat":43.31681,"lon":5.40479,"is_reserved":false,"is_disabled":false,"rental_uris":{"android":"levelo://app?vid=42ecab8a-3554-46f4-9a30-8db3af05ad8d","ios":"levelo://app?vid=42ecab8a-3554-46f4-9a30-8db3af05ad8d"},"vehicle_type_id":"4","last_reported":1743095346,"current_range_meters":6000,"station_id":"ce4bh012rcd13ifvqd00","pricing_plan_id":"cebpf4jnsgd1na2vs0mg"},{"bike_id":"f2704b9c-c316-4f5f-9155-65f7581186ce","system_id":"levelo_inurba_marseille","lat":43.28038,"lon":5.36943,"is_reserved":false,"is_disabled":false,"rental_uris":{"android":"levelo://app?vid=f2704b9c-c316-4f5f-9155-65f7581186ce","ios":"levelo://app?vid=f2704b9c-c316-4f5f-9155-65f7581186ce"},"vehicle_type_id":"4","last_reported":1743095346,"current_range_meters":6000,"station_id":"ce4bha12rcd13ifvqef0","pricing_plan_id":"cebpf4jnsgd1na2vs0mg"},{"bike_id":"6623bcce-557f-4122-835c-6ecbd0c74040","system_id":"levelo_inurba_marseille","lat":43.28467,"lon":5.35887,"is_reserved":false,"is_disabled":false,"rental_uris":{"android":"levelo://app?vid=6623bcce-557f-4122-835c-6ecbd0c74040","ios":"levelo://app?vid=6623bcce-557f-4122-835c-6ecbd0c74040"},"vehicle_type_id":"4","last_reported":1743095346,"current_range_meters":6000,"station_id":"ce4bhah2rcd13ifvqei0","pricing_plan_id":"cebpf4jnsgd1na2vs0mg"},{"bike_id":"f09aa6b7-b356-43d4-bc57-96c1b5d9d36c","system_id":"levelo_inurba_marseille","lat":43.26197,"lon":5.37459,"is_reserved":false,"is_disabled":false,"rental_uris":{"android":"levelo://app?vid=f09aa6b7-b356-43d4-bc57-96c1b5d9d36c","ios":"levelo://app?vid=f09aa6b7-b356-43d4-bc57-96c1b5d9d36c"},"vehicle_type_id":"4","last_reported":1743095346,"current_range_meters":6000,"station_id":"ce4bhgp2rcd13ifvqfc0","pricing_plan_id":"cebpf4jnsgd1na2vs0mg"},{"bike_id":"3997ad04-0623-4884-94f4-93e0a8af9d3c","system_id":"levelo_inurba_marseille","lat":43.28079,"lon":5.39663,"is_reserved":false,"is_disabled":false,"rental_uris":{"android":"levelo://app?vid=3997ad04-0623-4884-94f4-93e0a8af9d3c","ios":"levelo://app?vid=3997ad04-0623-4884-94f4-93e0a8af9d3c"},"vehicle_type_id":"4","last_reported":1743095346,"current_range_meters":6000,"station_id":"ce4bho12rcd13ifvqh2g","pricing_plan_id":"cebpf4jnsgd1na2vs0mg"},{"bike_id":"1d82dbff-960b-48e5-a75f-2e69faba6d3e","system_id":"levelo_inurba_marseille","lat":43.23195,"lon":5.35558,"is_reserved":false,"is_disabled":false,"rental_uris":{"android":"levelo://app?vid=1d82dbff-960b-48e5-a75f-2e69faba6d3e","ios":"levelo://app?vid=1d82dbff-960b-48e5-a75f-2e69faba6d3e"},"vehicle_type_id":"4","last_reported":1743095346,"current_range_meters":6000,"station_id":"ce4bhu92rcd13ifvqi70","pricing_plan_id":"cebpf4jnsgd1na2vs0mg"},{"bike_id":"b0d562db-59d5-4cb7-9451-82f5f34b00ae","system_id":"levelo_inurba_marseille","lat":43.26944,"lon":5.40252,"is_reserved":false,"is_disabled":false,"rental_uris":{"android":"levelo://app?vid=b0d562db-59d5-4cb7-9451-82f5f34b00ae","ios":"levelo://app?vid=b0d562db-59d5-4cb7-9451-82f5f34b00ae"},"vehicle_type_id":"4","last_reported":1743095346,"current_range_meters":6000,"station_id":"cjm6bp8fraef2m0cb0m0","pricing_plan_id":"cebpf4jnsgd1na2vs0mg"},{"bike_id":"274aa545-2018-451a-b02c-2a8db726993f","system_id":"levelo_inurba_marseille","lat":43.29305,"lon":5.37166,"is_reserved":false,"is_disabled":false,"rental_uris":{"android":"levelo://app?vid=274aa545-2018-451a-b02c-2a8db726993f","ios":"levelo://app?vid=274aa545-2018-451a-b02c-2a8db726993f"},"vehicle_type_id":"4","last_reported":1743095346,"current_range_meters":6400,"station_id":"ce4bgh92rcd13ifvqb40","pricing_plan_id":"cebpf4jnsgd1na2vs0mg"},{"bike_id":"2cfea87b-04dc-407a-a59c-1f17621ea4f4","system_id":"levelo_inurba_marseille","lat":43.31125,"lon":5.37774,"is_reserved":false,"is_disabled":false,"rental_uris":{"android":"levelo://app?vid=2cfea87b-04dc-407a-a59c-1f17621ea4f4","ios":"levelo://app?vid=2cfea87b-04dc-407a-a59c-1f17621ea4f4"},"vehicle_type_id":"4","last_reported":1743095346,"current_range_meters":6400,"station_id":"ce4bgt92rcd13ifvqcg0","pricing_plan_id":"cebpf4jnsgd1na2vs0mg"},{"bike_id":"9a0604b9-bbbf-4b60-9581-9acbeb87a963","system_id":"levelo_inurba_marseille","lat":43.30464,"lon":5.37902,"is_reserved":false,"is_disabled":false,"rental_uris":{"android":"levelo://app?vid=9a0604b9-bbbf-4b60-9581-9acbeb87a963","ios":"levelo://app?vid=9a0604b9-bbbf-4b60-9581-9acbeb87a963"},"vehicle_type_id":"4","last_reported":1743095346,"current_range_meters":6400,"station_id":"ce4bgup2rcd13ifvqcn0","pricing_plan_id":"cebpf4jnsgd1na2vs0mg"},{"bike_id":"74780e9e-e9d4-4713-9612-faac58402c70","system_id":"levelo_inurba_marseille","lat":43.28409,"lon":5.34988,"is_reserved":false,"is_disabled":false,"rental_uris":{"android":"levelo://app?vid=74780e9e-e9d4-4713-9612-faac58402c70","ios":"levelo://app?vid=74780e9e-e9d4-4713-9612-faac58402c70"},"vehicle_type_id":"4","last_reported":1743095346,"current_range_meters":6400,"station_id":"ce4bhbh2rcd13ifvqepg","pricing_plan_id":"cebpf4jnsgd1na2vs0mg"},{"bike_id":"f7eca4d9-14d5-472a-a4f5-b2e2bf4f368e","system_id":"levelo_inurba_marseille","lat":43.28625,"lon":5.35112,"is_reserved":false,"is_disabled":false,"rental_uris":{"android":"levelo://app?vid=f7eca4d9-14d5-472a-a4f5-b2e2bf4f368e","ios":"levelo://app?vid=f7eca4d9-14d5-472a-a4f5-b2e2bf4f368e"},"vehicle_type_id":"4","last_reported":1743095346,"current_range_meters":6400,"station_id":"ce4bhch2rcd13ifvqeug","pricing_plan_id":"cebpf4jnsgd1na2vs0mg"},{"bike_id":"73a5c24b-23d2-4c1f-9d4d-711b4fc8f1a3","system_id":"levelo_inurba_marseille","lat":43.25584,"lon":5.3824,"is_reserved":false,"is_disabled":false,"rental_uris":{"android":"levelo://app?vid=73a5c24b-23d2-4c1f-9d4d-711b4fc8f1a3","ios":"levelo://app?vid=73a5c24b-23d2-4c1f-9d4d-711b4fc8f1a3"},"vehicle_type_id":"4","last_reported":1743095346,"current_range_meters":6400,"station_id":"ce4bhih2rcd13ifvqfs0","pricing_plan_id":"cebpf4jnsgd1na2vs0mg"},{"bike_id":"8f4c6599-c57c-47f3-b859-da4512b39b4a","system_id":"levelo_inurba_marseille","lat":43.30536,"lon":5.3653,"is_reserved":false,"is_disabled":false,"rental_uris":{"android":"levelo://app?vid=8f4c6599-c57c-47f3-b859-da4512b39b4a","ios":"levelo://app?vid=8f4c6599-c57c-47f3-b859-da4512b39b4a"},"vehicle_type_id":"4","last_reported":1743095346,"current_range_meters":6800,"station_id":"ce4bgs12rcd13ifvqcag","pricing_plan_id":"cebpf4jnsgd1na2vs0mg"},{"bike_id":"4216a71d-1a9f-4838-9f60-9a988caaeebc","system_id":"levelo_inurba_marseille","lat":43.283905,"lon":5.349947,"is_reserved":false,"is_disabled":false,"rental_uris":{"android":"levelo://app?vid=4216a71d-1a9f-4838-9f60-9a988caaeebc","ios":"levelo://app?vid=4216a71d-1a9f-4838-9f60-9a988caaeebc"},"vehicle_type_id":"4","last_reported":1743095346,"current_range_meters":6800,"station_id":"ce4bhbp2rcd13ifvqerg","pricing_plan_id":"cebpf4jnsgd1na2vs0mg"},{"bike_id":"9909698b-2726-42ef-a75a-24e460d5e183","system_id":"levelo_inurba_marseille","lat":43.24561,"lon":5.39525,"is_reserved":false,"is_disabled":false,"rental_uris":{"android":"levelo://app?vid=9909698b-2726-42ef-a75a-24e460d5e183","ios":"levelo://app?vid=9909698b-2726-42ef-a75a-24e460d5e183"},"vehicle_type_id":"4","last_reported":1743095346,"current_range_meters":6800,"station_id":"ce4bhlp2rcd13ifvqgjg","pricing_plan_id":"cebpf4jnsgd1na2vs0mg"},{"bike_id":"9b0db4f1-c6a1-4ca7-86c5-ec1daffe0ea2","system_id":"levelo_inurba_marseille","lat":43.25099,"lon":5.39533,"is_reserved":false,"is_disabled":false,"rental_uris":{"android":"levelo://app?vid=9b0db4f1-c6a1-4ca7-86c5-ec1daffe0ea2","ios":"levelo://app?vid=9b0db4f1-c6a1-4ca7-86c5-ec1daffe0ea2"},"vehicle_type_id":"4","last_reported":1743095346,"current_range_meters":6800,"station_id":"ce4bhm12rcd13ifvqgkg","pricing_plan_id":"cebpf4jnsgd1na2vs0mg"},{"bike_id":"dafb25e8-3a7f-4c5b-93e6-58112c4f8229","system_id":"levelo_inurba_marseille","lat":43.27811,"lon":5.40715,"is_reserved":false,"is_disabled":false,"rental_uris":{"android":"levelo://app?vid=dafb25e8-3a7f-4c5b-93e6-58112c4f8229","ios":"levelo://app?vid=dafb25e8-3a7f-4c5b-93e6-58112c4f8229"},"vehicle_type_id":"4","last_reported":1743095346,"current_range_meters":6800,"station_id":"ce4bhnh2rcd13ifvqgtg","pricing_plan_id":"cebpf4jnsgd1na2vs0mg"},{"bike_id":"84a7a785-5392-42bc-8088-fb903bcc7f5c","system_id":"levelo_inurba_marseille","lat":43.23051,"lon":5.35476,"is_reserved":false,"is_disabled":false,"rental_uris":{"android":"levelo://app?vid=84a7a785-5392-42bc-8088-fb903bcc7f5c","ios":"levelo://app?vid=84a7a785-5392-42bc-8088-fb903bcc7f5c"},"vehicle_type_id":"4","last_reported":1743095346,"current_range_meters":6800,"station_id":"cpo3342slgdg3j2ifvpg","pricing_plan_id":"cebpf4jnsgd1na2vs0mg"},{"bike_id":"85d0fa0c-b5b9-41cd-ba43-951901672dab","system_id":"levelo_inurba_marseille","lat":43.25593,"lon":5.38981,"is_reserved":false,"is_disabled":false,"rental_uris":{"android":"levelo://app?vid=85d0fa0c-b5b9-41cd-ba43-951901672dab","ios":"levelo://app?vid=85d0fa0c-b5b9-41cd-ba43-951901672dab"},"vehicle_type_id":"4","last_reported":1743095346,"current_range_meters":7200,"station_id":"","pricing_plan_id":"cebpf4jnsgd1na2vs0mg"},{"bike_id":"dc8ccdc9-a018-4504-b0a9-676297905591","system_id":"levelo_inurba_marseille","lat":43.29303,"lon":5.36975,"is_reserved":false,"is_disabled":false,"rental_uris":{"android":"levelo://app?vid=dc8ccdc9-a018-4504-b0a9-676297905591","ios":"levelo://app?vid=dc8ccdc9-a018-4504-b0a9-676297905591"},"vehicle_type_id":"4","last_reported":1743095346,"current_range_meters":7200,"station_id":"","pricing_plan_id":"cebpf4jnsgd1na2vs0mg"},{"bike_id":"14a39aa8-5384-4979-b3d0-6356904ea214","system_id":"levelo_inurba_marseille","lat":43.28567,"lon":5.39493,"is_reserved":false,"is_disabled":false,"rental_uris":{"android":"levelo://app?vid=14a39aa8-5384-4979-b3d0-6356904ea214","ios":"levelo://app?vid=14a39aa8-5384-4979-b3d0-6356904ea214"},"vehicle_type_id":"4","last_reported":1743095346,"current_range_meters":7200,"station_id":"ce4bh292rcd13ifvqdg0","pricing_plan_id":"cebpf4jnsgd1na2vs0mg"},{"bike_id":"02753796-d5d2-448d-afd6-da0835448fc5","system_id":"levelo_inurba_marseille","lat":43.29007,"lon":5.35617,"is_reserved":false,"is_disabled":false,"rental_uris":{"android":"levelo://app?vid=02753796-d5d2-448d-afd6-da0835448fc5","ios":"levelo://app?vid=02753796-d5d2-448d-afd6-da0835448fc5"},"vehicle_type_id":"4","last_reported":1743095346,"current_range_meters":7200,"station_id":"ce4bhb92rcd13ifvqen0","pricing_plan_id":"cebpf4jnsgd1na2vs0mg"},{"bike_id":"23ed1e23-d777-47a9-9201-c7a672d41805","system_id":"levelo_inurba_marseille","lat":43.28934,"lon":5.36393,"is_reserved":false,"is_disabled":false,"rental_uris":{"android":"levelo://app?vid=23ed1e23-d777-47a9-9201-c7a672d41805","ios":"levelo://app?vid=23ed1e23-d777-47a9-9201-c7a672d41805"},"vehicle_type_id":"4","last_reported":1743095346,"current_range_meters":7200,"station_id":"ce4bhc92rcd13ifvqetg","pricing_plan_id":"cebpf4jnsgd1na2vs0mg"},{"bike_id":"54f794e2-81b6-4b49-9936-b26dda45ef9a","system_id":"levelo_inurba_marseille","lat":43.26786,"lon":5.39414,"is_reserved":false,"is_disabled":false,"rental_uris":{"android":"levelo://app?vid=54f794e2-81b6-4b49-9936-b26dda45ef9a","ios":"levelo://app?vid=54f794e2-81b6-4b49-9936-b26dda45ef9a"},"vehicle_type_id":"4","last_reported":1743095346,"current_range_meters":7200,"station_id":"ce4bhh12rcd13ifvqfg0","pricing_plan_id":"cebpf4jnsgd1na2vs0mg"},{"bike_id":"faf9c11b-bbb3-4748-ae14-def7239e485d","system_id":"levelo_inurba_marseille","lat":43.27045,"lon":5.40259,"is_reserved":false,"is_disabled":false,"rental_uris":{"android":"levelo://app?vid=faf9c11b-bbb3-4748-ae14-def7239e485d","ios":"levelo://app?vid=faf9c11b-bbb3-4748-ae14-def7239e485d"},"vehicle_type_id":"4","last_reported":1743095346,"current_range_meters":7200,"station_id":"ce4bhk92rcd13ifvqgc0","pricing_plan_id":"cebpf4jnsgd1na2vs0mg"},{"bike_id":"795063b1-bbcb-4106-a9e7-6aa8fb383fb3","system_id":"levelo_inurba_marseille","lat":43.28164,"lon":5.42657,"is_reserved":false,"is_disabled":false,"rental_uris":{"android":"levelo://app?vid=795063b1-bbcb-4106-a9e7-6aa8fb383fb3","ios":"levelo://app?vid=795063b1-bbcb-4106-a9e7-6aa8fb383fb3"},"vehicle_type_id":"4","last_reported":1743095346,"current_range_meters":7200,"station_id":"ce4bhnh2rcd13ifvqgug","pricing_plan_id":"cebpf4jnsgd1na2vs0mg"},{"bike_id":"f43662ee-c720-4d57-a460-0de05ea9047c","system_id":"levelo_inurba_marseille","lat":43.32369,"lon":5.38888,"is_reserved":false,"is_disabled":false,"rental_uris":{"android":"levelo://app?vid=f43662ee-c720-4d57-a460-0de05ea9047c","ios":"levelo://app?vid=f43662ee-c720-4d57-a460-0de05ea9047c"},"vehicle_type_id":"4","last_reported":1743095346,"current_range_meters":7200,"station_id":"ce4bhqp2rcd13ifvqhog","pricing_plan_id":"cebpf4jnsgd1na2vs0mg"},{"bike_id":"745db27b-7d09-42e9-857e-1a3c13cd5302","system_id":"levelo_inurba_marseille","lat":43.23195,"lon":5.35553,"is_reserved":false,"is_disabled":false,"rental_uris":{"android":"levelo://app?vid=745db27b-7d09-42e9-857e-1a3c13cd5302","ios":"levelo://app?vid=745db27b-7d09-42e9-857e-1a3c13cd5302"},"vehicle_type_id":"4","last_reported":1743095346,"current_range_meters":7200,"station_id":"ce4bhu92rcd13ifvqi70","pricing_plan_id":"cebpf4jnsgd1na2vs0mg"},{"bike_id":"cd6683f8-bc17-4817-8da3-5a099b5c207d","system_id":"levelo_inurba_marseille","lat":43.295349,"lon":5.385531,"is_reserved":false,"is_disabled":false,"rental_uris":{"android":"levelo://app?vid=cd6683f8-bc17-4817-8da3-5a099b5c207d","ios":"levelo://app?vid=cd6683f8-bc17-4817-8da3-5a099b5c207d"},"vehicle_type_id":"4","last_reported":1743095346,"current_range_meters":8000,"station_id":"ce4bgih2rcd13ifvqba0","pricing_plan_id":"cebpf4jnsgd1na2vs0mg"},{"bike_id":"05b1db4b-2100-443a-90fc-5e80a9d7a995","system_id":"levelo_inurba_marseille","lat":43.30644,"lon":5.4009,"is_reserved":false,"is_disabled":false,"rental_uris":{"android":"levelo://app?vid=05b1db4b-2100-443a-90fc-5e80a9d7a995","ios":"levelo://app?vid=05b1db4b-2100-443a-90fc-5e80a9d7a995"},"vehicle_type_id":"4","last_reported":1743095346,"current_range_meters":8000,"station_id":"ce4bh112rcd13ifvqda0","pricing_plan_id":"cebpf4jnsgd1na2vs0mg"},{"bike_id":"b311c4db-a3a1-42f1-8f58-3268b79d21a1","system_id":"levelo_inurba_marseille","lat":43.29522,"lon":5.394,"is_reserved":false,"is_disabled":false,"rental_uris":{"android":"levelo://app?vid=b311c4db-a3a1-42f1-8f58-3268b79d21a1","ios":"levelo://app?vid=b311c4db-a3a1-42f1-8f58-3268b79d21a1"},"vehicle_type_id":"4","last_reported":1743095346,"current_range_meters":8000,"station_id":"ce4bh292rcd13ifvqdf0","pricing_plan_id":"cebpf4jnsgd1na2vs0mg"},{"bike_id":"5795013b-1873-4138-934c-4f7bc8bec104","system_id":"levelo_inurba_marseille","lat":43.287,"lon":5.37396,"is_reserved":false,"is_disabled":false,"rental_uris":{"android":"levelo://app?vid=5795013b-1873-4138-934c-4f7bc8bec104","ios":"levelo://app?vid=5795013b-1873-4138-934c-4f7bc8bec104"},"vehicle_type_id":"4","last_reported":1743095346,"current_range_meters":8000,"station_id":"ce4bh3p2rcd13ifvqdq0","pricing_plan_id":"cebpf4jnsgd1na2vs0mg"},{"bike_id":"40046afd-c6aa-43ea-88bd-183a4d2ec61c","system_id":"levelo_inurba_marseille","lat":43.31612,"lon":5.41678,"is_reserved":false,"is_disabled":false,"rental_uris":{"android":"levelo://app?vid=40046afd-c6aa-43ea-88bd-183a4d2ec61c","ios":"levelo://app?vid=40046afd-c6aa-43ea-88bd-183a4d2ec61c"},"vehicle_type_id":"4","last_reported":1743095346,"current_range_meters":8400,"station_id":"","pricing_plan_id":"cebpf4jnsgd1na2vs0mg"},{"bike_id":"98180212-313d-4361-8ae1-597c53b07c0f","system_id":"levelo_inurba_marseille","lat":43.30156,"lon":5.3991,"is_reserved":false,"is_disabled":false,"rental_uris":{"android":"levelo://app?vid=98180212-313d-4361-8ae1-597c53b07c0f","ios":"levelo://app?vid=98180212-313d-4361-8ae1-597c53b07c0f"},"vehicle_type_id":"4","last_reported":1743095346,"current_range_meters":8400,"station_id":"","pricing_plan_id":"cebpf4jnsgd1na2vs0mg"},{"bike_id":"70f3c3b8-b082-4ba5-9beb-fe4585e10321","system_id":"levelo_inurba_marseille","lat":43.29311,"lon":5.3747,"is_reserved":false,"is_disabled":false,"rental_uris":{"android":"levelo://app?vid=70f3c3b8-b082-4ba5-9beb-fe4585e10321","ios":"levelo://app?vid=70f3c3b8-b082-4ba5-9beb-fe4585e10321"},"vehicle_type_id":"4","last_reported":1743095346,"current_range_meters":8400,"station_id":"ce4bgi12rcd13ifvqb70","pricing_plan_id":"cebpf4jnsgd1na2vs0mg"},{"bike_id":"f713832f-b01a-435f-8f68-97d6ff84c105","system_id":"levelo_inurba_marseille","lat":43.29792,"lon":5.37102,"is_reserved":false,"is_disabled":false,"rental_uris":{"android":"levelo://app?vid=f713832f-b01a-435f-8f68-97d6ff84c105","ios":"levelo://app?vid=f713832f-b01a-435f-8f68-97d6ff84c105"},"vehicle_type_id":"4","last_reported":1743095346,"current_range_meters":8400,"station_id":"ce4bgop2rcd13ifvqc1g","pricing_plan_id":"cebpf4jnsgd1na2vs0mg"},{"bike_id":"0c9a5810-cebf-4de9-899a-7d014fdf010f","system_id":"levelo_inurba_marseille","lat":43.30936,"lon":5.40147,"is_reserved":false,"is_disabled":false,"rental_uris":{"android":"levelo://app?vid=0c9a5810-cebf-4de9-899a-7d014fdf010f","ios":"levelo://app?vid=0c9a5810-cebf-4de9-899a-7d014fdf010f"},"vehicle_type_id":"4","last_reported":1743095346,"current_range_meters":8400,"station_id":"ce4bgvp2rcd13ifvqct0","pricing_plan_id":"cebpf4jnsgd1na2vs0mg"},{"bike_id":"53104d84-f272-4d64-b5a3-da94aa38f8f7","system_id":"levelo_inurba_marseille","lat":43.30212,"lon":5.39488,"is_reserved":false,"is_disabled":false,"rental_uris":{"android":"levelo://app?vid=53104d84-f272-4d64-b5a3-da94aa38f8f7","ios":"levelo://app?vid=53104d84-f272-4d64-b5a3-da94aa38f8f7"},"vehicle_type_id":"4","last_reported":1743095346,"current_range_meters":8400,"station_id":"ce4bh0p2rcd13ifvqd70","pricing_plan_id":"cebpf4jnsgd1na2vs0mg"},{"bike_id":"6fc64aad-5e91-4524-bac3-4c3389de88f0","system_id":"levelo_inurba_marseille","lat":43.28668,"lon":5.36347,"is_reserved":false,"is_disabled":false,"rental_uris":{"android":"levelo://app?vid=6fc64aad-5e91-4524-bac3-4c3389de88f0","ios":"levelo://app?vid=6fc64aad-5e91-4524-bac3-4c3389de88f0"},"vehicle_type_id":"4","last_reported":1743095346,"current_range_meters":8400,"station_id":"ce4bhah2rcd13ifvqej0","pricing_plan_id":"cebpf4jnsgd1na2vs0mg"},{"bike_id":"a01706a8-35a2-465f-8bde-5fb0fcc97e37","system_id":"levelo_inurba_marseille","lat":43.295624,"lon":5.375305,"is_reserved":false,"is_disabled":false,"rental_uris":{"android":"levelo://app?vid=a01706a8-35a2-465f-8bde-5fb0fcc97e37","ios":"levelo://app?vid=a01706a8-35a2-465f-8bde-5fb0fcc97e37"},"vehicle_type_id":"4","last_reported":1743095346,"current_range_meters":8400,"station_id":"ce4bhb92rcd13ifvqen0","pricing_plan_id":"cebpf4jnsgd1na2vs0mg"},{"bike_id":"3378a612-ac87-4e48-9986-7f32f173b615","system_id":"levelo_inurba_marseille","lat":43.27899,"lon":5.38015,"is_reserved":false,"is_disabled":false,"rental_uris":{"android":"levelo://app?vid=3378a612-ac87-4e48-9986-7f32f173b615","ios":"levelo://app?vid=3378a612-ac87-4e48-9986-7f32f173b615"},"vehicle_type_id":"4","last_reported":1743095346,"current_range_meters":8400,"station_id":"ce4bhf92rcd13ifvqf50","pricing_plan_id":"cebpf4jnsgd1na2vs0mg"},{"bike_id":"169d7fcf-280d-4645-acdf-db059c46d533","system_id":"levelo_inurba_marseille","lat":43.23966,"lon":5.36633,"is_reserved":false,"is_disabled":false,"rental_uris":{"android":"levelo://app?vid=169d7fcf-280d-4645-acdf-db059c46d533","ios":"levelo://app?vid=169d7fcf-280d-4645-acdf-db059c46d533"},"vehicle_type_id":"4","last_reported":1743095346,"current_range_meters":8400,"station_id":"ce4bhi12rcd13ifvqfp0","pricing_plan_id":"cebpf4jnsgd1na2vs0mg"},{"bike_id":"72407b9c-71b7-4feb-83e9-97e5f2a36163","system_id":"levelo_inurba_marseille","lat":43.2417,"lon":5.36367,"is_reserved":false,"is_disabled":false,"rental_uris":{"android":"levelo://app?vid=72407b9c-71b7-4feb-83e9-97e5f2a36163","ios":"levelo://app?vid=72407b9c-71b7-4feb-83e9-97e5f2a36163"},"vehicle_type_id":"4","last_reported":1743095346,"current_range_meters":8400,"station_id":"cpo36qri1sfpv3e86is0","pricing_plan_id":"cebpf4jnsgd1na2vs0mg"},{"bike_id":"2745ee60-b9e1-4b96-8050-3bfb0f6ad5c3","system_id":"levelo_inurba_marseille","lat":43.30433,"lon":5.38883,"is_reserved":false,"is_disabled":false,"rental_uris":{"android":"levelo://app?vid=2745ee60-b9e1-4b96-8050-3bfb0f6ad5c3","ios":"levelo://app?vid=2745ee60-b9e1-4b96-8050-3bfb0f6ad5c3"},"vehicle_type_id":"4","last_reported":1743095346,"current_range_meters":8800,"station_id":"ce4bgk12rcd13ifvqbi0","pricing_plan_id":"cebpf4jnsgd1na2vs0mg"},{"bike_id":"445df0e3-839d-4e9a-be0b-2d116def36d6","system_id":"levelo_inurba_marseille","lat":43.29714,"lon":5.36602,"is_reserved":false,"is_disabled":false,"rental_uris":{"android":"levelo://app?vid=445df0e3-839d-4e9a-be0b-2d116def36d6","ios":"levelo://app?vid=445df0e3-839d-4e9a-be0b-2d116def36d6"},"vehicle_type_id":"4","last_reported":1743095346,"current_range_meters":8800,"station_id":"ce4bgn12rcd13ifvqbt0","pricing_plan_id":"cebpf4jnsgd1na2vs0mg"},{"bike_id":"a0aa2b66-8d81-4f41-ae27-5d11fde4f918","system_id":"levelo_inurba_marseille","lat":43.284202,"lon":5.34992,"is_reserved":false,"is_disabled":false,"rental_uris":{"android":"levelo://app?vid=a0aa2b66-8d81-4f41-ae27-5d11fde4f918","ios":"levelo://app?vid=a0aa2b66-8d81-4f41-ae27-5d11fde4f918"},"vehicle_type_id":"4","last_reported":1743095346,"current_range_meters":8800,"station_id":"ce4bhbh2rcd13ifvqepg","pricing_plan_id":"cebpf4jnsgd1na2vs0mg"},{"bike_id":"183941f1-f07c-4eed-b75d-bb0d6ce759b3","system_id":"levelo_inurba_marseille","lat":43.265649,"lon":5.390172,"is_reserved":false,"is_disabled":false,"rental_uris":{"android":"levelo://app?vid=183941f1-f07c-4eed-b75d-bb0d6ce759b3","ios":"levelo://app?vid=183941f1-f07c-4eed-b75d-bb0d6ce759b3"},"vehicle_type_id":"4","last_reported":1743095346,"current_range_meters":8800,"station_id":"ce4bhh92rcd13ifvqfh0","pricing_plan_id":"cebpf4jnsgd1na2vs0mg"},{"bike_id":"46b45cc7-16c8-4d86-af8d-51a855667127","system_id":"levelo_inurba_marseille","lat":43.29913,"lon":5.3809,"is_reserved":false,"is_disabled":false,"rental_uris":{"android":"levelo://app?vid=46b45cc7-16c8-4d86-af8d-51a855667127","ios":"levelo://app?vid=46b45cc7-16c8-4d86-af8d-51a855667127"},"vehicle_type_id":"4","last_reported":1743095346,"current_range_meters":9200,"station_id":"","pricing_plan_id":"cebpf4jnsgd1na2vs0mg"},{"bike_id":"d2554b2d-e241-444c-a752-9df959f80b1a","system_id":"levelo_inurba_marseille","lat":43.31108,"lon":5.37803,"is_reserved":false,"is_disabled":false,"rental_uris":{"android":"levelo://app?vid=d2554b2d-e241-444c-a752-9df959f80b1a","ios":"levelo://app?vid=d2554b2d-e241-444c-a752-9df959f80b1a"},"vehicle_type_id":"4","last_reported":1743095346,"current_range_meters":9200,"station_id":"ce4bgt92rcd13ifvqcg0","pricing_plan_id":"cebpf4jnsgd1na2vs0mg"},{"bike_id":"7a243ddc-5526-4d4d-b7ca-9672baa3a32c","system_id":"levelo_inurba_marseille","lat":43.25121,"lon":5.40321,"is_reserved":false,"is_disabled":false,"rental_uris":{"android":"levelo://app?vid=7a243ddc-5526-4d4d-b7ca-9672baa3a32c","ios":"levelo://app?vid=7a243ddc-5526-4d4d-b7ca-9672baa3a32c"},"vehicle_type_id":"4","last_reported":1743095346,"current_range_meters":9200,"station_id":"ce4bhlh2rcd13ifvqgig","pricing_plan_id":"cebpf4jnsgd1na2vs0mg"},{"bike_id":"370669e1-a28f-4d18-9e7c-43dfbbad498e","system_id":"levelo_inurba_marseille","lat":43.2418,"lon":5.39732,"is_reserved":false,"is_disabled":false,"rental_uris":{"android":"levelo://app?vid=370669e1-a28f-4d18-9e7c-43dfbbad498e","ios":"levelo://app?vid=370669e1-a28f-4d18-9e7c-43dfbbad498e"},"vehicle_type_id":"4","last_reported":1743095346,"current_range_meters":9200,"station_id":"ce4bhn12rcd13ifvqgpg","pricing_plan_id":"cebpf4jnsgd1na2vs0mg"},{"bike_id":"beee8971-dcf9-4266-924d-870633a8e819","system_id":"levelo_inurba_marseille","lat":43.30417,"lon":5.41292,"is_reserved":false,"is_disabled":false,"rental_uris":{"android":"levelo://app?vid=beee8971-dcf9-4266-924d-870633a8e819","ios":"levelo://app?vid=beee8971-dcf9-4266-924d-870633a8e819"},"vehicle_type_id":"4","last_reported":1743095346,"current_range_meters":9200,"station_id":"ce4bhop2rcd13ifvqh8g","pricing_plan_id":"cebpf4jnsgd1na2vs0mg"},{"bike_id":"c18155db-65c7-4d5a-8c5b-923eb75c675d","system_id":"levelo_inurba_marseille","lat":43.32109,"lon":5.36778,"is_reserved":false,"is_disabled":false,"rental_uris":{"android":"levelo://app?vid=c18155db-65c7-4d5a-8c5b-923eb75c675d","ios":"levelo://app?vid=c18155db-65c7-4d5a-8c5b-923eb75c675d"},"vehicle_type_id":"4","last_reported":1743095346,"current_range_meters":9200,"station_id":"ce4bhrh2rcd13ifvqhug","pricing_plan_id":"cebpf4jnsgd1na2vs0mg"},{"bike_id":"4fdf5319-cf21-4032-8115-ee291f651fab","system_id":"levelo_inurba_marseille","lat":43.29536,"lon":5.39024,"is_reserved":false,"is_disabled":false,"rental_uris":{"android":"levelo://app?vid=4fdf5319-cf21-4032-8115-ee291f651fab","ios":"levelo://app?vid=4fdf5319-cf21-4032-8115-ee291f651fab"},"vehicle_type_id":"4","last_reported":1743095346,"current_range_meters":9600,"station_id":"ce4bh3p2rcd13ifvqdp0","pricing_plan_id":"cebpf4jnsgd1na2vs0mg"},{"bike_id":"62b7cb5a-a6ca-4d4f-857b-57cb8d921c79","system_id":"levelo_inurba_marseille","lat":43.28944,"lon":5.36642,"is_reserved":false,"is_disabled":false,"rental_uris":{"android":"levelo://app?vid=62b7cb5a-a6ca-4d4f-857b-57cb8d921c79","ios":"levelo://app?vid=62b7cb5a-a6ca-4d4f-857b-57cb8d921c79"},"vehicle_type_id":"4","last_reported":1743095346,"current_range_meters":9600,"station_id":"ce4bhap2rcd13ifvqek0","pricing_plan_id":"cebpf4jnsgd1na2vs0mg"},{"bike_id":"b1136019-eed5-4b7d-bcb6-3ae6f2fb69cd","system_id":"levelo_inurba_marseille","lat":43.29224,"lon":5.36064,"is_reserved":false,"is_disabled":false,"rental_uris":{"android":"levelo://app?vid=b1136019-eed5-4b7d-bcb6-3ae6f2fb69cd","ios":"levelo://app?vid=b1136019-eed5-4b7d-bcb6-3ae6f2fb69cd"},"vehicle_type_id":"4","last_reported":1743095346,"current_range_meters":9600,"station_id":"ce4bhbh2rcd13ifvqeqg","pricing_plan_id":"cebpf4jnsgd1na2vs0mg"},{"bike_id":"20e011e7-a0bb-4e0d-8926-e9642c329ce8","system_id":"levelo_inurba_marseille","lat":43.28929,"lon":5.36397,"is_reserved":false,"is_disabled":false,"rental_uris":{"android":"levelo://app?vid=20e011e7-a0bb-4e0d-8926-e9642c329ce8","ios":"levelo://app?vid=20e011e7-a0bb-4e0d-8926-e9642c329ce8"},"vehicle_type_id":"4","last_reported":1743095346,"current_range_meters":9600,"station_id":"ce4bhc92rcd13ifvqetg","pricing_plan_id":"cebpf4jnsgd1na2vs0mg"},{"bike_id":"a3cd34e6-6ad7-406b-9860-be1f53a9a5e6","system_id":"levelo_inurba_marseille","lat":43.28612,"lon":5.3512,"is_reserved":false,"is_disabled":false,"rental_uris":{"android":"levelo://app?vid=a3cd34e6-6ad7-406b-9860-be1f53a9a5e6","ios":"levelo://app?vid=a3cd34e6-6ad7-406b-9860-be1f53a9a5e6"},"vehicle_type_id":"4","last_reported":1743095346,"current_range_meters":9600,"station_id":"ce4bhch2rcd13ifvqeug","pricing_plan_id":"cebpf4jnsgd1na2vs0mg"},{"bike_id":"5673c469-103f-4ff9-b0d7-f1d2e91e8c5d","system_id":"levelo_inurba_marseille","lat":43.24662,"lon":5.38188,"is_reserved":false,"is_disabled":false,"rental_uris":{"android":"levelo://app?vid=5673c469-103f-4ff9-b0d7-f1d2e91e8c5d","ios":"levelo://app?vid=5673c469-103f-4ff9-b0d7-f1d2e91e8c5d"},"vehicle_type_id":"4","last_reported":1743095346,"current_range_meters":9600,"station_id":"ce4bhih2rcd13ifvqfr0","pricing_plan_id":"cebpf4jnsgd1na2vs0mg"},{"bike_id":"f31a186f-d2ae-4a4a-90d7-936dc041d0d3","system_id":"levelo_inurba_marseille","lat":43.27489,"lon":5.42465,"is_reserved":false,"is_disabled":false,"rental_uris":{"android":"levelo://app?vid=f31a186f-d2ae-4a4a-90d7-936dc041d0d3","ios":"levelo://app?vid=f31a186f-d2ae-4a4a-90d7-936dc041d0d3"},"vehicle_type_id":"4","last_reported":1743095346,"current_range_meters":9600,"station_id":"ce4bhn92rcd13ifvqgrg","pricing_plan_id":"cebpf4jnsgd1na2vs0mg"},{"bike_id":"96504045-100a-468c-8897-360fb4c19832","system_id":"levelo_inurba_marseille","lat":43.2782,"lon":5.40726,"is_reserved":false,"is_disabled":false,"rental_uris":{"android":"levelo://app?vid=96504045-100a-468c-8897-360fb4c19832","ios":"levelo://app?vid=96504045-100a-468c-8897-360fb4c19832"},"vehicle_type_id":"4","last_reported":1743095346,"current_range_meters":9600,"station_id":"ce4bhnh2rcd13ifvqgtg","pricing_plan_id":"cebpf4jnsgd1na2vs0mg"},{"bike_id":"62e1d553-f2e8-4b59-810a-0760a16f830f","system_id":"levelo_inurba_marseille","lat":43.31883,"lon":5.40729,"is_reserved":false,"is_disabled":false,"rental_uris":{"android":"levelo://app?vid=62e1d553-f2e8-4b59-810a-0760a16f830f","ios":"levelo://app?vid=62e1d553-f2e8-4b59-810a-0760a16f830f"},"vehicle_type_id":"4","last_reported":1743095346,"current_range_meters":9600,"station_id":"ce4bhq12rcd13ifvqhig","pricing_plan_id":"cebpf4jnsgd1na2vs0mg"},{"bike_id":"190950c8-47ae-4e4a-b325-c03e17e1c12c","system_id":"levelo_inurba_marseille","lat":43.26817,"lon":5.402615,"is_reserved":false,"is_disabled":false,"rental_uris":{"android":"levelo://app?vid=190950c8-47ae-4e4a-b325-c03e17e1c12c","ios":"levelo://app?vid=190950c8-47ae-4e4a-b325-c03e17e1c12c"},"vehicle_type_id":"4","last_reported":1743095346,"current_range_meters":9600,"station_id":"ce501612rcd8frsf0b60","pricing_plan_id":"cebpf4jnsgd1na2vs0mg"},{"bike_id":"6e3a7722-fea6-42b0-80c4-0e8b494e3ed7","system_id":"levelo_inurba_marseille","lat":43.29532,"lon":5.39318,"is_reserved":false,"is_disabled":false,"rental_uris":{"android":"levelo://app?vid=6e3a7722-fea6-42b0-80c4-0e8b494e3ed7","ios":"levelo://app?vid=6e3a7722-fea6-42b0-80c4-0e8b494e3ed7"},"vehicle_type_id":"4","last_reported":1743095346,"current_range_meters":10000,"station_id":"","pricing_plan_id":"cebpf4jnsgd1na2vs0mg"},{"bike_id":"e5047771-2082-4dba-9477-d8725027152d","system_id":"levelo_inurba_marseille","lat":43.25468,"lon":5.41879,"is_reserved":false,"is_disabled":false,"rental_uris":{"android":"levelo://app?vid=e5047771-2082-4dba-9477-d8725027152d","ios":"levelo://app?vid=e5047771-2082-4dba-9477-d8725027152d"},"vehicle_type_id":"4","last_reported":1743095346,"current_range_meters":10000,"station_id":"","pricing_plan_id":"cebpf4jnsgd1na2vs0mg"},{"bike_id":"b7df044c-a420-415e-b7b7-345aa8eb07fc","system_id":"levelo_inurba_marseille","lat":43.31859,"lon":5.38855,"is_reserved":false,"is_disabled":false,"rental_uris":{"android":"levelo://app?vid=b7df044c-a420-415e-b7b7-345aa8eb07fc","ios":"levelo://app?vid=b7df044c-a420-415e-b7b7-345aa8eb07fc"},"vehicle_type_id":"4","last_reported":1743095346,"current_range_meters":10000,"station_id":"","pricing_plan_id":"cebpf4jnsgd1na2vs0mg"},{"bike_id":"4359ee4e-99f7-462e-9120-0f32d1af0f1b","system_id":"levelo_inurba_marseille","lat":43.294159,"lon":5.386241,"is_reserved":false,"is_disabled":false,"rental_uris":{"android":"levelo://app?vid=4359ee4e-99f7-462e-9120-0f32d1af0f1b","ios":"levelo://app?vid=4359ee4e-99f7-462e-9120-0f32d1af0f1b"},"vehicle_type_id":"4","last_reported":1743095346,"current_range_meters":10000,"station_id":"ce4bh2h2rcd13ifvqdh0","pricing_plan_id":"cebpf4jnsgd1na2vs0mg"},{"bike_id":"8ab00d8e-9ae6-491e-9b71-971181b17b33","system_id":"levelo_inurba_marseille","lat":43.28663,"lon":5.36345,"is_reserved":false,"is_disabled":false,"rental_uris":{"android":"levelo://app?vid=8ab00d8e-9ae6-491e-9b71-971181b17b33","ios":"levelo://app?vid=8ab00d8e-9ae6-491e-9b71-971181b17b33"},"vehicle_type_id":"4","last_reported":1743095346,"current_range_meters":10000,"station_id":"ce4bhah2rcd13ifvqej0","pricing_plan_id":"cebpf4jnsgd1na2vs0mg"},{"bike_id":"4abd9af2-5f98-4b47-b1ae-766df2d1c200","system_id":"levelo_inurba_marseille","lat":43.286163,"lon":5.351117,"is_reserved":false,"is_disabled":false,"rental_uris":{"android":"levelo://app?vid=4abd9af2-5f98-4b47-b1ae-766df2d1c200","ios":"levelo://app?vid=4abd9af2-5f98-4b47-b1ae-766df2d1c200"},"vehicle_type_id":"4","last_reported":1743095346,"current_range_meters":10000,"station_id":"ce4bhch2rcd13ifvqeug","pricing_plan_id":"cebpf4jnsgd1na2vs0mg"},{"bike_id":"3a9bdcca-abab-46db-a40a-336182c98f57","system_id":"levelo_inurba_marseille","lat":43.27813,"lon":5.40736,"is_reserved":false,"is_disabled":false,"rental_uris":{"android":"levelo://app?vid=3a9bdcca-abab-46db-a40a-336182c98f57","ios":"levelo://app?vid=3a9bdcca-abab-46db-a40a-336182c98f57"},"vehicle_type_id":"4","last_reported":1743095346,"current_range_meters":10000,"station_id":"ce4bhnh2rcd13ifvqgtg","pricing_plan_id":"cebpf4jnsgd1na2vs0mg"},{"bike_id":"2079e143-15fb-4fca-b428-1dcdbd2da2aa","system_id":"levelo_inurba_marseille","lat":43.27823,"lon":5.40726,"is_reserved":false,"is_disabled":false,"rental_uris":{"android":"levelo://app?vid=2079e143-15fb-4fca-b428-1dcdbd2da2aa","ios":"levelo://app?vid=2079e143-15fb-4fca-b428-1dcdbd2da2aa"},"vehicle_type_id":"4","last_reported":1743095346,"current_range_meters":10000,"station_id":"ce4bhnh2rcd13ifvqgtg","pricing_plan_id":"cebpf4jnsgd1na2vs0mg"},{"bike_id":"b128b845-cdf8-4e84-bb32-fb93f1c27697","system_id":"levelo_inurba_marseille","lat":43.28158,"lon":5.42637,"is_reserved":false,"is_disabled":false,"rental_uris":{"android":"levelo://app?vid=b128b845-cdf8-4e84-bb32-fb93f1c27697","ios":"levelo://app?vid=b128b845-cdf8-4e84-bb32-fb93f1c27697"},"vehicle_type_id":"4","last_reported":1743095346,"current_range_meters":10000,"station_id":"ce4bhnh2rcd13ifvqgug","pricing_plan_id":"cebpf4jnsgd1na2vs0mg"},{"bike_id":"bc205286-55d6-4eb7-ac85-de2316e11241","system_id":"levelo_inurba_marseille","lat":43.32114,"lon":5.36766,"is_reserved":false,"is_disabled":false,"rental_uris":{"android":"levelo://app?vid=bc205286-55d6-4eb7-ac85-de2316e11241","ios":"levelo://app?vid=bc205286-55d6-4eb7-ac85-de2316e11241"},"vehicle_type_id":"4","last_reported":1743095346,"current_range_meters":10000,"station_id":"ce4bhrh2rcd13ifvqhug","pricing_plan_id":"cebpf4jnsgd1na2vs0mg"},{"bike_id":"0ac88cdf-dd3a-494f-aaa5-2b24d1ce393f","system_id":"levelo_inurba_marseille","lat":43.23193,"lon":5.35557,"is_reserved":false,"is_disabled":false,"rental_uris":{"android":"levelo://app?vid=0ac88cdf-dd3a-494f-aaa5-2b24d1ce393f","ios":"levelo://app?vid=0ac88cdf-dd3a-494f-aaa5-2b24d1ce393f"},"vehicle_type_id":"4","last_reported":1743095346,"current_range_meters":10000,"station_id":"ce4bhu92rcd13ifvqi70","pricing_plan_id":"cebpf4jnsgd1na2vs0mg"},{"bike_id":"25c93242-72e6-4525-aea7-7d96e2cd1825","system_id":"levelo_inurba_marseille","lat":43.330749,"lon":5.408301,"is_reserved":false,"is_disabled":false,"rental_uris":{"android":"levelo://app?vid=25c93242-72e6-4525-aea7-7d96e2cd1825","ios":"levelo://app?vid=25c93242-72e6-4525-aea7-7d96e2cd1825"},"vehicle_type_id":"4","last_reported":1743095346,"current_range_meters":10800,"station_id":"","pricing_plan_id":"cebpf4jnsgd1na2vs0mg"},{"bike_id":"f9a0f659-e575-4cc8-a4c8-4208dc897c91","system_id":"levelo_inurba_marseille","lat":43.31028,"lon":5.372215,"is_reserved":false,"is_disabled":false,"rental_uris":{"android":"levelo://app?vid=f9a0f659-e575-4cc8-a4c8-4208dc897c91","ios":"levelo://app?vid=f9a0f659-e575-4cc8-a4c8-4208dc897c91"},"vehicle_type_id":"4","last_reported":1743095346,"current_range_meters":10800,"station_id":"","pricing_plan_id":"cebpf4jnsgd1na2vs0mg"},{"bike_id":"7f5840c3-b00b-4635-bba0-cb0014b6e066","system_id":"levelo_inurba_marseille","lat":43.30543,"lon":5.38425,"is_reserved":false,"is_disabled":false,"rental_uris":{"android":"levelo://app?vid=7f5840c3-b00b-4635-bba0-cb0014b6e066","ios":"levelo://app?vid=7f5840c3-b00b-4635-bba0-cb0014b6e066"},"vehicle_type_id":"4","last_reported":1743095346,"current_range_meters":10800,"station_id":"ce4bgg92rcd13ifvqb30","pricing_plan_id":"cebpf4jnsgd1na2vs0mg"},{"bike_id":"62a31e18-1693-40a5-b5bc-67cb9f170087","system_id":"levelo_inurba_marseille","lat":43.31714,"lon":5.37786,"is_reserved":false,"is_disabled":false,"rental_uris":{"android":"levelo://app?vid=62a31e18-1693-40a5-b5bc-67cb9f170087","ios":"levelo://app?vid=62a31e18-1693-40a5-b5bc-67cb9f170087"},"vehicle_type_id":"4","last_reported":1743095346,"current_range_meters":10800,"station_id":"ce4bgth2rcd13ifvqch0","pricing_plan_id":"cebpf4jnsgd1na2vs0mg"},{"bike_id":"8d5f930a-99c6-45ca-a9e9-7399639cf393","system_id":"levelo_inurba_marseille","lat":43.30658,"lon":5.40069,"is_reserved":false,"is_disabled":false,"rental_uris":{"android":"levelo://app?vid=8d5f930a-99c6-45ca-a9e9-7399639cf393","ios":"levelo://app?vid=8d5f930a-99c6-45ca-a9e9-7399639cf393"},"vehicle_type_id":"4","last_reported":1743095346,"current_range_meters":10800,"station_id":"ce4bh112rcd13ifvqda0","pricing_plan_id":"cebpf4jnsgd1na2vs0mg"},{"bike_id":"ec481208-9fee-4b14-8710-e22c1563218d","system_id":"levelo_inurba_marseille","lat":43.286608,"lon":5.363515,"is_reserved":false,"is_disabled":false,"rental_uris":{"android":"levelo://app?vid=ec481208-9fee-4b14-8710-e22c1563218d","ios":"levelo://app?vid=ec481208-9fee-4b14-8710-e22c1563218d"},"vehicle_type_id":"4","last_reported":1743095346,"current_range_meters":10800,"station_id":"ce4bhah2rcd13ifvqej0","pricing_plan_id":"cebpf4jnsgd1na2vs0mg"},{"bike_id":"29346ce5-e3f8-414f-ac70-a849b98ac7bb","system_id":"levelo_inurba_marseille","lat":43.27381,"lon":5.36236,"is_reserved":false,"is_disabled":false,"rental_uris":{"android":"levelo://app?vid=29346ce5-e3f8-414f-ac70-a849b98ac7bb","ios":"levelo://app?vid=29346ce5-e3f8-414f-ac70-a849b98ac7bb"},"vehicle_type_id":"4","last_reported":1743095346,"current_range_meters":10800,"station_id":"ce4bhbh2rcd13ifvqeo0","pricing_plan_id":"cebpf4jnsgd1na2vs0mg"},{"bike_id":"c44d6288-d08d-405d-8537-2e93c934aa26","system_id":"levelo_inurba_marseille","lat":43.28421,"lon":5.34969,"is_reserved":false,"is_disabled":false,"rental_uris":{"android":"levelo://app?vid=c44d6288-d08d-405d-8537-2e93c934aa26","ios":"levelo://app?vid=c44d6288-d08d-405d-8537-2e93c934aa26"},"vehicle_type_id":"4","last_reported":1743095346,"current_range_meters":10800,"station_id":"ce4bhbh2rcd13ifvqepg","pricing_plan_id":"cebpf4jnsgd1na2vs0mg"},{"bike_id":"00f8a823-b5b1-4799-904b-6136ec63ab41","system_id":"levelo_inurba_marseille","lat":43.28624,"lon":5.35128,"is_reserved":false,"is_disabled":false,"rental_uris":{"android":"levelo://app?vid=00f8a823-b5b1-4799-904b-6136ec63ab41","ios":"levelo://app?vid=00f8a823-b5b1-4799-904b-6136ec63ab41"},"vehicle_type_id":"4","last_reported":1743095346,"current_range_meters":10800,"station_id":"ce4bhch2rcd13ifvqeug","pricing_plan_id":"cebpf4jnsgd1na2vs0mg"},{"bike_id":"2e95a620-73b3-45ca-b4c7-84e270c45e41","system_id":"levelo_inurba_marseille","lat":43.28626,"lon":5.35099,"is_reserved":false,"is_disabled":false,"rental_uris":{"android":"levelo://app?vid=2e95a620-73b3-45ca-b4c7-84e270c45e41","ios":"levelo://app?vid=2e95a620-73b3-45ca-b4c7-84e270c45e41"},"vehicle_type_id":"4","last_reported":1743095346,"current_range_meters":10800,"station_id":"ce4bhch2rcd13ifvqeug","pricing_plan_id":"cebpf4jnsgd1na2vs0mg"},{"bike_id":"19221227-42ec-4f4b-8f04-42a0818e22f5","system_id":"levelo_inurba_marseille","lat":43.321065,"lon":5.367721,"is_reserved":false,"is_disabled":false,"rental_uris":{"android":"levelo://app?vid=19221227-42ec-4f4b-8f04-42a0818e22f5","ios":"levelo://app?vid=19221227-42ec-4f4b-8f04-42a0818e22f5"},"vehicle_type_id":"4","last_reported":1743095346,"current_range_meters":10800,"station_id":"ce4bhrh2rcd13ifvqhug","pricing_plan_id":"cebpf4jnsgd1na2vs0mg"},{"bike_id":"0ec32e43-3ae6-44c2-91ff-693bbf34af73","system_id":"levelo_inurba_marseille","lat":43.26202,"lon":5.37928,"is_reserved":false,"is_disabled":false,"rental_uris":{"android":"levelo://app?vid=0ec32e43-3ae6-44c2-91ff-693bbf34af73","ios":"levelo://app?vid=0ec32e43-3ae6-44c2-91ff-693bbf34af73"},"vehicle_type_id":"4","last_reported":1743095346,"current_range_meters":11200,"station_id":"ce4bhjp2rcd13ifvqg90","pricing_plan_id":"cebpf4jnsgd1na2vs0mg"},{"bike_id":"1c47125a-aaf0-4d94-8b6b-6cd2744dc24e","system_id":"levelo_inurba_marseille","lat":43.29451,"lon":5.39743,"is_reserved":false,"is_disabled":false,"rental_uris":{"android":"levelo://app?vid=1c47125a-aaf0-4d94-8b6b-6cd2744dc24e","ios":"levelo://app?vid=1c47125a-aaf0-4d94-8b6b-6cd2744dc24e"},"vehicle_type_id":"4","last_reported":1743095346,"current_range_meters":11600,"station_id":"ce4bh3h2rcd13ifvqdo0","pricing_plan_id":"cebpf4jnsgd1na2vs0mg"},{"bike_id":"5d601291-20bf-4f2d-b9a8-f968bc04b9fb","system_id":"levelo_inurba_marseille","lat":43.29253,"lon":5.38435,"is_reserved":false,"is_disabled":false,"rental_uris":{"android":"levelo://app?vid=5d601291-20bf-4f2d-b9a8-f968bc04b9fb","ios":"levelo://app?vid=5d601291-20bf-4f2d-b9a8-f968bc04b9fb"},"vehicle_type_id":"4","last_reported":1743095346,"current_range_meters":11600,"station_id":"ce4bh692rcd13ifvqea0","pricing_plan_id":"cebpf4jnsgd1na2vs0mg"},{"bike_id":"40a01e84-ca3c-4fe0-8042-9fbd669c1a71","system_id":"levelo_inurba_marseille","lat":43.29263,"lon":5.38437,"is_reserved":false,"is_disabled":false,"rental_uris":{"android":"levelo://app?vid=40a01e84-ca3c-4fe0-8042-9fbd669c1a71","ios":"levelo://app?vid=40a01e84-ca3c-4fe0-8042-9fbd669c1a71"},"vehicle_type_id":"4","last_reported":1743095346,"current_range_meters":11600,"station_id":"ce4bh692rcd13ifvqea0","pricing_plan_id":"cebpf4jnsgd1na2vs0mg"},{"bike_id":"30672948-4108-467c-bd3c-20fbab765f75","system_id":"levelo_inurba_marseille","lat":43.28454,"lon":5.35906,"is_reserved":false,"is_disabled":false,"rental_uris":{"android":"levelo://app?vid=30672948-4108-467c-bd3c-20fbab765f75","ios":"levelo://app?vid=30672948-4108-467c-bd3c-20fbab765f75"},"vehicle_type_id":"4","last_reported":1743095346,"current_range_meters":11600,"station_id":"ce4bhah2rcd13ifvqei0","pricing_plan_id":"cebpf4jnsgd1na2vs0mg"},{"bike_id":"8b79708b-1f3f-4502-80bb-ad0514a8f370","system_id":"levelo_inurba_marseille","lat":43.292725,"lon":5.368445,"is_reserved":false,"is_disabled":false,"rental_uris":{"android":"levelo://app?vid=8b79708b-1f3f-4502-80bb-ad0514a8f370","ios":"levelo://app?vid=8b79708b-1f3f-4502-80bb-ad0514a8f370"},"vehicle_type_id":"4","last_reported":1743095346,"current_range_meters":11600,"station_id":"ce4bhbp2rcd13ifvqesg","pricing_plan_id":"cebpf4jnsgd1na2vs0mg"},{"bike_id":"bf38bb22-62cb-4a8d-ac90-9464f6b5fc3e","system_id":"levelo_inurba_marseille","lat":43.286217,"lon":5.351112,"is_reserved":false,"is_disabled":false,"rental_uris":{"android":"levelo://app?vid=bf38bb22-62cb-4a8d-ac90-9464f6b5fc3e","ios":"levelo://app?vid=bf38bb22-62cb-4a8d-ac90-9464f6b5fc3e"},"vehicle_type_id":"4","last_reported":1743095346,"current_range_meters":11600,"station_id":"ce4bhch2rcd13ifvqeug","pricing_plan_id":"cebpf4jnsgd1na2vs0mg"},{"bike_id":"37db586c-01d4-4849-9e84-abaeb9535612","system_id":"levelo_inurba_marseille","lat":43.2657,"lon":5.39014,"is_reserved":false,"is_disabled":false,"rental_uris":{"android":"levelo://app?vid=37db586c-01d4-4849-9e84-abaeb9535612","ios":"levelo://app?vid=37db586c-01d4-4849-9e84-abaeb9535612"},"vehicle_type_id":"4","last_reported":1743095346,"current_range_meters":11600,"station_id":"ce4bhe12rcd13ifvqf30","pricing_plan_id":"cebpf4jnsgd1na2vs0mg"},{"bike_id":"5a884a02-311e-4658-911d-2769024c2241","system_id":"levelo_inurba_marseille","lat":43.24805,"lon":5.37463,"is_reserved":false,"is_disabled":false,"rental_uris":{"android":"levelo://app?vid=5a884a02-311e-4658-911d-2769024c2241","ios":"levelo://app?vid=5a884a02-311e-4658-911d-2769024c2241"},"vehicle_type_id":"4","last_reported":1743095346,"current_range_meters":11600,"station_id":"ce4bhgh2rcd13ifvqfb0","pricing_plan_id":"cebpf4jnsgd1na2vs0mg"},{"bike_id":"be1cbed1-472a-4ec3-8aca-c4da28b4bbb4","system_id":"levelo_inurba_marseille","lat":43.246622,"lon":5.38166,"is_reserved":false,"is_disabled":false,"rental_uris":{"android":"levelo://app?vid=be1cbed1-472a-4ec3-8aca-c4da28b4bbb4","ios":"levelo://app?vid=be1cbed1-472a-4ec3-8aca-c4da28b4bbb4"},"vehicle_type_id":"4","last_reported":1743095346,"current_range_meters":11600,"station_id":"ce4bhih2rcd13ifvqfr0","pricing_plan_id":"cebpf4jnsgd1na2vs0mg"},{"bike_id":"9d93677a-6a5e-4743-bb03-d048a4b4374f","system_id":"levelo_inurba_marseille","lat":43.323914,"lon":5.40676,"is_reserved":false,"is_disabled":false,"rental_uris":{"android":"levelo://app?vid=9d93677a-6a5e-4743-bb03-d048a4b4374f","ios":"levelo://app?vid=9d93677a-6a5e-4743-bb03-d048a4b4374f"},"vehicle_type_id":"4","last_reported":1743095346,"current_range_meters":11600,"station_id":"ce4bhq92rcd13ifvqhjg","pricing_plan_id":"cebpf4jnsgd1na2vs0mg"},{"bike_id":"8bd09c01-b502-40f2-b040-4542472dec65","system_id":"levelo_inurba_marseille","lat":43.33025,"lon":5.39043,"is_reserved":false,"is_disabled":false,"rental_uris":{"android":"levelo://app?vid=8bd09c01-b502-40f2-b040-4542472dec65","ios":"levelo://app?vid=8bd09c01-b502-40f2-b040-4542472dec65"},"vehicle_type_id":"4","last_reported":1743095346,"current_range_meters":11600,"station_id":"ce4bhr92rcd13ifvqhrg","pricing_plan_id":"cebpf4jnsgd1na2vs0mg"},{"bike_id":"4605e24d-65b2-4424-9d4d-b88f889f4b8e","system_id":"levelo_inurba_marseille","lat":43.281194,"lon":5.398619,"is_reserved":false,"is_disabled":false,"rental_uris":{"android":"levelo://app?vid=4605e24d-65b2-4424-9d4d-b88f889f4b8e","ios":"levelo://app?vid=4605e24d-65b2-4424-9d4d-b88f889f4b8e"},"vehicle_type_id":"4","last_reported":1743095346,"current_range_meters":12000,"station_id":"","pricing_plan_id":"cebpf4jnsgd1na2vs0mg"},{"bike_id":"1a4e9262-95fd-449e-a7bf-3367d7aadb58","system_id":"levelo_inurba_marseille","lat":43.298645,"lon":5.3891,"is_reserved":false,"is_disabled":false,"rental_uris":{"android":"levelo://app?vid=1a4e9262-95fd-449e-a7bf-3367d7aadb58","ios":"levelo://app?vid=1a4e9262-95fd-449e-a7bf-3367d7aadb58"},"vehicle_type_id":"4","last_reported":1743095346,"current_range_meters":12000,"station_id":"ce4bh392rcd13ifvqdl0","pricing_plan_id":"cebpf4jnsgd1na2vs0mg"},{"bike_id":"644c26be-472f-49a9-9caa-b447c3950076","system_id":"levelo_inurba_marseille","lat":43.28692,"lon":5.37405,"is_reserved":false,"is_disabled":false,"rental_uris":{"android":"levelo://app?vid=644c26be-472f-49a9-9caa-b447c3950076","ios":"levelo://app?vid=644c26be-472f-49a9-9caa-b447c3950076"},"vehicle_type_id":"4","last_reported":1743095346,"current_range_meters":12000,"station_id":"ce4bh3p2rcd13ifvqdq0","pricing_plan_id":"cebpf4jnsgd1na2vs0mg"},{"bike_id":"62feeb8e-b2cc-48d6-9f73-3dd1b580c165","system_id":"levelo_inurba_marseille","lat":43.2512,"lon":5.40316,"is_reserved":false,"is_disabled":false,"rental_uris":{"android":"levelo://app?vid=62feeb8e-b2cc-48d6-9f73-3dd1b580c165","ios":"levelo://app?vid=62feeb8e-b2cc-48d6-9f73-3dd1b580c165"},"vehicle_type_id":"4","last_reported":1743095346,"current_range_meters":12000,"station_id":"ce4bhlh2rcd13ifvqgig","pricing_plan_id":"cebpf4jnsgd1na2vs0mg"},{"bike_id":"06f41b4b-ee09-463d-a4b3-9f10e0624cb7","system_id":"levelo_inurba_marseille","lat":43.3031,"lon":5.39218,"is_reserved":false,"is_disabled":false,"rental_uris":{"android":"levelo://app?vid=06f41b4b-ee09-463d-a4b3-9f10e0624cb7","ios":"levelo://app?vid=06f41b4b-ee09-463d-a4b3-9f10e0624cb7"},"vehicle_type_id":"4","last_reported":1743095346,"current_range_meters":12400,"station_id":"ce4bgkh2rcd13ifvqbk0","pricing_plan_id":"cebpf4jnsgd1na2vs0mg"},{"bike_id":"90e9d858-4a6d-4a0e-a971-d9efa9357120","system_id":"levelo_inurba_marseille","lat":43.30152,"lon":5.39877,"is_reserved":false,"is_disabled":false,"rental_uris":{"android":"levelo://app?vid=90e9d858-4a6d-4a0e-a971-d9efa9357120","ios":"levelo://app?vid=90e9d858-4a6d-4a0e-a971-d9efa9357120"},"vehicle_type_id":"4","last_reported":1743095346,"current_range_meters":12400,"station_id":"ce4bh0h2rcd13ifvqd40","pricing_plan_id":"cebpf4jnsgd1na2vs0mg"},{"bike_id":"7b64ddb1-9cc4-4cbe-a474-c38ada43e123","system_id":"levelo_inurba_marseille","lat":43.28676,"lon":5.36382,"is_reserved":false,"is_disabled":false,"rental_uris":{"android":"levelo://app?vid=7b64ddb1-9cc4-4cbe-a474-c38ada43e123","ios":"levelo://app?vid=7b64ddb1-9cc4-4cbe-a474-c38ada43e123"},"vehicle_type_id":"4","last_reported":1743095346,"current_range_meters":12400,"station_id":"ce4bhah2rcd13ifvqej0","pricing_plan_id":"cebpf4jnsgd1na2vs0mg"},{"bike_id":"f05ff819-6ace-4df6-bb5b-3a5dfcb22394","system_id":"levelo_inurba_marseille","lat":43.28272,"lon":5.35059,"is_reserved":false,"is_disabled":false,"rental_uris":{"android":"levelo://app?vid=f05ff819-6ace-4df6-bb5b-3a5dfcb22394","ios":"levelo://app?vid=f05ff819-6ace-4df6-bb5b-3a5dfcb22394"},"vehicle_type_id":"4","last_reported":1743095346,"current_range_meters":12400,"station_id":"ce4bhbp2rcd13ifvqerg","pricing_plan_id":"cebpf4jnsgd1na2vs0mg"},{"bike_id":"cfed900d-e17f-46a7-9847-c8d921508ac3","system_id":"levelo_inurba_marseille","lat":43.23967,"lon":5.36635,"is_reserved":false,"is_disabled":false,"rental_uris":{"android":"levelo://app?vid=cfed900d-e17f-46a7-9847-c8d921508ac3","ios":"levelo://app?vid=cfed900d-e17f-46a7-9847-c8d921508ac3"},"vehicle_type_id":"4","last_reported":1743095346,"current_range_meters":12400,"station_id":"ce4bhi12rcd13ifvqfp0","pricing_plan_id":"cebpf4jnsgd1na2vs0mg"},{"bike_id":"6a445437-040d-40e9-8502-6b7f2071b06a","system_id":"levelo_inurba_marseille","lat":43.31548,"lon":5.38889,"is_reserved":false,"is_disabled":false,"rental_uris":{"android":"levelo://app?vid=6a445437-040d-40e9-8502-6b7f2071b06a","ios":"levelo://app?vid=6a445437-040d-40e9-8502-6b7f2071b06a"},"vehicle_type_id":"4","last_reported":1743095346,"current_range_meters":12800,"station_id":"","pricing_plan_id":"cebpf4jnsgd1na2vs0mg"},{"bike_id":"5e7ff3d7-653e-4661-8b3b-dd6c53debc58","system_id":"levelo_inurba_marseille","lat":43.29208,"lon":5.39323,"is_reserved":false,"is_disabled":false,"rental_uris":{"android":"levelo://app?vid=5e7ff3d7-653e-4661-8b3b-dd6c53debc58","ios":"levelo://app?vid=5e7ff3d7-653e-4661-8b3b-dd6c53debc58"},"vehicle_type_id":"4","last_reported":1743095346,"current_range_meters":12800,"station_id":"ce4bh192rcd13ifvqdd0","pricing_plan_id":"cebpf4jnsgd1na2vs0mg"},{"bike_id":"9f315d73-ec20-4c4b-86c6-602daba06c1b","system_id":"levelo_inurba_marseille","lat":43.29416,"lon":5.38638,"is_reserved":false,"is_disabled":false,"rental_uris":{"android":"levelo://app?vid=9f315d73-ec20-4c4b-86c6-602daba06c1b","ios":"levelo://app?vid=9f315d73-ec20-4c4b-86c6-602daba06c1b"},"vehicle_type_id":"4","last_reported":1743095346,"current_range_meters":12800,"station_id":"ce4bh2h2rcd13ifvqdh0","pricing_plan_id":"cebpf4jnsgd1na2vs0mg"},{"bike_id":"e2371295-d841-4951-847c-c28c32b4dc40","system_id":"levelo_inurba_marseille","lat":43.29425,"lon":5.38616,"is_reserved":false,"is_disabled":false,"rental_uris":{"android":"levelo://app?vid=e2371295-d841-4951-847c-c28c32b4dc40","ios":"levelo://app?vid=e2371295-d841-4951-847c-c28c32b4dc40"},"vehicle_type_id":"4","last_reported":1743095346,"current_range_meters":12800,"station_id":"ce4bh2h2rcd13ifvqdh0","pricing_plan_id":"cebpf4jnsgd1na2vs0mg"},{"bike_id":"bf20a29a-b83c-4ae2-95de-93f80ce9107d","system_id":"levelo_inurba_marseille","lat":43.255794,"lon":5.382532,"is_reserved":false,"is_disabled":false,"rental_uris":{"android":"levelo://app?vid=bf20a29a-b83c-4ae2-95de-93f80ce9107d","ios":"levelo://app?vid=bf20a29a-b83c-4ae2-95de-93f80ce9107d"},"vehicle_type_id":"4","last_reported":1743095346,"current_range_meters":12800,"station_id":"ce4bhih2rcd13ifvqfs0","pricing_plan_id":"cebpf4jnsgd1na2vs0mg"},{"bike_id":"a3a81113-0b79-47ac-914d-dcffe9f5ede4","system_id":"levelo_inurba_marseille","lat":43.28158,"lon":5.42644,"is_reserved":false,"is_disabled":false,"rental_uris":{"android":"levelo://app?vid=a3a81113-0b79-47ac-914d-dcffe9f5ede4","ios":"levelo://app?vid=a3a81113-0b79-47ac-914d-dcffe9f5ede4"},"vehicle_type_id":"4","last_reported":1743095346,"current_range_meters":12800,"station_id":"ce4bhnh2rcd13ifvqgug","pricing_plan_id":"cebpf4jnsgd1na2vs0mg"},{"bike_id":"b671d24b-027f-415e-a344-0c820b72a6d1","system_id":"levelo_inurba_marseille","lat":43.29959,"lon":5.4132,"is_reserved":false,"is_disabled":false,"rental_uris":{"android":"levelo://app?vid=b671d24b-027f-415e-a344-0c820b72a6d1","ios":"levelo://app?vid=b671d24b-027f-415e-a344-0c820b72a6d1"},"vehicle_type_id":"4","last_reported":1743095346,"current_range_meters":12800,"station_id":"ce4bhp12rcd13ifvqh9g","pricing_plan_id":"cebpf4jnsgd1na2vs0mg"},{"bike_id":"e6b604f8-c66b-4341-856c-6b32cfccfd4f","system_id":"levelo_inurba_marseille","lat":43.258633,"lon":5.39894,"is_reserved":false,"is_disabled":false,"rental_uris":{"android":"levelo://app?vid=e6b604f8-c66b-4341-856c-6b32cfccfd4f","ios":"levelo://app?vid=e6b604f8-c66b-4341-856c-6b32cfccfd4f"},"vehicle_type_id":"4","last_reported":1743095346,"current_range_meters":13600,"station_id":"ce4bhl92rcd13ifvqghg","pricing_plan_id":"cebpf4jnsgd1na2vs0mg"},{"bike_id":"2e919ca5-ce98-4c47-a9d7-66e6ab7584e4","system_id":"levelo_inurba_marseille","lat":43.32115,"lon":5.36796,"is_reserved":false,"is_disabled":false,"rental_uris":{"android":"levelo://app?vid=2e919ca5-ce98-4c47-a9d7-66e6ab7584e4","ios":"levelo://app?vid=2e919ca5-ce98-4c47-a9d7-66e6ab7584e4"},"vehicle_type_id":"4","last_reported":1743095346,"current_range_meters":13600,"station_id":"ce4bhrh2rcd13ifvqhug","pricing_plan_id":"cebpf4jnsgd1na2vs0mg"},{"bike_id":"1c14bf9c-ada4-4a36-8853-740a1a2c000a","system_id":"levelo_inurba_marseille","lat":43.231959,"lon":5.355497,"is_reserved":false,"is_disabled":false,"rental_uris":{"android":"levelo://app?vid=1c14bf9c-ada4-4a36-8853-740a1a2c000a","ios":"levelo://app?vid=1c14bf9c-ada4-4a36-8853-740a1a2c000a"},"vehicle_type_id":"4","last_reported":1743095346,"current_range_meters":13600,"station_id":"ce4bhu92rcd13ifvqi70","pricing_plan_id":"cebpf4jnsgd1na2vs0mg"},{"bike_id":"8b3d1d70-0d25-4719-9b48-f9b4a4e515ca","system_id":"levelo_inurba_marseille","lat":43.27946,"lon":5.41048,"is_reserved":false,"is_disabled":false,"rental_uris":{"android":"levelo://app?vid=8b3d1d70-0d25-4719-9b48-f9b4a4e515ca","ios":"levelo://app?vid=8b3d1d70-0d25-4719-9b48-f9b4a4e515ca"},"vehicle_type_id":"4","last_reported":1743095346,"current_range_meters":14000,"station_id":"ce4bhnp2rcd13ifvqh0g","pricing_plan_id":"cebpf4jnsgd1na2vs0mg"},{"bike_id":"8a06f3b5-6e7e-4a45-ba73-d07c71459920","system_id":"levelo_inurba_marseille","lat":43.29899,"lon":5.43672,"is_reserved":false,"is_disabled":false,"rental_uris":{"android":"levelo://app?vid=8a06f3b5-6e7e-4a45-ba73-d07c71459920","ios":"levelo://app?vid=8a06f3b5-6e7e-4a45-ba73-d07c71459920"},"vehicle_type_id":"4","last_reported":1743095346,"current_range_meters":14000,"station_id":"ce4bhpp2rcd13ifvqhfg","pricing_plan_id":"cebpf4jnsgd1na2vs0mg"},{"bike_id":"42517c89-ddc1-4dbf-9723-4c2761946cf2","system_id":"levelo_inurba_marseille","lat":43.29306,"lon":5.371832,"is_reserved":false,"is_disabled":false,"rental_uris":{"android":"levelo://app?vid=42517c89-ddc1-4dbf-9723-4c2761946cf2","ios":"levelo://app?vid=42517c89-ddc1-4dbf-9723-4c2761946cf2"},"vehicle_type_id":"4","last_reported":1743095346,"current_range_meters":14400,"station_id":"ce4bgh92rcd13ifvqb40","pricing_plan_id":"cebpf4jnsgd1na2vs0mg"},{"bike_id":"3739ed86-bd7b-4e37-95af-9518c65fa037","system_id":"levelo_inurba_marseille","lat":43.29935,"lon":5.36543,"is_reserved":false,"is_disabled":false,"rental_uris":{"android":"levelo://app?vid=3739ed86-bd7b-4e37-95af-9518c65fa037","ios":"levelo://app?vid=3739ed86-bd7b-4e37-95af-9518c65fa037"},"vehicle_type_id":"4","last_reported":1743095346,"current_range_meters":14400,"station_id":"ce4bgm92rcd13ifvqbr0","pricing_plan_id":"cebpf4jnsgd1na2vs0mg"},{"bike_id":"66b2d412-91a8-4c1b-be3a-959bb3b0fe64","system_id":"levelo_inurba_marseille","lat":43.30785,"lon":5.37639,"is_reserved":false,"is_disabled":false,"rental_uris":{"android":"levelo://app?vid=66b2d412-91a8-4c1b-be3a-959bb3b0fe64","ios":"levelo://app?vid=66b2d412-91a8-4c1b-be3a-959bb3b0fe64"},"vehicle_type_id":"4","last_reported":1743095346,"current_range_meters":14400,"station_id":"ce4bgv92rcd13ifvqcq0","pricing_plan_id":"cebpf4jnsgd1na2vs0mg"},{"bike_id":"fac4123a-e1c6-474d-8350-f6d799c90cbd","system_id":"levelo_inurba_marseille","lat":43.2738,"lon":5.362517,"is_reserved":false,"is_disabled":false,"rental_uris":{"android":"levelo://app?vid=fac4123a-e1c6-474d-8350-f6d799c90cbd","ios":"levelo://app?vid=fac4123a-e1c6-474d-8350-f6d799c90cbd"},"vehicle_type_id":"4","last_reported":1743095346,"current_range_meters":14400,"station_id":"ce4bhbh2rcd13ifvqeo0","pricing_plan_id":"cebpf4jnsgd1na2vs0mg"},{"bike_id":"bb6d3e35-eb6d-49e4-9094-4a82b36c2c46","system_id":"levelo_inurba_marseille","lat":43.32364,"lon":5.36741,"is_reserved":false,"is_disabled":false,"rental_uris":{"android":"levelo://app?vid=bb6d3e35-eb6d-49e4-9094-4a82b36c2c46","ios":"levelo://app?vid=bb6d3e35-eb6d-49e4-9094-4a82b36c2c46"},"vehicle_type_id":"4","last_reported":1743095346,"current_range_meters":14400,"station_id":"ce4bhsh2rcd13ifvqi2g","pricing_plan_id":"cebpf4jnsgd1na2vs0mg"},{"bike_id":"767b3de5-c408-4bff-92a2-6b38b23a008d","system_id":"levelo_inurba_marseille","lat":43.29536,"lon":5.38608,"is_reserved":false,"is_disabled":false,"rental_uris":{"android":"levelo://app?vid=767b3de5-c408-4bff-92a2-6b38b23a008d","ios":"levelo://app?vid=767b3de5-c408-4bff-92a2-6b38b23a008d"},"vehicle_type_id":"4","last_reported":1743095346,"current_range_meters":14800,"station_id":"","pricing_plan_id":"cebpf4jnsgd1na2vs0mg"},{"bike_id":"4af98263-7e03-496f-8436-54c237fff73a","system_id":"levelo_inurba_marseille","lat":43.27372,"lon":5.36255,"is_reserved":false,"is_disabled":false,"rental_uris":{"android":"levelo://app?vid=4af98263-7e03-496f-8436-54c237fff73a","ios":"levelo://app?vid=4af98263-7e03-496f-8436-54c237fff73a"},"vehicle_type_id":"4","last_reported":1743095346,"current_range_meters":14800,"station_id":"ce4bhbh2rcd13ifvqeo0","pricing_plan_id":"cebpf4jnsgd1na2vs0mg"},{"bike_id":"0ededb85-3f71-45bc-8f71-51ff4984cf0c","system_id":"levelo_inurba_marseille","lat":43.27351,"lon":5.36224,"is_reserved":false,"is_disabled":false,"rental_uris":{"android":"levelo://app?vid=0ededb85-3f71-45bc-8f71-51ff4984cf0c","ios":"levelo://app?vid=0ededb85-3f71-45bc-8f71-51ff4984cf0c"},"vehicle_type_id":"4","last_reported":1743095346,"current_range_meters":14800,"station_id":"ce4bhbh2rcd13ifvqeo0","pricing_plan_id":"cebpf4jnsgd1na2vs0mg"},{"bike_id":"69f68611-92d9-46b9-a1cb-97d6b7ad6aad","system_id":"levelo_inurba_marseille","lat":43.29231,"lon":5.36073,"is_reserved":false,"is_disabled":false,"rental_uris":{"android":"levelo://app?vid=69f68611-92d9-46b9-a1cb-97d6b7ad6aad","ios":"levelo://app?vid=69f68611-92d9-46b9-a1cb-97d6b7ad6aad"},"vehicle_type_id":"4","last_reported":1743095346,"current_range_meters":14800,"station_id":"ce4bhbh2rcd13ifvqeqg","pricing_plan_id":"cebpf4jnsgd1na2vs0mg"},{"bike_id":"49f9950b-81f6-4ab2-bff7-0f7cf9f73830","system_id":"levelo_inurba_marseille","lat":43.26031,"lon":5.37547,"is_reserved":false,"is_disabled":false,"rental_uris":{"android":"levelo://app?vid=49f9950b-81f6-4ab2-bff7-0f7cf9f73830","ios":"levelo://app?vid=49f9950b-81f6-4ab2-bff7-0f7cf9f73830"},"vehicle_type_id":"4","last_reported":1743095346,"current_range_meters":14800,"station_id":"ce4bhgh2rcd13ifvqfa0","pricing_plan_id":"cebpf4jnsgd1na2vs0mg"},{"bike_id":"dc0e5f37-7540-482f-aaa4-03b18f75d89d","system_id":"levelo_inurba_marseille","lat":43.278367,"lon":5.392142,"is_reserved":false,"is_disabled":false,"rental_uris":{"android":"levelo://app?vid=dc0e5f37-7540-482f-aaa4-03b18f75d89d","ios":"levelo://app?vid=dc0e5f37-7540-482f-aaa4-03b18f75d89d"},"vehicle_type_id":"4","last_reported":1743095346,"current_range_meters":14800,"station_id":"ce4bhjp2rcd13ifvqga0","pricing_plan_id":"cebpf4jnsgd1na2vs0mg"},{"bike_id":"213522d2-34be-42dc-a861-71dacdd3d79c","system_id":"levelo_inurba_marseille","lat":43.25105,"lon":5.403322,"is_reserved":false,"is_disabled":false,"rental_uris":{"android":"levelo://app?vid=213522d2-34be-42dc-a861-71dacdd3d79c","ios":"levelo://app?vid=213522d2-34be-42dc-a861-71dacdd3d79c"},"vehicle_type_id":"4","last_reported":1743095346,"current_range_meters":15200,"station_id":"ce4bhlh2rcd13ifvqgig","pricing_plan_id":"cebpf4jnsgd1na2vs0mg"},{"bike_id":"35c84fa7-51e5-4e93-ad41-a2924e2a6739","system_id":"levelo_inurba_marseille","lat":43.32052,"lon":5.41591,"is_reserved":false,"is_disabled":false,"rental_uris":{"android":"levelo://app?vid=35c84fa7-51e5-4e93-ad41-a2924e2a6739","ios":"levelo://app?vid=35c84fa7-51e5-4e93-ad41-a2924e2a6739"},"vehicle_type_id":"4","last_reported":1743095346,"current_range_meters":15200,"station_id":"ce4bhq92rcd13ifvqhkg","pricing_plan_id":"cebpf4jnsgd1na2vs0mg"},{"bike_id":"59b64cfe-cdc5-4495-8823-d79876f3c47f","system_id":"levelo_inurba_marseille","lat":43.30887,"lon":5.39652,"is_reserved":false,"is_disabled":false,"rental_uris":{"android":"levelo://app?vid=59b64cfe-cdc5-4495-8823-d79876f3c47f","ios":"levelo://app?vid=59b64cfe-cdc5-4495-8823-d79876f3c47f"},"vehicle_type_id":"4","last_reported":1743095346,"current_range_meters":16000,"station_id":"ce4bh012rcd13ifvqcv0","pricing_plan_id":"cebpf4jnsgd1na2vs0mg"},{"bike_id":"cad6781f-eede-4f7c-8c67-0feeba102f90","system_id":"levelo_inurba_marseille","lat":43.289309,"lon":5.366399,"is_reserved":false,"is_disabled":false,"rental_uris":{"android":"levelo://app?vid=cad6781f-eede-4f7c-8c67-0feeba102f90","ios":"levelo://app?vid=cad6781f-eede-4f7c-8c67-0feeba102f90"},"vehicle_type_id":"4","last_reported":1743095346,"current_range_meters":16000,"station_id":"ce4bhap2rcd13ifvqek0","pricing_plan_id":"cebpf4jnsgd1na2vs0mg"},{"bike_id":"0e9d8a14-70a6-499a-a41e-9130a303f269","system_id":"levelo_inurba_marseille","lat":43.25005,"lon":5.38926,"is_reserved":false,"is_disabled":false,"rental_uris":{"android":"levelo://app?vid=0e9d8a14-70a6-499a-a41e-9130a303f269","ios":"levelo://app?vid=0e9d8a14-70a6-499a-a41e-9130a303f269"},"vehicle_type_id":"4","last_reported":1743095346,"current_range_meters":16000,"station_id":"ce4bhgp2rcd13ifvqfd0","pricing_plan_id":"cebpf4jnsgd1na2vs0mg"},{"bike_id":"e8534297-6721-465c-bca8-a3b415ff0fbc","system_id":"levelo_inurba_marseille","lat":43.279342,"lon":5.423182,"is_reserved":false,"is_disabled":false,"rental_uris":{"android":"levelo://app?vid=e8534297-6721-465c-bca8-a3b415ff0fbc","ios":"levelo://app?vid=e8534297-6721-465c-bca8-a3b415ff0fbc"},"vehicle_type_id":"4","last_reported":1743095346,"current_range_meters":16000,"station_id":"ce4bhnh2rcd13ifvqgug","pricing_plan_id":"cebpf4jnsgd1na2vs0mg"},{"bike_id":"68e9fc26-8998-4bf7-8da8-af47209f9b7c","system_id":"levelo_inurba_marseille","lat":43.321094,"lon":5.367806,"is_reserved":false,"is_disabled":false,"rental_uris":{"android":"levelo://app?vid=68e9fc26-8998-4bf7-8da8-af47209f9b7c","ios":"levelo://app?vid=68e9fc26-8998-4bf7-8da8-af47209f9b7c"},"vehicle_type_id":"4","last_reported":1743095346,"current_range_meters":16000,"station_id":"ce4bhrh2rcd13ifvqhug","pricing_plan_id":"cebpf4jnsgd1na2vs0mg"},{"bike_id":"2f580b2a-b46a-4a96-93f2-015b4171b84a","system_id":"levelo_inurba_marseille","lat":43.29971,"lon":5.38494,"is_reserved":false,"is_disabled":false,"rental_uris":{"android":"levelo://app?vid=2f580b2a-b46a-4a96-93f2-015b4171b84a","ios":"levelo://app?vid=2f580b2a-b46a-4a96-93f2-015b4171b84a"},"vehicle_type_id":"4","last_reported":1743095346,"current_range_meters":16400,"station_id":"ce4bgj92rcd13ifvqbd0","pricing_plan_id":"cebpf4jnsgd1na2vs0mg"},{"bike_id":"b67d25d2-bc54-4416-bef3-cd0fe519ec82","system_id":"levelo_inurba_marseille","lat":43.28672,"lon":5.36351,"is_reserved":false,"is_disabled":false,"rental_uris":{"android":"levelo://app?vid=b67d25d2-bc54-4416-bef3-cd0fe519ec82","ios":"levelo://app?vid=b67d25d2-bc54-4416-bef3-cd0fe519ec82"},"vehicle_type_id":"4","last_reported":1743095346,"current_range_meters":16400,"station_id":"ce4bhah2rcd13ifvqej0","pricing_plan_id":"cebpf4jnsgd1na2vs0mg"},{"bike_id":"03ab80ad-0b05-4729-be4d-6b35af963795","system_id":"levelo_inurba_marseille","lat":43.24996,"lon":5.38939,"is_reserved":false,"is_disabled":false,"rental_uris":{"android":"levelo://app?vid=03ab80ad-0b05-4729-be4d-6b35af963795","ios":"levelo://app?vid=03ab80ad-0b05-4729-be4d-6b35af963795"},"vehicle_type_id":"4","last_reported":1743095346,"current_range_meters":16400,"station_id":"ce4bhgp2rcd13ifvqfd0","pricing_plan_id":"cebpf4jnsgd1na2vs0mg"},{"bike_id":"f99ff896-4d17-4cf9-ad23-0b8bee1fd95a","system_id":"levelo_inurba_marseille","lat":43.23193,"lon":5.39989,"is_reserved":false,"is_disabled":false,"rental_uris":{"android":"levelo://app?vid=f99ff896-4d17-4cf9-ad23-0b8bee1fd95a","ios":"levelo://app?vid=f99ff896-4d17-4cf9-ad23-0b8bee1fd95a"},"vehicle_type_id":"4","last_reported":1743095346,"current_range_meters":16400,"station_id":"ce4bhn12rcd13ifvqgqg","pricing_plan_id":"cebpf4jnsgd1na2vs0mg"},{"bike_id":"c527ac51-4362-4d1f-b9e1-306c1ebece74","system_id":"levelo_inurba_marseille","lat":43.299004,"lon":5.436769,"is_reserved":false,"is_disabled":false,"rental_uris":{"android":"levelo://app?vid=c527ac51-4362-4d1f-b9e1-306c1ebece74","ios":"levelo://app?vid=c527ac51-4362-4d1f-b9e1-306c1ebece74"},"vehicle_type_id":"4","last_reported":1743095346,"current_range_meters":16400,"station_id":"ce4bhpp2rcd13ifvqhfg","pricing_plan_id":"cebpf4jnsgd1na2vs0mg"},{"bike_id":"fb348b09-6abb-47a4-a266-91f2eeaee291","system_id":"levelo_inurba_marseille","lat":43.32106,"lon":5.36816,"is_reserved":false,"is_disabled":false,"rental_uris":{"android":"levelo://app?vid=fb348b09-6abb-47a4-a266-91f2eeaee291","ios":"levelo://app?vid=fb348b09-6abb-47a4-a266-91f2eeaee291"},"vehicle_type_id":"4","last_reported":1743095346,"current_range_meters":16400,"station_id":"ce4bhrh2rcd13ifvqhug","pricing_plan_id":"cebpf4jnsgd1na2vs0mg"},{"bike_id":"997ef4fc-5438-436a-8443-c60c3f490aae","system_id":"levelo_inurba_marseille","lat":43.32114,"lon":5.36806,"is_reserved":false,"is_disabled":false,"rental_uris":{"android":"levelo://app?vid=997ef4fc-5438-436a-8443-c60c3f490aae","ios":"levelo://app?vid=997ef4fc-5438-436a-8443-c60c3f490aae"},"vehicle_type_id":"4","last_reported":1743095346,"current_range_meters":16400,"station_id":"ce4bhrh2rcd13ifvqhug","pricing_plan_id":"cebpf4jnsgd1na2vs0mg"},