{"last_updated":1737187788,"ttl":60,"version":"2.2","data":{"bikes":[{"bike_id":"d000e216-a534-45ae-b1e2-270f91888369","system_id":"levelo_inurba_marseille","lat":43.2954,"lon":5.37534,"is_reserved":false,"is_disabled":false,"rental_uris":{"android":"levelo://app?vid=d000e216-a534-45ae-b1e2-270f91888369","ios":"levelo://app?vid=d000e216-a534-45ae-b1e2-270f91888369"},"vehicle_type_id":"4","last_reported":1737187789,"current_range_meters":34000,"station_id":"ce4bgkp2rcd13ifvqbmg","pricing_plan_id":"cebpf4jnsgd1na2vs0mg"},{"bike_id":"0f881e68-539f-46b7-ac38-4fc68735aa91","system_id":"levelo_inurba_marseille","lat":43.28664,"lon":5.36349,"is_reserved":false,"is_disabled":false,"rental_uris":{"android":"levelo://app?vid=0f881e68-539f-46b7-ac38-4fc68735aa91","ios":"levelo://app?vid=0f881e68-539f-46b7-ac38-4fc68735aa91"},"vehicle_type_id":"4","last_reported":1737187789,"current_range_meters":39200,"station_id":"ce4bhah2rcd13ifvqej0","pricing_plan_id":"cebpf4jnsgd1na2vs0mg"},{"bike_id":"c0ce696e-8883-48cf-95b3-4093d2a4ab96","system_id":"levelo_inurba_marseille","lat":43.23961,"lon":5.36634,"is_reserved":false,"is_disabled":false,"rental_uris":{"android":"levelo://app?vid=c0ce696e-8883-48cf-95b3-4093d2a4ab96","ios":"levelo://app?vid=c0ce696e-8883-48cf-95b3-4093d2a4ab96"},"vehicle_type_id":"4","last_reported":1737187789,"current_range_meters":32000,"station_id":"ce4bhi12rcd13ifvqfp0","pricing_plan_id":"cebpf4jnsgd1na2vs0mg"},{"bike_id":"83423ef3-b993-424a-99e2-60978295cc1a","system_id":"levelo_inurba_marseille","lat":43.2798,"lon":5.4166,"is_reserved":false,"is_disabled":false,"rental_uris":{"android":"levelo://app?vid=83423ef3-b993-424a-99e2-60978295cc1a","ios":"levelo://app?vid=83423ef3-b993-424a-99e2-60978295cc1a"},"vehicle_type_id":"4","last_reported":1737187789,"current_range_meters":10000,"station_id":"ce4bho12rcd13ifvqh1g","pricing_plan_id":"cebpf4jnsgd1na2vs0mg"},{"bike_id":"e84b691f-df6c-4038-8188-902ca43a09e5","system_id":"levelo_inurba_marseille","lat":43.30635,"lon":5.40082,"is_reserved":false,"is_disabled":false,"rental_uris":{"android":"levelo://app?vid=e84b691f-df6c-4038-8188-902ca43a09e5","ios":"levelo://app?vid=e84b691f-df6c-4038-8188-902ca43a09e5"},"vehicle_type_id":"4","last_reported":1737187789,"current_range_meters":38800,"station_id":"ce4bh112rcd13ifvqda0","pricing_plan_id":"cebpf4jnsgd1na2vs0mg"},{"bike_id":"ffba9e4f-6eab-475c-a02b-053418152215","system_id":"levelo_inurba_marseille","lat":43.25487,"lon":5.37666,"is_reserved":false,"is_disabled":false,"rental_uris":{"android":"levelo://app?vid=ffba9e4f-6eab-475c-a02b-053418152215","ios":"levelo://app?vid=ffba9e4f-6eab-475c-a02b-053418152215"},"vehicle_type_id":"4","last_reported":1737187789,"current_range_meters":39200,"station_id":"ce4bhh12rcd13ifvqff0","pricing_plan_id":"cebpf4jnsgd1na2vs0mg"},{"bike_id":"b3cba4ee-4550-47d5-b440-5d744bbdbb65","system_id":"levelo_inurba_marseille","lat":43.296263,"lon":5.405882,"is_reserved":false,"is_disabled":false,"rental_uris":{"android":"levelo://app?vid=b3cba4ee-4550-47d5-b440-5d744bbdbb65","ios":"levelo://app?vid=b3cba4ee-4550-47d5-b440-5d744bbdbb65"},"vehicle_type_id":"4","last_reported":1737187789,"current_range_meters":39200,"station_id":"ce4bh0h2rcd13ifvqd60","pricing_plan_id":"cebpf4jnsgd1na2vs0mg"},{"bike_id":"0ecae7da-ba09-4d8f-8b8f-7102721e6344","system_id":"levelo_inurba_marseille","lat":43.27315,"lon":5.39058,"is_reserved":false,"is_disabled":false,"rental_uris":{"android":"levelo://app?vid=0ecae7da-ba09-4d8f-8b8f-7102721e6344","ios":"levelo://app?vid=0ecae7da-ba09-4d8f-8b8f-7102721e6344"},"vehicle_type_id":"4","last_reported":1737187789,"current_range_meters":14800,"station_id":"ce4bhgp2rcd13ifvqfe0","pricing_plan_id":"cebpf4jnsgd1na2vs0mg"},{"bike_id":"b5f69fe0-a4a5-4828-bcfc-720b5636daf0","system_id":"levelo_inurba_marseille","lat":43.239626,"lon":5.366284,"is_reserved":false,"is_disabled":false,"rental_uris":{"android":"levelo://app?vid=b5f69fe0-a4a5-4828-bcfc-720b5636daf0","ios":"levelo://app?vid=b5f69fe0-a4a5-4828-bcfc-720b5636daf0"},"vehicle_type_id":"4","last_reported":1737187789,"current_range_meters":9200,"station_id":"ce4bhi12rcd13ifvqfp0","pricing_plan_id":"cebpf4jnsgd1na2vs0mg"},{"bike_id":"aea0287f-4f91-4afc-9a41-49d56054a64b","system_id":"levelo_inurba_marseille","lat":43.31701,"lon":5.40449,"is_reserved":false,"is_disabled":false,"rental_uris":{"android":"levelo://app?vid=aea0287f-4f91-4afc-9a41-49d56054a64b","ios":"levelo://app?vid=aea0287f-4f91-4afc-9a41-49d56054a64b"},"vehicle_type_id":"4","last_reported":1737187789,"current_range_meters":16400,"station_id":"ce4bh012rcd13ifvqd00","pricing_plan_id":"cebpf4jnsgd1na2vs0mg"},{"bike_id":"5ff1c1c1-92c2-43f7-8f5e-7f9a3f2cf9a0","system_id":"levelo_inurba_marseille","lat":43.24207,"lon":5.39717,"is_reserved":false,"is_disabled":false,"rental_uris":{"android":"levelo://app?vid=5ff1c1c1-92c2-43f7-8f5e-7f9a3f2cf9a0","ios":"levelo://app?vid=5ff1c1c1-92c2-43f7-8f5e-7f9a3f2cf9a0"},"vehicle_type_id":"4","last_reported":1737187789,"current_range_meters":38000,"station_id":"ce4bhn12rcd13ifvqgpg","pricing_plan_id":"cebpf4jnsgd1na2vs0mg"},{"bike_id":"da0080f8-7d77-4266-9654-4ff013a18db1","system_id":"levelo_inurba_marseille","lat":43.31177,"lon":5.3868,"is_reserved":false,"is_disabled":false,"rental_uris":{"android":"levelo://app?vid=da0080f8-7d77-4266-9654-4ff013a18db1","ios":"levelo://app?vid=da0080f8-7d77-4266-9654-4ff013a18db1"},"vehicle_type_id":"4","last_reported":1737187789,"current_range_meters":28800,"station_id":"ce4bgv12rcd13ifvqcp0","pricing_plan_id":"cebpf4jnsgd1na2vs0mg"},{"bike_id":"236f242b-623f-443a-868c-bdcb333bdbfe","system_id":"levelo_inurba_marseille","lat":43.2732,"lon":5.39065,"is_reserved":false,"is_disabled":false,"rental_uris":{"android":"levelo://app?vid=236f242b-623f-443a-868c-bdcb333bdbfe","ios":"levelo://app?vid=236f242b-623f-443a-868c-bdcb333bdbfe"},"vehicle_type_id":"4","last_reported":1737187789,"current_range_meters":11200,"station_id":"ce4bhgp2rcd13ifvqfe0","pricing_plan_id":"cebpf4jnsgd1na2vs0mg"},{"bike_id":"b96362ce-4e16-4958-a9fe-c3131f2addf9","system_id":"levelo_inurba_marseille","lat":43.29711,"lon":5.37696,"is_reserved":false,"is_disabled":false,"rental_uris":{"android":"levelo://app?vid=b96362ce-4e16-4958-a9fe-c3131f2addf9","ios":"levelo://app?vid=b96362ce-4e16-4958-a9fe-c3131f2addf9"},"vehicle_type_id":"4","last_reported":1737187789,"current_range_meters":37600,"station_id":"ce4bgkh2rcd13ifvqbl0","pricing_plan_id":"cebpf4jnsgd1na2vs0mg"},{"bike_id":"f2116e7a-f621-4ef5-8429-02f6f7f4c6c0","system_id":"levelo_inurba_marseille","lat":43.32039,"lon":5.41533,"is_reserved":false,"is_disabled":false,"rental_uris":{"android":"levelo://app?vid=f2116e7a-f621-4ef5-8429-02f6f7f4c6c0","ios":"levelo://app?vid=f2116e7a-f621-4ef5-8429-02f6f7f4c6c0"},"vehicle_type_id":"4","last_reported":1737187789,"current_range_meters":26800,"station_id":"ce4bhq92rcd13ifvqhkg","pricing_plan_id":"cebpf4jnsgd1na2vs0mg"},{"bike_id":"a5dcdfc0-546b-4a35-a983-5f8da8f6014c","system_id":"levelo_inurba_marseille","lat":43.3094,"lon":5.40161,"is_reserved":false,"is_disabled":false,"rental_uris":{"android":"levelo://app?vid=a5dcdfc0-546b-4a35-a983-5f8da8f6014c","ios":"levelo://app?vid=a5dcdfc0-546b-4a35-a983-5f8da8f6014c"},"vehicle_type_id":"4","last_reported":1737187789,"current_range_meters":37600,"station_id":"ce4bgvp2rcd13ifvqct0","pricing_plan_id":"cebpf4jnsgd1na2vs0mg"},{"bike_id":"da34a967-bdf3-4aa6-acad-ad0a10ae2271","system_id":"levelo_inurba_marseille","lat":43.29524,"lon":5.38543,"is_reserved":false,"is_disabled":false,"rental_uris":{"android":"levelo://app?vid=da34a967-bdf3-4aa6-acad-ad0a10ae2271","ios":"levelo://app?vid=da34a967-bdf3-4aa6-acad-ad0a10ae2271"},"vehicle_type_id":"4","last_reported":1737187789,"current_range_meters":38000,"station_id":"ce4bgih2rcd13ifvqba0","pricing_plan_id":"cebpf4jnsgd1na2vs0mg"},{"bike_id":"d8876122-ff1e-42bb-a9ac-c66c39d72467","system_id":"levelo_inurba_marseille","lat":43.24387,"lon":5.37052,"is_reserved":false,"is_disabled":false,"rental_uris":{"android":"levelo://app?vid=d8876122-ff1e-42bb-a9ac-c66c39d72467","ios":"levelo://app?vid=d8876122-ff1e-42bb-a9ac-c66c39d72467"},"vehicle_type_id":"4","last_reported":1737187789,"current_range_meters":27600,"station_id":"ce4bhhh2rcd13ifvqfk0","pricing_plan_id":"cebpf4jnsgd1na2vs0mg"},{"bike_id":"29cb8a32-e9f9-4658-bd20-77050ade4ff3","system_id":"levelo_inurba_marseille","lat":43.30877,"lon":5.39634,"is_reserved":false,"is_disabled":false,"rental_uris":{"android":"levelo://app?vid=29cb8a32-e9f9-4658-bd20-77050ade4ff3","ios":"levelo://app?vid=29cb8a32-e9f9-4658-bd20-77050ade4ff3"},"vehicle_type_id":"4","last_reported":1737187789,"current_range_meters":27600,"station_id":"ce4bh012rcd13ifvqcv0","pricing_plan_id":"cebpf4jnsgd1na2vs0mg"},{"bike_id":"277cd2a0-110d-4a4e-865a-872d21999461","system_id":"levelo_inurba_marseille","lat":43.30124,"lon":5.38797,"is_reserved":false,"is_disabled":false,"rental_uris":{"android":"levelo://app?vid=277cd2a0-110d-4a4e-865a-872d21999461","ios":"levelo://app?vid=277cd2a0-110d-4a4e-865a-872d21999461"},"vehicle_type_id":"4","last_reported":1737187789,"current_range_meters":36400,"station_id":"ce4bghh2rcd13ifvqb60","pricing_plan_id":"cebpf4jnsgd1na2vs0mg"},{"bike_id":"05b05eeb-86c7-415c-bec4-ea60ab965f3e","system_id":"levelo_inurba_marseille","lat":43.3211,"lon":5.3677,"is_reserved":false,"is_disabled":false,"rental_uris":{"android":"levelo://app?vid=05b05eeb-86c7-415c-bec4-ea60ab965f3e","ios":"levelo://app?vid=05b05eeb-86c7-415c-bec4-ea60ab965f3e"},"vehicle_type_id":"4","last_reported":1737187789,"current_range_meters":28400,"station_id":"ce4bhrh2rcd13ifvqhug","pricing_plan_id":"cebpf4jnsgd1na2vs0mg"},{"bike_id":"453b4a42-026b-40d5-9f5c-2f1a04698821","system_id":"levelo_inurba_marseille","lat":43.31275,"lon":5.40158,"is_reserved":false,"is_disabled":false,"rental_uris":{"android":"levelo://app?vid=453b4a42-026b-40d5-9f5c-2f1a04698821","ios":"levelo://app?vid=453b4a42-026b-40d5-9f5c-2f1a04698821"},"vehicle_type_id":"4","last_reported":1737187789,"current_range_meters":39200,"station_id":"ce4bh092rcd13ifvqd30","pricing_plan_id":"cebpf4jnsgd1na2vs0mg"},{"bike_id":"55812cfe-1f4d-44b2-b35a-bd38298b42f5","system_id":"levelo_inurba_marseille","lat":43.24162,"lon":5.36397,"is_reserved":false,"is_disabled":false,"rental_uris":{"android":"levelo://app?vid=55812cfe-1f4d-44b2-b35a-bd38298b42f5","ios":"levelo://app?vid=55812cfe-1f4d-44b2-b35a-bd38298b42f5"},"vehicle_type_id":"4","last_reported":1737187789,"current_range_meters":28000,"station_id":"cpo36qri1sfpv3e86is0","pricing_plan_id":"cebpf4jnsgd1na2vs0mg"},{"bike_id":"2f97325b-1957-43f3-905c-110ec22dfdf4","system_id":"levelo_inurba_marseille","lat":43.27916,"lon":5.39575,"is_reserved":false,"is_disabled":false,"rental_uris":{"android":"levelo://app?vid=2f97325b-1957-43f3-905c-110ec22dfdf4","ios":"levelo://app?vid=2f97325b-1957-43f3-905c-110ec22dfdf4"},"vehicle_type_id":"4","last_reported":1737187789,"current_range_meters":28800,"station_id":"ce4bhf92rcd13ifvqf40","pricing_plan_id":"cebpf4jnsgd1na2vs0mg"},{"bike_id":"60ff21e2-2b6f-40ce-af32-7d2faf01082c","system_id":"levelo_inurba_marseille","lat":43.27558,"lon":5.38416,"is_reserved":false,"is_disabled":true,"rental_uris":{"android":"levelo://app?vid=60ff21e2-2b6f-40ce-af32-7d2faf01082c","ios":"levelo://app?vid=60ff21e2-2b6f-40ce-af32-7d2faf01082c"},"vehicle_type_id":"4","last_reported":1737187789,"current_range_meters":36000,"station_id":"ce4bhh92rcd13ifvqfi0","pricing_plan_id":"cebpf4jnsgd1na2vs0mg"},{"bike_id":"afff1649-59f3-4475-b17f-4286047a72cf","system_id":"levelo_inurba_marseille","lat":43.30941,"lon":5.40136,"is_reserved":false,"is_disabled":false,"rental_uris":{"android":"levelo://app?vid=afff1649-59f3-4475-b17f-4286047a72cf","ios":"levelo://app?vid=afff1649-59f3-4475-b17f-4286047a72cf"},"vehicle_type_id":"4","last_reported":1737187789,"current_range_meters":18800,"station_id":"ce4bgvp2rcd13ifvqct0","pricing_plan_id":"cebpf4jnsgd1na2vs0mg"},{"bike_id":"f3c94274-f861-4c89-8bb1-1ebe1a531935","system_id":"levelo_inurba_marseille","lat":43.25007,"lon":5.38926,"is_reserved":false,"is_disabled":true,"rental_uris":{"android":"levelo://app?vid=f3c94274-f861-4c89-8bb1-1ebe1a531935","ios":"levelo://app?vid=f3c94274-f861-4c89-8bb1-1ebe1a531935"},"vehicle_type_id":"4","last_reported":1737187789,"current_range_meters":1600,"station_id":"ce4bhgp2rcd13ifvqfd0","pricing_plan_id":"cebpf4jnsgd1na2vs0mg"},{"bike_id":"40d0191c-e810-4a36-a422-bc4c430d36d5","system_id":"levelo_inurba_marseille","lat":43.28143,"lon":5.4264,"is_reserved":false,"is_disabled":false,"rental_uris":{"android":"levelo://app?vid=40d0191c-e810-4a36-a422-bc4c430d36d5","ios":"levelo://app?vid=40d0191c-e810-4a36-a422-bc4c430d36d5"},"vehicle_type_id":"4","last_reported":1737187789,"current_range_meters":18000,"station_id":"ce4bhnh2rcd13ifvqgug","pricing_plan_id":"cebpf4jnsgd1na2vs0mg"},{"bike_id":"ea820ade-d81d-428e-82b9-7f165f7e8e75","system_id":"levelo_inurba_marseille","lat":43.318233,"lon":5.374018,"is_reserved":false,"is_disabled":false,"rental_uris":{"android":"levelo://app?vid=ea820ade-d81d-428e-82b9-7f165f7e8e75","ios":"levelo://app?vid=ea820ade-d81d-428e-82b9-7f165f7e8e75"},"vehicle_type_id":"4","last_reported":1737187789,"current_range_meters":24000,"station_id":"","pricing_plan_id":"cebpf4jnsgd1na2vs0mg"},{"bike_id":"ff4b68f1-ba61-49bc-bc42-1ee83da4c2ee","system_id":"levelo_inurba_marseille","lat":43.30892,"lon":5.39636,"is_reserved":false,"is_disabled":true,"rental_uris":{"android":"levelo://app?vid=ff4b68f1-ba61-49bc-bc42-1ee83da4c2ee","ios":"levelo://app?vid=ff4b68f1-ba61-49bc-bc42-1ee83da4c2ee"},"vehicle_type_id":"4","last_reported":1737187789,"current_range_meters":36800,"station_id":"ce4bh012rcd13ifvqcv0","pricing_plan_id":"cebpf4jnsgd1na2vs0mg"},{"bike_id":"84020291-e3ee-488e-a74c-f035fe041e83","system_id":"levelo_inurba_marseille","lat":43.26917,"lon":5.40278,"is_reserved":false,"is_disabled":false,"rental_uris":{"android":"levelo://app?vid=84020291-e3ee-488e-a74c-f035fe041e83","ios":"levelo://app?vid=84020291-e3ee-488e-a74c-f035fe041e83"},"vehicle_type_id":"4","last_reported":1737187789,"current_range_meters":39200,"station_id":"cjm6bp8fraef2m0cb0m0","pricing_plan_id":"cebpf4jnsgd1na2vs0mg"},{"bike_id":"40a84bb7-b298-41c9-9be3-6988c404f7ba","system_id":"levelo_inurba_marseille","lat":43.29523,"lon":5.39035,"is_reserved":false,"is_disabled":true,"rental_uris":{"android":"levelo://app?vid=40a84bb7-b298-41c9-9be3-6988c404f7ba","ios":"levelo://app?vid=40a84bb7-b298-41c9-9be3-6988c404f7ba"},"vehicle_type_id":"4","last_reported":1737187789,"current_range_meters":26000,"station_id":"ce4bh3p2rcd13ifvqdp0","pricing_plan_id":"cebpf4jnsgd1na2vs0mg"},{"bike_id":"8c854656-dcbb-4282-96d8-4a8ea876f913","system_id":"levelo_inurba_marseille","lat":43.30325,"lon":5.40441,"is_reserved":false,"is_disabled":false,"rental_uris":{"android":"levelo://app?vid=8c854656-dcbb-4282-96d8-4a8ea876f913","ios":"levelo://app?vid=8c854656-dcbb-4282-96d8-4a8ea876f913"},"vehicle_type_id":"4","last_reported":1737187789,"current_range_meters":32000,"station_id":"ce4bh012rcd13ifvqd10","pricing_plan_id":"cebpf4jnsgd1na2vs0mg"},{"bike_id":"b741beff-003b-4d5a-98b4-0686cfb17ad9","system_id":"levelo_inurba_marseille","lat":43.29797,"lon":5.4041,"is_reserved":false,"is_disabled":false,"rental_uris":{"android":"levelo://app?vid=b741beff-003b-4d5a-98b4-0686cfb17ad9","ios":"levelo://app?vid=b741beff-003b-4d5a-98b4-0686cfb17ad9"},"vehicle_type_id":"4","last_reported":1737187789,"current_range_meters":38800,"station_id":"ce4bh112rcd13ifvqd90","pricing_plan_id":"cebpf4jnsgd1na2vs0mg"},{"bike_id":"01700abc-dc23-4230-bb40-2f20407f0c95","system_id":"levelo_inurba_marseille","lat":43.30946,"lon":5.39033,"is_reserved":false,"is_disabled":false,"rental_uris":{"android":"levelo://app?vid=01700abc-dc23-4230-bb40-2f20407f0c95","ios":"levelo://app?vid=01700abc-dc23-4230-bb40-2f20407f0c95"},"vehicle_type_id":"4","last_reported":1737187789,"current_range_meters":30400,"station_id":"ce4bgup2rcd13ifvqco0","pricing_plan_id":"cebpf4jnsgd1na2vs0mg"},{"bike_id":"996cc7ad-31ae-48de-8584-bf53e40d5297","system_id":"levelo_inurba_marseille","lat":43.28116,"lon":5.37834,"is_reserved":false,"is_disabled":true,"rental_uris":{"android":"levelo://app?vid=996cc7ad-31ae-48de-8584-bf53e40d5297","ios":"levelo://app?vid=996cc7ad-31ae-48de-8584-bf53e40d5297"},"vehicle_type_id":"4","last_reported":1737187789,"current_range_meters":800,"station_id":"ce4bha12rcd13ifvqee0","pricing_plan_id":"cebpf4jnsgd1na2vs0mg"},{"bike_id":"b672b566-ae6e-4181-a2cb-0155be334a04","system_id":"levelo_inurba_marseille","lat":43.28966,"lon":5.36582,"is_reserved":false,"is_disabled":true,"rental_uris":{"android":"levelo://app?vid=b672b566-ae6e-4181-a2cb-0155be334a04","ios":"levelo://app?vid=b672b566-ae6e-4181-a2cb-0155be334a04"},"vehicle_type_id":"4","last_reported":1737187789,"current_range_meters":0,"station_id":"ce4bhap2rcd13ifvqek0","pricing_plan_id":"cebpf4jnsgd1na2vs0mg"},{"bike_id":"264e5736-5f1f-488b-9894-7a93e48763e1","system_id":"levelo_inurba_marseille","lat":43.28461,"lon":5.35884,"is_reserved":false,"is_disabled":false,"rental_uris":{"android":"levelo://app?vid=264e5736-5f1f-488b-9894-7a93e48763e1","ios":"levelo://app?vid=264e5736-5f1f-488b-9894-7a93e48763e1"},"vehicle_type_id":"4","last_reported":1737187789,"current_range_meters":12800,"station_id":"ce4bhah2rcd13ifvqei0","pricing_plan_id":"cebpf4jnsgd1na2vs0mg"},{"bike_id":"fd32118a-1e10-4bd3-9c96-03160537b3f3","system_id":"levelo_inurba_marseille","lat":43.28722,"lon":5.3608,"is_reserved":false,"is_disabled":false,"rental_uris":{"android":"levelo://app?vid=fd32118a-1e10-4bd3-9c96-03160537b3f3","ios":"levelo://app?vid=fd32118a-1e10-4bd3-9c96-03160537b3f3"},"vehicle_type_id":"4","last_reported":1737187789,"current_range_meters":24400,"station_id":"cki0cbj6b192h4jlfktg","pricing_plan_id":"cebpf4jnsgd1na2vs0mg"},{"bike_id":"691b9807-39e4-49d3-99ef-db40ae478116","system_id":"levelo_inurba_marseille","lat":43.28262,"lon":5.35068,"is_reserved":false,"is_disabled":false,"rental_uris":{"android":"levelo://app?vid=691b9807-39e4-49d3-99ef-db40ae478116","ios":"levelo://app?vid=691b9807-39e4-49d3-99ef-db40ae478116"},"vehicle_type_id":"4","last_reported":1737187789,"current_range_meters":38000,"station_id":"ce4bhbp2rcd13ifvqerg","pricing_plan_id":"cebpf4jnsgd1na2vs0mg"},{"bike_id":"66ec8711-3dbc-48f7-b091-25773ac6b77c","system_id":"levelo_inurba_marseille","lat":43.28198,"lon":5.44275,"is_reserved":false,"is_disabled":true,"rental_uris":{"android":"levelo://app?vid=66ec8711-3dbc-48f7-b091-25773ac6b77c","ios":"levelo://app?vid=66ec8711-3dbc-48f7-b091-25773ac6b77c"},"vehicle_type_id":"4","last_reported":1737187789,"current_range_meters":0,"station_id":"","pricing_plan_id":"cebpf4jnsgd1na2vs0mg"},{"bike_id":"273d778a-f330-415c-8b04-8fe86fd41c18","system_id":"levelo_inurba_marseille","lat":43.29074,"lon":5.38183,"is_reserved":false,"is_disabled":false,"rental_uris":{"android":"levelo://app?vid=273d778a-f330-415c-8b04-8fe86fd41c18","ios":"levelo://app?vid=273d778a-f330-415c-8b04-8fe86fd41c18"},"vehicle_type_id":"4","last_reported":1737187789,"current_range_meters":38800,"station_id":"ce4bh512rcd13ifvqe2g","pricing_plan_id":"cebpf4jnsgd1na2vs0mg"},{"bike_id":"5e143f2e-5809-48e3-af3c-832b93623f81","system_id":"levelo_inurba_marseille","lat":43.29798,"lon":5.40411,"is_reserved":false,"is_disabled":false,"rental_uris":{"android":"levelo://app?vid=5e143f2e-5809-48e3-af3c-832b93623f81","ios":"levelo://app?vid=5e143f2e-5809-48e3-af3c-832b93623f81"},"vehicle_type_id":"4","last_reported":1737187789,"current_range_meters":38800,"station_id":"ce4bh112rcd13ifvqd90","pricing_plan_id":"cebpf4jnsgd1na2vs0mg"},{"bike_id":"699f9075-c5fb-4c2e-b1de-3e38057eaabe","system_id":"levelo_inurba_marseille","lat":43.25002,"lon":5.38931,"is_reserved":false,"is_disabled":false,"rental_uris":{"android":"levelo://app?vid=699f9075-c5fb-4c2e-b1de-3e38057eaabe","ios":"levelo://app?vid=699f9075-c5fb-4c2e-b1de-3e38057eaabe"},"vehicle_type_id":"4","last_reported":1737187789,"current_range_meters":23200,"station_id":"ce4bhgp2rcd13ifvqfd0","pricing_plan_id":"cebpf4jnsgd1na2vs0mg"},{"bike_id":"b6727c2a-0037-431b-96be-59029d8169fa","system_id":"levelo_inurba_marseille","lat":43.31231,"lon":5.36827,"is_reserved":false,"is_disabled":false,"rental_uris":{"android":"levelo://app?vid=b6727c2a-0037-431b-96be-59029d8169fa","ios":"levelo://app?vid=b6727c2a-0037-431b-96be-59029d8169fa"},"vehicle_type_id":"4","last_reported":1737187789,"current_range_meters":27600,"station_id":"ce4bgl92rcd13ifvqbq0","pricing_plan_id":"cebpf4jnsgd1na2vs0mg"},{"bike_id":"0ce2ff96-cf7c-44da-8785-cacc89ceb5f3","system_id":"levelo_inurba_marseille","lat":43.27544,"lon":5.38411,"is_reserved":false,"is_disabled":false,"rental_uris":{"android":"levelo://app?vid=0ce2ff96-cf7c-44da-8785-cacc89ceb5f3","ios":"levelo://app?vid=0ce2ff96-cf7c-44da-8785-cacc89ceb5f3"},"vehicle_type_id":"4","last_reported":1737187789,"current_range_meters":38800,"station_id":"ce4bhh92rcd13ifvqfi0","pricing_plan_id":"cebpf4jnsgd1na2vs0mg"},{"bike_id":"fae596ec-c4c8-4303-a419-c17ca93b0494","system_id":"levelo_inurba_marseille","lat":43.28265,"lon":5.35045,"is_reserved":false,"is_disabled":false,"rental_uris":{"android":"levelo://app?vid=fae596ec-c4c8-4303-a419-c17ca93b0494","ios":"levelo://app?vid=fae596ec-c4c8-4303-a419-c17ca93b0494"},"vehicle_type_id":"4","last_reported":1737187789,"current_range_meters":15200,"station_id":"ce4bhbp2rcd13ifvqerg","pricing_plan_id":"cebpf4jnsgd1na2vs0mg"},{"bike_id":"0aaf6bd7-dc6c-41d2-ae64-aa04a720b54e","system_id":"levelo_inurba_marseille","lat":43.24811,"lon":5.37459,"is_reserved":false,"is_disabled":true,"rental_uris":{"android":"levelo://app?vid=0aaf6bd7-dc6c-41d2-ae64-aa04a720b54e","ios":"levelo://app?vid=0aaf6bd7-dc6c-41d2-ae64-aa04a720b54e"},"vehicle_type_id":"4","last_reported":1737187789,"current_range_meters":2000,"station_id":"ce4bhgh2rcd13ifvqfb0","pricing_plan_id":"cebpf4jnsgd1na2vs0mg"},{"bike_id":"8a976244-dead-4ea1-8752-b392d9189278","system_id":"levelo_inurba_marseille","lat":43.28938,"lon":5.36423,"is_reserved":false,"is_disabled":false,"rental_uris":{"android":"levelo://app?vid=8a976244-dead-4ea1-8752-b392d9189278","ios":"levelo://app?vid=8a976244-dead-4ea1-8752-b392d9189278"},"vehicle_type_id":"4","last_reported":1737187789,"current_range_meters":35600,"station_id":"ce4bhc92rcd13ifvqetg","pricing_plan_id":"cebpf4jnsgd1na2vs0mg"},{"bike_id":"c430d1f2-9680-49bc-9c75-12630e539451","system_id":"levelo_inurba_marseille","lat":43.33606,"lon":5.41033,"is_reserved":false,"is_disabled":false,"rental_uris":{"android":"levelo://app?vid=c430d1f2-9680-49bc-9c75-12630e539451","ios":"levelo://app?vid=c430d1f2-9680-49bc-9c75-12630e539451"},"vehicle_type_id":"4","last_reported":1737187789,"current_range_meters":27600,"station_id":"ce4bhqh2rcd13ifvqhmg","pricing_plan_id":"cebpf4jnsgd1na2vs0mg"},{"bike_id":"7290a960-a5a5-4813-ae34-1769183e58f7","system_id":"levelo_inurba_marseille","lat":43.30642,"lon":5.40077,"is_reserved":false,"is_disabled":false,"rental_uris":{"android":"levelo://app?vid=7290a960-a5a5-4813-ae34-1769183e58f7","ios":"levelo://app?vid=7290a960-a5a5-4813-ae34-1769183e58f7"},"vehicle_type_id":"4","last_reported":1737187789,"current_range_meters":8400,"station_id":"ce4bh112rcd13ifvqda0","pricing_plan_id":"cebpf4jnsgd1na2vs0mg"},{"bike_id":"d538085c-342a-4314-81c7-b4e115511ca7","system_id":"levelo_inurba_marseille","lat":43.30324,"lon":5.40446,"is_reserved":false,"is_disabled":false,"rental_uris":{"android":"levelo://app?vid=d538085c-342a-4314-81c7-b4e115511ca7","ios":"levelo://app?vid=d538085c-342a-4314-81c7-b4e115511ca7"},"vehicle_type_id":"4","last_reported":1737187789,"current_range_meters":30000,"station_id":"ce4bh012rcd13ifvqd10","pricing_plan_id":"cebpf4jnsgd1na2vs0mg"},{"bike_id":"e27e6e83-5180-4cf4-86d5-a9546d7a7eec","system_id":"levelo_inurba_marseille","lat":43.2834,"lon":5.38108,"is_reserved":false,"is_disabled":true,"rental_uris":{"android":"levelo://app?vid=e27e6e83-5180-4cf4-86d5-a9546d7a7eec","ios":"levelo://app?vid=e27e6e83-5180-4cf4-86d5-a9546d7a7eec"},"vehicle_type_id":"4","last_reported":1737187789,"current_range_meters":28800,"station_id":"ce4bh412rcd13ifvqdr0","pricing_plan_id":"cebpf4jnsgd1na2vs0mg"},{"bike_id":"2ee0ccc1-a9e0-4e15-a20f-a75b9ce52b18","system_id":"levelo_inurba_marseille","lat":43.28458,"lon":5.35889,"is_reserved":false,"is_disabled":false,"rental_uris":{"android":"levelo://app?vid=2ee0ccc1-a9e0-4e15-a20f-a75b9ce52b18","ios":"levelo://app?vid=2ee0ccc1-a9e0-4e15-a20f-a75b9ce52b18"},"vehicle_type_id":"4","last_reported":1737187789,"current_range_meters":38800,"station_id":"ce4bhah2rcd13ifvqei0","pricing_plan_id":"cebpf4jnsgd1na2vs0mg"},{"bike_id":"d2fd4ee2-47a2-409f-8c6f-4ba6059ba0cc","system_id":"levelo_inurba_marseille","lat":43.28938,"lon":5.39631,"is_reserved":false,"is_disabled":false,"rental_uris":{"android":"levelo://app?vid=d2fd4ee2-47a2-409f-8c6f-4ba6059ba0cc","ios":"levelo://app?vid=d2fd4ee2-47a2-409f-8c6f-4ba6059ba0cc"},"vehicle_type_id":"4","last_reported":1737187789,"current_range_meters":39200,"station_id":"ce4bh3h2rcd13ifvqdn0","pricing_plan_id":"cebpf4jnsgd1na2vs0mg"},{"bike_id":"8ba1869c-1eb4-4e26-96c2-5ed043c00dd7","system_id":"levelo_inurba_marseille","lat":43.28484,"lon":5.38563,"is_reserved":false,"is_disabled":false,"rental_uris":{"android":"levelo://app?vid=8ba1869c-1eb4-4e26-96c2-5ed043c00dd7","ios":"levelo://app?vid=8ba1869c-1eb4-4e26-96c2-5ed043c00dd7"},"vehicle_type_id":"4","last_reported":1737187789,"current_range_meters":38000,"station_id":"ce4bh8p2rcd13ifvqeb0","pricing_plan_id":"cebpf4jnsgd1na2vs0mg"},{"bike_id":"e44d3b46-7a6c-48a1-bfde-c63c43f92cf0","system_id":"levelo_inurba_marseille","lat":43.28597,"lon":5.35118,"is_reserved":false,"is_disabled":false,"rental_uris":{"android":"levelo://app?vid=e44d3b46-7a6c-48a1-bfde-c63c43f92cf0","ios":"levelo://app?vid=e44d3b46-7a6c-48a1-bfde-c63c43f92cf0"},"vehicle_type_id":"4","last_reported":1737187789,"current_range_meters":30000,"station_id":"ce4bhch2rcd13ifvqeug","pricing_plan_id":"cebpf4jnsgd1na2vs0mg"},{"bike_id":"0dc6f470-e107-4a62-9e24-59aa7a910dcd","system_id":"levelo_inurba_marseille","lat":43.309349,"lon":5.401448,"is_reserved":false,"is_disabled":false,"rental_uris":{"android":"levelo://app?vid=0dc6f470-e107-4a62-9e24-59aa7a910dcd","ios":"levelo://app?vid=0dc6f470-e107-4a62-9e24-59aa7a910dcd"},"vehicle_type_id":"4","last_reported":1737187789,"current_range_meters":32000,"station_id":"ce4bgvp2rcd13ifvqct0","pricing_plan_id":"cebpf4jnsgd1na2vs0mg"},{"bike_id":"a8e68905-4196-41cc-90d8-ce6a1fbe0294","system_id":"levelo_inurba_marseille","lat":43.27897,"lon":5.38014,"is_reserved":false,"is_disabled":false,"rental_uris":{"android":"levelo://app?vid=a8e68905-4196-41cc-90d8-ce6a1fbe0294","ios":"levelo://app?vid=a8e68905-4196-41cc-90d8-ce6a1fbe0294"},"vehicle_type_id":"4","last_reported":1737187789,"current_range_meters":2800,"station_id":"ce4bhf92rcd13ifvqf50","pricing_plan_id":"cebpf4jnsgd1na2vs0mg"},{"bike_id":"50dff923-6637-4623-b3c6-12a3cea221cd","system_id":"levelo_inurba_marseille","lat":43.28461,"lon":5.35885,"is_reserved":false,"is_disabled":false,"rental_uris":{"android":"levelo://app?vid=50dff923-6637-4623-b3c6-12a3cea221cd","ios":"levelo://app?vid=50dff923-6637-4623-b3c6-12a3cea221cd"},"vehicle_type_id":"4","last_reported":1737187789,"current_range_meters":38800,"station_id":"ce4bhah2rcd13ifvqei0","pricing_plan_id":"cebpf4jnsgd1na2vs0mg"},{"bike_id":"8926b51e-df5d-4d8d-9a11-c3df764a0fbf","system_id":"levelo_inurba_marseille","lat":43.30777,"lon":5.3765,"is_reserved":false,"is_disabled":false,"rental_uris":{"android":"levelo://app?vid=8926b51e-df5d-4d8d-9a11-c3df764a0fbf","ios":"levelo://app?vid=8926b51e-df5d-4d8d-9a11-c3df764a0fbf"},"vehicle_type_id":"4","last_reported":1737187789,"current_range_meters":29600,"station_id":"ce4bgv92rcd13ifvqcq0","pricing_plan_id":"cebpf4jnsgd1na2vs0mg"},{"bike_id":"7bed793c-7d01-42bb-a112-7f2afdd2278b","system_id":"levelo_inurba_marseille","lat":43.2942,"lon":5.3862,"is_reserved":false,"is_disabled":false,"rental_uris":{"android":"levelo://app?vid=7bed793c-7d01-42bb-a112-7f2afdd2278b","ios":"levelo://app?vid=7bed793c-7d01-42bb-a112-7f2afdd2278b"},"vehicle_type_id":"4","last_reported":1737187789,"current_range_meters":38400,"station_id":"ce4bh2h2rcd13ifvqdh0","pricing_plan_id":"cebpf4jnsgd1na2vs0mg"},{"bike_id":"c6b2298b-e3ea-4ff5-9aea-4dedd2e2a126","system_id":"levelo_inurba_marseille","lat":43.2952,"lon":5.39028,"is_reserved":false,"is_disabled":true,"rental_uris":{"android":"levelo://app?vid=c6b2298b-e3ea-4ff5-9aea-4dedd2e2a126","ios":"levelo://app?vid=c6b2298b-e3ea-4ff5-9aea-4dedd2e2a126"},"vehicle_type_id":"4","last_reported":1737187789,"current_range_meters":28800,"station_id":"ce4bh3p2rcd13ifvqdp0","pricing_plan_id":"cebpf4jnsgd1na2vs0mg"},{"bike_id":"6802b89c-8da4-4173-a497-131430ef9a30","system_id":"levelo_inurba_marseille","lat":43.29795,"lon":5.381,"is_reserved":false,"is_disabled":false,"rental_uris":{"android":"levelo://app?vid=6802b89c-8da4-4173-a497-131430ef9a30","ios":"levelo://app?vid=6802b89c-8da4-4173-a497-131430ef9a30"},"vehicle_type_id":"4","last_reported":1737187789,"current_range_meters":3200,"station_id":"ce4bgip2rcd13ifvqbb0","pricing_plan_id":"cebpf4jnsgd1na2vs0mg"},{"bike_id":"1bd8ab48-ff47-489b-86bb-a223574d8c4d","system_id":"levelo_inurba_marseille","lat":43.28484,"lon":5.38416,"is_reserved":false,"is_disabled":false,"rental_uris":{"android":"levelo://app?vid=1bd8ab48-ff47-489b-86bb-a223574d8c4d","ios":"levelo://app?vid=1bd8ab48-ff47-489b-86bb-a223574d8c4d"},"vehicle_type_id":"4","last_reported":1737187789,"current_range_meters":31200,"station_id":"ce4bh512rcd13ifvqe3g","pricing_plan_id":"cebpf4jnsgd1na2vs0mg"},{"bike_id":"1fa8137e-fc19-4fda-8d6e-2ded2b0a0f95","system_id":"levelo_inurba_marseille","lat":43.26183,"lon":5.37457,"is_reserved":false,"is_disabled":false,"rental_uris":{"android":"levelo://app?vid=1fa8137e-fc19-4fda-8d6e-2ded2b0a0f95","ios":"levelo://app?vid=1fa8137e-fc19-4fda-8d6e-2ded2b0a0f95"},"vehicle_type_id":"4","last_reported":1737187789,"current_range_meters":38800,"station_id":"ce4bhgp2rcd13ifvqfc0","pricing_plan_id":"cebpf4jnsgd1na2vs0mg"},{"bike_id":"28409fc6-6093-43dd-a74e-a257a9f02789","system_id":"levelo_inurba_marseille","lat":43.27418,"lon":5.39415,"is_reserved":false,"is_disabled":false,"rental_uris":{"android":"levelo://app?vid=28409fc6-6093-43dd-a74e-a257a9f02789","ios":"levelo://app?vid=28409fc6-6093-43dd-a74e-a257a9f02789"},"vehicle_type_id":"4","last_reported":1737187789,"current_range_meters":39200,"station_id":"ce4bhdp2rcd13ifvqf20","pricing_plan_id":"cebpf4jnsgd1na2vs0mg"},{"bike_id":"e174d81a-f0d8-4ee0-a732-d6081a625def","system_id":"levelo_inurba_marseille","lat":43.27171,"lon":5.40976,"is_reserved":false,"is_disabled":false,"rental_uris":{"android":"levelo://app?vid=e174d81a-f0d8-4ee0-a732-d6081a625def","ios":"levelo://app?vid=e174d81a-f0d8-4ee0-a732-d6081a625def"},"vehicle_type_id":"4","last_reported":1737187789,"current_range_meters":36400,"station_id":"ce4bhl12rcd13ifvqgf0","pricing_plan_id":"cebpf4jnsgd1na2vs0mg"},{"bike_id":"6ea4d259-06b8-4e0f-9494-4eae2040b46d","system_id":"levelo_inurba_marseille","lat":43.24176,"lon":5.39719,"is_reserved":false,"is_disabled":false,"rental_uris":{"android":"levelo://app?vid=6ea4d259-06b8-4e0f-9494-4eae2040b46d","ios":"levelo://app?vid=6ea4d259-06b8-4e0f-9494-4eae2040b46d"},"vehicle_type_id":"4","last_reported":1737187789,"current_range_meters":25200,"station_id":"ce4bhn12rcd13ifvqgpg","pricing_plan_id":"cebpf4jnsgd1na2vs0mg"},{"bike_id":"cfe96f23-e2ad-47bd-a7d6-e2361f3de05b","system_id":"levelo_inurba_marseille","lat":43.26803,"lon":5.40272,"is_reserved":false,"is_disabled":false,"rental_uris":{"android":"levelo://app?vid=cfe96f23-e2ad-47bd-a7d6-e2361f3de05b","ios":"levelo://app?vid=cfe96f23-e2ad-47bd-a7d6-e2361f3de05b"},"vehicle_type_id":"4","last_reported":1737187789,"current_range_meters":38000,"station_id":"ce501612rcd8frsf0b60","pricing_plan_id":"cebpf4jnsgd1na2vs0mg"},{"bike_id":"8eaddf67-1ea5-48ba-bed3-583a76394419","system_id":"levelo_inurba_marseille","lat":43.25004,"lon":5.38926,"is_reserved":false,"is_disabled":false,"rental_uris":{"android":"levelo://app?vid=8eaddf67-1ea5-48ba-bed3-583a76394419","ios":"levelo://app?vid=8eaddf67-1ea5-48ba-bed3-583a76394419"},"vehicle_type_id":"4","last_reported":1737187789,"current_range_meters":18800,"station_id":"ce4bhgp2rcd13ifvqfd0","pricing_plan_id":"cebpf4jnsgd1na2vs0mg"},{"bike_id":"0aacbbb4-b4df-4112-9f3e-9c8b0c3a36b2","system_id":"levelo_inurba_marseille","lat":43.24385,"lon":5.37058,"is_reserved":false,"is_disabled":false,"rental_uris":{"android":"levelo://app?vid=0aacbbb4-b4df-4112-9f3e-9c8b0c3a36b2","ios":"levelo://app?vid=0aacbbb4-b4df-4112-9f3e-9c8b0c3a36b2"},"vehicle_type_id":"4","last_reported":1737187789,"current_range_meters":38800,"station_id":"ce4bhhh2rcd13ifvqfk0","pricing_plan_id":"cebpf4jnsgd1na2vs0mg"},{"bike_id":"4195a369-a7ca-4062-b0c4-11dcec0d9a33","system_id":"levelo_inurba_marseille","lat":43.303056,"lon":5.391936,"is_reserved":false,"is_disabled":true,"rental_uris":{"android":"levelo://app?vid=4195a369-a7ca-4062-b0c4-11dcec0d9a33","ios":"levelo://app?vid=4195a369-a7ca-4062-b0c4-11dcec0d9a33"},"vehicle_type_id":"4","last_reported":1737187789,"current_range_meters":37600,"station_id":"ce4bgkh2rcd13ifvqbk0","pricing_plan_id":"cebpf4jnsgd1na2vs0mg"},{"bike_id":"1c47bd0b-03b1-499e-b800-21ee976a9516","system_id":"levelo_inurba_marseille","lat":43.25868,"lon":5.39907,"is_reserved":false,"is_disabled":false,"rental_uris":{"android":"levelo://app?vid=1c47bd0b-03b1-499e-b800-21ee976a9516","ios":"levelo://app?vid=1c47bd0b-03b1-499e-b800-21ee976a9516"},"vehicle_type_id":"4","last_reported":1737187789,"current_range_meters":30400,"station_id":"ce4bhl92rcd13ifvqghg","pricing_plan_id":"cebpf4jnsgd1na2vs0mg"},{"bike_id":"891d5aa4-b1b0-4e0c-90ac-49e97bf9c382","system_id":"levelo_inurba_marseille","lat":43.23181,"lon":5.40012,"is_reserved":false,"is_disabled":false,"rental_uris":{"android":"levelo://app?vid=891d5aa4-b1b0-4e0c-90ac-49e97bf9c382","ios":"levelo://app?vid=891d5aa4-b1b0-4e0c-90ac-49e97bf9c382"},"vehicle_type_id":"4","last_reported":1737187789,"current_range_meters":30400,"station_id":"ce4bhn12rcd13ifvqgqg","pricing_plan_id":"cebpf4jnsgd1na2vs0mg"},{"bike_id":"56fd95d7-387f-4701-b2ed-67ccefca57fa","system_id":"levelo_inurba_marseille","lat":43.3046,"lon":5.37915,"is_reserved":false,"is_disabled":false,"rental_uris":{"android":"levelo://app?vid=56fd95d7-387f-4701-b2ed-67ccefca57fa","ios":"levelo://app?vid=56fd95d7-387f-4701-b2ed-67ccefca57fa"},"vehicle_type_id":"4","last_reported":1737187789,"current_range_meters":37600,"station_id":"ce4bgup2rcd13ifvqcn0","pricing_plan_id":"cebpf4jnsgd1na2vs0mg"},{"bike_id":"77762a9c-0185-4cbd-94a7-6ad9ec8b319e","system_id":"levelo_inurba_marseille","lat":43.29044,"lon":5.35901,"is_reserved":false,"is_disabled":false,"rental_uris":{"android":"levelo://app?vid=77762a9c-0185-4cbd-94a7-6ad9ec8b319e","ios":"levelo://app?vid=77762a9c-0185-4cbd-94a7-6ad9ec8b319e"},"vehicle_type_id":"4","last_reported":1737187789,"current_range_meters":36000,"station_id":"ce4bha92rcd13ifvqeg0","pricing_plan_id":"cebpf4jnsgd1na2vs0mg"},{"bike_id":"357eaeda-fef2-41f2-9ad0-621ae2cc5c09","system_id":"levelo_inurba_marseille","lat":43.33768,"lon":5.37496,"is_reserved":false,"is_disabled":false,"rental_uris":{"android":"levelo://app?vid=357eaeda-fef2-41f2-9ad0-621ae2cc5c09","ios":"levelo://app?vid=357eaeda-fef2-41f2-9ad0-621ae2cc5c09"},"vehicle_type_id":"4","last_reported":1737187789,"current_range_meters":32400,"station_id":"","pricing_plan_id":"cebpf4jnsgd1na2vs0mg"},{"bike_id":"54c9f7de-8fe5-4fd6-a934-8372e9cad70a","system_id":"levelo_inurba_marseille","lat":43.28851,"lon":5.39316,"is_reserved":false,"is_disabled":true,"rental_uris":{"android":"levelo://app?vid=54c9f7de-8fe5-4fd6-a934-8372e9cad70a","ios":"levelo://app?vid=54c9f7de-8fe5-4fd6-a934-8372e9cad70a"},"vehicle_type_id":"4","last_reported":1737187789,"current_range_meters":23200,"station_id":"ce4bh2p2rcd13ifvqdi0","pricing_plan_id":"cebpf4jnsgd1na2vs0mg"},{"bike_id":"ae8076d1-b494-4e7c-84b9-5cb5ba996eae","system_id":"levelo_inurba_marseille","lat":43.30437,"lon":5.38887,"is_reserved":false,"is_disabled":false,"rental_uris":{"android":"levelo://app?vid=ae8076d1-b494-4e7c-84b9-5cb5ba996eae","ios":"levelo://app?vid=ae8076d1-b494-4e7c-84b9-5cb5ba996eae"},"vehicle_type_id":"4","last_reported":1737187789,"current_range_meters":11200,"station_id":"ce4bgk12rcd13ifvqbi0","pricing_plan_id":"cebpf4jnsgd1na2vs0mg"},{"bike_id":"965180f8-1362-4aa2-b1a9-a6f654197703","system_id":"levelo_inurba_marseille","lat":43.23184,"lon":5.39989,"is_reserved":false,"is_disabled":false,"rental_uris":{"android":"levelo://app?vid=965180f8-1362-4aa2-b1a9-a6f654197703","ios":"levelo://app?vid=965180f8-1362-4aa2-b1a9-a6f654197703"},"vehicle_type_id":"4","last_reported":1737187789,"current_range_meters":38800,"station_id":"ce4bhn12rcd13ifvqgqg","pricing_plan_id":"cebpf4jnsgd1na2vs0mg"},{"bike_id":"b034b553-114b-4cfc-829d-01c5c89561f4","system_id":"levelo_inurba_marseille","lat":43.27583,"lon":5.4232,"is_reserved":false,"is_disabled":false,"rental_uris":{"android":"levelo://app?vid=b034b553-114b-4cfc-829d-01c5c89561f4","ios":"levelo://app?vid=b034b553-114b-4cfc-829d-01c5c89561f4"},"vehicle_type_id":"4","last_reported":1737187789,"current_range_meters":8400,"station_id":"","pricing_plan_id":"cebpf4jnsgd1na2vs0mg"},{"bike_id":"c16af295-34ba-47e2-83f5-588ec70db48a","system_id":"levelo_inurba_marseille","lat":43.29026,"lon":5.39993,"is_reserved":false,"is_disabled":true,"rental_uris":{"android":"levelo://app?vid=c16af295-34ba-47e2-83f5-588ec70db48a","ios":"levelo://app?vid=c16af295-34ba-47e2-83f5-588ec70db48a"},"vehicle_type_id":"4","last_reported":1737187789,"current_range_meters":38400,"station_id":"ce4bh392rcd13ifvqdm0","pricing_plan_id":"cebpf4jnsgd1na2vs0mg"},{"bike_id":"0639aa93-8d73-4953-996d-5756e34b315b","system_id":"levelo_inurba_marseille","lat":43.27463,"lon":5.4245,"is_reserved":false,"is_disabled":false,"rental_uris":{"android":"levelo://app?vid=0639aa93-8d73-4953-996d-5756e34b315b","ios":"levelo://app?vid=0639aa93-8d73-4953-996d-5756e34b315b"},"vehicle_type_id":"4","last_reported":1737187789,"current_range_meters":17200,"station_id":"ce4bhn92rcd13ifvqgrg","pricing_plan_id":"cebpf4jnsgd1na2vs0mg"},{"bike_id":"a90ae30c-66aa-49bc-8d81-67c17854523b","system_id":"levelo_inurba_marseille","lat":43.284498,"lon":5.358914,"is_reserved":false,"is_disabled":false,"rental_uris":{"android":"levelo://app?vid=a90ae30c-66aa-49bc-8d81-67c17854523b","ios":"levelo://app?vid=a90ae30c-66aa-49bc-8d81-67c17854523b"},"vehicle_type_id":"4","last_reported":1737187789,"current_range_meters":36000,"station_id":"ce4bhah2rcd13ifvqei0","pricing_plan_id":"cebpf4jnsgd1na2vs0mg"},{"bike_id":"01e1c8b1-a097-42f4-9d00-9a160ca3dd88","system_id":"levelo_inurba_marseille","lat":43.27432,"lon":5.39418,"is_reserved":false,"is_disabled":false,"rental_uris":{"android":"levelo://app?vid=01e1c8b1-a097-42f4-9d00-9a160ca3dd88","ios":"levelo://app?vid=01e1c8b1-a097-42f4-9d00-9a160ca3dd88"},"vehicle_type_id":"4","last_reported":1737187789,"current_range_meters":35600,"station_id":"ce4bhdp2rcd13ifvqf20","pricing_plan_id":"cebpf4jnsgd1na2vs0mg"},{"bike_id":"7975a0c2-37ee-487f-804f-1164e539cf9a","system_id":"levelo_inurba_marseille","lat":43.24663,"lon":5.38167,"is_reserved":false,"is_disabled":false,"rental_uris":{"android":"levelo://app?vid=7975a0c2-37ee-487f-804f-1164e539cf9a","ios":"levelo://app?vid=7975a0c2-37ee-487f-804f-1164e539cf9a"},"vehicle_type_id":"4","last_reported":1737187789,"current_range_meters":38800,"station_id":"ce4bhih2rcd13ifvqfr0","pricing_plan_id":"cebpf4jnsgd1na2vs0mg"},{"bike_id":"e3a3e3ba-73ac-4d95-a679-4b552818bf8b","system_id":"levelo_inurba_marseille","lat":43.301604,"lon":5.380848,"is_reserved":false,"is_disabled":false,"rental_uris":{"android":"levelo://app?vid=e3a3e3ba-73ac-4d95-a679-4b552818bf8b","ios":"levelo://app?vid=e3a3e3ba-73ac-4d95-a679-4b552818bf8b"},"vehicle_type_id":"4","last_reported":1737187789,"current_range_meters":38400,"station_id":"ce4bgjp2rcd13ifvqbh0","pricing_plan_id":"cebpf4jnsgd1na2vs0mg"},{"bike_id":"503cdc04-d4e5-49c8-a5cb-4bfd40417ea9","system_id":"levelo_inurba_marseille","lat":43.31159,"lon":5.38719,"is_reserved":false,"is_disabled":false,"rental_uris":{"android":"levelo://app?vid=503cdc04-d4e5-49c8-a5cb-4bfd40417ea9","ios":"levelo://app?vid=503cdc04-d4e5-49c8-a5cb-4bfd40417ea9"},"vehicle_type_id":"4","last_reported":1737187789,"current_range_meters":32000,"station_id":"ce4bgv12rcd13ifvqcp0","pricing_plan_id":"cebpf4jnsgd1na2vs0mg"},{"bike_id":"01a07bd9-36a1-4c19-a88b-7c9e3a6ee490","system_id":"levelo_inurba_marseille","lat":43.250899,"lon":5.39512,"is_reserved":false,"is_disabled":false,"rental_uris":{"android":"levelo://app?vid=01a07bd9-36a1-4c19-a88b-7c9e3a6ee490","ios":"levelo://app?vid=01a07bd9-36a1-4c19-a88b-7c9e3a6ee490"},"vehicle_type_id":"4","last_reported":1737187789,"current_range_meters":36800,"station_id":"ce4bhm12rcd13ifvqgkg","pricing_plan_id":"cebpf4jnsgd1na2vs0mg"},{"bike_id":"2a3b699b-a78d-4b73-b754-0a42dc395da3","system_id":"levelo_inurba_marseille","lat":43.30171,"lon":5.37422,"is_reserved":false,"is_disabled":false,"rental_uris":{"android":"levelo://app?vid=2a3b699b-a78d-4b73-b754-0a42dc395da3","ios":"levelo://app?vid=2a3b699b-a78d-4b73-b754-0a42dc395da3"},"vehicle_type_id":"4","last_reported":1737187789,"current_range_meters":38800,"station_id":"ce4bgs92rcd13ifvqcc0","pricing_plan_id":"cebpf4jnsgd1na2vs0mg"},{"bike_id":"d615d74e-143c-44d0-9a61-fef9d499e25b","system_id":"levelo_inurba_marseille","lat":43.26029,"lon":5.37546,"is_reserved":false,"is_disabled":true,"rental_uris":{"android":"levelo://app?vid=d615d74e-143c-44d0-9a61-fef9d499e25b","ios":"levelo://app?vid=d615d74e-143c-44d0-9a61-fef9d499e25b"},"vehicle_type_id":"4","last_reported":1737187789,"current_range_meters":38800,"station_id":"ce4bhgh2rcd13ifvqfa0","pricing_plan_id":"cebpf4jnsgd1na2vs0mg"},{"bike_id":"4ffb2fd7-5f5b-4f82-8ddf-9fe95e000c38","system_id":"levelo_inurba_marseille","lat":43.25382,"lon":5.4165,"is_reserved":false,"is_disabled":true,"rental_uris":{"android":"levelo://app?vid=4ffb2fd7-5f5b-4f82-8ddf-9fe95e000c38","ios":"levelo://app?vid=4ffb2fd7-5f5b-4f82-8ddf-9fe95e000c38"},"vehicle_type_id":"4","last_reported":1737187789,"current_range_meters":0,"station_id":"","pricing_plan_id":"cebpf4jnsgd1na2vs0mg"},{"bike_id":"9be957d2-26d1-49a4-9f85-b06ee3432064","system_id":"levelo_inurba_marseille","lat":43.337326,"lon":5.391883,"is_reserved":false,"is_disabled":false,"rental_uris":{"android":"levelo://app?vid=9be957d2-26d1-49a4-9f85-b06ee3432064","ios":"levelo://app?vid=9be957d2-26d1-49a4-9f85-b06ee3432064"},"vehicle_type_id":"4","last_reported":1737187789,"current_range_meters":27600,"station_id":"ce4bhr92rcd13ifvqhsg","pricing_plan_id":"cebpf4jnsgd1na2vs0mg"},{"bike_id":"0e431ba6-2ca8-4886-8c92-261db676533e","system_id":"levelo_inurba_marseille","lat":43.28453,"lon":5.3589,"is_reserved":false,"is_disabled":false,"rental_uris":{"android":"levelo://app?vid=0e431ba6-2ca8-4886-8c92-261db676533e","ios":"levelo://app?vid=0e431ba6-2ca8-4886-8c92-261db676533e"},"vehicle_type_id":"4","last_reported":1737187789,"current_range_meters":29600,"station_id":"ce4bhah2rcd13ifvqei0","pricing_plan_id":"cebpf4jnsgd1na2vs0mg"},{"bike_id":"7474cf9f-a50a-4064-8ee9-625b0bfc2233","system_id":"levelo_inurba_marseille","lat":43.29167,"lon":5.37159,"is_reserved":false,"is_disabled":true,"rental_uris":{"android":"levelo://app?vid=7474cf9f-a50a-4064-8ee9-625b0bfc2233","ios":"levelo://app?vid=7474cf9f-a50a-4064-8ee9-625b0bfc2233"},"vehicle_type_id":"4","last_reported":1737187789,"current_range_meters":0,"station_id":"ce4bha92rcd13ifvqeh0","pricing_plan_id":"cebpf4jnsgd1na2vs0mg"},{"bike_id":"9d571973-919f-4d9a-8263-16469bc08d16","system_id":"levelo_inurba_marseille","lat":43.312689,"lon":5.383686,"is_reserved":false,"is_disabled":false,"rental_uris":{"android":"levelo://app?vid=9d571973-919f-4d9a-8263-16469bc08d16","ios":"levelo://app?vid=9d571973-919f-4d9a-8263-16469bc08d16"},"vehicle_type_id":"4","last_reported":1737187789,"current_range_meters":16800,"station_id":"","pricing_plan_id":"cebpf4jnsgd1na2vs0mg"},{"bike_id":"93eaaa03-9c47-4080-88a3-408e4b6ee6c4","system_id":"levelo_inurba_marseille","lat":43.308832,"lon":5.372031,"is_reserved":false,"is_disabled":true,"rental_uris":{"android":"levelo://app?vid=93eaaa03-9c47-4080-88a3-408e4b6ee6c4","ios":"levelo://app?vid=93eaaa03-9c47-4080-88a3-408e4b6ee6c4"},"vehicle_type_id":"4","last_reported":1737187789,"current_range_meters":0,"station_id":"ce4bguh2rcd13ifvqckg","pricing_plan_id":"cebpf4jnsgd1na2vs0mg"},{"bike_id":"fd153fd4-8c71-4200-95f4-e02852c298c7","system_id":"levelo_inurba_marseille","lat":43.25084,"lon":5.39513,"is_reserved":false,"is_disabled":false,"rental_uris":{"android":"levelo://app?vid=fd153fd4-8c71-4200-95f4-e02852c298c7","ios":"levelo://app?vid=fd153fd4-8c71-4200-95f4-e02852c298c7"},"vehicle_type_id":"4","last_reported":1737187789,"current_range_meters":36800,"station_id":"ce4bhm12rcd13ifvqgkg","pricing_plan_id":"cebpf4jnsgd1na2vs0mg"},{"bike_id":"bdd103a3-1000-427a-86a5-dc091d61902e","system_id":"levelo_inurba_marseille","lat":43.24175,"lon":5.39719,"is_reserved":false,"is_disabled":false,"rental_uris":{"android":"levelo://app?vid=bdd103a3-1000-427a-86a5-dc091d61902e","ios":"levelo://app?vid=bdd103a3-1000-427a-86a5-dc091d61902e"},"vehicle_type_id":"4","last_reported":1737187789,"current_range_meters":22800,"station_id":"ce4bhn12rcd13ifvqgpg","pricing_plan_id":"cebpf4jnsgd1na2vs0mg"},{"bike_id":"8b24fbb9-4171-44d5-9669-7d4f85bb3376","system_id":"levelo_inurba_marseille","lat":43.28273,"lon":5.35069,"is_reserved":false,"is_disabled":false,"rental_uris":{"android":"levelo://app?vid=8b24fbb9-4171-44d5-9669-7d4f85bb3376","ios":"levelo://app?vid=8b24fbb9-4171-44d5-9669-7d4f85bb3376"},"vehicle_type_id":"4","last_reported":1737187789,"current_range_meters":33200,"station_id":"ce4bhbp2rcd13ifvqerg","pricing_plan_id":"cebpf4jnsgd1na2vs0mg"},{"bike_id":"2fa40be4-237a-4713-9b7d-7f32afaf1503","system_id":"levelo_inurba_marseille","lat":43.29749,"lon":5.38143,"is_reserved":false,"is_disabled":true,"rental_uris":{"android":"levelo://app?vid=2fa40be4-237a-4713-9b7d-7f32afaf1503","ios":"levelo://app?vid=2fa40be4-237a-4713-9b7d-7f32afaf1503"},"vehicle_type_id":"4","last_reported":1737187789,"current_range_meters":36400,"station_id":"","pricing_plan_id":"cebpf4jnsgd1na2vs0mg"},{"bike_id":"a8cadae5-86ce-44a1-afff-878cc34ffe0b","system_id":"levelo_inurba_marseille","lat":43.24669,"lon":5.38123,"is_reserved":false,"is_disabled":false,"rental_uris":{"android":"levelo://app?vid=a8cadae5-86ce-44a1-afff-878cc34ffe0b","ios":"levelo://app?vid=a8cadae5-86ce-44a1-afff-878cc34ffe0b"},"vehicle_type_id":"4","last_reported":1737187789,"current_range_meters":8000,"station_id":"ce4bhih2rcd13ifvqfr0","pricing_plan_id":"cebpf4jnsgd1na2vs0mg"},{"bike_id":"2b06177c-21a4-4000-9872-a16383eb7f13","system_id":"levelo_inurba_marseille","lat":43.29815,"lon":5.40406,"is_reserved":false,"is_disabled":false,"rental_uris":{"android":"levelo://app?vid=2b06177c-21a4-4000-9872-a16383eb7f13","ios":"levelo://app?vid=2b06177c-21a4-4000-9872-a16383eb7f13"},"vehicle_type_id":"4","last_reported":1737187789,"current_range_meters":38800,"station_id":"ce4bh112rcd13ifvqd90","pricing_plan_id":"cebpf4jnsgd1na2vs0mg"},{"bike_id":"2ed2c465-7afc-4456-bb98-74121b1a973f","system_id":"levelo_inurba_marseille","lat":43.31173,"lon":5.38696,"is_reserved":false,"is_disabled":false,"rental_uris":{"android":"levelo://app?vid=2ed2c465-7afc-4456-bb98-74121b1a973f","ios":"levelo://app?vid=2ed2c465-7afc-4456-bb98-74121b1a973f"},"vehicle_type_id":"4","last_reported":1737187789,"current_range_meters":38800,"station_id":"ce4bgv12rcd13ifvqcp0","pricing_plan_id":"cebpf4jnsgd1na2vs0mg"},{"bike_id":"41e66b43-81c2-4cc4-b4fc-989eb06aea62","system_id":"levelo_inurba_marseille","lat":43.25111,"lon":5.40322,"is_reserved":false,"is_disabled":false,"rental_uris":{"android":"levelo://app?vid=41e66b43-81c2-4cc4-b4fc-989eb06aea62","ios":"levelo://app?vid=41e66b43-81c2-4cc4-b4fc-989eb06aea62"},"vehicle_type_id":"4","last_reported":1737187789,"current_range_meters":14000,"station_id":"ce4bhlh2rcd13ifvqgig","pricing_plan_id":"cebpf4jnsgd1na2vs0mg"},{"bike_id":"de1f8d9a-961d-41a2-ac6e-036d6954faf1","system_id":"levelo_inurba_marseille","lat":43.33022,"lon":5.39045,"is_reserved":false,"is_disabled":true,"rental_uris":{"android":"levelo://app?vid=de1f8d9a-961d-41a2-ac6e-036d6954faf1","ios":"levelo://app?vid=de1f8d9a-961d-41a2-ac6e-036d6954faf1"},"vehicle_type_id":"4","last_reported":1737187789,"current_range_meters":28800,"station_id":"ce4bhr92rcd13ifvqhrg","pricing_plan_id":"cebpf4jnsgd1na2vs0mg"},{"bike_id":"e0253450-c7b5-4733-9baa-fb060c3eef88","system_id":"levelo_inurba_marseille","lat":43.24645,"lon":5.38889,"is_reserved":false,"is_disabled":true,"rental_uris":{"android":"levelo://app?vid=e0253450-c7b5-4733-9baa-fb060c3eef88","ios":"levelo://app?vid=e0253450-c7b5-4733-9baa-fb060c3eef88"},"vehicle_type_id":"4","last_reported":1737187789,"current_range_meters":38800,"station_id":"ce4bhg12rcd13ifvqf60","pricing_plan_id":"cebpf4jnsgd1na2vs0mg"},{"bike_id":"aaf9b19d-0d21-4f60-bd85-a79491ea0c6f","system_id":"levelo_inurba_marseille","lat":43.26152,"lon":5.37503,"is_reserved":false,"is_disabled":true,"rental_uris":{"android":"levelo://app?vid=aaf9b19d-0d21-4f60-bd85-a79491ea0c6f","ios":"levelo://app?vid=aaf9b19d-0d21-4f60-bd85-a79491ea0c6f"},"vehicle_type_id":"4","last_reported":1737187789,"current_range_meters":37600,"station_id":"ce4bhgp2rcd13ifvqfc0","pricing_plan_id":"cebpf4jnsgd1na2vs0mg"},{"bike_id":"279ba114-e54a-4342-af88-f34df27678d0","system_id":"levelo_inurba_marseille","lat":43.28102,"lon":5.37837,"is_reserved":false,"is_disabled":false,"rental_uris":{"android":"levelo://app?vid=279ba114-e54a-4342-af88-f34df27678d0","ios":"levelo://app?vid=279ba114-e54a-4342-af88-f34df27678d0"},"vehicle_type_id":"4","last_reported":1737187789,"current_range_meters":37600,"station_id":"ce4bha12rcd13ifvqee0","pricing_plan_id":"cebpf4jnsgd1na2vs0mg"},{"bike_id":"72ee35ea-34ee-4b89-a819-27a2e564f7ec","system_id":"levelo_inurba_marseille","lat":43.2582,"lon":5.39426,"is_reserved":false,"is_disabled":false,"rental_uris":{"android":"levelo://app?vid=72ee35ea-34ee-4b89-a819-27a2e564f7ec","ios":"levelo://app?vid=72ee35ea-34ee-4b89-a819-27a2e564f7ec"},"vehicle_type_id":"4","last_reported":1737187789,"current_range_meters":12400,"station_id":"ce4bhip2rcd13ifvqft0","pricing_plan_id":"cebpf4jnsgd1na2vs0mg"},{"bike_id":"fae143cc-e0b7-42e0-ac41-6327643321d0","system_id":"levelo_inurba_marseille","lat":43.25814,"lon":5.39437,"is_reserved":false,"is_disabled":false,"rental_uris":{"android":"levelo://app?vid=fae143cc-e0b7-42e0-ac41-6327643321d0","ios":"levelo://app?vid=fae143cc-e0b7-42e0-ac41-6327643321d0"},"vehicle_type_id":"4","last_reported":1737187789,"current_range_meters":33200,"station_id":"ce4bhip2rcd13ifvqft0","pricing_plan_id":"cebpf4jnsgd1na2vs0mg"},{"bike_id":"c081a5dc-5317-4d44-ae3d-69630f365307","system_id":"levelo_inurba_marseille","lat":43.30252,"lon":5.40079,"is_reserved":false,"is_disabled":false,"rental_uris":{"android":"levelo://app?vid=c081a5dc-5317-4d44-ae3d-69630f365307","ios":"levelo://app?vid=c081a5dc-5317-4d44-ae3d-69630f365307"},"vehicle_type_id":"4","last_reported":1737187789,"current_range_meters":24400,"station_id":"ce4bgvh2rcd13ifvqcs0","pricing_plan_id":"cebpf4jnsgd1na2vs0mg"},{"bike_id":"3b86c408-dab3-4c6f-80eb-a86687ef0e80","system_id":"levelo_inurba_marseille","lat":43.30777,"lon":5.37648,"is_reserved":false,"is_disabled":false,"rental_uris":{"android":"levelo://app?vid=3b86c408-dab3-4c6f-80eb-a86687ef0e80","ios":"levelo://app?vid=3b86c408-dab3-4c6f-80eb-a86687ef0e80"},"vehicle_type_id":"4","last_reported":1737187789,"current_range_meters":14400,"station_id":"ce4bgv92rcd13ifvqcq0","pricing_plan_id":"cebpf4jnsgd1na2vs0mg"},{"bike_id":"bbbb65ee-7bd9-45c8-9ae6-33a5e1e600b8","system_id":"levelo_inurba_marseille","lat":43.28626,"lon":5.351,"is_reserved":false,"is_disabled":true,"rental_uris":{"android":"levelo://app?vid=bbbb65ee-7bd9-45c8-9ae6-33a5e1e600b8","ios":"levelo://app?vid=bbbb65ee-7bd9-45c8-9ae6-33a5e1e600b8"},"vehicle_type_id":"4","last_reported":1737187789,"current_range_meters":14400,"station_id":"ce4bhch2rcd13ifvqeug","pricing_plan_id":"cebpf4jnsgd1na2vs0mg"},{"bike_id":"d0a93988-e7e6-4b33-aa49-cdd79528be54","system_id":"levelo_inurba_marseille","lat":43.30101,"lon":5.39086,"is_reserved":false,"is_disabled":false,"rental_uris":{"android":"levelo://app?vid=d0a93988-e7e6-4b33-aa49-cdd79528be54","ios":"levelo://app?vid=d0a93988-e7e6-4b33-aa49-cdd79528be54"},"vehicle_type_id":"4","last_reported":1737187789,"current_range_meters":38800,"station_id":"ce4bh192rcd13ifvqdb0","pricing_plan_id":"cebpf4jnsgd1na2vs0mg"},{"bike_id":"f4a4a406-b0a5-42fc-9236-32e93ac6f6b2","system_id":"levelo_inurba_marseille","lat":43.231528,"lon":5.436983,"is_reserved":false,"is_disabled":true,"rental_uris":{"android":"levelo://app?vid=f4a4a406-b0a5-42fc-9236-32e93ac6f6b2","ios":"levelo://app?vid=f4a4a406-b0a5-42fc-9236-32e93ac6f6b2"},"vehicle_type_id":"4","last_reported":1737187789,"current_range_meters":30000,"station_id":"ce4bhmp2rcd13ifvqgog","pricing_plan_id":"cebpf4jnsgd1na2vs0mg"},{"bike_id":"e41ae004-35f3-4a84-9470-334d3f185da1","system_id":"levelo_inurba_marseille","lat":43.31502,"lon":5.37241,"is_reserved":false,"is_disabled":false,"rental_uris":{"android":"levelo://app?vid=e41ae004-35f3-4a84-9470-334d3f185da1","ios":"levelo://app?vid=e41ae004-35f3-4a84-9470-334d3f185da1"},"vehicle_type_id":"4","last_reported":1737187789,"current_range_meters":38800,"station_id":"","pricing_plan_id":"cebpf4jnsgd1na2vs0mg"},{"bike_id":"5bcc50fe-051a-45c1-994f-e0f8f759c0f7","system_id":"levelo_inurba_marseille","lat":43.30539,"lon":5.36528,"is_reserved":false,"is_disabled":true,"rental_uris":{"android":"levelo://app?vid=5bcc50fe-051a-45c1-994f-e0f8f759c0f7","ios":"levelo://app?vid=5bcc50fe-051a-45c1-994f-e0f8f759c0f7"},"vehicle_type_id":"4","last_reported":1737187789,"current_range_meters":32000,"station_id":"ce4bgs12rcd13ifvqcag","pricing_plan_id":"cebpf4jnsgd1na2vs0mg"},{"bike_id":"af9e75b8-0d29-469b-87bc-bb5456246ecc","system_id":"levelo_inurba_marseille","lat":43.30575,"lon":5.39361,"is_reserved":false,"is_disabled":false,"rental_uris":{"android":"levelo://app?vid=af9e75b8-0d29-469b-87bc-bb5456246ecc","ios":"levelo://app?vid=af9e75b8-0d29-469b-87bc-bb5456246ecc"},"vehicle_type_id":"4","last_reported":1737187789,"current_range_meters":38800,"station_id":"ce4bh0p2rcd13ifvqd80","pricing_plan_id":"cebpf4jnsgd1na2vs0mg"},{"bike_id":"11cc40fc-2886-40cc-8b38-432bf44a4683","system_id":"levelo_inurba_marseille","lat":43.30415,"lon":5.38903,"is_reserved":false,"is_disabled":false,"rental_uris":{"android":"levelo://app?vid=11cc40fc-2886-40cc-8b38-432bf44a4683","ios":"levelo://app?vid=11cc40fc-2886-40cc-8b38-432bf44a4683"},"vehicle_type_id":"4","last_reported":1737187789,"current_range_meters":37600,"station_id":"ce4bgk12rcd13ifvqbi0","pricing_plan_id":"cebpf4jnsgd1na2vs0mg"},{"bike_id":"f2b9871f-1186-41e6-8a60-001205f747a7","system_id":"levelo_inurba_marseille","lat":43.246711,"lon":5.381548,"is_reserved":false,"is_disabled":false,"rental_uris":{"android":"levelo://app?vid=f2b9871f-1186-41e6-8a60-001205f747a7","ios":"levelo://app?vid=f2b9871f-1186-41e6-8a60-001205f747a7"},"vehicle_type_id":"4","last_reported":1737187789,"current_range_meters":8400,"station_id":"ce4bhih2rcd13ifvqfr0","pricing_plan_id":"cebpf4jnsgd1na2vs0mg"},{"bike_id":"67c549d5-ce81-408a-a146-d43915340e7f","system_id":"levelo_inurba_marseille","lat":43.33742,"lon":5.39123,"is_reserved":false,"is_disabled":false,"rental_uris":{"android":"levelo://app?vid=67c549d5-ce81-408a-a146-d43915340e7f","ios":"levelo://app?vid=67c549d5-ce81-408a-a146-d43915340e7f"},"vehicle_type_id":"4","last_reported":1737187789,"current_range_meters":38800,"station_id":"ce4bhr92rcd13ifvqhsg","pricing_plan_id":"cebpf4jnsgd1na2vs0mg"},{"bike_id":"fa546e5c-a68a-4a86-a5bb-1d856af38d7e","system_id":"levelo_inurba_marseille","lat":43.23611,"lon":5.43614,"is_reserved":false,"is_disabled":true,"rental_uris":{"android":"levelo://app?vid=fa546e5c-a68a-4a86-a5bb-1d856af38d7e","ios":"levelo://app?vid=fa546e5c-a68a-4a86-a5bb-1d856af38d7e"},"vehicle_type_id":"4","last_reported":1737187789,"current_range_meters":0,"station_id":"","pricing_plan_id":"cebpf4jnsgd1na2vs0mg"},{"bike_id":"34b4297c-3aa9-49ec-8c3e-4dc835fa76e0","system_id":"levelo_inurba_marseille","lat":43.313264,"lon":5.397181,"is_reserved":false,"is_disabled":false,"rental_uris":{"android":"levelo://app?vid=34b4297c-3aa9-49ec-8c3e-4dc835fa76e0","ios":"levelo://app?vid=34b4297c-3aa9-49ec-8c3e-4dc835fa76e0"},"vehicle_type_id":"4","last_reported":1737187789,"current_range_meters":29600,"station_id":"ce4bgvp2rcd13ifvqcu0","pricing_plan_id":"cebpf4jnsgd1na2vs0mg"},{"bike_id":"18c88f3d-7d60-4017-8ae5-e574f26839a4","system_id":"levelo_inurba_marseille","lat":43.26017,"lon":5.3755,"is_reserved":false,"is_disabled":false,"rental_uris":{"android":"levelo://app?vid=18c88f3d-7d60-4017-8ae5-e574f26839a4","ios":"levelo://app?vid=18c88f3d-7d60-4017-8ae5-e574f26839a4"},"vehicle_type_id":"4","last_reported":1737187789,"current_range_meters":30800,"station_id":"ce4bhgh2rcd13ifvqfa0","pricing_plan_id":"cebpf4jnsgd1na2vs0mg"},{"bike_id":"b936ffa6-9085-46b5-a0df-a1a2f8dd85b8","system_id":"levelo_inurba_marseille","lat":43.250042,"lon":5.389249,"is_reserved":false,"is_disabled":false,"rental_uris":{"android":"levelo://app?vid=b936ffa6-9085-46b5-a0df-a1a2f8dd85b8","ios":"levelo://app?vid=b936ffa6-9085-46b5-a0df-a1a2f8dd85b8"},"vehicle_type_id":"4","last_reported":1737187789,"current_range_meters":37600,"station_id":"ce4bhgp2rcd13ifvqfd0","pricing_plan_id":"cebpf4jnsgd1na2vs0mg"},{"bike_id":"2235c36a-a169-46b1-8c98-7fd6ada35dfd","system_id":"levelo_inurba_marseille","lat":43.30145,"lon":5.38101,"is_reserved":false,"is_disabled":false,"rental_uris":{"android":"levelo://app?vid=2235c36a-a169-46b1-8c98-7fd6ada35dfd","ios":"levelo://app?vid=2235c36a-a169-46b1-8c98-7fd6ada35dfd"},"vehicle_type_id":"4","last_reported":1737187789,"current_range_meters":38000,"station_id":"ce4bgjp2rcd13ifvqbh0","pricing_plan_id":"cebpf4jnsgd1na2vs0mg"},{"bike_id":"b3bdae09-75e3-4ffe-9142-e4ae1a8f5a20","system_id":"levelo_inurba_marseille","lat":43.32659,"lon":5.40968,"is_reserved":false,"is_disabled":false,"rental_uris":{"android":"levelo://app?vid=b3bdae09-75e3-4ffe-9142-e4ae1a8f5a20","ios":"levelo://app?vid=b3bdae09-75e3-4ffe-9142-e4ae1a8f5a20"},"vehicle_type_id":"4","last_reported":1737187789,"current_range_meters":8000,"station_id":"ce4bhpp2rcd13ifvqhgg","pricing_plan_id":"cebpf4jnsgd1na2vs0mg"},{"bike_id":"48389a4d-3522-4d2d-a678-108033b697ac","system_id":"levelo_inurba_marseille","lat":43.27903,"lon":5.3801,"is_reserved":false,"is_disabled":false,"rental_uris":{"android":"levelo://app?vid=48389a4d-3522-4d2d-a678-108033b697ac","ios":"levelo://app?vid=48389a4d-3522-4d2d-a678-108033b697ac"},"vehicle_type_id":"4","last_reported":1737187789,"current_range_meters":8800,"station_id":"ce4bhf92rcd13ifvqf50","pricing_plan_id":"cebpf4jnsgd1na2vs0mg"},{"bike_id":"34709e64-d1c8-4538-88a5-33805792c0a5","system_id":"levelo_inurba_marseille","lat":43.25823,"lon":5.39443,"is_reserved":false,"is_disabled":false,"rental_uris":{"android":"levelo://app?vid=34709e64-d1c8-4538-88a5-33805792c0a5","ios":"levelo://app?vid=34709e64-d1c8-4538-88a5-33805792c0a5"},"vehicle_type_id":"4","last_reported":1737187789,"current_range_meters":36800,"station_id":"ce4bhip2rcd13ifvqft0","pricing_plan_id":"cebpf4jnsgd1na2vs0mg"},{"bike_id":"d4c5158e-511e-4c0e-af6f-6a3bbf5cc0e5","system_id":"levelo_inurba_marseille","lat":43.27109,"lon":5.42248,"is_reserved":false,"is_disabled":true,"rental_uris":{"android":"levelo://app?vid=d4c5158e-511e-4c0e-af6f-6a3bbf5cc0e5","ios":"levelo://app?vid=d4c5158e-511e-4c0e-af6f-6a3bbf5cc0e5"},"vehicle_type_id":"4","last_reported":1737187789,"current_range_meters":0,"station_id":"ce4bhk92rcd13ifvqgb0","pricing_plan_id":"cebpf4jnsgd1na2vs0mg"},{"bike_id":"c33a1c04-89c9-4859-b677-1de1a5e5d596","system_id":"levelo_inurba_marseille","lat":43.29789,"lon":5.39333,"is_reserved":false,"is_disabled":false,"rental_uris":{"android":"levelo://app?vid=c33a1c04-89c9-4859-b677-1de1a5e5d596","ios":"levelo://app?vid=c33a1c04-89c9-4859-b677-1de1a5e5d596"},"vehicle_type_id":"4","last_reported":1737187789,"current_range_meters":39200,"station_id":"chh1huq6cuj3fo74tm60","pricing_plan_id":"cebpf4jnsgd1na2vs0mg"},{"bike_id":"12fd170f-2f3b-4ea9-8149-83d82b618b29","system_id":"levelo_inurba_marseille","lat":43.29577,"lon":5.36742,"is_reserved":false,"is_disabled":false,"rental_uris":{"android":"levelo://app?vid=12fd170f-2f3b-4ea9-8149-83d82b618b29","ios":"levelo://app?vid=12fd170f-2f3b-4ea9-8149-83d82b618b29"},"vehicle_type_id":"4","last_reported":1737187789,"current_range_meters":25600,"station_id":"ce4bgph2rcd13ifvqc2g","pricing_plan_id":"cebpf4jnsgd1na2vs0mg"},{"bike_id":"37feb261-44b2-4b27-b3ae-078664007b08","system_id":"levelo_inurba_marseille","lat":43.32471,"lon":5.36569,"is_reserved":false,"is_disabled":false,"rental_uris":{"android":"levelo://app?vid=37feb261-44b2-4b27-b3ae-078664007b08","ios":"levelo://app?vid=37feb261-44b2-4b27-b3ae-078664007b08"},"vehicle_type_id":"4","last_reported":1737187789,"current_range_meters":6800,"station_id":"ce4bhs12rcd13ifvqhvg","pricing_plan_id":"cebpf4jnsgd1na2vs0mg"},{"bike_id":"f349ef3c-5167-45c6-8952-c9f82df52a25","system_id":"levelo_inurba_marseille","lat":43.27684,"lon":5.38855,"is_reserved":false,"is_disabled":false,"rental_uris":{"android":"levelo://app?vid=f349ef3c-5167-45c6-8952-c9f82df52a25","ios":"levelo://app?vid=f349ef3c-5167-45c6-8952-c9f82df52a25"},"vehicle_type_id":"4","last_reported":1737187789,"current_range_meters":36800,"station_id":"ce4bhi12rcd13ifvqfo0","pricing_plan_id":"cebpf4jnsgd1na2vs0mg"},{"bike_id":"f8aad85d-54d6-4ca2-81ac-46c1a831eb57","system_id":"levelo_inurba_marseille","lat":43.28079,"lon":5.39663,"is_reserved":false,"is_disabled":false,"rental_uris":{"android":"levelo://app?vid=f8aad85d-54d6-4ca2-81ac-46c1a831eb57","ios":"levelo://app?vid=f8aad85d-54d6-4ca2-81ac-46c1a831eb57"},"vehicle_type_id":"4","last_reported":1737187789,"current_range_meters":32800,"station_id":"ce4bho12rcd13ifvqh2g","pricing_plan_id":"cebpf4jnsgd1na2vs0mg"},{"bike_id":"6c78eede-12bd-44fe-bdd5-15bdcf3e3cdc","system_id":"levelo_inurba_marseille","lat":43.283663,"lon":5.386391,"is_reserved":false,"is_disabled":false,"rental_uris":{"android":"levelo://app?vid=6c78eede-12bd-44fe-bdd5-15bdcf3e3cdc","ios":"levelo://app?vid=6c78eede-12bd-44fe-bdd5-15bdcf3e3cdc"},"vehicle_type_id":"4","last_reported":1737187789,"current_range_meters":38800,"station_id":"ce4bh492rcd13ifvqdvg","pricing_plan_id":"cebpf4jnsgd1na2vs0mg"},{"bike_id":"15d0e428-92a2-4ce5-9dfa-de49af04e1a0","system_id":"levelo_inurba_marseille","lat":43.28707,"lon":5.37382,"is_reserved":false,"is_disabled":true,"rental_uris":{"android":"levelo://app?vid=15d0e428-92a2-4ce5-9dfa-de49af04e1a0","ios":"levelo://app?vid=15d0e428-92a2-4ce5-9dfa-de49af04e1a0"},"vehicle_type_id":"4","last_reported":1737187789,"current_range_meters":25600,"station_id":"ce4bh3p2rcd13ifvqdq0","pricing_plan_id":"cebpf4jnsgd1na2vs0mg"},{"bike_id":"56b8e9bc-f750-4815-bc98-9098414d16db","system_id":"levelo_inurba_marseille","lat":43.23199,"lon":5.35562,"is_reserved":false,"is_disabled":true,"rental_uris":{"android":"levelo://app?vid=56b8e9bc-f750-4815-bc98-9098414d16db","ios":"levelo://app?vid=56b8e9bc-f750-4815-bc98-9098414d16db"},"vehicle_type_id":"4","last_reported":1737187789,"current_range_meters":0,"station_id":"ce4bhu92rcd13ifvqi70","pricing_plan_id":"cebpf4jnsgd1na2vs0mg"},{"bike_id":"0e91b70c-1e42-4d65-a90a-72cbd40954b0","system_id":"levelo_inurba_marseille","lat":43.31859,"lon":5.37438,"is_reserved":false,"is_disabled":false,"rental_uris":{"android":"levelo://app?vid=0e91b70c-1e42-4d65-a90a-72cbd40954b0","ios":"levelo://app?vid=0e91b70c-1e42-4d65-a90a-72cbd40954b0"},"vehicle_type_id":"4","last_reported":1737187789,"current_range_meters":11600,"station_id":"","pricing_plan_id":"cebpf4jnsgd1na2vs0mg"},{"bike_id":"4916c5da-e318-4472-84cf-aee3a54ce3c4","system_id":"levelo_inurba_marseille","lat":43.24615,"lon":5.43514,"is_reserved":false,"is_disabled":true,"rental_uris":{"android":"levelo://app?vid=4916c5da-e318-4472-84cf-aee3a54ce3c4","ios":"levelo://app?vid=4916c5da-e318-4472-84cf-aee3a54ce3c4"},"vehicle_type_id":"4","last_reported":1737187789,"current_range_meters":0,"station_id":"","pricing_plan_id":"cebpf4jnsgd1na2vs0mg"},{"bike_id":"b4b78aa1-0ece-4b96-8001-97551a521807","system_id":"levelo_inurba_marseille","lat":43.26688,"lon":5.38265,"is_reserved":false,"is_disabled":false,"rental_uris":{"android":"levelo://app?vid=b4b78aa1-0ece-4b96-8001-97551a521807","ios":"levelo://app?vid=b4b78aa1-0ece-4b96-8001-97551a521807"},"vehicle_type_id":"4","last_reported":1737187789,"current_range_meters":39200,"station_id":"ce4bhg92rcd13ifvqf90","pricing_plan_id":"cebpf4jnsgd1na2vs0mg"},{"bike_id":"d964f424-78b5-471a-ad3e-fb10eeecb5d1","system_id":"levelo_inurba_marseille","lat":43.32636,"lon":5.41005,"is_reserved":false,"is_disabled":true,"rental_uris":{"android":"levelo://app?vid=d964f424-78b5-471a-ad3e-fb10eeecb5d1","ios":"levelo://app?vid=d964f424-78b5-471a-ad3e-fb10eeecb5d1"},"vehicle_type_id":"4","last_reported":1737187789,"current_range_meters":36400,"station_id":"ce4bhpp2rcd13ifvqhgg","pricing_plan_id":"cebpf4jnsgd1na2vs0mg"},{"bike_id":"1b0abdf0-ebc9-477b-9a5c-20d604bc88e3","system_id":"levelo_inurba_marseille","lat":43.2507,"lon":5.39522,"is_reserved":false,"is_disabled":false,"rental_uris":{"android":"levelo://app?vid=1b0abdf0-ebc9-477b-9a5c-20d604bc88e3","ios":"levelo://app?vid=1b0abdf0-ebc9-477b-9a5c-20d604bc88e3"},"vehicle_type_id":"4","last_reported":1737187789,"current_range_meters":38400,"station_id":"ce4bhm12rcd13ifvqgkg","pricing_plan_id":"cebpf4jnsgd1na2vs0mg"},{"bike_id":"424dca1e-8779-4b6f-842e-21c8a559ff8d","system_id":"levelo_inurba_marseille","lat":43.28721,"lon":5.36091,"is_reserved":false,"is_disabled":false,"rental_uris":{"android":"levelo://app?vid=424dca1e-8779-4b6f-842e-21c8a559ff8d","ios":"levelo://app?vid=424dca1e-8779-4b6f-842e-21c8a559ff8d"},"vehicle_type_id":"4","last_reported":1737187789,"current_range_meters":35600,"station_id":"cki0cbj6b192h4jlfktg","pricing_plan_id":"cebpf4jnsgd1na2vs0mg"},{"bike_id":"1bd4e5d6-6dff-412c-a894-a276841a7be5","system_id":"levelo_inurba_marseille","lat":43.30143,"lon":5.38092,"is_reserved":false,"is_disabled":false,"rental_uris":{"android":"levelo://app?vid=1bd4e5d6-6dff-412c-a894-a276841a7be5","ios":"levelo://app?vid=1bd4e5d6-6dff-412c-a894-a276841a7be5"},"vehicle_type_id":"4","last_reported":1737187789,"current_range_meters":32000,"station_id":"ce4bgjp2rcd13ifvqbh0","pricing_plan_id":"cebpf4jnsgd1na2vs0mg"},{"bike_id":"9e50fe21-e018-4d2f-b2fc-ed3ee93b917f","system_id":"levelo_inurba_marseille","lat":43.30937,"lon":5.40133,"is_reserved":false,"is_disabled":true,"rental_uris":{"android":"levelo://app?vid=9e50fe21-e018-4d2f-b2fc-ed3ee93b917f","ios":"levelo://app?vid=9e50fe21-e018-4d2f-b2fc-ed3ee93b917f"},"vehicle_type_id":"4","last_reported":1737187789,"current_range_meters":17200,"station_id":"ce4bgvp2rcd13ifvqct0","pricing_plan_id":"cebpf4jnsgd1na2vs0mg"},{"bike_id":"57cb6125-13ef-4b3f-8c04-c66200689843","system_id":"levelo_inurba_marseille","lat":43.30887,"lon":5.3966,"is_reserved":false,"is_disabled":false,"rental_uris":{"android":"levelo://app?vid=57cb6125-13ef-4b3f-8c04-c66200689843","ios":"levelo://app?vid=57cb6125-13ef-4b3f-8c04-c66200689843"},"vehicle_type_id":"4","last_reported":1737187789,"current_range_meters":38800,"station_id":"ce4bh012rcd13ifvqcv0","pricing_plan_id":"cebpf4jnsgd1na2vs0mg"},{"bike_id":"5129d83e-b800-4dfa-a2f1-a522458c050c","system_id":"levelo_inurba_marseille","lat":43.29706,"lon":5.37709,"is_reserved":false,"is_disabled":false,"rental_uris":{"android":"levelo://app?vid=5129d83e-b800-4dfa-a2f1-a522458c050c","ios":"levelo://app?vid=5129d83e-b800-4dfa-a2f1-a522458c050c"},"vehicle_type_id":"4","last_reported":1737187789,"current_range_meters":39200,"station_id":"ce4bgkh2rcd13ifvqbl0","pricing_plan_id":"cebpf4jnsgd1na2vs0mg"},{"bike_id":"22465212-93af-4e0b-b803-6ee82bba56d5","system_id":"levelo_inurba_marseille","lat":43.33763,"lon":5.37492,"is_reserved":false,"is_disabled":false,"rental_uris":{"android":"levelo://app?vid=22465212-93af-4e0b-b803-6ee82bba56d5","ios":"levelo://app?vid=22465212-93af-4e0b-b803-6ee82bba56d5"},"vehicle_type_id":"4","last_reported":1737187789,"current_range_meters":30000,"station_id":"","pricing_plan_id":"cebpf4jnsgd1na2vs0mg"},{"bike_id":"383804a9-bc85-4456-8f1f-230200312aa2","system_id":"levelo_inurba_marseille","lat":43.29048,"lon":5.39932,"is_reserved":false,"is_disabled":false,"rental_uris":{"android":"levelo://app?vid=383804a9-bc85-4456-8f1f-230200312aa2","ios":"levelo://app?vid=383804a9-bc85-4456-8f1f-230200312aa2"},"vehicle_type_id":"4","last_reported":1737187789,"current_range_meters":39200,"station_id":"ce4bh392rcd13ifvqdm0","pricing_plan_id":"cebpf4jnsgd1na2vs0mg"},{"bike_id":"ba01c8a2-4267-469a-a4a7-9d900887e5e5","system_id":"levelo_inurba_marseille","lat":43.29624,"lon":5.40588,"is_reserved":false,"is_disabled":false,"rental_uris":{"android":"levelo://app?vid=ba01c8a2-4267-469a-a4a7-9d900887e5e5","ios":"levelo://app?vid=ba01c8a2-4267-469a-a4a7-9d900887e5e5"},"vehicle_type_id":"4","last_reported":1737187789,"current_range_meters":38800,"station_id":"ce4bh0h2rcd13ifvqd60","pricing_plan_id":"cebpf4jnsgd1na2vs0mg"},{"bike_id":"730df4ba-4772-4a0e-9e4a-bb6bde6caaeb","system_id":"levelo_inurba_marseille","lat":43.301352,"lon":5.39882,"is_reserved":false,"is_disabled":true,"rental_uris":{"android":"levelo://app?vid=730df4ba-4772-4a0e-9e4a-bb6bde6caaeb","ios":"levelo://app?vid=730df4ba-4772-4a0e-9e4a-bb6bde6caaeb"},"vehicle_type_id":"4","last_reported":1737187789,"current_range_meters":36400,"station_id":"ce4bh0h2rcd13ifvqd40","pricing_plan_id":"cebpf4jnsgd1na2vs0mg"},{"bike_id":"2669dc48-d52c-4df4-a185-3258641e3a0a","system_id":"levelo_inurba_marseille","lat":43.27979,"lon":5.38666,"is_reserved":false,"is_disabled":true,"rental_uris":{"android":"levelo://app?vid=2669dc48-d52c-4df4-a185-3258641e3a0a","ios":"levelo://app?vid=2669dc48-d52c-4df4-a185-3258641e3a0a"},"vehicle_type_id":"4","last_reported":1737187789,"current_range_meters":0,"station_id":"","pricing_plan_id":"cebpf4jnsgd1na2vs0mg"},{"bike_id":"e81958d8-8dd2-4332-a033-da6a927c6413","system_id":"levelo_inurba_marseille","lat":43.30456,"lon":5.37917,"is_reserved":false,"is_disabled":false,"rental_uris":{"android":"levelo://app?vid=e81958d8-8dd2-4332-a033-da6a927c6413","ios":"levelo://app?vid=e81958d8-8dd2-4332-a033-da6a927c6413"},"vehicle_type_id":"4","last_reported":1737187789,"current_range_meters":21600,"station_id":"ce4bgup2rcd13ifvqcn0","pricing_plan_id":"cebpf4jnsgd1na2vs0mg"},{"bike_id":"492bb2a4-bb26-45e4-9edc-d3f9691e28d1","system_id":"levelo_inurba_marseille","lat":43.31757,"lon":5.38998,"is_reserved":false,"is_disabled":false,"rental_uris":{"android":"levelo://app?vid=492bb2a4-bb26-45e4-9edc-d3f9691e28d1","ios":"levelo://app?vid=492bb2a4-bb26-45e4-9edc-d3f9691e28d1"},"vehicle_type_id":"4","last_reported":1737187789,"current_range_meters":37600,"station_id":"ce4bhqp2rcd13ifvqhng","pricing_plan_id":"cebpf4jnsgd1na2vs0mg"},{"bike_id":"5e51fdc4-babd-486f-8394-593c2bf6a498","system_id":"levelo_inurba_marseille","lat":43.28609,"lon":5.37063,"is_reserved":false,"is_disabled":false,"rental_uris":{"android":"levelo://app?vid=5e51fdc4-babd-486f-8394-593c2bf6a498","ios":"levelo://app?vid=5e51fdc4-babd-486f-8394-593c2bf6a498"},"vehicle_type_id":"4","last_reported":1737187789,"current_range_meters":20800,"station_id":"ce4bht12rcd13ifvqi60","pricing_plan_id":"cebpf4jnsgd1na2vs0mg"},{"bike_id":"2852113b-49ee-4cbf-9a16-ea68797906c2","system_id":"levelo_inurba_marseille","lat":43.33761,"lon":5.37443,"is_reserved":false,"is_disabled":false,"rental_uris":{"android":"levelo://app?vid=2852113b-49ee-4cbf-9a16-ea68797906c2","ios":"levelo://app?vid=2852113b-49ee-4cbf-9a16-ea68797906c2"},"vehicle_type_id":"4","last_reported":1737187789,"current_range_meters":36800,"station_id":"","pricing_plan_id":"cebpf4jnsgd1na2vs0mg"},{"bike_id":"5d573128-c763-4efa-afd9-eb932f8bc447","system_id":"levelo_inurba_marseille","lat":43.24666,"lon":5.3817,"is_reserved":false,"is_disabled":false,"rental_uris":{"android":"levelo://app?vid=5d573128-c763-4efa-afd9-eb932f8bc447","ios":"levelo://app?vid=5d573128-c763-4efa-afd9-eb932f8bc447"},"vehicle_type_id":"4","last_reported":1737187789,"current_range_meters":19600,"station_id":"ce4bhih2rcd13ifvqfr0","pricing_plan_id":"cebpf4jnsgd1na2vs0mg"},{"bike_id":"d3bcae62-6d5d-45f6-acfa-c8b6603a3285","system_id":"levelo_inurba_marseille","lat":43.31445,"lon":5.389514,"is_reserved":false,"is_disabled":false,"rental_uris":{"android":"levelo://app?vid=d3bcae62-6d5d-45f6-acfa-c8b6603a3285","ios":"levelo://app?vid=d3bcae62-6d5d-45f6-acfa-c8b6603a3285"},"vehicle_type_id":"4","last_reported":1737187789,"current_range_meters":27600,"station_id":"","pricing_plan_id":"cebpf4jnsgd1na2vs0mg"},{"bike_id":"b663f53e-1e42-4f0c-a05f-fde242cb0184","system_id":"levelo_inurba_marseille","lat":43.28601,"lon":5.35134,"is_reserved":false,"is_disabled":false,"rental_uris":{"android":"levelo://app?vid=b663f53e-1e42-4f0c-a05f-fde242cb0184","ios":"levelo://app?vid=b663f53e-1e42-4f0c-a05f-fde242cb0184"},"vehicle_type_id":"4","last_reported":1737187789,"current_range_meters":26000,"station_id":"ce4bhch2rcd13ifvqeug","pricing_plan_id":"cebpf4jnsgd1na2vs0mg"},{"bike_id":"0098abfe-0676-4943-beaf-e9e178b77f58","system_id":"levelo_inurba_marseille","lat":43.28967,"lon":5.39633,"is_reserved":false,"is_disabled":false,"rental_uris":{"android":"levelo://app?vid=0098abfe-0676-4943-beaf-e9e178b77f58","ios":"levelo://app?vid=0098abfe-0676-4943-beaf-e9e178b77f58"},"vehicle_type_id":"4","last_reported":1737187789,"current_range_meters":30800,"station_id":"ce4bh3h2rcd13ifvqdn0","pricing_plan_id":"cebpf4jnsgd1na2vs0mg"},{"bike_id":"82eafdac-bd81-479d-a7b0-05db8ca76c26","system_id":"levelo_inurba_marseille","lat":43.25819,"lon":5.39415,"is_reserved":false,"is_disabled":true,"rental_uris":{"android":"levelo://app?vid=82eafdac-bd81-479d-a7b0-05db8ca76c26","ios":"levelo://app?vid=82eafdac-bd81-479d-a7b0-05db8ca76c26"},"vehicle_type_id":"4","last_reported":1737187789,"current_range_meters":0,"station_id":"ce4bhip2rcd13ifvqft0","pricing_plan_id":"cebpf4jnsgd1na2vs0mg"},{"bike_id":"3a253418-85b0-4f34-a831-b42c6a9a20b9","system_id":"levelo_inurba_marseille","lat":43.284866,"lon":5.384213,"is_reserved":false,"is_disabled":false,"rental_uris":{"android":"levelo://app?vid=3a253418-85b0-4f34-a831-b42c6a9a20b9","ios":"levelo://app?vid=3a253418-85b0-4f34-a831-b42c6a9a20b9"},"vehicle_type_id":"4","last_reported":1737187789,"current_range_meters":25200,"station_id":"ce4bh512rcd13ifvqe3g","pricing_plan_id":"cebpf4jnsgd1na2vs0mg"},{"bike_id":"cefc250c-1baa-4a78-8fed-eb20c7fbb95c","system_id":"levelo_inurba_marseille","lat":43.23185,"lon":5.35591,"is_reserved":false,"is_disabled":false,"rental_uris":{"android":"levelo://app?vid=cefc250c-1baa-4a78-8fed-eb20c7fbb95c","ios":"levelo://app?vid=cefc250c-1baa-4a78-8fed-eb20c7fbb95c"},"vehicle_type_id":"4","last_reported":1737187789,"current_range_meters":37600,"station_id":"ce4bhu92rcd13ifvqi70","pricing_plan_id":"cebpf4jnsgd1na2vs0mg"},{"bike_id":"6a7366d7-ed8c-4629-bf0c-70c2abcda36d","system_id":"levelo_inurba_marseille","lat":43.23189,"lon":5.35556,"is_reserved":false,"is_disabled":false,"rental_uris":{"android":"levelo://app?vid=6a7366d7-ed8c-4629-bf0c-70c2abcda36d","ios":"levelo://app?vid=6a7366d7-ed8c-4629-bf0c-70c2abcda36d"},"vehicle_type_id":"4","last_reported":1737187789,"current_range_meters":38800,"station_id":"ce4bhu92rcd13ifvqi70","pricing_plan_id":"cebpf4jnsgd1na2vs0mg"},{"bike_id":"2bfb81d2-63b8-4cd2-b9a9-33760811e6c2","system_id":"levelo_inurba_marseille","lat":43.24652,"lon":5.38888,"is_reserved":false,"is_disabled":false,"rental_uris":{"android":"levelo://app?vid=2bfb81d2-63b8-4cd2-b9a9-33760811e6c2","ios":"levelo://app?vid=2bfb81d2-63b8-4cd2-b9a9-33760811e6c2"},"vehicle_type_id":"4","last_reported":1737187789,"current_range_meters":38800,"station_id":"ce4bhg12rcd13ifvqf60","pricing_plan_id":"cebpf4jnsgd1na2vs0mg"},{"bike_id":"b37e6289-9ccc-400e-9483-a79f58a29200","system_id":"levelo_inurba_marseille","lat":43.25078,"lon":5.39507,"is_reserved":false,"is_disabled":true,"rental_uris":{"android":"levelo://app?vid=b37e6289-9ccc-400e-9483-a79f58a29200","ios":"levelo://app?vid=b37e6289-9ccc-400e-9483-a79f58a29200"},"vehicle_type_id":"4","last_reported":1737187789,"current_range_meters":13600,"station_id":"ce4bhm12rcd13ifvqgkg","pricing_plan_id":"cebpf4jnsgd1na2vs0mg"},{"bike_id":"92815373-594e-473e-8a91-850f96a6d88f","system_id":"levelo_inurba_marseille","lat":43.31133,"lon":5.37729,"is_reserved":false,"is_disabled":false,"rental_uris":{"android":"levelo://app?vid=92815373-594e-473e-8a91-850f96a6d88f","ios":"levelo://app?vid=92815373-594e-473e-8a91-850f96a6d88f"},"vehicle_type_id":"4","last_reported":1737187789,"current_range_meters":27600,"station_id":"ce4bgt92rcd13ifvqcg0","pricing_plan_id":"cebpf4jnsgd1na2vs0mg"},{"bike_id":"c5e9582c-f791-48cb-b29f-91f8675f074e","system_id":"levelo_inurba_marseille","lat":43.3199,"lon":5.38152,"is_reserved":false,"is_disabled":false,"rental_uris":{"android":"levelo://app?vid=c5e9582c-f791-48cb-b29f-91f8675f074e","ios":"levelo://app?vid=c5e9582c-f791-48cb-b29f-91f8675f074e"},"vehicle_type_id":"4","last_reported":1737187789,"current_range_meters":38800,"station_id":"ce4bhr12rcd13ifvqhpg","pricing_plan_id":"cebpf4jnsgd1na2vs0mg"},{"bike_id":"35deb437-7ef2-4ee7-9ea5-27ce0001ca7b","system_id":"levelo_inurba_marseille","lat":43.26051,"lon":5.39407,"is_reserved":false,"is_disabled":false,"rental_uris":{"android":"levelo://app?vid=35deb437-7ef2-4ee7-9ea5-27ce0001ca7b","ios":"levelo://app?vid=35deb437-7ef2-4ee7-9ea5-27ce0001ca7b"},"vehicle_type_id":"4","last_reported":1737187789,"current_range_meters":38400,"station_id":"ce4bhh92rcd13ifvqfj0","pricing_plan_id":"cebpf4jnsgd1na2vs0mg"},{"bike_id":"8950ad97-12b3-4231-a25a-a92e6e418d6d","system_id":"levelo_inurba_marseille","lat":43.28602,"lon":5.37066,"is_reserved":false,"is_disabled":false,"rental_uris":{"android":"levelo://app?vid=8950ad97-12b3-4231-a25a-a92e6e418d6d","ios":"levelo://app?vid=8950ad97-12b3-4231-a25a-a92e6e418d6d"},"vehicle_type_id":"4","last_reported":1737187789,"current_range_meters":16000,"station_id":"ce4bht12rcd13ifvqi60","pricing_plan_id":"cebpf4jnsgd1na2vs0mg"},{"bike_id":"3f365e46-1820-41a8-b556-5a78950765a9","system_id":"levelo_inurba_marseille","lat":43.28359,"lon":5.38633,"is_reserved":false,"is_disabled":false,"rental_uris":{"android":"levelo://app?vid=3f365e46-1820-41a8-b556-5a78950765a9","ios":"levelo://app?vid=3f365e46-1820-41a8-b556-5a78950765a9"},"vehicle_type_id":"4","last_reported":1737187789,"current_range_meters":38800,"station_id":"ce4bh492rcd13ifvqdvg","pricing_plan_id":"cebpf4jnsgd1na2vs0mg"},{"bike_id":"f2390374-e060-4fe1-bcfa-cb2711193e58","system_id":"levelo_inurba_marseille","lat":43.25091,"lon":5.39503,"is_reserved":false,"is_disabled":false,"rental_uris":{"android":"levelo://app?vid=f2390374-e060-4fe1-bcfa-cb2711193e58","ios":"levelo://app?vid=f2390374-e060-4fe1-bcfa-cb2711193e58"},"vehicle_type_id":"4","last_reported":1737187789,"current_range_meters":10800,"station_id":"ce4bhm12rcd13ifvqgkg","pricing_plan_id":"cebpf4jnsgd1na2vs0mg"},{"bike_id":"f1c5525f-cc34-4c4f-a34e-97ac0b4f40cf","system_id":"levelo_inurba_marseille","lat":43.2997,"lon":5.385,"is_reserved":false,"is_disabled":false,"rental_uris":{"android":"levelo://app?vid=f1c5525f-cc34-4c4f-a34e-97ac0b4f40cf","ios":"levelo://app?vid=f1c5525f-cc34-4c4f-a34e-97ac0b4f40cf"},"vehicle_type_id":"4","last_reported":1737187789,"current_range_meters":34800,"station_id":"ce4bgj92rcd13ifvqbd0","pricing_plan_id":"cebpf4jnsgd1na2vs0mg"},{"bike_id":"8eaa3fdd-0583-46f5-82d9-c00005ac6d7d","system_id":"levelo_inurba_marseille","lat":43.30942,"lon":5.39031,"is_reserved":false,"is_disabled":false,"rental_uris":{"android":"levelo://app?vid=8eaa3fdd-0583-46f5-82d9-c00005ac6d7d","ios":"levelo://app?vid=8eaa3fdd-0583-46f5-82d9-c00005ac6d7d"},"vehicle_type_id":"4","last_reported":1737187789,"current_range_meters":28400,"station_id":"ce4bgup2rcd13ifvqco0","pricing_plan_id":"cebpf4jnsgd1na2vs0mg"},{"bike_id":"ffbfe9ed-661a-4d2d-ba21-19ab6e32f197","system_id":"levelo_inurba_marseille","lat":43.29841,"lon":5.36267,"is_reserved":false,"is_disabled":false,"rental_uris":{"android":"levelo://app?vid=ffbfe9ed-661a-4d2d-ba21-19ab6e32f197","ios":"levelo://app?vid=ffbfe9ed-661a-4d2d-ba21-19ab6e32f197"},"vehicle_type_id":"4","last_reported":1737187789,"current_range_meters":35200,"station_id":"ce4bgpp2rcd13ifvqc3g","pricing_plan_id":"cebpf4jnsgd1na2vs0mg"},{"bike_id":"fb0e3bf0-d49f-4b40-9e9c-373475dbd664","system_id":"levelo_inurba_marseille","lat":43.28101,"lon":5.37831,"is_reserved":false,"is_disabled":false,"rental_uris":{"android":"levelo://app?vid=fb0e3bf0-d49f-4b40-9e9c-373475dbd664","ios":"levelo://app?vid=fb0e3bf0-d49f-4b40-9e9c-373475dbd664"},"vehicle_type_id":"4","last_reported":1737187789,"current_range_meters":9600,"station_id":"ce4bha12rcd13ifvqee0","pricing_plan_id":"cebpf4jnsgd1na2vs0mg"},{"bike_id":"cd4a107c-2d72-46d4-9e07-4d6e3e144097","system_id":"levelo_inurba_marseille","lat":43.29542,"lon":5.42287,"is_reserved":false,"is_disabled":false,"rental_uris":{"android":"levelo://app?vid=cd4a107c-2d72-46d4-9e07-4d6e3e144097","ios":"levelo://app?vid=cd4a107c-2d72-46d4-9e07-4d6e3e144097"},"vehicle_type_id":"4","last_reported":1737187789,"current_range_meters":39200,"station_id":"ce4bhph2rcd13ifvqhdg","pricing_plan_id":"cebpf4jnsgd1na2vs0mg"},{"bike_id":"c4ab3838-1d61-4e29-a39f-fbac00aa12d4","system_id":"levelo_inurba_marseille","lat":43.31191,"lon":5.36869,"is_reserved":false,"is_disabled":false,"rental_uris":{"android":"levelo://app?vid=c4ab3838-1d61-4e29-a39f-fbac00aa12d4","ios":"levelo://app?vid=c4ab3838-1d61-4e29-a39f-fbac00aa12d4"},"vehicle_type_id":"4","last_reported":1737187789,"current_range_meters":37600,"station_id":"ce4bgl92rcd13ifvqbq0","pricing_plan_id":"cebpf4jnsgd1na2vs0mg"},{"bike_id":"54a3efb5-08d3-4f3d-934b-412f3f6ff3fa","system_id":"levelo_inurba_marseille","lat":43.30522,"lon":5.36693,"is_reserved":false,"is_disabled":true,"rental_uris":{"android":"levelo://app?vid=54a3efb5-08d3-4f3d-934b-412f3f6ff3fa","ios":"levelo://app?vid=54a3efb5-08d3-4f3d-934b-412f3f6ff3fa"},"vehicle_type_id":"4","last_reported":1737187789,"current_range_meters":8400,"station_id":"ce4bgrp2rcd13ifvqc9g","pricing_plan_id":"cebpf4jnsgd1na2vs0mg"},{"bike_id":"42e233e5-0158-40b5-b723-894b7d8b2d04","system_id":"levelo_inurba_marseille","lat":43.28969,"lon":5.37832,"is_reserved":false,"is_disabled":true,"rental_uris":{"android":"levelo://app?vid=42e233e5-0158-40b5-b723-894b7d8b2d04","ios":"levelo://app?vid=42e233e5-0158-40b5-b723-894b7d8b2d04"},"vehicle_type_id":"4","last_reported":1737187789,"current_range_meters":39200,"station_id":"ce4bh9p2rcd13ifvqed0","pricing_plan_id":"cebpf4jnsgd1na2vs0mg"},{"bike_id":"64c02863-62ca-4b3b-89a0-3eef0ebcfa53","system_id":"levelo_inurba_marseille","lat":43.29632,"lon":5.40598,"is_reserved":false,"is_disabled":true,"rental_uris":{"android":"levelo://app?vid=64c02863-62ca-4b3b-89a0-3eef0ebcfa53","ios":"levelo://app?vid=64c02863-62ca-4b3b-89a0-3eef0ebcfa53"},"vehicle_type_id":"4","last_reported":1737187789,"current_range_meters":38400,"station_id":"ce4bh0h2rcd13ifvqd60","pricing_plan_id":"cebpf4jnsgd1na2vs0mg"},{"bike_id":"7d9ea372-e380-4f21-a21c-84796eaee5e8","system_id":"levelo_inurba_marseille","lat":43.29614,"lon":5.37724,"is_reserved":false,"is_disabled":false,"rental_uris":{"android":"levelo://app?vid=7d9ea372-e380-4f21-a21c-84796eaee5e8","ios":"levelo://app?vid=7d9ea372-e380-4f21-a21c-84796eaee5e8"},"vehicle_type_id":"4","last_reported":1737187789,"current_range_meters":24000,"station_id":"ce4bgi92rcd13ifvqb90","pricing_plan_id":"cebpf4jnsgd1na2vs0mg"},{"bike_id":"a5afb35b-5a53-4f77-a3ba-49320f9c6e16","system_id":"levelo_inurba_marseille","lat":43.28723,"lon":5.36091,"is_reserved":false,"is_disabled":true,"rental_uris":{"android":"levelo://app?vid=a5afb35b-5a53-4f77-a3ba-49320f9c6e16","ios":"levelo://app?vid=a5afb35b-5a53-4f77-a3ba-49320f9c6e16"},"vehicle_type_id":"4","last_reported":1737187789,"current_range_meters":2000,"station_id":"cki0cbj6b192h4jlfktg","pricing_plan_id":"cebpf4jnsgd1na2vs0mg"},{"bike_id":"246f2aa1-d855-40ee-b8e2-0e541013d632","system_id":"levelo_inurba_marseille","lat":43.27798,"lon":5.40712,"is_reserved":false,"is_disabled":true,"rental_uris":{"android":"levelo://app?vid=246f2aa1-d855-40ee-b8e2-0e541013d632","ios":"levelo://app?vid=246f2aa1-d855-40ee-b8e2-0e541013d632"},"vehicle_type_id":"4","last_reported":1737187789,"current_range_meters":1600,"station_id":"ce4bhnh2rcd13ifvqgtg","pricing_plan_id":"cebpf4jnsgd1na2vs0mg"},{"bike_id":"520701a9-fe8e-41ca-90bc-d086ab358551","system_id":"levelo_inurba_marseille","lat":43.29018,"lon":5.38137,"is_reserved":false,"is_disabled":true,"rental_uris":{"android":"levelo://app?vid=520701a9-fe8e-41ca-90bc-d086ab358551","ios":"levelo://app?vid=520701a9-fe8e-41ca-90bc-d086ab358551"},"vehicle_type_id":"4","last_reported":1737187789,"current_range_meters":37600,"station_id":"ce4bh4p2rcd13ifvqe1g","pricing_plan_id":"cebpf4jnsgd1na2vs0mg"},{"bike_id":"80d4175e-4583-4ced-8d82-da44e4842667","system_id":"levelo_inurba_marseille","lat":43.33766,"lon":5.3746,"is_reserved":false,"is_disabled":false,"rental_uris":{"android":"levelo://app?vid=80d4175e-4583-4ced-8d82-da44e4842667","ios":"levelo://app?vid=80d4175e-4583-4ced-8d82-da44e4842667"},"vehicle_type_id":"4","last_reported":1737187789,"current_range_meters":38800,"station_id":"","pricing_plan_id":"cebpf4jnsgd1na2vs0mg"},{"bike_id":"72ca0742-1df6-4026-87cc-098e9e8db1ab","system_id":"levelo_inurba_marseille","lat":43.23968,"lon":5.36632,"is_reserved":false,"is_disabled":true,"rental_uris":{"android":"levelo://app?vid=72ca0742-1df6-4026-87cc-098e9e8db1ab","ios":"levelo://app?vid=72ca0742-1df6-4026-87cc-098e9e8db1ab"},"vehicle_type_id":"4","last_reported":1737187789,"current_range_meters":25600,"station_id":"ce4bhi12rcd13ifvqfp0","pricing_plan_id":"cebpf4jnsgd1na2vs0mg"},{"bike_id":"1e2f115e-489f-4c45-b5ad-3280ad4c66fe","system_id":"levelo_inurba_marseille","lat":43.31712,"lon":5.43702,"is_reserved":false,"is_disabled":false,"rental_uris":{"android":"levelo://app?vid=1e2f115e-489f-4c45-b5ad-3280ad4c66fe","ios":"levelo://app?vid=1e2f115e-489f-4c45-b5ad-3280ad4c66fe"},"vehicle_type_id":"4","last_reported":1737187789,"current_range_meters":20000,"station_id":"ce4bhp92rcd13ifvqhcg","pricing_plan_id":"cebpf4jnsgd1na2vs0mg"},{"bike_id":"8f7a6dd7-676d-427e-a31c-a8fb7ab2b1b6","system_id":"levelo_inurba_marseille","lat":43.26939,"lon":5.40253,"is_reserved":false,"is_disabled":false,"rental_uris":{"android":"levelo://app?vid=8f7a6dd7-676d-427e-a31c-a8fb7ab2b1b6","ios":"levelo://app?vid=8f7a6dd7-676d-427e-a31c-a8fb7ab2b1b6"},"vehicle_type_id":"4","last_reported":1737187789,"current_range_meters":11200,"station_id":"cjm6bp8fraef2m0cb0m0","pricing_plan_id":"cebpf4jnsgd1na2vs0mg"},{"bike_id":"6f7a6d17-22c9-4748-b80d-5567d71ed68e","system_id":"levelo_inurba_marseille","lat":43.30231,"lon":5.40061,"is_reserved":false,"is_disabled":true,"rental_uris":{"android":"levelo://app?vid=6f7a6d17-22c9-4748-b80d-5567d71ed68e","ios":"levelo://app?vid=6f7a6d17-22c9-4748-b80d-5567d71ed68e"},"vehicle_type_id":"4","last_reported":1737187789,"current_range_meters":38000,"station_id":"ce4bgvh2rcd13ifvqcs0","pricing_plan_id":"cebpf4jnsgd1na2vs0mg"},{"bike_id":"5ed39e30-6df6-4cb7-b9e5-8eddd4f008ab","system_id":"levelo_inurba_marseille","lat":43.30347,"lon":5.391,"is_reserved":false,"is_disabled":true,"rental_uris":{"android":"levelo://app?vid=5ed39e30-6df6-4cb7-b9e5-8eddd4f008ab","ios":"levelo://app?vid=5ed39e30-6df6-4cb7-b9e5-8eddd4f008ab"},"vehicle_type_id":"4","last_reported":1737187789,"current_range_meters":0,"station_id":"ce4bgkh2rcd13ifvqbk0","pricing_plan_id":"cebpf4jnsgd1na2vs0mg"},{"bike_id":"5f14310a-75fd-4a5b-a1bd-aaf290600cc6","system_id":"levelo_inurba_marseille","lat":43.255,"lon":5.37652,"is_reserved":false,"is_disabled":false,"rental_uris":{"android":"levelo://app?vid=5f14310a-75fd-4a5b-a1bd-aaf290600cc6","ios":"levelo://app?vid=5f14310a-75fd-4a5b-a1bd-aaf290600cc6"},"vehicle_type_id":"4","last_reported":1737187789,"current_range_meters":36800,"station_id":"ce4bhh12rcd13ifvqff0","pricing_plan_id":"cebpf4jnsgd1na2vs0mg"},{"bike_id":"d36731f9-cbd2-4bbd-a85f-f57082cf2f36","system_id":"levelo_inurba_marseille","lat":43.29076,"lon":5.38166,"is_reserved":false,"is_disabled":false,"rental_uris":{"android":"levelo://app?vid=d36731f9-cbd2-4bbd-a85f-f57082cf2f36","ios":"levelo://app?vid=d36731f9-cbd2-4bbd-a85f-f57082cf2f36"},"vehicle_type_id":"4","last_reported":1737187789,"current_range_meters":37600,"station_id":"ce4bh512rcd13ifvqe2g","pricing_plan_id":"cebpf4jnsgd1na2vs0mg"},{"bike_id":"0b938576-3591-451b-87bf-9390e1a3ed62","system_id":"levelo_inurba_marseille","lat":43.30676,"lon":5.40016,"is_reserved":false,"is_disabled":true,"rental_uris":{"android":"levelo://app?vid=0b938576-3591-451b-87bf-9390e1a3ed62","ios":"levelo://app?vid=0b938576-3591-451b-87bf-9390e1a3ed62"},"vehicle_type_id":"4","last_reported":1737187789,"current_range_meters":20800,"station_id":"","pricing_plan_id":"cebpf4jnsgd1na2vs0mg"},{"bike_id":"7383474c-b45a-4438-837c-99d7ae866fe7","system_id":"levelo_inurba_marseille","lat":43.26069,"lon":5.39389,"is_reserved":false,"is_disabled":false,"rental_uris":{"android":"levelo://app?vid=7383474c-b45a-4438-837c-99d7ae866fe7","ios":"levelo://app?vid=7383474c-b45a-4438-837c-99d7ae866fe7"},"vehicle_type_id":"4","last_reported":1737187789,"current_range_meters":38400,"station_id":"ce4bhh92rcd13ifvqfj0","pricing_plan_id":"cebpf4jnsgd1na2vs0mg"},{"bike_id":"4b62f61e-9a6c-4324-9eb8-ea40df5b2b54","system_id":"levelo_inurba_marseille","lat":43.2846,"lon":5.35899,"is_reserved":false,"is_disabled":false,"rental_uris":{"android":"levelo://app?vid=4b62f61e-9a6c-4324-9eb8-ea40df5b2b54","ios":"levelo://app?vid=4b62f61e-9a6c-4324-9eb8-ea40df5b2b54"},"vehicle_type_id":"4","last_reported":1737187789,"current_range_meters":38800,"station_id":"ce4bhah2rcd13ifvqei0","pricing_plan_id":"cebpf4jnsgd1na2vs0mg"},{"bike_id":"0352da0f-67b9-4f9c-95b6-4b5452c943f6","system_id":"levelo_inurba_marseille","lat":43.2789,"lon":5.38015,"is_reserved":false,"is_disabled":false,"rental_uris":{"android":"levelo://app?vid=0352da0f-67b9-4f9c-95b6-4b5452c943f6","ios":"levelo://app?vid=0352da0f-67b9-4f9c-95b6-4b5452c943f6"},"vehicle_type_id":"4","last_reported":1737187789,"current_range_meters":30000,"station_id":"ce4bhf92rcd13ifvqf50","pricing_plan_id":"cebpf4jnsgd1na2vs0mg"},{"bike_id":"47e8be31-eb92-45b3-a380-6a7fd785464e","system_id":"levelo_inurba_marseille","lat":43.24649,"lon":5.38888,"is_reserved":false,"is_disabled":false,"rental_uris":{"android":"levelo://app?vid=47e8be31-eb92-45b3-a380-6a7fd785464e","ios":"levelo://app?vid=47e8be31-eb92-45b3-a380-6a7fd785464e"},"vehicle_type_id":"4","last_reported":1737187789,"current_range_meters":36800,"station_id":"ce4bhg12rcd13ifvqf60","pricing_plan_id":"cebpf4jnsgd1na2vs0mg"},{"bike_id":"61b0c2f3-448f-49d3-8a4a-899110ba1116","system_id":"levelo_inurba_marseille","lat":43.32331,"lon":5.4061,"is_reserved":false,"is_disabled":false,"rental_uris":{"android":"levelo://app?vid=61b0c2f3-448f-49d3-8a4a-899110ba1116","ios":"levelo://app?vid=61b0c2f3-448f-49d3-8a4a-899110ba1116"},"vehicle_type_id":"4","last_reported":1737187789,"current_range_meters":33200,"station_id":"ce4bhq92rcd13ifvqhjg","pricing_plan_id":"cebpf4jnsgd1na2vs0mg"},{"bike_id":"35855600-b7a7-4a4d-b402-fa49f62670ff","system_id":"levelo_inurba_marseille","lat":43.31107,"lon":5.37767,"is_reserved":false,"is_disabled":false,"rental_uris":{"android":"levelo://app?vid=35855600-b7a7-4a4d-b402-fa49f62670ff","ios":"levelo://app?vid=35855600-b7a7-4a4d-b402-fa49f62670ff"},"vehicle_type_id":"4","last_reported":1737187789,"current_range_meters":38000,"station_id":"ce4bgt92rcd13ifvqcg0","pricing_plan_id":"cebpf4jnsgd1na2vs0mg"},{"bike_id":"0c06eeb6-c68d-4436-bc0a-579bb379ca0d","system_id":"levelo_inurba_marseille","lat":43.24702,"lon":5.3776,"is_reserved":false,"is_disabled":true,"rental_uris":{"android":"levelo://app?vid=0c06eeb6-c68d-4436-bc0a-579bb379ca0d","ios":"levelo://app?vid=0c06eeb6-c68d-4436-bc0a-579bb379ca0d"},"vehicle_type_id":"4","last_reported":1737187789,"current_range_meters":36400,"station_id":"","pricing_plan_id":"cebpf4jnsgd1na2vs0mg"},{"bike_id":"44bccd7b-e954-4fef-a58a-1bfa0b432213","system_id":"levelo_inurba_marseille","lat":43.28261,"lon":5.35083,"is_reserved":false,"is_disabled":false,"rental_uris":{"android":"levelo://app?vid=44bccd7b-e954-4fef-a58a-1bfa0b432213","ios":"levelo://app?vid=44bccd7b-e954-4fef-a58a-1bfa0b432213"},"vehicle_type_id":"4","last_reported":1737187789,"current_range_meters":39200,"station_id":"ce4bhbp2rcd13ifvqerg","pricing_plan_id":"cebpf4jnsgd1na2vs0mg"},{"bike_id":"230bef5b-3f3d-4ae2-901e-7cede6e0c8f2","system_id":"levelo_inurba_marseille","lat":43.30762,"lon":5.37698,"is_reserved":false,"is_disabled":false,"rental_uris":{"android":"levelo://app?vid=230bef5b-3f3d-4ae2-901e-7cede6e0c8f2","ios":"levelo://app?vid=230bef5b-3f3d-4ae2-901e-7cede6e0c8f2"},"vehicle_type_id":"4","last_reported":1737187789,"current_range_meters":20000,"station_id":"","pricing_plan_id":"cebpf4jnsgd1na2vs0mg"},{"bike_id":"ef74c085-e254-493f-8bad-ac87926b563d","system_id":"levelo_inurba_marseille","lat":43.29251,"lon":5.40925,"is_reserved":false,"is_disabled":false,"rental_uris":{"android":"levelo://app?vid=ef74c085-e254-493f-8bad-ac87926b563d","ios":"levelo://app?vid=ef74c085-e254-493f-8bad-ac87926b563d"},"vehicle_type_id":"4","last_reported":1737187789,"current_range_meters":38800,"station_id":"ce4bh192rcd13ifvqdc0","pricing_plan_id":"cebpf4jnsgd1na2vs0mg"},{"bike_id":"a3b707c7-6307-4e5f-a8e6-8113aef1245e","system_id":"levelo_inurba_marseille","lat":43.28415,"lon":5.37511,"is_reserved":false,"is_disabled":false,"rental_uris":{"android":"levelo://app?vid=a3b707c7-6307-4e5f-a8e6-8113aef1245e","ios":"levelo://app?vid=a3b707c7-6307-4e5f-a8e6-8113aef1245e"},"vehicle_type_id":"4","last_reported":1737187789,"current_range_meters":30400,"station_id":"ce4bh412rcd13ifvqds0","pricing_plan_id":"cebpf4jnsgd1na2vs0mg"},{"bike_id":"fe90f7a6-3920-456a-9451-50d213b7000f","system_id":"levelo_inurba_marseille","lat":43.28475,"lon":5.38434,"is_reserved":false,"is_disabled":true,"rental_uris":{"android":"levelo://app?vid=fe90f7a6-3920-456a-9451-50d213b7000f","ios":"levelo://app?vid=fe90f7a6-3920-456a-9451-50d213b7000f"},"vehicle_type_id":"4","last_reported":1737187789,"current_range_meters":0,"station_id":"ce4bh512rcd13ifvqe3g","pricing_plan_id":"cebpf4jnsgd1na2vs0mg"},{"bike_id":"3958b03d-b591-4d79-80a4-059614f22dc2","system_id":"levelo_inurba_marseille","lat":43.2989,"lon":5.43682,"is_reserved":false,"is_disabled":false,"rental_uris":{"android":"levelo://app?vid=3958b03d-b591-4d79-80a4-059614f22dc2","ios":"levelo://app?vid=3958b03d-b591-4d79-80a4-059614f22dc2"},"vehicle_type_id":"4","last_reported":1737187789,"current_range_meters":36000,"station_id":"ce4bhpp2rcd13ifvqhfg","pricing_plan_id":"cebpf4jnsgd1na2vs0mg"},{"bike_id":"e2fc3c7c-676a-40c6-b963-7665e51fde8e","system_id":"levelo_inurba_marseille","lat":43.31757,"lon":5.39019,"is_reserved":false,"is_disabled":false,"rental_uris":{"android":"levelo://app?vid=e2fc3c7c-676a-40c6-b963-7665e51fde8e","ios":"levelo://app?vid=e2fc3c7c-676a-40c6-b963-7665e51fde8e"},"vehicle_type_id":"4","last_reported":1737187789,"current_range_meters":24800,"station_id":"ce4bhqp2rcd13ifvqhng","pricing_plan_id":"cebpf4jnsgd1na2vs0mg"},{"bike_id":"910d1690-8e74-46e9-a779-620892417947","system_id":"levelo_inurba_marseille","lat":43.27051,"lon":5.42272,"is_reserved":false,"is_disabled":false,"rental_uris":{"android":"levelo://app?vid=910d1690-8e74-46e9-a779-620892417947","ios":"levelo://app?vid=910d1690-8e74-46e9-a779-620892417947"},"vehicle_type_id":"4","last_reported":1737187789,"current_range_meters":33600,"station_id":"ce4bhk92rcd13ifvqgb0","pricing_plan_id":"cebpf4jnsgd1na2vs0mg"},{"bike_id":"7252053a-5c68-45c3-bb6b-f5e7c6b31b2d","system_id":"levelo_inurba_marseille","lat":43.276279,"lon":5.360971,"is_reserved":false,"is_disabled":false,"rental_uris":{"android":"levelo://app?vid=7252053a-5c68-45c3-bb6b-f5e7c6b31b2d","ios":"levelo://app?vid=7252053a-5c68-45c3-bb6b-f5e7c6b31b2d"},"vehicle_type_id":"4","last_reported":1737187789,"current_range_meters":36800,"station_id":"ce4bgj92rcd13ifvqbe0","pricing_plan_id":"cebpf4jnsgd1na2vs0mg"},{"bike_id":"dbc84289-e424-421f-8922-80495ae94fa1","system_id":"levelo_inurba_marseille","lat":43.30593,"lon":5.39359,"is_reserved":false,"is_disabled":true,"rental_uris":{"android":"levelo://app?vid=dbc84289-e424-421f-8922-80495ae94fa1","ios":"levelo://app?vid=dbc84289-e424-421f-8922-80495ae94fa1"},"vehicle_type_id":"4","last_reported":1737187789,"current_range_meters":23200,"station_id":"ce4bh0p2rcd13ifvqd80","pricing_plan_id":"cebpf4jnsgd1na2vs0mg"},{"bike_id":"b205d6b8-894d-4fbe-b662-7e7cffdad903","system_id":"levelo_inurba_marseille","lat":43.30532,"lon":5.36527,"is_reserved":false,"is_disabled":false,"rental_uris":{"android":"levelo://app?vid=b205d6b8-894d-4fbe-b662-7e7cffdad903","ios":"levelo://app?vid=b205d6b8-894d-4fbe-b662-7e7cffdad903"},"vehicle_type_id":"4","last_reported":1737187789,"current_range_meters":34000,"station_id":"ce4bgs12rcd13ifvqcag","pricing_plan_id":"cebpf4jnsgd1na2vs0mg"},{"bike_id":"a9a0e60f-8e94-490a-988c-5a9cfc45d626","system_id":"levelo_inurba_marseille","lat":43.24167,"lon":5.36391,"is_reserved":false,"is_disabled":false,"rental_uris":{"android":"levelo://app?vid=a9a0e60f-8e94-490a-988c-5a9cfc45d626","ios":"levelo://app?vid=a9a0e60f-8e94-490a-988c-5a9cfc45d626"},"vehicle_type_id":"4","last_reported":1737187789,"current_range_meters":11600,"station_id":"cpo36qri1sfpv3e86is0","pricing_plan_id":"cebpf4jnsgd1na2vs0mg"},{"bike_id":"129c6ffc-8996-4ecb-bd48-25fe892af469","system_id":"levelo_inurba_marseille","lat":43.2978,"lon":5.371,"is_reserved":false,"is_disabled":false,"rental_uris":{"android":"levelo://app?vid=129c6ffc-8996-4ecb-bd48-25fe892af469","ios":"levelo://app?vid=129c6ffc-8996-4ecb-bd48-25fe892af469"},"vehicle_type_id":"4","last_reported":1737187789,"current_range_meters":38000,"station_id":"ce4bgop2rcd13ifvqc1g","pricing_plan_id":"cebpf4jnsgd1na2vs0mg"},{"bike_id":"729e7978-95fc-46fb-8c44-46b19b977fac","system_id":"levelo_inurba_marseille","lat":43.312356,"lon":5.368797,"is_reserved":false,"is_disabled":false,"rental_uris":{"android":"levelo://app?vid=729e7978-95fc-46fb-8c44-46b19b977fac","ios":"levelo://app?vid=729e7978-95fc-46fb-8c44-46b19b977fac"},"vehicle_type_id":"4","last_reported":1737187789,"current_range_meters":27600,"station_id":"ce4bgl92rcd13ifvqbq0","pricing_plan_id":"cebpf4jnsgd1na2vs0mg"},{"bike_id":"1a2f9f14-2fbe-4eba-83c2-a0d6820aa34b","system_id":"levelo_inurba_marseille","lat":43.27046,"lon":5.40263,"is_reserved":false,"is_disabled":false,"rental_uris":{"android":"levelo://app?vid=1a2f9f14-2fbe-4eba-83c2-a0d6820aa34b","ios":"levelo://app?vid=1a2f9f14-2fbe-4eba-83c2-a0d6820aa34b"},"vehicle_type_id":"4","last_reported":1737187789,"current_range_meters":35200,"station_id":"ce4bhk92rcd13ifvqgc0","pricing_plan_id":"cebpf4jnsgd1na2vs0mg"},{"bike_id":"30712aed-64b7-477a-8129-9a5f90e2d90a","system_id":"levelo_inurba_marseille","lat":43.30324,"lon":5.40439,"is_reserved":false,"is_disabled":false,"rental_uris":{"android":"levelo://app?vid=30712aed-64b7-477a-8129-9a5f90e2d90a","ios":"levelo://app?vid=30712aed-64b7-477a-8129-9a5f90e2d90a"},