{"last_updated":1743109789,"ttl":60,"version":"2.2","data":{"bikes":[{"bike_id":"84ce3002-0d07-4fa1-8602-25a26e568066","system_id":"levelo_inurba_marseille","lat":43.2509,"lon":5.39519,"is_reserved":false,"is_disabled":false,"rental_uris":{"android":"levelo://app?vid=84ce3002-0d07-4fa1-8602-25a26e568066","ios":"levelo://app?vid=84ce3002-0d07-4fa1-8602-25a26e568066"},"vehicle_type_id":"4","last_reported":1743109790,"current_range_meters":2800,"station_id":"ce4bhm12rcd13ifvqgkg","pricing_plan_id":"cebpf4jnsgd1na2vs0mg"},{"bike_id":"3c5b9de9-2126-4391-ae19-7c9396efc28b","system_id":"levelo_inurba_marseille","lat":43.25591,"lon":5.38225,"is_reserved":false,"is_disabled":false,"rental_uris":{"android":"levelo://app?vid=3c5b9de9-2126-4391-ae19-7c9396efc28b","ios":"levelo://app?vid=3c5b9de9-2126-4391-ae19-7c9396efc28b"},"vehicle_type_id":"4","last_reported":1743109790,"current_range_meters":2800,"station_id":"ce4bhih2rcd13ifvqfs0","pricing_plan_id":"cebpf4jnsgd1na2vs0mg"},{"bike_id":"95c96f78-7a13-4877-b261-67fd6918fad7","system_id":"levelo_inurba_marseille","lat":43.31542,"lon":5.38806,"is_reserved":false,"is_disabled":true,"rental_uris":{"android":"levelo://app?vid=95c96f78-7a13-4877-b261-67fd6918fad7","ios":"levelo://app?vid=95c96f78-7a13-4877-b261-67fd6918fad7"},"vehicle_type_id":"4","last_reported":1743109790,"current_range_meters":2800,"station_id":"","pricing_plan_id":"cebpf4jnsgd1na2vs0mg"},{"bike_id":"0c6462f6-2b7c-4861-b205-52259a6c3be4","system_id":"levelo_inurba_marseille","lat":43.28454,"lon":5.3589,"is_reserved":false,"is_disabled":false,"rental_uris":{"android":"levelo://app?vid=0c6462f6-2b7c-4861-b205-52259a6c3be4","ios":"levelo://app?vid=0c6462f6-2b7c-4861-b205-52259a6c3be4"},"vehicle_type_id":"4","last_reported":1743109790,"current_range_meters":1200,"station_id":"ce4bhah2rcd13ifvqei0","pricing_plan_id":"cebpf4jnsgd1na2vs0mg"},{"bike_id":"3d81f6da-fe9d-4934-ad4c-1141e1eecd92","system_id":"levelo_inurba_marseille","lat":43.24163,"lon":5.364002,"is_reserved":false,"is_disabled":true,"rental_uris":{"android":"levelo://app?vid=3d81f6da-fe9d-4934-ad4c-1141e1eecd92","ios":"levelo://app?vid=3d81f6da-fe9d-4934-ad4c-1141e1eecd92"},"vehicle_type_id":"4","last_reported":1743109790,"current_range_meters":3200,"station_id":"cpo36qri1sfpv3e86is0","pricing_plan_id":"cebpf4jnsgd1na2vs0mg"},{"bike_id":"cf4f3492-aa59-43e6-b583-0413fb786c5e","system_id":"levelo_inurba_marseille","lat":43.294189,"lon":5.386243,"is_reserved":false,"is_disabled":false,"rental_uris":{"android":"levelo://app?vid=cf4f3492-aa59-43e6-b583-0413fb786c5e","ios":"levelo://app?vid=cf4f3492-aa59-43e6-b583-0413fb786c5e"},"vehicle_type_id":"4","last_reported":1743109790,"current_range_meters":3200,"station_id":"ce4bh2h2rcd13ifvqdh0","pricing_plan_id":"cebpf4jnsgd1na2vs0mg"},{"bike_id":"9f686b7f-1026-48b4-87f5-6432105e8660","system_id":"levelo_inurba_marseille","lat":43.323669,"lon":5.388842,"is_reserved":false,"is_disabled":false,"rental_uris":{"android":"levelo://app?vid=9f686b7f-1026-48b4-87f5-6432105e8660","ios":"levelo://app?vid=9f686b7f-1026-48b4-87f5-6432105e8660"},"vehicle_type_id":"4","last_reported":1743109790,"current_range_meters":3600,"station_id":"ce4bhqp2rcd13ifvqhog","pricing_plan_id":"cebpf4jnsgd1na2vs0mg"},{"bike_id":"bbc7fe32-4d62-4a77-8563-f7434ede5615","system_id":"levelo_inurba_marseille","lat":43.3034,"lon":5.40417,"is_reserved":false,"is_disabled":false,"rental_uris":{"android":"levelo://app?vid=bbc7fe32-4d62-4a77-8563-f7434ede5615","ios":"levelo://app?vid=bbc7fe32-4d62-4a77-8563-f7434ede5615"},"vehicle_type_id":"4","last_reported":1743109790,"current_range_meters":3200,"station_id":"ce4bh012rcd13ifvqd10","pricing_plan_id":"cebpf4jnsgd1na2vs0mg"},{"bike_id":"b501e66c-90dc-42b8-920a-de3982ca9ad9","system_id":"levelo_inurba_marseille","lat":43.25508,"lon":5.3765,"is_reserved":false,"is_disabled":true,"rental_uris":{"android":"levelo://app?vid=b501e66c-90dc-42b8-920a-de3982ca9ad9","ios":"levelo://app?vid=b501e66c-90dc-42b8-920a-de3982ca9ad9"},"vehicle_type_id":"4","last_reported":1743109790,"current_range_meters":3600,"station_id":"ce4bhh12rcd13ifvqff0","pricing_plan_id":"cebpf4jnsgd1na2vs0mg"},{"bike_id":"7553c30d-e3a2-45e3-b226-30ff4f9e9e54","system_id":"levelo_inurba_marseille","lat":43.24998,"lon":5.38926,"is_reserved":false,"is_disabled":false,"rental_uris":{"android":"levelo://app?vid=7553c30d-e3a2-45e3-b226-30ff4f9e9e54","ios":"levelo://app?vid=7553c30d-e3a2-45e3-b226-30ff4f9e9e54"},"vehicle_type_id":"4","last_reported":1743109790,"current_range_meters":3600,"station_id":"ce4bhgp2rcd13ifvqfd0","pricing_plan_id":"cebpf4jnsgd1na2vs0mg"},{"bike_id":"40d17d82-6bce-41c3-8f9c-8b9625a8a7ec","system_id":"levelo_inurba_marseille","lat":43.31463,"lon":5.37294,"is_reserved":false,"is_disabled":false,"rental_uris":{"android":"levelo://app?vid=40d17d82-6bce-41c3-8f9c-8b9625a8a7ec","ios":"levelo://app?vid=40d17d82-6bce-41c3-8f9c-8b9625a8a7ec"},"vehicle_type_id":"4","last_reported":1743109790,"current_range_meters":3600,"station_id":"ce4bgt12rcd13ifvqcd0","pricing_plan_id":"cebpf4jnsgd1na2vs0mg"},{"bike_id":"5e187ad1-bb14-42e5-8f54-b13a2f1781e9","system_id":"levelo_inurba_marseille","lat":43.29259,"lon":5.38429,"is_reserved":false,"is_disabled":true,"rental_uris":{"android":"levelo://app?vid=5e187ad1-bb14-42e5-8f54-b13a2f1781e9","ios":"levelo://app?vid=5e187ad1-bb14-42e5-8f54-b13a2f1781e9"},"vehicle_type_id":"4","last_reported":1743109790,"current_range_meters":4000,"station_id":"ce4bh692rcd13ifvqea0","pricing_plan_id":"cebpf4jnsgd1na2vs0mg"},{"bike_id":"a3e6f248-b75b-40dc-9ce0-a569e7377691","system_id":"levelo_inurba_marseille","lat":43.25918,"lon":5.40918,"is_reserved":false,"is_disabled":true,"rental_uris":{"android":"levelo://app?vid=a3e6f248-b75b-40dc-9ce0-a569e7377691","ios":"levelo://app?vid=a3e6f248-b75b-40dc-9ce0-a569e7377691"},"vehicle_type_id":"4","last_reported":1743109790,"current_range_meters":4000,"station_id":"ce4bhm92rcd13ifvqglg","pricing_plan_id":"cebpf4jnsgd1na2vs0mg"},{"bike_id":"f02d017a-6cec-4604-b9a5-cd554923eab2","system_id":"levelo_inurba_marseille","lat":43.29816,"lon":5.42115,"is_reserved":false,"is_disabled":false,"rental_uris":{"android":"levelo://app?vid=f02d017a-6cec-4604-b9a5-cd554923eab2","ios":"levelo://app?vid=f02d017a-6cec-4604-b9a5-cd554923eab2"},"vehicle_type_id":"4","last_reported":1743109790,"current_range_meters":4000,"station_id":"","pricing_plan_id":"cebpf4jnsgd1na2vs0mg"},{"bike_id":"350d9766-1d9c-4151-9b68-41087f8d763a","system_id":"levelo_inurba_marseille","lat":43.29578,"lon":5.3809,"is_reserved":false,"is_disabled":false,"rental_uris":{"android":"levelo://app?vid=350d9766-1d9c-4151-9b68-41087f8d763a","ios":"levelo://app?vid=350d9766-1d9c-4151-9b68-41087f8d763a"},"vehicle_type_id":"4","last_reported":1743109790,"current_range_meters":4000,"station_id":"ce4bgl12rcd13ifvqbo0","pricing_plan_id":"cebpf4jnsgd1na2vs0mg"},{"bike_id":"65c96949-5286-4d50-83d1-e538ae320c3d","system_id":"levelo_inurba_marseille","lat":43.27833,"lon":5.39198,"is_reserved":false,"is_disabled":false,"rental_uris":{"android":"levelo://app?vid=65c96949-5286-4d50-83d1-e538ae320c3d","ios":"levelo://app?vid=65c96949-5286-4d50-83d1-e538ae320c3d"},"vehicle_type_id":"4","last_reported":1743109790,"current_range_meters":3600,"station_id":"ce4bhjp2rcd13ifvqga0","pricing_plan_id":"cebpf4jnsgd1na2vs0mg"},{"bike_id":"1dd765a9-64b4-439c-a196-df55419cc971","system_id":"levelo_inurba_marseille","lat":43.24179,"lon":5.36382,"is_reserved":false,"is_disabled":false,"rental_uris":{"android":"levelo://app?vid=1dd765a9-64b4-439c-a196-df55419cc971","ios":"levelo://app?vid=1dd765a9-64b4-439c-a196-df55419cc971"},"vehicle_type_id":"4","last_reported":1743109790,"current_range_meters":4400,"station_id":"cpo36qri1sfpv3e86is0","pricing_plan_id":"cebpf4jnsgd1na2vs0mg"},{"bike_id":"f2704b9c-c316-4f5f-9155-65f7581186ce","system_id":"levelo_inurba_marseille","lat":43.28035,"lon":5.369401,"is_reserved":false,"is_disabled":false,"rental_uris":{"android":"levelo://app?vid=f2704b9c-c316-4f5f-9155-65f7581186ce","ios":"levelo://app?vid=f2704b9c-c316-4f5f-9155-65f7581186ce"},"vehicle_type_id":"4","last_reported":1743109790,"current_range_meters":4400,"station_id":"ce4bha12rcd13ifvqef0","pricing_plan_id":"cebpf4jnsgd1na2vs0mg"},{"bike_id":"d4d5963a-cb27-46de-9f1c-185490377ac1","system_id":"levelo_inurba_marseille","lat":43.31335,"lon":5.39688,"is_reserved":false,"is_disabled":false,"rental_uris":{"android":"levelo://app?vid=d4d5963a-cb27-46de-9f1c-185490377ac1","ios":"levelo://app?vid=d4d5963a-cb27-46de-9f1c-185490377ac1"},"vehicle_type_id":"4","last_reported":1743109790,"current_range_meters":5600,"station_id":"ce4bgvp2rcd13ifvqcu0","pricing_plan_id":"cebpf4jnsgd1na2vs0mg"},{"bike_id":"4d29673d-54e7-48d2-9c9f-1d02cf66fc24","system_id":"levelo_inurba_marseille","lat":43.28618,"lon":5.38425,"is_reserved":false,"is_disabled":false,"rental_uris":{"android":"levelo://app?vid=4d29673d-54e7-48d2-9c9f-1d02cf66fc24","ios":"levelo://app?vid=4d29673d-54e7-48d2-9c9f-1d02cf66fc24"},"vehicle_type_id":"4","last_reported":1743109790,"current_range_meters":4800,"station_id":"","pricing_plan_id":"cebpf4jnsgd1na2vs0mg"},{"bike_id":"340f6acd-abff-4c42-b787-729e898e11ab","system_id":"levelo_inurba_marseille","lat":43.29529,"lon":5.39033,"is_reserved":false,"is_disabled":false,"rental_uris":{"android":"levelo://app?vid=340f6acd-abff-4c42-b787-729e898e11ab","ios":"levelo://app?vid=340f6acd-abff-4c42-b787-729e898e11ab"},"vehicle_type_id":"4","last_reported":1743109790,"current_range_meters":4800,"station_id":"ce4bh3p2rcd13ifvqdp0","pricing_plan_id":"cebpf4jnsgd1na2vs0mg"},{"bike_id":"dd5783c6-158d-4cbc-b771-8d0cc786b4bb","system_id":"levelo_inurba_marseille","lat":43.2656,"lon":5.3901,"is_reserved":false,"is_disabled":false,"rental_uris":{"android":"levelo://app?vid=dd5783c6-158d-4cbc-b771-8d0cc786b4bb","ios":"levelo://app?vid=dd5783c6-158d-4cbc-b771-8d0cc786b4bb"},"vehicle_type_id":"4","last_reported":1743109790,"current_range_meters":4800,"station_id":"ce4bhe12rcd13ifvqf30","pricing_plan_id":"cebpf4jnsgd1na2vs0mg"},{"bike_id":"56bb3ee9-3336-4a80-bf19-a69b1032022e","system_id":"levelo_inurba_marseille","lat":43.28476,"lon":5.35866,"is_reserved":false,"is_disabled":false,"rental_uris":{"android":"levelo://app?vid=56bb3ee9-3336-4a80-bf19-a69b1032022e","ios":"levelo://app?vid=56bb3ee9-3336-4a80-bf19-a69b1032022e"},"vehicle_type_id":"4","last_reported":1743109790,"current_range_meters":4800,"station_id":"ce4bhah2rcd13ifvqei0","pricing_plan_id":"cebpf4jnsgd1na2vs0mg"},{"bike_id":"47bc11c6-c640-4892-b41f-01e466403cc4","system_id":"levelo_inurba_marseille","lat":43.29548,"lon":5.39989,"is_reserved":false,"is_disabled":false,"rental_uris":{"android":"levelo://app?vid=47bc11c6-c640-4892-b41f-01e466403cc4","ios":"levelo://app?vid=47bc11c6-c640-4892-b41f-01e466403cc4"},"vehicle_type_id":"4","last_reported":1743109790,"current_range_meters":4800,"station_id":"ce4bh312rcd13ifvqdj0","pricing_plan_id":"cebpf4jnsgd1na2vs0mg"},{"bike_id":"954f9e7a-3816-48c6-ac56-5468b296d72a","system_id":"levelo_inurba_marseille","lat":43.28698,"lon":5.37384,"is_reserved":false,"is_disabled":false,"rental_uris":{"android":"levelo://app?vid=954f9e7a-3816-48c6-ac56-5468b296d72a","ios":"levelo://app?vid=954f9e7a-3816-48c6-ac56-5468b296d72a"},"vehicle_type_id":"4","last_reported":1743109790,"current_range_meters":4800,"station_id":"ce4bh3p2rcd13ifvqdq0","pricing_plan_id":"cebpf4jnsgd1na2vs0mg"},{"bike_id":"1b876d6c-62d8-4868-9c6d-7a787cd07989","system_id":"levelo_inurba_marseille","lat":43.28983,"lon":5.39065,"is_reserved":false,"is_disabled":false,"rental_uris":{"android":"levelo://app?vid=1b876d6c-62d8-4868-9c6d-7a787cd07989","ios":"levelo://app?vid=1b876d6c-62d8-4868-9c6d-7a787cd07989"},"vehicle_type_id":"4","last_reported":1743109790,"current_range_meters":4800,"station_id":"","pricing_plan_id":"cebpf4jnsgd1na2vs0mg"},{"bike_id":"f33eb6d9-57b1-4611-a84c-f8721f46b329","system_id":"levelo_inurba_marseille","lat":43.29601,"lon":5.38081,"is_reserved":false,"is_disabled":false,"rental_uris":{"android":"levelo://app?vid=f33eb6d9-57b1-4611-a84c-f8721f46b329","ios":"levelo://app?vid=f33eb6d9-57b1-4611-a84c-f8721f46b329"},"vehicle_type_id":"4","last_reported":1743109790,"current_range_meters":4800,"station_id":"ce4bgl12rcd13ifvqbo0","pricing_plan_id":"cebpf4jnsgd1na2vs0mg"},{"bike_id":"aed02ec1-8282-42df-ba11-d3b0d0e01e1d","system_id":"levelo_inurba_marseille","lat":43.279866,"lon":5.416406,"is_reserved":false,"is_disabled":false,"rental_uris":{"android":"levelo://app?vid=aed02ec1-8282-42df-ba11-d3b0d0e01e1d","ios":"levelo://app?vid=aed02ec1-8282-42df-ba11-d3b0d0e01e1d"},"vehicle_type_id":"4","last_reported":1743109790,"current_range_meters":5600,"station_id":"ce4bho12rcd13ifvqh1g","pricing_plan_id":"cebpf4jnsgd1na2vs0mg"},{"bike_id":"dc34414f-32c0-4b16-82ce-68c4bae9acda","system_id":"levelo_inurba_marseille","lat":43.29929,"lon":5.36553,"is_reserved":false,"is_disabled":false,"rental_uris":{"android":"levelo://app?vid=dc34414f-32c0-4b16-82ce-68c4bae9acda","ios":"levelo://app?vid=dc34414f-32c0-4b16-82ce-68c4bae9acda"},"vehicle_type_id":"4","last_reported":1743109790,"current_range_meters":5600,"station_id":"ce4bgm92rcd13ifvqbr0","pricing_plan_id":"cebpf4jnsgd1na2vs0mg"},{"bike_id":"bf9701f2-e308-43da-b2a6-035b27acb45d","system_id":"levelo_inurba_marseille","lat":43.30293,"lon":5.36891,"is_reserved":false,"is_disabled":false,"rental_uris":{"android":"levelo://app?vid=bf9701f2-e308-43da-b2a6-035b27acb45d","ios":"levelo://app?vid=bf9701f2-e308-43da-b2a6-035b27acb45d"},"vehicle_type_id":"4","last_reported":1743109790,"current_range_meters":5600,"station_id":"ce4bgqh2rcd13ifvqc5g","pricing_plan_id":"cebpf4jnsgd1na2vs0mg"},{"bike_id":"f216eac0-0927-477b-98d6-443a882c30e4","system_id":"levelo_inurba_marseille","lat":43.28079,"lon":5.3966,"is_reserved":false,"is_disabled":false,"rental_uris":{"android":"levelo://app?vid=f216eac0-0927-477b-98d6-443a882c30e4","ios":"levelo://app?vid=f216eac0-0927-477b-98d6-443a882c30e4"},"vehicle_type_id":"4","last_reported":1743109790,"current_range_meters":5600,"station_id":"ce4bho12rcd13ifvqh2g","pricing_plan_id":"cebpf4jnsgd1na2vs0mg"},{"bike_id":"cb3c3b71-c0d3-43ce-bac4-7cd206790b31","system_id":"levelo_inurba_marseille","lat":43.31258,"lon":5.40155,"is_reserved":false,"is_disabled":false,"rental_uris":{"android":"levelo://app?vid=cb3c3b71-c0d3-43ce-bac4-7cd206790b31","ios":"levelo://app?vid=cb3c3b71-c0d3-43ce-bac4-7cd206790b31"},"vehicle_type_id":"4","last_reported":1743109790,"current_range_meters":5600,"station_id":"ce4bh092rcd13ifvqd30","pricing_plan_id":"cebpf4jnsgd1na2vs0mg"},{"bike_id":"02c6eb9d-77f4-4aaa-ab87-c9b01fd69c1e","system_id":"levelo_inurba_marseille","lat":43.24064,"lon":5.37766,"is_reserved":false,"is_disabled":false,"rental_uris":{"android":"levelo://app?vid=02c6eb9d-77f4-4aaa-ab87-c9b01fd69c1e","ios":"levelo://app?vid=02c6eb9d-77f4-4aaa-ab87-c9b01fd69c1e"},"vehicle_type_id":"4","last_reported":1743109790,"current_range_meters":5600,"station_id":"ce4bhnp2rcd13ifvqgvg","pricing_plan_id":"cebpf4jnsgd1na2vs0mg"},{"bike_id":"5ab2cefc-01cd-4e8a-a56b-91c71a521b8c","system_id":"levelo_inurba_marseille","lat":43.28539,"lon":5.39496,"is_reserved":false,"is_disabled":false,"rental_uris":{"android":"levelo://app?vid=5ab2cefc-01cd-4e8a-a56b-91c71a521b8c","ios":"levelo://app?vid=5ab2cefc-01cd-4e8a-a56b-91c71a521b8c"},"vehicle_type_id":"4","last_reported":1743109790,"current_range_meters":5600,"station_id":"ce4bh292rcd13ifvqdg0","pricing_plan_id":"cebpf4jnsgd1na2vs0mg"},{"bike_id":"13e3a225-c5cf-450d-87e4-55e6cfbcc513","system_id":"levelo_inurba_marseille","lat":43.30262,"lon":5.40067,"is_reserved":false,"is_disabled":false,"rental_uris":{"android":"levelo://app?vid=13e3a225-c5cf-450d-87e4-55e6cfbcc513","ios":"levelo://app?vid=13e3a225-c5cf-450d-87e4-55e6cfbcc513"},"vehicle_type_id":"4","last_reported":1743109790,"current_range_meters":6000,"station_id":"ce4bgvh2rcd13ifvqcs0","pricing_plan_id":"cebpf4jnsgd1na2vs0mg"},{"bike_id":"6165ca97-d152-4535-bb35-dd51f65c8b56","system_id":"levelo_inurba_marseille","lat":43.27818,"lon":5.4071,"is_reserved":false,"is_disabled":false,"rental_uris":{"android":"levelo://app?vid=6165ca97-d152-4535-bb35-dd51f65c8b56","ios":"levelo://app?vid=6165ca97-d152-4535-bb35-dd51f65c8b56"},"vehicle_type_id":"4","last_reported":1743109790,"current_range_meters":6000,"station_id":"ce4bhnh2rcd13ifvqgtg","pricing_plan_id":"cebpf4jnsgd1na2vs0mg"},{"bike_id":"b1460c37-5113-4590-ba10-37a9f134bed3","system_id":"levelo_inurba_marseille","lat":43.30924,"lon":5.40144,"is_reserved":false,"is_disabled":false,"rental_uris":{"android":"levelo://app?vid=b1460c37-5113-4590-ba10-37a9f134bed3","ios":"levelo://app?vid=b1460c37-5113-4590-ba10-37a9f134bed3"},"vehicle_type_id":"4","last_reported":1743109790,"current_range_meters":6000,"station_id":"ce4bgvp2rcd13ifvqct0","pricing_plan_id":"cebpf4jnsgd1na2vs0mg"},{"bike_id":"d92a1306-4449-40f1-af77-df561928301d","system_id":"levelo_inurba_marseille","lat":43.294165,"lon":5.386225,"is_reserved":false,"is_disabled":false,"rental_uris":{"android":"levelo://app?vid=d92a1306-4449-40f1-af77-df561928301d","ios":"levelo://app?vid=d92a1306-4449-40f1-af77-df561928301d"},"vehicle_type_id":"4","last_reported":1743109790,"current_range_meters":6000,"station_id":"ce4bgt12rcd13ifvqcd0","pricing_plan_id":"cebpf4jnsgd1na2vs0mg"},{"bike_id":"9909698b-2726-42ef-a75a-24e460d5e183","system_id":"levelo_inurba_marseille","lat":43.24539,"lon":5.39504,"is_reserved":false,"is_disabled":false,"rental_uris":{"android":"levelo://app?vid=9909698b-2726-42ef-a75a-24e460d5e183","ios":"levelo://app?vid=9909698b-2726-42ef-a75a-24e460d5e183"},"vehicle_type_id":"4","last_reported":1743109790,"current_range_meters":6000,"station_id":"ce4bhlp2rcd13ifvqgjg","pricing_plan_id":"cebpf4jnsgd1na2vs0mg"},{"bike_id":"faf246f5-f054-4422-a22c-553159494777","system_id":"levelo_inurba_marseille","lat":43.29807,"lon":5.42095,"is_reserved":false,"is_disabled":false,"rental_uris":{"android":"levelo://app?vid=faf246f5-f054-4422-a22c-553159494777","ios":"levelo://app?vid=faf246f5-f054-4422-a22c-553159494777"},"vehicle_type_id":"4","last_reported":1743109790,"current_range_meters":6000,"station_id":"","pricing_plan_id":"cebpf4jnsgd1na2vs0mg"},{"bike_id":"9b0db4f1-c6a1-4ca7-86c5-ec1daffe0ea2","system_id":"levelo_inurba_marseille","lat":43.25087,"lon":5.39517,"is_reserved":false,"is_disabled":false,"rental_uris":{"android":"levelo://app?vid=9b0db4f1-c6a1-4ca7-86c5-ec1daffe0ea2","ios":"levelo://app?vid=9b0db4f1-c6a1-4ca7-86c5-ec1daffe0ea2"},"vehicle_type_id":"4","last_reported":1743109790,"current_range_meters":6000,"station_id":"ce4bhm12rcd13ifvqgkg","pricing_plan_id":"cebpf4jnsgd1na2vs0mg"},{"bike_id":"c2dae6e4-9191-46dc-a812-8a61b7d9a862","system_id":"levelo_inurba_marseille","lat":43.30428,"lon":5.39735,"is_reserved":false,"is_disabled":false,"rental_uris":{"android":"levelo://app?vid=c2dae6e4-9191-46dc-a812-8a61b7d9a862","ios":"levelo://app?vid=c2dae6e4-9191-46dc-a812-8a61b7d9a862"},"vehicle_type_id":"4","last_reported":1743109790,"current_range_meters":6000,"station_id":"ce4bh092rcd13ifvqd20","pricing_plan_id":"cebpf4jnsgd1na2vs0mg"},{"bike_id":"745db27b-7d09-42e9-857e-1a3c13cd5302","system_id":"levelo_inurba_marseille","lat":43.23183,"lon":5.35556,"is_reserved":false,"is_disabled":false,"rental_uris":{"android":"levelo://app?vid=745db27b-7d09-42e9-857e-1a3c13cd5302","ios":"levelo://app?vid=745db27b-7d09-42e9-857e-1a3c13cd5302"},"vehicle_type_id":"4","last_reported":1743109790,"current_range_meters":6400,"station_id":"ce4bhu92rcd13ifvqi70","pricing_plan_id":"cebpf4jnsgd1na2vs0mg"},{"bike_id":"f33e1e7b-5268-41e1-9eb7-35705f992880","system_id":"levelo_inurba_marseille","lat":43.31756,"lon":5.37431,"is_reserved":false,"is_disabled":false,"rental_uris":{"android":"levelo://app?vid=f33e1e7b-5268-41e1-9eb7-35705f992880","ios":"levelo://app?vid=f33e1e7b-5268-41e1-9eb7-35705f992880"},"vehicle_type_id":"4","last_reported":1743109790,"current_range_meters":6400,"station_id":"","pricing_plan_id":"cebpf4jnsgd1na2vs0mg"},{"bike_id":"e8230e4e-d9a7-46c2-83b0-eec450bbd0c3","system_id":"levelo_inurba_marseille","lat":43.28713,"lon":5.36076,"is_reserved":false,"is_disabled":false,"rental_uris":{"android":"levelo://app?vid=e8230e4e-d9a7-46c2-83b0-eec450bbd0c3","ios":"levelo://app?vid=e8230e4e-d9a7-46c2-83b0-eec450bbd0c3"},"vehicle_type_id":"4","last_reported":1743109790,"current_range_meters":6400,"station_id":"cki0cbj6b192h4jlfktg","pricing_plan_id":"cebpf4jnsgd1na2vs0mg"},{"bike_id":"84a7a785-5392-42bc-8088-fb903bcc7f5c","system_id":"levelo_inurba_marseille","lat":43.23072,"lon":5.35485,"is_reserved":false,"is_disabled":false,"rental_uris":{"android":"levelo://app?vid=84a7a785-5392-42bc-8088-fb903bcc7f5c","ios":"levelo://app?vid=84a7a785-5392-42bc-8088-fb903bcc7f5c"},"vehicle_type_id":"4","last_reported":1743109790,"current_range_meters":6400,"station_id":"cpo3342slgdg3j2ifvpg","pricing_plan_id":"cebpf4jnsgd1na2vs0mg"},{"bike_id":"795063b1-bbcb-4106-a9e7-6aa8fb383fb3","system_id":"levelo_inurba_marseille","lat":43.281575,"lon":5.426415,"is_reserved":false,"is_disabled":false,"rental_uris":{"android":"levelo://app?vid=795063b1-bbcb-4106-a9e7-6aa8fb383fb3","ios":"levelo://app?vid=795063b1-bbcb-4106-a9e7-6aa8fb383fb3"},"vehicle_type_id":"4","last_reported":1743109790,"current_range_meters":6400,"station_id":"ce4bhnh2rcd13ifvqgug","pricing_plan_id":"cebpf4jnsgd1na2vs0mg"},{"bike_id":"25319f31-6ef5-46a0-9322-f807f9031800","system_id":"levelo_inurba_marseille","lat":43.24144,"lon":5.3639,"is_reserved":false,"is_disabled":false,"rental_uris":{"android":"levelo://app?vid=25319f31-6ef5-46a0-9322-f807f9031800","ios":"levelo://app?vid=25319f31-6ef5-46a0-9322-f807f9031800"},"vehicle_type_id":"4","last_reported":1743109790,"current_range_meters":6400,"station_id":"cpo36qri1sfpv3e86is0","pricing_plan_id":"cebpf4jnsgd1na2vs0mg"},{"bike_id":"85d0fa0c-b5b9-41cd-ba43-951901672dab","system_id":"levelo_inurba_marseille","lat":43.255988,"lon":5.389844,"is_reserved":false,"is_disabled":false,"rental_uris":{"android":"levelo://app?vid=85d0fa0c-b5b9-41cd-ba43-951901672dab","ios":"levelo://app?vid=85d0fa0c-b5b9-41cd-ba43-951901672dab"},"vehicle_type_id":"4","last_reported":1743109790,"current_range_meters":6400,"station_id":"","pricing_plan_id":"cebpf4jnsgd1na2vs0mg"},{"bike_id":"dc8ccdc9-a018-4504-b0a9-676297905591","system_id":"levelo_inurba_marseille","lat":43.2931,"lon":5.36986,"is_reserved":false,"is_disabled":false,"rental_uris":{"android":"levelo://app?vid=dc8ccdc9-a018-4504-b0a9-676297905591","ios":"levelo://app?vid=dc8ccdc9-a018-4504-b0a9-676297905591"},"vehicle_type_id":"4","last_reported":1743109790,"current_range_meters":6400,"station_id":"","pricing_plan_id":"cebpf4jnsgd1na2vs0mg"},{"bike_id":"c752cc87-456e-4134-9a44-62eff5dadbd0","system_id":"levelo_inurba_marseille","lat":43.27816,"lon":5.40685,"is_reserved":false,"is_disabled":false,"rental_uris":{"android":"levelo://app?vid=c752cc87-456e-4134-9a44-62eff5dadbd0","ios":"levelo://app?vid=c752cc87-456e-4134-9a44-62eff5dadbd0"},"vehicle_type_id":"4","last_reported":1743109790,"current_range_meters":6800,"station_id":"ce4bhnh2rcd13ifvqgtg","pricing_plan_id":"cebpf4jnsgd1na2vs0mg"},{"bike_id":"6bdf5ac3-29bc-497b-96d9-2e2044859584","system_id":"levelo_inurba_marseille","lat":43.299724,"lon":5.384862,"is_reserved":false,"is_disabled":false,"rental_uris":{"android":"levelo://app?vid=6bdf5ac3-29bc-497b-96d9-2e2044859584","ios":"levelo://app?vid=6bdf5ac3-29bc-497b-96d9-2e2044859584"},"vehicle_type_id":"4","last_reported":1743109790,"current_range_meters":6400,"station_id":"ce4bgt12rcd13ifvqcd0","pricing_plan_id":"cebpf4jnsgd1na2vs0mg"},{"bike_id":"a2cca4d0-900f-4d24-81a4-a34f6c38f996","system_id":"levelo_inurba_marseille","lat":43.26948,"lon":5.40223,"is_reserved":false,"is_disabled":false,"rental_uris":{"android":"levelo://app?vid=a2cca4d0-900f-4d24-81a4-a34f6c38f996","ios":"levelo://app?vid=a2cca4d0-900f-4d24-81a4-a34f6c38f996"},"vehicle_type_id":"4","last_reported":1743109790,"current_range_meters":6800,"station_id":"cjm6bp8fraef2m0cb0m0","pricing_plan_id":"cebpf4jnsgd1na2vs0mg"},{"bike_id":"711d8bfb-b26d-4e99-9181-d5a5b39b593b","system_id":"levelo_inurba_marseille","lat":43.29637,"lon":5.40599,"is_reserved":false,"is_disabled":false,"rental_uris":{"android":"levelo://app?vid=711d8bfb-b26d-4e99-9181-d5a5b39b593b","ios":"levelo://app?vid=711d8bfb-b26d-4e99-9181-d5a5b39b593b"},"vehicle_type_id":"4","last_reported":1743109790,"current_range_meters":6800,"station_id":"ce4bh0h2rcd13ifvqd60","pricing_plan_id":"cebpf4jnsgd1na2vs0mg"},{"bike_id":"a3e5ae41-f255-4c98-b4c1-85ef0deded53","system_id":"levelo_inurba_marseille","lat":43.28398,"lon":5.37527,"is_reserved":false,"is_disabled":false,"rental_uris":{"android":"levelo://app?vid=a3e5ae41-f255-4c98-b4c1-85ef0deded53","ios":"levelo://app?vid=a3e5ae41-f255-4c98-b4c1-85ef0deded53"},"vehicle_type_id":"4","last_reported":1743109790,"current_range_meters":6800,"station_id":"ce4bh412rcd13ifvqds0","pricing_plan_id":"cebpf4jnsgd1na2vs0mg"},{"bike_id":"0586a29a-e70c-4fce-9479-b2eea1df506b","system_id":"levelo_inurba_marseille","lat":43.29553,"lon":5.3854,"is_reserved":false,"is_disabled":false,"rental_uris":{"android":"levelo://app?vid=0586a29a-e70c-4fce-9479-b2eea1df506b","ios":"levelo://app?vid=0586a29a-e70c-4fce-9479-b2eea1df506b"},"vehicle_type_id":"4","last_reported":1743109790,"current_range_meters":6800,"station_id":"ce4bgih2rcd13ifvqba0","pricing_plan_id":"cebpf4jnsgd1na2vs0mg"},{"bike_id":"cd6683f8-bc17-4817-8da3-5a099b5c207d","system_id":"levelo_inurba_marseille","lat":43.2953,"lon":5.38545,"is_reserved":false,"is_disabled":false,"rental_uris":{"android":"levelo://app?vid=cd6683f8-bc17-4817-8da3-5a099b5c207d","ios":"levelo://app?vid=cd6683f8-bc17-4817-8da3-5a099b5c207d"},"vehicle_type_id":"4","last_reported":1743109790,"current_range_meters":6800,"station_id":"ce4bgih2rcd13ifvqba0","pricing_plan_id":"cebpf4jnsgd1na2vs0mg"},{"bike_id":"8fe76d8b-1e79-45a6-962f-bc37347ac03e","system_id":"levelo_inurba_marseille","lat":43.31073,"lon":5.38356,"is_reserved":false,"is_disabled":false,"rental_uris":{"android":"levelo://app?vid=8fe76d8b-1e79-45a6-962f-bc37347ac03e","ios":"levelo://app?vid=8fe76d8b-1e79-45a6-962f-bc37347ac03e"},"vehicle_type_id":"4","last_reported":1743109790,"current_range_meters":6800,"station_id":"ce4bgv92rcd13ifvqcr0","pricing_plan_id":"cebpf4jnsgd1na2vs0mg"},{"bike_id":"c1edd7e1-a427-4f1f-924f-f2e706f20dc0","system_id":"levelo_inurba_marseille","lat":43.28653,"lon":5.36357,"is_reserved":false,"is_disabled":false,"rental_uris":{"android":"levelo://app?vid=c1edd7e1-a427-4f1f-924f-f2e706f20dc0","ios":"levelo://app?vid=c1edd7e1-a427-4f1f-924f-f2e706f20dc0"},"vehicle_type_id":"4","last_reported":1743109790,"current_range_meters":6800,"station_id":"ce4bhah2rcd13ifvqej0","pricing_plan_id":"cebpf4jnsgd1na2vs0mg"},{"bike_id":"1c74d56f-7cac-40af-a3b3-70b38753b16e","system_id":"levelo_inurba_marseille","lat":43.29434,"lon":5.38618,"is_reserved":false,"is_disabled":false,"rental_uris":{"android":"levelo://app?vid=1c74d56f-7cac-40af-a3b3-70b38753b16e","ios":"levelo://app?vid=1c74d56f-7cac-40af-a3b3-70b38753b16e"},"vehicle_type_id":"4","last_reported":1743109790,"current_range_meters":7200,"station_id":"ce4bh2h2rcd13ifvqdh0","pricing_plan_id":"cebpf4jnsgd1na2vs0mg"},{"bike_id":"af51287e-63c1-467e-8ff0-322acdd9abdf","system_id":"levelo_inurba_marseille","lat":43.28612,"lon":5.351,"is_reserved":false,"is_disabled":false,"rental_uris":{"android":"levelo://app?vid=af51287e-63c1-467e-8ff0-322acdd9abdf","ios":"levelo://app?vid=af51287e-63c1-467e-8ff0-322acdd9abdf"},"vehicle_type_id":"4","last_reported":1743109790,"current_range_meters":7200,"station_id":"ce4bhch2rcd13ifvqeug","pricing_plan_id":"cebpf4jnsgd1na2vs0mg"},{"bike_id":"96dbcdde-5b75-4445-ae47-71a3e08b8a4f","system_id":"levelo_inurba_marseille","lat":43.29245,"lon":5.3763,"is_reserved":false,"is_disabled":false,"rental_uris":{"android":"levelo://app?vid=96dbcdde-5b75-4445-ae47-71a3e08b8a4f","ios":"levelo://app?vid=96dbcdde-5b75-4445-ae47-71a3e08b8a4f"},"vehicle_type_id":"4","last_reported":1743109790,"current_range_meters":7200,"station_id":"ce4bgi12rcd13ifvqb80","pricing_plan_id":"cebpf4jnsgd1na2vs0mg"},{"bike_id":"72407b9c-71b7-4feb-83e9-97e5f2a36163","system_id":"levelo_inurba_marseille","lat":43.241672,"lon":5.363926,"is_reserved":false,"is_disabled":false,"rental_uris":{"android":"levelo://app?vid=72407b9c-71b7-4feb-83e9-97e5f2a36163","ios":"levelo://app?vid=72407b9c-71b7-4feb-83e9-97e5f2a36163"},"vehicle_type_id":"4","last_reported":1743109790,"current_range_meters":7200,"station_id":"cpo36qri1sfpv3e86is0","pricing_plan_id":"cebpf4jnsgd1na2vs0mg"},{"bike_id":"5c2d95c1-56dd-4fed-9deb-02a72e1ed2ce","system_id":"levelo_inurba_marseille","lat":43.308004,"lon":5.381586,"is_reserved":false,"is_disabled":false,"rental_uris":{"android":"levelo://app?vid=5c2d95c1-56dd-4fed-9deb-02a72e1ed2ce","ios":"levelo://app?vid=5c2d95c1-56dd-4fed-9deb-02a72e1ed2ce"},"vehicle_type_id":"4","last_reported":1743109790,"current_range_meters":7200,"station_id":"ce4bh9p2rcd13ifvqec0","pricing_plan_id":"cebpf4jnsgd1na2vs0mg"},{"bike_id":"cbf7177e-6e28-4340-bbb6-69b4f76d24c6","system_id":"levelo_inurba_marseille","lat":43.30323,"lon":5.40435,"is_reserved":false,"is_disabled":false,"rental_uris":{"android":"levelo://app?vid=cbf7177e-6e28-4340-bbb6-69b4f76d24c6","ios":"levelo://app?vid=cbf7177e-6e28-4340-bbb6-69b4f76d24c6"},"vehicle_type_id":"4","last_reported":1743109790,"current_range_meters":7200,"station_id":"ce4bh012rcd13ifvqd10","pricing_plan_id":"cebpf4jnsgd1na2vs0mg"},{"bike_id":"b08d8774-fc32-4692-88ed-bd444177614b","system_id":"levelo_inurba_marseille","lat":43.31275,"lon":5.40165,"is_reserved":false,"is_disabled":false,"rental_uris":{"android":"levelo://app?vid=b08d8774-fc32-4692-88ed-bd444177614b","ios":"levelo://app?vid=b08d8774-fc32-4692-88ed-bd444177614b"},"vehicle_type_id":"4","last_reported":1743109790,"current_range_meters":7200,"station_id":"ce4bh092rcd13ifvqd30","pricing_plan_id":"cebpf4jnsgd1na2vs0mg"},{"bike_id":"803855f7-cdd0-4004-b6d7-bda89652ae3b","system_id":"levelo_inurba_marseille","lat":43.31692,"lon":5.40453,"is_reserved":false,"is_disabled":false,"rental_uris":{"android":"levelo://app?vid=803855f7-cdd0-4004-b6d7-bda89652ae3b","ios":"levelo://app?vid=803855f7-cdd0-4004-b6d7-bda89652ae3b"},"vehicle_type_id":"4","last_reported":1743109790,"current_range_meters":7200,"station_id":"ce4bh012rcd13ifvqd00","pricing_plan_id":"cebpf4jnsgd1na2vs0mg"},{"bike_id":"3a5e18ad-6a23-4442-9c34-19c7bd17a17e","system_id":"levelo_inurba_marseille","lat":43.2292,"lon":5.35373,"is_reserved":false,"is_disabled":false,"rental_uris":{"android":"levelo://app?vid=3a5e18ad-6a23-4442-9c34-19c7bd17a17e","ios":"levelo://app?vid=3a5e18ad-6a23-4442-9c34-19c7bd17a17e"},"vehicle_type_id":"4","last_reported":1743109790,"current_range_meters":7200,"station_id":"cpo3532slgdg3j2ikp40","pricing_plan_id":"cebpf4jnsgd1na2vs0mg"},{"bike_id":"22f106dc-ea9d-40d1-99f0-8912a11fadcb","system_id":"levelo_inurba_marseille","lat":43.28081,"lon":5.37854,"is_reserved":false,"is_disabled":false,"rental_uris":{"android":"levelo://app?vid=22f106dc-ea9d-40d1-99f0-8912a11fadcb","ios":"levelo://app?vid=22f106dc-ea9d-40d1-99f0-8912a11fadcb"},"vehicle_type_id":"4","last_reported":1743109790,"current_range_meters":7200,"station_id":"ce4bha12rcd13ifvqee0","pricing_plan_id":"cebpf4jnsgd1na2vs0mg"},{"bike_id":"b7162571-afe3-448a-a47b-c381b69d1172","system_id":"levelo_inurba_marseille","lat":43.29427,"lon":5.38609,"is_reserved":false,"is_disabled":false,"rental_uris":{"android":"levelo://app?vid=b7162571-afe3-448a-a47b-c381b69d1172","ios":"levelo://app?vid=b7162571-afe3-448a-a47b-c381b69d1172"},"vehicle_type_id":"4","last_reported":1743109790,"current_range_meters":7200,"station_id":"ce4bh2h2rcd13ifvqdh0","pricing_plan_id":"cebpf4jnsgd1na2vs0mg"},{"bike_id":"3d954b51-869c-40d8-a384-e8741fd300a0","system_id":"levelo_inurba_marseille","lat":43.28403,"lon":5.37545,"is_reserved":false,"is_disabled":false,"rental_uris":{"android":"levelo://app?vid=3d954b51-869c-40d8-a384-e8741fd300a0","ios":"levelo://app?vid=3d954b51-869c-40d8-a384-e8741fd300a0"},"vehicle_type_id":"4","last_reported":1743109790,"current_range_meters":7200,"station_id":"ce4bh412rcd13ifvqds0","pricing_plan_id":"cebpf4jnsgd1na2vs0mg"},{"bike_id":"0e173472-5a4b-4021-b0c5-dd55f1f57390","system_id":"levelo_inurba_marseille","lat":43.25088,"lon":5.39516,"is_reserved":false,"is_disabled":false,"rental_uris":{"android":"levelo://app?vid=0e173472-5a4b-4021-b0c5-dd55f1f57390","ios":"levelo://app?vid=0e173472-5a4b-4021-b0c5-dd55f1f57390"},"vehicle_type_id":"4","last_reported":1743109790,"current_range_meters":7200,"station_id":"ce4bhm12rcd13ifvqgkg","pricing_plan_id":"cebpf4jnsgd1na2vs0mg"},{"bike_id":"7909fddf-cb14-45c3-8c06-c79cce207a3a","system_id":"levelo_inurba_marseille","lat":43.25678,"lon":5.39734,"is_reserved":false,"is_disabled":false,"rental_uris":{"android":"levelo://app?vid=7909fddf-cb14-45c3-8c06-c79cce207a3a","ios":"levelo://app?vid=7909fddf-cb14-45c3-8c06-c79cce207a3a"},"vehicle_type_id":"4","last_reported":1743109790,"current_range_meters":7200,"station_id":"","pricing_plan_id":"cebpf4jnsgd1na2vs0mg"},{"bike_id":"8e94b569-654f-4f5a-b5fb-f5116a3e5743","system_id":"levelo_inurba_marseille","lat":43.29225,"lon":5.39314,"is_reserved":false,"is_disabled":false,"rental_uris":{"android":"levelo://app?vid=8e94b569-654f-4f5a-b5fb-f5116a3e5743","ios":"levelo://app?vid=8e94b569-654f-4f5a-b5fb-f5116a3e5743"},"vehicle_type_id":"4","last_reported":1743109790,"current_range_meters":7200,"station_id":"ce4bh192rcd13ifvqdd0","pricing_plan_id":"cebpf4jnsgd1na2vs0mg"},{"bike_id":"ecdc5b5a-0452-4ddb-b6a2-6b8257b1cd7e","system_id":"levelo_inurba_marseille","lat":43.29237,"lon":5.38441,"is_reserved":false,"is_disabled":false,"rental_uris":{"android":"levelo://app?vid=ecdc5b5a-0452-4ddb-b6a2-6b8257b1cd7e","ios":"levelo://app?vid=ecdc5b5a-0452-4ddb-b6a2-6b8257b1cd7e"},"vehicle_type_id":"4","last_reported":1743109790,"current_range_meters":7200,"station_id":"ce4bh692rcd13ifvqea0","pricing_plan_id":"cebpf4jnsgd1na2vs0mg"},{"bike_id":"d99cf075-cd0e-41fc-9886-449f2a77ad8a","system_id":"levelo_inurba_marseille","lat":43.3063,"lon":5.40087,"is_reserved":false,"is_disabled":false,"rental_uris":{"android":"levelo://app?vid=d99cf075-cd0e-41fc-9886-449f2a77ad8a","ios":"levelo://app?vid=d99cf075-cd0e-41fc-9886-449f2a77ad8a"},"vehicle_type_id":"4","last_reported":1743109790,"current_range_meters":7200,"station_id":"ce4bh112rcd13ifvqda0","pricing_plan_id":"cebpf4jnsgd1na2vs0mg"},{"bike_id":"40046afd-c6aa-43ea-88bd-183a4d2ec61c","system_id":"levelo_inurba_marseille","lat":43.31632,"lon":5.41659,"is_reserved":false,"is_disabled":false,"rental_uris":{"android":"levelo://app?vid=40046afd-c6aa-43ea-88bd-183a4d2ec61c","ios":"levelo://app?vid=40046afd-c6aa-43ea-88bd-183a4d2ec61c"},"vehicle_type_id":"4","last_reported":1743109790,"current_range_meters":8000,"station_id":"","pricing_plan_id":"cebpf4jnsgd1na2vs0mg"},{"bike_id":"4ea2dc4a-53b8-4d21-b056-faf850ab7b24","system_id":"levelo_inurba_marseille","lat":43.29556,"lon":5.4227,"is_reserved":false,"is_disabled":false,"rental_uris":{"android":"levelo://app?vid=4ea2dc4a-53b8-4d21-b056-faf850ab7b24","ios":"levelo://app?vid=4ea2dc4a-53b8-4d21-b056-faf850ab7b24"},"vehicle_type_id":"4","last_reported":1743109790,"current_range_meters":8000,"station_id":"ce4bhph2rcd13ifvqhdg","pricing_plan_id":"cebpf4jnsgd1na2vs0mg"},{"bike_id":"e53a1eb8-e926-4f74-b3ac-c2f1945803ef","system_id":"levelo_inurba_marseille","lat":43.28065,"lon":5.39642,"is_reserved":false,"is_disabled":true,"rental_uris":{"android":"levelo://app?vid=e53a1eb8-e926-4f74-b3ac-c2f1945803ef","ios":"levelo://app?vid=e53a1eb8-e926-4f74-b3ac-c2f1945803ef"},"vehicle_type_id":"4","last_reported":1743109790,"current_range_meters":8000,"station_id":"ce4bho12rcd13ifvqh2g","pricing_plan_id":"cebpf4jnsgd1na2vs0mg"},{"bike_id":"e482e61e-24f2-4077-85d6-249eff042d67","system_id":"levelo_inurba_marseille","lat":43.302993,"lon":5.392219,"is_reserved":false,"is_disabled":false,"rental_uris":{"android":"levelo://app?vid=e482e61e-24f2-4077-85d6-249eff042d67","ios":"levelo://app?vid=e482e61e-24f2-4077-85d6-249eff042d67"},"vehicle_type_id":"4","last_reported":1743109790,"current_range_meters":8000,"station_id":"ce4bgkh2rcd13ifvqbk0","pricing_plan_id":"cebpf4jnsgd1na2vs0mg"},{"bike_id":"ca3a4261-2339-4856-8c62-e4bf9c5ce439","system_id":"levelo_inurba_marseille","lat":43.29425,"lon":5.38618,"is_reserved":false,"is_disabled":false,"rental_uris":{"android":"levelo://app?vid=ca3a4261-2339-4856-8c62-e4bf9c5ce439","ios":"levelo://app?vid=ca3a4261-2339-4856-8c62-e4bf9c5ce439"},"vehicle_type_id":"4","last_reported":1743109790,"current_range_meters":8000,"station_id":"ce4bh2h2rcd13ifvqdh0","pricing_plan_id":"cebpf4jnsgd1na2vs0mg"},{"bike_id":"bd0bd85a-4563-4f05-90ee-f6e2c30913d1","system_id":"levelo_inurba_marseille","lat":43.3169,"lon":5.40462,"is_reserved":false,"is_disabled":false,"rental_uris":{"android":"levelo://app?vid=bd0bd85a-4563-4f05-90ee-f6e2c30913d1","ios":"levelo://app?vid=bd0bd85a-4563-4f05-90ee-f6e2c30913d1"},"vehicle_type_id":"4","last_reported":1743109790,"current_range_meters":8000,"station_id":"ce4bh012rcd13ifvqd00","pricing_plan_id":"cebpf4jnsgd1na2vs0mg"},{"bike_id":"db7517ea-6bf9-4543-8348-e6fd273ae6ae","system_id":"levelo_inurba_marseille","lat":43.29413,"lon":5.38623,"is_reserved":false,"is_disabled":false,"rental_uris":{"android":"levelo://app?vid=db7517ea-6bf9-4543-8348-e6fd273ae6ae","ios":"levelo://app?vid=db7517ea-6bf9-4543-8348-e6fd273ae6ae"},"vehicle_type_id":"4","last_reported":1743109790,"current_range_meters":8000,"station_id":"ce4bh2h2rcd13ifvqdh0","pricing_plan_id":"cebpf4jnsgd1na2vs0mg"},{"bike_id":"0e616dce-e7b2-4d8b-b178-30158310b868","system_id":"levelo_inurba_marseille","lat":43.302854,"lon":5.377097,"is_reserved":false,"is_disabled":false,"rental_uris":{"android":"levelo://app?vid=0e616dce-e7b2-4d8b-b178-30158310b868","ios":"levelo://app?vid=0e616dce-e7b2-4d8b-b178-30158310b868"},"vehicle_type_id":"4","last_reported":1743109790,"current_range_meters":7200,"station_id":"ce4bguh2rcd13ifvqcj0","pricing_plan_id":"cebpf4jnsgd1na2vs0mg"},{"bike_id":"2e013db2-c4bf-4ece-9b86-255ce2c33732","system_id":"levelo_inurba_marseille","lat":43.27817,"lon":5.4071,"is_reserved":false,"is_disabled":false,"rental_uris":{"android":"levelo://app?vid=2e013db2-c4bf-4ece-9b86-255ce2c33732","ios":"levelo://app?vid=2e013db2-c4bf-4ece-9b86-255ce2c33732"},"vehicle_type_id":"4","last_reported":1743109790,"current_range_meters":8000,"station_id":"ce4bhnh2rcd13ifvqgtg","pricing_plan_id":"cebpf4jnsgd1na2vs0mg"},{"bike_id":"bb13204a-c58b-4890-838b-f280cefe0387","system_id":"levelo_inurba_marseille","lat":43.29529,"lon":5.38548,"is_reserved":false,"is_disabled":false,"rental_uris":{"android":"levelo://app?vid=bb13204a-c58b-4890-838b-f280cefe0387","ios":"levelo://app?vid=bb13204a-c58b-4890-838b-f280cefe0387"},"vehicle_type_id":"4","last_reported":1743109790,"current_range_meters":8000,"station_id":"ce4bgih2rcd13ifvqba0","pricing_plan_id":"cebpf4jnsgd1na2vs0mg"},{"bike_id":"75e4c018-55c9-40b4-8fb8-f00361cb7dbc","system_id":"levelo_inurba_marseille","lat":43.29432,"lon":5.38641,"is_reserved":false,"is_disabled":false,"rental_uris":{"android":"levelo://app?vid=75e4c018-55c9-40b4-8fb8-f00361cb7dbc","ios":"levelo://app?vid=75e4c018-55c9-40b4-8fb8-f00361cb7dbc"},"vehicle_type_id":"4","last_reported":1743109790,"current_range_meters":8000,"station_id":"ce4bh2h2rcd13ifvqdh0","pricing_plan_id":"cebpf4jnsgd1na2vs0mg"},{"bike_id":"e54b7cd4-d257-4092-abd3-0ad83d1f14cc","system_id":"levelo_inurba_marseille","lat":43.28704,"lon":5.39983,"is_reserved":false,"is_disabled":false,"rental_uris":{"android":"levelo://app?vid=e54b7cd4-d257-4092-abd3-0ad83d1f14cc","ios":"levelo://app?vid=e54b7cd4-d257-4092-abd3-0ad83d1f14cc"},"vehicle_type_id":"4","last_reported":1743109790,"current_range_meters":8000,"station_id":"ce4bho92rcd13ifvqh3g","pricing_plan_id":"cebpf4jnsgd1na2vs0mg"},{"bike_id":"c43d83bf-c90f-4a2e-9202-e322ded28106","system_id":"levelo_inurba_marseille","lat":43.29404,"lon":5.38641,"is_reserved":false,"is_disabled":false,"rental_uris":{"android":"levelo://app?vid=c43d83bf-c90f-4a2e-9202-e322ded28106","ios":"levelo://app?vid=c43d83bf-c90f-4a2e-9202-e322ded28106"},"vehicle_type_id":"4","last_reported":1743109790,"current_range_meters":8000,"station_id":"ce4bh2h2rcd13ifvqdh0","pricing_plan_id":"cebpf4jnsgd1na2vs0mg"},{"bike_id":"f9e7611d-8fd9-46c6-9369-a81a953df850","system_id":"levelo_inurba_marseille","lat":43.28857,"lon":5.39304,"is_reserved":false,"is_disabled":false,"rental_uris":{"android":"levelo://app?vid=f9e7611d-8fd9-46c6-9369-a81a953df850","ios":"levelo://app?vid=f9e7611d-8fd9-46c6-9369-a81a953df850"},"vehicle_type_id":"4","last_reported":1743109790,"current_range_meters":8000,"station_id":"ce4bh2p2rcd13ifvqdi0","pricing_plan_id":"cebpf4jnsgd1na2vs0mg"},{"bike_id":"638c8e6b-6bbe-4946-a05d-753bcac50810","system_id":"levelo_inurba_marseille","lat":43.28067,"lon":5.39649,"is_reserved":false,"is_disabled":false,"rental_uris":{"android":"levelo://app?vid=638c8e6b-6bbe-4946-a05d-753bcac50810","ios":"levelo://app?vid=638c8e6b-6bbe-4946-a05d-753bcac50810"},"vehicle_type_id":"4","last_reported":1743109790,"current_range_meters":8000,"station_id":"ce4bho12rcd13ifvqh2g","pricing_plan_id":"cebpf4jnsgd1na2vs0mg"},{"bike_id":"169d7fcf-280d-4645-acdf-db059c46d533","system_id":"levelo_inurba_marseille","lat":43.23956,"lon":5.36642,"is_reserved":false,"is_disabled":false,"rental_uris":{"android":"levelo://app?vid=169d7fcf-280d-4645-acdf-db059c46d533","ios":"levelo://app?vid=169d7fcf-280d-4645-acdf-db059c46d533"},"vehicle_type_id":"4","last_reported":1743109790,"current_range_meters":8000,"station_id":"ce4bhi12rcd13ifvqfp0","pricing_plan_id":"cebpf4jnsgd1na2vs0mg"},{"bike_id":"61aebee5-66c7-4c27-9cb3-fcca8ef32f9b","system_id":"levelo_inurba_marseille","lat":43.27064,"lon":5.42278,"is_reserved":false,"is_disabled":false,"rental_uris":{"android":"levelo://app?vid=61aebee5-66c7-4c27-9cb3-fcca8ef32f9b","ios":"levelo://app?vid=61aebee5-66c7-4c27-9cb3-fcca8ef32f9b"},"vehicle_type_id":"4","last_reported":1743109790,"current_range_meters":8400,"station_id":"ce4bhk92rcd13ifvqgb0","pricing_plan_id":"cebpf4jnsgd1na2vs0mg"},{"bike_id":"63d2930e-e38d-4996-8bdc-7e011a3ef3f1","system_id":"levelo_inurba_marseille","lat":43.28433,"lon":5.39216,"is_reserved":false,"is_disabled":false,"rental_uris":{"android":"levelo://app?vid=63d2930e-e38d-4996-8bdc-7e011a3ef3f1","ios":"levelo://app?vid=63d2930e-e38d-4996-8bdc-7e011a3ef3f1"},"vehicle_type_id":"4","last_reported":1743109790,"current_range_meters":8400,"station_id":"ce4bhoh2rcd13ifvqh5g","pricing_plan_id":"cebpf4jnsgd1na2vs0mg"},{"bike_id":"03b91bbd-e8e0-4057-8e3b-fe7234e51c4d","system_id":"levelo_inurba_marseille","lat":43.29969,"lon":5.37172,"is_reserved":false,"is_disabled":false,"rental_uris":{"android":"levelo://app?vid=03b91bbd-e8e0-4057-8e3b-fe7234e51c4d","ios":"levelo://app?vid=03b91bbd-e8e0-4057-8e3b-fe7234e51c4d"},"vehicle_type_id":"4","last_reported":1743109790,"current_range_meters":8400,"station_id":"ce4bgr92rcd13ifvqc7g","pricing_plan_id":"cebpf4jnsgd1na2vs0mg"},{"bike_id":"102b4a68-b003-44dd-a55c-3cf7a81794eb","system_id":"levelo_inurba_marseille","lat":43.28002,"lon":5.40012,"is_reserved":false,"is_disabled":false,"rental_uris":{"android":"levelo://app?vid=102b4a68-b003-44dd-a55c-3cf7a81794eb","ios":"levelo://app?vid=102b4a68-b003-44dd-a55c-3cf7a81794eb"},"vehicle_type_id":"4","last_reported":1743109790,"current_range_meters":8400,"station_id":"ce4bho92rcd13ifvqh4g","pricing_plan_id":"cebpf4jnsgd1na2vs0mg"},{"bike_id":"21a8cdb5-2a51-40c4-b046-3db7a98571f9","system_id":"levelo_inurba_marseille","lat":43.292596,"lon":5.409032,"is_reserved":false,"is_disabled":false,"rental_uris":{"android":"levelo://app?vid=21a8cdb5-2a51-40c4-b046-3db7a98571f9","ios":"levelo://app?vid=21a8cdb5-2a51-40c4-b046-3db7a98571f9"},"vehicle_type_id":"4","last_reported":1743109790,"current_range_meters":8400,"station_id":"ce4bh192rcd13ifvqdc0","pricing_plan_id":"cebpf4jnsgd1na2vs0mg"},{"bike_id":"5bfd48fa-63d4-41e7-adea-eb508148c808","system_id":"levelo_inurba_marseille","lat":43.29628,"lon":5.40597,"is_reserved":false,"is_disabled":false,"rental_uris":{"android":"levelo://app?vid=5bfd48fa-63d4-41e7-adea-eb508148c808","ios":"levelo://app?vid=5bfd48fa-63d4-41e7-adea-eb508148c808"},"vehicle_type_id":"4","last_reported":1743109790,"current_range_meters":8400,"station_id":"ce4bh0h2rcd13ifvqd60","pricing_plan_id":"cebpf4jnsgd1na2vs0mg"},{"bike_id":"4092b36b-d2dc-4cf3-986a-2b665d7b6db8","system_id":"levelo_inurba_marseille","lat":43.2606,"lon":5.39398,"is_reserved":false,"is_disabled":false,"rental_uris":{"android":"levelo://app?vid=4092b36b-d2dc-4cf3-986a-2b665d7b6db8","ios":"levelo://app?vid=4092b36b-d2dc-4cf3-986a-2b665d7b6db8"},"vehicle_type_id":"4","last_reported":1743109790,"current_range_meters":8000,"station_id":"ce4bhh92rcd13ifvqfj0","pricing_plan_id":"cebpf4jnsgd1na2vs0mg"},{"bike_id":"de523b40-8361-4fbc-92e6-b8178b0420b3","system_id":"levelo_inurba_marseille","lat":43.28614,"lon":5.35104,"is_reserved":false,"is_disabled":false,"rental_uris":{"android":"levelo://app?vid=de523b40-8361-4fbc-92e6-b8178b0420b3","ios":"levelo://app?vid=de523b40-8361-4fbc-92e6-b8178b0420b3"},"vehicle_type_id":"4","last_reported":1743109790,"current_range_meters":8400,"station_id":"ce4bhch2rcd13ifvqeug","pricing_plan_id":"cebpf4jnsgd1na2vs0mg"},{"bike_id":"42a75e08-af81-4e6e-afc7-c4d1aabfd8af","system_id":"levelo_inurba_marseille","lat":43.278315,"lon":5.392113,"is_reserved":false,"is_disabled":false,"rental_uris":{"android":"levelo://app?vid=42a75e08-af81-4e6e-afc7-c4d1aabfd8af","ios":"levelo://app?vid=42a75e08-af81-4e6e-afc7-c4d1aabfd8af"},"vehicle_type_id":"4","last_reported":1743109790,"current_range_meters":8000,"station_id":"ce4bhjp2rcd13ifvqga0","pricing_plan_id":"cebpf4jnsgd1na2vs0mg"},{"bike_id":"b692cfb6-c9c0-405d-8e0a-61268b620404","system_id":"levelo_inurba_marseille","lat":43.29251,"lon":5.38429,"is_reserved":false,"is_disabled":true,"rental_uris":{"android":"levelo://app?vid=b692cfb6-c9c0-405d-8e0a-61268b620404","ios":"levelo://app?vid=b692cfb6-c9c0-405d-8e0a-61268b620404"},"vehicle_type_id":"4","last_reported":1743109790,"current_range_meters":8400,"station_id":"ce4bh692rcd13ifvqea0","pricing_plan_id":"cebpf4jnsgd1na2vs0mg"},{"bike_id":"2f8daecb-dbe9-4ada-9421-128c5f6eeec5","system_id":"levelo_inurba_marseille","lat":43.29098,"lon":5.38141,"is_reserved":false,"is_disabled":false,"rental_uris":{"android":"levelo://app?vid=2f8daecb-dbe9-4ada-9421-128c5f6eeec5","ios":"levelo://app?vid=2f8daecb-dbe9-4ada-9421-128c5f6eeec5"},"vehicle_type_id":"4","last_reported":1743109790,"current_range_meters":8400,"station_id":"ce4bh512rcd13ifvqe2g","pricing_plan_id":"cebpf4jnsgd1na2vs0mg"},{"bike_id":"ad61fd3a-fa72-49e8-bc07-20775f672cee","system_id":"levelo_inurba_marseille","lat":43.28726,"lon":5.36083,"is_reserved":false,"is_disabled":false,"rental_uris":{"android":"levelo://app?vid=ad61fd3a-fa72-49e8-bc07-20775f672cee","ios":"levelo://app?vid=ad61fd3a-fa72-49e8-bc07-20775f672cee"},"vehicle_type_id":"4","last_reported":1743109790,"current_range_meters":8400,"station_id":"cki0cbj6b192h4jlfktg","pricing_plan_id":"cebpf4jnsgd1na2vs0mg"},{"bike_id":"c18155db-65c7-4d5a-8c5b-923eb75c675d","system_id":"levelo_inurba_marseille","lat":43.32093,"lon":5.36773,"is_reserved":false,"is_disabled":false,"rental_uris":{"android":"levelo://app?vid=c18155db-65c7-4d5a-8c5b-923eb75c675d","ios":"levelo://app?vid=c18155db-65c7-4d5a-8c5b-923eb75c675d"},"vehicle_type_id":"4","last_reported":1743109790,"current_range_meters":8400,"station_id":"ce4bhrh2rcd13ifvqhug","pricing_plan_id":"cebpf4jnsgd1na2vs0mg"},{"bike_id":"c5d17eb8-cde1-49a3-9672-ac8d8cf34632","system_id":"levelo_inurba_marseille","lat":43.3344,"lon":5.40066,"is_reserved":false,"is_disabled":false,"rental_uris":{"android":"levelo://app?vid=c5d17eb8-cde1-49a3-9672-ac8d8cf34632","ios":"levelo://app?vid=c5d17eb8-cde1-49a3-9672-ac8d8cf34632"},"vehicle_type_id":"4","last_reported":1743109790,"current_range_meters":8400,"station_id":"","pricing_plan_id":"cebpf4jnsgd1na2vs0mg"},{"bike_id":"e1defc53-a67a-4c61-bcb6-96b34a72d74f","system_id":"levelo_inurba_marseille","lat":43.29297,"lon":5.38409,"is_reserved":false,"is_disabled":false,"rental_uris":{"android":"levelo://app?vid=e1defc53-a67a-4c61-bcb6-96b34a72d74f","ios":"levelo://app?vid=e1defc53-a67a-4c61-bcb6-96b34a72d74f"},"vehicle_type_id":"4","last_reported":1743109790,"current_range_meters":8400,"station_id":"ce4bh692rcd13ifvqea0","pricing_plan_id":"cebpf4jnsgd1na2vs0mg"},{"bike_id":"a19ae3ac-8407-4e0a-8202-4352d1f6c1d7","system_id":"levelo_inurba_marseille","lat":43.30791,"lon":5.38157,"is_reserved":false,"is_disabled":false,"rental_uris":{"android":"levelo://app?vid=a19ae3ac-8407-4e0a-8202-4352d1f6c1d7","ios":"levelo://app?vid=a19ae3ac-8407-4e0a-8202-4352d1f6c1d7"},"vehicle_type_id":"4","last_reported":1743109790,"current_range_meters":8800,"station_id":"ce4bgt12rcd13ifvqce0","pricing_plan_id":"cebpf4jnsgd1na2vs0mg"},{"bike_id":"3d7fd061-d2e7-44ff-a58a-849ec347b84d","system_id":"levelo_inurba_marseille","lat":43.2857,"lon":5.39495,"is_reserved":false,"is_disabled":false,"rental_uris":{"android":"levelo://app?vid=3d7fd061-d2e7-44ff-a58a-849ec347b84d","ios":"levelo://app?vid=3d7fd061-d2e7-44ff-a58a-849ec347b84d"},"vehicle_type_id":"4","last_reported":1743109790,"current_range_meters":8800,"station_id":"ce4bh292rcd13ifvqdg0","pricing_plan_id":"cebpf4jnsgd1na2vs0mg"},{"bike_id":"f9fdb47f-9192-4b46-8970-e8b979b0a256","system_id":"levelo_inurba_marseille","lat":43.28455,"lon":5.35892,"is_reserved":false,"is_disabled":false,"rental_uris":{"android":"levelo://app?vid=f9fdb47f-9192-4b46-8970-e8b979b0a256","ios":"levelo://app?vid=f9fdb47f-9192-4b46-8970-e8b979b0a256"},"vehicle_type_id":"4","last_reported":1743109790,"current_range_meters":8800,"station_id":"ce4bhah2rcd13ifvqei0","pricing_plan_id":"cebpf4jnsgd1na2vs0mg"},{"bike_id":"370669e1-a28f-4d18-9e7c-43dfbbad498e","system_id":"levelo_inurba_marseille","lat":43.24178,"lon":5.39728,"is_reserved":false,"is_disabled":false,"rental_uris":{"android":"levelo://app?vid=370669e1-a28f-4d18-9e7c-43dfbbad498e","ios":"levelo://app?vid=370669e1-a28f-4d18-9e7c-43dfbbad498e"},"vehicle_type_id":"4","last_reported":1743109790,"current_range_meters":8800,"station_id":"ce4bhn12rcd13ifvqgpg","pricing_plan_id":"cebpf4jnsgd1na2vs0mg"},{"bike_id":"e110c135-ffaa-4ee4-bb95-b2c04dc26dca","system_id":"levelo_inurba_marseille","lat":43.30821,"lon":5.43524,"is_reserved":false,"is_disabled":false,"rental_uris":{"android":"levelo://app?vid=e110c135-ffaa-4ee4-bb95-b2c04dc26dca","ios":"levelo://app?vid=e110c135-ffaa-4ee4-bb95-b2c04dc26dca"},"vehicle_type_id":"4","last_reported":1743109790,"current_range_meters":8800,"station_id":"ce4bhph2rcd13ifvqheg","pricing_plan_id":"cebpf4jnsgd1na2vs0mg"},{"bike_id":"f64c45ff-66e5-4fb3-9ac7-98b79b3524c1","system_id":"levelo_inurba_marseille","lat":43.29456,"lon":5.38623,"is_reserved":false,"is_disabled":false,"rental_uris":{"android":"levelo://app?vid=f64c45ff-66e5-4fb3-9ac7-98b79b3524c1","ios":"levelo://app?vid=f64c45ff-66e5-4fb3-9ac7-98b79b3524c1"},"vehicle_type_id":"4","last_reported":1743109790,"current_range_meters":8800,"station_id":"ce4bh2h2rcd13ifvqdh0","pricing_plan_id":"cebpf4jnsgd1na2vs0mg"},{"bike_id":"1179efd6-1452-4404-8c1b-e322535fbf4c","system_id":"levelo_inurba_marseille","lat":43.30932,"lon":5.40146,"is_reserved":false,"is_disabled":false,"rental_uris":{"android":"levelo://app?vid=1179efd6-1452-4404-8c1b-e322535fbf4c","ios":"levelo://app?vid=1179efd6-1452-4404-8c1b-e322535fbf4c"},"vehicle_type_id":"4","last_reported":1743109790,"current_range_meters":8800,"station_id":"ce4bgvp2rcd13ifvqct0","pricing_plan_id":"cebpf4jnsgd1na2vs0mg"},{"bike_id":"efccb7ee-57f9-48e7-98a8-b578ed40ea79","system_id":"levelo_inurba_marseille","lat":43.29269,"lon":5.38419,"is_reserved":false,"is_disabled":false,"rental_uris":{"android":"levelo://app?vid=efccb7ee-57f9-48e7-98a8-b578ed40ea79","ios":"levelo://app?vid=efccb7ee-57f9-48e7-98a8-b578ed40ea79"},"vehicle_type_id":"4","last_reported":1743109790,"current_range_meters":9200,"station_id":"ce4bh692rcd13ifvqea0","pricing_plan_id":"cebpf4jnsgd1na2vs0mg"},{"bike_id":"0d914319-a8e0-4b51-b6b5-3bb33541da77","system_id":"levelo_inurba_marseille","lat":43.31267,"lon":5.4017,"is_reserved":false,"is_disabled":false,"rental_uris":{"android":"levelo://app?vid=0d914319-a8e0-4b51-b6b5-3bb33541da77","ios":"levelo://app?vid=0d914319-a8e0-4b51-b6b5-3bb33541da77"},"vehicle_type_id":"4","last_reported":1743109790,"current_range_meters":8800,"station_id":"ce4bh092rcd13ifvqd30","pricing_plan_id":"cebpf4jnsgd1na2vs0mg"},{"bike_id":"09a227f9-e81f-4ae4-8d74-65daf422601e","system_id":"levelo_inurba_marseille","lat":43.2481,"lon":5.37452,"is_reserved":false,"is_disabled":false,"rental_uris":{"android":"levelo://app?vid=09a227f9-e81f-4ae4-8d74-65daf422601e","ios":"levelo://app?vid=09a227f9-e81f-4ae4-8d74-65daf422601e"},"vehicle_type_id":"4","last_reported":1743109790,"current_range_meters":9200,"station_id":"ce4bhgh2rcd13ifvqfb0","pricing_plan_id":"cebpf4jnsgd1na2vs0mg"},{"bike_id":"80272880-a66a-42db-be54-a31de1dff4fa","system_id":"levelo_inurba_marseille","lat":43.29516,"lon":5.39406,"is_reserved":false,"is_disabled":false,"rental_uris":{"android":"levelo://app?vid=80272880-a66a-42db-be54-a31de1dff4fa","ios":"levelo://app?vid=80272880-a66a-42db-be54-a31de1dff4fa"},"vehicle_type_id":"4","last_reported":1743109790,"current_range_meters":9200,"station_id":"ce4bh292rcd13ifvqdf0","pricing_plan_id":"cebpf4jnsgd1na2vs0mg"},{"bike_id":"b0d2fa10-bef9-4ca8-9b96-36a49fb90867","system_id":"levelo_inurba_marseille","lat":43.2942,"lon":5.38635,"is_reserved":false,"is_disabled":false,"rental_uris":{"android":"levelo://app?vid=b0d2fa10-bef9-4ca8-9b96-36a49fb90867","ios":"levelo://app?vid=b0d2fa10-bef9-4ca8-9b96-36a49fb90867"},"vehicle_type_id":"4","last_reported":1743109790,"current_range_meters":9200,"station_id":"ce4bh2h2rcd13ifvqdh0","pricing_plan_id":"cebpf4jnsgd1na2vs0mg"},{"bike_id":"4491940b-42b0-4a9c-8674-22873c0b4bb2","system_id":"levelo_inurba_marseille","lat":43.29772,"lon":5.37116,"is_reserved":false,"is_disabled":false,"rental_uris":{"android":"levelo://app?vid=4491940b-42b0-4a9c-8674-22873c0b4bb2","ios":"levelo://app?vid=4491940b-42b0-4a9c-8674-22873c0b4bb2"},"vehicle_type_id":"4","last_reported":1743109790,"current_range_meters":8800,"station_id":"ce4bgop2rcd13ifvqc1g","pricing_plan_id":"cebpf4jnsgd1na2vs0mg"},{"bike_id":"1d206328-8d8b-4421-b718-d354e5cc70d2","system_id":"levelo_inurba_marseille","lat":43.316885,"lon":5.404685,"is_reserved":false,"is_disabled":false,"rental_uris":{"android":"levelo://app?vid=1d206328-8d8b-4421-b718-d354e5cc70d2","ios":"levelo://app?vid=1d206328-8d8b-4421-b718-d354e5cc70d2"},"vehicle_type_id":"4","last_reported":1743109790,"current_range_meters":9200,"station_id":"ce4bh012rcd13ifvqd00","pricing_plan_id":"cebpf4jnsgd1na2vs0mg"},{"bike_id":"2079e143-15fb-4fca-b428-1dcdbd2da2aa","system_id":"levelo_inurba_marseille","lat":43.27794,"lon":5.40753,"is_reserved":false,"is_disabled":false,"rental_uris":{"android":"levelo://app?vid=2079e143-15fb-4fca-b428-1dcdbd2da2aa","ios":"levelo://app?vid=2079e143-15fb-4fca-b428-1dcdbd2da2aa"},"vehicle_type_id":"4","last_reported":1743109790,"current_range_meters":9200,"station_id":"ce4bhnh2rcd13ifvqgtg","pricing_plan_id":"cebpf4jnsgd1na2vs0mg"},{"bike_id":"5b336e82-4d1c-4a8a-bee5-0e8867207216","system_id":"levelo_inurba_marseille","lat":43.30654,"lon":5.40103,"is_reserved":false,"is_disabled":false,"rental_uris":{"android":"levelo://app?vid=5b336e82-4d1c-4a8a-bee5-0e8867207216","ios":"levelo://app?vid=5b336e82-4d1c-4a8a-bee5-0e8867207216"},"vehicle_type_id":"4","last_reported":1743109790,"current_range_meters":9200,"station_id":"ce4bh112rcd13ifvqda0","pricing_plan_id":"cebpf4jnsgd1na2vs0mg"},{"bike_id":"30cd612a-8cb0-4fab-9e3a-cd08e9fc22b5","system_id":"levelo_inurba_marseille","lat":43.29526,"lon":5.39388,"is_reserved":false,"is_disabled":true,"rental_uris":{"android":"levelo://app?vid=30cd612a-8cb0-4fab-9e3a-cd08e9fc22b5","ios":"levelo://app?vid=30cd612a-8cb0-4fab-9e3a-cd08e9fc22b5"},"vehicle_type_id":"4","last_reported":1743109790,"current_range_meters":9200,"station_id":"ce4bh292rcd13ifvqdf0","pricing_plan_id":"cebpf4jnsgd1na2vs0mg"},{"bike_id":"90d97d7f-5afe-4601-98be-83b03668e3da","system_id":"levelo_inurba_marseille","lat":43.292947,"lon":5.374453,"is_reserved":false,"is_disabled":true,"rental_uris":{"android":"levelo://app?vid=90d97d7f-5afe-4601-98be-83b03668e3da","ios":"levelo://app?vid=90d97d7f-5afe-4601-98be-83b03668e3da"},"vehicle_type_id":"4","last_reported":1743109790,"current_range_meters":9200,"station_id":"ce4bgi12rcd13ifvqb70","pricing_plan_id":"cebpf4jnsgd1na2vs0mg"},{"bike_id":"0ac88cdf-dd3a-494f-aaa5-2b24d1ce393f","system_id":"levelo_inurba_marseille","lat":43.23184,"lon":5.35573,"is_reserved":false,"is_disabled":false,"rental_uris":{"android":"levelo://app?vid=0ac88cdf-dd3a-494f-aaa5-2b24d1ce393f","ios":"levelo://app?vid=0ac88cdf-dd3a-494f-aaa5-2b24d1ce393f"},"vehicle_type_id":"4","last_reported":1743109790,"current_range_meters":9200,"station_id":"ce4bhu92rcd13ifvqi70","pricing_plan_id":"cebpf4jnsgd1na2vs0mg"},{"bike_id":"da0e3dcb-5ef6-474b-a1e3-6c09973827b2","system_id":"levelo_inurba_marseille","lat":43.29261,"lon":5.38441,"is_reserved":false,"is_disabled":false,"rental_uris":{"android":"levelo://app?vid=da0e3dcb-5ef6-474b-a1e3-6c09973827b2","ios":"levelo://app?vid=da0e3dcb-5ef6-474b-a1e3-6c09973827b2"},"vehicle_type_id":"4","last_reported":1743109790,"current_range_meters":9200,"station_id":"ce4bh692rcd13ifvqea0","pricing_plan_id":"cebpf4jnsgd1na2vs0mg"},{"bike_id":"29df67f5-d204-4d83-9b55-30baf4950456","system_id":"levelo_inurba_marseille","lat":43.28152,"lon":5.42643,"is_reserved":false,"is_disabled":false,"rental_uris":{"android":"levelo://app?vid=29df67f5-d204-4d83-9b55-30baf4950456","ios":"levelo://app?vid=29df67f5-d204-4d83-9b55-30baf4950456"},"vehicle_type_id":"4","last_reported":1743109790,"current_range_meters":9200,"station_id":"ce4bhnh2rcd13ifvqgug","pricing_plan_id":"cebpf4jnsgd1na2vs0mg"},{"bike_id":"998eadd9-e02e-4465-9d90-14a375f48a75","system_id":"levelo_inurba_marseille","lat":43.29413,"lon":5.38638,"is_reserved":false,"is_disabled":false,"rental_uris":{"android":"levelo://app?vid=998eadd9-e02e-4465-9d90-14a375f48a75","ios":"levelo://app?vid=998eadd9-e02e-4465-9d90-14a375f48a75"},"vehicle_type_id":"4","last_reported":1743109790,"current_range_meters":9200,"station_id":"ce4bh2h2rcd13ifvqdh0","pricing_plan_id":"cebpf4jnsgd1na2vs0mg"},{"bike_id":"3a9bdcca-abab-46db-a40a-336182c98f57","system_id":"levelo_inurba_marseille","lat":43.27816,"lon":5.40735,"is_reserved":false,"is_disabled":false,"rental_uris":{"android":"levelo://app?vid=3a9bdcca-abab-46db-a40a-336182c98f57","ios":"levelo://app?vid=3a9bdcca-abab-46db-a40a-336182c98f57"},"vehicle_type_id":"4","last_reported":1743109790,"current_range_meters":9600,"station_id":"ce4bhnh2rcd13ifvqgtg","pricing_plan_id":"cebpf4jnsgd1na2vs0mg"},{"bike_id":"a2d9e67a-1897-422e-9573-00d17def0e21","system_id":"levelo_inurba_marseille","lat":43.30296,"lon":5.39204,"is_reserved":false,"is_disabled":false,"rental_uris":{"android":"levelo://app?vid=a2d9e67a-1897-422e-9573-00d17def0e21","ios":"levelo://app?vid=a2d9e67a-1897-422e-9573-00d17def0e21"},"vehicle_type_id":"4","last_reported":1743109790,"current_range_meters":9600,"station_id":"ce4bgkh2rcd13ifvqbk0","pricing_plan_id":"cebpf4jnsgd1na2vs0mg"},{"bike_id":"155e3fe2-30b5-42ce-ba12-b1f697461e90","system_id":"levelo_inurba_marseille","lat":43.30149,"lon":5.39847,"is_reserved":false,"is_disabled":false,"rental_uris":{"android":"levelo://app?vid=155e3fe2-30b5-42ce-ba12-b1f697461e90","ios":"levelo://app?vid=155e3fe2-30b5-42ce-ba12-b1f697461e90"},"vehicle_type_id":"4","last_reported":1743109790,"current_range_meters":9600,"station_id":"ce4bh0h2rcd13ifvqd40","pricing_plan_id":"cebpf4jnsgd1na2vs0mg"},{"bike_id":"e5047771-2082-4dba-9477-d8725027152d","system_id":"levelo_inurba_marseille","lat":43.25467,"lon":5.41869,"is_reserved":false,"is_disabled":false,"rental_uris":{"android":"levelo://app?vid=e5047771-2082-4dba-9477-d8725027152d","ios":"levelo://app?vid=e5047771-2082-4dba-9477-d8725027152d"},"vehicle_type_id":"4","last_reported":1743109790,"current_range_meters":9600,"station_id":"","pricing_plan_id":"cebpf4jnsgd1na2vs0mg"},{"bike_id":"ec940620-2a09-4eae-aace-1a0a72b62180","system_id":"levelo_inurba_marseille","lat":43.30299,"lon":5.40058,"is_reserved":false,"is_disabled":false,"rental_uris":{"android":"levelo://app?vid=ec940620-2a09-4eae-aace-1a0a72b62180","ios":"levelo://app?vid=ec940620-2a09-4eae-aace-1a0a72b62180"},"vehicle_type_id":"4","last_reported":1743109790,"current_range_meters":9600,"station_id":"ce4bgvh2rcd13ifvqcs0","pricing_plan_id":"cebpf4jnsgd1na2vs0mg"},{"bike_id":"d46ff930-e785-44f9-bf74-2f9202a8045b","system_id":"levelo_inurba_marseille","lat":43.28851,"lon":5.35841,"is_reserved":false,"is_disabled":false,"rental_uris":{"android":"levelo://app?vid=d46ff930-e785-44f9-bf74-2f9202a8045b","ios":"levelo://app?vid=d46ff930-e785-44f9-bf74-2f9202a8045b"},"vehicle_type_id":"4","last_reported":1743109790,"current_range_meters":9600,"station_id":"ce4bhb12rcd13ifvqem0","pricing_plan_id":"cebpf4jnsgd1na2vs0mg"},{"bike_id":"59e1a024-5384-4752-8555-3cf0ea6c204a","system_id":"levelo_inurba_marseille","lat":43.28003,"lon":5.39997,"is_reserved":false,"is_disabled":false,"rental_uris":{"android":"levelo://app?vid=59e1a024-5384-4752-8555-3cf0ea6c204a","ios":"levelo://app?vid=59e1a024-5384-4752-8555-3cf0ea6c204a"},"vehicle_type_id":"4","last_reported":1743109790,"current_range_meters":9600,"station_id":"ce4bho92rcd13ifvqh4g","pricing_plan_id":"cebpf4jnsgd1na2vs0mg"},{"bike_id":"1f5ccd67-bf70-48cf-bfa9-02349401bc43","system_id":"levelo_inurba_marseille","lat":43.28403,"lon":5.37521,"is_reserved":false,"is_disabled":false,"rental_uris":{"android":"levelo://app?vid=1f5ccd67-bf70-48cf-bfa9-02349401bc43","ios":"levelo://app?vid=1f5ccd67-bf70-48cf-bfa9-02349401bc43"},"vehicle_type_id":"4","last_reported":1743109790,"current_range_meters":9600,"station_id":"ce4bh412rcd13ifvqds0","pricing_plan_id":"cebpf4jnsgd1na2vs0mg"},{"bike_id":"b7df044c-a420-415e-b7b7-345aa8eb07fc","system_id":"levelo_inurba_marseille","lat":43.31832,"lon":5.38874,"is_reserved":false,"is_disabled":false,"rental_uris":{"android":"levelo://app?vid=b7df044c-a420-415e-b7b7-345aa8eb07fc","ios":"levelo://app?vid=b7df044c-a420-415e-b7b7-345aa8eb07fc"},"vehicle_type_id":"4","last_reported":1743109790,"current_range_meters":9600,"station_id":"","pricing_plan_id":"cebpf4jnsgd1na2vs0mg"},{"bike_id":"64f0ea86-1180-4755-95e1-3cbc9c8d4cf5","system_id":"levelo_inurba_marseille","lat":43.33003,"lon":5.43866,"is_reserved":false,"is_disabled":true,"rental_uris":{"android":"levelo://app?vid=64f0ea86-1180-4755-95e1-3cbc9c8d4cf5","ios":"levelo://app?vid=64f0ea86-1180-4755-95e1-3cbc9c8d4cf5"},"vehicle_type_id":"4","last_reported":1743109790,"current_range_meters":9600,"station_id":"","pricing_plan_id":"cebpf4jnsgd1na2vs0mg"},{"bike_id":"7234bda6-d9f0-4c8f-8558-b6ae08e0acdf","system_id":"levelo_inurba_marseille","lat":43.29523,"lon":5.39407,"is_reserved":false,"is_disabled":false,"rental_uris":{"android":"levelo://app?vid=7234bda6-d9f0-4c8f-8558-b6ae08e0acdf","ios":"levelo://app?vid=7234bda6-d9f0-4c8f-8558-b6ae08e0acdf"},"vehicle_type_id":"4","last_reported":1743109790,"current_range_meters":9600,"station_id":"ce4bh292rcd13ifvqdf0","pricing_plan_id":"cebpf4jnsgd1na2vs0mg"},{"bike_id":"bca49375-c0b3-4e97-904b-cca058c8f8c1","system_id":"levelo_inurba_marseille","lat":43.24383,"lon":5.37058,"is_reserved":false,"is_disabled":false,"rental_uris":{"android":"levelo://app?vid=bca49375-c0b3-4e97-904b-cca058c8f8c1","ios":"levelo://app?vid=bca49375-c0b3-4e97-904b-cca058c8f8c1"},"vehicle_type_id":"4","last_reported":1743109790,"current_range_meters":9200,"station_id":"ce4bhhh2rcd13ifvqfk0","pricing_plan_id":"cebpf4jnsgd1na2vs0mg"},{"bike_id":"fc8e8371-f4e9-4721-bc19-563801e389dc","system_id":"levelo_inurba_marseille","lat":43.337444,"lon":5.374475,"is_reserved":false,"is_disabled":false,"rental_uris":{"android":"levelo://app?vid=fc8e8371-f4e9-4721-bc19-563801e389dc","ios":"levelo://app?vid=fc8e8371-f4e9-4721-bc19-563801e389dc"},"vehicle_type_id":"4","last_reported":1743109790,"current_range_meters":9600,"station_id":"","pricing_plan_id":"cebpf4jnsgd1na2vs0mg"},{"bike_id":"b6277294-9c97-4bd2-bb72-519bd900d431","system_id":"levelo_inurba_marseille","lat":43.29294,"lon":5.37445,"is_reserved":false,"is_disabled":true,"rental_uris":{"android":"levelo://app?vid=b6277294-9c97-4bd2-bb72-519bd900d431","ios":"levelo://app?vid=b6277294-9c97-4bd2-bb72-519bd900d431"},"vehicle_type_id":"4","last_reported":1743109790,"current_range_meters":10000,"station_id":"ce4bgi12rcd13ifvqb70","pricing_plan_id":"cebpf4jnsgd1na2vs0mg"},{"bike_id":"6f528835-155d-461b-a46f-9c8ebf64f4e2","system_id":"levelo_inurba_marseille","lat":43.30926,"lon":5.40144,"is_reserved":false,"is_disabled":false,"rental_uris":{"android":"levelo://app?vid=6f528835-155d-461b-a46f-9c8ebf64f4e2","ios":"levelo://app?vid=6f528835-155d-461b-a46f-9c8ebf64f4e2"},"vehicle_type_id":"4","last_reported":1743109790,"current_range_meters":10000,"station_id":"ce4bgvp2rcd13ifvqct0","pricing_plan_id":"cebpf4jnsgd1na2vs0mg"},{"bike_id":"25c93242-72e6-4525-aea7-7d96e2cd1825","system_id":"levelo_inurba_marseille","lat":43.33081,"lon":5.40846,"is_reserved":false,"is_disabled":false,"rental_uris":{"android":"levelo://app?vid=25c93242-72e6-4525-aea7-7d96e2cd1825","ios":"levelo://app?vid=25c93242-72e6-4525-aea7-7d96e2cd1825"},"vehicle_type_id":"4","last_reported":1743109790,"current_range_meters":10000,"station_id":"","pricing_plan_id":"cebpf4jnsgd1na2vs0mg"},{"bike_id":"f37c088c-fb9f-4c05-b3c4-fbc236740bd1","system_id":"levelo_inurba_marseille","lat":43.29421,"lon":5.38627,"is_reserved":false,"is_disabled":false,"rental_uris":{"android":"levelo://app?vid=f37c088c-fb9f-4c05-b3c4-fbc236740bd1","ios":"levelo://app?vid=f37c088c-fb9f-4c05-b3c4-fbc236740bd1"},"vehicle_type_id":"4","last_reported":1743109790,"current_range_meters":10000,"station_id":"ce4bh2h2rcd13ifvqdh0","pricing_plan_id":"cebpf4jnsgd1na2vs0mg"},{"bike_id":"1384bdee-c8dc-42c6-90fd-ff498281f811","system_id":"levelo_inurba_marseille","lat":43.2407,"lon":5.37754,"is_reserved":false,"is_disabled":false,"rental_uris":{"android":"levelo://app?vid=1384bdee-c8dc-42c6-90fd-ff498281f811","ios":"levelo://app?vid=1384bdee-c8dc-42c6-90fd-ff498281f811"},"vehicle_type_id":"4","last_reported":1743109790,"current_range_meters":10000,"station_id":"ce4bhnp2rcd13ifvqgvg","pricing_plan_id":"cebpf4jnsgd1na2vs0mg"},{"bike_id":"5a7f605c-2a74-4026-82f7-f55a72384599","system_id":"levelo_inurba_marseille","lat":43.28724,"lon":5.36077,"is_reserved":false,"is_disabled":false,"rental_uris":{"android":"levelo://app?vid=5a7f605c-2a74-4026-82f7-f55a72384599","ios":"levelo://app?vid=5a7f605c-2a74-4026-82f7-f55a72384599"},"vehicle_type_id":"4","last_reported":1743109790,"current_range_meters":10000,"station_id":"cki0cbj6b192h4jlfktg","pricing_plan_id":"cebpf4jnsgd1na2vs0mg"},{"bike_id":"19221227-42ec-4f4b-8f04-42a0818e22f5","system_id":"levelo_inurba_marseille","lat":43.32102,"lon":5.36779,"is_reserved":false,"is_disabled":false,"rental_uris":{"android":"levelo://app?vid=19221227-42ec-4f4b-8f04-42a0818e22f5","ios":"levelo://app?vid=19221227-42ec-4f4b-8f04-42a0818e22f5"},"vehicle_type_id":"4","last_reported":1743109790,"current_range_meters":10000,"station_id":"ce4bhrh2rcd13ifvqhug","pricing_plan_id":"cebpf4jnsgd1na2vs0mg"},{"bike_id":"5344531c-d52c-4b2a-b69c-a50e5172a9ed","system_id":"levelo_inurba_marseille","lat":43.29271,"lon":5.38453,"is_reserved":false,"is_disabled":false,"rental_uris":{"android":"levelo://app?vid=5344531c-d52c-4b2a-b69c-a50e5172a9ed","ios":"levelo://app?vid=5344531c-d52c-4b2a-b69c-a50e5172a9ed"},"vehicle_type_id":"4","last_reported":1743109790,"current_range_meters":10000,"station_id":"ce4bh692rcd13ifvqea0","pricing_plan_id":"cebpf4jnsgd1na2vs0mg"},{"bike_id":"bfa018d7-4766-430e-8a9d-9b17e9a65a71","system_id":"levelo_inurba_marseille","lat":43.25087,"lon":5.39519,"is_reserved":false,"is_disabled":false,"rental_uris":{"android":"levelo://app?vid=bfa018d7-4766-430e-8a9d-9b17e9a65a71","ios":"levelo://app?vid=bfa018d7-4766-430e-8a9d-9b17e9a65a71"},"vehicle_type_id":"4","last_reported":1743109790,"current_range_meters":10000,"station_id":"ce4bhm12rcd13ifvqgkg","pricing_plan_id":"cebpf4jnsgd1na2vs0mg"},{"bike_id":"de45a1f8-a077-4934-a5ad-2b0eff837a02","system_id":"levelo_inurba_marseille","lat":43.28367,"lon":5.38633,"is_reserved":false,"is_disabled":false,"rental_uris":{"android":"levelo://app?vid=de45a1f8-a077-4934-a5ad-2b0eff837a02","ios":"levelo://app?vid=de45a1f8-a077-4934-a5ad-2b0eff837a02"},"vehicle_type_id":"4","last_reported":1743109790,"current_range_meters":10000,"station_id":"ce4bh492rcd13ifvqdvg","pricing_plan_id":"cebpf4jnsgd1na2vs0mg"},{"bike_id":"813634ed-e21d-4b9e-88e8-aa8b87581eb3","system_id":"levelo_inurba_marseille","lat":43.32095,"lon":5.36805,"is_reserved":false,"is_disabled":false,"rental_uris":{"android":"levelo://app?vid=813634ed-e21d-4b9e-88e8-aa8b87581eb3","ios":"levelo://app?vid=813634ed-e21d-4b9e-88e8-aa8b87581eb3"},"vehicle_type_id":"4","last_reported":1743109790,"current_range_meters":10800,"station_id":"ce4bhrh2rcd13ifvqhug","pricing_plan_id":"cebpf4jnsgd1na2vs0mg"},{"bike_id":"f00e0bf1-e77c-4752-8f1b-63a2e565cf51","system_id":"levelo_inurba_marseille","lat":43.27955,"lon":5.38733,"is_reserved":false,"is_disabled":true,"rental_uris":{"android":"levelo://app?vid=f00e0bf1-e77c-4752-8f1b-63a2e565cf51","ios":"levelo://app?vid=f00e0bf1-e77c-4752-8f1b-63a2e565cf51"},"vehicle_type_id":"4","last_reported":1743109790,"current_range_meters":10800,"station_id":"ce4bhg12rcd13ifvqf80","pricing_plan_id":"cebpf4jnsgd1na2vs0mg"},{"bike_id":"44eeac64-3243-4afc-b41d-39193a24683e","system_id":"levelo_inurba_marseille","lat":43.28711,"lon":5.37933,"is_reserved":false,"is_disabled":false,"rental_uris":{"android":"levelo://app?vid=44eeac64-3243-4afc-b41d-39193a24683e","ios":"levelo://app?vid=44eeac64-3243-4afc-b41d-39193a24683e"},"vehicle_type_id":"4","last_reported":1743109790,"current_range_meters":10800,"station_id":"ce4bh9p2rcd13ifvqec0","pricing_plan_id":"cebpf4jnsgd1na2vs0mg"},{"bike_id":"016992fa-63d2-4855-bea4-8a68af651092","system_id":"levelo_inurba_marseille","lat":43.304615,"lon":5.378943,"is_reserved":false,"is_disabled":false,"rental_uris":{"android":"levelo://app?vid=016992fa-63d2-4855-bea4-8a68af651092","ios":"levelo://app?vid=016992fa-63d2-4855-bea4-8a68af651092"},"vehicle_type_id":"4","last_reported":1743109790,"current_range_meters":10000,"station_id":"ce4bgup2rcd13ifvqcn0","pricing_plan_id":"cebpf4jnsgd1na2vs0mg"},{"bike_id":"ab79c7bb-1730-4a4c-b7ca-6d520982e325","system_id":"levelo_inurba_marseille","lat":43.24155,"lon":5.37666,"is_reserved":false,"is_disabled":false,"rental_uris":{"android":"levelo://app?vid=ab79c7bb-1730-4a4c-b7ca-6d520982e325","ios":"levelo://app?vid=ab79c7bb-1730-4a4c-b7ca-6d520982e325"},"vehicle_type_id":"4","last_reported":1743109790,"current_range_meters":10800,"station_id":"ce4bhnp2rcd13ifvqgvg","pricing_plan_id":"cebpf4jnsgd1na2vs0mg"},{"bike_id":"ba769e56-901b-4024-8d88-72d4c8f66da4","system_id":"levelo_inurba_marseille","lat":43.3093,"lon":5.40152,"is_reserved":false,"is_disabled":false,"rental_uris":{"android":"levelo://app?vid=ba769e56-901b-4024-8d88-72d4c8f66da4","ios":"levelo://app?vid=ba769e56-901b-4024-8d88-72d4c8f66da4"},"vehicle_type_id":"4","last_reported":1743109790,"current_range_meters":10800,"station_id":"ce4bgvp2rcd13ifvqct0","pricing_plan_id":"cebpf4jnsgd1na2vs0mg"},{"bike_id":"59ebb1d1-a5b0-4ef8-97d8-ac0c8af5a8c5","system_id":"levelo_inurba_marseille","lat":43.25711,"lon":5.41083,"is_reserved":false,"is_disabled":false,"rental_uris":{"android":"levelo://app?vid=59ebb1d1-a5b0-4ef8-97d8-ac0c8af5a8c5","ios":"levelo://app?vid=59ebb1d1-a5b0-4ef8-97d8-ac0c8af5a8c5"},"vehicle_type_id":"4","last_reported":1743109790,"current_range_meters":10800,"station_id":"ce4bhkp2rcd13ifvqgd0","pricing_plan_id":"cebpf4jnsgd1na2vs0mg"},{"bike_id":"f6359105-d091-4740-bd08-4529fc2ccae2","system_id":"levelo_inurba_marseille","lat":43.28933,"lon":5.39621,"is_reserved":false,"is_disabled":false,"rental_uris":{"android":"levelo://app?vid=f6359105-d091-4740-bd08-4529fc2ccae2","ios":"levelo://app?vid=f6359105-d091-4740-bd08-4529fc2ccae2"},"vehicle_type_id":"4","last_reported":1743109790,"current_range_meters":10800,"station_id":"ce4bh3h2rcd13ifvqdn0","pricing_plan_id":"cebpf4jnsgd1na2vs0mg"},{"bike_id":"e6ac144d-f002-43e7-afe4-0ea576ad9029","system_id":"levelo_inurba_marseille","lat":43.30926,"lon":5.4015,"is_reserved":false,"is_disabled":false,"rental_uris":{"android":"levelo://app?vid=e6ac144d-f002-43e7-afe4-0ea576ad9029","ios":"levelo://app?vid=e6ac144d-f002-43e7-afe4-0ea576ad9029"},"vehicle_type_id":"4","last_reported":1743109790,"current_range_meters":10800,"station_id":"ce4bgvp2rcd13ifvqct0","pricing_plan_id":"cebpf4jnsgd1na2vs0mg"},{"bike_id":"2eb9a528-e348-488c-8f75-bae0f0f6e353","system_id":"levelo_inurba_marseille","lat":43.30245,"lon":5.40059,"is_reserved":false,"is_disabled":false,"rental_uris":{"android":"levelo://app?vid=2eb9a528-e348-488c-8f75-bae0f0f6e353","ios":"levelo://app?vid=2eb9a528-e348-488c-8f75-bae0f0f6e353"},"vehicle_type_id":"4","last_reported":1743109790,"current_range_meters":10800,"station_id":"ce4bgvh2rcd13ifvqcs0","pricing_plan_id":"cebpf4jnsgd1na2vs0mg"},{"bike_id":"97598caa-f881-4c11-b13b-ad62623fc261","system_id":"levelo_inurba_marseille","lat":43.28097,"lon":5.39648,"is_reserved":false,"is_disabled":false,"rental_uris":{"android":"levelo://app?vid=97598caa-f881-4c11-b13b-ad62623fc261","ios":"levelo://app?vid=97598caa-f881-4c11-b13b-ad62623fc261"},"vehicle_type_id":"4","last_reported":1743109790,"current_range_meters":10800,"station_id":"ce4bho12rcd13ifvqh2g","pricing_plan_id":"cebpf4jnsgd1na2vs0mg"},{"bike_id":"80a8e2bd-d6e1-4326-a203-6c8396c11b5f","system_id":"levelo_inurba_marseille","lat":43.29681,"lon":5.37311,"is_reserved":false,"is_disabled":false,"rental_uris":{"android":"levelo://app?vid=80a8e2bd-d6e1-4326-a203-6c8396c11b5f","ios":"levelo://app?vid=80a8e2bd-d6e1-4326-a203-6c8396c11b5f"},"vehicle_type_id":"4","last_reported":1743109790,"current_range_meters":11200,"station_id":"ce4bgk12rcd13ifvqbj0","pricing_plan_id":"cebpf4jnsgd1na2vs0mg"},{"bike_id":"107c2394-7d63-4ba0-9a5b-757759b8e3ef","system_id":"levelo_inurba_marseille","lat":43.2396,"lon":5.36633,"is_reserved":false,"is_disabled":false,"rental_uris":{"android":"levelo://app?vid=107c2394-7d63-4ba0-9a5b-757759b8e3ef","ios":"levelo://app?vid=107c2394-7d63-4ba0-9a5b-757759b8e3ef"},"vehicle_type_id":"4","last_reported":1743109790,"current_range_meters":11200,"station_id":"ce4bhi12rcd13ifvqfp0","pricing_plan_id":"cebpf4jnsgd1na2vs0mg"},{"bike_id":"bc3f138a-3af0-4b4e-9b07-2d2a8e540795","system_id":"levelo_inurba_marseille","lat":43.2648,"lon":5.39558,"is_reserved":false,"is_disabled":true,"rental_uris":{"android":"levelo://app?vid=bc3f138a-3af0-4b4e-9b07-2d2a8e540795","ios":"levelo://app?vid=bc3f138a-3af0-4b4e-9b07-2d2a8e540795"},"vehicle_type_id":"4","last_reported":1743109790,"current_range_meters":11200,"station_id":"ce4bhi12rcd13ifvqfq0","pricing_plan_id":"cebpf4jnsgd1na2vs0mg"},{"bike_id":"5d601291-20bf-4f2d-b9a8-f968bc04b9fb","system_id":"levelo_inurba_marseille","lat":43.29245,"lon":5.38442,"is_reserved":false,"is_disabled":false,"rental_uris":{"android":"levelo://app?vid=5d601291-20bf-4f2d-b9a8-f968bc04b9fb","ios":"levelo://app?vid=5d601291-20bf-4f2d-b9a8-f968bc04b9fb"},"vehicle_type_id":"4","last_reported":1743109790,"current_range_meters":11200,"station_id":"ce4bh692rcd13ifvqea0","pricing_plan_id":"cebpf4jnsgd1na2vs0mg"},{"bike_id":"e39f0277-8842-447f-8838-fb2880aa78ea","system_id":"levelo_inurba_marseille","lat":43.28927,"lon":5.36651,"is_reserved":false,"is_disabled":false,"rental_uris":{"android":"levelo://app?vid=e39f0277-8842-447f-8838-fb2880aa78ea","ios":"levelo://app?vid=e39f0277-8842-447f-8838-fb2880aa78ea"},"vehicle_type_id":"4","last_reported":1743109790,"current_range_meters":11200,"station_id":"ce4bhap2rcd13ifvqek0","pricing_plan_id":"cebpf4jnsgd1na2vs0mg"},{"bike_id":"1eb21825-171e-4f06-b25b-41bcd93e46cb","system_id":"levelo_inurba_marseille","lat":43.23956,"lon":5.36638,"is_reserved":false,"is_disabled":false,"rental_uris":{"android":"levelo://app?vid=1eb21825-171e-4f06-b25b-41bcd93e46cb","ios":"levelo://app?vid=1eb21825-171e-4f06-b25b-41bcd93e46cb"},"vehicle_type_id":"4","last_reported":1743109790,"current_range_meters":11200,"station_id":"ce4bhi12rcd13ifvqfp0","pricing_plan_id":"cebpf4jnsgd1na2vs0mg"},{"bike_id":"577af6e5-1b48-48f4-9689-8720426d5d2a","system_id":"levelo_inurba_marseille","lat":43.28938,"lon":5.3664,"is_reserved":false,"is_disabled":false,"rental_uris":{"android":"levelo://app?vid=577af6e5-1b48-48f4-9689-8720426d5d2a","ios":"levelo://app?vid=577af6e5-1b48-48f4-9689-8720426d5d2a"},"vehicle_type_id":"4","last_reported":1743109790,"current_range_meters":11200,"station_id":"ce4bhap2rcd13ifvqek0","pricing_plan_id":"cebpf4jnsgd1na2vs0mg"},{"bike_id":"a06a5e87-6b12-4d24-922c-5af271a9d84a","system_id":"levelo_inurba_marseille","lat":43.29602,"lon":5.38105,"is_reserved":false,"is_disabled":false,"rental_uris":{"android":"levelo://app?vid=a06a5e87-6b12-4d24-922c-5af271a9d84a","ios":"levelo://app?vid=a06a5e87-6b12-4d24-922c-5af271a9d84a"},"vehicle_type_id":"4","last_reported":1743109790,"current_range_meters":11200,"station_id":"ce4bgl12rcd13ifvqbo0","pricing_plan_id":"cebpf4jnsgd1na2vs0mg"},{"bike_id":"290edeb0-1444-49c9-9051-c84b1e267158","system_id":"levelo_inurba_marseille","lat":43.26217,"lon":5.40472,"is_reserved":false,"is_disabled":false,"rental_uris":{"android":"levelo://app?vid=290edeb0-1444-49c9-9051-c84b1e267158","ios":"levelo://app?vid=290edeb0-1444-49c9-9051-c84b1e267158"},"vehicle_type_id":"4","last_reported":1743109790,"current_range_meters":11600,"station_id":"ce4bhmh2rcd13ifvqgmg","pricing_plan_id":"cebpf4jnsgd1na2vs0mg"},{"bike_id":"cfed900d-e17f-46a7-9847-c8d921508ac3","system_id":"levelo_inurba_marseille","lat":43.23959,"lon":5.36641,"is_reserved":false,"is_disabled":false,"rental_uris":{"android":"levelo://app?vid=cfed900d-e17f-46a7-9847-c8d921508ac3","ios":"levelo://app?vid=cfed900d-e17f-46a7-9847-c8d921508ac3"},"vehicle_type_id":"4","last_reported":1743109790,"current_range_meters":11600,"station_id":"ce4bhi12rcd13ifvqfp0","pricing_plan_id":"cebpf4jnsgd1na2vs0mg"},{"bike_id":"404642bf-e983-405e-ab60-0ff563a9a681","system_id":"levelo_inurba_marseille","lat":43.28266,"lon":5.35056,"is_reserved":false,"is_disabled":false,"rental_uris":{"android":"levelo://app?vid=404642bf-e983-405e-ab60-0ff563a9a681","ios":"levelo://app?vid=404642bf-e983-405e-ab60-0ff563a9a681"},"vehicle_type_id":"4","last_reported":1743109790,"current_range_meters":11600,"station_id":"ce4bhbp2rcd13ifvqerg","pricing_plan_id":"cebpf4jnsgd1na2vs0mg"},{"bike_id":"7655d9b7-ab68-4d9e-ba5f-6243a4ea0a8a","system_id":"levelo_inurba_marseille","lat":43.2512,"lon":5.40313,"is_reserved":false,"is_disabled":false,"rental_uris":{"android":"levelo://app?vid=7655d9b7-ab68-4d9e-ba5f-6243a4ea0a8a","ios":"levelo://app?vid=7655d9b7-ab68-4d9e-ba5f-6243a4ea0a8a"},"vehicle_type_id":"4","last_reported":1743109790,"current_range_meters":11600,"station_id":"ce4bhlh2rcd13ifvqgig","pricing_plan_id":"cebpf4jnsgd1na2vs0mg"},{"bike_id":"d75f9f5e-4772-4de2-8f78-058b650907ab","system_id":"levelo_inurba_marseille","lat":43.24153,"lon":5.36403,"is_reserved":false,"is_disabled":false,"rental_uris":{"android":"levelo://app?vid=d75f9f5e-4772-4de2-8f78-058b650907ab","ios":"levelo://app?vid=d75f9f5e-4772-4de2-8f78-058b650907ab"},"vehicle_type_id":"4","last_reported":1743109790,"current_range_meters":11600,"station_id":"cpo36qri1sfpv3e86is0","pricing_plan_id":"cebpf4jnsgd1na2vs0mg"},{"bike_id":"b4f90e32-aeb3-4778-83d8-ebd5c9031f48","system_id":"levelo_inurba_marseille","lat":43.26941,"lon":5.40244,"is_reserved":false,"is_disabled":false,"rental_uris":{"android":"levelo://app?vid=b4f90e32-aeb3-4778-83d8-ebd5c9031f48","ios":"levelo://app?vid=b4f90e32-aeb3-4778-83d8-ebd5c9031f48"},"vehicle_type_id":"4","last_reported":1743109790,"current_range_meters":11200,"station_id":"cjm6bp8fraef2m0cb0m0","pricing_plan_id":"cebpf4jnsgd1na2vs0mg"},{"bike_id":"254dd289-f60c-4bed-a17b-459738a20225","system_id":"levelo_inurba_marseille","lat":43.31074,"lon":5.38355,"is_reserved":false,"is_disabled":false,"rental_uris":{"android":"levelo://app?vid=254dd289-f60c-4bed-a17b-459738a20225","ios":"levelo://app?vid=254dd289-f60c-4bed-a17b-459738a20225"},"vehicle_type_id":"4","last_reported":1743109790,"current_range_meters":11600,"station_id":"ce4bgv92rcd13ifvqcr0","pricing_plan_id":"cebpf4jnsgd1na2vs0mg"},{"bike_id":"368679b2-11d9-4a82-95d0-d0f35eb4d1b7","system_id":"levelo_inurba_marseille","lat":43.2835,"lon":5.38111,"is_reserved":false,"is_disabled":false,"rental_uris":{"android":"levelo://app?vid=368679b2-11d9-4a82-95d0-d0f35eb4d1b7","ios":"levelo://app?vid=368679b2-11d9-4a82-95d0-d0f35eb4d1b7"},"vehicle_type_id":"4","last_reported":1743109790,"current_range_meters":11600,"station_id":"ce4bh412rcd13ifvqdr0","pricing_plan_id":"cebpf4jnsgd1na2vs0mg"},{"bike_id":"e8d201f1-9aa9-4ae6-a427-58a645e166df","system_id":"levelo_inurba_marseille","lat":43.299,"lon":5.39734,"is_reserved":false,"is_disabled":false,"rental_uris":{"android":"levelo://app?vid=e8d201f1-9aa9-4ae6-a427-58a645e166df","ios":"levelo://app?vid=e8d201f1-9aa9-4ae6-a427-58a645e166df"},"vehicle_type_id":"4","last_reported":1743109790,"current_range_meters":11600,"station_id":"ce4bh0h2rcd13ifvqd50","pricing_plan_id":"cebpf4jnsgd1na2vs0mg"},{"bike_id":"d6ae219f-9f95-4018-8090-ed5b25c110b7","system_id":"levelo_inurba_marseille","lat":43.26952,"lon":5.38636,"is_reserved":false,"is_disabled":false,"rental_uris":{"android":"levelo://app?vid=d6ae219f-9f95-4018-8090-ed5b25c110b7","ios":"levelo://app?vid=d6ae219f-9f95-4018-8090-ed5b25c110b7"},"vehicle_type_id":"4","last_reported":1743109790,"current_range_meters":11200,"station_id":"ce4bhh92rcd13ifvqfh0","pricing_plan_id":"cebpf4jnsgd1na2vs0mg"},{"bike_id":"6a445437-040d-40e9-8502-6b7f2071b06a","system_id":"levelo_inurba_marseille","lat":43.31666,"lon":5.38956,"is_reserved":false,"is_disabled":false,"rental_uris":{"android":"levelo://app?vid=6a445437-040d-40e9-8502-6b7f2071b06a","ios":"levelo://app?vid=6a445437-040d-40e9-8502-6b7f2071b06a"},"vehicle_type_id":"4","last_reported":1743109790,"current_range_meters":12000,"station_id":"","pricing_plan_id":"cebpf4jnsgd1na2vs0mg"},{"bike_id":"fb246d73-d838-4086-9394-36c6fa16de24","system_id":"levelo_inurba_marseille","lat":43.28713,"lon":5.37382,"is_reserved":false,"is_disabled":false,"rental_uris":{"android":"levelo://app?vid=fb246d73-d838-4086-9394-36c6fa16de24","ios":"levelo://app?vid=fb246d73-d838-4086-9394-36c6fa16de24"},"vehicle_type_id":"4","last_reported":1743109790,"current_range_meters":12000,"station_id":"ce4bh3p2rcd13ifvqdq0","pricing_plan_id":"cebpf4jnsgd1na2vs0mg"},{"bike_id":"4a42ca1e-41e4-4233-a4bb-a180f04564d6","system_id":"levelo_inurba_marseille","lat":43.29147,"lon":5.37155,"is_reserved":false,"is_disabled":true,"rental_uris":{"android":"levelo://app?vid=4a42ca1e-41e4-4233-a4bb-a180f04564d6","ios":"levelo://app?vid=4a42ca1e-41e4-4233-a4bb-a180f04564d6"},"vehicle_type_id":"4","last_reported":1743109790,"current_range_meters":12000,"station_id":"ce4bha92rcd13ifvqeh0","pricing_plan_id":"cebpf4jnsgd1na2vs0mg"},{"bike_id":"82bbca80-3742-4671-8408-2c4d176f7983","system_id":"levelo_inurba_marseille","lat":43.31711,"lon":5.43708,"is_reserved":false,"is_disabled":false,"rental_uris":{"android":"levelo://app?vid=82bbca80-3742-4671-8408-2c4d176f7983","ios":"levelo://app?vid=82bbca80-3742-4671-8408-2c4d176f7983"},"vehicle_type_id":"4","last_reported":1743109790,"current_range_meters":11600,"station_id":"ce4bhp92rcd13ifvqhcg","pricing_plan_id":"cebpf4jnsgd1na2vs0mg"},{"bike_id":"9f315d73-ec20-4c4b-86c6-602daba06c1b","system_id":"levelo_inurba_marseille","lat":43.294175,"lon":5.386341,"is_reserved":false,"is_disabled":false,"rental_uris":{"android":"levelo://app?vid=9f315d73-ec20-4c4b-86c6-602daba06c1b","ios":"levelo://app?vid=9f315d73-ec20-4c4b-86c6-602daba06c1b"},"vehicle_type_id":"4","last_reported":1743109790,"current_range_meters":12000,"station_id":"ce4bh2h2rcd13ifvqdh0","pricing_plan_id":"cebpf4jnsgd1na2vs0mg"},{"bike_id":"2e919ca5-ce98-4c47-a9d7-66e6ab7584e4","system_id":"levelo_inurba_marseille","lat":43.32122,"lon":5.36747,"is_reserved":false,"is_disabled":false,"rental_uris":{"android":"levelo://app?vid=2e919ca5-ce98-4c47-a9d7-66e6ab7584e4","ios":"levelo://app?vid=2e919ca5-ce98-4c47-a9d7-66e6ab7584e4"},"vehicle_type_id":"4","last_reported":1743109790,"current_range_meters":12000,"station_id":"ce4bhrh2rcd13ifvqhug","pricing_plan_id":"cebpf4jnsgd1na2vs0mg"},{"bike_id":"8a52eb89-0d59-4951-a73b-4a227e804188","system_id":"levelo_inurba_marseille","lat":43.30144,"lon":5.38073,"is_reserved":false,"is_disabled":false,"rental_uris":{"android":"levelo://app?vid=8a52eb89-0d59-4951-a73b-4a227e804188","ios":"levelo://app?vid=8a52eb89-0d59-4951-a73b-4a227e804188"},"vehicle_type_id":"4","last_reported":1743109790,"current_range_meters":12000,"station_id":"ce4bgjp2rcd13ifvqbh0","pricing_plan_id":"cebpf4jnsgd1na2vs0mg"},{"bike_id":"1d9d9413-db4a-4be4-b713-5e79c936abc4","system_id":"levelo_inurba_marseille","lat":43.30301,"lon":5.39211,"is_reserved":false,"is_disabled":false,"rental_uris":{"android":"levelo://app?vid=1d9d9413-db4a-4be4-b713-5e79c936abc4","ios":"levelo://app?vid=1d9d9413-db4a-4be4-b713-5e79c936abc4"},"vehicle_type_id":"4","last_reported":1743109790,"current_range_meters":12000,"station_id":"ce4bgkh2rcd13ifvqbk0","pricing_plan_id":"cebpf4jnsgd1na2vs0mg"},{"bike_id":"34d07891-8c02-4c2b-a31e-e054161d5fa3","system_id":"levelo_inurba_marseille","lat":43.28396,"lon":5.3754,"is_reserved":false,"is_disabled":false,"rental_uris":{"android":"levelo://app?vid=34d07891-8c02-4c2b-a31e-e054161d5fa3","ios":"levelo://app?vid=34d07891-8c02-4c2b-a31e-e054161d5fa3"},"vehicle_type_id":"4","last_reported":1743109790,"current_range_meters":12000,"station_id":"ce4bh412rcd13ifvqds0","pricing_plan_id":"cebpf4jnsgd1na2vs0mg"},{"bike_id":"a3cc00bf-4617-4c03-90b3-816d9d5774bb","system_id":"levelo_inurba_marseille","lat":43.29701,"lon":5.37706,"is_reserved":false,"is_disabled":false,"rental_uris":{"android":"levelo://app?vid=a3cc00bf-4617-4c03-90b3-816d9d5774bb","ios":"levelo://app?vid=a3cc00bf-4617-4c03-90b3-816d9d5774bb"},"vehicle_type_id":"4","last_reported":1743109790,"current_range_meters":12000,"station_id":"ce4bgkh2rcd13ifvqbl0","pricing_plan_id":"cebpf4jnsgd1na2vs0mg"},{"bike_id":"40a01e84-ca3c-4fe0-8042-9fbd669c1a71","system_id":"levelo_inurba_marseille","lat":43.293,"lon":5.38422,"is_reserved":false,"is_disabled":false,"rental_uris":{"android":"levelo://app?vid=40a01e84-ca3c-4fe0-8042-9fbd669c1a71","ios":"levelo://app?vid=40a01e84-ca3c-4fe0-8042-9fbd669c1a71"},"vehicle_type_id":"4","last_reported":1743109790,"current_range_meters":12000,"station_id":"ce4bh692rcd13ifvqea0","pricing_plan_id":"cebpf4jnsgd1na2vs0mg"},{"bike_id":"6ab1c202-5922-405c-8972-4d4ac511ed16","system_id":"levelo_inurba_marseille","lat":43.29569,"lon":5.39984,"is_reserved":false,"is_disabled":false,"rental_uris":{"android":"levelo://app?vid=6ab1c202-5922-405c-8972-4d4ac511ed16","ios":"levelo://app?vid=6ab1c202-5922-405c-8972-4d4ac511ed16"},"vehicle_type_id":"4","last_reported":1743109790,"current_range_meters":12400,"station_id":"ce4bh312rcd13ifvqdj0","pricing_plan_id":"cebpf4jnsgd1na2vs0mg"},{"bike_id":"13633a3f-ad46-497c-837e-30c4fd3eac92","system_id":"levelo_inurba_marseille","lat":43.28351,"lon":5.38643,"is_reserved":false,"is_disabled":false,"rental_uris":{"android":"levelo://app?vid=13633a3f-ad46-497c-837e-30c4fd3eac92","ios":"levelo://app?vid=13633a3f-ad46-497c-837e-30c4fd3eac92"},"vehicle_type_id":"4","last_reported":1743109790,"current_range_meters":12400,"station_id":"ce4bh492rcd13ifvqdvg","pricing_plan_id":"cebpf4jnsgd1na2vs0mg"},{"bike_id":"c11a4eb9-648f-4fa7-aefc-e342d02ebe0d","system_id":"levelo_inurba_marseille","lat":43.28713,"lon":5.36073,"is_reserved":false,"is_disabled":false,"rental_uris":{"android":"levelo://app?vid=c11a4eb9-648f-4fa7-aefc-e342d02ebe0d","ios":"levelo://app?vid=c11a4eb9-648f-4fa7-aefc-e342d02ebe0d"},"vehicle_type_id":"4","last_reported":1743109790,"current_range_meters":12400,"station_id":"cki0cbj6b192h4jlfktg","pricing_plan_id":"cebpf4jnsgd1na2vs0mg"},{"bike_id":"ed3f340d-7b56-49a7-952a-c79c8daa5f0f","system_id":"levelo_inurba_marseille","lat":43.301295,"lon":5.387908,"is_reserved":false,"is_disabled":true,"rental_uris":{"android":"levelo://app?vid=ed3f340d-7b56-49a7-952a-c79c8daa5f0f","ios":"levelo://app?vid=ed3f340d-7b56-49a7-952a-c79c8daa5f0f"},"vehicle_type_id":"4","last_reported":1743109790,"current_range_meters":12400,"station_id":"ce4bghh2rcd13ifvqb60","pricing_plan_id":"cebpf4jnsgd1na2vs0mg"},{"bike_id":"1b1aa963-5d87-46c9-8b5b-1a666c786917","system_id":"levelo_inurba_marseille","lat":43.25583,"lon":5.38233,"is_reserved":false,"is_disabled":false,"rental_uris":{"android":"levelo://app?vid=1b1aa963-5d87-46c9-8b5b-1a666c786917","ios":"levelo://app?vid=1b1aa963-5d87-46c9-8b5b-1a666c786917"},"vehicle_type_id":"4","last_reported":1743109790,"current_range_meters":12400,"station_id":"ce4bhih2rcd13ifvqfs0","pricing_plan_id":"cebpf4jnsgd1na2vs0mg"},{"bike_id":"818dfafc-6ea6-4ee7-bbe8-e9549e7682c4","system_id":"levelo_inurba_marseille","lat":43.28594,"lon":5.3707,"is_reserved":false,"is_disabled":false,"rental_uris":{"android":"levelo://app?vid=818dfafc-6ea6-4ee7-bbe8-e9549e7682c4","ios":"levelo://app?vid=818dfafc-6ea6-4ee7-bbe8-e9549e7682c4"},"vehicle_type_id":"4","last_reported":1743109790,"current_range_meters":12400,"station_id":"ce4bht12rcd13ifvqi60","pricing_plan_id":"cebpf4jnsgd1na2vs0mg"},{"bike_id":"74bb3be4-214a-4907-a0a6-cb5edcf13a83","system_id":"levelo_inurba_marseille","lat":43.2971,"lon":5.3658,"is_reserved":false,"is_disabled":true,"rental_uris":{"android":"levelo://app?vid=74bb3be4-214a-4907-a0a6-cb5edcf13a83","ios":"levelo://app?vid=74bb3be4-214a-4907-a0a6-cb5edcf13a83"},"vehicle_type_id":"4","last_reported":1743109790,"current_range_meters":12400,"station_id":"ce4bgn12rcd13ifvqbt0","pricing_plan_id":"cebpf4jnsgd1na2vs0mg"},{"bike_id":"1c14bf9c-ada4-4a36-8853-740a1a2c000a","system_id":"levelo_inurba_marseille","lat":43.231903,"lon":5.355506,"is_reserved":false,"is_disabled":false,"rental_uris":{"android":"levelo://app?vid=1c14bf9c-ada4-4a36-8853-740a1a2c000a","ios":"levelo://app?vid=1c14bf9c-ada4-4a36-8853-740a1a2c000a"},"vehicle_type_id":"4","last_reported":1743109790,"current_range_meters":12400,"station_id":"ce4bhu92rcd13ifvqi70","pricing_plan_id":"cebpf4jnsgd1na2vs0mg"},{"bike_id":"9f78a905-5c44-4ec1-91ca-8157d4a4efea","system_id":"levelo_inurba_marseille","lat":43.28843,"lon":5.39327,"is_reserved":false,"is_disabled":false,"rental_uris":{"android":"levelo://app?vid=9f78a905-5c44-4ec1-91ca-8157d4a4efea","ios":"levelo://app?vid=9f78a905-5c44-4ec1-91ca-8157d4a4efea"},"vehicle_type_id":"4","last_reported":1743109790,"current_range_meters":12400,"station_id":"ce4bh2p2rcd13ifvqdi0","pricing_plan_id":"cebpf4jnsgd1na2vs0mg"},{"bike_id":"3826485a-2e7b-4a61-8f40-89542c994f8c","system_id":"levelo_inurba_marseille","lat":43.29627,"lon":5.40601,"is_reserved":false,"is_disabled":false,"rental_uris":{"android":"levelo://app?vid=3826485a-2e7b-4a61-8f40-89542c994f8c","ios":"levelo://app?vid=3826485a-2e7b-4a61-8f40-89542c994f8c"},"vehicle_type_id":"4","last_reported":1743109790,"current_range_meters":12800,"station_id":"ce4bh0h2rcd13ifvqd60","pricing_plan_id":"cebpf4jnsgd1na2vs0mg"},{"bike_id":"b2820e79-d2d2-4897-8b11-9ec22a3f5092","system_id":"levelo_inurba_marseille","lat":43.29412,"lon":5.38634,"is_reserved":false,"is_disabled":false,"rental_uris":{"android":"levelo://app?vid=b2820e79-d2d2-4897-8b11-9ec22a3f5092","ios":"levelo://app?vid=b2820e79-d2d2-4897-8b11-9ec22a3f5092"},"vehicle_type_id":"4","last_reported":1743109790,"current_range_meters":12800,"station_id":"ce4bh2h2rcd13ifvqdh0","pricing_plan_id":"cebpf4jnsgd1na2vs0mg"},{"bike_id":"c284fee4-9c27-4b81-b86e-abcb81030682","system_id":"levelo_inurba_marseille","lat":43.28946,"lon":5.36377,"is_reserved":false,"is_disabled":false,"rental_uris":{"android":"levelo://app?vid=c284fee4-9c27-4b81-b86e-abcb81030682","ios":"levelo://app?vid=c284fee4-9c27-4b81-b86e-abcb81030682"},"vehicle_type_id":"4","last_reported":1743109790,"current_range_meters":12800,"station_id":"ce4bhc92rcd13ifvqetg","pricing_plan_id":"cebpf4jnsgd1na2vs0mg"},{"bike_id":"967aa312-08e6-435d-aca6-866362b5ef57","system_id":"levelo_inurba_marseille","lat":43.29252,"lon":5.38431,"is_reserved":false,"is_disabled":false,"rental_uris":{"android":"levelo://app?vid=967aa312-08e6-435d-aca6-866362b5ef57","ios":"levelo://app?vid=967aa312-08e6-435d-aca6-866362b5ef57"},"vehicle_type_id":"4","last_reported":1743109790,"current_range_meters":12800,"station_id":"ce4bh692rcd13ifvqea0","pricing_plan_id":"cebpf4jnsgd1na2vs0mg"},{"bike_id":"53426966-426f-469c-a564-5a4ff76fc112","system_id":"levelo_inurba_marseille","lat":43.290934,"lon":5.381244,"is_reserved":false,"is_disabled":false,"rental_uris":{"android":"levelo://app?vid=53426966-426f-469c-a564-5a4ff76fc112","ios":"levelo://app?vid=53426966-426f-469c-a564-5a4ff76fc112"},"vehicle_type_id":"4","last_reported":1743109790,"current_range_meters":12800,"station_id":"ce4bh512rcd13ifvqe2g","pricing_plan_id":"cebpf4jnsgd1na2vs0mg"},{"bike_id":"7152fad1-7a79-4d14-a14e-f000eca9f301","system_id":"levelo_inurba_marseille","lat":43.2942,"lon":5.38608,"is_reserved":false,"is_disabled":false,"rental_uris":{"android":"levelo://app?vid=7152fad1-7a79-4d14-a14e-f000eca9f301","ios":"levelo://app?vid=7152fad1-7a79-4d14-a14e-f000eca9f301"},"vehicle_type_id":"4","last_reported":1743109790,"current_range_meters":13600,"station_id":"ce4bh2h2rcd13ifvqdh0","pricing_plan_id":"cebpf4jnsgd1na2vs0mg"},{"bike_id":"0a1b87ca-de04-4565-a628-e0103e385156","system_id":"levelo_inurba_marseille","lat":43.30585,"lon":5.39355,"is_reserved":false,"is_disabled":false,"rental_uris":{"android":"levelo://app?vid=0a1b87ca-de04-4565-a628-e0103e385156","ios":"levelo://app?vid=0a1b87ca-de04-4565-a628-e0103e385156"},"vehicle_type_id":"4","last_reported":1743109790,"current_range_meters":13600,"station_id":"ce4bh0p2rcd13ifvqd80","pricing_plan_id":"cebpf4jnsgd1na2vs0mg"},{"bike_id":"659ca563-0e4b-433f-9f33-9c656f76d867","system_id":"levelo_inurba_marseille","lat":43.29635,"lon":5.40598,"is_reserved":false,"is_disabled":false,"rental_uris":{"android":"levelo://app?vid=659ca563-0e4b-433f-9f33-9c656f76d867","ios":"levelo://app?vid=659ca563-0e4b-433f-9f33-9c656f76d867"},"vehicle_type_id":"4","last_reported":1743109790,"current_range_meters":13600,"station_id":"ce4bh0h2rcd13ifvqd60","pricing_plan_id":"cebpf4jnsgd1na2vs0mg"},{"bike_id":"d9af4385-ea05-47b6-826f-ceee9a64db8b","system_id":"levelo_inurba_marseille","lat":43.30415,"lon":5.39749,"is_reserved":false,"is_disabled":false,"rental_uris":{"android":"levelo://app?vid=d9af4385-ea05-47b6-826f-ceee9a64db8b","ios":"levelo://app?vid=d9af4385-ea05-47b6-826f-ceee9a64db8b"},"vehicle_type_id":"4","last_reported":1743109790,"current_range_meters":12800,"station_id":"ce4bh092rcd13ifvqd20","pricing_plan_id":"cebpf4jnsgd1na2vs0mg"},{"bike_id":"63d298de-9614-4f36-890e-9f97830986bc","system_id":"levelo_inurba_marseille","lat":43.31686,"lon":5.40471,"is_reserved":false,"is_disabled":false,"rental_uris":{"android":"levelo://app?vid=63d298de-9614-4f36-890e-9f97830986bc","ios":"levelo://app?vid=63d298de-9614-4f36-890e-9f97830986bc"},"vehicle_type_id":"4","last_reported":1743109790,"current_range_meters":13600,"station_id":"ce4bh012rcd13ifvqd00","pricing_plan_id":"cebpf4jnsgd1na2vs0mg"},{"bike_id":"0c1fcc4b-1e28-416d-afec-227fb1455f9a","system_id":"levelo_inurba_marseille","lat":43.29529,"lon":5.39399,"is_reserved":false,"is_disabled":false,"rental_uris":{"android":"levelo://app?vid=0c1fcc4b-1e28-416d-afec-227fb1455f9a","ios":"levelo://app?vid=0c1fcc4b-1e28-416d-afec-227fb1455f9a"},"vehicle_type_id":"4","last_reported":1743109790,"current_range_meters":13600,"station_id":"ce4bh292rcd13ifvqdf0","pricing_plan_id":"cebpf4jnsgd1na2vs0mg"},{"bike_id":"9fc7a020-16aa-4172-bd26-89dc8004a30e","system_id":"levelo_inurba_marseille","lat":43.31698,"lon":5.40456,"is_reserved":false,"is_disabled":false,"rental_uris":{"android":"levelo://app?vid=9fc7a020-16aa-4172-bd26-89dc8004a30e","ios":"levelo://app?vid=9fc7a020-16aa-4172-bd26-89dc8004a30e"},"vehicle_type_id":"4","last_reported":1743109790,"current_range_meters":14000,"station_id":"ce4bh012rcd13ifvqd00","pricing_plan_id":"cebpf4jnsgd1na2vs0mg"},{"bike_id":"767b3de5-c408-4bff-92a2-6b38b23a008d","system_id":"levelo_inurba_marseille","lat":43.29511,"lon":5.38915,"is_reserved":false,"is_disabled":false,"rental_uris":{"android":"levelo://app?vid=767b3de5-c408-4bff-92a2-6b38b23a008d","ios":"levelo://app?vid=767b3de5-c408-4bff-92a2-6b38b23a008d"},"vehicle_type_id":"4","last_reported":1743109790,"current_range_meters":13600,"station_id":"","pricing_plan_id":"cebpf4jnsgd1na2vs0mg"},{"bike_id":"ad7bfa7b-73b2-4e38-9ff1-f2705b624ecb","system_id":"levelo_inurba_marseille","lat":43.30303,"lon":5.39198,"is_reserved":false,"is_disabled":false,"rental_uris":{"android":"levelo://app?vid=ad7bfa7b-73b2-4e38-9ff1-f2705b624ecb","ios":"levelo://app?vid=ad7bfa7b-73b2-4e38-9ff1-f2705b624ecb"},"vehicle_type_id":"4","last_reported":1743109790,"current_range_meters":13600,"station_id":"ce4bgkh2rcd13ifvqbk0","pricing_plan_id":"cebpf4jnsgd1na2vs0mg"},{"bike_id":"1d31be20-658e-4da1-b929-4b45340b7f67","system_id":"levelo_inurba_marseille","lat":43.29409,"lon":5.38633,"is_reserved":false,"is_disabled":false,"rental_uris":{"android":"levelo://app?vid=1d31be20-658e-4da1-b929-4b45340b7f67","ios":"levelo://app?vid=1d31be20-658e-4da1-b929-4b45340b7f67"},"vehicle_type_id":"4","last_reported":1743109790,"current_range_meters":14000,"station_id":"ce4bh2h2rcd13ifvqdh0","pricing_plan_id":"cebpf4jnsgd1na2vs0mg"},{"bike_id":"a9108b2d-3767-4909-a20b-64076bd66645","system_id":"levelo_inurba_marseille","lat":43.28032,"lon":5.36938,"is_reserved":false,"is_disabled":false,"rental_uris":{"android":"levelo://app?vid=a9108b2d-3767-4909-a20b-64076bd66645","ios":"levelo://app?vid=a9108b2d-3767-4909-a20b-64076bd66645"},"vehicle_type_id":"4","last_reported":1743109790,"current_range_meters":14000,"station_id":"ce4bha12rcd13ifvqef0","pricing_plan_id":"cebpf4jnsgd1na2vs0mg"},{"bike_id":"2aaf5d8a-a2db-47f1-a641-ee450067d761","system_id":"levelo_inurba_marseille","lat":43.29419,"lon":5.38616,"is_reserved":false,"is_disabled":false,"rental_uris":{"android":"levelo://app?vid=2aaf5d8a-a2db-47f1-a641-ee450067d761","ios":"levelo://app?vid=2aaf5d8a-a2db-47f1-a641-ee450067d761"},"vehicle_type_id":"4","last_reported":1743109790,"current_range_meters":14000,"station_id":"ce4bh2h2rcd13ifvqdh0","pricing_plan_id":"cebpf4jnsgd1na2vs0mg"},{"bike_id":"213522d2-34be-42dc-a861-71dacdd3d79c","system_id":"levelo_inurba_marseille","lat":43.25105,"lon":5.40319,"is_reserved":false,"is_disabled":false,"rental_uris":{"android":"levelo://app?vid=213522d2-34be-42dc-a861-71dacdd3d79c","ios":"levelo://app?vid=213522d2-34be-42dc-a861-71dacdd3d79c"},"vehicle_type_id":"4","last_reported":1743109790,"current_range_meters":14000,"station_id":"ce4bhlh2rcd13ifvqgig","pricing_plan_id":"cebpf4jnsgd1na2vs0mg"},{"bike_id":"1fd31148-805e-494f-9131-a8f7732b1161","system_id":"levelo_inurba_marseille","lat":43.30787,"lon":5.38156,"is_reserved":false,"is_disabled":false,"rental_uris":{"android":"levelo://app?vid=1fd31148-805e-494f-9131-a8f7732b1161","ios":"levelo://app?vid=1fd31148-805e-494f-9131-a8f7732b1161"},