{"last_updated":1783278063,"ttl":60,"version":"2.2","data":{"bikes":[{"bike_id":"ba0c28b1-8732-48e2-8079-f25b2b3fbc3c","system_id":"levelo_inurba_marseille","lat":43.337444,"lon":5.374475,"is_reserved":false,"is_disabled":false,"rental_uris":{"android":"levelo://app?vid=ba0c28b1-8732-48e2-8079-f25b2b3fbc3c","ios":"levelo://app?vid=ba0c28b1-8732-48e2-8079-f25b2b3fbc3c"},"vehicle_type_id":"4","last_reported":1783278064,"current_range_meters":0,"station_id":"","pricing_plan_id":"cebpf4jnsgd1na2vs0mg"},{"bike_id":"4c69c3b0-c0da-4829-a42b-a057c1015553","system_id":"levelo_inurba_marseille","lat":43.29576,"lon":5.37493,"is_reserved":false,"is_disabled":false,"rental_uris":{"android":"levelo://app?vid=4c69c3b0-c0da-4829-a42b-a057c1015553","ios":"levelo://app?vid=4c69c3b0-c0da-4829-a42b-a057c1015553"},"vehicle_type_id":"4","last_reported":1783278064,"current_range_meters":2800,"station_id":"ce4bgh92rcd13ifvqb50","pricing_plan_id":"cebpf4jnsgd1na2vs0mg"},{"bike_id":"bf4e3ec7-1fda-4f06-9aed-28b9517289a7","system_id":"levelo_inurba_marseille","lat":43.24804,"lon":5.37453,"is_reserved":false,"is_disabled":false,"rental_uris":{"android":"levelo://app?vid=bf4e3ec7-1fda-4f06-9aed-28b9517289a7","ios":"levelo://app?vid=bf4e3ec7-1fda-4f06-9aed-28b9517289a7"},"vehicle_type_id":"4","last_reported":1783278064,"current_range_meters":2800,"station_id":"ce4bhgh2rcd13ifvqfb0","pricing_plan_id":"cebpf4jnsgd1na2vs0mg"},{"bike_id":"367e2c77-1840-403a-b532-0336e7732bd2","system_id":"levelo_inurba_marseille","lat":43.25572,"lon":5.38218,"is_reserved":false,"is_disabled":true,"rental_uris":{"android":"levelo://app?vid=367e2c77-1840-403a-b532-0336e7732bd2","ios":"levelo://app?vid=367e2c77-1840-403a-b532-0336e7732bd2"},"vehicle_type_id":"4","last_reported":1783278064,"current_range_meters":2800,"station_id":"ce4bhih2rcd13ifvqfs0","pricing_plan_id":"cebpf4jnsgd1na2vs0mg"},{"bike_id":"1b1a88c0-d672-4e8c-8edb-1da21a043373","system_id":"levelo_inurba_marseille","lat":43.30249,"lon":5.400571,"is_reserved":false,"is_disabled":false,"rental_uris":{"android":"levelo://app?vid=1b1a88c0-d672-4e8c-8edb-1da21a043373","ios":"levelo://app?vid=1b1a88c0-d672-4e8c-8edb-1da21a043373"},"vehicle_type_id":"4","last_reported":1783278064,"current_range_meters":2800,"station_id":"ce4bgvh2rcd13ifvqcs0","pricing_plan_id":"cebpf4jnsgd1na2vs0mg"},{"bike_id":"f8904c74-6830-40fe-b3c8-4f67e33c09e0","system_id":"levelo_inurba_marseille","lat":43.29807,"lon":5.37166,"is_reserved":false,"is_disabled":false,"rental_uris":{"android":"levelo://app?vid=f8904c74-6830-40fe-b3c8-4f67e33c09e0","ios":"levelo://app?vid=f8904c74-6830-40fe-b3c8-4f67e33c09e0"},"vehicle_type_id":"4","last_reported":1783278064,"current_range_meters":2800,"station_id":"","pricing_plan_id":"cebpf4jnsgd1na2vs0mg"},{"bike_id":"6cc0f9f2-f632-46df-9265-29809c873f77","system_id":"levelo_inurba_marseille","lat":43.30946,"lon":5.39031,"is_reserved":false,"is_disabled":false,"rental_uris":{"android":"levelo://app?vid=6cc0f9f2-f632-46df-9265-29809c873f77","ios":"levelo://app?vid=6cc0f9f2-f632-46df-9265-29809c873f77"},"vehicle_type_id":"4","last_reported":1783278064,"current_range_meters":2800,"station_id":"ce4bgup2rcd13ifvqco0","pricing_plan_id":"cebpf4jnsgd1na2vs0mg"},{"bike_id":"36fa18cd-82fd-49e4-b626-15a1a7621596","system_id":"levelo_inurba_marseille","lat":43.28154,"lon":5.4264,"is_reserved":false,"is_disabled":false,"rental_uris":{"android":"levelo://app?vid=36fa18cd-82fd-49e4-b626-15a1a7621596","ios":"levelo://app?vid=36fa18cd-82fd-49e4-b626-15a1a7621596"},"vehicle_type_id":"4","last_reported":1783278064,"current_range_meters":2800,"station_id":"ce4bhnh2rcd13ifvqgug","pricing_plan_id":"cebpf4jnsgd1na2vs0mg"},{"bike_id":"f21c7323-47b8-4f13-8c3b-8d53d8a4ea97","system_id":"levelo_inurba_marseille","lat":43.27376,"lon":5.36253,"is_reserved":false,"is_disabled":false,"rental_uris":{"android":"levelo://app?vid=f21c7323-47b8-4f13-8c3b-8d53d8a4ea97","ios":"levelo://app?vid=f21c7323-47b8-4f13-8c3b-8d53d8a4ea97"},"vehicle_type_id":"4","last_reported":1783278064,"current_range_meters":2800,"station_id":"ce4bhbh2rcd13ifvqeo0","pricing_plan_id":"cebpf4jnsgd1na2vs0mg"},{"bike_id":"4e975736-7a91-489b-97d7-cf5d307bd4d6","system_id":"levelo_inurba_marseille","lat":43.29265,"lon":5.37631,"is_reserved":false,"is_disabled":false,"rental_uris":{"android":"levelo://app?vid=4e975736-7a91-489b-97d7-cf5d307bd4d6","ios":"levelo://app?vid=4e975736-7a91-489b-97d7-cf5d307bd4d6"},"vehicle_type_id":"4","last_reported":1783278064,"current_range_meters":2800,"station_id":"ce4bgi12rcd13ifvqb80","pricing_plan_id":"cebpf4jnsgd1na2vs0mg"},{"bike_id":"e8681717-72d3-496d-8982-2138fb8d1cca","system_id":"levelo_inurba_marseille","lat":43.28703,"lon":5.37382,"is_reserved":false,"is_disabled":false,"rental_uris":{"android":"levelo://app?vid=e8681717-72d3-496d-8982-2138fb8d1cca","ios":"levelo://app?vid=e8681717-72d3-496d-8982-2138fb8d1cca"},"vehicle_type_id":"4","last_reported":1783278064,"current_range_meters":2800,"station_id":"ce4bh3p2rcd13ifvqdq0","pricing_plan_id":"cebpf4jnsgd1na2vs0mg"},{"bike_id":"61cd84df-f76f-41ad-9da2-1b4df883e51c","system_id":"levelo_inurba_marseille","lat":43.26249,"lon":5.38968,"is_reserved":false,"is_disabled":false,"rental_uris":{"android":"levelo://app?vid=61cd84df-f76f-41ad-9da2-1b4df883e51c","ios":"levelo://app?vid=61cd84df-f76f-41ad-9da2-1b4df883e51c"},"vehicle_type_id":"4","last_reported":1783278064,"current_range_meters":2800,"station_id":"","pricing_plan_id":"cebpf4jnsgd1na2vs0mg"},{"bike_id":"50aa6815-cb65-48bd-999a-1d2dfbbe24c7","system_id":"levelo_inurba_marseille","lat":43.28481,"lon":5.48393,"is_reserved":false,"is_disabled":false,"rental_uris":{"android":"levelo://app?vid=50aa6815-cb65-48bd-999a-1d2dfbbe24c7","ios":"levelo://app?vid=50aa6815-cb65-48bd-999a-1d2dfbbe24c7"},"vehicle_type_id":"4","last_reported":1783278064,"current_range_meters":3200,"station_id":"st_d3svhcjqgbts73a3dn0g","pricing_plan_id":"cebpf4jnsgd1na2vs0mg"},{"bike_id":"4d6d311a-dfd1-491b-a63d-863b4088b2eb","system_id":"levelo_inurba_marseille","lat":43.29945,"lon":5.3652,"is_reserved":false,"is_disabled":false,"rental_uris":{"android":"levelo://app?vid=4d6d311a-dfd1-491b-a63d-863b4088b2eb","ios":"levelo://app?vid=4d6d311a-dfd1-491b-a63d-863b4088b2eb"},"vehicle_type_id":"4","last_reported":1783278064,"current_range_meters":3200,"station_id":"ce4bgm92rcd13ifvqbr0","pricing_plan_id":"cebpf4jnsgd1na2vs0mg"},{"bike_id":"b7c7c1e8-84e9-49fb-a54d-fbe5086cd61a","system_id":"levelo_inurba_marseille","lat":43.27834,"lon":5.40705,"is_reserved":false,"is_disabled":true,"rental_uris":{"android":"levelo://app?vid=b7c7c1e8-84e9-49fb-a54d-fbe5086cd61a","ios":"levelo://app?vid=b7c7c1e8-84e9-49fb-a54d-fbe5086cd61a"},"vehicle_type_id":"4","last_reported":1783278064,"current_range_meters":3200,"station_id":"ce4bhnh2rcd13ifvqgtg","pricing_plan_id":"cebpf4jnsgd1na2vs0mg"},{"bike_id":"3edad406-7310-4441-b103-43aa843ff572","system_id":"levelo_inurba_marseille","lat":43.27926,"lon":5.37218,"is_reserved":false,"is_disabled":false,"rental_uris":{"android":"levelo://app?vid=3edad406-7310-4441-b103-43aa843ff572","ios":"levelo://app?vid=3edad406-7310-4441-b103-43aa843ff572"},"vehicle_type_id":"4","last_reported":1783278064,"current_range_meters":3200,"station_id":"","pricing_plan_id":"cebpf4jnsgd1na2vs0mg"},{"bike_id":"4c907ce7-e11d-49a7-8a2b-f8e6d28203bb","system_id":"levelo_inurba_marseille","lat":43.28852,"lon":5.42525,"is_reserved":false,"is_disabled":false,"rental_uris":{"android":"levelo://app?vid=4c907ce7-e11d-49a7-8a2b-f8e6d28203bb","ios":"levelo://app?vid=4c907ce7-e11d-49a7-8a2b-f8e6d28203bb"},"vehicle_type_id":"4","last_reported":1783278064,"current_range_meters":3200,"station_id":"st_d3b462108ojc7389ooeg","pricing_plan_id":"cebpf4jnsgd1na2vs0mg"},{"bike_id":"693afbfa-e70f-40d9-9271-5aba390db9b6","system_id":"levelo_inurba_marseille","lat":43.24106,"lon":5.36277,"is_reserved":false,"is_disabled":false,"rental_uris":{"android":"levelo://app?vid=693afbfa-e70f-40d9-9271-5aba390db9b6","ios":"levelo://app?vid=693afbfa-e70f-40d9-9271-5aba390db9b6"},"vehicle_type_id":"4","last_reported":1783278064,"current_range_meters":3200,"station_id":"","pricing_plan_id":"cebpf4jnsgd1na2vs0mg"},{"bike_id":"621170ce-2cb6-41d0-8f2a-e93ee9e7e527","system_id":"levelo_inurba_marseille","lat":43.29274,"lon":5.36832,"is_reserved":false,"is_disabled":false,"rental_uris":{"android":"levelo://app?vid=621170ce-2cb6-41d0-8f2a-e93ee9e7e527","ios":"levelo://app?vid=621170ce-2cb6-41d0-8f2a-e93ee9e7e527"},"vehicle_type_id":"4","last_reported":1783278064,"current_range_meters":3200,"station_id":"ce4bhbp2rcd13ifvqesg","pricing_plan_id":"cebpf4jnsgd1na2vs0mg"},{"bike_id":"52ace7be-9f4b-46db-ba1b-0457fedf99eb","system_id":"levelo_inurba_marseille","lat":43.28471,"lon":5.38395,"is_reserved":false,"is_disabled":false,"rental_uris":{"android":"levelo://app?vid=52ace7be-9f4b-46db-ba1b-0457fedf99eb","ios":"levelo://app?vid=52ace7be-9f4b-46db-ba1b-0457fedf99eb"},"vehicle_type_id":"4","last_reported":1783278064,"current_range_meters":3200,"station_id":"ce4bh512rcd13ifvqe3g","pricing_plan_id":"cebpf4jnsgd1na2vs0mg"},{"bike_id":"b062a637-2d11-447f-94d0-45150f1d63f6","system_id":"levelo_inurba_marseille","lat":43.34404,"lon":5.42038,"is_reserved":false,"is_disabled":false,"rental_uris":{"android":"levelo://app?vid=b062a637-2d11-447f-94d0-45150f1d63f6","ios":"levelo://app?vid=b062a637-2d11-447f-94d0-45150f1d63f6"},"vehicle_type_id":"4","last_reported":1783278064,"current_range_meters":3200,"station_id":"","pricing_plan_id":"cebpf4jnsgd1na2vs0mg"},{"bike_id":"0a9ebcff-1b56-45db-9b33-1cda38943cf9","system_id":"levelo_inurba_marseille","lat":43.2449,"lon":5.40729,"is_reserved":false,"is_disabled":false,"rental_uris":{"android":"levelo://app?vid=0a9ebcff-1b56-45db-9b33-1cda38943cf9","ios":"levelo://app?vid=0a9ebcff-1b56-45db-9b33-1cda38943cf9"},"vehicle_type_id":"4","last_reported":1783278064,"current_range_meters":3200,"station_id":"","pricing_plan_id":"cebpf4jnsgd1na2vs0mg"},{"bike_id":"d15dadde-3b63-4d50-a86e-44ec4ce0b06a","system_id":"levelo_inurba_marseille","lat":43.28252,"lon":5.34771,"is_reserved":false,"is_disabled":false,"rental_uris":{"android":"levelo://app?vid=d15dadde-3b63-4d50-a86e-44ec4ce0b06a","ios":"levelo://app?vid=d15dadde-3b63-4d50-a86e-44ec4ce0b06a"},"vehicle_type_id":"4","last_reported":1783278064,"current_range_meters":3200,"station_id":"","pricing_plan_id":"cebpf4jnsgd1na2vs0mg"},{"bike_id":"273a1815-c188-4cdf-be51-f4e50310c9a7","system_id":"levelo_inurba_marseille","lat":43.29257,"lon":5.37626,"is_reserved":false,"is_disabled":false,"rental_uris":{"android":"levelo://app?vid=273a1815-c188-4cdf-be51-f4e50310c9a7","ios":"levelo://app?vid=273a1815-c188-4cdf-be51-f4e50310c9a7"},"vehicle_type_id":"4","last_reported":1783278064,"current_range_meters":3200,"station_id":"ce4bgi12rcd13ifvqb80","pricing_plan_id":"cebpf4jnsgd1na2vs0mg"},{"bike_id":"adf781d1-b3dc-4123-b375-519d6858951a","system_id":"levelo_inurba_marseille","lat":43.26197,"lon":5.37923,"is_reserved":false,"is_disabled":false,"rental_uris":{"android":"levelo://app?vid=adf781d1-b3dc-4123-b375-519d6858951a","ios":"levelo://app?vid=adf781d1-b3dc-4123-b375-519d6858951a"},"vehicle_type_id":"4","last_reported":1783278064,"current_range_meters":3200,"station_id":"ce4bhjp2rcd13ifvqg90","pricing_plan_id":"cebpf4jnsgd1na2vs0mg"},{"bike_id":"5658cfe3-ed59-45e9-8a44-0561163fcd3f","system_id":"levelo_inurba_marseille","lat":43.30845,"lon":5.40498,"is_reserved":false,"is_disabled":false,"rental_uris":{"android":"levelo://app?vid=5658cfe3-ed59-45e9-8a44-0561163fcd3f","ios":"levelo://app?vid=5658cfe3-ed59-45e9-8a44-0561163fcd3f"},"vehicle_type_id":"4","last_reported":1783278064,"current_range_meters":3200,"station_id":"","pricing_plan_id":"cebpf4jnsgd1na2vs0mg"},{"bike_id":"94fb7598-a25f-4a60-b73d-63dddeecfc92","system_id":"levelo_inurba_marseille","lat":43.25245,"lon":5.40036,"is_reserved":false,"is_disabled":false,"rental_uris":{"android":"levelo://app?vid=94fb7598-a25f-4a60-b73d-63dddeecfc92","ios":"levelo://app?vid=94fb7598-a25f-4a60-b73d-63dddeecfc92"},"vehicle_type_id":"4","last_reported":1783278064,"current_range_meters":3200,"station_id":"","pricing_plan_id":"cebpf4jnsgd1na2vs0mg"},{"bike_id":"93dd58f7-b98d-4841-87f3-ba036fa6270e","system_id":"levelo_inurba_marseille","lat":43.29221,"lon":5.36073,"is_reserved":false,"is_disabled":false,"rental_uris":{"android":"levelo://app?vid=93dd58f7-b98d-4841-87f3-ba036fa6270e","ios":"levelo://app?vid=93dd58f7-b98d-4841-87f3-ba036fa6270e"},"vehicle_type_id":"4","last_reported":1783278064,"current_range_meters":3200,"station_id":"ce4bhbh2rcd13ifvqeqg","pricing_plan_id":"cebpf4jnsgd1na2vs0mg"},{"bike_id":"cdb96f67-4069-4baa-a896-228f7764dacd","system_id":"levelo_inurba_marseille","lat":43.29543,"lon":5.37901,"is_reserved":false,"is_disabled":false,"rental_uris":{"android":"levelo://app?vid=cdb96f67-4069-4baa-a896-228f7764dacd","ios":"levelo://app?vid=cdb96f67-4069-4baa-a896-228f7764dacd"},"vehicle_type_id":"4","last_reported":1783278064,"current_range_meters":3600,"station_id":"","pricing_plan_id":"cebpf4jnsgd1na2vs0mg"},{"bike_id":"3bc6d12d-59c0-4162-9cda-07f3d37dc2e0","system_id":"levelo_inurba_marseille","lat":43.24437,"lon":5.4029,"is_reserved":false,"is_disabled":false,"rental_uris":{"android":"levelo://app?vid=3bc6d12d-59c0-4162-9cda-07f3d37dc2e0","ios":"levelo://app?vid=3bc6d12d-59c0-4162-9cda-07f3d37dc2e0"},"vehicle_type_id":"4","last_reported":1783278064,"current_range_meters":3600,"station_id":"","pricing_plan_id":"cebpf4jnsgd1na2vs0mg"},{"bike_id":"60527a9f-8061-4789-8b36-b567868ec420","system_id":"levelo_inurba_marseille","lat":43.29305,"lon":5.3715,"is_reserved":false,"is_disabled":false,"rental_uris":{"android":"levelo://app?vid=60527a9f-8061-4789-8b36-b567868ec420","ios":"levelo://app?vid=60527a9f-8061-4789-8b36-b567868ec420"},"vehicle_type_id":"4","last_reported":1783278064,"current_range_meters":3600,"station_id":"ce4bgh92rcd13ifvqb40","pricing_plan_id":"cebpf4jnsgd1na2vs0mg"},{"bike_id":"0df3073c-4d91-4aad-99ca-3266164a2dbe","system_id":"levelo_inurba_marseille","lat":43.28408,"lon":5.37515,"is_reserved":false,"is_disabled":true,"rental_uris":{"android":"levelo://app?vid=0df3073c-4d91-4aad-99ca-3266164a2dbe","ios":"levelo://app?vid=0df3073c-4d91-4aad-99ca-3266164a2dbe"},"vehicle_type_id":"4","last_reported":1783278064,"current_range_meters":3600,"station_id":"ce4bh412rcd13ifvqds0","pricing_plan_id":"cebpf4jnsgd1na2vs0mg"},{"bike_id":"c4e67a02-d904-4f02-86bf-6b3800bdc3aa","system_id":"levelo_inurba_marseille","lat":43.23373,"lon":5.41229,"is_reserved":false,"is_disabled":false,"rental_uris":{"android":"levelo://app?vid=c4e67a02-d904-4f02-86bf-6b3800bdc3aa","ios":"levelo://app?vid=c4e67a02-d904-4f02-86bf-6b3800bdc3aa"},"vehicle_type_id":"4","last_reported":1783278064,"current_range_meters":3600,"station_id":"st_d75pvndhf9lc73cqq3eg","pricing_plan_id":"cebpf4jnsgd1na2vs0mg"},{"bike_id":"f5a68b71-3761-443f-a16c-225019d233b9","system_id":"levelo_inurba_marseille","lat":43.25347,"lon":5.37532,"is_reserved":false,"is_disabled":false,"rental_uris":{"android":"levelo://app?vid=f5a68b71-3761-443f-a16c-225019d233b9","ios":"levelo://app?vid=f5a68b71-3761-443f-a16c-225019d233b9"},"vehicle_type_id":"4","last_reported":1783278064,"current_range_meters":3600,"station_id":"","pricing_plan_id":"cebpf4jnsgd1na2vs0mg"},{"bike_id":"cfb5cb49-1dbb-440d-92b0-62658954cc48","system_id":"levelo_inurba_marseille","lat":43.29268,"lon":5.40141,"is_reserved":false,"is_disabled":false,"rental_uris":{"android":"levelo://app?vid=cfb5cb49-1dbb-440d-92b0-62658954cc48","ios":"levelo://app?vid=cfb5cb49-1dbb-440d-92b0-62658954cc48"},"vehicle_type_id":"4","last_reported":1783278064,"current_range_meters":3600,"station_id":"ce4bh312rcd13ifvqdk0","pricing_plan_id":"cebpf4jnsgd1na2vs0mg"},{"bike_id":"f4c490b5-dc48-483a-b891-cbc3d779a738","system_id":"levelo_inurba_marseille","lat":43.31584,"lon":5.38804,"is_reserved":false,"is_disabled":false,"rental_uris":{"android":"levelo://app?vid=f4c490b5-dc48-483a-b891-cbc3d779a738","ios":"levelo://app?vid=f4c490b5-dc48-483a-b891-cbc3d779a738"},"vehicle_type_id":"4","last_reported":1783278064,"current_range_meters":3600,"station_id":"","pricing_plan_id":"cebpf4jnsgd1na2vs0mg"},{"bike_id":"1cdf32d4-4b29-46a6-b858-620f8744201c","system_id":"levelo_inurba_marseille","lat":43.29275,"lon":5.36833,"is_reserved":false,"is_disabled":false,"rental_uris":{"android":"levelo://app?vid=1cdf32d4-4b29-46a6-b858-620f8744201c","ios":"levelo://app?vid=1cdf32d4-4b29-46a6-b858-620f8744201c"},"vehicle_type_id":"4","last_reported":1783278064,"current_range_meters":3600,"station_id":"ce4bhbp2rcd13ifvqesg","pricing_plan_id":"cebpf4jnsgd1na2vs0mg"},{"bike_id":"95d3091f-351a-4a89-967f-3b98cf21ce29","system_id":"levelo_inurba_marseille","lat":43.29025,"lon":5.39961,"is_reserved":false,"is_disabled":false,"rental_uris":{"android":"levelo://app?vid=95d3091f-351a-4a89-967f-3b98cf21ce29","ios":"levelo://app?vid=95d3091f-351a-4a89-967f-3b98cf21ce29"},"vehicle_type_id":"4","last_reported":1783278064,"current_range_meters":3600,"station_id":"ce4bh392rcd13ifvqdm0","pricing_plan_id":"cebpf4jnsgd1na2vs0mg"},{"bike_id":"b2efba2d-fb46-4dbc-98ef-fb4eb7102cb6","system_id":"levelo_inurba_marseille","lat":43.31076,"lon":5.37158,"is_reserved":false,"is_disabled":false,"rental_uris":{"android":"levelo://app?vid=b2efba2d-fb46-4dbc-98ef-fb4eb7102cb6","ios":"levelo://app?vid=b2efba2d-fb46-4dbc-98ef-fb4eb7102cb6"},"vehicle_type_id":"4","last_reported":1783278064,"current_range_meters":3600,"station_id":"st_d4kl2rp97mjs73e7tdfg","pricing_plan_id":"cebpf4jnsgd1na2vs0mg"},{"bike_id":"63a7dd5c-376f-4474-8bde-e47efc056c86","system_id":"levelo_inurba_marseille","lat":43.28107,"lon":5.37839,"is_reserved":false,"is_disabled":false,"rental_uris":{"android":"levelo://app?vid=63a7dd5c-376f-4474-8bde-e47efc056c86","ios":"levelo://app?vid=63a7dd5c-376f-4474-8bde-e47efc056c86"},"vehicle_type_id":"4","last_reported":1783278064,"current_range_meters":3600,"station_id":"ce4bha12rcd13ifvqee0","pricing_plan_id":"cebpf4jnsgd1na2vs0mg"},{"bike_id":"a15aca3b-d38c-4672-a6e1-4be95f0db29f","system_id":"levelo_inurba_marseille","lat":43.29621,"lon":5.37156,"is_reserved":false,"is_disabled":false,"rental_uris":{"android":"levelo://app?vid=a15aca3b-d38c-4672-a6e1-4be95f0db29f","ios":"levelo://app?vid=a15aca3b-d38c-4672-a6e1-4be95f0db29f"},"vehicle_type_id":"4","last_reported":1783278064,"current_range_meters":3600,"station_id":"","pricing_plan_id":"cebpf4jnsgd1na2vs0mg"},{"bike_id":"834588c4-4ddc-4f19-9127-2f847e9e40c9","system_id":"levelo_inurba_marseille","lat":43.27235,"lon":5.39184,"is_reserved":false,"is_disabled":false,"rental_uris":{"android":"levelo://app?vid=834588c4-4ddc-4f19-9127-2f847e9e40c9","ios":"levelo://app?vid=834588c4-4ddc-4f19-9127-2f847e9e40c9"},"vehicle_type_id":"4","last_reported":1783278064,"current_range_meters":3600,"station_id":"ce4bhhp2rcd13ifvqfm0","pricing_plan_id":"cebpf4jnsgd1na2vs0mg"},{"bike_id":"7edfeda0-aabc-4831-80ea-e1899692abc6","system_id":"levelo_inurba_marseille","lat":43.28713,"lon":5.37386,"is_reserved":false,"is_disabled":false,"rental_uris":{"android":"levelo://app?vid=7edfeda0-aabc-4831-80ea-e1899692abc6","ios":"levelo://app?vid=7edfeda0-aabc-4831-80ea-e1899692abc6"},"vehicle_type_id":"4","last_reported":1783278064,"current_range_meters":3600,"station_id":"ce4bh3p2rcd13ifvqdq0","pricing_plan_id":"cebpf4jnsgd1na2vs0mg"},{"bike_id":"52300823-fe8c-4164-bae9-6fed9f6cdb22","system_id":"levelo_inurba_marseille","lat":43.301555,"lon":5.387902,"is_reserved":false,"is_disabled":false,"rental_uris":{"android":"levelo://app?vid=52300823-fe8c-4164-bae9-6fed9f6cdb22","ios":"levelo://app?vid=52300823-fe8c-4164-bae9-6fed9f6cdb22"},"vehicle_type_id":"4","last_reported":1783278064,"current_range_meters":3600,"station_id":"ce4bghh2rcd13ifvqb60","pricing_plan_id":"cebpf4jnsgd1na2vs0mg"},{"bike_id":"294e461c-6b5b-4f2e-b2b4-7af0ddcc3391","system_id":"levelo_inurba_marseille","lat":43.27055,"lon":5.38304,"is_reserved":false,"is_disabled":false,"rental_uris":{"android":"levelo://app?vid=294e461c-6b5b-4f2e-b2b4-7af0ddcc3391","ios":"levelo://app?vid=294e461c-6b5b-4f2e-b2b4-7af0ddcc3391"},"vehicle_type_id":"4","last_reported":1783278064,"current_range_meters":3600,"station_id":"st_d3n2fo6cfp8s73cte1j0","pricing_plan_id":"cebpf4jnsgd1na2vs0mg"},{"bike_id":"696dc738-3c86-46fd-93b8-7bc1359ff003","system_id":"levelo_inurba_marseille","lat":43.25704,"lon":5.41063,"is_reserved":false,"is_disabled":false,"rental_uris":{"android":"levelo://app?vid=696dc738-3c86-46fd-93b8-7bc1359ff003","ios":"levelo://app?vid=696dc738-3c86-46fd-93b8-7bc1359ff003"},"vehicle_type_id":"4","last_reported":1783278064,"current_range_meters":3600,"station_id":"ce4bhkp2rcd13ifvqgd0","pricing_plan_id":"cebpf4jnsgd1na2vs0mg"},{"bike_id":"94b4f71d-f5a4-4a34-a005-11d834851ce0","system_id":"levelo_inurba_marseille","lat":43.29631,"lon":5.37722,"is_reserved":false,"is_disabled":false,"rental_uris":{"android":"levelo://app?vid=94b4f71d-f5a4-4a34-a005-11d834851ce0","ios":"levelo://app?vid=94b4f71d-f5a4-4a34-a005-11d834851ce0"},"vehicle_type_id":"4","last_reported":1783278064,"current_range_meters":4000,"station_id":"ce4bgi92rcd13ifvqb90","pricing_plan_id":"cebpf4jnsgd1na2vs0mg"},{"bike_id":"0ae27b3b-d38f-4118-b04e-7baffad1aebf","system_id":"levelo_inurba_marseille","lat":43.3157,"lon":5.38807,"is_reserved":false,"is_disabled":false,"rental_uris":{"android":"levelo://app?vid=0ae27b3b-d38f-4118-b04e-7baffad1aebf","ios":"levelo://app?vid=0ae27b3b-d38f-4118-b04e-7baffad1aebf"},"vehicle_type_id":"4","last_reported":1783278064,"current_range_meters":4000,"station_id":"","pricing_plan_id":"cebpf4jnsgd1na2vs0mg"},{"bike_id":"1afd20d6-d483-4adf-95ab-4266ebd462f5","system_id":"levelo_inurba_marseille","lat":43.28717,"lon":5.36392,"is_reserved":false,"is_disabled":false,"rental_uris":{"android":"levelo://app?vid=1afd20d6-d483-4adf-95ab-4266ebd462f5","ios":"levelo://app?vid=1afd20d6-d483-4adf-95ab-4266ebd462f5"},"vehicle_type_id":"4","last_reported":1783278064,"current_range_meters":4000,"station_id":"","pricing_plan_id":"cebpf4jnsgd1na2vs0mg"},{"bike_id":"de6914c1-a127-4bad-9192-c1a2795bb81d","system_id":"levelo_inurba_marseille","lat":43.21202,"lon":5.35063,"is_reserved":false,"is_disabled":false,"rental_uris":{"android":"levelo://app?vid=de6914c1-a127-4bad-9192-c1a2795bb81d","ios":"levelo://app?vid=de6914c1-a127-4bad-9192-c1a2795bb81d"},"vehicle_type_id":"4","last_reported":1783278064,"current_range_meters":4000,"station_id":"st_cvj6sg6p6f1abm77japg","pricing_plan_id":"cebpf4jnsgd1na2vs0mg"},{"bike_id":"40c60d26-7793-4225-aaf2-3a67b9faf4fc","system_id":"levelo_inurba_marseille","lat":43.23484,"lon":5.38062,"is_reserved":false,"is_disabled":false,"rental_uris":{"android":"levelo://app?vid=40c60d26-7793-4225-aaf2-3a67b9faf4fc","ios":"levelo://app?vid=40c60d26-7793-4225-aaf2-3a67b9faf4fc"},"vehicle_type_id":"4","last_reported":1783278064,"current_range_meters":4000,"station_id":"","pricing_plan_id":"cebpf4jnsgd1na2vs0mg"},{"bike_id":"827b7a8c-7d4a-47c3-aa86-889d2054d5de","system_id":"levelo_inurba_marseille","lat":43.26935,"lon":5.38616,"is_reserved":false,"is_disabled":false,"rental_uris":{"android":"levelo://app?vid=827b7a8c-7d4a-47c3-aa86-889d2054d5de","ios":"levelo://app?vid=827b7a8c-7d4a-47c3-aa86-889d2054d5de"},"vehicle_type_id":"4","last_reported":1783278064,"current_range_meters":4000,"station_id":"ce4bhh92rcd13ifvqfh0","pricing_plan_id":"cebpf4jnsgd1na2vs0mg"},{"bike_id":"640e9eab-79f7-4cdb-9553-46f3d8fc9a9e","system_id":"levelo_inurba_marseille","lat":43.21188,"lon":5.35081,"is_reserved":false,"is_disabled":false,"rental_uris":{"android":"levelo://app?vid=640e9eab-79f7-4cdb-9553-46f3d8fc9a9e","ios":"levelo://app?vid=640e9eab-79f7-4cdb-9553-46f3d8fc9a9e"},"vehicle_type_id":"4","last_reported":1783278064,"current_range_meters":4000,"station_id":"st_cvj6sg6p6f1abm77japg","pricing_plan_id":"cebpf4jnsgd1na2vs0mg"},{"bike_id":"7f220556-b0a6-468b-9882-f75938e7d4c9","system_id":"levelo_inurba_marseille","lat":43.27328,"lon":5.39086,"is_reserved":false,"is_disabled":true,"rental_uris":{"android":"levelo://app?vid=7f220556-b0a6-468b-9882-f75938e7d4c9","ios":"levelo://app?vid=7f220556-b0a6-468b-9882-f75938e7d4c9"},"vehicle_type_id":"4","last_reported":1783278064,"current_range_meters":4000,"station_id":"ce4bhgp2rcd13ifvqfe0","pricing_plan_id":"cebpf4jnsgd1na2vs0mg"},{"bike_id":"bde4fe8f-be40-4b5e-85e0-e4fdf22fb694","system_id":"levelo_inurba_marseille","lat":43.29273,"lon":5.36847,"is_reserved":false,"is_disabled":true,"rental_uris":{"android":"levelo://app?vid=bde4fe8f-be40-4b5e-85e0-e4fdf22fb694","ios":"levelo://app?vid=bde4fe8f-be40-4b5e-85e0-e4fdf22fb694"},"vehicle_type_id":"4","last_reported":1783278064,"current_range_meters":4000,"station_id":"ce4bhbp2rcd13ifvqesg","pricing_plan_id":"cebpf4jnsgd1na2vs0mg"},{"bike_id":"1d50f39f-2dd2-4e54-975f-1d1eb297c0df","system_id":"levelo_inurba_marseille","lat":43.28486,"lon":5.38419,"is_reserved":false,"is_disabled":false,"rental_uris":{"android":"levelo://app?vid=1d50f39f-2dd2-4e54-975f-1d1eb297c0df","ios":"levelo://app?vid=1d50f39f-2dd2-4e54-975f-1d1eb297c0df"},"vehicle_type_id":"4","last_reported":1783278064,"current_range_meters":4000,"station_id":"ce4bh512rcd13ifvqe3g","pricing_plan_id":"cebpf4jnsgd1na2vs0mg"},{"bike_id":"e2770b29-2b53-4a1b-b237-7b8799569b06","system_id":"levelo_inurba_marseille","lat":43.29512,"lon":5.39404,"is_reserved":false,"is_disabled":true,"rental_uris":{"android":"levelo://app?vid=e2770b29-2b53-4a1b-b237-7b8799569b06","ios":"levelo://app?vid=e2770b29-2b53-4a1b-b237-7b8799569b06"},"vehicle_type_id":"4","last_reported":1783278064,"current_range_meters":4000,"station_id":"ce4bh292rcd13ifvqdf0","pricing_plan_id":"cebpf4jnsgd1na2vs0mg"},{"bike_id":"87598ed7-b27b-4140-aaea-c015765247bb","system_id":"levelo_inurba_marseille","lat":43.212,"lon":5.35071,"is_reserved":false,"is_disabled":false,"rental_uris":{"android":"levelo://app?vid=87598ed7-b27b-4140-aaea-c015765247bb","ios":"levelo://app?vid=87598ed7-b27b-4140-aaea-c015765247bb"},"vehicle_type_id":"4","last_reported":1783278064,"current_range_meters":4000,"station_id":"st_cvj6sg6p6f1abm77japg","pricing_plan_id":"cebpf4jnsgd1na2vs0mg"},{"bike_id":"f8db3936-92a6-47e3-b1ac-3b2c051c89ef","system_id":"levelo_inurba_marseille","lat":43.29713,"lon":5.36605,"is_reserved":false,"is_disabled":false,"rental_uris":{"android":"levelo://app?vid=f8db3936-92a6-47e3-b1ac-3b2c051c89ef","ios":"levelo://app?vid=f8db3936-92a6-47e3-b1ac-3b2c051c89ef"},"vehicle_type_id":"4","last_reported":1783278064,"current_range_meters":4000,"station_id":"ce4bgn12rcd13ifvqbt0","pricing_plan_id":"cebpf4jnsgd1na2vs0mg"},{"bike_id":"7a71c416-c3b5-4289-ad0e-531bcb18f06d","system_id":"levelo_inurba_marseille","lat":43.33245,"lon":5.38033,"is_reserved":false,"is_disabled":false,"rental_uris":{"android":"levelo://app?vid=7a71c416-c3b5-4289-ad0e-531bcb18f06d","ios":"levelo://app?vid=7a71c416-c3b5-4289-ad0e-531bcb18f06d"},"vehicle_type_id":"4","last_reported":1783278064,"current_range_meters":4000,"station_id":"","pricing_plan_id":"cebpf4jnsgd1na2vs0mg"},{"bike_id":"8c51c550-068e-4ee8-9e6b-2b6156bd353f","system_id":"levelo_inurba_marseille","lat":43.30189,"lon":5.36611,"is_reserved":false,"is_disabled":true,"rental_uris":{"android":"levelo://app?vid=8c51c550-068e-4ee8-9e6b-2b6156bd353f","ios":"levelo://app?vid=8c51c550-068e-4ee8-9e6b-2b6156bd353f"},"vehicle_type_id":"4","last_reported":1783278064,"current_range_meters":4000,"station_id":"ce4bgrh2rcd13ifvqc8g","pricing_plan_id":"cebpf4jnsgd1na2vs0mg"},{"bike_id":"910a0e56-3842-458a-b929-4deeebc2ab76","system_id":"levelo_inurba_marseille","lat":43.21185,"lon":5.3507,"is_reserved":false,"is_disabled":false,"rental_uris":{"android":"levelo://app?vid=910a0e56-3842-458a-b929-4deeebc2ab76","ios":"levelo://app?vid=910a0e56-3842-458a-b929-4deeebc2ab76"},"vehicle_type_id":"4","last_reported":1783278064,"current_range_meters":4000,"station_id":"st_cvj6sg6p6f1abm77japg","pricing_plan_id":"cebpf4jnsgd1na2vs0mg"},{"bike_id":"637ca6f2-621c-4ae1-adb4-7b5112bde475","system_id":"levelo_inurba_marseille","lat":43.28664,"lon":5.36339,"is_reserved":false,"is_disabled":true,"rental_uris":{"android":"levelo://app?vid=637ca6f2-621c-4ae1-adb4-7b5112bde475","ios":"levelo://app?vid=637ca6f2-621c-4ae1-adb4-7b5112bde475"},"vehicle_type_id":"4","last_reported":1783278064,"current_range_meters":4000,"station_id":"ce4bhah2rcd13ifvqej0","pricing_plan_id":"cebpf4jnsgd1na2vs0mg"},{"bike_id":"803c3999-b05f-4cf1-bdd9-68ea77279b48","system_id":"levelo_inurba_marseille","lat":43.29687,"lon":5.37292,"is_reserved":false,"is_disabled":false,"rental_uris":{"android":"levelo://app?vid=803c3999-b05f-4cf1-bdd9-68ea77279b48","ios":"levelo://app?vid=803c3999-b05f-4cf1-bdd9-68ea77279b48"},"vehicle_type_id":"4","last_reported":1783278064,"current_range_meters":4000,"station_id":"ce4bgk12rcd13ifvqbj0","pricing_plan_id":"cebpf4jnsgd1na2vs0mg"},{"bike_id":"3af208fb-ed62-4f29-bcd1-b301d13a9628","system_id":"levelo_inurba_marseille","lat":43.28398,"lon":5.36457,"is_reserved":false,"is_disabled":false,"rental_uris":{"android":"levelo://app?vid=3af208fb-ed62-4f29-bcd1-b301d13a9628","ios":"levelo://app?vid=3af208fb-ed62-4f29-bcd1-b301d13a9628"},"vehicle_type_id":"4","last_reported":1783278064,"current_range_meters":4000,"station_id":"","pricing_plan_id":"cebpf4jnsgd1na2vs0mg"},{"bike_id":"4df59c38-a8c7-4330-8687-77a2aea464e8","system_id":"levelo_inurba_marseille","lat":43.29525,"lon":5.39392,"is_reserved":false,"is_disabled":false,"rental_uris":{"android":"levelo://app?vid=4df59c38-a8c7-4330-8687-77a2aea464e8","ios":"levelo://app?vid=4df59c38-a8c7-4330-8687-77a2aea464e8"},"vehicle_type_id":"4","last_reported":1783278064,"current_range_meters":4000,"station_id":"ce4bh292rcd13ifvqdf0","pricing_plan_id":"cebpf4jnsgd1na2vs0mg"},{"bike_id":"e2990098-0386-45ff-8390-99b84bd08406","system_id":"levelo_inurba_marseille","lat":43.30238,"lon":5.39036,"is_reserved":false,"is_disabled":false,"rental_uris":{"android":"levelo://app?vid=e2990098-0386-45ff-8390-99b84bd08406","ios":"levelo://app?vid=e2990098-0386-45ff-8390-99b84bd08406"},"vehicle_type_id":"4","last_reported":1783278064,"current_range_meters":4000,"station_id":"","pricing_plan_id":"cebpf4jnsgd1na2vs0mg"},{"bike_id":"0987d609-2145-4c4a-b9f8-0d151dad696e","system_id":"levelo_inurba_marseille","lat":43.297511,"lon":5.40389,"is_reserved":false,"is_disabled":false,"rental_uris":{"android":"levelo://app?vid=0987d609-2145-4c4a-b9f8-0d151dad696e","ios":"levelo://app?vid=0987d609-2145-4c4a-b9f8-0d151dad696e"},"vehicle_type_id":"4","last_reported":1783278064,"current_range_meters":4000,"station_id":"ce4bh112rcd13ifvqd90","pricing_plan_id":"cebpf4jnsgd1na2vs0mg"},{"bike_id":"e4ee63c7-9eff-4911-8f46-91d4a1859e49","system_id":"levelo_inurba_marseille","lat":43.21187,"lon":5.3507,"is_reserved":false,"is_disabled":false,"rental_uris":{"android":"levelo://app?vid=e4ee63c7-9eff-4911-8f46-91d4a1859e49","ios":"levelo://app?vid=e4ee63c7-9eff-4911-8f46-91d4a1859e49"},"vehicle_type_id":"4","last_reported":1783278064,"current_range_meters":4000,"station_id":"st_cvj6sg6p6f1abm77japg","pricing_plan_id":"cebpf4jnsgd1na2vs0mg"},{"bike_id":"7a239ef8-3325-427c-90f6-f8a6311bfab5","system_id":"levelo_inurba_marseille","lat":43.25065,"lon":5.39541,"is_reserved":false,"is_disabled":false,"rental_uris":{"android":"levelo://app?vid=7a239ef8-3325-427c-90f6-f8a6311bfab5","ios":"levelo://app?vid=7a239ef8-3325-427c-90f6-f8a6311bfab5"},"vehicle_type_id":"4","last_reported":1783278064,"current_range_meters":4000,"station_id":"ce4bhm12rcd13ifvqgkg","pricing_plan_id":"cebpf4jnsgd1na2vs0mg"},{"bike_id":"0dc7de81-95c2-48a7-88ed-cb7adbb586a8","system_id":"levelo_inurba_marseille","lat":43.27419,"lon":5.39406,"is_reserved":false,"is_disabled":false,"rental_uris":{"android":"levelo://app?vid=0dc7de81-95c2-48a7-88ed-cb7adbb586a8","ios":"levelo://app?vid=0dc7de81-95c2-48a7-88ed-cb7adbb586a8"},"vehicle_type_id":"4","last_reported":1783278064,"current_range_meters":4400,"station_id":"ce4bhdp2rcd13ifvqf20","pricing_plan_id":"cebpf4jnsgd1na2vs0mg"},{"bike_id":"aa2cc3c7-7b2d-4ef0-b5a3-6eddb9957b05","system_id":"levelo_inurba_marseille","lat":43.29263,"lon":5.38431,"is_reserved":false,"is_disabled":false,"rental_uris":{"android":"levelo://app?vid=aa2cc3c7-7b2d-4ef0-b5a3-6eddb9957b05","ios":"levelo://app?vid=aa2cc3c7-7b2d-4ef0-b5a3-6eddb9957b05"},"vehicle_type_id":"4","last_reported":1783278064,"current_range_meters":4400,"station_id":"ce4bh692rcd13ifvqea0","pricing_plan_id":"cebpf4jnsgd1na2vs0mg"},{"bike_id":"2f1e7c27-cdbb-4552-bcb6-438088afd41d","system_id":"levelo_inurba_marseille","lat":43.297995,"lon":5.381091,"is_reserved":false,"is_disabled":false,"rental_uris":{"android":"levelo://app?vid=2f1e7c27-cdbb-4552-bcb6-438088afd41d","ios":"levelo://app?vid=2f1e7c27-cdbb-4552-bcb6-438088afd41d"},"vehicle_type_id":"4","last_reported":1783278064,"current_range_meters":4400,"station_id":"ce4bgl12rcd13ifvqbo0","pricing_plan_id":"cebpf4jnsgd1na2vs0mg"},{"bike_id":"25801e0a-e313-4f6c-8662-d1791b0082b9","system_id":"levelo_inurba_marseille","lat":43.25108,"lon":5.40321,"is_reserved":false,"is_disabled":false,"rental_uris":{"android":"levelo://app?vid=25801e0a-e313-4f6c-8662-d1791b0082b9","ios":"levelo://app?vid=25801e0a-e313-4f6c-8662-d1791b0082b9"},"vehicle_type_id":"4","last_reported":1783278064,"current_range_meters":4400,"station_id":"ce4bhlh2rcd13ifvqgig","pricing_plan_id":"cebpf4jnsgd1na2vs0mg"},{"bike_id":"718c826c-5424-4765-ba8f-db3ba26fcb0e","system_id":"levelo_inurba_marseille","lat":43.26234,"lon":5.37419,"is_reserved":false,"is_disabled":true,"rental_uris":{"android":"levelo://app?vid=718c826c-5424-4765-ba8f-db3ba26fcb0e","ios":"levelo://app?vid=718c826c-5424-4765-ba8f-db3ba26fcb0e"},"vehicle_type_id":"4","last_reported":1783278064,"current_range_meters":4400,"station_id":"","pricing_plan_id":"cebpf4jnsgd1na2vs0mg"},{"bike_id":"f0d53bf8-e822-4358-b936-2eea988549c3","system_id":"levelo_inurba_marseille","lat":43.24465,"lon":5.42533,"is_reserved":false,"is_disabled":false,"rental_uris":{"android":"levelo://app?vid=f0d53bf8-e822-4358-b936-2eea988549c3","ios":"levelo://app?vid=f0d53bf8-e822-4358-b936-2eea988549c3"},"vehicle_type_id":"4","last_reported":1783278064,"current_range_meters":4400,"station_id":"st_d4a3vfp97mjs738cd8kg","pricing_plan_id":"cebpf4jnsgd1na2vs0mg"},{"bike_id":"6cc9f99c-fc8e-44a0-b10a-d0f26f11a833","system_id":"levelo_inurba_marseille","lat":43.28222,"lon":5.38584,"is_reserved":false,"is_disabled":false,"rental_uris":{"android":"levelo://app?vid=6cc9f99c-fc8e-44a0-b10a-d0f26f11a833","ios":"levelo://app?vid=6cc9f99c-fc8e-44a0-b10a-d0f26f11a833"},"vehicle_type_id":"4","last_reported":1783278064,"current_range_meters":4400,"station_id":"","pricing_plan_id":"cebpf4jnsgd1na2vs0mg"},{"bike_id":"1c3439c1-3a9d-4e3c-87d1-7bf85587f455","system_id":"levelo_inurba_marseille","lat":43.28131,"lon":5.38246,"is_reserved":false,"is_disabled":false,"rental_uris":{"android":"levelo://app?vid=1c3439c1-3a9d-4e3c-87d1-7bf85587f455","ios":"levelo://app?vid=1c3439c1-3a9d-4e3c-87d1-7bf85587f455"},"vehicle_type_id":"4","last_reported":1783278064,"current_range_meters":4400,"station_id":"","pricing_plan_id":"cebpf4jnsgd1na2vs0mg"},{"bike_id":"9b388ad2-6114-4ac9-a8c8-e35320a88ae5","system_id":"levelo_inurba_marseille","lat":43.284585,"lon":5.375705,"is_reserved":false,"is_disabled":false,"rental_uris":{"android":"levelo://app?vid=9b388ad2-6114-4ac9-a8c8-e35320a88ae5","ios":"levelo://app?vid=9b388ad2-6114-4ac9-a8c8-e35320a88ae5"},"vehicle_type_id":"4","last_reported":1783278064,"current_range_meters":4400,"station_id":"ce4bh412rcd13ifvqds0","pricing_plan_id":"cebpf4jnsgd1na2vs0mg"},{"bike_id":"c51c6e60-cadb-4597-83b6-5915c0bbbaa6","system_id":"levelo_inurba_marseille","lat":43.2563,"lon":5.40465,"is_reserved":false,"is_disabled":false,"rental_uris":{"android":"levelo://app?vid=c51c6e60-cadb-4597-83b6-5915c0bbbaa6","ios":"levelo://app?vid=c51c6e60-cadb-4597-83b6-5915c0bbbaa6"},"vehicle_type_id":"4","last_reported":1783278064,"current_range_meters":4400,"station_id":"","pricing_plan_id":"cebpf4jnsgd1na2vs0mg"},{"bike_id":"53d00e35-337c-47e0-8a42-436e6dd8c110","system_id":"levelo_inurba_marseille","lat":43.25395,"lon":5.38168,"is_reserved":false,"is_disabled":false,"rental_uris":{"android":"levelo://app?vid=53d00e35-337c-47e0-8a42-436e6dd8c110","ios":"levelo://app?vid=53d00e35-337c-47e0-8a42-436e6dd8c110"},"vehicle_type_id":"4","last_reported":1783278064,"current_range_meters":4400,"station_id":"","pricing_plan_id":"cebpf4jnsgd1na2vs0mg"},{"bike_id":"04909e4d-fd9a-4db5-acd1-6dd906aa9d85","system_id":"levelo_inurba_marseille","lat":43.29033,"lon":5.35865,"is_reserved":false,"is_disabled":true,"rental_uris":{"android":"levelo://app?vid=04909e4d-fd9a-4db5-acd1-6dd906aa9d85","ios":"levelo://app?vid=04909e4d-fd9a-4db5-acd1-6dd906aa9d85"},"vehicle_type_id":"4","last_reported":1783278064,"current_range_meters":4400,"station_id":"ce4bha92rcd13ifvqeg0","pricing_plan_id":"cebpf4jnsgd1na2vs0mg"},{"bike_id":"7fcca41e-2146-47b2-bf38-372ba8763a88","system_id":"levelo_inurba_marseille","lat":43.27994,"lon":5.41643,"is_reserved":false,"is_disabled":false,"rental_uris":{"android":"levelo://app?vid=7fcca41e-2146-47b2-bf38-372ba8763a88","ios":"levelo://app?vid=7fcca41e-2146-47b2-bf38-372ba8763a88"},"vehicle_type_id":"4","last_reported":1783278064,"current_range_meters":4400,"station_id":"ce4bho12rcd13ifvqh1g","pricing_plan_id":"cebpf4jnsgd1na2vs0mg"},{"bike_id":"eb5a6a0e-50a0-4a67-8035-b3d502bdd149","system_id":"levelo_inurba_marseille","lat":43.28438,"lon":5.39206,"is_reserved":false,"is_disabled":false,"rental_uris":{"android":"levelo://app?vid=eb5a6a0e-50a0-4a67-8035-b3d502bdd149","ios":"levelo://app?vid=eb5a6a0e-50a0-4a67-8035-b3d502bdd149"},"vehicle_type_id":"4","last_reported":1783278064,"current_range_meters":4400,"station_id":"ce4bhoh2rcd13ifvqh5g","pricing_plan_id":"cebpf4jnsgd1na2vs0mg"},{"bike_id":"9efeb665-6ac9-4e70-ba70-20bf3b204b4c","system_id":"levelo_inurba_marseille","lat":43.299059,"lon":5.381578,"is_reserved":false,"is_disabled":false,"rental_uris":{"android":"levelo://app?vid=9efeb665-6ac9-4e70-ba70-20bf3b204b4c","ios":"levelo://app?vid=9efeb665-6ac9-4e70-ba70-20bf3b204b4c"},"vehicle_type_id":"4","last_reported":1783278064,"current_range_meters":4400,"station_id":"ce4bgip2rcd13ifvqbb0","pricing_plan_id":"cebpf4jnsgd1na2vs0mg"},{"bike_id":"d3a78e77-28f4-4ea8-9005-5128974f6f28","system_id":"levelo_inurba_marseille","lat":43.29375,"lon":5.37841,"is_reserved":false,"is_disabled":false,"rental_uris":{"android":"levelo://app?vid=d3a78e77-28f4-4ea8-9005-5128974f6f28","ios":"levelo://app?vid=d3a78e77-28f4-4ea8-9005-5128974f6f28"},"vehicle_type_id":"4","last_reported":1783278064,"current_range_meters":4400,"station_id":"ce4bgjh2rcd13ifvqbf0","pricing_plan_id":"cebpf4jnsgd1na2vs0mg"},{"bike_id":"72bb2ca4-4a0e-42fe-ade8-d1582cc7b245","system_id":"levelo_inurba_marseille","lat":43.24809,"lon":5.37457,"is_reserved":false,"is_disabled":false,"rental_uris":{"android":"levelo://app?vid=72bb2ca4-4a0e-42fe-ade8-d1582cc7b245","ios":"levelo://app?vid=72bb2ca4-4a0e-42fe-ade8-d1582cc7b245"},"vehicle_type_id":"4","last_reported":1783278064,"current_range_meters":4400,"station_id":"ce4bhgh2rcd13ifvqfb0","pricing_plan_id":"cebpf4jnsgd1na2vs0mg"},{"bike_id":"90956858-67b4-4bbd-82de-736588e9511e","system_id":"levelo_inurba_marseille","lat":43.22553,"lon":5.41625,"is_reserved":false,"is_disabled":false,"rental_uris":{"android":"levelo://app?vid=90956858-67b4-4bbd-82de-736588e9511e","ios":"levelo://app?vid=90956858-67b4-4bbd-82de-736588e9511e"},"vehicle_type_id":"4","last_reported":1783278064,"current_range_meters":4800,"station_id":"st_d2o4gvlbi1j2169b742g","pricing_plan_id":"cebpf4jnsgd1na2vs0mg"},{"bike_id":"9249ee1a-143f-4c71-b1ba-2814542e46c9","system_id":"levelo_inurba_marseille","lat":43.24549,"lon":5.39495,"is_reserved":false,"is_disabled":false,"rental_uris":{"android":"levelo://app?vid=9249ee1a-143f-4c71-b1ba-2814542e46c9","ios":"levelo://app?vid=9249ee1a-143f-4c71-b1ba-2814542e46c9"},"vehicle_type_id":"4","last_reported":1783278064,"current_range_meters":4800,"station_id":"ce4bhlp2rcd13ifvqgjg","pricing_plan_id":"cebpf4jnsgd1na2vs0mg"},{"bike_id":"617b8d27-faac-4a7b-b31f-c8d5d7522f8c","system_id":"levelo_inurba_marseille","lat":43.28151,"lon":5.42635,"is_reserved":false,"is_disabled":false,"rental_uris":{"android":"levelo://app?vid=617b8d27-faac-4a7b-b31f-c8d5d7522f8c","ios":"levelo://app?vid=617b8d27-faac-4a7b-b31f-c8d5d7522f8c"},"vehicle_type_id":"4","last_reported":1783278064,"current_range_meters":4800,"station_id":"ce4bhnh2rcd13ifvqgug","pricing_plan_id":"cebpf4jnsgd1na2vs0mg"},{"bike_id":"7c11bab1-d3bd-4444-8bad-f31caf4f29ad","system_id":"levelo_inurba_marseille","lat":43.29305,"lon":5.37457,"is_reserved":false,"is_disabled":false,"rental_uris":{"android":"levelo://app?vid=7c11bab1-d3bd-4444-8bad-f31caf4f29ad","ios":"levelo://app?vid=7c11bab1-d3bd-4444-8bad-f31caf4f29ad"},"vehicle_type_id":"4","last_reported":1783278064,"current_range_meters":4800,"station_id":"ce4bgi12rcd13ifvqb70","pricing_plan_id":"cebpf4jnsgd1na2vs0mg"},{"bike_id":"0280cae0-08d7-4f06-a94a-abe8e009ab51","system_id":"levelo_inurba_marseille","lat":43.2488,"lon":5.39408,"is_reserved":false,"is_disabled":false,"rental_uris":{"android":"levelo://app?vid=0280cae0-08d7-4f06-a94a-abe8e009ab51","ios":"levelo://app?vid=0280cae0-08d7-4f06-a94a-abe8e009ab51"},"vehicle_type_id":"4","last_reported":1783278064,"current_range_meters":4800,"station_id":"","pricing_plan_id":"cebpf4jnsgd1na2vs0mg"},{"bike_id":"bc4181bc-adad-40d9-a519-ee37111b4350","system_id":"levelo_inurba_marseille","lat":43.28608,"lon":5.39863,"is_reserved":false,"is_disabled":false,"rental_uris":{"android":"levelo://app?vid=bc4181bc-adad-40d9-a519-ee37111b4350","ios":"levelo://app?vid=bc4181bc-adad-40d9-a519-ee37111b4350"},"vehicle_type_id":"4","last_reported":1783278064,"current_range_meters":4800,"station_id":"st_d4a7ka997mjs738ck50g","pricing_plan_id":"cebpf4jnsgd1na2vs0mg"},{"bike_id":"1f86c761-1faa-41ff-8318-07e6448bb43d","system_id":"levelo_inurba_marseille","lat":43.28935,"lon":5.3839,"is_reserved":false,"is_disabled":false,"rental_uris":{"android":"levelo://app?vid=1f86c761-1faa-41ff-8318-07e6448bb43d","ios":"levelo://app?vid=1f86c761-1faa-41ff-8318-07e6448bb43d"},"vehicle_type_id":"4","last_reported":1783278064,"current_range_meters":4800,"station_id":"ce4bh612rcd13ifvqe6g","pricing_plan_id":"cebpf4jnsgd1na2vs0mg"},{"bike_id":"9972642f-35aa-4c20-918a-dcbc07e9e004","system_id":"levelo_inurba_marseille","lat":43.29574,"lon":5.36708,"is_reserved":false,"is_disabled":true,"rental_uris":{"android":"levelo://app?vid=9972642f-35aa-4c20-918a-dcbc07e9e004","ios":"levelo://app?vid=9972642f-35aa-4c20-918a-dcbc07e9e004"},"vehicle_type_id":"4","last_reported":1783278064,"current_range_meters":4800,"station_id":"ce4bgph2rcd13ifvqc2g","pricing_plan_id":"cebpf4jnsgd1na2vs0mg"},{"bike_id":"98e6e248-2a70-4fe6-9a5d-a0124df80d02","system_id":"levelo_inurba_marseille","lat":43.26207,"lon":5.37435,"is_reserved":false,"is_disabled":false,"rental_uris":{"android":"levelo://app?vid=98e6e248-2a70-4fe6-9a5d-a0124df80d02","ios":"levelo://app?vid=98e6e248-2a70-4fe6-9a5d-a0124df80d02"},"vehicle_type_id":"4","last_reported":1783278064,"current_range_meters":4800,"station_id":"ce4bhgp2rcd13ifvqfc0","pricing_plan_id":"cebpf4jnsgd1na2vs0mg"},{"bike_id":"c96193e3-e96d-485a-ab45-fa14e1202d1b","system_id":"levelo_inurba_marseille","lat":43.26569,"lon":5.39008,"is_reserved":false,"is_disabled":false,"rental_uris":{"android":"levelo://app?vid=c96193e3-e96d-485a-ab45-fa14e1202d1b","ios":"levelo://app?vid=c96193e3-e96d-485a-ab45-fa14e1202d1b"},"vehicle_type_id":"4","last_reported":1783278064,"current_range_meters":4800,"station_id":"ce4bhe12rcd13ifvqf30","pricing_plan_id":"cebpf4jnsgd1na2vs0mg"},{"bike_id":"f5d03431-4137-4ae3-9311-1f4cccf6874d","system_id":"levelo_inurba_marseille","lat":43.29624,"lon":5.37712,"is_reserved":false,"is_disabled":false,"rental_uris":{"android":"levelo://app?vid=f5d03431-4137-4ae3-9311-1f4cccf6874d","ios":"levelo://app?vid=f5d03431-4137-4ae3-9311-1f4cccf6874d"},"vehicle_type_id":"4","last_reported":1783278064,"current_range_meters":4800,"station_id":"ce4bgi92rcd13ifvqb90","pricing_plan_id":"cebpf4jnsgd1na2vs0mg"},{"bike_id":"a8a3d26b-f9a3-4e70-83ec-3900177cd4f4","system_id":"levelo_inurba_marseille","lat":43.28407,"lon":5.37516,"is_reserved":false,"is_disabled":false,"rental_uris":{"android":"levelo://app?vid=a8a3d26b-f9a3-4e70-83ec-3900177cd4f4","ios":"levelo://app?vid=a8a3d26b-f9a3-4e70-83ec-3900177cd4f4"},"vehicle_type_id":"4","last_reported":1783278064,"current_range_meters":4800,"station_id":"ce4bh412rcd13ifvqds0","pricing_plan_id":"cebpf4jnsgd1na2vs0mg"},{"bike_id":"93d3c4ee-2e79-42f4-a3d2-59e1f829c2d3","system_id":"levelo_inurba_marseille","lat":43.30593,"lon":5.39356,"is_reserved":false,"is_disabled":false,"rental_uris":{"android":"levelo://app?vid=93d3c4ee-2e79-42f4-a3d2-59e1f829c2d3","ios":"levelo://app?vid=93d3c4ee-2e79-42f4-a3d2-59e1f829c2d3"},"vehicle_type_id":"4","last_reported":1783278064,"current_range_meters":4800,"station_id":"ce4bh0p2rcd13ifvqd80","pricing_plan_id":"cebpf4jnsgd1na2vs0mg"},{"bike_id":"d455396b-25c8-4bf4-aa48-4df15ad83f7e","system_id":"levelo_inurba_marseille","lat":43.33868,"lon":5.34776,"is_reserved":false,"is_disabled":false,"rental_uris":{"android":"levelo://app?vid=d455396b-25c8-4bf4-aa48-4df15ad83f7e","ios":"levelo://app?vid=d455396b-25c8-4bf4-aa48-4df15ad83f7e"},"vehicle_type_id":"4","last_reported":1783278064,"current_range_meters":4800,"station_id":"","pricing_plan_id":"cebpf4jnsgd1na2vs0mg"},{"bike_id":"38206097-8ae6-465b-9691-79b7e456ed7e","system_id":"levelo_inurba_marseille","lat":43.28508,"lon":5.38598,"is_reserved":false,"is_disabled":false,"rental_uris":{"android":"levelo://app?vid=38206097-8ae6-465b-9691-79b7e456ed7e","ios":"levelo://app?vid=38206097-8ae6-465b-9691-79b7e456ed7e"},"vehicle_type_id":"4","last_reported":1783278064,"current_range_meters":4800,"station_id":"ce4bh8p2rcd13ifvqeb0","pricing_plan_id":"cebpf4jnsgd1na2vs0mg"},{"bike_id":"128c98b0-5c8a-4043-be90-d5616b94b24d","system_id":"levelo_inurba_marseille","lat":43.27047,"lon":5.37644,"is_reserved":false,"is_disabled":false,"rental_uris":{"android":"levelo://app?vid=128c98b0-5c8a-4043-be90-d5616b94b24d","ios":"levelo://app?vid=128c98b0-5c8a-4043-be90-d5616b94b24d"},"vehicle_type_id":"4","last_reported":1783278064,"current_range_meters":4800,"station_id":"","pricing_plan_id":"cebpf4jnsgd1na2vs0mg"},{"bike_id":"d4902f7b-dfb4-4a85-9f69-8cb9ccdacb28","system_id":"levelo_inurba_marseille","lat":43.30957,"lon":5.39029,"is_reserved":false,"is_disabled":false,"rental_uris":{"android":"levelo://app?vid=d4902f7b-dfb4-4a85-9f69-8cb9ccdacb28","ios":"levelo://app?vid=d4902f7b-dfb4-4a85-9f69-8cb9ccdacb28"},"vehicle_type_id":"4","last_reported":1783278064,"current_range_meters":4800,"station_id":"ce4bgup2rcd13ifvqco0","pricing_plan_id":"cebpf4jnsgd1na2vs0mg"},{"bike_id":"d7114047-9c99-4531-8436-c41770c509c2","system_id":"levelo_inurba_marseille","lat":43.27497,"lon":5.4243,"is_reserved":false,"is_disabled":false,"rental_uris":{"android":"levelo://app?vid=d7114047-9c99-4531-8436-c41770c509c2","ios":"levelo://app?vid=d7114047-9c99-4531-8436-c41770c509c2"},"vehicle_type_id":"4","last_reported":1783278064,"current_range_meters":4800,"station_id":"ce4bhn92rcd13ifvqgrg","pricing_plan_id":"cebpf4jnsgd1na2vs0mg"},{"bike_id":"de2ca853-709c-49e1-9ba4-479715a01b4b","system_id":"levelo_inurba_marseille","lat":43.29271,"lon":5.38436,"is_reserved":false,"is_disabled":false,"rental_uris":{"android":"levelo://app?vid=de2ca853-709c-49e1-9ba4-479715a01b4b","ios":"levelo://app?vid=de2ca853-709c-49e1-9ba4-479715a01b4b"},"vehicle_type_id":"4","last_reported":1783278064,"current_range_meters":5600,"station_id":"ce4bh692rcd13ifvqea0","pricing_plan_id":"cebpf4jnsgd1na2vs0mg"},{"bike_id":"097703ec-cc97-424c-9bee-1ad2d40222d4","system_id":"levelo_inurba_marseille","lat":43.24815,"lon":5.37434,"is_reserved":false,"is_disabled":false,"rental_uris":{"android":"levelo://app?vid=097703ec-cc97-424c-9bee-1ad2d40222d4","ios":"levelo://app?vid=097703ec-cc97-424c-9bee-1ad2d40222d4"},"vehicle_type_id":"4","last_reported":1783278064,"current_range_meters":5600,"station_id":"ce4bhgh2rcd13ifvqfb0","pricing_plan_id":"cebpf4jnsgd1na2vs0mg"},{"bike_id":"13d89e9d-6c20-408b-9d7a-02f715c177a2","system_id":"levelo_inurba_marseille","lat":43.29313,"lon":5.37177,"is_reserved":false,"is_disabled":false,"rental_uris":{"android":"levelo://app?vid=13d89e9d-6c20-408b-9d7a-02f715c177a2","ios":"levelo://app?vid=13d89e9d-6c20-408b-9d7a-02f715c177a2"},"vehicle_type_id":"4","last_reported":1783278064,"current_range_meters":5600,"station_id":"ce4bgh92rcd13ifvqb40","pricing_plan_id":"cebpf4jnsgd1na2vs0mg"},{"bike_id":"871c62e9-55d2-4532-bfb2-f9a08d7344b0","system_id":"levelo_inurba_marseille","lat":43.29785,"lon":5.39332,"is_reserved":false,"is_disabled":false,"rental_uris":{"android":"levelo://app?vid=871c62e9-55d2-4532-bfb2-f9a08d7344b0","ios":"levelo://app?vid=871c62e9-55d2-4532-bfb2-f9a08d7344b0"},"vehicle_type_id":"4","last_reported":1783278064,"current_range_meters":5600,"station_id":"chh1huq6cuj3fo74tm60","pricing_plan_id":"cebpf4jnsgd1na2vs0mg"},{"bike_id":"d832a3d0-79c6-4ba7-ac9f-b53b8986b84b","system_id":"levelo_inurba_marseille","lat":43.293733,"lon":5.378506,"is_reserved":false,"is_disabled":false,"rental_uris":{"android":"levelo://app?vid=d832a3d0-79c6-4ba7-ac9f-b53b8986b84b","ios":"levelo://app?vid=d832a3d0-79c6-4ba7-ac9f-b53b8986b84b"},"vehicle_type_id":"4","last_reported":1783278064,"current_range_meters":5600,"station_id":"ce4bhch2rcd13ifvqeug","pricing_plan_id":"cebpf4jnsgd1na2vs0mg"},{"bike_id":"1bc69c0e-0bef-4dd0-9c32-f25cac91de35","system_id":"levelo_inurba_marseille","lat":43.26903,"lon":5.36955,"is_reserved":false,"is_disabled":false,"rental_uris":{"android":"levelo://app?vid=1bc69c0e-0bef-4dd0-9c32-f25cac91de35","ios":"levelo://app?vid=1bc69c0e-0bef-4dd0-9c32-f25cac91de35"},"vehicle_type_id":"4","last_reported":1783278064,"current_range_meters":5600,"station_id":"","pricing_plan_id":"cebpf4jnsgd1na2vs0mg"},{"bike_id":"8e929d14-2205-4beb-9082-998980c5fd39","system_id":"levelo_inurba_marseille","lat":43.26199,"lon":5.37427,"is_reserved":false,"is_disabled":false,"rental_uris":{"android":"levelo://app?vid=8e929d14-2205-4beb-9082-998980c5fd39","ios":"levelo://app?vid=8e929d14-2205-4beb-9082-998980c5fd39"},"vehicle_type_id":"4","last_reported":1783278064,"current_range_meters":5600,"station_id":"ce4bhgp2rcd13ifvqfc0","pricing_plan_id":"cebpf4jnsgd1na2vs0mg"},{"bike_id":"defe664f-116a-400b-aa68-5aba6647b941","system_id":"levelo_inurba_marseille","lat":43.2931,"lon":5.44572,"is_reserved":false,"is_disabled":false,"rental_uris":{"android":"levelo://app?vid=defe664f-116a-400b-aa68-5aba6647b941","ios":"levelo://app?vid=defe664f-116a-400b-aa68-5aba6647b941"},"vehicle_type_id":"4","last_reported":1783278064,"current_range_meters":5600,"station_id":"","pricing_plan_id":"cebpf4jnsgd1na2vs0mg"},{"bike_id":"2a8f592d-3ebd-4853-bf23-1a2cca68a093","system_id":"levelo_inurba_marseille","lat":43.27062,"lon":5.38505,"is_reserved":false,"is_disabled":false,"rental_uris":{"android":"levelo://app?vid=2a8f592d-3ebd-4853-bf23-1a2cca68a093","ios":"levelo://app?vid=2a8f592d-3ebd-4853-bf23-1a2cca68a093"},"vehicle_type_id":"4","last_reported":1783278064,"current_range_meters":5600,"station_id":"","pricing_plan_id":"cebpf4jnsgd1na2vs0mg"},{"bike_id":"988f6eb2-476b-4395-993c-77c42e0c0e6a","system_id":"levelo_inurba_marseille","lat":43.26225,"lon":5.38755,"is_reserved":false,"is_disabled":false,"rental_uris":{"android":"levelo://app?vid=988f6eb2-476b-4395-993c-77c42e0c0e6a","ios":"levelo://app?vid=988f6eb2-476b-4395-993c-77c42e0c0e6a"},"vehicle_type_id":"4","last_reported":1783278064,"current_range_meters":5600,"station_id":"st_d8gjfg747rts73coq3b0","pricing_plan_id":"cebpf4jnsgd1na2vs0mg"},{"bike_id":"1ef77d10-3808-4032-a625-bdc5532d78f3","system_id":"levelo_inurba_marseille","lat":43.28977,"lon":5.37826,"is_reserved":false,"is_disabled":true,"rental_uris":{"android":"levelo://app?vid=1ef77d10-3808-4032-a625-bdc5532d78f3","ios":"levelo://app?vid=1ef77d10-3808-4032-a625-bdc5532d78f3"},"vehicle_type_id":"4","last_reported":1783278064,"current_range_meters":5600,"station_id":"ce4bh9p2rcd13ifvqed0","pricing_plan_id":"cebpf4jnsgd1na2vs0mg"},{"bike_id":"98d9ab63-952f-49d0-8775-50ac81ca5fd7","system_id":"levelo_inurba_marseille","lat":43.30924,"lon":5.37497,"is_reserved":false,"is_disabled":false,"rental_uris":{"android":"levelo://app?vid=98d9ab63-952f-49d0-8775-50ac81ca5fd7","ios":"levelo://app?vid=98d9ab63-952f-49d0-8775-50ac81ca5fd7"},"vehicle_type_id":"4","last_reported":1783278064,"current_range_meters":6000,"station_id":"","pricing_plan_id":"cebpf4jnsgd1na2vs0mg"},{"bike_id":"6b4bd43f-9d60-40f8-96cc-0292b478f552","system_id":"levelo_inurba_marseille","lat":43.28779,"lon":5.4662,"is_reserved":false,"is_disabled":false,"rental_uris":{"android":"levelo://app?vid=6b4bd43f-9d60-40f8-96cc-0292b478f552","ios":"levelo://app?vid=6b4bd43f-9d60-40f8-96cc-0292b478f552"},"vehicle_type_id":"4","last_reported":1783278064,"current_range_meters":6000,"station_id":"","pricing_plan_id":"cebpf4jnsgd1na2vs0mg"},{"bike_id":"2d245ea3-aece-489e-8182-07ba15ce214c","system_id":"levelo_inurba_marseille","lat":43.29199,"lon":5.35789,"is_reserved":false,"is_disabled":false,"rental_uris":{"android":"levelo://app?vid=2d245ea3-aece-489e-8182-07ba15ce214c","ios":"levelo://app?vid=2d245ea3-aece-489e-8182-07ba15ce214c"},"vehicle_type_id":"4","last_reported":1783278064,"current_range_meters":6000,"station_id":"ce4bhb12rcd13ifvqel0","pricing_plan_id":"cebpf4jnsgd1na2vs0mg"},{"bike_id":"f8d34187-0ee5-4472-87c3-f94e5d79f35a","system_id":"levelo_inurba_marseille","lat":43.29196,"lon":5.35802,"is_reserved":false,"is_disabled":false,"rental_uris":{"android":"levelo://app?vid=f8d34187-0ee5-4472-87c3-f94e5d79f35a","ios":"levelo://app?vid=f8d34187-0ee5-4472-87c3-f94e5d79f35a"},"vehicle_type_id":"4","last_reported":1783278064,"current_range_meters":6000,"station_id":"ce4bhb12rcd13ifvqel0","pricing_plan_id":"cebpf4jnsgd1na2vs0mg"},{"bike_id":"c64fd8b2-f458-4a6e-88eb-895f5a6985c2","system_id":"levelo_inurba_marseille","lat":43.31417,"lon":5.39365,"is_reserved":false,"is_disabled":true,"rental_uris":{"android":"levelo://app?vid=c64fd8b2-f458-4a6e-88eb-895f5a6985c2","ios":"levelo://app?vid=c64fd8b2-f458-4a6e-88eb-895f5a6985c2"},"vehicle_type_id":"4","last_reported":1783278064,"current_range_meters":6000,"station_id":"","pricing_plan_id":"cebpf4jnsgd1na2vs0mg"},{"bike_id":"5fe94d89-f95c-43c5-bb34-2b74eefa3a14","system_id":"levelo_inurba_marseille","lat":43.29522,"lon":5.37508,"is_reserved":false,"is_disabled":false,"rental_uris":{"android":"levelo://app?vid=5fe94d89-f95c-43c5-bb34-2b74eefa3a14","ios":"levelo://app?vid=5fe94d89-f95c-43c5-bb34-2b74eefa3a14"},"vehicle_type_id":"4","last_reported":1783278064,"current_range_meters":6000,"station_id":"ce4bgkp2rcd13ifvqbmg","pricing_plan_id":"cebpf4jnsgd1na2vs0mg"},{"bike_id":"3892050e-cb6a-457e-90e6-5def440715fd","system_id":"levelo_inurba_marseille","lat":43.28693,"lon":5.46674,"is_reserved":false,"is_disabled":false,"rental_uris":{"android":"levelo://app?vid=3892050e-cb6a-457e-90e6-5def440715fd","ios":"levelo://app?vid=3892050e-cb6a-457e-90e6-5def440715fd"},"vehicle_type_id":"4","last_reported":1783278064,"current_range_meters":6000,"station_id":"st_d6tc3vkotcvc738tfjhg","pricing_plan_id":"cebpf4jnsgd1na2vs0mg"},{"bike_id":"74c027a4-4b67-40ff-a2fc-35f79d498796","system_id":"levelo_inurba_marseille","lat":43.29232,"lon":5.3605,"is_reserved":false,"is_disabled":true,"rental_uris":{"android":"levelo://app?vid=74c027a4-4b67-40ff-a2fc-35f79d498796","ios":"levelo://app?vid=74c027a4-4b67-40ff-a2fc-35f79d498796"},"vehicle_type_id":"4","last_reported":1783278064,"current_range_meters":6000,"station_id":"ce4bhbh2rcd13ifvqeqg","pricing_plan_id":"cebpf4jnsgd1na2vs0mg"},{"bike_id":"e40f7e4d-aee3-4c7e-9ab5-4a739fc7a822","system_id":"levelo_inurba_marseille","lat":43.25123,"lon":5.40332,"is_reserved":false,"is_disabled":false,"rental_uris":{"android":"levelo://app?vid=e40f7e4d-aee3-4c7e-9ab5-4a739fc7a822","ios":"levelo://app?vid=e40f7e4d-aee3-4c7e-9ab5-4a739fc7a822"},"vehicle_type_id":"4","last_reported":1783278064,"current_range_meters":6000,"station_id":"ce4bhlh2rcd13ifvqgig","pricing_plan_id":"cebpf4jnsgd1na2vs0mg"},{"bike_id":"a12a4f83-c050-4064-a9cd-bf7775a31f2f","system_id":"levelo_inurba_marseille","lat":43.2468,"lon":5.38157,"is_reserved":false,"is_disabled":true,"rental_uris":{"android":"levelo://app?vid=a12a4f83-c050-4064-a9cd-bf7775a31f2f","ios":"levelo://app?vid=a12a4f83-c050-4064-a9cd-bf7775a31f2f"},"vehicle_type_id":"4","last_reported":1783278064,"current_range_meters":6000,"station_id":"ce4bhih2rcd13ifvqfr0","pricing_plan_id":"cebpf4jnsgd1na2vs0mg"},{"bike_id":"eb38d0b2-cfa2-404b-a2e8-f73959e5104e","system_id":"levelo_inurba_marseille","lat":43.28613,"lon":5.37053,"is_reserved":false,"is_disabled":false,"rental_uris":{"android":"levelo://app?vid=eb38d0b2-cfa2-404b-a2e8-f73959e5104e","ios":"levelo://app?vid=eb38d0b2-cfa2-404b-a2e8-f73959e5104e"},"vehicle_type_id":"4","last_reported":1783278064,"current_range_meters":6000,"station_id":"ce4bht12rcd13ifvqi60","pricing_plan_id":"cebpf4jnsgd1na2vs0mg"},{"bike_id":"95e2c5d3-ee09-417b-93c0-7f04fa895ada","system_id":"levelo_inurba_marseille","lat":43.31915,"lon":5.37375,"is_reserved":false,"is_disabled":false,"rental_uris":{"android":"levelo://app?vid=95e2c5d3-ee09-417b-93c0-7f04fa895ada","ios":"levelo://app?vid=95e2c5d3-ee09-417b-93c0-7f04fa895ada"},"vehicle_type_id":"4","last_reported":1783278064,"current_range_meters":6000,"station_id":"","pricing_plan_id":"cebpf4jnsgd1na2vs0mg"},{"bike_id":"d230c7da-04b9-477c-ac31-d2650e0427fd","system_id":"levelo_inurba_marseille","lat":43.31123,"lon":5.37772,"is_reserved":false,"is_disabled":true,"rental_uris":{"android":"levelo://app?vid=d230c7da-04b9-477c-ac31-d2650e0427fd","ios":"levelo://app?vid=d230c7da-04b9-477c-ac31-d2650e0427fd"},"vehicle_type_id":"4","last_reported":1783278064,"current_range_meters":6000,"station_id":"ce4bgt92rcd13ifvqcg0","pricing_plan_id":"cebpf4jnsgd1na2vs0mg"},{"bike_id":"6c5fe4f7-262b-4001-9eb8-7e80f3afa3a3","system_id":"levelo_inurba_marseille","lat":43.26032,"lon":5.37532,"is_reserved":false,"is_disabled":false,"rental_uris":{"android":"levelo://app?vid=6c5fe4f7-262b-4001-9eb8-7e80f3afa3a3","ios":"levelo://app?vid=6c5fe4f7-262b-4001-9eb8-7e80f3afa3a3"},"vehicle_type_id":"4","last_reported":1783278064,"current_range_meters":6000,"station_id":"ce4bhgh2rcd13ifvqfa0","pricing_plan_id":"cebpf4jnsgd1na2vs0mg"},{"bike_id":"9aad7fb2-4b68-4ff1-a63e-5832ca4f6501","system_id":"levelo_inurba_marseille","lat":43.26924,"lon":5.38505,"is_reserved":false,"is_disabled":false,"rental_uris":{"android":"levelo://app?vid=9aad7fb2-4b68-4ff1-a63e-5832ca4f6501","ios":"levelo://app?vid=9aad7fb2-4b68-4ff1-a63e-5832ca4f6501"},"vehicle_type_id":"4","last_reported":1783278064,"current_range_meters":6000,"station_id":"","pricing_plan_id":"cebpf4jnsgd1na2vs0mg"},{"bike_id":"be97f77b-683a-44ce-8240-f5ff6433cfe3","system_id":"levelo_inurba_marseille","lat":43.23198,"lon":5.35542,"is_reserved":false,"is_disabled":true,"rental_uris":{"android":"levelo://app?vid=be97f77b-683a-44ce-8240-f5ff6433cfe3","ios":"levelo://app?vid=be97f77b-683a-44ce-8240-f5ff6433cfe3"},"vehicle_type_id":"4","last_reported":1783278064,"current_range_meters":6000,"station_id":"ce4bhu92rcd13ifvqi70","pricing_plan_id":"cebpf4jnsgd1na2vs0mg"},{"bike_id":"d4603f03-0f32-4e45-a219-aad2b18a7093","system_id":"levelo_inurba_marseille","lat":43.30946,"lon":5.39025,"is_reserved":false,"is_disabled":false,"rental_uris":{"android":"levelo://app?vid=d4603f03-0f32-4e45-a219-aad2b18a7093","ios":"levelo://app?vid=d4603f03-0f32-4e45-a219-aad2b18a7093"},"vehicle_type_id":"4","last_reported":1783278064,"current_range_meters":6000,"station_id":"ce4bgup2rcd13ifvqco0","pricing_plan_id":"cebpf4jnsgd1na2vs0mg"},{"bike_id":"7c427d21-5ba3-47e9-b621-2ca7d29df3d2","system_id":"levelo_inurba_marseille","lat":43.28463,"lon":5.43739,"is_reserved":false,"is_disabled":false,"rental_uris":{"android":"levelo://app?vid=7c427d21-5ba3-47e9-b621-2ca7d29df3d2","ios":"levelo://app?vid=7c427d21-5ba3-47e9-b621-2ca7d29df3d2"},"vehicle_type_id":"4","last_reported":1783278064,"current_range_meters":6000,"station_id":"","pricing_plan_id":"cebpf4jnsgd1na2vs0mg"},{"bike_id":"7f12e5a2-955f-42a0-87a4-54480f18e191","system_id":"levelo_inurba_marseille","lat":43.289465,"lon":5.363946,"is_reserved":false,"is_disabled":false,"rental_uris":{"android":"levelo://app?vid=7f12e5a2-955f-42a0-87a4-54480f18e191","ios":"levelo://app?vid=7f12e5a2-955f-42a0-87a4-54480f18e191"},"vehicle_type_id":"4","last_reported":1783278064,"current_range_meters":6000,"station_id":"","pricing_plan_id":"cebpf4jnsgd1na2vs0mg"},{"bike_id":"6c83a1d2-0261-4cb8-9609-a9d6494b40a6","system_id":"levelo_inurba_marseille","lat":43.29409,"lon":5.37567,"is_reserved":false,"is_disabled":false,"rental_uris":{"android":"levelo://app?vid=6c83a1d2-0261-4cb8-9609-a9d6494b40a6","ios":"levelo://app?vid=6c83a1d2-0261-4cb8-9609-a9d6494b40a6"},"vehicle_type_id":"4","last_reported":1783278064,"current_range_meters":6000,"station_id":"","pricing_plan_id":"cebpf4jnsgd1na2vs0mg"},{"bike_id":"2fa22b1d-12bf-4888-8ff4-67a11349c948","system_id":"levelo_inurba_marseille","lat":43.212,"lon":5.3506,"is_reserved":false,"is_disabled":false,"rental_uris":{"android":"levelo://app?vid=2fa22b1d-12bf-4888-8ff4-67a11349c948","ios":"levelo://app?vid=2fa22b1d-12bf-4888-8ff4-67a11349c948"},"vehicle_type_id":"4","last_reported":1783278064,"current_range_meters":6400,"station_id":"st_cvj6sg6p6f1abm77japg","pricing_plan_id":"cebpf4jnsgd1na2vs0mg"},{"bike_id":"5cf8ff3f-002e-4490-b36d-5909b772d854","system_id":"levelo_inurba_marseille","lat":43.22532,"lon":5.34838,"is_reserved":false,"is_disabled":true,"rental_uris":{"android":"levelo://app?vid=5cf8ff3f-002e-4490-b36d-5909b772d854","ios":"levelo://app?vid=5cf8ff3f-002e-4490-b36d-5909b772d854"},"vehicle_type_id":"4","last_reported":1783278064,"current_range_meters":6400,"station_id":"st_cvj5dfep6f1abm77gieg","pricing_plan_id":"cebpf4jnsgd1na2vs0mg"},{"bike_id":"c80877b7-ed0d-486a-bea1-fc157eb3d954","system_id":"levelo_inurba_marseille","lat":43.30951,"lon":5.39032,"is_reserved":false,"is_disabled":false,"rental_uris":{"android":"levelo://app?vid=c80877b7-ed0d-486a-bea1-fc157eb3d954","ios":"levelo://app?vid=c80877b7-ed0d-486a-bea1-fc157eb3d954"},"vehicle_type_id":"4","last_reported":1783278064,"current_range_meters":6400,"station_id":"ce4bgup2rcd13ifvqco0","pricing_plan_id":"cebpf4jnsgd1na2vs0mg"},{"bike_id":"8add3d14-7583-4bbe-a39a-8070d5f4d47a","system_id":"levelo_inurba_marseille","lat":43.32501,"lon":5.38299,"is_reserved":false,"is_disabled":false,"rental_uris":{"android":"levelo://app?vid=8add3d14-7583-4bbe-a39a-8070d5f4d47a","ios":"levelo://app?vid=8add3d14-7583-4bbe-a39a-8070d5f4d47a"},"vehicle_type_id":"4","last_reported":1783278064,"current_range_meters":6400,"station_id":"st_d4asgbiv49dc73anf9m0","pricing_plan_id":"cebpf4jnsgd1na2vs0mg"},{"bike_id":"c48afe12-692c-4064-84e3-6b9d190cb459","system_id":"levelo_inurba_marseille","lat":43.29973,"lon":5.38484,"is_reserved":false,"is_disabled":false,"rental_uris":{"android":"levelo://app?vid=c48afe12-692c-4064-84e3-6b9d190cb459","ios":"levelo://app?vid=c48afe12-692c-4064-84e3-6b9d190cb459"},"vehicle_type_id":"4","last_reported":1783278064,"current_range_meters":6400,"station_id":"ce4bgj92rcd13ifvqbd0","pricing_plan_id":"cebpf4jnsgd1na2vs0mg"},{"bike_id":"e212048e-36e5-4dea-a4dc-4f4603b01b54","system_id":"levelo_inurba_marseille","lat":43.3016,"lon":5.38095,"is_reserved":false,"is_disabled":true,"rental_uris":{"android":"levelo://app?vid=e212048e-36e5-4dea-a4dc-4f4603b01b54","ios":"levelo://app?vid=e212048e-36e5-4dea-a4dc-4f4603b01b54"},"vehicle_type_id":"4","last_reported":1783278064,"current_range_meters":6400,"station_id":"ce4bgjp2rcd13ifvqbh0","pricing_plan_id":"cebpf4jnsgd1na2vs0mg"},{"bike_id":"6988656b-b9bf-42fd-86c6-85441f215ca5","system_id":"levelo_inurba_marseille","lat":43.21197,"lon":5.35068,"is_reserved":false,"is_disabled":false,"rental_uris":{"android":"levelo://app?vid=6988656b-b9bf-42fd-86c6-85441f215ca5","ios":"levelo://app?vid=6988656b-b9bf-42fd-86c6-85441f215ca5"},"vehicle_type_id":"4","last_reported":1783278064,"current_range_meters":6400,"station_id":"st_cvj6sg6p6f1abm77japg","pricing_plan_id":"cebpf4jnsgd1na2vs0mg"},{"bike_id":"73c8701a-5534-4d6e-b634-9acc1e8fe67a","system_id":"levelo_inurba_marseille","lat":43.27491,"lon":5.42448,"is_reserved":false,"is_disabled":false,"rental_uris":{"android":"levelo://app?vid=73c8701a-5534-4d6e-b634-9acc1e8fe67a","ios":"levelo://app?vid=73c8701a-5534-4d6e-b634-9acc1e8fe67a"},"vehicle_type_id":"4","last_reported":1783278064,"current_range_meters":6400,"station_id":"ce4bhn92rcd13ifvqgrg","pricing_plan_id":"cebpf4jnsgd1na2vs0mg"},{"bike_id":"8fec6c78-b460-42d7-b78b-be9ed7c2fffd","system_id":"levelo_inurba_marseille","lat":43.28164,"lon":5.42623,"is_reserved":false,"is_disabled":false,"rental_uris":{"android":"levelo://app?vid=8fec6c78-b460-42d7-b78b-be9ed7c2fffd","ios":"levelo://app?vid=8fec6c78-b460-42d7-b78b-be9ed7c2fffd"},"vehicle_type_id":"4","last_reported":1783278064,"current_range_meters":6400,"station_id":"ce4bhnh2rcd13ifvqgug","pricing_plan_id":"cebpf4jnsgd1na2vs0mg"},{"bike_id":"154ea9c7-a22d-408d-9f47-f19863086613","system_id":"levelo_inurba_marseille","lat":43.24807,"lon":5.37442,"is_reserved":false,"is_disabled":false,"rental_uris":{"android":"levelo://app?vid=154ea9c7-a22d-408d-9f47-f19863086613","ios":"levelo://app?vid=154ea9c7-a22d-408d-9f47-f19863086613"},"vehicle_type_id":"4","last_reported":1783278064,"current_range_meters":6400,"station_id":"ce4bhgh2rcd13ifvqfb0","pricing_plan_id":"cebpf4jnsgd1na2vs0mg"},{"bike_id":"ced74b9f-b178-40c4-b05a-f65c4f2b3f5d","system_id":"levelo_inurba_marseille","lat":43.27954,"lon":5.41041,"is_reserved":false,"is_disabled":true,"rental_uris":{"android":"levelo://app?vid=ced74b9f-b178-40c4-b05a-f65c4f2b3f5d","ios":"levelo://app?vid=ced74b9f-b178-40c4-b05a-f65c4f2b3f5d"},"vehicle_type_id":"4","last_reported":1783278064,"current_range_meters":6400,"station_id":"ce4bhnp2rcd13ifvqh0g","pricing_plan_id":"cebpf4jnsgd1na2vs0mg"},{"bike_id":"ad2d51f1-fe26-41dd-9355-28a8e725097b","system_id":"levelo_inurba_marseille","lat":43.29694,"lon":5.37286,"is_reserved":false,"is_disabled":false,"rental_uris":{"android":"levelo://app?vid=ad2d51f1-fe26-41dd-9355-28a8e725097b","ios":"levelo://app?vid=ad2d51f1-fe26-41dd-9355-28a8e725097b"},"vehicle_type_id":"4","last_reported":1783278064,"current_range_meters":6400,"station_id":"ce4bgk12rcd13ifvqbj0","pricing_plan_id":"cebpf4jnsgd1na2vs0mg"},{"bike_id":"340ba085-7f04-4d51-8eda-6216a0914d5e","system_id":"levelo_inurba_marseille","lat":43.29625,"lon":5.38678,"is_reserved":false,"is_disabled":false,"rental_uris":{"android":"levelo://app?vid=340ba085-7f04-4d51-8eda-6216a0914d5e","ios":"levelo://app?vid=340ba085-7f04-4d51-8eda-6216a0914d5e"},"vehicle_type_id":"4","last_reported":1783278064,"current_range_meters":6400,"station_id":"","pricing_plan_id":"cebpf4jnsgd1na2vs0mg"},{"bike_id":"8220ecc2-6bf9-4e7d-8a35-6858c0daf5f4","system_id":"levelo_inurba_marseille","lat":43.21178,"lon":5.35141,"is_reserved":false,"is_disabled":false,"rental_uris":{"android":"levelo://app?vid=8220ecc2-6bf9-4e7d-8a35-6858c0daf5f4","ios":"levelo://app?vid=8220ecc2-6bf9-4e7d-8a35-6858c0daf5f4"},"vehicle_type_id":"4","last_reported":1783278064,"current_range_meters":6400,"station_id":"st_cvj6sg6p6f1abm77japg","pricing_plan_id":"cebpf4jnsgd1na2vs0mg"},{"bike_id":"b99fa2fa-6caa-4e97-a941-8427d6ff2309","system_id":"levelo_inurba_marseille","lat":43.26236,"lon":5.38766,"is_reserved":false,"is_disabled":true,"rental_uris":{"android":"levelo://app?vid=b99fa2fa-6caa-4e97-a941-8427d6ff2309","ios":"levelo://app?vid=b99fa2fa-6caa-4e97-a941-8427d6ff2309"},"vehicle_type_id":"4","last_reported":1783278064,"current_range_meters":6400,"station_id":"st_d8gjfg747rts73coq3b0","pricing_plan_id":"cebpf4jnsgd1na2vs0mg"},{"bike_id":"3bb65e3f-8547-41ac-9794-9276af9457a4","system_id":"levelo_inurba_marseille","lat":43.27959,"lon":5.38694,"is_reserved":false,"is_disabled":false,"rental_uris":{"android":"levelo://app?vid=3bb65e3f-8547-41ac-9794-9276af9457a4","ios":"levelo://app?vid=3bb65e3f-8547-41ac-9794-9276af9457a4"},"vehicle_type_id":"4","last_reported":1783278064,"current_range_meters":6400,"station_id":"ce4bhg12rcd13ifvqf80","pricing_plan_id":"cebpf4jnsgd1na2vs0mg"},{"bike_id":"ce96bab4-bfc4-4150-8d40-74272b92e348","system_id":"levelo_inurba_marseille","lat":43.23177,"lon":5.35555,"is_reserved":false,"is_disabled":false,"rental_uris":{"android":"levelo://app?vid=ce96bab4-bfc4-4150-8d40-74272b92e348","ios":"levelo://app?vid=ce96bab4-bfc4-4150-8d40-74272b92e348"},"vehicle_type_id":"4","last_reported":1783278064,"current_range_meters":6400,"station_id":"ce4bhu92rcd13ifvqi70","pricing_plan_id":"cebpf4jnsgd1na2vs0mg"},{"bike_id":"66f64495-157d-434d-a3ef-5a17f45e04e3","system_id":"levelo_inurba_marseille","lat":43.24127,"lon":5.40982,"is_reserved":false,"is_disabled":false,"rental_uris":{"android":"levelo://app?vid=66f64495-157d-434d-a3ef-5a17f45e04e3","ios":"levelo://app?vid=66f64495-157d-434d-a3ef-5a17f45e04e3"},"vehicle_type_id":"4","last_reported":1783278064,"current_range_meters":6400,"station_id":"","pricing_plan_id":"cebpf4jnsgd1na2vs0mg"},{"bike_id":"4ea05420-4688-4f88-ab4d-87e93bd11b74","system_id":"levelo_inurba_marseille","lat":43.29263,"lon":5.40896,"is_reserved":false,"is_disabled":false,"rental_uris":{"android":"levelo://app?vid=4ea05420-4688-4f88-ab4d-87e93bd11b74","ios":"levelo://app?vid=4ea05420-4688-4f88-ab4d-87e93bd11b74"},"vehicle_type_id":"4","last_reported":1783278064,"current_range_meters":6400,"station_id":"ce4bh192rcd13ifvqdc0","pricing_plan_id":"cebpf4jnsgd1na2vs0mg"},{"bike_id":"d7243867-d830-4852-bcaf-39fdde4db026","system_id":"levelo_inurba_marseille","lat":43.25582,"lon":5.38228,"is_reserved":false,"is_disabled":false,"rental_uris":{"android":"levelo://app?vid=d7243867-d830-4852-bcaf-39fdde4db026","ios":"levelo://app?vid=d7243867-d830-4852-bcaf-39fdde4db026"},"vehicle_type_id":"4","last_reported":1783278064,"current_range_meters":6400,"station_id":"ce4bhih2rcd13ifvqfs0","pricing_plan_id":"cebpf4jnsgd1na2vs0mg"},{"bike_id":"bf7ef886-0539-4750-82cf-5ab66ccd5326","system_id":"levelo_inurba_marseille","lat":43.29514,"lon":5.37502,"is_reserved":false,"is_disabled":false,"rental_uris":{"android":"levelo://app?vid=bf7ef886-0539-4750-82cf-5ab66ccd5326","ios":"levelo://app?vid=bf7ef886-0539-4750-82cf-5ab66ccd5326"},"vehicle_type_id":"4","last_reported":1783278064,"current_range_meters":6400,"station_id":"ce4bgkp2rcd13ifvqbmg","pricing_plan_id":"cebpf4jnsgd1na2vs0mg"},{"bike_id":"8896dd79-4f4c-480a-b8b3-b8ef1ff120bd","system_id":"levelo_inurba_marseille","lat":43.28564,"lon":5.39505,"is_reserved":false,"is_disabled":false,"rental_uris":{"android":"levelo://app?vid=8896dd79-4f4c-480a-b8b3-b8ef1ff120bd","ios":"levelo://app?vid=8896dd79-4f4c-480a-b8b3-b8ef1ff120bd"},"vehicle_type_id":"4","last_reported":1783278064,"current_range_meters":6400,"station_id":"ce4bh292rcd13ifvqdg0","pricing_plan_id":"cebpf4jnsgd1na2vs0mg"},{"bike_id":"f7826c83-beb8-416f-bc97-d9c1cfbddb0b","system_id":"levelo_inurba_marseille","lat":43.25165,"lon":5.40426,"is_reserved":false,"is_disabled":false,"rental_uris":{"android":"levelo://app?vid=f7826c83-beb8-416f-bc97-d9c1cfbddb0b","ios":"levelo://app?vid=f7826c83-beb8-416f-bc97-d9c1cfbddb0b"},"vehicle_type_id":"4","last_reported":1783278064,"current_range_meters":6400,"station_id":"","pricing_plan_id":"cebpf4jnsgd1na2vs0mg"},{"bike_id":"d3cd9571-4983-47b4-bcd2-4b7d6f46304f","system_id":"levelo_inurba_marseille","lat":43.23789,"lon":5.3661,"is_reserved":false,"is_disabled":false,"rental_uris":{"android":"levelo://app?vid=d3cd9571-4983-47b4-bcd2-4b7d6f46304f","ios":"levelo://app?vid=d3cd9571-4983-47b4-bcd2-4b7d6f46304f"},"vehicle_type_id":"4","last_reported":1783278064,"current_range_meters":6800,"station_id":"st_d3nk18o9ro0c73en2l3g","pricing_plan_id":"cebpf4jnsgd1na2vs0mg"},{"bike_id":"ba1dd43a-abc8-444c-bd37-f84dd2aae11e","system_id":"levelo_inurba_marseille","lat":43.24385,"lon":5.37038,"is_reserved":false,"is_disabled":false,"rental_uris":{"android":"levelo://app?vid=ba1dd43a-abc8-444c-bd37-f84dd2aae11e","ios":"levelo://app?vid=ba1dd43a-abc8-444c-bd37-f84dd2aae11e"},"vehicle_type_id":"4","last_reported":1783278064,"current_range_meters":6800,"station_id":"","pricing_plan_id":"cebpf4jnsgd1na2vs0mg"},{"bike_id":"7ae46dbb-7512-4dd6-9ff8-2852b6b80bd5","system_id":"levelo_inurba_marseille","lat":43.239598,"lon":5.36628,"is_reserved":false,"is_disabled":false,"rental_uris":{"android":"levelo://app?vid=7ae46dbb-7512-4dd6-9ff8-2852b6b80bd5","ios":"levelo://app?vid=7ae46dbb-7512-4dd6-9ff8-2852b6b80bd5"},"vehicle_type_id":"4","last_reported":1783278064,"current_range_meters":6800,"station_id":"ce4bhi12rcd13ifvqfp0","pricing_plan_id":"cebpf4jnsgd1na2vs0mg"},{"bike_id":"d1f95cf9-3c50-44e1-afec-1a16e5b009af","system_id":"levelo_inurba_marseille","lat":43.266713,"lon":5.372395,"is_reserved":false,"is_disabled":false,"rental_uris":{"android":"levelo://app?vid=d1f95cf9-3c50-44e1-afec-1a16e5b009af","ios":"levelo://app?vid=d1f95cf9-3c50-44e1-afec-1a16e5b009af"},"vehicle_type_id":"4","last_reported":1783278064,"current_range_meters":6800,"station_id":"","pricing_plan_id":"cebpf4jnsgd1na2vs0mg"},{"bike_id":"12b2d4ce-4735-4507-9fde-29557bacb2eb","system_id":"levelo_inurba_marseille","lat":43.28477,"lon":5.48387,"is_reserved":false,"is_disabled":false,"rental_uris":{"android":"levelo://app?vid=12b2d4ce-4735-4507-9fde-29557bacb2eb","ios":"levelo://app?vid=12b2d4ce-4735-4507-9fde-29557bacb2eb"},"vehicle_type_id":"4","last_reported":1783278064,"current_range_meters":6800,"station_id":"st_d3svhcjqgbts73a3dn0g","pricing_plan_id":"cebpf4jnsgd1na2vs0mg"},{"bike_id":"2d3dd4f4-c2be-4315-be3d-f35763bc2c71","system_id":"levelo_inurba_marseille","lat":43.26691,"lon":5.40201,"is_reserved":false,"is_disabled":false,"rental_uris":{"android":"levelo://app?vid=2d3dd4f4-c2be-4315-be3d-f35763bc2c71","ios":"levelo://app?vid=2d3dd4f4-c2be-4315-be3d-f35763bc2c71"},"vehicle_type_id":"4","last_reported":1783278064,"current_range_meters":6800,"station_id":"","pricing_plan_id":"cebpf4jnsgd1na2vs0mg"},{"bike_id":"3fcf6205-f23c-4cee-8363-04389955351d","system_id":"levelo_inurba_marseille","lat":43.22567,"lon":5.41626,"is_reserved":false,"is_disabled":false,"rental_uris":{"android":"levelo://app?vid=3fcf6205-f23c-4cee-8363-04389955351d","ios":"levelo://app?vid=3fcf6205-f23c-4cee-8363-04389955351d"},"vehicle_type_id":"4","last_reported":1783278064,"current_range_meters":6800,"station_id":"st_d2o4gvlbi1j2169b742g","pricing_plan_id":"cebpf4jnsgd1na2vs0mg"},{"bike_id":"40e722f2-64dd-416f-9e57-d96111c77e32","system_id":"levelo_inurba_marseille","lat":43.2871,"lon":5.46676,"is_reserved":false,"is_disabled":false,"rental_uris":{"android":"levelo://app?vid=40e722f2-64dd-416f-9e57-d96111c77e32","ios":"levelo://app?vid=40e722f2-64dd-416f-9e57-d96111c77e32"},"vehicle_type_id":"4","last_reported":1783278064,"current_range_meters":6800,"station_id":"st_d6tc3vkotcvc738tfjhg","pricing_plan_id":"cebpf4jnsgd1na2vs0mg"},{"bike_id":"67d98213-e3a7-426a-a994-abb73dd2d60c","system_id":"levelo_inurba_marseille","lat":43.30477,"lon":5.37901,"is_reserved":false,"is_disabled":false,"rental_uris":{"android":"levelo://app?vid=67d98213-e3a7-426a-a994-abb73dd2d60c","ios":"levelo://app?vid=67d98213-e3a7-426a-a994-abb73dd2d60c"},"vehicle_type_id":"4","last_reported":1783278064,"current_range_meters":6800,"station_id":"ce4bgup2rcd13ifvqcn0","pricing_plan_id":"cebpf4jnsgd1na2vs0mg"},{"bike_id":"4d52a61b-5c30-41df-a6ac-71b42f016aed","system_id":"levelo_inurba_marseille","lat":43.25861,"lon":5.39917,"is_reserved":false,"is_disabled":true,"rental_uris":{"android":"levelo://app?vid=4d52a61b-5c30-41df-a6ac-71b42f016aed","ios":"levelo://app?vid=4d52a61b-5c30-41df-a6ac-71b42f016aed"},"vehicle_type_id":"4","last_reported":1783278064,"current_range_meters":6800,"station_id":"ce4bhl92rcd13ifvqghg","pricing_plan_id":"cebpf4jnsgd1na2vs0mg"},{"bike_id":"8573ae4c-c9fc-4ff8-a5e9-0df2486e1c40","system_id":"levelo_inurba_marseille","lat":43.26031,"lon":5.37537,"is_reserved":false,"is_disabled":true,"rental_uris":{"android":"levelo://app?vid=8573ae4c-c9fc-4ff8-a5e9-0df2486e1c40","ios":"levelo://app?vid=8573ae4c-c9fc-4ff8-a5e9-0df2486e1c40"},"vehicle_type_id":"4","last_reported":1783278064,"current_range_meters":6800,"station_id":"ce4bhgh2rcd13ifvqfa0","pricing_plan_id":"cebpf4jnsgd1na2vs0mg"},{"bike_id":"84ff885b-98f7-4f23-aef7-8b1bad9aecc4","system_id":"levelo_inurba_marseille","lat":43.305321,"lon":5.384174,"is_reserved":false,"is_disabled":false,"rental_uris":{"android":"levelo://app?vid=84ff885b-98f7-4f23-aef7-8b1bad9aecc4","ios":"levelo://app?vid=84ff885b-98f7-4f23-aef7-8b1bad9aecc4"},"vehicle_type_id":"4","last_reported":1783278064,"current_range_meters":6800,"station_id":"ce4bgg92rcd13ifvqb30","pricing_plan_id":"cebpf4jnsgd1na2vs0mg"},{"bike_id":"d1710934-20c4-4454-8704-43ea17bf2e70","system_id":"levelo_inurba_marseille","lat":43.28069,"lon":5.34762,"is_reserved":false,"is_disabled":false,"rental_uris":{"android":"levelo://app?vid=d1710934-20c4-4454-8704-43ea17bf2e70","ios":"levelo://app?vid=d1710934-20c4-4454-8704-43ea17bf2e70"},"vehicle_type_id":"4","last_reported":1783278064,"current_range_meters":6800,"station_id":"","pricing_plan_id":"cebpf4jnsgd1na2vs0mg"},{"bike_id":"cc738f32-f811-4e3f-b968-0bc0d7c9be0d","system_id":"levelo_inurba_marseille","lat":43.29277,"lon":5.40925,"is_reserved":false,"is_disabled":true,"rental_uris":{"android":"levelo://app?vid=cc738f32-f811-4e3f-b968-0bc0d7c9be0d","ios":"levelo://app?vid=cc738f32-f811-4e3f-b968-0bc0d7c9be0d"},"vehicle_type_id":"4","last_reported":1783278064,"current_range_meters":6800,"station_id":"ce4bh192rcd13ifvqdc0","pricing_plan_id":"cebpf4jnsgd1na2vs0mg"},{"bike_id":"6f74e72f-4daa-466c-8061-7f39615bd85c","system_id":"levelo_inurba_marseille","lat":43.29227,"lon":5.3604,"is_reserved":false,"is_disabled":false,"rental_uris":{"android":"levelo://app?vid=6f74e72f-4daa-466c-8061-7f39615bd85c","ios":"levelo://app?vid=6f74e72f-4daa-466c-8061-7f39615bd85c"},"vehicle_type_id":"4","last_reported":1783278064,"current_range_meters":6800,"station_id":"ce4bhbh2rcd13ifvqeqg","pricing_plan_id":"cebpf4jnsgd1na2vs0mg"},{"bike_id":"e83542c0-4104-4517-a0dd-814e1cc6cfd7","system_id":"levelo_inurba_marseille","lat":43.28666,"lon":5.38678,"is_reserved":false,"is_disabled":false,"rental_uris":{"android":"levelo://app?vid=e83542c0-4104-4517-a0dd-814e1cc6cfd7","ios":"levelo://app?vid=e83542c0-4104-4517-a0dd-814e1cc6cfd7"},"vehicle_type_id":"4","last_reported":1783278064,"current_range_meters":6800,"station_id":"ce4bh492rcd13ifvqdug","pricing_plan_id":"cebpf4jnsgd1na2vs0mg"},{"bike_id":"ebb69cdb-f57c-486a-9d37-3814132e26e5","system_id":"levelo_inurba_marseille","lat":43.28037,"lon":5.36935,"is_reserved":false,"is_disabled":true,"rental_uris":{"android":"levelo://app?vid=ebb69cdb-f57c-486a-9d37-3814132e26e5","ios":"levelo://app?vid=ebb69cdb-f57c-486a-9d37-3814132e26e5"},"vehicle_type_id":"4","last_reported":1783278064,"current_range_meters":6800,"station_id":"ce4bha12rcd13ifvqef0","pricing_plan_id":"cebpf4jnsgd1na2vs0mg"},{"bike_id":"a4f9ee3b-b427-4829-b639-bd7508b29e83","system_id":"levelo_inurba_marseille","lat":43.28286,"lon":5.35082,"is_reserved":false,"is_disabled":true,"rental_uris":{"android":"levelo://app?vid=a4f9ee3b-b427-4829-b639-bd7508b29e83","ios":"levelo://app?vid=a4f9ee3b-b427-4829-b639-bd7508b29e83"},"vehicle_type_id":"4","last_reported":1783278064,"current_range_meters":6800,"station_id":"ce4bhbp2rcd13ifvqerg","pricing_plan_id":"cebpf4jnsgd1na2vs0mg"},{"bike_id":"8bc199c6-fa2d-4c70-9249-7d435dcab9a6","system_id":"levelo_inurba_marseille","lat":43.2926,"lon":5.3675,"is_reserved":false,"is_disabled":true,"rental_uris":{"android":"levelo://app?vid=8bc199c6-fa2d-4c70-9249-7d435dcab9a6","ios":"levelo://app?vid=8bc199c6-fa2d-4c70-9249-7d435dcab9a6"},"vehicle_type_id":"4","last_reported":1783278064,"current_range_meters":6800,"station_id":"","pricing_plan_id":"cebpf4jnsgd1na2vs0mg"},{"bike_id":"d542e80b-c621-4744-a175-6c723a1aa866","system_id":"levelo_inurba_marseille","lat":43.29313,"lon":5.4456,"is_reserved":false,"is_disabled":false,"rental_uris":{"android":"levelo://app?vid=d542e80b-c621-4744-a175-6c723a1aa866","ios":"levelo://app?vid=d542e80b-c621-4744-a175-6c723a1aa866"},"vehicle_type_id":"4","last_reported":1783278064,"current_range_meters":6800,"station_id":"","pricing_plan_id":"cebpf4jnsgd1na2vs0mg"},{"bike_id":"f56c5a55-490f-470f-bccd-8a878283165b","system_id":"levelo_inurba_marseille","lat":43.31789,"lon":5.36838,"is_reserved":false,"is_disabled":false,"rental_uris":{"android":"levelo://app?vid=f56c5a55-490f-470f-bccd-8a878283165b","ios":"levelo://app?vid=f56c5a55-490f-470f-bccd-8a878283165b"},"vehicle_type_id":"4","last_reported":1783278064,"current_range_meters":6800,"station_id":"","pricing_plan_id":"cebpf4jnsgd1na2vs0mg"},{"bike_id":"ca803bbb-df34-4e95-a7c2-94aa897ae6b5","system_id":"levelo_inurba_marseille","lat":43.28705,"lon":5.46685,"is_reserved":false,"is_disabled":false,"rental_uris":{"android":"levelo://app?vid=ca803bbb-df34-4e95-a7c2-94aa897ae6b5","ios":"levelo://app?vid=ca803bbb-df34-4e95-a7c2-94aa897ae6b5"},"vehicle_type_id":"4","last_reported":1783278064,"current_range_meters":6800,"station_id":"st_d6tc3vkotcvc738tfjhg","pricing_plan_id":"cebpf4jnsgd1na2vs0mg"},{"bike_id":"75efaf6c-211b-4195-9354-372029404c1d","system_id":"levelo_inurba_marseille","lat":43.25089,"lon":5.39495,"is_reserved":false,"is_disabled":false,"rental_uris":{"android":"levelo://app?vid=75efaf6c-211b-4195-9354-372029404c1d","ios":"levelo://app?vid=75efaf6c-211b-4195-9354-372029404c1d"},"vehicle_type_id":"4","last_reported":1783278064,"current_range_meters":6800,"station_id":"ce4bhm12rcd13ifvqgkg","pricing_plan_id":"cebpf4jnsgd1na2vs0mg"},{"bike_id":"537ca998-8fd3-4dae-915c-356daecbb82f","system_id":"levelo_inurba_marseille","lat":43.29028,"lon":5.38629,"is_reserved":false,"is_disabled":true,"rental_uris":{"android":"levelo://app?vid=537ca998-8fd3-4dae-915c-356daecbb82f","ios":"levelo://app?vid=537ca998-8fd3-4dae-915c-356daecbb82f"},"vehicle_type_id":"4","last_reported":1783278064,"current_range_meters":6800,"station_id":"ce4bh4p2rcd13ifvqe0g","pricing_plan_id":"cebpf4jnsgd1na2vs0mg"},{"bike_id":"ea939014-79a9-4d64-9cd2-c29e9ee2cb8b","system_id":"levelo_inurba_marseille","lat":43.28093,"lon":5.37838,"is_reserved":false,"is_disabled":false,"rental_uris":{"android":"levelo://app?vid=ea939014-79a9-4d64-9cd2-c29e9ee2cb8b","ios":"levelo://app?vid=ea939014-79a9-4d64-9cd2-c29e9ee2cb8b"},"vehicle_type_id":"4","last_reported":1783278064,"current_range_meters":6800,"station_id":"ce4bha12rcd13ifvqee0","pricing_plan_id":"cebpf4jnsgd1na2vs0mg"},{"bike_id":"2bd79137-03b5-4309-b0d7-20c725d16088","system_id":"levelo_inurba_marseille","lat":43.30883,"lon":5.36856,"is_reserved":false,"is_disabled":false,"rental_uris":{"android":"levelo://app?vid=2bd79137-03b5-4309-b0d7-20c725d16088","ios":"levelo://app?vid=2bd79137-03b5-4309-b0d7-20c725d16088"},"vehicle_type_id":"4","last_reported":1783278064,"current_range_meters":6800,"station_id":"ce4bgn92rcd13ifvqbvg","pricing_plan_id":"cebpf4jnsgd1na2vs0mg"},{"bike_id":"b6aa2529-47a5-48dc-8a53-0cb13d718c83","system_id":"levelo_inurba_marseille","lat":43.23301,"lon":5.40811,"is_reserved":false,"is_disabled":false,"rental_uris":{"android":"levelo://app?vid=b6aa2529-47a5-48dc-8a53-0cb13d718c83","ios":"levelo://app?vid=b6aa2529-47a5-48dc-8a53-0cb13d718c83"},"vehicle_type_id":"4","last_reported":1783278064,"current_range_meters":6800,"station_id":"","pricing_plan_id":"cebpf4jnsgd1na2vs0mg"},{"bike_id":"c9445652-b236-402b-8ec1-fb5567a22b0f","system_id":"levelo_inurba_marseille","lat":43.24459,"lon":5.40945,"is_reserved":false,"is_disabled":false,"rental_uris":{"android":"levelo://app?vid=c9445652-b236-402b-8ec1-fb5567a22b0f","ios":"levelo://app?vid=c9445652-b236-402b-8ec1-fb5567a22b0f"},"vehicle_type_id":"4","last_reported":1783278064,"current_range_meters":6800,"station_id":"","pricing_plan_id":"cebpf4jnsgd1na2vs0mg"},{"bike_id":"acb6b183-d4d6-4d8e-974e-924b61f91a80","system_id":"levelo_inurba_marseille","lat":43.34434,"lon":5.42038,"is_reserved":false,"is_disabled":false,"rental_uris":{"android":"levelo://app?vid=acb6b183-d4d6-4d8e-974e-924b61f91a80","ios":"levelo://app?vid=acb6b183-d4d6-4d8e-974e-924b61f91a80"},"vehicle_type_id":"4","last_reported":1783278064,"current_range_meters":6800,"station_id":"","pricing_plan_id":"cebpf4jnsgd1na2vs0mg"},{"bike_id":"fc5d7b22-bed1-4640-a4b2-9379b1406486","system_id":"levelo_inurba_marseille","lat":43.29426,"lon":5.38446,"is_reserved":false,"is_disabled":true,"rental_uris":{"android":"levelo://app?vid=fc5d7b22-bed1-4640-a4b2-9379b1406486","ios":"levelo://app?vid=fc5d7b22-bed1-4640-a4b2-9379b1406486"},"vehicle_type_id":"4","last_reported":1783278064,"current_range_meters":6800,"station_id":"","pricing_plan_id":"cebpf4jnsgd1na2vs0mg"},{"bike_id":"e00d0afb-ac80-42d8-8e53-c3dd7e3d351c","system_id":"levelo_inurba_marseille","lat":43.26176,"lon":5.37517,"is_reserved":false,"is_disabled":false,"rental_uris":{"android":"levelo://app?vid=e00d0afb-ac80-42d8-8e53-c3dd7e3d351c","ios":"levelo://app?vid=e00d0afb-ac80-42d8-8e53-c3dd7e3d351c"},"vehicle_type_id":"4","last_reported":1783278064,"current_range_meters":6800,"station_id":"","pricing_plan_id":"cebpf4jnsgd1na2vs0mg"},{"bike_id":"6602a7d6-fcd0-4a56-9f1d-4413c55fba23","system_id":"levelo_inurba_marseille","lat":43.2655,"lon":5.37265,"is_reserved":false,"is_disabled":false,"rental_uris":{"android":"levelo://app?vid=6602a7d6-fcd0-4a56-9f1d-4413c55fba23","ios":"levelo://app?vid=6602a7d6-fcd0-4a56-9f1d-4413c55fba23"},"vehicle_type_id":"4","last_reported":1783278064,"current_range_meters":6800,"station_id":"ce4bhg12rcd13ifvqf70","pricing_plan_id":"cebpf4jnsgd1na2vs0mg"},{"bike_id":"c1c88b11-92f5-437b-85af-b745aa920b32","system_id":"levelo_inurba_marseille","lat":43.26683,"lon":5.38732,"is_reserved":false,"is_disabled":false,"rental_uris":{"android":"levelo://app?vid=c1c88b11-92f5-437b-85af-b745aa920b32","ios":"levelo://app?vid=c1c88b11-92f5-437b-85af-b745aa920b32"},"vehicle_type_id":"4","last_reported":1783278064,"current_range_meters":6800,"station_id":"","pricing_plan_id":"cebpf4jnsgd1na2vs0mg"},{"bike_id":"72321858-335b-494f-81e0-2a502fdbcf5a","system_id":"levelo_inurba_marseille","lat":43.2971,"lon":5.36609,"is_reserved":false,"is_disabled":false,"rental_uris":{"android":"levelo://app?vid=72321858-335b-494f-81e0-2a502fdbcf5a","ios":"levelo://app?vid=72321858-335b-494f-81e0-2a502fdbcf5a"},"vehicle_type_id":"4","last_reported":1783278064,"current_range_meters":6800,"station_id":"ce4bgn12rcd13ifvqbt0","pricing_plan_id":"cebpf4jnsgd1na2vs0mg"},{"bike_id":"042aa53d-4ec3-477c-b412-9e56cf0ac38d","system_id":"levelo_inurba_marseille","lat":43.31915,"lon":5.36818,"is_reserved":false,"is_disabled":false,"rental_uris":{"android":"levelo://app?vid=042aa53d-4ec3-477c-b412-9e56cf0ac38d","ios":"levelo://app?vid=042aa53d-4ec3-477c-b412-9e56cf0ac38d"},"vehicle_type_id":"4","last_reported":1783278064,"current_range_meters":7200,"station_id":"st_d6o2h0d0559c73evc1b0","pricing_plan_id":"cebpf4jnsgd1na2vs0mg"},{"bike_id":"8404307f-562f-4d61-9270-8135a9ab90dc","system_id":"levelo_inurba_marseille","lat":43.2872,"lon":5.36094,"is_reserved":false,"is_disabled":false,"rental_uris":{"android":"levelo://app?vid=8404307f-562f-4d61-9270-8135a9ab90dc","ios":"levelo://app?vid=8404307f-562f-4d61-9270-8135a9ab90dc"},"vehicle_type_id":"4","last_reported":1783278064,"current_range_meters":7200,"station_id":"cki0cbj6b192h4jlfktg","pricing_plan_id":"cebpf4jnsgd1na2vs0mg"},{"bike_id":"6e28c7de-4432-46c6-8824-5a05812aca65","system_id":"levelo_inurba_marseille","lat":43.22534,"lon":5.3483,"is_reserved":false,"is_disabled":false,"rental_uris":{"android":"levelo://app?vid=6e28c7de-4432-46c6-8824-5a05812aca65","ios":"levelo://app?vid=6e28c7de-4432-46c6-8824-5a05812aca65"},"vehicle_type_id":"4","last_reported":1783278064,"current_range_meters":7200,"station_id":"st_cvj5dfep6f1abm77gieg","pricing_plan_id":"cebpf4jnsgd1na2vs0mg"},{"bike_id":"f1fa67ea-70e8-494e-90f1-3cd8a54e2aac","system_id":"levelo_inurba_marseille","lat":43.282779,"lon":5.350631,"is_reserved":false,"is_disabled":true,"rental_uris":{"android":"levelo://app?vid=f1fa67ea-70e8-494e-90f1-3cd8a54e2aac","ios":"levelo://app?vid=f1fa67ea-70e8-494e-90f1-3cd8a54e2aac"},"vehicle_type_id":"4","last_reported":1783278064,"current_range_meters":7200,"station_id":"ce4bhbp2rcd13ifvqerg","pricing_plan_id":"cebpf4jnsgd1na2vs0mg"},{"bike_id":"6b703ae7-b021-4d07-a990-ef927f27bcc0","system_id":"levelo_inurba_marseille","lat":43.25434,"lon":5.37597,"is_reserved":false,"is_disabled":false,"rental_uris":{"android":"levelo://app?vid=6b703ae7-b021-4d07-a990-ef927f27bcc0","ios":"levelo://app?vid=6b703ae7-b021-4d07-a990-ef927f27bcc0"},"vehicle_type_id":"4","last_reported":1783278064,"current_range_meters":7200,"station_id":"","pricing_plan_id":"cebpf4jnsgd1na2vs0mg"},{"bike_id":"ad5e12b0-e8a0-49c7-be98-eb70beef7567","system_id":"levelo_inurba_marseille","lat":43.28924,"lon":5.36383,"is_reserved":false,"is_disabled":false,"rental_uris":{"android":"levelo://app?vid=ad5e12b0-e8a0-49c7-be98-eb70beef7567","ios":"levelo://app?vid=ad5e12b0-e8a0-49c7-be98-eb70beef7567"},"vehicle_type_id":"4","last_reported":1783278064,"current_range_meters":7200,"station_id":"ce4bhc92rcd13ifvqetg","pricing_plan_id":"cebpf4jnsgd1na2vs0mg"},{"bike_id":"d3445804-aa86-4322-9d7c-8853ed1e9664","system_id":"levelo_inurba_marseille","lat":43.29562,"lon":5.42275,"is_reserved":false,"is_disabled":false,"rental_uris":{"android":"levelo://app?vid=d3445804-aa86-4322-9d7c-8853ed1e9664","ios":"levelo://app?vid=d3445804-aa86-4322-9d7c-8853ed1e9664"},"vehicle_type_id":"4","last_reported":1783278064,"current_range_meters":7200,"station_id":"ce4bhph2rcd13ifvqhdg","pricing_plan_id":"cebpf4jnsgd1na2vs0mg"},{"bike_id":"d431316b-6f11-4fcf-9289-e091c76429a8","system_id":"levelo_inurba_marseille","lat":43.3095,"lon":5.39024,"is_reserved":false,"is_disabled":false,"rental_uris":{"android":"levelo://app?vid=d431316b-6f11-4fcf-9289-e091c76429a8","ios":"levelo://app?vid=d431316b-6f11-4fcf-9289-e091c76429a8"},"vehicle_type_id":"4","last_reported":1783278064,"current_range_meters":7200,"station_id":"ce4bgup2rcd13ifvqco0","pricing_plan_id":"cebpf4jnsgd1na2vs0mg"},{"bike_id":"cb34bd76-9ca2-4b46-8568-b381d63b6f07","system_id":"levelo_inurba_marseille","lat":43.23189,"lon":5.35543,"is_reserved":false,"is_disabled":false,"rental_uris":{"android":"levelo://app?vid=cb34bd76-9ca2-4b46-8568-b381d63b6f07","ios":"levelo://app?vid=cb34bd76-9ca2-4b46-8568-b381d63b6f07"},"vehicle_type_id":"4","last_reported":1783278064,"current_range_meters":7200,"station_id":"ce4bhu92rcd13ifvqi70","pricing_plan_id":"cebpf4jnsgd1na2vs0mg"},{"bike_id":"66c6e5ad-12fd-409e-a59d-315fc11950b1","system_id":"levelo_inurba_marseille","lat":43.27569,"lon":5.38417,"is_reserved":false,"is_disabled":true,"rental_uris":{"android":"levelo://app?vid=66c6e5ad-12fd-409e-a59d-315fc11950b1","ios":"levelo://app?vid=66c6e5ad-12fd-409e-a59d-315fc11950b1"},"vehicle_type_id":"4","last_reported":1783278064,"current_range_meters":7200,"station_id":"ce4bhh92rcd13ifvqfi0","pricing_plan_id":"cebpf4jnsgd1na2vs0mg"},{"bike_id":"ccd664e5-57b3-4866-b348-4456c0473833","system_id":"levelo_inurba_marseille","lat":43.30948,"lon":5.39026,"is_reserved":false,"is_disabled":false,"rental_uris":{"android":"levelo://app?vid=ccd664e5-57b3-4866-b348-4456c0473833","ios":"levelo://app?vid=ccd664e5-57b3-4866-b348-4456c0473833"},"vehicle_type_id":"4","last_reported":1783278064,"current_range_meters":7200,"station_id":"ce4bgup2rcd13ifvqco0","pricing_plan_id":"cebpf4jnsgd1na2vs0mg"},{"bike_id":"ac45b691-a3e7-4279-bea7-5da2c5afb3c2","system_id":"levelo_inurba_marseille","lat":43.29042,"lon":5.37565,"is_reserved":false,"is_disabled":true,"rental_uris":{"android":"levelo://app?vid=ac45b691-a3e7-4279-bea7-5da2c5afb3c2","ios":"levelo://app?vid=ac45b691-a3e7-4279-bea7-5da2c5afb3c2"},"vehicle_type_id":"4","last_reported":1783278064,"current_range_meters":7200,"station_id":"ce4bh692rcd13ifvqe90","pricing_plan_id":"cebpf4jnsgd1na2vs0mg"},{"bike_id":"dd79159f-ed35-4a49-9b03-c578920fe8fd","system_id":"levelo_inurba_marseille","lat":43.29166,"lon":5.37162,"is_reserved":false,"is_disabled":false,"rental_uris":{"android":"levelo://app?vid=dd79159f-ed35-4a49-9b03-c578920fe8fd","ios":"levelo://app?vid=dd79159f-ed35-4a49-9b03-c578920fe8fd"},"vehicle_type_id":"4","last_reported":1783278064,"current_range_meters":7200,"station_id":"ce4bha92rcd13ifvqeh0","pricing_plan_id":"cebpf4jnsgd1na2vs0mg"},{"bike_id":"68037797-3fd0-48fc-94bf-6474da678bfb","system_id":"levelo_inurba_marseille","lat":43.24807,"lon":5.37452,"is_reserved":false,"is_disabled":false,"rental_uris":{"android":"levelo://app?vid=68037797-3fd0-48fc-94bf-6474da678bfb","ios":"levelo://app?vid=68037797-3fd0-48fc-94bf-6474da678bfb"},"vehicle_type_id":"4","last_reported":1783278064,"current_range_meters":7200,"station_id":"ce4bhgh2rcd13ifvqfb0","pricing_plan_id":"cebpf4jnsgd1na2vs0mg"},{"bike_id":"33b623a6-f163-477e-9ac5-24a9045120e8","system_id":"levelo_inurba_marseille","lat":43.29192,"lon":5.35802,"is_reserved":false,"is_disabled":false,"rental_uris":{"android":"levelo://app?vid=33b623a6-f163-477e-9ac5-24a9045120e8","ios":"levelo://app?vid=33b623a6-f163-477e-9ac5-24a9045120e8"},"vehicle_type_id":"4","last_reported":1783278064,"current_range_meters":7200,"station_id":"ce4bhb12rcd13ifvqel0","pricing_plan_id":"cebpf4jnsgd1na2vs0mg"},{"bike_id":"b039a727-71b1-4709-945e-51f5aeb9fa7f","system_id":"levelo_inurba_marseille","lat":43.22516,"lon":5.34838,"is_reserved":false,"is_disabled":false,"rental_uris":{"android":"levelo://app?vid=b039a727-71b1-4709-945e-51f5aeb9fa7f","ios":"levelo://app?vid=b039a727-71b1-4709-945e-51f5aeb9fa7f"},"vehicle_type_id":"4","last_reported":1783278064,"current_range_meters":7200,"station_id":"st_cvj5dfep6f1abm77gieg","pricing_plan_id":"cebpf4jnsgd1na2vs0mg"},{"bike_id":"fe4ba1a4-8723-43aa-ad8f-509b6facf169","system_id":"levelo_inurba_marseille","lat":43.29348,"lon":5.36291,"is_reserved":false,"is_disabled":false,"rental_uris":{"android":"levelo://app?vid=fe4ba1a4-8723-43aa-ad8f-509b6facf169","ios":"levelo://app?vid=fe4ba1a4-8723-43aa-ad8f-509b6facf169"},"vehicle_type_id":"4","last_reported":1783278064,"current_range_meters":7200,"station_id":"","pricing_plan_id":"cebpf4jnsgd1na2vs0mg"},{"bike_id":"f50a5db1-8f30-43bb-ab5d-d039f1a46ffe","system_id":"levelo_inurba_marseille","lat":43.293,"lon":5.37451,"is_reserved":false,"is_disabled":false,"rental_uris":{"android":"levelo://app?vid=f50a5db1-8f30-43bb-ab5d-d039f1a46ffe","ios":"levelo://app?vid=f50a5db1-8f30-43bb-ab5d-d039f1a46ffe"},"vehicle_type_id":"4","last_reported":1783278064,"current_range_meters":7200,"station_id":"ce4bgi12rcd13ifvqb70","pricing_plan_id":"cebpf4jnsgd1na2vs0mg"},{"bike_id":"9e456402-c486-41b9-a74c-8f403e2a35f7","system_id":"levelo_inurba_marseille","lat":43.26232,"lon":5.38755,"is_reserved":false,"is_disabled":false,"rental_uris":{"android":"levelo://app?vid=9e456402-c486-41b9-a74c-8f403e2a35f7","ios":"levelo://app?vid=9e456402-c486-41b9-a74c-8f403e2a35f7"},"vehicle_type_id":"4","last_reported":1783278064,"current_range_meters":7200,"station_id":"st_d8gjfg747rts73coq3b0","pricing_plan_id":"cebpf4jnsgd1na2vs0mg"},{"bike_id":"85706f81-4982-4276-b755-d4181aa895f9","system_id":"levelo_inurba_marseille","lat":43.2841,"lon":5.38438,"is_reserved":false,"is_disabled":false,"rental_uris":{"android":"levelo://app?vid=85706f81-4982-4276-b755-d4181aa895f9","ios":"levelo://app?vid=85706f81-4982-4276-b755-d4181aa895f9"},"vehicle_type_id":"4","last_reported":1783278064,"current_range_meters":8000,"station_id":"","pricing_plan_id":"cebpf4jnsgd1na2vs0mg"},{"bike_id":"59fbd96a-abd2-4ef8-a77e-2449bdc949ec","system_id":"levelo_inurba_marseille","lat":43.29379,"lon":5.37818,"is_reserved":false,"is_disabled":false,"rental_uris":{"android":"levelo://app?vid=59fbd96a-abd2-4ef8-a77e-2449bdc949ec","ios":"levelo://app?vid=59fbd96a-abd2-4ef8-a77e-2449bdc949ec"},"vehicle_type_id":"4","last_reported":1783278064,"current_range_meters":8000,"station_id":"ce4bgjh2rcd13ifvqbf0","pricing_plan_id":"cebpf4jnsgd1na2vs0mg"},{"bike_id":"1a308dec-72d0-4a1a-ac54-3081838b3761","system_id":"levelo_inurba_marseille","lat":43.28843,"lon":5.39315,"is_reserved":false,"is_disabled":false,"rental_uris":{"android":"levelo://app?vid=1a308dec-72d0-4a1a-ac54-3081838b3761","ios":"levelo://app?vid=1a308dec-72d0-4a1a-ac54-3081838b3761"},"vehicle_type_id":"4","last_reported":1783278064,"current_range_meters":8000,"station_id":"ce4bh2p2rcd13ifvqdi0","pricing_plan_id":"cebpf4jnsgd1na2vs0mg"},{"bike_id":"138e49e7-8d22-4832-895c-d97d918d2d72","system_id":"levelo_inurba_marseille","lat":43.2782,"lon":5.36441,"is_reserved":false,"is_disabled":false,"rental_uris":{"android":"levelo://app?vid=138e49e7-8d22-4832-895c-d97d918d2d72","ios":"levelo://app?vid=138e49e7-8d22-4832-895c-d97d918d2d72"},"vehicle_type_id":"4","last_reported":1783278064,"current_range_meters":8000,"station_id":"","pricing_plan_id":"cebpf4jnsgd1na2vs0mg"},{"bike_id":"4b82367f-4219-434f-940a-f94c7ecd6238","system_id":"levelo_inurba_marseille","lat":43.29199,"lon":5.35803,"is_reserved":false,"is_disabled":false,"rental_uris":{"android":"levelo://app?vid=4b82367f-4219-434f-940a-f94c7ecd6238","ios":"levelo://app?vid=4b82367f-4219-434f-940a-f94c7ecd6238"},"vehicle_type_id":"4","last_reported":1783278064,"current_range_meters":8000,"station_id":"ce4bhb12rcd13ifvqel0","pricing_plan_id":"cebpf4jnsgd1na2vs0mg"},{"bike_id":"e87ce516-f6a4-4d55-885b-e13f7bc80259","system_id":"levelo_inurba_marseille","lat":43.2928,"lon":5.36839,"is_reserved":false,"is_disabled":false,"rental_uris":{"android":"levelo://app?vid=e87ce516-f6a4-4d55-885b-e13f7bc80259","ios":"levelo://app?vid=e87ce516-f6a4-4d55-885b-e13f7bc80259"},"vehicle_type_id":"4","last_reported":1783278064,"current_range_meters":8000,"station_id":"ce4bhbp2rcd13ifvqesg","pricing_plan_id":"cebpf4jnsgd1na2vs0mg"},{"bike_id":"8a6315b0-6f8f-4ece-af5c-c45b772acec5","system_id":"levelo_inurba_marseille","lat":43.30945,"lon":5.39047,"is_reserved":false,"is_disabled":false,"rental_uris":{"android":"levelo://app?vid=8a6315b0-6f8f-4ece-af5c-c45b772acec5","ios":"levelo://app?vid=8a6315b0-6f8f-4ece-af5c-c45b772acec5"},"vehicle_type_id":"4","last_reported":1783278064,"current_range_meters":8000,"station_id":"ce4bgup2rcd13ifvqco0","pricing_plan_id":"cebpf4jnsgd1na2vs0mg"},{"bike_id":"ae9653ca-a981-4fa4-848f-da55e76d424c","system_id":"levelo_inurba_marseille","lat":43.27184,"lon":5.40984,"is_reserved":false,"is_disabled":false,"rental_uris":{"android":"levelo://app?vid=ae9653ca-a981-4fa4-848f-da55e76d424c","ios":"levelo://app?vid=ae9653ca-a981-4fa4-848f-da55e76d424c"},"vehicle_type_id":"4","last_reported":1783278064,"current_range_meters":8000,"station_id":"ce4bhl12rcd13ifvqgf0","pricing_plan_id":"cebpf4jnsgd1na2vs0mg"},{"bike_id":"d62a5f06-a4d3-43f1-8950-c438f1f04a18","system_id":"levelo_inurba_marseille","lat":43.27478,"lon":5.40519,"is_reserved":false,"is_disabled":false,"rental_uris":{"android":"levelo://app?vid=d62a5f06-a4d3-43f1-8950-c438f1f04a18","ios":"levelo://app?vid=d62a5f06-a4d3-43f1-8950-c438f1f04a18"},"vehicle_type_id":"4","last_reported":1783278064,"current_range_meters":8000,"station_id":"","pricing_plan_id":"cebpf4jnsgd1na2vs0mg"},{"bike_id":"4e6e1bcc-f3aa-4bae-8133-a5987541c432","system_id":"levelo_inurba_marseille","lat":43.23967,"lon":5.36602,"is_reserved":false,"is_disabled":false,"rental_uris":{"android":"levelo://app?vid=4e6e1bcc-f3aa-4bae-8133-a5987541c432","ios":"levelo://app?vid=4e6e1bcc-f3aa-4bae-8133-a5987541c432"},