{"last_updated":1690635990,"ttl":30,"version":"2.2","data":{"bikes":[{"bike_id":"6919b2c8-2aaa-4cc0-a7fd-1815057bf249","system_id":"levelo_inurba_marseille","lat":43.31341,"lon":5.367098,"is_reserved":false,"is_disabled":false,"rental_uris":{"android":"levelo://app?vid=6919b2c8-2aaa-4cc0-a7fd-1815057bf249","ios":"levelo://app?vid=6919b2c8-2aaa-4cc0-a7fd-1815057bf249"},"vehicle_type_id":"4","last_reported":1690635991,"current_range_meters":30000,"station_id":"ce4bgr92rcd13ifvqc6g","pricing_plan_id":"free"},{"bike_id":"cf81eeac-fe03-449e-ab9d-24cb454ba33c","system_id":"levelo_inurba_marseille","lat":43.31341,"lon":5.367098,"is_reserved":false,"is_disabled":false,"rental_uris":{"android":"levelo://app?vid=cf81eeac-fe03-449e-ab9d-24cb454ba33c","ios":"levelo://app?vid=cf81eeac-fe03-449e-ab9d-24cb454ba33c"},"vehicle_type_id":"4","last_reported":1690635991,"current_range_meters":29200,"station_id":"ce4bgr92rcd13ifvqc6g","pricing_plan_id":"free"},{"bike_id":"96728249-39f7-4740-81be-01ce45f0a0b2","system_id":"levelo_inurba_marseille","lat":43.313391,"lon":5.36706,"is_reserved":false,"is_disabled":false,"rental_uris":{"android":"levelo://app?vid=96728249-39f7-4740-81be-01ce45f0a0b2","ios":"levelo://app?vid=96728249-39f7-4740-81be-01ce45f0a0b2"},"vehicle_type_id":"4","last_reported":1690635991,"current_range_meters":29600,"station_id":"ce4bgr92rcd13ifvqc6g","pricing_plan_id":"free"},{"bike_id":"cfb186af-3014-4ad7-b593-797b1a3ee359","system_id":"levelo_inurba_marseille","lat":43.313391,"lon":5.36706,"is_reserved":false,"is_disabled":false,"rental_uris":{"android":"levelo://app?vid=cfb186af-3014-4ad7-b593-797b1a3ee359","ios":"levelo://app?vid=cfb186af-3014-4ad7-b593-797b1a3ee359"},"vehicle_type_id":"4","last_reported":1690635991,"current_range_meters":31200,"station_id":"ce4bgr92rcd13ifvqc6g","pricing_plan_id":"free"},{"bike_id":"94678323-dba6-4f3f-95b9-c3de6c534cc1","system_id":"levelo_inurba_marseille","lat":43.31341,"lon":5.367098,"is_reserved":false,"is_disabled":false,"rental_uris":{"android":"levelo://app?vid=94678323-dba6-4f3f-95b9-c3de6c534cc1","ios":"levelo://app?vid=94678323-dba6-4f3f-95b9-c3de6c534cc1"},"vehicle_type_id":"4","last_reported":1690635991,"current_range_meters":28800,"station_id":"ce4bgr92rcd13ifvqc6g","pricing_plan_id":"free"},{"bike_id":"10180fb1-c762-4a63-a7e5-94d669c15db5","system_id":"levelo_inurba_marseille","lat":43.31239,"lon":5.36847,"is_reserved":false,"is_disabled":false,"rental_uris":{"android":"levelo://app?vid=10180fb1-c762-4a63-a7e5-94d669c15db5","ios":"levelo://app?vid=10180fb1-c762-4a63-a7e5-94d669c15db5"},"vehicle_type_id":"4","last_reported":1690635991,"current_range_meters":31200,"station_id":"ce4bgl92rcd13ifvqbq0","pricing_plan_id":"free"},{"bike_id":"e526d4e2-849c-44ae-a0d7-5572a62df909","system_id":"levelo_inurba_marseille","lat":43.31241,"lon":5.3689,"is_reserved":false,"is_disabled":false,"rental_uris":{"android":"levelo://app?vid=e526d4e2-849c-44ae-a0d7-5572a62df909","ios":"levelo://app?vid=e526d4e2-849c-44ae-a0d7-5572a62df909"},"vehicle_type_id":"4","last_reported":1690635991,"current_range_meters":28800,"station_id":"ce4bgl92rcd13ifvqbq0","pricing_plan_id":"free"},{"bike_id":"cb1fa8bd-53ad-4852-8b12-e7cfa675bb84","system_id":"levelo_inurba_marseille","lat":43.314811,"lon":5.373103,"is_reserved":false,"is_disabled":false,"rental_uris":{"android":"levelo://app?vid=cb1fa8bd-53ad-4852-8b12-e7cfa675bb84","ios":"levelo://app?vid=cb1fa8bd-53ad-4852-8b12-e7cfa675bb84"},"vehicle_type_id":"4","last_reported":1690635991,"current_range_meters":21600,"station_id":"ce4bgt12rcd13ifvqcd0","pricing_plan_id":"free"},{"bike_id":"f37ea5a0-479e-4a87-ac3a-0363145a800c","system_id":"levelo_inurba_marseille","lat":43.314811,"lon":5.373104,"is_reserved":false,"is_disabled":false,"rental_uris":{"android":"levelo://app?vid=f37ea5a0-479e-4a87-ac3a-0363145a800c","ios":"levelo://app?vid=f37ea5a0-479e-4a87-ac3a-0363145a800c"},"vehicle_type_id":"4","last_reported":1690635991,"current_range_meters":31200,"station_id":"ce4bgt12rcd13ifvqcd0","pricing_plan_id":"free"},{"bike_id":"87be2cd4-5e05-4151-a290-3a2559dda396","system_id":"levelo_inurba_marseille","lat":43.3089,"lon":5.37195,"is_reserved":false,"is_disabled":false,"rental_uris":{"android":"levelo://app?vid=87be2cd4-5e05-4151-a290-3a2559dda396","ios":"levelo://app?vid=87be2cd4-5e05-4151-a290-3a2559dda396"},"vehicle_type_id":"4","last_reported":1690635991,"current_range_meters":16000,"station_id":"ce4bguh2rcd13ifvqckg","pricing_plan_id":"free"},{"bike_id":"4ce65fd7-befe-49e7-9b43-94b7c2cd6fc8","system_id":"levelo_inurba_marseille","lat":43.305368,"lon":5.367343,"is_reserved":false,"is_disabled":false,"rental_uris":{"android":"levelo://app?vid=4ce65fd7-befe-49e7-9b43-94b7c2cd6fc8","ios":"levelo://app?vid=4ce65fd7-befe-49e7-9b43-94b7c2cd6fc8"},"vehicle_type_id":"4","last_reported":1690635991,"current_range_meters":26000,"station_id":"ce4bgrp2rcd13ifvqc9g","pricing_plan_id":"free"},{"bike_id":"1f39e0c1-8667-4fa3-9554-8610f51ef379","system_id":"levelo_inurba_marseille","lat":43.30545,"lon":5.36709,"is_reserved":false,"is_disabled":false,"rental_uris":{"android":"levelo://app?vid=1f39e0c1-8667-4fa3-9554-8610f51ef379","ios":"levelo://app?vid=1f39e0c1-8667-4fa3-9554-8610f51ef379"},"vehicle_type_id":"4","last_reported":1690635991,"current_range_meters":28000,"station_id":"ce4bgrp2rcd13ifvqc9g","pricing_plan_id":"free"},{"bike_id":"fa3491db-f60c-400d-b657-8f23a8d0f217","system_id":"levelo_inurba_marseille","lat":43.305368,"lon":5.367343,"is_reserved":false,"is_disabled":false,"rental_uris":{"android":"levelo://app?vid=fa3491db-f60c-400d-b657-8f23a8d0f217","ios":"levelo://app?vid=fa3491db-f60c-400d-b657-8f23a8d0f217"},"vehicle_type_id":"4","last_reported":1690635991,"current_range_meters":9200,"station_id":"ce4bgrp2rcd13ifvqc9g","pricing_plan_id":"free"},{"bike_id":"7232cdba-2994-4f61-9f50-46feb27f2c2d","system_id":"levelo_inurba_marseille","lat":43.30546,"lon":5.36552,"is_reserved":false,"is_disabled":false,"rental_uris":{"android":"levelo://app?vid=7232cdba-2994-4f61-9f50-46feb27f2c2d","ios":"levelo://app?vid=7232cdba-2994-4f61-9f50-46feb27f2c2d"},"vehicle_type_id":"4","last_reported":1690635991,"current_range_meters":31200,"station_id":"ce4bgs12rcd13ifvqcag","pricing_plan_id":"free"},{"bike_id":"7b2c1bf3-c82c-4a12-b98c-7fc72388be5f","system_id":"levelo_inurba_marseille","lat":43.30546,"lon":5.3655,"is_reserved":false,"is_disabled":false,"rental_uris":{"android":"levelo://app?vid=7b2c1bf3-c82c-4a12-b98c-7fc72388be5f","ios":"levelo://app?vid=7b2c1bf3-c82c-4a12-b98c-7fc72388be5f"},"vehicle_type_id":"4","last_reported":1690635991,"current_range_meters":16800,"station_id":"ce4bgs12rcd13ifvqcag","pricing_plan_id":"free"},{"bike_id":"9d3ca82c-1d6f-4c0a-b928-d2bfb9aae252","system_id":"levelo_inurba_marseille","lat":43.30544,"lon":5.36552,"is_reserved":false,"is_disabled":false,"rental_uris":{"android":"levelo://app?vid=9d3ca82c-1d6f-4c0a-b928-d2bfb9aae252","ios":"levelo://app?vid=9d3ca82c-1d6f-4c0a-b928-d2bfb9aae252"},"vehicle_type_id":"4","last_reported":1690635991,"current_range_meters":30800,"station_id":"ce4bgs12rcd13ifvqcag","pricing_plan_id":"free"},{"bike_id":"2a035618-9b15-4e55-ac79-597cfec449e5","system_id":"levelo_inurba_marseille","lat":43.30536,"lon":5.36528,"is_reserved":false,"is_disabled":false,"rental_uris":{"android":"levelo://app?vid=2a035618-9b15-4e55-ac79-597cfec449e5","ios":"levelo://app?vid=2a035618-9b15-4e55-ac79-597cfec449e5"},"vehicle_type_id":"4","last_reported":1690635991,"current_range_meters":17200,"station_id":"ce4bgs12rcd13ifvqcag","pricing_plan_id":"free"},{"bike_id":"c8b433ff-b607-4eb5-8d34-f041d62b0dc8","system_id":"levelo_inurba_marseille","lat":43.30532,"lon":5.36532,"is_reserved":false,"is_disabled":false,"rental_uris":{"android":"levelo://app?vid=c8b433ff-b607-4eb5-8d34-f041d62b0dc8","ios":"levelo://app?vid=c8b433ff-b607-4eb5-8d34-f041d62b0dc8"},"vehicle_type_id":"4","last_reported":1690635991,"current_range_meters":31200,"station_id":"ce4bgs12rcd13ifvqcag","pricing_plan_id":"free"},{"bike_id":"f20ea888-8740-440b-bfeb-8eb2a7c1f652","system_id":"levelo_inurba_marseille","lat":43.30603,"lon":5.3724,"is_reserved":false,"is_disabled":false,"rental_uris":{"android":"levelo://app?vid=f20ea888-8740-440b-bfeb-8eb2a7c1f652","ios":"levelo://app?vid=f20ea888-8740-440b-bfeb-8eb2a7c1f652"},"vehicle_type_id":"4","last_reported":1690635991,"current_range_meters":29600,"station_id":"ce4bgqh2rcd13ifvqc4g","pricing_plan_id":"free"},{"bike_id":"88f865f2-4a20-4343-8bf9-44e065a6843b","system_id":"levelo_inurba_marseille","lat":43.305368,"lon":5.367343,"is_reserved":false,"is_disabled":false,"rental_uris":{"android":"levelo://app?vid=88f865f2-4a20-4343-8bf9-44e065a6843b","ios":"levelo://app?vid=88f865f2-4a20-4343-8bf9-44e065a6843b"},"vehicle_type_id":"4","last_reported":1690635991,"current_range_meters":19600,"station_id":"ce4bgrp2rcd13ifvqc9g","pricing_plan_id":"free"},{"bike_id":"5d9b93d9-59f0-42f8-b93e-5409b66829de","system_id":"levelo_inurba_marseille","lat":43.30328,"lon":5.3691,"is_reserved":false,"is_disabled":false,"rental_uris":{"android":"levelo://app?vid=5d9b93d9-59f0-42f8-b93e-5409b66829de","ios":"levelo://app?vid=5d9b93d9-59f0-42f8-b93e-5409b66829de"},"vehicle_type_id":"4","last_reported":1690635991,"current_range_meters":27200,"station_id":"ce4bgqh2rcd13ifvqc5g","pricing_plan_id":"free"},{"bike_id":"fd8d9d9d-4cfc-41b2-b35f-90401685d27a","system_id":"levelo_inurba_marseille","lat":43.303046,"lon":5.368981,"is_reserved":false,"is_disabled":false,"rental_uris":{"android":"levelo://app?vid=fd8d9d9d-4cfc-41b2-b35f-90401685d27a","ios":"levelo://app?vid=fd8d9d9d-4cfc-41b2-b35f-90401685d27a"},"vehicle_type_id":"4","last_reported":1690635991,"current_range_meters":20400,"station_id":"ce4bgqh2rcd13ifvqc5g","pricing_plan_id":"free"},{"bike_id":"3e22ec38-6eee-4d06-b1ed-ffa11f1b2c56","system_id":"levelo_inurba_marseille","lat":43.315293,"lon":5.380349,"is_reserved":false,"is_disabled":false,"rental_uris":{"android":"levelo://app?vid=3e22ec38-6eee-4d06-b1ed-ffa11f1b2c56","ios":"levelo://app?vid=3e22ec38-6eee-4d06-b1ed-ffa11f1b2c56"},"vehicle_type_id":"4","last_reported":1690635991,"current_range_meters":24800,"station_id":"ce4bhsp2rcd13ifvqi50","pricing_plan_id":"free"},{"bike_id":"9c2217de-c411-46dd-9b0d-e5ab9790a1f2","system_id":"levelo_inurba_marseille","lat":43.30801,"lon":5.38144,"is_reserved":false,"is_disabled":false,"rental_uris":{"android":"levelo://app?vid=9c2217de-c411-46dd-9b0d-e5ab9790a1f2","ios":"levelo://app?vid=9c2217de-c411-46dd-9b0d-e5ab9790a1f2"},"vehicle_type_id":"4","last_reported":1690635991,"current_range_meters":15600,"station_id":"ce4bgt12rcd13ifvqce0","pricing_plan_id":"free"},{"bike_id":"c4446ead-dc83-4a6b-8909-06dc32d644cf","system_id":"levelo_inurba_marseille","lat":43.304606,"lon":5.379026,"is_reserved":false,"is_disabled":false,"rental_uris":{"android":"levelo://app?vid=c4446ead-dc83-4a6b-8909-06dc32d644cf","ios":"levelo://app?vid=c4446ead-dc83-4a6b-8909-06dc32d644cf"},"vehicle_type_id":"4","last_reported":1690635991,"current_range_meters":31200,"station_id":"ce4bgup2rcd13ifvqcn0","pricing_plan_id":"free"},{"bike_id":"824acbf5-bef1-452d-b8b4-c40d87d88aa0","system_id":"levelo_inurba_marseille","lat":43.30487,"lon":5.37905,"is_reserved":false,"is_disabled":false,"rental_uris":{"android":"levelo://app?vid=824acbf5-bef1-452d-b8b4-c40d87d88aa0","ios":"levelo://app?vid=824acbf5-bef1-452d-b8b4-c40d87d88aa0"},"vehicle_type_id":"4","last_reported":1690635991,"current_range_meters":9200,"station_id":"ce4bgup2rcd13ifvqcn0","pricing_plan_id":"free"},{"bike_id":"fde13309-c92a-402b-ba09-badf79b308d3","system_id":"levelo_inurba_marseille","lat":43.304606,"lon":5.379026,"is_reserved":false,"is_disabled":false,"rental_uris":{"android":"levelo://app?vid=fde13309-c92a-402b-ba09-badf79b308d3","ios":"levelo://app?vid=fde13309-c92a-402b-ba09-badf79b308d3"},"vehicle_type_id":"4","last_reported":1690635991,"current_range_meters":27200,"station_id":"ce4bgup2rcd13ifvqcn0","pricing_plan_id":"free"},{"bike_id":"2ca21045-bda7-4ff2-b018-d7aee1ead7a2","system_id":"levelo_inurba_marseille","lat":43.304606,"lon":5.379026,"is_reserved":false,"is_disabled":false,"rental_uris":{"android":"levelo://app?vid=2ca21045-bda7-4ff2-b018-d7aee1ead7a2","ios":"levelo://app?vid=2ca21045-bda7-4ff2-b018-d7aee1ead7a2"},"vehicle_type_id":"4","last_reported":1690635991,"current_range_meters":28800,"station_id":"ce4bgup2rcd13ifvqcn0","pricing_plan_id":"free"},{"bike_id":"5a4d1e13-b684-4137-99a7-203af65f4a68","system_id":"levelo_inurba_marseille","lat":43.304606,"lon":5.379026,"is_reserved":false,"is_disabled":false,"rental_uris":{"android":"levelo://app?vid=5a4d1e13-b684-4137-99a7-203af65f4a68","ios":"levelo://app?vid=5a4d1e13-b684-4137-99a7-203af65f4a68"},"vehicle_type_id":"4","last_reported":1690635991,"current_range_meters":31200,"station_id":"ce4bgup2rcd13ifvqcn0","pricing_plan_id":"free"},{"bike_id":"23ff1ea3-4dc3-4189-8326-9881d2d2947b","system_id":"levelo_inurba_marseille","lat":43.304606,"lon":5.379026,"is_reserved":false,"is_disabled":false,"rental_uris":{"android":"levelo://app?vid=23ff1ea3-4dc3-4189-8326-9881d2d2947b","ios":"levelo://app?vid=23ff1ea3-4dc3-4189-8326-9881d2d2947b"},"vehicle_type_id":"4","last_reported":1690635991,"current_range_meters":31200,"station_id":"ce4bgup2rcd13ifvqcn0","pricing_plan_id":"free"},{"bike_id":"04abed00-0d9e-4681-b81a-bb97682571c2","system_id":"levelo_inurba_marseille","lat":43.304606,"lon":5.379026,"is_reserved":false,"is_disabled":false,"rental_uris":{"android":"levelo://app?vid=04abed00-0d9e-4681-b81a-bb97682571c2","ios":"levelo://app?vid=04abed00-0d9e-4681-b81a-bb97682571c2"},"vehicle_type_id":"4","last_reported":1690635991,"current_range_meters":22800,"station_id":"ce4bgup2rcd13ifvqcn0","pricing_plan_id":"free"},{"bike_id":"f8cd79e5-7db8-42b6-a73a-c13e9609ab4f","system_id":"levelo_inurba_marseille","lat":43.304606,"lon":5.379026,"is_reserved":false,"is_disabled":false,"rental_uris":{"android":"levelo://app?vid=f8cd79e5-7db8-42b6-a73a-c13e9609ab4f","ios":"levelo://app?vid=f8cd79e5-7db8-42b6-a73a-c13e9609ab4f"},"vehicle_type_id":"4","last_reported":1690635991,"current_range_meters":31200,"station_id":"ce4bgup2rcd13ifvqcn0","pricing_plan_id":"free"},{"bike_id":"df0a9d1c-b494-42f9-8e93-afb46277163f","system_id":"levelo_inurba_marseille","lat":43.30159,"lon":5.37425,"is_reserved":false,"is_disabled":false,"rental_uris":{"android":"levelo://app?vid=df0a9d1c-b494-42f9-8e93-afb46277163f","ios":"levelo://app?vid=df0a9d1c-b494-42f9-8e93-afb46277163f"},"vehicle_type_id":"4","last_reported":1690635991,"current_range_meters":16400,"station_id":"ce4bgs92rcd13ifvqcc0","pricing_plan_id":"free"},{"bike_id":"9c103512-4650-4277-a9a9-69e77f228893","system_id":"levelo_inurba_marseille","lat":43.30157,"lon":5.37438,"is_reserved":false,"is_disabled":false,"rental_uris":{"android":"levelo://app?vid=9c103512-4650-4277-a9a9-69e77f228893","ios":"levelo://app?vid=9c103512-4650-4277-a9a9-69e77f228893"},"vehicle_type_id":"4","last_reported":1690635991,"current_range_meters":16400,"station_id":"ce4bgs92rcd13ifvqcc0","pricing_plan_id":"free"},{"bike_id":"50e7ee1a-ada3-4c2c-837b-4386af20d92b","system_id":"levelo_inurba_marseille","lat":43.30148,"lon":5.37422,"is_reserved":false,"is_disabled":false,"rental_uris":{"android":"levelo://app?vid=50e7ee1a-ada3-4c2c-837b-4386af20d92b","ios":"levelo://app?vid=50e7ee1a-ada3-4c2c-837b-4386af20d92b"},"vehicle_type_id":"4","last_reported":1690635991,"current_range_meters":6000,"station_id":"ce4bgs92rcd13ifvqcc0","pricing_plan_id":"free"},{"bike_id":"21ba81c1-c91d-40bd-a4e7-b78850ca2da4","system_id":"levelo_inurba_marseille","lat":43.3014,"lon":5.37424,"is_reserved":false,"is_disabled":false,"rental_uris":{"android":"levelo://app?vid=21ba81c1-c91d-40bd-a4e7-b78850ca2da4","ios":"levelo://app?vid=21ba81c1-c91d-40bd-a4e7-b78850ca2da4"},"vehicle_type_id":"4","last_reported":1690635991,"current_range_meters":21600,"station_id":"ce4bgs92rcd13ifvqcc0","pricing_plan_id":"free"},{"bike_id":"bbea4ede-cce4-4078-960f-37078199a62f","system_id":"levelo_inurba_marseille","lat":43.31372,"lon":5.38495,"is_reserved":false,"is_disabled":false,"rental_uris":{"android":"levelo://app?vid=bbea4ede-cce4-4078-960f-37078199a62f","ios":"levelo://app?vid=bbea4ede-cce4-4078-960f-37078199a62f"},"vehicle_type_id":"4","last_reported":1690635991,"current_range_meters":23600,"station_id":"ce4bgt92rcd13ifvqcf0","pricing_plan_id":"free"},{"bike_id":"a60532c6-abef-4494-af81-6db7b8a9d9ad","system_id":"levelo_inurba_marseille","lat":43.298433,"lon":5.362774,"is_reserved":false,"is_disabled":false,"rental_uris":{"android":"levelo://app?vid=a60532c6-abef-4494-af81-6db7b8a9d9ad","ios":"levelo://app?vid=a60532c6-abef-4494-af81-6db7b8a9d9ad"},"vehicle_type_id":"4","last_reported":1690635991,"current_range_meters":30800,"station_id":"ce4bgpp2rcd13ifvqc3g","pricing_plan_id":"free"},{"bike_id":"b6bb5c2f-6727-4034-a7fa-b00dc3bab3b4","system_id":"levelo_inurba_marseille","lat":43.298433,"lon":5.362774,"is_reserved":false,"is_disabled":false,"rental_uris":{"android":"levelo://app?vid=b6bb5c2f-6727-4034-a7fa-b00dc3bab3b4","ios":"levelo://app?vid=b6bb5c2f-6727-4034-a7fa-b00dc3bab3b4"},"vehicle_type_id":"4","last_reported":1690635991,"current_range_meters":31200,"station_id":"ce4bgpp2rcd13ifvqc3g","pricing_plan_id":"free"},{"bike_id":"d801a0f5-8146-4afb-bfed-6c4486a1869d","system_id":"levelo_inurba_marseille","lat":43.30563,"lon":5.38439,"is_reserved":false,"is_disabled":false,"rental_uris":{"android":"levelo://app?vid=d801a0f5-8146-4afb-bfed-6c4486a1869d","ios":"levelo://app?vid=d801a0f5-8146-4afb-bfed-6c4486a1869d"},"vehicle_type_id":"4","last_reported":1690635991,"current_range_meters":9200,"station_id":"ce4bgg92rcd13ifvqb30","pricing_plan_id":"free"},{"bike_id":"09bb5648-320f-4d04-b6aa-4e2a1b81d756","system_id":"levelo_inurba_marseille","lat":43.298433,"lon":5.362774,"is_reserved":false,"is_disabled":false,"rental_uris":{"android":"levelo://app?vid=09bb5648-320f-4d04-b6aa-4e2a1b81d756","ios":"levelo://app?vid=09bb5648-320f-4d04-b6aa-4e2a1b81d756"},"vehicle_type_id":"4","last_reported":1690635991,"current_range_meters":31200,"station_id":"ce4bgpp2rcd13ifvqc3g","pricing_plan_id":"free"},{"bike_id":"f8c76d6f-6352-4dc2-9cc1-3a24f882a319","system_id":"levelo_inurba_marseille","lat":43.298433,"lon":5.362774,"is_reserved":false,"is_disabled":false,"rental_uris":{"android":"levelo://app?vid=f8c76d6f-6352-4dc2-9cc1-3a24f882a319","ios":"levelo://app?vid=f8c76d6f-6352-4dc2-9cc1-3a24f882a319"},"vehicle_type_id":"4","last_reported":1690635991,"current_range_meters":21200,"station_id":"ce4bgpp2rcd13ifvqc3g","pricing_plan_id":"free"},{"bike_id":"976aae6c-30b4-4ad0-95d6-0ae016545ed5","system_id":"levelo_inurba_marseille","lat":43.298433,"lon":5.362774,"is_reserved":false,"is_disabled":false,"rental_uris":{"android":"levelo://app?vid=976aae6c-30b4-4ad0-95d6-0ae016545ed5","ios":"levelo://app?vid=976aae6c-30b4-4ad0-95d6-0ae016545ed5"},"vehicle_type_id":"4","last_reported":1690635991,"current_range_meters":31200,"station_id":"ce4bgpp2rcd13ifvqc3g","pricing_plan_id":"free"},{"bike_id":"d4c262e8-a4f5-47bf-910a-61143e245caa","system_id":"levelo_inurba_marseille","lat":43.305364,"lon":5.384119,"is_reserved":false,"is_disabled":false,"rental_uris":{"android":"levelo://app?vid=d4c262e8-a4f5-47bf-910a-61143e245caa","ios":"levelo://app?vid=d4c262e8-a4f5-47bf-910a-61143e245caa"},"vehicle_type_id":"4","last_reported":1690635991,"current_range_meters":15200,"station_id":"ce4bgg92rcd13ifvqb30","pricing_plan_id":"free"},{"bike_id":"30537d43-af02-4a10-b928-7b9b8cf633d2","system_id":"levelo_inurba_marseille","lat":43.30547,"lon":5.38433,"is_reserved":false,"is_disabled":false,"rental_uris":{"android":"levelo://app?vid=30537d43-af02-4a10-b928-7b9b8cf633d2","ios":"levelo://app?vid=30537d43-af02-4a10-b928-7b9b8cf633d2"},"vehicle_type_id":"4","last_reported":1690635991,"current_range_meters":29600,"station_id":"ce4bgg92rcd13ifvqb30","pricing_plan_id":"free"},{"bike_id":"2c213745-c0ed-411e-91ff-69642f0e1daf","system_id":"levelo_inurba_marseille","lat":43.298433,"lon":5.362774,"is_reserved":false,"is_disabled":false,"rental_uris":{"android":"levelo://app?vid=2c213745-c0ed-411e-91ff-69642f0e1daf","ios":"levelo://app?vid=2c213745-c0ed-411e-91ff-69642f0e1daf"},"vehicle_type_id":"4","last_reported":1690635991,"current_range_meters":8800,"station_id":"ce4bgpp2rcd13ifvqc3g","pricing_plan_id":"free"},{"bike_id":"c38f87cf-960e-4cfb-b7f0-0b32e417ddb2","system_id":"levelo_inurba_marseille","lat":43.298433,"lon":5.362774,"is_reserved":false,"is_disabled":false,"rental_uris":{"android":"levelo://app?vid=c38f87cf-960e-4cfb-b7f0-0b32e417ddb2","ios":"levelo://app?vid=c38f87cf-960e-4cfb-b7f0-0b32e417ddb2"},"vehicle_type_id":"4","last_reported":1690635991,"current_range_meters":31200,"station_id":"ce4bgpp2rcd13ifvqc3g","pricing_plan_id":"free"},{"bike_id":"96fe00ee-927e-4d12-9093-9f9124f23694","system_id":"levelo_inurba_marseille","lat":43.299243,"lon":5.374807,"is_reserved":false,"is_disabled":false,"rental_uris":{"android":"levelo://app?vid=96fe00ee-927e-4d12-9093-9f9124f23694","ios":"levelo://app?vid=96fe00ee-927e-4d12-9093-9f9124f23694"},"vehicle_type_id":"4","last_reported":1690635991,"current_range_meters":800,"station_id":"ce4bgjh2rcd13ifvqbg0","pricing_plan_id":"free"},{"bike_id":"e5c0af5f-28a5-4cab-a5c9-508a9051bbdd","system_id":"levelo_inurba_marseille","lat":43.30544,"lon":5.38436,"is_reserved":false,"is_disabled":false,"rental_uris":{"android":"levelo://app?vid=e5c0af5f-28a5-4cab-a5c9-508a9051bbdd","ios":"levelo://app?vid=e5c0af5f-28a5-4cab-a5c9-508a9051bbdd"},"vehicle_type_id":"4","last_reported":1690635991,"current_range_meters":23200,"station_id":"ce4bgg92rcd13ifvqb30","pricing_plan_id":"free"},{"bike_id":"49cd5915-299b-40c8-b4b0-b663ff5ed4e2","system_id":"levelo_inurba_marseille","lat":43.298433,"lon":5.362774,"is_reserved":false,"is_disabled":false,"rental_uris":{"android":"levelo://app?vid=49cd5915-299b-40c8-b4b0-b663ff5ed4e2","ios":"levelo://app?vid=49cd5915-299b-40c8-b4b0-b663ff5ed4e2"},"vehicle_type_id":"4","last_reported":1690635991,"current_range_meters":20400,"station_id":"ce4bgpp2rcd13ifvqc3g","pricing_plan_id":"free"},{"bike_id":"bbf47ff1-4f3d-477b-a368-b055abdffc26","system_id":"levelo_inurba_marseille","lat":43.298433,"lon":5.362774,"is_reserved":false,"is_disabled":false,"rental_uris":{"android":"levelo://app?vid=bbf47ff1-4f3d-477b-a368-b055abdffc26","ios":"levelo://app?vid=bbf47ff1-4f3d-477b-a368-b055abdffc26"},"vehicle_type_id":"4","last_reported":1690635991,"current_range_meters":31200,"station_id":"ce4bgpp2rcd13ifvqc3g","pricing_plan_id":"free"},{"bike_id":"fdb92632-b91b-4ae5-99b6-aafa2d1731e2","system_id":"levelo_inurba_marseille","lat":43.298433,"lon":5.362774,"is_reserved":false,"is_disabled":false,"rental_uris":{"android":"levelo://app?vid=fdb92632-b91b-4ae5-99b6-aafa2d1731e2","ios":"levelo://app?vid=fdb92632-b91b-4ae5-99b6-aafa2d1731e2"},"vehicle_type_id":"4","last_reported":1690635991,"current_range_meters":31200,"station_id":"ce4bgpp2rcd13ifvqc3g","pricing_plan_id":"free"},{"bike_id":"e7b4e098-5b76-4854-8f1c-ad0f36362341","system_id":"levelo_inurba_marseille","lat":43.299243,"lon":5.37481,"is_reserved":false,"is_disabled":false,"rental_uris":{"android":"levelo://app?vid=e7b4e098-5b76-4854-8f1c-ad0f36362341","ios":"levelo://app?vid=e7b4e098-5b76-4854-8f1c-ad0f36362341"},"vehicle_type_id":"4","last_reported":1690635991,"current_range_meters":1200,"station_id":"ce4bgjh2rcd13ifvqbg0","pricing_plan_id":"free"},{"bike_id":"4a238923-e3c0-4978-bd56-dfe7b1356bab","system_id":"levelo_inurba_marseille","lat":43.298433,"lon":5.362774,"is_reserved":false,"is_disabled":false,"rental_uris":{"android":"levelo://app?vid=4a238923-e3c0-4978-bd56-dfe7b1356bab","ios":"levelo://app?vid=4a238923-e3c0-4978-bd56-dfe7b1356bab"},"vehicle_type_id":"4","last_reported":1690635991,"current_range_meters":31200,"station_id":"ce4bgpp2rcd13ifvqc3g","pricing_plan_id":"free"},{"bike_id":"eda9e347-adb9-490b-91b4-623354d21754","system_id":"levelo_inurba_marseille","lat":43.299243,"lon":5.37481,"is_reserved":false,"is_disabled":false,"rental_uris":{"android":"levelo://app?vid=eda9e347-adb9-490b-91b4-623354d21754","ios":"levelo://app?vid=eda9e347-adb9-490b-91b4-623354d21754"},"vehicle_type_id":"4","last_reported":1690635991,"current_range_meters":22400,"station_id":"ce4bgjh2rcd13ifvqbg0","pricing_plan_id":"free"},{"bike_id":"8f80ed6f-9de4-4bd6-ae3f-97526c828263","system_id":"levelo_inurba_marseille","lat":43.30542,"lon":5.38466,"is_reserved":false,"is_disabled":false,"rental_uris":{"android":"levelo://app?vid=8f80ed6f-9de4-4bd6-ae3f-97526c828263","ios":"levelo://app?vid=8f80ed6f-9de4-4bd6-ae3f-97526c828263"},"vehicle_type_id":"4","last_reported":1690635991,"current_range_meters":13200,"station_id":"ce4bgg92rcd13ifvqb30","pricing_plan_id":"free"},{"bike_id":"4d016ca4-88db-49bc-b118-ce44eb15640b","system_id":"levelo_inurba_marseille","lat":43.297774,"lon":5.370875,"is_reserved":false,"is_disabled":false,"rental_uris":{"android":"levelo://app?vid=4d016ca4-88db-49bc-b118-ce44eb15640b","ios":"levelo://app?vid=4d016ca4-88db-49bc-b118-ce44eb15640b"},"vehicle_type_id":"4","last_reported":1690635991,"current_range_meters":26800,"station_id":"ce4bgop2rcd13ifvqc1g","pricing_plan_id":"free"},{"bike_id":"fead3f1e-e9e6-4830-9da4-e98cba309113","system_id":"levelo_inurba_marseille","lat":43.32289,"lon":5.38263,"is_reserved":false,"is_disabled":false,"rental_uris":{"android":"levelo://app?vid=fead3f1e-e9e6-4830-9da4-e98cba309113","ios":"levelo://app?vid=fead3f1e-e9e6-4830-9da4-e98cba309113"},"vehicle_type_id":"4","last_reported":1690635991,"current_range_meters":16800,"station_id":"ce4bhr12rcd13ifvqhqg","pricing_plan_id":"free"},{"bike_id":"a196dbb0-0ca2-44b0-8b03-b7d3a734d20c","system_id":"levelo_inurba_marseille","lat":43.3229,"lon":5.38269,"is_reserved":false,"is_disabled":false,"rental_uris":{"android":"levelo://app?vid=a196dbb0-0ca2-44b0-8b03-b7d3a734d20c","ios":"levelo://app?vid=a196dbb0-0ca2-44b0-8b03-b7d3a734d20c"},"vehicle_type_id":"4","last_reported":1690635991,"current_range_meters":29200,"station_id":"ce4bhr12rcd13ifvqhqg","pricing_plan_id":"free"},{"bike_id":"3641a761-0636-4e0b-b047-72e86565129d","system_id":"levelo_inurba_marseille","lat":43.322872,"lon":5.382756,"is_reserved":false,"is_disabled":false,"rental_uris":{"android":"levelo://app?vid=3641a761-0636-4e0b-b047-72e86565129d","ios":"levelo://app?vid=3641a761-0636-4e0b-b047-72e86565129d"},"vehicle_type_id":"4","last_reported":1690635991,"current_range_meters":28000,"station_id":"ce4bhr12rcd13ifvqhqg","pricing_plan_id":"free"},{"bike_id":"82f1e03d-e4c3-4aac-b6f0-c9fc3950fe62","system_id":"levelo_inurba_marseille","lat":43.322948,"lon":5.3827,"is_reserved":false,"is_disabled":false,"rental_uris":{"android":"levelo://app?vid=82f1e03d-e4c3-4aac-b6f0-c9fc3950fe62","ios":"levelo://app?vid=82f1e03d-e4c3-4aac-b6f0-c9fc3950fe62"},"vehicle_type_id":"4","last_reported":1690635991,"current_range_meters":24800,"station_id":"","pricing_plan_id":"free"},{"bike_id":"79bf6da4-5f08-488b-96b1-6e23f74ec5ec","system_id":"levelo_inurba_marseille","lat":43.322872,"lon":5.382756,"is_reserved":false,"is_disabled":false,"rental_uris":{"android":"levelo://app?vid=79bf6da4-5f08-488b-96b1-6e23f74ec5ec","ios":"levelo://app?vid=79bf6da4-5f08-488b-96b1-6e23f74ec5ec"},"vehicle_type_id":"4","last_reported":1690635991,"current_range_meters":16400,"station_id":"ce4bhr12rcd13ifvqhqg","pricing_plan_id":"free"},{"bike_id":"dd789220-e7b5-42c1-b9dc-dc4243148021","system_id":"levelo_inurba_marseille","lat":43.297163,"lon":5.365866,"is_reserved":false,"is_disabled":false,"rental_uris":{"android":"levelo://app?vid=dd789220-e7b5-42c1-b9dc-dc4243148021","ios":"levelo://app?vid=dd789220-e7b5-42c1-b9dc-dc4243148021"},"vehicle_type_id":"4","last_reported":1690635991,"current_range_meters":31200,"station_id":"ce4bgn12rcd13ifvqbt0","pricing_plan_id":"free"},{"bike_id":"c72ce1d8-c1fd-419a-9fc0-9ddeb92b3914","system_id":"levelo_inurba_marseille","lat":43.32832,"lon":5.3667,"is_reserved":false,"is_disabled":false,"rental_uris":{"android":"levelo://app?vid=c72ce1d8-c1fd-419a-9fc0-9ddeb92b3914","ios":"levelo://app?vid=c72ce1d8-c1fd-419a-9fc0-9ddeb92b3914"},"vehicle_type_id":"4","last_reported":1690635991,"current_range_meters":19600,"station_id":"ce4bhs92rcd13ifvqi0g","pricing_plan_id":"free"},{"bike_id":"3f56ab11-c8db-4856-8929-e236d19fea1e","system_id":"levelo_inurba_marseille","lat":43.328371,"lon":5.366909,"is_reserved":false,"is_disabled":false,"rental_uris":{"android":"levelo://app?vid=3f56ab11-c8db-4856-8929-e236d19fea1e","ios":"levelo://app?vid=3f56ab11-c8db-4856-8929-e236d19fea1e"},"vehicle_type_id":"4","last_reported":1690635991,"current_range_meters":5200,"station_id":"ce4bhs92rcd13ifvqi0g","pricing_plan_id":"free"},{"bike_id":"65c512ad-16a6-4451-928a-72264d057186","system_id":"levelo_inurba_marseille","lat":43.297163,"lon":5.365866,"is_reserved":false,"is_disabled":false,"rental_uris":{"android":"levelo://app?vid=65c512ad-16a6-4451-928a-72264d057186","ios":"levelo://app?vid=65c512ad-16a6-4451-928a-72264d057186"},"vehicle_type_id":"4","last_reported":1690635991,"current_range_meters":21200,"station_id":"ce4bgn12rcd13ifvqbt0","pricing_plan_id":"free"},{"bike_id":"d6c13a47-68e9-4188-a715-07d7725b71dc","system_id":"levelo_inurba_marseille","lat":43.296921,"lon":5.376579,"is_reserved":false,"is_disabled":false,"rental_uris":{"android":"levelo://app?vid=d6c13a47-68e9-4188-a715-07d7725b71dc","ios":"levelo://app?vid=d6c13a47-68e9-4188-a715-07d7725b71dc"},"vehicle_type_id":"4","last_reported":1690635991,"current_range_meters":21200,"station_id":"ce4bgkh2rcd13ifvqbl0","pricing_plan_id":"free"},{"bike_id":"80996baf-8597-4552-b66a-a0139bedf903","system_id":"levelo_inurba_marseille","lat":43.309502,"lon":5.390365,"is_reserved":false,"is_disabled":false,"rental_uris":{"android":"levelo://app?vid=80996baf-8597-4552-b66a-a0139bedf903","ios":"levelo://app?vid=80996baf-8597-4552-b66a-a0139bedf903"},"vehicle_type_id":"4","last_reported":1690635991,"current_range_meters":2400,"station_id":"","pricing_plan_id":"free"},{"bike_id":"1311faff-249c-4378-9742-6a67f5f094f5","system_id":"levelo_inurba_marseille","lat":43.309589,"lon":5.390258,"is_reserved":false,"is_disabled":false,"rental_uris":{"android":"levelo://app?vid=1311faff-249c-4378-9742-6a67f5f094f5","ios":"levelo://app?vid=1311faff-249c-4378-9742-6a67f5f094f5"},"vehicle_type_id":"4","last_reported":1690635991,"current_range_meters":27600,"station_id":"ce4bgup2rcd13ifvqco0","pricing_plan_id":"free"},{"bike_id":"f0b1921d-8fc5-42f6-8214-26455e772ce5","system_id":"levelo_inurba_marseille","lat":43.309589,"lon":5.390258,"is_reserved":false,"is_disabled":false,"rental_uris":{"android":"levelo://app?vid=f0b1921d-8fc5-42f6-8214-26455e772ce5","ios":"levelo://app?vid=f0b1921d-8fc5-42f6-8214-26455e772ce5"},"vehicle_type_id":"4","last_reported":1690635991,"current_range_meters":28000,"station_id":"ce4bgup2rcd13ifvqco0","pricing_plan_id":"free"},{"bike_id":"45a76014-724b-4125-bd43-f10b9ea7e21f","system_id":"levelo_inurba_marseille","lat":43.317557,"lon":5.390173,"is_reserved":false,"is_disabled":false,"rental_uris":{"android":"levelo://app?vid=45a76014-724b-4125-bd43-f10b9ea7e21f","ios":"levelo://app?vid=45a76014-724b-4125-bd43-f10b9ea7e21f"},"vehicle_type_id":"4","last_reported":1690635991,"current_range_meters":31200,"station_id":"ce4bhqp2rcd13ifvqhng","pricing_plan_id":"free"},{"bike_id":"0b9f12a9-f5f7-441a-b348-0a3d6c8e7e5a","system_id":"levelo_inurba_marseille","lat":43.298037,"lon":5.381066,"is_reserved":false,"is_disabled":false,"rental_uris":{"android":"levelo://app?vid=0b9f12a9-f5f7-441a-b348-0a3d6c8e7e5a","ios":"levelo://app?vid=0b9f12a9-f5f7-441a-b348-0a3d6c8e7e5a"},"vehicle_type_id":"4","last_reported":1690635991,"current_range_meters":18000,"station_id":"ce4bgip2rcd13ifvqbb0","pricing_plan_id":"free"},{"bike_id":"49cc630b-aacc-4175-83d7-9652635c4907","system_id":"levelo_inurba_marseille","lat":43.298037,"lon":5.381066,"is_reserved":false,"is_disabled":false,"rental_uris":{"android":"levelo://app?vid=49cc630b-aacc-4175-83d7-9652635c4907","ios":"levelo://app?vid=49cc630b-aacc-4175-83d7-9652635c4907"},"vehicle_type_id":"4","last_reported":1690635991,"current_range_meters":20800,"station_id":"ce4bgip2rcd13ifvqbb0","pricing_plan_id":"free"},{"bike_id":"aab05082-9d37-43e1-91ae-64973064a638","system_id":"levelo_inurba_marseille","lat":43.29637,"lon":5.37714,"is_reserved":false,"is_disabled":false,"rental_uris":{"android":"levelo://app?vid=aab05082-9d37-43e1-91ae-64973064a638","ios":"levelo://app?vid=aab05082-9d37-43e1-91ae-64973064a638"},"vehicle_type_id":"4","last_reported":1690635991,"current_range_meters":8800,"station_id":"ce4bgi92rcd13ifvqb90","pricing_plan_id":"free"},{"bike_id":"838b14b6-d4b2-406a-add3-d600cbba2ac8","system_id":"levelo_inurba_marseille","lat":43.296277,"lon":5.377108,"is_reserved":false,"is_disabled":false,"rental_uris":{"android":"levelo://app?vid=838b14b6-d4b2-406a-add3-d600cbba2ac8","ios":"levelo://app?vid=838b14b6-d4b2-406a-add3-d600cbba2ac8"},"vehicle_type_id":"4","last_reported":1690635991,"current_range_meters":14000,"station_id":"ce4bgi92rcd13ifvqb90","pricing_plan_id":"free"},{"bike_id":"35779a50-3f4c-44f5-affe-beb82adaa2df","system_id":"levelo_inurba_marseille","lat":43.299717,"lon":5.384845,"is_reserved":false,"is_disabled":false,"rental_uris":{"android":"levelo://app?vid=35779a50-3f4c-44f5-affe-beb82adaa2df","ios":"levelo://app?vid=35779a50-3f4c-44f5-affe-beb82adaa2df"},"vehicle_type_id":"4","last_reported":1690635991,"current_range_meters":30800,"station_id":"ce4bgj92rcd13ifvqbd0","pricing_plan_id":"free"},{"bike_id":"a020061c-2218-455f-8e19-432786a14166","system_id":"levelo_inurba_marseille","lat":43.299717,"lon":5.384845,"is_reserved":false,"is_disabled":false,"rental_uris":{"android":"levelo://app?vid=a020061c-2218-455f-8e19-432786a14166","ios":"levelo://app?vid=a020061c-2218-455f-8e19-432786a14166"},"vehicle_type_id":"4","last_reported":1690635991,"current_range_meters":24400,"station_id":"ce4bgj92rcd13ifvqbd0","pricing_plan_id":"free"},{"bike_id":"80b95fb3-c398-4200-9197-c07b7e0f4e3a","system_id":"levelo_inurba_marseille","lat":43.32367,"lon":5.388836,"is_reserved":false,"is_disabled":false,"rental_uris":{"android":"levelo://app?vid=80b95fb3-c398-4200-9197-c07b7e0f4e3a","ios":"levelo://app?vid=80b95fb3-c398-4200-9197-c07b7e0f4e3a"},"vehicle_type_id":"4","last_reported":1690635991,"current_range_meters":26400,"station_id":"ce4bhqp2rcd13ifvqhog","pricing_plan_id":"free"},{"bike_id":"ab046cc9-280f-45f5-9cdd-e6a0bf7dc133","system_id":"levelo_inurba_marseille","lat":43.29602,"lon":5.381084,"is_reserved":false,"is_disabled":false,"rental_uris":{"android":"levelo://app?vid=ab046cc9-280f-45f5-9cdd-e6a0bf7dc133","ios":"levelo://app?vid=ab046cc9-280f-45f5-9cdd-e6a0bf7dc133"},"vehicle_type_id":"4","last_reported":1690635991,"current_range_meters":13600,"station_id":"ce4bgl12rcd13ifvqbo0","pricing_plan_id":"free"},{"bike_id":"7baad2fc-1382-4ea4-9575-d14210483e7d","system_id":"levelo_inurba_marseille","lat":43.29601,"lon":5.381084,"is_reserved":false,"is_disabled":false,"rental_uris":{"android":"levelo://app?vid=7baad2fc-1382-4ea4-9575-d14210483e7d","ios":"levelo://app?vid=7baad2fc-1382-4ea4-9575-d14210483e7d"},"vehicle_type_id":"4","last_reported":1690635991,"current_range_meters":11200,"station_id":"ce4bgl12rcd13ifvqbo0","pricing_plan_id":"free"},{"bike_id":"88bdc8e7-b5fc-4b1e-b5c4-917c25244fdd","system_id":"levelo_inurba_marseille","lat":43.293249,"lon":5.371578,"is_reserved":false,"is_disabled":false,"rental_uris":{"android":"levelo://app?vid=88bdc8e7-b5fc-4b1e-b5c4-917c25244fdd","ios":"levelo://app?vid=88bdc8e7-b5fc-4b1e-b5c4-917c25244fdd"},"vehicle_type_id":"4","last_reported":1690635991,"current_range_meters":30000,"station_id":"ce4bgh92rcd13ifvqb40","pricing_plan_id":"free"},{"bike_id":"4abd777f-4827-4c55-85d9-62b3f7cc4dd6","system_id":"levelo_inurba_marseille","lat":43.2937,"lon":5.37619,"is_reserved":false,"is_disabled":false,"rental_uris":{"android":"levelo://app?vid=4abd777f-4827-4c55-85d9-62b3f7cc4dd6","ios":"levelo://app?vid=4abd777f-4827-4c55-85d9-62b3f7cc4dd6"},"vehicle_type_id":"4","last_reported":1690635991,"current_range_meters":17200,"station_id":"","pricing_plan_id":"free"},{"bike_id":"4321b453-40ff-4d7d-88cb-656113c93189","system_id":"levelo_inurba_marseille","lat":43.30601,"lon":5.39367,"is_reserved":false,"is_disabled":false,"rental_uris":{"android":"levelo://app?vid=4321b453-40ff-4d7d-88cb-656113c93189","ios":"levelo://app?vid=4321b453-40ff-4d7d-88cb-656113c93189"},"vehicle_type_id":"4","last_reported":1690635991,"current_range_meters":16000,"station_id":"ce4bh0p2rcd13ifvqd80","pricing_plan_id":"free"},{"bike_id":"e3427a42-3c5a-4db3-aaa1-7b9212425389","system_id":"levelo_inurba_marseille","lat":43.292663,"lon":5.376394,"is_reserved":false,"is_disabled":false,"rental_uris":{"android":"levelo://app?vid=e3427a42-3c5a-4db3-aaa1-7b9212425389","ios":"levelo://app?vid=e3427a42-3c5a-4db3-aaa1-7b9212425389"},"vehicle_type_id":"4","last_reported":1690635991,"current_range_meters":30400,"station_id":"ce4bgi12rcd13ifvqb80","pricing_plan_id":"free"},{"bike_id":"5e452a89-3813-4c2a-930e-67fb204cf2d8","system_id":"levelo_inurba_marseille","lat":43.292663,"lon":5.376394,"is_reserved":false,"is_disabled":false,"rental_uris":{"android":"levelo://app?vid=5e452a89-3813-4c2a-930e-67fb204cf2d8","ios":"levelo://app?vid=5e452a89-3813-4c2a-930e-67fb204cf2d8"},"vehicle_type_id":"4","last_reported":1690635991,"current_range_meters":25600,"station_id":"ce4bgi12rcd13ifvqb80","pricing_plan_id":"free"},{"bike_id":"e5177363-8145-408a-82be-13680b711d02","system_id":"levelo_inurba_marseille","lat":43.291671,"lon":5.371575,"is_reserved":false,"is_disabled":false,"rental_uris":{"android":"levelo://app?vid=e5177363-8145-408a-82be-13680b711d02","ios":"levelo://app?vid=e5177363-8145-408a-82be-13680b711d02"},"vehicle_type_id":"4","last_reported":1690635991,"current_range_meters":5200,"station_id":"ce4bha92rcd13ifvqeh0","pricing_plan_id":"free"},{"bike_id":"2ed44061-9301-43d7-bd15-c202597ceea2","system_id":"levelo_inurba_marseille","lat":43.309038,"lon":5.396546,"is_reserved":false,"is_disabled":false,"rental_uris":{"android":"levelo://app?vid=2ed44061-9301-43d7-bd15-c202597ceea2","ios":"levelo://app?vid=2ed44061-9301-43d7-bd15-c202597ceea2"},"vehicle_type_id":"4","last_reported":1690635991,"current_range_meters":7200,"station_id":"ce4bh012rcd13ifvqcv0","pricing_plan_id":"free"},{"bike_id":"38bf9f12-dd82-4f33-87b4-a3e4f5c88c5e","system_id":"levelo_inurba_marseille","lat":43.309038,"lon":5.396546,"is_reserved":false,"is_disabled":false,"rental_uris":{"android":"levelo://app?vid=38bf9f12-dd82-4f33-87b4-a3e4f5c88c5e","ios":"levelo://app?vid=38bf9f12-dd82-4f33-87b4-a3e4f5c88c5e"},"vehicle_type_id":"4","last_reported":1690635991,"current_range_meters":18400,"station_id":"ce4bh012rcd13ifvqcv0","pricing_plan_id":"free"},{"bike_id":"350f717d-058f-4e4a-9a43-36441bac4000","system_id":"levelo_inurba_marseille","lat":43.30895,"lon":5.39664,"is_reserved":false,"is_disabled":false,"rental_uris":{"android":"levelo://app?vid=350f717d-058f-4e4a-9a43-36441bac4000","ios":"levelo://app?vid=350f717d-058f-4e4a-9a43-36441bac4000"},"vehicle_type_id":"4","last_reported":1690635991,"current_range_meters":4000,"station_id":"ce4bh012rcd13ifvqcv0","pricing_plan_id":"free"},{"bike_id":"9c88c1ee-1cd1-4fa2-b89e-e60c2e9589b4","system_id":"levelo_inurba_marseille","lat":43.29408,"lon":5.38414,"is_reserved":false,"is_disabled":false,"rental_uris":{"android":"levelo://app?vid=9c88c1ee-1cd1-4fa2-b89e-e60c2e9589b4","ios":"levelo://app?vid=9c88c1ee-1cd1-4fa2-b89e-e60c2e9589b4"},"vehicle_type_id":"4","last_reported":1690635991,"current_range_meters":2400,"station_id":"","pricing_plan_id":"free"},{"bike_id":"d8096f94-c7fc-4396-be30-e4bb7aa2fe30","system_id":"levelo_inurba_marseille","lat":43.302008,"lon":5.394694,"is_reserved":false,"is_disabled":false,"rental_uris":{"android":"levelo://app?vid=d8096f94-c7fc-4396-be30-e4bb7aa2fe30","ios":"levelo://app?vid=d8096f94-c7fc-4396-be30-e4bb7aa2fe30"},"vehicle_type_id":"4","last_reported":1690635991,"current_range_meters":30800,"station_id":"ce4bh0p2rcd13ifvqd70","pricing_plan_id":"free"},{"bike_id":"982a62ee-ae0d-4973-a195-7b6cda7408ab","system_id":"levelo_inurba_marseille","lat":43.289468,"lon":5.363719,"is_reserved":false,"is_disabled":false,"rental_uris":{"android":"levelo://app?vid=982a62ee-ae0d-4973-a195-7b6cda7408ab","ios":"levelo://app?vid=982a62ee-ae0d-4973-a195-7b6cda7408ab"},"vehicle_type_id":"4","last_reported":1690635991,"current_range_meters":30000,"station_id":"ce4bhc92rcd13ifvqetg","pricing_plan_id":"free"},{"bike_id":"99f1546f-c85b-4ec9-b1ff-6150d7713dbb","system_id":"levelo_inurba_marseille","lat":43.33044,"lon":5.38915,"is_reserved":false,"is_disabled":false,"rental_uris":{"android":"levelo://app?vid=99f1546f-c85b-4ec9-b1ff-6150d7713dbb","ios":"levelo://app?vid=99f1546f-c85b-4ec9-b1ff-6150d7713dbb"},"vehicle_type_id":"4","last_reported":1690635991,"current_range_meters":31200,"station_id":"ce4bhr92rcd13ifvqhrg","pricing_plan_id":"free"},{"bike_id":"4031e07c-3812-4dd4-9840-651d80dc70e1","system_id":"levelo_inurba_marseille","lat":43.33044,"lon":5.38915,"is_reserved":false,"is_disabled":false,"rental_uris":{"android":"levelo://app?vid=4031e07c-3812-4dd4-9840-651d80dc70e1","ios":"levelo://app?vid=4031e07c-3812-4dd4-9840-651d80dc70e1"},"vehicle_type_id":"4","last_reported":1690635991,"current_range_meters":12400,"station_id":"ce4bhr92rcd13ifvqhrg","pricing_plan_id":"free"},{"bike_id":"d8132d11-7d1d-4eb1-907e-a79177a55510","system_id":"levelo_inurba_marseille","lat":43.330464,"lon":5.389125,"is_reserved":false,"is_disabled":false,"rental_uris":{"android":"levelo://app?vid=d8132d11-7d1d-4eb1-907e-a79177a55510","ios":"levelo://app?vid=d8132d11-7d1d-4eb1-907e-a79177a55510"},"vehicle_type_id":"4","last_reported":1690635991,"current_range_meters":16000,"station_id":"ce4bhr92rcd13ifvqhrg","pricing_plan_id":"free"},{"bike_id":"a24fa290-3699-4bf8-b52b-781e84d5d80b","system_id":"levelo_inurba_marseille","lat":43.33041,"lon":5.38924,"is_reserved":false,"is_disabled":false,"rental_uris":{"android":"levelo://app?vid=a24fa290-3699-4bf8-b52b-781e84d5d80b","ios":"levelo://app?vid=a24fa290-3699-4bf8-b52b-781e84d5d80b"},"vehicle_type_id":"4","last_reported":1690635991,"current_range_meters":18800,"station_id":"ce4bhr92rcd13ifvqhrg","pricing_plan_id":"free"},{"bike_id":"7f04f8ac-3c35-426e-be92-01e806af52b4","system_id":"levelo_inurba_marseille","lat":43.33042,"lon":5.38927,"is_reserved":false,"is_disabled":false,"rental_uris":{"android":"levelo://app?vid=7f04f8ac-3c35-426e-be92-01e806af52b4","ios":"levelo://app?vid=7f04f8ac-3c35-426e-be92-01e806af52b4"},"vehicle_type_id":"4","last_reported":1690635991,"current_range_meters":18400,"station_id":"ce4bhr92rcd13ifvqhrg","pricing_plan_id":"free"},{"bike_id":"a636eec4-b719-4e6f-b179-4c8cadeba60e","system_id":"levelo_inurba_marseille","lat":43.33051,"lon":5.38916,"is_reserved":false,"is_disabled":false,"rental_uris":{"android":"levelo://app?vid=a636eec4-b719-4e6f-b179-4c8cadeba60e","ios":"levelo://app?vid=a636eec4-b719-4e6f-b179-4c8cadeba60e"},"vehicle_type_id":"4","last_reported":1690635991,"current_range_meters":22800,"station_id":"ce4bhr92rcd13ifvqhrg","pricing_plan_id":"free"},{"bike_id":"91fec792-a5a5-4820-af7d-3c6be3109af2","system_id":"levelo_inurba_marseille","lat":43.290104,"lon":5.356111,"is_reserved":false,"is_disabled":false,"rental_uris":{"android":"levelo://app?vid=91fec792-a5a5-4820-af7d-3c6be3109af2","ios":"levelo://app?vid=91fec792-a5a5-4820-af7d-3c6be3109af2"},"vehicle_type_id":"4","last_reported":1690635991,"current_range_meters":31200,"station_id":"ce4bhb92rcd13ifvqen0","pricing_plan_id":"free"},{"bike_id":"05bf2cc0-c80b-4d3b-9303-5cea93148e89","system_id":"levelo_inurba_marseille","lat":43.290995,"lon":5.381361,"is_reserved":false,"is_disabled":false,"rental_uris":{"android":"levelo://app?vid=05bf2cc0-c80b-4d3b-9303-5cea93148e89","ios":"levelo://app?vid=05bf2cc0-c80b-4d3b-9303-5cea93148e89"},"vehicle_type_id":"4","last_reported":1690635991,"current_range_meters":28800,"station_id":"ce4bh512rcd13ifvqe2g","pricing_plan_id":"free"},{"bike_id":"2c6f038e-6f1e-4693-8be5-3e2e2de6bf92","system_id":"levelo_inurba_marseille","lat":43.33053,"lon":5.38918,"is_reserved":false,"is_disabled":false,"rental_uris":{"android":"levelo://app?vid=2c6f038e-6f1e-4693-8be5-3e2e2de6bf92","ios":"levelo://app?vid=2c6f038e-6f1e-4693-8be5-3e2e2de6bf92"},"vehicle_type_id":"4","last_reported":1690635991,"current_range_meters":14400,"station_id":"ce4bhr92rcd13ifvqhrg","pricing_plan_id":"free"},{"bike_id":"ce817c29-2bfe-4762-8c49-5c30c34fc5ef","system_id":"levelo_inurba_marseille","lat":43.297815,"lon":5.393548,"is_reserved":false,"is_disabled":false,"rental_uris":{"android":"levelo://app?vid=ce817c29-2bfe-4762-8c49-5c30c34fc5ef","ios":"levelo://app?vid=ce817c29-2bfe-4762-8c49-5c30c34fc5ef"},"vehicle_type_id":"4","last_reported":1690635991,"current_range_meters":28400,"station_id":"chh1huq6cuj3fo74tm60","pricing_plan_id":"free"},{"bike_id":"1e03a6f5-d87b-48a5-a3d2-3b0500cb8b6e","system_id":"levelo_inurba_marseille","lat":43.33584,"lon":5.3542,"is_reserved":false,"is_disabled":false,"rental_uris":{"android":"levelo://app?vid=1e03a6f5-d87b-48a5-a3d2-3b0500cb8b6e","ios":"levelo://app?vid=1e03a6f5-d87b-48a5-a3d2-3b0500cb8b6e"},"vehicle_type_id":"4","last_reported":1690635991,"current_range_meters":21200,"station_id":"","pricing_plan_id":"free"},{"bike_id":"4a4c378f-87b9-4b2a-bde1-395894863fba","system_id":"levelo_inurba_marseille","lat":43.28856,"lon":5.358371,"is_reserved":false,"is_disabled":false,"rental_uris":{"android":"levelo://app?vid=4a4c378f-87b9-4b2a-bde1-395894863fba","ios":"levelo://app?vid=4a4c378f-87b9-4b2a-bde1-395894863fba"},"vehicle_type_id":"4","last_reported":1690635991,"current_range_meters":0,"station_id":"ce4bhb12rcd13ifvqem0","pricing_plan_id":"free"},{"bike_id":"a8e504ce-85d3-4648-930b-89afb16701b0","system_id":"levelo_inurba_marseille","lat":43.28856,"lon":5.358371,"is_reserved":false,"is_disabled":false,"rental_uris":{"android":"levelo://app?vid=a8e504ce-85d3-4648-930b-89afb16701b0","ios":"levelo://app?vid=a8e504ce-85d3-4648-930b-89afb16701b0"},"vehicle_type_id":"4","last_reported":1690635991,"current_range_meters":20000,"station_id":"ce4bhb12rcd13ifvqem0","pricing_plan_id":"free"},{"bike_id":"faeccb1f-c622-429a-89f7-1c7f1b311421","system_id":"levelo_inurba_marseille","lat":43.3128,"lon":5.40167,"is_reserved":false,"is_disabled":false,"rental_uris":{"android":"levelo://app?vid=faeccb1f-c622-429a-89f7-1c7f1b311421","ios":"levelo://app?vid=faeccb1f-c622-429a-89f7-1c7f1b311421"},"vehicle_type_id":"4","last_reported":1690635991,"current_range_meters":19600,"station_id":"ce4bh092rcd13ifvqd30","pricing_plan_id":"free"},{"bike_id":"c3002a30-00f1-4337-98d5-337792d31699","system_id":"levelo_inurba_marseille","lat":43.309371,"lon":5.401449,"is_reserved":false,"is_disabled":false,"rental_uris":{"android":"levelo://app?vid=c3002a30-00f1-4337-98d5-337792d31699","ios":"levelo://app?vid=c3002a30-00f1-4337-98d5-337792d31699"},"vehicle_type_id":"4","last_reported":1690635991,"current_range_meters":8800,"station_id":"ce4bgvp2rcd13ifvqct0","pricing_plan_id":"free"},{"bike_id":"5339795f-3a20-48f5-aa16-92a6c75a1831","system_id":"levelo_inurba_marseille","lat":43.3375,"lon":5.37455,"is_reserved":false,"is_disabled":false,"rental_uris":{"android":"levelo://app?vid=5339795f-3a20-48f5-aa16-92a6c75a1831","ios":"levelo://app?vid=5339795f-3a20-48f5-aa16-92a6c75a1831"},"vehicle_type_id":"4","last_reported":1690635991,"current_range_meters":21600,"station_id":"","pricing_plan_id":"free"},{"bike_id":"59976df7-227f-4714-9cb2-afaf722434f6","system_id":"levelo_inurba_marseille","lat":43.33752,"lon":5.37495,"is_reserved":false,"is_disabled":false,"rental_uris":{"android":"levelo://app?vid=59976df7-227f-4714-9cb2-afaf722434f6","ios":"levelo://app?vid=59976df7-227f-4714-9cb2-afaf722434f6"},"vehicle_type_id":"4","last_reported":1690635991,"current_range_meters":8400,"station_id":"","pricing_plan_id":"free"},{"bike_id":"abdc95c7-512f-40d0-a7cb-b7dd95637591","system_id":"levelo_inurba_marseille","lat":43.33752,"lon":5.37497,"is_reserved":false,"is_disabled":false,"rental_uris":{"android":"levelo://app?vid=abdc95c7-512f-40d0-a7cb-b7dd95637591","ios":"levelo://app?vid=abdc95c7-512f-40d0-a7cb-b7dd95637591"},"vehicle_type_id":"4","last_reported":1690635991,"current_range_meters":4000,"station_id":"","pricing_plan_id":"free"},{"bike_id":"2650eb60-5101-4688-a692-d959b7814eb1","system_id":"levelo_inurba_marseille","lat":43.33754,"lon":5.37492,"is_reserved":false,"is_disabled":false,"rental_uris":{"android":"levelo://app?vid=2650eb60-5101-4688-a692-d959b7814eb1","ios":"levelo://app?vid=2650eb60-5101-4688-a692-d959b7814eb1"},"vehicle_type_id":"4","last_reported":1690635991,"current_range_meters":0,"station_id":"","pricing_plan_id":"free"},{"bike_id":"709c3cdd-381b-4e11-8921-cbe2c21bb354","system_id":"levelo_inurba_marseille","lat":43.33759,"lon":5.37489,"is_reserved":false,"is_disabled":false,"rental_uris":{"android":"levelo://app?vid=709c3cdd-381b-4e11-8921-cbe2c21bb354","ios":"levelo://app?vid=709c3cdd-381b-4e11-8921-cbe2c21bb354"},"vehicle_type_id":"4","last_reported":1690635991,"current_range_meters":31200,"station_id":"","pricing_plan_id":"free"},{"bike_id":"7bd35dfc-701d-4a94-84b9-312701e00f76","system_id":"levelo_inurba_marseille","lat":43.33759,"lon":5.37497,"is_reserved":false,"is_disabled":false,"rental_uris":{"android":"levelo://app?vid=7bd35dfc-701d-4a94-84b9-312701e00f76","ios":"levelo://app?vid=7bd35dfc-701d-4a94-84b9-312701e00f76"},"vehicle_type_id":"4","last_reported":1690635991,"current_range_meters":20000,"station_id":"","pricing_plan_id":"free"},{"bike_id":"12905cc7-4f3b-47f8-81fd-f3a9e6236b54","system_id":"levelo_inurba_marseille","lat":43.301117,"lon":5.398795,"is_reserved":false,"is_disabled":false,"rental_uris":{"android":"levelo://app?vid=12905cc7-4f3b-47f8-81fd-f3a9e6236b54","ios":"levelo://app?vid=12905cc7-4f3b-47f8-81fd-f3a9e6236b54"},"vehicle_type_id":"4","last_reported":1690635991,"current_range_meters":27600,"station_id":"ce4bh0h2rcd13ifvqd40","pricing_plan_id":"free"},{"bike_id":"a3b05223-58d6-41cf-a78d-9ca4dbcd2515","system_id":"levelo_inurba_marseille","lat":43.301117,"lon":5.398795,"is_reserved":false,"is_disabled":false,"rental_uris":{"android":"levelo://app?vid=a3b05223-58d6-41cf-a78d-9ca4dbcd2515","ios":"levelo://app?vid=a3b05223-58d6-41cf-a78d-9ca4dbcd2515"},"vehicle_type_id":"4","last_reported":1690635991,"current_range_meters":31600,"station_id":"ce4bh0h2rcd13ifvqd40","pricing_plan_id":"free"},{"bike_id":"ba7d87e1-5744-460a-99bf-67c43f387dd4","system_id":"levelo_inurba_marseille","lat":43.301117,"lon":5.398795,"is_reserved":false,"is_disabled":false,"rental_uris":{"android":"levelo://app?vid=ba7d87e1-5744-460a-99bf-67c43f387dd4","ios":"levelo://app?vid=ba7d87e1-5744-460a-99bf-67c43f387dd4"},"vehicle_type_id":"4","last_reported":1690635991,"current_range_meters":30000,"station_id":"ce4bh0h2rcd13ifvqd40","pricing_plan_id":"free"},{"bike_id":"6954f91a-9f5a-4ea7-abb4-3aaea31ef149","system_id":"levelo_inurba_marseille","lat":43.301117,"lon":5.398795,"is_reserved":false,"is_disabled":false,"rental_uris":{"android":"levelo://app?vid=6954f91a-9f5a-4ea7-abb4-3aaea31ef149","ios":"levelo://app?vid=6954f91a-9f5a-4ea7-abb4-3aaea31ef149"},"vehicle_type_id":"4","last_reported":1690635991,"current_range_meters":5600,"station_id":"ce4bh0h2rcd13ifvqd40","pricing_plan_id":"free"},{"bike_id":"87c33034-fa7a-45ca-a2d2-ade9743f39e8","system_id":"levelo_inurba_marseille","lat":43.30142,"lon":5.3989,"is_reserved":false,"is_disabled":false,"rental_uris":{"android":"levelo://app?vid=87c33034-fa7a-45ca-a2d2-ade9743f39e8","ios":"levelo://app?vid=87c33034-fa7a-45ca-a2d2-ade9743f39e8"},"vehicle_type_id":"4","last_reported":1690635991,"current_range_meters":12400,"station_id":"ce4bh0h2rcd13ifvqd40","pricing_plan_id":"free"},{"bike_id":"129362b0-3889-4ce2-97c7-d8484dd7ffd0","system_id":"levelo_inurba_marseille","lat":43.286961,"lon":5.373785,"is_reserved":false,"is_disabled":false,"rental_uris":{"android":"levelo://app?vid=129362b0-3889-4ce2-97c7-d8484dd7ffd0","ios":"levelo://app?vid=129362b0-3889-4ce2-97c7-d8484dd7ffd0"},"vehicle_type_id":"4","last_reported":1690635991,"current_range_meters":30400,"station_id":"ce4bh3p2rcd13ifvqdq0","pricing_plan_id":"free"},{"bike_id":"75199276-b705-4ad7-b6a9-49aeaa84628a","system_id":"levelo_inurba_marseille","lat":43.286593,"lon":5.363346,"is_reserved":false,"is_disabled":false,"rental_uris":{"android":"levelo://app?vid=75199276-b705-4ad7-b6a9-49aeaa84628a","ios":"levelo://app?vid=75199276-b705-4ad7-b6a9-49aeaa84628a"},"vehicle_type_id":"4","last_reported":1690635991,"current_range_meters":31200,"station_id":"ce4bhah2rcd13ifvqej0","pricing_plan_id":"free"},{"bike_id":"957e262d-eecf-47b8-9596-b6a213c19c40","system_id":"levelo_inurba_marseille","lat":43.295196,"lon":5.39397,"is_reserved":false,"is_disabled":false,"rental_uris":{"android":"levelo://app?vid=957e262d-eecf-47b8-9596-b6a213c19c40","ios":"levelo://app?vid=957e262d-eecf-47b8-9596-b6a213c19c40"},"vehicle_type_id":"4","last_reported":1690635991,"current_range_meters":22400,"station_id":"ce4bh292rcd13ifvqdf0","pricing_plan_id":"free"},{"bike_id":"1ae0f0c5-0eb8-4e1a-b704-968ebba484e4","system_id":"levelo_inurba_marseille","lat":43.286039,"lon":5.370681,"is_reserved":false,"is_disabled":false,"rental_uris":{"android":"levelo://app?vid=1ae0f0c5-0eb8-4e1a-b704-968ebba484e4","ios":"levelo://app?vid=1ae0f0c5-0eb8-4e1a-b704-968ebba484e4"},"vehicle_type_id":"4","last_reported":1690635991,"current_range_meters":16400,"station_id":"ce4bht12rcd13ifvqi60","pricing_plan_id":"free"},{"bike_id":"8c72f03c-7aec-4e85-b895-2e27e4daa98b","system_id":"levelo_inurba_marseille","lat":43.286039,"lon":5.370681,"is_reserved":false,"is_disabled":false,"rental_uris":{"android":"levelo://app?vid=8c72f03c-7aec-4e85-b895-2e27e4daa98b","ios":"levelo://app?vid=8c72f03c-7aec-4e85-b895-2e27e4daa98b"},"vehicle_type_id":"4","last_reported":1690635991,"current_range_meters":14400,"station_id":"ce4bht12rcd13ifvqi60","pricing_plan_id":"free"},{"bike_id":"26deda95-d8ee-4fd5-b1ee-49f3e80c59fa","system_id":"levelo_inurba_marseille","lat":43.287184,"lon":5.37937,"is_reserved":false,"is_disabled":false,"rental_uris":{"android":"levelo://app?vid=26deda95-d8ee-4fd5-b1ee-49f3e80c59fa","ios":"levelo://app?vid=26deda95-d8ee-4fd5-b1ee-49f3e80c59fa"},"vehicle_type_id":"4","last_reported":1690635991,"current_range_meters":21200,"station_id":"ce4bh9p2rcd13ifvqec0","pricing_plan_id":"free"},{"bike_id":"f5eefee8-40ee-4f7c-a5aa-016d06f67422","system_id":"levelo_inurba_marseille","lat":43.287184,"lon":5.37937,"is_reserved":false,"is_disabled":false,"rental_uris":{"android":"levelo://app?vid=f5eefee8-40ee-4f7c-a5aa-016d06f67422","ios":"levelo://app?vid=f5eefee8-40ee-4f7c-a5aa-016d06f67422"},"vehicle_type_id":"4","last_reported":1690635991,"current_range_meters":9200,"station_id":"ce4bh9p2rcd13ifvqec0","pricing_plan_id":"free"},{"bike_id":"f9ac32d9-bfba-4bb8-97d8-4f36f34532d8","system_id":"levelo_inurba_marseille","lat":43.31643,"lon":5.40433,"is_reserved":false,"is_disabled":false,"rental_uris":{"android":"levelo://app?vid=f9ac32d9-bfba-4bb8-97d8-4f36f34532d8","ios":"levelo://app?vid=f9ac32d9-bfba-4bb8-97d8-4f36f34532d8"},"vehicle_type_id":"4","last_reported":1690635991,"current_range_meters":30000,"station_id":"ce4bh012rcd13ifvqd00","pricing_plan_id":"free"},{"bike_id":"e03ce41d-3cb0-4baa-b4a4-110b73134494","system_id":"levelo_inurba_marseille","lat":43.31647,"lon":5.40433,"is_reserved":false,"is_disabled":false,"rental_uris":{"android":"levelo://app?vid=e03ce41d-3cb0-4baa-b4a4-110b73134494","ios":"levelo://app?vid=e03ce41d-3cb0-4baa-b4a4-110b73134494"},"vehicle_type_id":"4","last_reported":1690635991,"current_range_meters":800,"station_id":"ce4bh012rcd13ifvqd00","pricing_plan_id":"free"},{"bike_id":"aa720d43-1763-43e2-b0f6-ba1c038b67dc","system_id":"levelo_inurba_marseille","lat":43.316517,"lon":5.404375,"is_reserved":false,"is_disabled":false,"rental_uris":{"android":"levelo://app?vid=aa720d43-1763-43e2-b0f6-ba1c038b67dc","ios":"levelo://app?vid=aa720d43-1763-43e2-b0f6-ba1c038b67dc"},"vehicle_type_id":"4","last_reported":1690635991,"current_range_meters":19200,"station_id":"ce4bh012rcd13ifvqd00","pricing_plan_id":"free"},{"bike_id":"c37c6b12-ee28-445a-b34b-a452abf00be4","system_id":"levelo_inurba_marseille","lat":43.316517,"lon":5.404375,"is_reserved":false,"is_disabled":false,"rental_uris":{"android":"levelo://app?vid=c37c6b12-ee28-445a-b34b-a452abf00be4","ios":"levelo://app?vid=c37c6b12-ee28-445a-b34b-a452abf00be4"},"vehicle_type_id":"4","last_reported":1690635991,"current_range_meters":30400,"station_id":"ce4bh012rcd13ifvqd00","pricing_plan_id":"free"},{"bike_id":"9118b72f-4b17-453b-b42d-b800e74d1915","system_id":"levelo_inurba_marseille","lat":43.316517,"lon":5.404375,"is_reserved":false,"is_disabled":false,"rental_uris":{"android":"levelo://app?vid=9118b72f-4b17-453b-b42d-b800e74d1915","ios":"levelo://app?vid=9118b72f-4b17-453b-b42d-b800e74d1915"},"vehicle_type_id":"4","last_reported":1690635991,"current_range_meters":30400,"station_id":"ce4bh012rcd13ifvqd00","pricing_plan_id":"free"},{"bike_id":"f51f2b5e-d311-43a0-840c-ca456a44beed","system_id":"levelo_inurba_marseille","lat":43.316517,"lon":5.404375,"is_reserved":false,"is_disabled":false,"rental_uris":{"android":"levelo://app?vid=f51f2b5e-d311-43a0-840c-ca456a44beed","ios":"levelo://app?vid=f51f2b5e-d311-43a0-840c-ca456a44beed"},"vehicle_type_id":"4","last_reported":1690635991,"current_range_meters":29600,"station_id":"ce4bh012rcd13ifvqd00","pricing_plan_id":"free"},{"bike_id":"fce5d3ce-f28b-4f49-b893-05386079dd15","system_id":"levelo_inurba_marseille","lat":43.31654,"lon":5.40438,"is_reserved":false,"is_disabled":false,"rental_uris":{"android":"levelo://app?vid=fce5d3ce-f28b-4f49-b893-05386079dd15","ios":"levelo://app?vid=fce5d3ce-f28b-4f49-b893-05386079dd15"},"vehicle_type_id":"4","last_reported":1690635991,"current_range_meters":24000,"station_id":"ce4bh012rcd13ifvqd00","pricing_plan_id":"free"},{"bike_id":"10eb5114-83b4-432d-9ffd-5fb89431c7ea","system_id":"levelo_inurba_marseille","lat":43.316517,"lon":5.404375,"is_reserved":false,"is_disabled":false,"rental_uris":{"android":"levelo://app?vid=10eb5114-83b4-432d-9ffd-5fb89431c7ea","ios":"levelo://app?vid=10eb5114-83b4-432d-9ffd-5fb89431c7ea"},"vehicle_type_id":"4","last_reported":1690635991,"current_range_meters":21600,"station_id":"ce4bh012rcd13ifvqd00","pricing_plan_id":"free"},{"bike_id":"045a0b7a-34de-40d6-a30b-e816ea32b6e8","system_id":"levelo_inurba_marseille","lat":43.29968,"lon":5.40089,"is_reserved":false,"is_disabled":false,"rental_uris":{"android":"levelo://app?vid=045a0b7a-34de-40d6-a30b-e816ea32b6e8","ios":"levelo://app?vid=045a0b7a-34de-40d6-a30b-e816ea32b6e8"},"vehicle_type_id":"4","last_reported":1690635991,"current_range_meters":31200,"station_id":"","pricing_plan_id":"free"},{"bike_id":"a3c6177a-9ecd-402a-8a4d-54c51ebaebf6","system_id":"levelo_inurba_marseille","lat":43.284538,"lon":5.358657,"is_reserved":false,"is_disabled":false,"rental_uris":{"android":"levelo://app?vid=a3c6177a-9ecd-402a-8a4d-54c51ebaebf6","ios":"levelo://app?vid=a3c6177a-9ecd-402a-8a4d-54c51ebaebf6"},"vehicle_type_id":"4","last_reported":1690635991,"current_range_meters":12400,"station_id":"ce4bhah2rcd13ifvqei0","pricing_plan_id":"free"},{"bike_id":"e833cda9-0af0-4075-aa36-71bd7d79a993","system_id":"levelo_inurba_marseille","lat":43.284538,"lon":5.358657,"is_reserved":false,"is_disabled":false,"rental_uris":{"android":"levelo://app?vid=e833cda9-0af0-4075-aa36-71bd7d79a993","ios":"levelo://app?vid=e833cda9-0af0-4075-aa36-71bd7d79a993"},"vehicle_type_id":"4","last_reported":1690635991,"current_range_meters":31200,"station_id":"ce4bhah2rcd13ifvqei0","pricing_plan_id":"free"},{"bike_id":"ac3663ad-2bd7-4854-9650-566fb371fda9","system_id":"levelo_inurba_marseille","lat":43.284538,"lon":5.358657,"is_reserved":false,"is_disabled":false,"rental_uris":{"android":"levelo://app?vid=ac3663ad-2bd7-4854-9650-566fb371fda9","ios":"levelo://app?vid=ac3663ad-2bd7-4854-9650-566fb371fda9"},"vehicle_type_id":"4","last_reported":1690635991,"current_range_meters":22800,"station_id":"ce4bhah2rcd13ifvqei0","pricing_plan_id":"free"},{"bike_id":"72653c1e-d24a-48a4-84cf-53885d8f2033","system_id":"levelo_inurba_marseille","lat":43.294314,"lon":5.397498,"is_reserved":false,"is_disabled":false,"rental_uris":{"android":"levelo://app?vid=72653c1e-d24a-48a4-84cf-53885d8f2033","ios":"levelo://app?vid=72653c1e-d24a-48a4-84cf-53885d8f2033"},"vehicle_type_id":"4","last_reported":1690635991,"current_range_meters":22800,"station_id":"ce4bh3h2rcd13ifvqdo0","pricing_plan_id":"free"},{"bike_id":"2fd5f152-cfa6-40d7-ad0c-8a7502a150de","system_id":"levelo_inurba_marseille","lat":43.284538,"lon":5.358657,"is_reserved":false,"is_disabled":false,"rental_uris":{"android":"levelo://app?vid=2fd5f152-cfa6-40d7-ad0c-8a7502a150de","ios":"levelo://app?vid=2fd5f152-cfa6-40d7-ad0c-8a7502a150de"},"vehicle_type_id":"4","last_reported":1690635991,"current_range_meters":31600,"station_id":"ce4bhah2rcd13ifvqei0","pricing_plan_id":"free"},{"bike_id":"da21022f-e6db-41eb-b80c-c3cb1040797c","system_id":"levelo_inurba_marseille","lat":43.28621,"lon":5.35104,"is_reserved":false,"is_disabled":false,"rental_uris":{"android":"levelo://app?vid=da21022f-e6db-41eb-b80c-c3cb1040797c","ios":"levelo://app?vid=da21022f-e6db-41eb-b80c-c3cb1040797c"},"vehicle_type_id":"4","last_reported":1690635991,"current_range_meters":26000,"station_id":"ce4bhch2rcd13ifvqeug","pricing_plan_id":"free"},{"bike_id":"95955e16-08ae-411a-be00-1371212d73d8","system_id":"levelo_inurba_marseille","lat":43.285856,"lon":5.350771,"is_reserved":false,"is_disabled":false,"rental_uris":{"android":"levelo://app?vid=95955e16-08ae-411a-be00-1371212d73d8","ios":"levelo://app?vid=95955e16-08ae-411a-be00-1371212d73d8"},"vehicle_type_id":"4","last_reported":1690635991,"current_range_meters":14000,"station_id":"ce4bhch2rcd13ifvqeug","pricing_plan_id":"free"},{"bike_id":"fb3093f3-3085-4fbe-8585-a118b6204d61","system_id":"levelo_inurba_marseille","lat":43.28619,"lon":5.35108,"is_reserved":false,"is_disabled":false,"rental_uris":{"android":"levelo://app?vid=fb3093f3-3085-4fbe-8585-a118b6204d61","ios":"levelo://app?vid=fb3093f3-3085-4fbe-8585-a118b6204d61"},"vehicle_type_id":"4","last_reported":1690635991,"current_range_meters":17600,"station_id":"ce4bhch2rcd13ifvqeug","pricing_plan_id":"free"},{"bike_id":"4a2489be-c7be-4e4c-b2c4-62cfe6dc3ddf","system_id":"levelo_inurba_marseille","lat":43.28618,"lon":5.3511,"is_reserved":false,"is_disabled":false,"rental_uris":{"android":"levelo://app?vid=4a2489be-c7be-4e4c-b2c4-62cfe6dc3ddf","ios":"levelo://app?vid=4a2489be-c7be-4e4c-b2c4-62cfe6dc3ddf"},"vehicle_type_id":"4","last_reported":1690635991,"current_range_meters":24400,"station_id":"ce4bhch2rcd13ifvqeug","pricing_plan_id":"free"},{"bike_id":"efb0a212-757e-495f-970c-5e3797be86c5","system_id":"levelo_inurba_marseille","lat":43.28621,"lon":5.351,"is_reserved":false,"is_disabled":false,"rental_uris":{"android":"levelo://app?vid=efb0a212-757e-495f-970c-5e3797be86c5","ios":"levelo://app?vid=efb0a212-757e-495f-970c-5e3797be86c5"},"vehicle_type_id":"4","last_reported":1690635991,"current_range_meters":27200,"station_id":"ce4bhch2rcd13ifvqeug","pricing_plan_id":"free"},{"bike_id":"5b112069-dd75-4a1c-a0d8-84fb8f414b25","system_id":"levelo_inurba_marseille","lat":43.2862,"lon":5.35103,"is_reserved":false,"is_disabled":false,"rental_uris":{"android":"levelo://app?vid=5b112069-dd75-4a1c-a0d8-84fb8f414b25","ios":"levelo://app?vid=5b112069-dd75-4a1c-a0d8-84fb8f414b25"},"vehicle_type_id":"4","last_reported":1690635991,"current_range_meters":30400,"station_id":"ce4bhch2rcd13ifvqeug","pricing_plan_id":"free"},{"bike_id":"09c34ccf-cef1-4936-9b42-84f57eeac1a3","system_id":"levelo_inurba_marseille","lat":43.28621,"lon":5.35096,"is_reserved":false,"is_disabled":false,"rental_uris":{"android":"levelo://app?vid=09c34ccf-cef1-4936-9b42-84f57eeac1a3","ios":"levelo://app?vid=09c34ccf-cef1-4936-9b42-84f57eeac1a3"},"vehicle_type_id":"4","last_reported":1690635991,"current_range_meters":20800,"station_id":"ce4bhch2rcd13ifvqeug","pricing_plan_id":"free"},{"bike_id":"072893e1-5729-464f-9bce-bf079143fe7d","system_id":"levelo_inurba_marseille","lat":43.2862,"lon":5.35099,"is_reserved":false,"is_disabled":false,"rental_uris":{"android":"levelo://app?vid=072893e1-5729-464f-9bce-bf079143fe7d","ios":"levelo://app?vid=072893e1-5729-464f-9bce-bf079143fe7d"},"vehicle_type_id":"4","last_reported":1690635991,"current_range_meters":25600,"station_id":"ce4bhch2rcd13ifvqeug","pricing_plan_id":"free"},{"bike_id":"53af9663-e4af-4708-9c81-0e36d0b1f160","system_id":"levelo_inurba_marseille","lat":43.28618,"lon":5.35104,"is_reserved":false,"is_disabled":false,"rental_uris":{"android":"levelo://app?vid=53af9663-e4af-4708-9c81-0e36d0b1f160","ios":"levelo://app?vid=53af9663-e4af-4708-9c81-0e36d0b1f160"},"vehicle_type_id":"4","last_reported":1690635991,"current_range_meters":20400,"station_id":"ce4bhch2rcd13ifvqeug","pricing_plan_id":"free"},{"bike_id":"f9f045cc-41a0-4dab-b0a1-5c1551671821","system_id":"levelo_inurba_marseille","lat":43.286163,"lon":5.351002,"is_reserved":false,"is_disabled":false,"rental_uris":{"android":"levelo://app?vid=f9f045cc-41a0-4dab-b0a1-5c1551671821","ios":"levelo://app?vid=f9f045cc-41a0-4dab-b0a1-5c1551671821"},"vehicle_type_id":"4","last_reported":1690635991,"current_range_meters":0,"station_id":"ce4bhch2rcd13ifvqeug","pricing_plan_id":"free"},{"bike_id":"fb3040b4-89e4-40e0-9105-0bc3579cede1","system_id":"levelo_inurba_marseille","lat":43.31557,"lon":5.40659,"is_reserved":false,"is_disabled":false,"rental_uris":{"android":"levelo://app?vid=fb3040b4-89e4-40e0-9105-0bc3579cede1","ios":"levelo://app?vid=fb3040b4-89e4-40e0-9105-0bc3579cede1"},"vehicle_type_id":"4","last_reported":1690635991,"current_range_meters":12400,"station_id":"","pricing_plan_id":"free"},{"bike_id":"2d9caa56-c7ae-402c-bd3a-ec4d83f8ada5","system_id":"levelo_inurba_marseille","lat":43.28616,"lon":5.35099,"is_reserved":false,"is_disabled":false,"rental_uris":{"android":"levelo://app?vid=2d9caa56-c7ae-402c-bd3a-ec4d83f8ada5","ios":"levelo://app?vid=2d9caa56-c7ae-402c-bd3a-ec4d83f8ada5"},"vehicle_type_id":"4","last_reported":1690635991,"current_range_meters":30400,"station_id":"ce4bhch2rcd13ifvqeug","pricing_plan_id":"free"},{"bike_id":"ef141484-9ca0-46ea-b35b-2d03b4065b27","system_id":"levelo_inurba_marseille","lat":43.285856,"lon":5.350771,"is_reserved":false,"is_disabled":false,"rental_uris":{"android":"levelo://app?vid=ef141484-9ca0-46ea-b35b-2d03b4065b27","ios":"levelo://app?vid=ef141484-9ca0-46ea-b35b-2d03b4065b27"},"vehicle_type_id":"4","last_reported":1690635991,"current_range_meters":30400,"station_id":"ce4bhch2rcd13ifvqeug","pricing_plan_id":"free"},{"bike_id":"1a3b71f0-1366-4746-8d80-acaba30c6783","system_id":"levelo_inurba_marseille","lat":43.285856,"lon":5.350771,"is_reserved":false,"is_disabled":false,"rental_uris":{"android":"levelo://app?vid=1a3b71f0-1366-4746-8d80-acaba30c6783","ios":"levelo://app?vid=1a3b71f0-1366-4746-8d80-acaba30c6783"},"vehicle_type_id":"4","last_reported":1690635991,"current_range_meters":18400,"station_id":"ce4bhch2rcd13ifvqeug","pricing_plan_id":"free"},{"bike_id":"24838f93-8341-4232-b75c-78ea4f349659","system_id":"levelo_inurba_marseille","lat":43.28615,"lon":5.35097,"is_reserved":false,"is_disabled":false,"rental_uris":{"android":"levelo://app?vid=24838f93-8341-4232-b75c-78ea4f349659","ios":"levelo://app?vid=24838f93-8341-4232-b75c-78ea4f349659"},"vehicle_type_id":"4","last_reported":1690635991,"current_range_meters":31200,"station_id":"ce4bhch2rcd13ifvqeug","pricing_plan_id":"free"},{"bike_id":"947fb46a-6072-4712-b0a4-2381424d2684","system_id":"levelo_inurba_marseille","lat":43.285856,"lon":5.350771,"is_reserved":false,"is_disabled":false,"rental_uris":{"android":"levelo://app?vid=947fb46a-6072-4712-b0a4-2381424d2684","ios":"levelo://app?vid=947fb46a-6072-4712-b0a4-2381424d2684"},"vehicle_type_id":"4","last_reported":1690635991,"current_range_meters":21200,"station_id":"ce4bhch2rcd13ifvqeug","pricing_plan_id":"free"},{"bike_id":"e2244370-f1c3-4d2d-a79c-dc082d80bcda","system_id":"levelo_inurba_marseille","lat":43.31563,"lon":5.40663,"is_reserved":false,"is_disabled":false,"rental_uris":{"android":"levelo://app?vid=e2244370-f1c3-4d2d-a79c-dc082d80bcda","ios":"levelo://app?vid=e2244370-f1c3-4d2d-a79c-dc082d80bcda"},"vehicle_type_id":"4","last_reported":1690635991,"current_range_meters":18800,"station_id":"","pricing_plan_id":"free"},{"bike_id":"1d8c0af4-356a-49f4-a784-e76431d7893e","system_id":"levelo_inurba_marseille","lat":43.283998,"lon":5.375062,"is_reserved":false,"is_disabled":false,"rental_uris":{"android":"levelo://app?vid=1d8c0af4-356a-49f4-a784-e76431d7893e","ios":"levelo://app?vid=1d8c0af4-356a-49f4-a784-e76431d7893e"},"vehicle_type_id":"4","last_reported":1690635991,"current_range_meters":28400,"station_id":"ce4bh412rcd13ifvqds0","pricing_plan_id":"free"},{"bike_id":"753ffcbd-0640-4ba1-bf3d-247fb4068039","system_id":"levelo_inurba_marseille","lat":43.286595,"lon":5.386795,"is_reserved":false,"is_disabled":false,"rental_uris":{"android":"levelo://app?vid=753ffcbd-0640-4ba1-bf3d-247fb4068039","ios":"levelo://app?vid=753ffcbd-0640-4ba1-bf3d-247fb4068039"},"vehicle_type_id":"4","last_reported":1690635991,"current_range_meters":25600,"station_id":"ce4bh492rcd13ifvqdug","pricing_plan_id":"free"},{"bike_id":"3e7c8399-35a4-4364-b2a8-fee20588aad7","system_id":"levelo_inurba_marseille","lat":43.31888,"lon":5.40731,"is_reserved":false,"is_disabled":false,"rental_uris":{"android":"levelo://app?vid=3e7c8399-35a4-4364-b2a8-fee20588aad7","ios":"levelo://app?vid=3e7c8399-35a4-4364-b2a8-fee20588aad7"},"vehicle_type_id":"4","last_reported":1690635991,"current_range_meters":4800,"station_id":"ce4bhq12rcd13ifvqhig","pricing_plan_id":"free"},{"bike_id":"26bfcad4-2dc6-43bb-9f00-91622fd750a3","system_id":"levelo_inurba_marseille","lat":43.323464,"lon":5.406297,"is_reserved":false,"is_disabled":false,"rental_uris":{"android":"levelo://app?vid=26bfcad4-2dc6-43bb-9f00-91622fd750a3","ios":"levelo://app?vid=26bfcad4-2dc6-43bb-9f00-91622fd750a3"},"vehicle_type_id":"4","last_reported":1690635991,"current_range_meters":31600,"station_id":"ce4bhq92rcd13ifvqhjg","pricing_plan_id":"free"},{"bike_id":"0341f276-2132-4a65-99ff-c9d72ae3e1c3","system_id":"levelo_inurba_marseille","lat":43.323464,"lon":5.406297,"is_reserved":false,"is_disabled":false,"rental_uris":{"android":"levelo://app?vid=0341f276-2132-4a65-99ff-c9d72ae3e1c3","ios":"levelo://app?vid=0341f276-2132-4a65-99ff-c9d72ae3e1c3"},"vehicle_type_id":"4","last_reported":1690635991,"current_range_meters":24800,"station_id":"ce4bhq92rcd13ifvqhjg","pricing_plan_id":"free"},{"bike_id":"07355913-3475-48df-8d84-3e45dbf0e07b","system_id":"levelo_inurba_marseille","lat":43.33723,"lon":5.39183,"is_reserved":false,"is_disabled":false,"rental_uris":{"android":"levelo://app?vid=07355913-3475-48df-8d84-3e45dbf0e07b","ios":"levelo://app?vid=07355913-3475-48df-8d84-3e45dbf0e07b"},"vehicle_type_id":"4","last_reported":1690635991,"current_range_meters":19600,"station_id":"ce4bhr92rcd13ifvqhsg","pricing_plan_id":"free"},{"bike_id":"64e29e51-351b-47c8-abb7-b6f467d54995","system_id":"levelo_inurba_marseille","lat":43.323464,"lon":5.406297,"is_reserved":false,"is_disabled":false,"rental_uris":{"android":"levelo://app?vid=64e29e51-351b-47c8-abb7-b6f467d54995","ios":"levelo://app?vid=64e29e51-351b-47c8-abb7-b6f467d54995"},"vehicle_type_id":"4","last_reported":1690635991,"current_range_meters":9200,"station_id":"ce4bhq92rcd13ifvqhjg","pricing_plan_id":"free"},{"bike_id":"227d1192-8089-4bbc-b89f-c64ffb3b7450","system_id":"levelo_inurba_marseille","lat":43.284787,"lon":5.384116,"is_reserved":false,"is_disabled":false,"rental_uris":{"android":"levelo://app?vid=227d1192-8089-4bbc-b89f-c64ffb3b7450","ios":"levelo://app?vid=227d1192-8089-4bbc-b89f-c64ffb3b7450"},"vehicle_type_id":"4","last_reported":1690635991,"current_range_meters":16000,"station_id":"ce4bh512rcd13ifvqe3g","pricing_plan_id":"free"},{"bike_id":"c80303b9-9d7f-4361-ad39-13d113dcd819","system_id":"levelo_inurba_marseille","lat":43.284787,"lon":5.384116,"is_reserved":false,"is_disabled":false,"rental_uris":{"android":"levelo://app?vid=c80303b9-9d7f-4361-ad39-13d113dcd819","ios":"levelo://app?vid=c80303b9-9d7f-4361-ad39-13d113dcd819"},"vehicle_type_id":"4","last_reported":1690635991,"current_range_meters":6400,"station_id":"ce4bh512rcd13ifvqe3g","pricing_plan_id":"free"},{"bike_id":"1a26bd7a-3f85-482d-b4ea-1e750ce4aba4","system_id":"levelo_inurba_marseille","lat":43.29811,"lon":5.40404,"is_reserved":false,"is_disabled":false,"rental_uris":{"android":"levelo://app?vid=1a26bd7a-3f85-482d-b4ea-1e750ce4aba4","ios":"levelo://app?vid=1a26bd7a-3f85-482d-b4ea-1e750ce4aba4"},"vehicle_type_id":"4","last_reported":1690635991,"current_range_meters":19600,"station_id":"","pricing_plan_id":"free"},{"bike_id":"c9b57190-597b-49d6-9584-63c5fef17448","system_id":"levelo_inurba_marseille","lat":43.29811,"lon":5.40406,"is_reserved":false,"is_disabled":false,"rental_uris":{"android":"levelo://app?vid=c9b57190-597b-49d6-9584-63c5fef17448","ios":"levelo://app?vid=c9b57190-597b-49d6-9584-63c5fef17448"},"vehicle_type_id":"4","last_reported":1690635991,"current_range_meters":12000,"station_id":"","pricing_plan_id":"free"},{"bike_id":"7353ed8a-55e7-4aa5-b4ce-9b966fbeb8c1","system_id":"levelo_inurba_marseille","lat":43.29805,"lon":5.40409,"is_reserved":false,"is_disabled":false,"rental_uris":{"android":"levelo://app?vid=7353ed8a-55e7-4aa5-b4ce-9b966fbeb8c1","ios":"levelo://app?vid=7353ed8a-55e7-4aa5-b4ce-9b966fbeb8c1"},"vehicle_type_id":"4","last_reported":1690635991,"current_range_meters":24400,"station_id":"","pricing_plan_id":"free"},{"bike_id":"cf0bf93f-d49d-4479-8320-052904c77e28","system_id":"levelo_inurba_marseille","lat":43.29805,"lon":5.40413,"is_reserved":false,"is_disabled":false,"rental_uris":{"android":"levelo://app?vid=cf0bf93f-d49d-4479-8320-052904c77e28","ios":"levelo://app?vid=cf0bf93f-d49d-4479-8320-052904c77e28"},"vehicle_type_id":"4","last_reported":1690635991,"current_range_meters":30400,"station_id":"","pricing_plan_id":"free"},{"bike_id":"00e9be6e-bf02-4b2a-a0de-9c77b6f44ec9","system_id":"levelo_inurba_marseille","lat":43.29805,"lon":5.40415,"is_reserved":false,"is_disabled":false,"rental_uris":{"android":"levelo://app?vid=00e9be6e-bf02-4b2a-a0de-9c77b6f44ec9","ios":"levelo://app?vid=00e9be6e-bf02-4b2a-a0de-9c77b6f44ec9"},"vehicle_type_id":"4","last_reported":1690635991,"current_range_meters":1600,"station_id":"","pricing_plan_id":"free"},{"bike_id":"41918487-c7f5-4ca4-8e15-28473670b6b7","system_id":"levelo_inurba_marseille","lat":43.29808,"lon":5.4042,"is_reserved":false,"is_disabled":false,"rental_uris":{"android":"levelo://app?vid=41918487-c7f5-4ca4-8e15-28473670b6b7","ios":"levelo://app?vid=41918487-c7f5-4ca4-8e15-28473670b6b7"},"vehicle_type_id":"4","last_reported":1690635991,"current_range_meters":31200,"station_id":"","pricing_plan_id":"free"},{"bike_id":"965f900d-17bd-4ef8-8d2b-4f581651ed7e","system_id":"levelo_inurba_marseille","lat":43.284219,"lon":5.3497,"is_reserved":false,"is_disabled":false,"rental_uris":{"android":"levelo://app?vid=965f900d-17bd-4ef8-8d2b-4f581651ed7e","ios":"levelo://app?vid=965f900d-17bd-4ef8-8d2b-4f581651ed7e"},"vehicle_type_id":"4","last_reported":1690635991,"current_range_meters":14800,"station_id":"ce4bhbh2rcd13ifvqepg","pricing_plan_id":"free"},{"bike_id":"6ca53bb7-50c7-4693-a2d4-f4c3fcc4a098","system_id":"levelo_inurba_marseille","lat":43.283494,"lon":5.380945,"is_reserved":false,"is_disabled":false,"rental_uris":{"android":"levelo://app?vid=6ca53bb7-50c7-4693-a2d4-f4c3fcc4a098","ios":"levelo://app?vid=6ca53bb7-50c7-4693-a2d4-f4c3fcc4a098"},"vehicle_type_id":"4","last_reported":1690635991,"current_range_meters":22000,"station_id":"ce4bh412rcd13ifvqdr0","pricing_plan_id":"free"},{"bike_id":"1624f85a-32bb-4ba5-b0fa-98a8f66b2c32","system_id":"levelo_inurba_marseille","lat":43.29801,"lon":5.40421,"is_reserved":false,"is_disabled":false,"rental_uris":{"android":"levelo://app?vid=1624f85a-32bb-4ba5-b0fa-98a8f66b2c32","ios":"levelo://app?vid=1624f85a-32bb-4ba5-b0fa-98a8f66b2c32"},"vehicle_type_id":"4","last_reported":1690635991,"current_range_meters":20800,"station_id":"","pricing_plan_id":"free"},{"bike_id":"b4dc9478-e411-491f-9766-0483311aae4c","system_id":"levelo_inurba_marseille","lat":43.284219,"lon":5.3497,"is_reserved":false,"is_disabled":false,"rental_uris":{"android":"levelo://app?vid=b4dc9478-e411-491f-9766-0483311aae4c","ios":"levelo://app?vid=b4dc9478-e411-491f-9766-0483311aae4c"},"vehicle_type_id":"4","last_reported":1690635991,"current_range_meters":24000,"station_id":"ce4bhbh2rcd13ifvqepg","pricing_plan_id":"free"},{"bike_id":"64546c53-9c88-4d35-9ce5-f6b29d5217a3","system_id":"levelo_inurba_marseille","lat":43.284219,"lon":5.3497,"is_reserved":false,"is_disabled":false,"rental_uris":{"android":"levelo://app?vid=64546c53-9c88-4d35-9ce5-f6b29d5217a3","ios":"levelo://app?vid=64546c53-9c88-4d35-9ce5-f6b29d5217a3"},"vehicle_type_id":"4","last_reported":1690635991,"current_range_meters":29200,"station_id":"ce4bhbh2rcd13ifvqepg","pricing_plan_id":"free"},{"bike_id":"73dfe535-c830-45c6-9270-b1249cd3fef5","system_id":"levelo_inurba_marseille","lat":43.28439,"lon":5.34996,"is_reserved":false,"is_disabled":false,"rental_uris":{"android":"levelo://app?vid=73dfe535-c830-45c6-9270-b1249cd3fef5","ios":"levelo://app?vid=73dfe535-c830-45c6-9270-b1249cd3fef5"},"vehicle_type_id":"4","last_reported":1690635991,"current_range_meters":23600,"station_id":"ce4bhbh2rcd13ifvqepg","pricing_plan_id":"free"},{"bike_id":"56a332a8-ec32-4fdc-9ed2-7515866ddf83","system_id":"levelo_inurba_marseille","lat":43.28436,"lon":5.35003,"is_reserved":false,"is_disabled":false,"rental_uris":{"android":"levelo://app?vid=56a332a8-ec32-4fdc-9ed2-7515866ddf83","ios":"levelo://app?vid=56a332a8-ec32-4fdc-9ed2-7515866ddf83"},"vehicle_type_id":"4","last_reported":1690635991,"current_range_meters":23200,"station_id":"ce4bhbh2rcd13ifvqepg","pricing_plan_id":"free"},{"bike_id":"2b03d1e9-e8b1-40e2-ac11-5b582136f5fe","system_id":"levelo_inurba_marseille","lat":43.284219,"lon":5.3497,"is_reserved":false,"is_disabled":false,"rental_uris":{"android":"levelo://app?vid=2b03d1e9-e8b1-40e2-ac11-5b582136f5fe","ios":"levelo://app?vid=2b03d1e9-e8b1-40e2-ac11-5b582136f5fe"},"vehicle_type_id":"4","last_reported":1690635991,"current_range_meters":22400,"station_id":"ce4bhbh2rcd13ifvqepg","pricing_plan_id":"free"},{"bike_id":"5aa4fe5e-986f-4803-9986-d9cb7cffa375","system_id":"levelo_inurba_marseille","lat":43.284219,"lon":5.3497,"is_reserved":false,"is_disabled":false,"rental_uris":{"android":"levelo://app?vid=5aa4fe5e-986f-4803-9986-d9cb7cffa375","ios":"levelo://app?vid=5aa4fe5e-986f-4803-9986-d9cb7cffa375"},"vehicle_type_id":"4","last_reported":1690635991,"current_range_meters":32000,"station_id":"ce4bhbh2rcd13ifvqepg","pricing_plan_id":"free"},{"bike_id":"50f141d3-67fb-4f8e-ad05-1afa59378f02","system_id":"levelo_inurba_marseille","lat":43.28433,"lon":5.35009,"is_reserved":false,"is_disabled":false,"rental_uris":{"android":"levelo://app?vid=50f141d3-67fb-4f8e-ad05-1afa59378f02","ios":"levelo://app?vid=50f141d3-67fb-4f8e-ad05-1afa59378f02"},"vehicle_type_id":"4","last_reported":1690635991,"current_range_meters":15200,"station_id":"ce4bhbh2rcd13ifvqepg","pricing_plan_id":"free"},{"bike_id":"a45c62d3-13c3-4aab-a69f-b5da8cde321b","system_id":"levelo_inurba_marseille","lat":43.284219,"lon":5.3497,"is_reserved":false,"is_disabled":false,"rental_uris":{"android":"levelo://app?vid=a45c62d3-13c3-4aab-a69f-b5da8cde321b","ios":"levelo://app?vid=a45c62d3-13c3-4aab-a69f-b5da8cde321b"},"vehicle_type_id":"4","last_reported":1690635991,"current_range_meters":27600,"station_id":"ce4bhbh2rcd13ifvqepg","pricing_plan_id":"free"},{"bike_id":"b58fb898-956a-4e49-b047-978622c65644","system_id":"levelo_inurba_marseille","lat":43.284219,"lon":5.3497,"is_reserved":false,"is_disabled":false,"rental_uris":{"android":"levelo://app?vid=b58fb898-956a-4e49-b047-978622c65644","ios":"levelo://app?vid=b58fb898-956a-4e49-b047-978622c65644"},"vehicle_type_id":"4","last_reported":1690635991,"current_range_meters":24800,"station_id":"ce4bhbh2rcd13ifvqepg","pricing_plan_id":"free"},{"bike_id":"78702bd3-15f1-4b90-bef4-39e08cc78f06","system_id":"levelo_inurba_marseille","lat":43.284219,"lon":5.3497,"is_reserved":false,"is_disabled":false,"rental_uris":{"android":"levelo://app?vid=78702bd3-15f1-4b90-bef4-39e08cc78f06","ios":"levelo://app?vid=78702bd3-15f1-4b90-bef4-39e08cc78f06"},"vehicle_type_id":"4","last_reported":1690635991,"current_range_meters":28800,"station_id":"ce4bhbh2rcd13ifvqepg","pricing_plan_id":"free"},{"bike_id":"935ad233-c9a3-4ffd-86af-00b9e908ca91","system_id":"levelo_inurba_marseille","lat":43.284219,"lon":5.3497,"is_reserved":false,"is_disabled":false,"rental_uris":{"android":"levelo://app?vid=935ad233-c9a3-4ffd-86af-00b9e908ca91","ios":"levelo://app?vid=935ad233-c9a3-4ffd-86af-00b9e908ca91"},"vehicle_type_id":"4","last_reported":1690635991,"current_range_meters":24800,"station_id":"ce4bhbh2rcd13ifvqepg","pricing_plan_id":"free"},{"bike_id":"a56999cc-e4fd-4aa3-920d-26d9acf3fc4c","system_id":"levelo_inurba_marseille","lat":43.284219,"lon":5.3497,"is_reserved":false,"is_disabled":false,"rental_uris":{"android":"levelo://app?vid=a56999cc-e4fd-4aa3-920d-26d9acf3fc4c","ios":"levelo://app?vid=a56999cc-e4fd-4aa3-920d-26d9acf3fc4c"},"vehicle_type_id":"4","last_reported":1690635991,"current_range_meters":30400,"station_id":"ce4bhbh2rcd13ifvqepg","pricing_plan_id":"free"},{"bike_id":"93ef7a96-b76f-4cbb-b9d8-ad9dcaf15f72","system_id":"levelo_inurba_marseille","lat":43.284219,"lon":5.3497,"is_reserved":false,"is_disabled":false,"rental_uris":{"android":"levelo://app?vid=93ef7a96-b76f-4cbb-b9d8-ad9dcaf15f72","ios":"levelo://app?vid=93ef7a96-b76f-4cbb-b9d8-ad9dcaf15f72"},"vehicle_type_id":"4","last_reported":1690635991,"current_range_meters":24800,"station_id":"ce4bhbh2rcd13ifvqepg","pricing_plan_id":"free"},{"bike_id":"ca95364a-ce50-4a1e-8a64-1f0ba1bc305e","system_id":"levelo_inurba_marseille","lat":43.28429,"lon":5.34996,"is_reserved":false,"is_disabled":false,"rental_uris":{"android":"levelo://app?vid=ca95364a-ce50-4a1e-8a64-1f0ba1bc305e","ios":"levelo://app?vid=ca95364a-ce50-4a1e-8a64-1f0ba1bc305e"},"vehicle_type_id":"4","last_reported":1690635991,"current_range_meters":15600,"station_id":"ce4bhbh2rcd13ifvqepg","pricing_plan_id":"free"},{"bike_id":"036aa569-a68a-400b-b6f3-5b375a3f8120","system_id":"levelo_inurba_marseille","lat":43.28427,"lon":5.34997,"is_reserved":false,"is_disabled":false,"rental_uris":{"android":"levelo://app?vid=036aa569-a68a-400b-b6f3-5b375a3f8120","ios":"levelo://app?vid=036aa569-a68a-400b-b6f3-5b375a3f8120"},"vehicle_type_id":"4","last_reported":1690635991,"current_range_meters":19200,"station_id":"ce4bhbh2rcd13ifvqepg","pricing_plan_id":"free"},{"bike_id":"1bfbcee9-663f-4ac4-b316-71ed41ac9f8e","system_id":"levelo_inurba_marseille","lat":43.284219,"lon":5.3497,"is_reserved":false,"is_disabled":false,"rental_uris":{"android":"levelo://app?vid=1bfbcee9-663f-4ac4-b316-71ed41ac9f8e","ios":"levelo://app?vid=1bfbcee9-663f-4ac4-b316-71ed41ac9f8e"},"vehicle_type_id":"4","last_reported":1690635991,"current_range_meters":18000,"station_id":"ce4bhbh2rcd13ifvqepg","pricing_plan_id":"free"},{"bike_id":"72999117-72a9-4f02-89a7-586028df059d","system_id":"levelo_inurba_marseille","lat":43.28421,"lon":5.35008,"is_reserved":false,"is_disabled":false,"rental_uris":{"android":"levelo://app?vid=72999117-72a9-4f02-89a7-586028df059d","ios":"levelo://app?vid=72999117-72a9-4f02-89a7-586028df059d"},"vehicle_type_id":"4","last_reported":1690635991,"current_range_meters":26800,"station_id":"ce4bhbh2rcd13ifvqepg","pricing_plan_id":"free"},{"bike_id":"70ffebc9-7f2b-4b75-b0f0-03651e411d5c","system_id":"levelo_inurba_marseille","lat":43.28426,"lon":5.34991,"is_reserved":false,"is_disabled":false,"rental_uris":{"android":"levelo://app?vid=70ffebc9-7f2b-4b75-b0f0-03651e411d5c","ios":"levelo://app?vid=70ffebc9-7f2b-4b75-b0f0-03651e411d5c"},"vehicle_type_id":"4","last_reported":1690635991,"current_range_meters":19200,"station_id":"ce4bhbh2rcd13ifvqepg","pricing_plan_id":"free"},{"bike_id":"6f245f97-8f60-4b88-a899-e8925d3c001e","system_id":"levelo_inurba_marseille","lat":43.284219,"lon":5.3497,"is_reserved":false,"is_disabled":false,"rental_uris":{"android":"levelo://app?vid=6f245f97-8f60-4b88-a899-e8925d3c001e","ios":"levelo://app?vid=6f245f97-8f60-4b88-a899-e8925d3c001e"},"vehicle_type_id":"4","last_reported":1690635991,"current_range_meters":31200,"station_id":"ce4bhbh2rcd13ifvqepg","pricing_plan_id":"free"},{"bike_id":"8f6d3902-9019-4088-a7a3-7dd336680463","system_id":"levelo_inurba_marseille","lat":43.284219,"lon":5.3497,"is_reserved":false,"is_disabled":false,"rental_uris":{"android":"levelo://app?vid=8f6d3902-9019-4088-a7a3-7dd336680463","ios":"levelo://app?vid=8f6d3902-9019-4088-a7a3-7dd336680463"},"vehicle_type_id":"4","last_reported":1690635991,"current_range_meters":23600,"station_id":"ce4bhbh2rcd13ifvqepg","pricing_plan_id":"free"},{"bike_id":"1cf59b23-465e-4dd8-95dd-36e123eaf066","system_id":"levelo_inurba_marseille","lat":43.28424,"lon":5.3499,"is_reserved":false,"is_disabled":false,"rental_uris":{"android":"levelo://app?vid=1cf59b23-465e-4dd8-95dd-36e123eaf066","ios":"levelo://app?vid=1cf59b23-465e-4dd8-95dd-36e123eaf066"},"vehicle_type_id":"4","last_reported":1690635991,"current_range_meters":12400,"station_id":"ce4bhbh2rcd13ifvqepg","pricing_plan_id":"free"},{"bike_id":"2bf26a8a-6187-41f0-856d-ecab2adcd3b9","system_id":"levelo_inurba_marseille","lat":43.284219,"lon":5.3497,"is_reserved":false,"is_disabled":false,"rental_uris":{"android":"levelo://app?vid=2bf26a8a-6187-41f0-856d-ecab2adcd3b9","ios":"levelo://app?vid=2bf26a8a-6187-41f0-856d-ecab2adcd3b9"},"vehicle_type_id":"4","last_reported":1690635991,"current_range_meters":18400,"station_id":"ce4bhbh2rcd13ifvqepg","pricing_plan_id":"free"},{"bike_id":"857eadcb-202f-4fc1-a6ab-1cec703afb07","system_id":"levelo_inurba_marseille","lat":43.28423,"lon":5.34986,"is_reserved":false,"is_disabled":false,"rental_uris":{"android":"levelo://app?vid=857eadcb-202f-4fc1-a6ab-1cec703afb07","ios":"levelo://app?vid=857eadcb-202f-4fc1-a6ab-1cec703afb07"},"vehicle_type_id":"4","last_reported":1690635991,"current_range_meters":31200,"station_id":"ce4bhbh2rcd13ifvqepg","pricing_plan_id":"free"},{"bike_id":"0e52b493-1ecf-49d3-bc79-13831d2b3fea","system_id":"levelo_inurba_marseille","lat":43.28421,"lon":5.34991,"is_reserved":false,"is_disabled":false,"rental_uris":{"android":"levelo://app?vid=0e52b493-1ecf-49d3-bc79-13831d2b3fea","ios":"levelo://app?vid=0e52b493-1ecf-49d3-bc79-13831d2b3fea"},"vehicle_type_id":"4","last_reported":1690635991,"current_range_meters":27600,"station_id":"ce4bhbh2rcd13ifvqepg","pricing_plan_id":"free"},{"bike_id":"6d20cfc5-661c-418f-b4bb-b0157fc086ec","system_id":"levelo_inurba_marseille","lat":43.284219,"lon":5.3497,"is_reserved":false,"is_disabled":false,"rental_uris":{"android":"levelo://app?vid=6d20cfc5-661c-418f-b4bb-b0157fc086ec","ios":"levelo://app?vid=6d20cfc5-661c-418f-b4bb-b0157fc086ec"},"vehicle_type_id":"4","last_reported":1690635991,"current_range_meters":31200,"station_id":"ce4bhbh2rcd13ifvqepg","pricing_plan_id":"free"},{"bike_id":"5b63819f-5cd2-403f-9a21-ab2f1fd93c46","system_id":"levelo_inurba_marseille","lat":43.28419,"lon":5.34985,"is_reserved":false,"is_disabled":false,"rental_uris":{"android":"levelo://app?vid=5b63819f-5cd2-403f-9a21-ab2f1fd93c46","ios":"levelo://app?vid=5b63819f-5cd2-403f-9a21-ab2f1fd93c46"},"vehicle_type_id":"4","last_reported":1690635991,"current_range_meters":9200,"station_id":"ce4bhbh2rcd13ifvqepg","pricing_plan_id":"free"},{"bike_id":"821fa1af-79f0-4a9c-9806-c2e26011cb8c","system_id":"levelo_inurba_marseille","lat":43.28419,"lon":5.34984,"is_reserved":false,"is_disabled":false,"rental_uris":{"android":"levelo://app?vid=821fa1af-79f0-4a9c-9806-c2e26011cb8c","ios":"levelo://app?vid=821fa1af-79f0-4a9c-9806-c2e26011cb8c"},"vehicle_type_id":"4","last_reported":1690635991,"current_range_meters":18000,"station_id":"ce4bhbh2rcd13ifvqepg","pricing_plan_id":"free"},{"bike_id":"fbb422b2-df81-4249-ba6f-622409dc07fd","system_id":"levelo_inurba_marseille","lat":43.32781,"lon":5.40541,"is_reserved":false,"is_disabled":false,"rental_uris":{"android":"levelo://app?vid=fbb422b2-df81-4249-ba6f-622409dc07fd","ios":"levelo://app?vid=fbb422b2-df81-4249-ba6f-622409dc07fd"},"vehicle_type_id":"4","last_reported":1690635991,"current_range_meters":4800,"station_id":"","pricing_plan_id":"free"},{"bike_id":"7a9dcbf6-60c6-4b32-b4da-7efe5b5338b0","system_id":"levelo_inurba_marseille","lat":43.292724,"lon":5.401131,"is_reserved":false,"is_disabled":false,"rental_uris":{"android":"levelo://app?vid=7a9dcbf6-60c6-4b32-b4da-7efe5b5338b0","ios":"levelo://app?vid=7a9dcbf6-60c6-4b32-b4da-7efe5b5338b0"},"vehicle_type_id":"4","last_reported":1690635991,"current_range_meters":30000,"station_id":"ce4bh312rcd13ifvqdk0","pricing_plan_id":"free"},{"bike_id":"f421a44b-afdd-4809-aec3-5ed13478ae8b","system_id":"levelo_inurba_marseille","lat":43.28286,"lon":5.35093,"is_reserved":false,"is_disabled":false,"rental_uris":{"android":"levelo://app?vid=f421a44b-afdd-4809-aec3-5ed13478ae8b","ios":"levelo://app?vid=f421a44b-afdd-4809-aec3-5ed13478ae8b"},"vehicle_type_id":"4","last_reported":1690635991,"current_range_meters":23600,"station_id":"ce4bhbp2rcd13ifvqerg","pricing_plan_id":"free"},{"bike_id":"aa6dcb7f-5b5c-419e-9e5f-0fe1f0095221","system_id":"levelo_inurba_marseille","lat":43.28282,"lon":5.35087,"is_reserved":false,"is_disabled":false,"rental_uris":{"android":"levelo://app?vid=aa6dcb7f-5b5c-419e-9e5f-0fe1f0095221","ios":"levelo://app?vid=aa6dcb7f-5b5c-419e-9e5f-0fe1f0095221"},"vehicle_type_id":"4","last_reported":1690635991,"current_range_meters":20000,"station_id":"ce4bhbp2rcd13ifvqerg","pricing_plan_id":"free"},{"bike_id":"99f7d7b6-30c9-4e70-b1e4-93c7cc377066","system_id":"levelo_inurba_marseille","lat":43.282744,"lon":5.350533,"is_reserved":false,"is_disabled":false,"rental_uris":{"android":"levelo://app?vid=99f7d7b6-30c9-4e70-b1e4-93c7cc377066","ios":"levelo://app?vid=99f7d7b6-30c9-4e70-b1e4-93c7cc377066"},"vehicle_type_id":"4","last_reported":1690635991,"current_range_meters":31200,"station_id":"ce4bhbp2rcd13ifvqerg","pricing_plan_id":"free"},{"bike_id":"eda02c21-dd0b-4a7b-b78c-7f5048e04e56","system_id":"levelo_inurba_marseille","lat":43.282744,"lon":5.350533,"is_reserved":false,"is_disabled":false,"rental_uris":{"android":"levelo://app?vid=eda02c21-dd0b-4a7b-b78c-7f5048e04e56","ios":"levelo://app?vid=eda02c21-dd0b-4a7b-b78c-7f5048e04e56"},"vehicle_type_id":"4","last_reported":1690635991,"current_range_meters":31200,"station_id":"ce4bhbp2rcd13ifvqerg","pricing_plan_id":"free"},{"bike_id":"f4173bf7-b534-41bf-9998-95b53865058b","system_id":"levelo_inurba_marseille","lat":43.282744,"lon":5.350533,"is_reserved":false,"is_disabled":false,"rental_uris":{"android":"levelo://app?vid=f4173bf7-b534-41bf-9998-95b53865058b","ios":"levelo://app?vid=f4173bf7-b534-41bf-9998-95b53865058b"},"vehicle_type_id":"4","last_reported":1690635991,"current_range_meters":31200,"station_id":"ce4bhbp2rcd13ifvqerg","pricing_plan_id":"free"},{"bike_id":"6f94f891-b677-4ef7-a6ec-b081a4774599","system_id":"levelo_inurba_marseille","lat":43.28281,"lon":5.35086,"is_reserved":false,"is_disabled":false,"rental_uris":{"android":"levelo://app?vid=6f94f891-b677-4ef7-a6ec-b081a4774599","ios":"levelo://app?vid=6f94f891-b677-4ef7-a6ec-b081a4774599"},"vehicle_type_id":"4","last_reported":1690635991,"current_range_meters":24800,"station_id":"ce4bhbp2rcd13ifvqerg","pricing_plan_id":"free"},{"bike_id":"a4ae56df-4270-4dc6-803b-d88da3a6b875","system_id":"levelo_inurba_marseille","lat":43.28284,"lon":5.35075,"is_reserved":false,"is_disabled":false,"rental_uris":{"android":"levelo://app?vid=a4ae56df-4270-4dc6-803b-d88da3a6b875","ios":"levelo://app?vid=a4ae56df-4270-4dc6-803b-d88da3a6b875"},"vehicle_type_id":"4","last_reported":1690635991,"current_range_meters":19600,"station_id":"ce4bhbp2rcd13ifvqerg","pricing_plan_id":"free"},{"bike_id":"94eff19e-b09d-4404-bb88-ad663599ac11","system_id":"levelo_inurba_marseille","lat":43.28281,"lon":5.35085,"is_reserved":false,"is_disabled":false,"rental_uris":{"android":"levelo://app?vid=94eff19e-b09d-4404-bb88-ad663599ac11","ios":"levelo://app?vid=94eff19e-b09d-4404-bb88-ad663599ac11"},"vehicle_type_id":"4","last_reported":1690635991,"current_range_meters":28800,"station_id":"ce4bhbp2rcd13ifvqerg","pricing_plan_id":"free"},{"bike_id":"d6993a86-5f14-4b94-930e-392f11ab1d36","system_id":"levelo_inurba_marseille","lat":43.28279,"lon":5.35085,"is_reserved":false,"is_disabled":false,"rental_uris":{"android":"levelo://app?vid=d6993a86-5f14-4b94-930e-392f11ab1d36","ios":"levelo://app?vid=d6993a86-5f14-4b94-930e-392f11ab1d36"},"vehicle_type_id":"4","last_reported":1690635991,"current_range_meters":31200,"station_id":"ce4bhbp2rcd13ifvqerg","pricing_plan_id":"free"},{"bike_id":"3dd54fcc-5211-4694-ae39-a7afd685b01a","system_id":"levelo_inurba_marseille","lat":43.2828,"lon":5.35081,"is_reserved":false,"is_disabled":false,"rental_uris":{"android":"levelo://app?vid=3dd54fcc-5211-4694-ae39-a7afd685b01a","ios":"levelo://app?vid=3dd54fcc-5211-4694-ae39-a7afd685b01a"},"vehicle_type_id":"4","last_reported":1690635991,"current_range_meters":26400,"station_id":"ce4bhbp2rcd13ifvqerg","pricing_plan_id":"free"},{"bike_id":"6a0e7cf2-9160-404a-8c0f-74b4b67efbac","system_id":"levelo_inurba_marseille","lat":43.28277,"lon":5.35091,"is_reserved":false,"is_disabled":false,"rental_uris":{"android":"levelo://app?vid=6a0e7cf2-9160-404a-8c0f-74b4b67efbac","ios":"levelo://app?vid=6a0e7cf2-9160-404a-8c0f-74b4b67efbac"},"vehicle_type_id":"4","last_reported":1690635991,"current_range_meters":14800,"station_id":"ce4bhbp2rcd13ifvqerg","pricing_plan_id":"free"},{"bike_id":"01d00589-011a-4eb5-b57f-487700c9ede8","system_id":"levelo_inurba_marseille","lat":43.28279,"lon":5.3508,"is_reserved":false,"is_disabled":false,"rental_uris":{"android":"levelo://app?vid=01d00589-011a-4eb5-b57f-487700c9ede8","ios":"levelo://app?vid=01d00589-011a-4eb5-b57f-487700c9ede8"},"vehicle_type_id":"4","last_reported":1690635991,"current_range_meters":26000,"station_id":"ce4bhbp2rcd13ifvqerg","pricing_plan_id":"free"},{"bike_id":"6edc7423-3395-4b1a-bb29-63db829b2b92","system_id":"levelo_inurba_marseille","lat":43.282744,"lon":5.350533,"is_reserved":false,"is_disabled":false,"rental_uris":{"android":"levelo://app?vid=6edc7423-3395-4b1a-bb29-63db829b2b92","ios":"levelo://app?vid=6edc7423-3395-4b1a-bb29-63db829b2b92"},"vehicle_type_id":"4","last_reported":1690635991,"current_range_meters":31200,"station_id":"ce4bhbp2rcd13ifvqerg","pricing_plan_id":"free"},{"bike_id":"16020aa8-29c7-4ce1-a383-1de54d661ae0","system_id":"levelo_inurba_marseille","lat":43.28276,"lon":5.35081,"is_reserved":false,"is_disabled":false,"rental_uris":{"android":"levelo://app?vid=16020aa8-29c7-4ce1-a383-1de54d661ae0","ios":"levelo://app?vid=16020aa8-29c7-4ce1-a383-1de54d661ae0"},"vehicle_type_id":"4","last_reported":1690635991,"current_range_meters":28000,"station_id":"ce4bhbp2rcd13ifvqerg","pricing_plan_id":"free"},{"bike_id":"680cdcce-b5d1-41cc-b967-ac83c12d209d","system_id":"levelo_inurba_marseille","lat":43.282744,"lon":5.350533,"is_reserved":false,"is_disabled":false,"rental_uris":{"android":"levelo://app?vid=680cdcce-b5d1-41cc-b967-ac83c12d209d","ios":"levelo://app?vid=680cdcce-b5d1-41cc-b967-ac83c12d209d"},"vehicle_type_id":"4","last_reported":1690635991,"current_range_meters":31200,"station_id":"ce4bhbp2rcd13ifvqerg","pricing_plan_id":"free"},{"bike_id":"670ffd30-0c61-409b-b0c8-7cd567abd113","system_id":"levelo_inurba_marseille","lat":43.28276,"lon":5.35075,"is_reserved":false,"is_disabled":false,"rental_uris":{"android":"levelo://app?vid=670ffd30-0c61-409b-b0c8-7cd567abd113","ios":"levelo://app?vid=670ffd30-0c61-409b-b0c8-7cd567abd113"},"vehicle_type_id":"4","last_reported":1690635991,"current_range_meters":21200,"station_id":"ce4bhbp2rcd13ifvqerg","pricing_plan_id":"free"},{"bike_id":"310116e4-c066-4845-b90e-d028b7280339","system_id":"levelo_inurba_marseille","lat":43.282744,"lon":5.350533,"is_reserved":false,"is_disabled":false,"rental_uris":{"android":"levelo://app?vid=310116e4-c066-4845-b90e-d028b7280339","ios":"levelo://app?vid=310116e4-c066-4845-b90e-d028b7280339"},"vehicle_type_id":"4","last_reported":1690635991,"current_range_meters":31200,"station_id":"ce4bhbp2rcd13ifvqerg","pricing_plan_id":"free"},{"bike_id":"3fd090b3-c668-4e9a-adbb-eaae8fb8834f","system_id":"levelo_inurba_marseille","lat":43.28278,"lon":5.35067,"is_reserved":false,"is_disabled":false,"rental_uris":{"android":"levelo://app?vid=3fd090b3-c668-4e9a-adbb-eaae8fb8834f","ios":"levelo://app?vid=3fd090b3-c668-4e9a-adbb-eaae8fb8834f"},"vehicle_type_id":"4","last_reported":1690635991,"current_range_meters":19200,"station_id":"ce4bhbp2rcd13ifvqerg","pricing_plan_id":"free"},{"bike_id":"ef034a8d-39be-465d-a39a-4d3713a1f8ed","system_id":"levelo_inurba_marseille","lat":43.28274,"lon":5.35079,"is_reserved":false,"is_disabled":false,"rental_uris":{"android":"levelo://app?vid=ef034a8d-39be-465d-a39a-4d3713a1f8ed","ios":"levelo://app?vid=ef034a8d-39be-465d-a39a-4d3713a1f8ed"},"vehicle_type_id":"4","last_reported":1690635991,"current_range_meters":22000,"station_id":"ce4bhbp2rcd13ifvqerg","pricing_plan_id":"free"},{"bike_id":"74d4b0cc-3a14-4543-9ab3-2e968b0513f8","system_id":"levelo_inurba_marseille","lat":43.28276,"lon":5.35066,"is_reserved":false,"is_disabled":false,"rental_uris":{"android":"levelo://app?vid=74d4b0cc-3a14-4543-9ab3-2e968b0513f8","ios":"levelo://app?vid=74d4b0cc-3a14-4543-9ab3-2e968b0513f8"},"vehicle_type_id":"4","last_reported":1690635991,"current_range_meters":27600,"station_id":"ce4bhbp2rcd13ifvqerg","pricing_plan_id":"free"},{"bike_id":"198960df-00b2-48f0-8e9c-9cc22c056c10","system_id":"levelo_inurba_marseille","lat":43.28273,"lon":5.35076,"is_reserved":false,"is_disabled":false,"rental_uris":{"android":"levelo://app?vid=198960df-00b2-48f0-8e9c-9cc22c056c10","ios":"levelo://app?vid=198960df-00b2-48f0-8e9c-9cc22c056c10"},"vehicle_type_id":"4","last_reported":1690635991,"current_range_meters":29200,"station_id":"ce4bhbp2rcd13ifvqerg","pricing_plan_id":"free"},{"bike_id":"6b90d11e-2e42-4e8f-bcc1-7923496ae84a","system_id":"levelo_inurba_marseille","lat":43.28272,"lon":5.35073,"is_reserved":false,"is_disabled":false,"rental_uris":{"android":"levelo://app?vid=6b90d11e-2e42-4e8f-bcc1-7923496ae84a","ios":"levelo://app?vid=6b90d11e-2e42-4e8f-bcc1-7923496ae84a"},"vehicle_type_id":"4","last_reported":1690635991,"current_range_meters":31200,"station_id":"ce4bhbp2rcd13ifvqerg","pricing_plan_id":"free"},{"bike_id":"ec9eace1-ea2d-471e-91f2-38c932c06154","system_id":"levelo_inurba_marseille","lat":43.2827,"lon":5.35075,"is_reserved":false,"is_disabled":false,"rental_uris":{"android":"levelo://app?vid=ec9eace1-ea2d-471e-91f2-38c932c06154","ios":"levelo://app?vid=ec9eace1-ea2d-471e-91f2-38c932c06154"},"vehicle_type_id":"4","last_reported":1690635991,"current_range_meters":24400,"station_id":"ce4bhbp2rcd13ifvqerg","pricing_plan_id":"free"},{"bike_id":"27426f30-9686-434d-9689-d2ab32e03069","system_id":"levelo_inurba_marseille","lat":43.28271,"lon":5.35071,"is_reserved":false,"is_disabled":false,"rental_uris":{"android":"levelo://app?vid=27426f30-9686-434d-9689-d2ab32e03069","ios":"levelo://app?vid=27426f30-9686-434d-9689-d2ab32e03069"},"vehicle_type_id":"4","last_reported":1690635991,"current_range_meters":4800,"station_id":"ce4bhbp2rcd13ifvqerg","pricing_plan_id":"free"},