{"last_updated":1748693928,"ttl":60,"version":"2.2","data":{"bikes":[{"bike_id":"fa245555-8253-4b2f-858d-36dbc2c2fe9d","system_id":"levelo_inurba_marseille","lat":43.28465,"lon":5.38551,"is_reserved":false,"is_disabled":false,"rental_uris":{"android":"levelo://app?vid=fa245555-8253-4b2f-858d-36dbc2c2fe9d","ios":"levelo://app?vid=fa245555-8253-4b2f-858d-36dbc2c2fe9d"},"vehicle_type_id":"4","last_reported":1748693928,"current_range_meters":2800,"station_id":"ce4bh8p2rcd13ifvqeb0","pricing_plan_id":"cebpf4jnsgd1na2vs0mg"},{"bike_id":"ec54eac7-8378-43ad-addc-a6f86a9466c5","system_id":"levelo_inurba_marseille","lat":43.27956,"lon":5.41048,"is_reserved":false,"is_disabled":false,"rental_uris":{"android":"levelo://app?vid=ec54eac7-8378-43ad-addc-a6f86a9466c5","ios":"levelo://app?vid=ec54eac7-8378-43ad-addc-a6f86a9466c5"},"vehicle_type_id":"4","last_reported":1748693928,"current_range_meters":2800,"station_id":"ce4bhnp2rcd13ifvqh0g","pricing_plan_id":"cebpf4jnsgd1na2vs0mg"},{"bike_id":"55080048-1445-433c-8653-9f436d843131","system_id":"levelo_inurba_marseille","lat":43.28505,"lon":5.369,"is_reserved":false,"is_disabled":false,"rental_uris":{"android":"levelo://app?vid=55080048-1445-433c-8653-9f436d843131","ios":"levelo://app?vid=55080048-1445-433c-8653-9f436d843131"},"vehicle_type_id":"4","last_reported":1748693928,"current_range_meters":3200,"station_id":"","pricing_plan_id":"cebpf4jnsgd1na2vs0mg"},{"bike_id":"6613d23d-3b7a-4a5e-8ce4-f1004e2dab5d","system_id":"levelo_inurba_marseille","lat":43.28476,"lon":5.3843,"is_reserved":false,"is_disabled":false,"rental_uris":{"android":"levelo://app?vid=6613d23d-3b7a-4a5e-8ce4-f1004e2dab5d","ios":"levelo://app?vid=6613d23d-3b7a-4a5e-8ce4-f1004e2dab5d"},"vehicle_type_id":"4","last_reported":1748693928,"current_range_meters":3200,"station_id":"ce4bh512rcd13ifvqe3g","pricing_plan_id":"cebpf4jnsgd1na2vs0mg"},{"bike_id":"36240f0a-66a2-43ec-8330-1f3a9d08cc7e","system_id":"levelo_inurba_marseille","lat":43.23902,"lon":5.36268,"is_reserved":false,"is_disabled":false,"rental_uris":{"android":"levelo://app?vid=36240f0a-66a2-43ec-8330-1f3a9d08cc7e","ios":"levelo://app?vid=36240f0a-66a2-43ec-8330-1f3a9d08cc7e"},"vehicle_type_id":"4","last_reported":1748693928,"current_range_meters":3200,"station_id":"","pricing_plan_id":"cebpf4jnsgd1na2vs0mg"},{"bike_id":"fef69f0d-f565-4580-bc9d-be8d6d84f763","system_id":"levelo_inurba_marseille","lat":43.30949,"lon":5.39039,"is_reserved":false,"is_disabled":false,"rental_uris":{"android":"levelo://app?vid=fef69f0d-f565-4580-bc9d-be8d6d84f763","ios":"levelo://app?vid=fef69f0d-f565-4580-bc9d-be8d6d84f763"},"vehicle_type_id":"4","last_reported":1748693928,"current_range_meters":3200,"station_id":"ce4bgup2rcd13ifvqco0","pricing_plan_id":"cebpf4jnsgd1na2vs0mg"},{"bike_id":"c40b5fb1-fb87-4a87-bbd6-c1f33aaedd7f","system_id":"levelo_inurba_marseille","lat":43.30386,"lon":5.42438,"is_reserved":false,"is_disabled":false,"rental_uris":{"android":"levelo://app?vid=c40b5fb1-fb87-4a87-bbd6-c1f33aaedd7f","ios":"levelo://app?vid=c40b5fb1-fb87-4a87-bbd6-c1f33aaedd7f"},"vehicle_type_id":"4","last_reported":1748693928,"current_range_meters":3200,"station_id":"ce4bghh2rcd13ifvqb60","pricing_plan_id":"cebpf4jnsgd1na2vs0mg"},{"bike_id":"4134fe01-5d14-4615-9d7b-0a524ae01da0","system_id":"levelo_inurba_marseille","lat":43.2315,"lon":5.437191,"is_reserved":false,"is_disabled":false,"rental_uris":{"android":"levelo://app?vid=4134fe01-5d14-4615-9d7b-0a524ae01da0","ios":"levelo://app?vid=4134fe01-5d14-4615-9d7b-0a524ae01da0"},"vehicle_type_id":"4","last_reported":1748693928,"current_range_meters":3600,"station_id":"ce4bhmp2rcd13ifvqgog","pricing_plan_id":"cebpf4jnsgd1na2vs0mg"},{"bike_id":"89ffc610-8c1d-49ab-a16f-8e7b4f049e54","system_id":"levelo_inurba_marseille","lat":43.231851,"lon":5.399899,"is_reserved":false,"is_disabled":false,"rental_uris":{"android":"levelo://app?vid=89ffc610-8c1d-49ab-a16f-8e7b4f049e54","ios":"levelo://app?vid=89ffc610-8c1d-49ab-a16f-8e7b4f049e54"},"vehicle_type_id":"4","last_reported":1748693928,"current_range_meters":4000,"station_id":"ce4bhn12rcd13ifvqgqg","pricing_plan_id":"cebpf4jnsgd1na2vs0mg"},{"bike_id":"a426f99b-d34a-41bf-bbda-59f7dfd6939b","system_id":"levelo_inurba_marseille","lat":43.255796,"lon":5.382262,"is_reserved":false,"is_disabled":true,"rental_uris":{"android":"levelo://app?vid=a426f99b-d34a-41bf-bbda-59f7dfd6939b","ios":"levelo://app?vid=a426f99b-d34a-41bf-bbda-59f7dfd6939b"},"vehicle_type_id":"4","last_reported":1748693928,"current_range_meters":4400,"station_id":"ce501612rcd8frsf0b60","pricing_plan_id":"cebpf4jnsgd1na2vs0mg"},{"bike_id":"33966d38-32b7-44eb-805b-34fb4ebd9b04","system_id":"levelo_inurba_marseille","lat":43.28952,"lon":5.36395,"is_reserved":false,"is_disabled":false,"rental_uris":{"android":"levelo://app?vid=33966d38-32b7-44eb-805b-34fb4ebd9b04","ios":"levelo://app?vid=33966d38-32b7-44eb-805b-34fb4ebd9b04"},"vehicle_type_id":"4","last_reported":1748693928,"current_range_meters":4000,"station_id":"ce4bhc92rcd13ifvqetg","pricing_plan_id":"cebpf4jnsgd1na2vs0mg"},{"bike_id":"e159ca33-3427-4931-bf44-d4575f8d5354","system_id":"levelo_inurba_marseille","lat":43.292284,"lon":5.36059,"is_reserved":false,"is_disabled":false,"rental_uris":{"android":"levelo://app?vid=e159ca33-3427-4931-bf44-d4575f8d5354","ios":"levelo://app?vid=e159ca33-3427-4931-bf44-d4575f8d5354"},"vehicle_type_id":"4","last_reported":1748693928,"current_range_meters":4400,"station_id":"","pricing_plan_id":"cebpf4jnsgd1na2vs0mg"},{"bike_id":"61b86620-def2-4760-9d0a-205ac26592db","system_id":"levelo_inurba_marseille","lat":43.282654,"lon":5.350605,"is_reserved":false,"is_disabled":false,"rental_uris":{"android":"levelo://app?vid=61b86620-def2-4760-9d0a-205ac26592db","ios":"levelo://app?vid=61b86620-def2-4760-9d0a-205ac26592db"},"vehicle_type_id":"4","last_reported":1748693928,"current_range_meters":4400,"station_id":"ce4bhbp2rcd13ifvqerg","pricing_plan_id":"cebpf4jnsgd1na2vs0mg"},{"bike_id":"7d434e27-643b-44eb-8fbf-1f24c5425c8a","system_id":"levelo_inurba_marseille","lat":43.27373,"lon":5.36254,"is_reserved":false,"is_disabled":false,"rental_uris":{"android":"levelo://app?vid=7d434e27-643b-44eb-8fbf-1f24c5425c8a","ios":"levelo://app?vid=7d434e27-643b-44eb-8fbf-1f24c5425c8a"},"vehicle_type_id":"4","last_reported":1748693928,"current_range_meters":4400,"station_id":"ce4bhf92rcd13ifvqf50","pricing_plan_id":"cebpf4jnsgd1na2vs0mg"},{"bike_id":"b0ef799d-9ad8-4b33-97af-7fa7d8a21875","system_id":"levelo_inurba_marseille","lat":43.23965,"lon":5.36661,"is_reserved":false,"is_disabled":false,"rental_uris":{"android":"levelo://app?vid=b0ef799d-9ad8-4b33-97af-7fa7d8a21875","ios":"levelo://app?vid=b0ef799d-9ad8-4b33-97af-7fa7d8a21875"},"vehicle_type_id":"4","last_reported":1748693928,"current_range_meters":4400,"station_id":"ce4bhi12rcd13ifvqfp0","pricing_plan_id":"cebpf4jnsgd1na2vs0mg"},{"bike_id":"da5921cd-e75b-4ce7-b109-06c28f720590","system_id":"levelo_inurba_marseille","lat":43.28739,"lon":5.36161,"is_reserved":false,"is_disabled":false,"rental_uris":{"android":"levelo://app?vid=da5921cd-e75b-4ce7-b109-06c28f720590","ios":"levelo://app?vid=da5921cd-e75b-4ce7-b109-06c28f720590"},"vehicle_type_id":"4","last_reported":1748693928,"current_range_meters":4800,"station_id":"","pricing_plan_id":"cebpf4jnsgd1na2vs0mg"},{"bike_id":"c3519e8b-a452-4736-950f-3c638ff9ba83","system_id":"levelo_inurba_marseille","lat":43.25499,"lon":5.37647,"is_reserved":false,"is_disabled":false,"rental_uris":{"android":"levelo://app?vid=c3519e8b-a452-4736-950f-3c638ff9ba83","ios":"levelo://app?vid=c3519e8b-a452-4736-950f-3c638ff9ba83"},"vehicle_type_id":"4","last_reported":1748693928,"current_range_meters":5600,"station_id":"ce4bhh12rcd13ifvqff0","pricing_plan_id":"cebpf4jnsgd1na2vs0mg"},{"bike_id":"5ac3febd-6c2a-411e-9a8f-db290e2abd46","system_id":"levelo_inurba_marseille","lat":43.24171,"lon":5.36391,"is_reserved":false,"is_disabled":false,"rental_uris":{"android":"levelo://app?vid=5ac3febd-6c2a-411e-9a8f-db290e2abd46","ios":"levelo://app?vid=5ac3febd-6c2a-411e-9a8f-db290e2abd46"},"vehicle_type_id":"4","last_reported":1748693928,"current_range_meters":5600,"station_id":"cpo36qri1sfpv3e86is0","pricing_plan_id":"cebpf4jnsgd1na2vs0mg"},{"bike_id":"0514caed-caa8-4442-8d6d-69f2f89d7ed9","system_id":"levelo_inurba_marseille","lat":43.27057,"lon":5.40274,"is_reserved":false,"is_disabled":false,"rental_uris":{"android":"levelo://app?vid=0514caed-caa8-4442-8d6d-69f2f89d7ed9","ios":"levelo://app?vid=0514caed-caa8-4442-8d6d-69f2f89d7ed9"},"vehicle_type_id":"4","last_reported":1748693928,"current_range_meters":6000,"station_id":"ce4bhk92rcd13ifvqgc0","pricing_plan_id":"cebpf4jnsgd1na2vs0mg"},{"bike_id":"854b0cf0-4938-481f-a5fa-56b46a144ce7","system_id":"levelo_inurba_marseille","lat":43.26565,"lon":5.40326,"is_reserved":false,"is_disabled":false,"rental_uris":{"android":"levelo://app?vid=854b0cf0-4938-481f-a5fa-56b46a144ce7","ios":"levelo://app?vid=854b0cf0-4938-481f-a5fa-56b46a144ce7"},"vehicle_type_id":"4","last_reported":1748693928,"current_range_meters":6000,"station_id":"","pricing_plan_id":"cebpf4jnsgd1na2vs0mg"},{"bike_id":"029444e3-a148-4469-b824-2d6ab43d58a5","system_id":"levelo_inurba_marseille","lat":43.28721,"lon":5.36091,"is_reserved":false,"is_disabled":false,"rental_uris":{"android":"levelo://app?vid=029444e3-a148-4469-b824-2d6ab43d58a5","ios":"levelo://app?vid=029444e3-a148-4469-b824-2d6ab43d58a5"},"vehicle_type_id":"4","last_reported":1748693928,"current_range_meters":6400,"station_id":"cki0cbj6b192h4jlfktg","pricing_plan_id":"cebpf4jnsgd1na2vs0mg"},{"bike_id":"a5874b5d-5a83-423a-a7a8-7ad8503190a8","system_id":"levelo_inurba_marseille","lat":43.24173,"lon":5.36398,"is_reserved":false,"is_disabled":false,"rental_uris":{"android":"levelo://app?vid=a5874b5d-5a83-423a-a7a8-7ad8503190a8","ios":"levelo://app?vid=a5874b5d-5a83-423a-a7a8-7ad8503190a8"},"vehicle_type_id":"4","last_reported":1748693928,"current_range_meters":6400,"station_id":"cpo36qri1sfpv3e86is0","pricing_plan_id":"cebpf4jnsgd1na2vs0mg"},{"bike_id":"d4ccaaca-dc6a-444f-ba61-837635c184c5","system_id":"levelo_inurba_marseille","lat":43.31365,"lon":5.38486,"is_reserved":false,"is_disabled":false,"rental_uris":{"android":"levelo://app?vid=d4ccaaca-dc6a-444f-ba61-837635c184c5","ios":"levelo://app?vid=d4ccaaca-dc6a-444f-ba61-837635c184c5"},"vehicle_type_id":"4","last_reported":1748693928,"current_range_meters":6000,"station_id":"ce4bgt92rcd13ifvqcf0","pricing_plan_id":"cebpf4jnsgd1na2vs0mg"},{"bike_id":"f80006c7-2f10-4ba5-bb7c-2b0507fde45f","system_id":"levelo_inurba_marseille","lat":43.21751,"lon":5.346054,"is_reserved":false,"is_disabled":true,"rental_uris":{"android":"levelo://app?vid=f80006c7-2f10-4ba5-bb7c-2b0507fde45f","ios":"levelo://app?vid=f80006c7-2f10-4ba5-bb7c-2b0507fde45f"},"vehicle_type_id":"4","last_reported":1748693928,"current_range_meters":6400,"station_id":"","pricing_plan_id":"cebpf4jnsgd1na2vs0mg"},{"bike_id":"b2f5d966-48e5-4b6b-baf0-ba967ca36601","system_id":"levelo_inurba_marseille","lat":43.2903,"lon":5.35912,"is_reserved":false,"is_disabled":false,"rental_uris":{"android":"levelo://app?vid=b2f5d966-48e5-4b6b-baf0-ba967ca36601","ios":"levelo://app?vid=b2f5d966-48e5-4b6b-baf0-ba967ca36601"},"vehicle_type_id":"4","last_reported":1748693928,"current_range_meters":6400,"station_id":"ce4bha92rcd13ifvqeg0","pricing_plan_id":"cebpf4jnsgd1na2vs0mg"},{"bike_id":"586d7e68-1782-4f9f-9be5-9a1640e83e42","system_id":"levelo_inurba_marseille","lat":43.23193,"lon":5.35564,"is_reserved":false,"is_disabled":false,"rental_uris":{"android":"levelo://app?vid=586d7e68-1782-4f9f-9be5-9a1640e83e42","ios":"levelo://app?vid=586d7e68-1782-4f9f-9be5-9a1640e83e42"},"vehicle_type_id":"4","last_reported":1748693928,"current_range_meters":6400,"station_id":"ce4bhu92rcd13ifvqi70","pricing_plan_id":"cebpf4jnsgd1na2vs0mg"},{"bike_id":"990df701-79a7-41ec-b963-3693dc590a87","system_id":"levelo_inurba_marseille","lat":43.30148,"lon":5.37899,"is_reserved":false,"is_disabled":false,"rental_uris":{"android":"levelo://app?vid=990df701-79a7-41ec-b963-3693dc590a87","ios":"levelo://app?vid=990df701-79a7-41ec-b963-3693dc590a87"},"vehicle_type_id":"4","last_reported":1748693928,"current_range_meters":6400,"station_id":"","pricing_plan_id":"cebpf4jnsgd1na2vs0mg"},{"bike_id":"524711b4-be8c-4e38-abb0-59ce12681057","system_id":"levelo_inurba_marseille","lat":43.23063,"lon":5.35497,"is_reserved":false,"is_disabled":false,"rental_uris":{"android":"levelo://app?vid=524711b4-be8c-4e38-abb0-59ce12681057","ios":"levelo://app?vid=524711b4-be8c-4e38-abb0-59ce12681057"},"vehicle_type_id":"4","last_reported":1748693928,"current_range_meters":6800,"station_id":"cpo3342slgdg3j2ifvpg","pricing_plan_id":"cebpf4jnsgd1na2vs0mg"},{"bike_id":"fac23f57-db84-4312-ac16-f8773dc74893","system_id":"levelo_inurba_marseille","lat":43.2917,"lon":5.37175,"is_reserved":false,"is_disabled":false,"rental_uris":{"android":"levelo://app?vid=fac23f57-db84-4312-ac16-f8773dc74893","ios":"levelo://app?vid=fac23f57-db84-4312-ac16-f8773dc74893"},"vehicle_type_id":"4","last_reported":1748693928,"current_range_meters":6800,"station_id":"ce4bha92rcd13ifvqeh0","pricing_plan_id":"cebpf4jnsgd1na2vs0mg"},{"bike_id":"049ea5a7-6654-4411-9d56-f36e5149439d","system_id":"levelo_inurba_marseille","lat":43.21192,"lon":5.35069,"is_reserved":false,"is_disabled":false,"rental_uris":{"android":"levelo://app?vid=049ea5a7-6654-4411-9d56-f36e5149439d","ios":"levelo://app?vid=049ea5a7-6654-4411-9d56-f36e5149439d"},"vehicle_type_id":"4","last_reported":1748693928,"current_range_meters":7200,"station_id":"st_cvj6sg6p6f1abm77japg","pricing_plan_id":"cebpf4jnsgd1na2vs0mg"},{"bike_id":"c76843b8-deb0-451c-805f-55425dd80bf0","system_id":"levelo_inurba_marseille","lat":43.30489,"lon":5.37884,"is_reserved":false,"is_disabled":false,"rental_uris":{"android":"levelo://app?vid=c76843b8-deb0-451c-805f-55425dd80bf0","ios":"levelo://app?vid=c76843b8-deb0-451c-805f-55425dd80bf0"},"vehicle_type_id":"4","last_reported":1748693928,"current_range_meters":7200,"station_id":"ce4bgup2rcd13ifvqcn0","pricing_plan_id":"cebpf4jnsgd1na2vs0mg"},{"bike_id":"43d4e202-de2b-462c-8655-ce55b382fb4e","system_id":"levelo_inurba_marseille","lat":43.23152,"lon":5.43717,"is_reserved":false,"is_disabled":false,"rental_uris":{"android":"levelo://app?vid=43d4e202-de2b-462c-8655-ce55b382fb4e","ios":"levelo://app?vid=43d4e202-de2b-462c-8655-ce55b382fb4e"},"vehicle_type_id":"4","last_reported":1748693928,"current_range_meters":7200,"station_id":"ce4bhmp2rcd13ifvqgog","pricing_plan_id":"cebpf4jnsgd1na2vs0mg"},{"bike_id":"2e66bad8-f96e-4766-90b8-eaeb78b38183","system_id":"levelo_inurba_marseille","lat":43.279589,"lon":5.417778,"is_reserved":false,"is_disabled":false,"rental_uris":{"android":"levelo://app?vid=2e66bad8-f96e-4766-90b8-eaeb78b38183","ios":"levelo://app?vid=2e66bad8-f96e-4766-90b8-eaeb78b38183"},"vehicle_type_id":"4","last_reported":1748693928,"current_range_meters":6800,"station_id":"ce4bho12rcd13ifvqh1g","pricing_plan_id":"cebpf4jnsgd1na2vs0mg"},{"bike_id":"a882f5db-172f-4f11-bf66-7e2c36364bb7","system_id":"levelo_inurba_marseille","lat":43.29546,"lon":5.42287,"is_reserved":false,"is_disabled":false,"rental_uris":{"android":"levelo://app?vid=a882f5db-172f-4f11-bf66-7e2c36364bb7","ios":"levelo://app?vid=a882f5db-172f-4f11-bf66-7e2c36364bb7"},"vehicle_type_id":"4","last_reported":1748693928,"current_range_meters":7200,"station_id":"ce4bhph2rcd13ifvqhdg","pricing_plan_id":"cebpf4jnsgd1na2vs0mg"},{"bike_id":"3ee33e80-2710-44e1-9aef-cd4b7516873c","system_id":"levelo_inurba_marseille","lat":43.29624,"lon":5.37162,"is_reserved":false,"is_disabled":false,"rental_uris":{"android":"levelo://app?vid=3ee33e80-2710-44e1-9aef-cd4b7516873c","ios":"levelo://app?vid=3ee33e80-2710-44e1-9aef-cd4b7516873c"},"vehicle_type_id":"4","last_reported":1748693928,"current_range_meters":7200,"station_id":"ce4bgnh2rcd13ifvqc0g","pricing_plan_id":"cebpf4jnsgd1na2vs0mg"},{"bike_id":"1a51f086-c3bd-4277-9514-227351889d87","system_id":"levelo_inurba_marseille","lat":43.29273,"lon":5.38453,"is_reserved":false,"is_disabled":false,"rental_uris":{"android":"levelo://app?vid=1a51f086-c3bd-4277-9514-227351889d87","ios":"levelo://app?vid=1a51f086-c3bd-4277-9514-227351889d87"},"vehicle_type_id":"4","last_reported":1748693928,"current_range_meters":7200,"station_id":"ce4bh692rcd13ifvqea0","pricing_plan_id":"cebpf4jnsgd1na2vs0mg"},{"bike_id":"30ac869e-11dc-4c65-b126-b599689d4032","system_id":"levelo_inurba_marseille","lat":43.26561,"lon":5.37296,"is_reserved":false,"is_disabled":false,"rental_uris":{"android":"levelo://app?vid=30ac869e-11dc-4c65-b126-b599689d4032","ios":"levelo://app?vid=30ac869e-11dc-4c65-b126-b599689d4032"},"vehicle_type_id":"4","last_reported":1748693928,"current_range_meters":7200,"station_id":"ce4bhg12rcd13ifvqf70","pricing_plan_id":"cebpf4jnsgd1na2vs0mg"},{"bike_id":"f21ad383-3597-404c-b37c-7197a6a9594b","system_id":"levelo_inurba_marseille","lat":43.32343,"lon":5.40635,"is_reserved":false,"is_disabled":false,"rental_uris":{"android":"levelo://app?vid=f21ad383-3597-404c-b37c-7197a6a9594b","ios":"levelo://app?vid=f21ad383-3597-404c-b37c-7197a6a9594b"},"vehicle_type_id":"4","last_reported":1748693928,"current_range_meters":7200,"station_id":"ce4bhq92rcd13ifvqhjg","pricing_plan_id":"cebpf4jnsgd1na2vs0mg"},{"bike_id":"f5f64fe6-e75b-4412-8ae5-4c6ffa965e31","system_id":"levelo_inurba_marseille","lat":43.27904,"lon":5.38014,"is_reserved":false,"is_disabled":false,"rental_uris":{"android":"levelo://app?vid=f5f64fe6-e75b-4412-8ae5-4c6ffa965e31","ios":"levelo://app?vid=f5f64fe6-e75b-4412-8ae5-4c6ffa965e31"},"vehicle_type_id":"4","last_reported":1748693928,"current_range_meters":7200,"station_id":"ce4bhf92rcd13ifvqf50","pricing_plan_id":"cebpf4jnsgd1na2vs0mg"},{"bike_id":"7243d7c8-02f5-4392-89cf-8c360e846d55","system_id":"levelo_inurba_marseille","lat":43.252788,"lon":5.378193,"is_reserved":false,"is_disabled":false,"rental_uris":{"android":"levelo://app?vid=7243d7c8-02f5-4392-89cf-8c360e846d55","ios":"levelo://app?vid=7243d7c8-02f5-4392-89cf-8c360e846d55"},"vehicle_type_id":"4","last_reported":1748693928,"current_range_meters":8000,"station_id":"","pricing_plan_id":"cebpf4jnsgd1na2vs0mg"},{"bike_id":"cc4b4c5f-a828-4ce1-8237-7fe9a6c28537","system_id":"levelo_inurba_marseille","lat":43.29298,"lon":5.37177,"is_reserved":false,"is_disabled":false,"rental_uris":{"android":"levelo://app?vid=cc4b4c5f-a828-4ce1-8237-7fe9a6c28537","ios":"levelo://app?vid=cc4b4c5f-a828-4ce1-8237-7fe9a6c28537"},"vehicle_type_id":"4","last_reported":1748693928,"current_range_meters":8000,"station_id":"ce4bgh92rcd13ifvqb40","pricing_plan_id":"cebpf4jnsgd1na2vs0mg"},{"bike_id":"a326951f-0eaf-4b67-9913-457e6cd35573","system_id":"levelo_inurba_marseille","lat":43.2321,"lon":5.35554,"is_reserved":false,"is_disabled":false,"rental_uris":{"android":"levelo://app?vid=a326951f-0eaf-4b67-9913-457e6cd35573","ios":"levelo://app?vid=a326951f-0eaf-4b67-9913-457e6cd35573"},"vehicle_type_id":"4","last_reported":1748693928,"current_range_meters":8000,"station_id":"ce4bhu92rcd13ifvqi70","pricing_plan_id":"cebpf4jnsgd1na2vs0mg"},{"bike_id":"3feffd94-b1f8-4904-a4cf-e5629abe4092","system_id":"levelo_inurba_marseille","lat":43.25933,"lon":5.40911,"is_reserved":false,"is_disabled":false,"rental_uris":{"android":"levelo://app?vid=3feffd94-b1f8-4904-a4cf-e5629abe4092","ios":"levelo://app?vid=3feffd94-b1f8-4904-a4cf-e5629abe4092"},"vehicle_type_id":"4","last_reported":1748693928,"current_range_meters":8000,"station_id":"ce4bhm92rcd13ifvqglg","pricing_plan_id":"cebpf4jnsgd1na2vs0mg"},{"bike_id":"ad5e2127-adbe-4393-9b1e-f7e3379325f8","system_id":"levelo_inurba_marseille","lat":43.23193,"lon":5.3555,"is_reserved":false,"is_disabled":false,"rental_uris":{"android":"levelo://app?vid=ad5e2127-adbe-4393-9b1e-f7e3379325f8","ios":"levelo://app?vid=ad5e2127-adbe-4393-9b1e-f7e3379325f8"},"vehicle_type_id":"4","last_reported":1748693928,"current_range_meters":8400,"station_id":"ce4bhu92rcd13ifvqi70","pricing_plan_id":"cebpf4jnsgd1na2vs0mg"},{"bike_id":"21f4ae41-acd5-46f4-9151-646052d7f996","system_id":"levelo_inurba_marseille","lat":43.299048,"lon":5.374725,"is_reserved":false,"is_disabled":false,"rental_uris":{"android":"levelo://app?vid=21f4ae41-acd5-46f4-9151-646052d7f996","ios":"levelo://app?vid=21f4ae41-acd5-46f4-9151-646052d7f996"},"vehicle_type_id":"4","last_reported":1748693928,"current_range_meters":8400,"station_id":"ce4bgjh2rcd13ifvqbg0","pricing_plan_id":"cebpf4jnsgd1na2vs0mg"},{"bike_id":"d2ed9b56-db93-4331-8247-ba643fb3779d","system_id":"levelo_inurba_marseille","lat":43.26215,"lon":5.37441,"is_reserved":false,"is_disabled":false,"rental_uris":{"android":"levelo://app?vid=d2ed9b56-db93-4331-8247-ba643fb3779d","ios":"levelo://app?vid=d2ed9b56-db93-4331-8247-ba643fb3779d"},"vehicle_type_id":"4","last_reported":1748693928,"current_range_meters":8400,"station_id":"ce4bhgp2rcd13ifvqfc0","pricing_plan_id":"cebpf4jnsgd1na2vs0mg"},{"bike_id":"fc08cf5f-1d94-442a-a897-a37c56018fdb","system_id":"levelo_inurba_marseille","lat":43.2696,"lon":5.38631,"is_reserved":false,"is_disabled":false,"rental_uris":{"android":"levelo://app?vid=fc08cf5f-1d94-442a-a897-a37c56018fdb","ios":"levelo://app?vid=fc08cf5f-1d94-442a-a897-a37c56018fdb"},"vehicle_type_id":"4","last_reported":1748693928,"current_range_meters":8400,"station_id":"ce4bhh92rcd13ifvqfh0","pricing_plan_id":"cebpf4jnsgd1na2vs0mg"},{"bike_id":"429a4cec-59d7-4bac-90bb-fd0512f1899a","system_id":"levelo_inurba_marseille","lat":43.29606,"lon":5.36734,"is_reserved":false,"is_disabled":false,"rental_uris":{"android":"levelo://app?vid=429a4cec-59d7-4bac-90bb-fd0512f1899a","ios":"levelo://app?vid=429a4cec-59d7-4bac-90bb-fd0512f1899a"},"vehicle_type_id":"4","last_reported":1748693928,"current_range_meters":8400,"station_id":"ce4bgph2rcd13ifvqc2g","pricing_plan_id":"cebpf4jnsgd1na2vs0mg"},{"bike_id":"4bc355ff-d887-43df-ab2b-96fc08371a7e","system_id":"levelo_inurba_marseille","lat":43.29073,"lon":5.3717,"is_reserved":false,"is_disabled":false,"rental_uris":{"android":"levelo://app?vid=4bc355ff-d887-43df-ab2b-96fc08371a7e","ios":"levelo://app?vid=4bc355ff-d887-43df-ab2b-96fc08371a7e"},"vehicle_type_id":"4","last_reported":1748693928,"current_range_meters":8000,"station_id":"ce4bh5p2rcd13ifvqe4g","pricing_plan_id":"cebpf4jnsgd1na2vs0mg"},{"bike_id":"d02ba7d2-914d-425a-8b2a-f1259e1c2fbf","system_id":"levelo_inurba_marseille","lat":43.26227,"lon":5.404445,"is_reserved":false,"is_disabled":false,"rental_uris":{"android":"levelo://app?vid=d02ba7d2-914d-425a-8b2a-f1259e1c2fbf","ios":"levelo://app?vid=d02ba7d2-914d-425a-8b2a-f1259e1c2fbf"},"vehicle_type_id":"4","last_reported":1748693928,"current_range_meters":8400,"station_id":"ce4bhmh2rcd13ifvqgmg","pricing_plan_id":"cebpf4jnsgd1na2vs0mg"},{"bike_id":"471fccc4-e0a0-45c9-96ca-25361ad546a7","system_id":"levelo_inurba_marseille","lat":43.2176,"lon":5.34599,"is_reserved":false,"is_disabled":false,"rental_uris":{"android":"levelo://app?vid=471fccc4-e0a0-45c9-96ca-25361ad546a7","ios":"levelo://app?vid=471fccc4-e0a0-45c9-96ca-25361ad546a7"},"vehicle_type_id":"4","last_reported":1748693928,"current_range_meters":8800,"station_id":"st_cvj6r9ubvosntc0bgbag","pricing_plan_id":"cebpf4jnsgd1na2vs0mg"},{"bike_id":"662af0d9-b4f1-4513-bbd2-fd65be6229e5","system_id":"levelo_inurba_marseille","lat":43.25918,"lon":5.40877,"is_reserved":false,"is_disabled":false,"rental_uris":{"android":"levelo://app?vid=662af0d9-b4f1-4513-bbd2-fd65be6229e5","ios":"levelo://app?vid=662af0d9-b4f1-4513-bbd2-fd65be6229e5"},"vehicle_type_id":"4","last_reported":1748693928,"current_range_meters":8800,"station_id":"ce4bhm92rcd13ifvqglg","pricing_plan_id":"cebpf4jnsgd1na2vs0mg"},{"bike_id":"1b2b35bc-2440-4597-8162-15dc6318b298","system_id":"levelo_inurba_marseille","lat":43.29534,"lon":5.37498,"is_reserved":false,"is_disabled":false,"rental_uris":{"android":"levelo://app?vid=1b2b35bc-2440-4597-8162-15dc6318b298","ios":"levelo://app?vid=1b2b35bc-2440-4597-8162-15dc6318b298"},"vehicle_type_id":"4","last_reported":1748693928,"current_range_meters":8800,"station_id":"ce4bgkp2rcd13ifvqbmg","pricing_plan_id":"cebpf4jnsgd1na2vs0mg"},{"bike_id":"ef4b8ede-1877-41db-b371-aa67fb983004","system_id":"levelo_inurba_marseille","lat":43.28099,"lon":5.37834,"is_reserved":false,"is_disabled":false,"rental_uris":{"android":"levelo://app?vid=ef4b8ede-1877-41db-b371-aa67fb983004","ios":"levelo://app?vid=ef4b8ede-1877-41db-b371-aa67fb983004"},"vehicle_type_id":"4","last_reported":1748693928,"current_range_meters":8800,"station_id":"ce4bha12rcd13ifvqee0","pricing_plan_id":"cebpf4jnsgd1na2vs0mg"},{"bike_id":"008a8b5c-da32-426f-bdcf-6db4c9f404d8","system_id":"levelo_inurba_marseille","lat":43.229328,"lon":5.353788,"is_reserved":false,"is_disabled":false,"rental_uris":{"android":"levelo://app?vid=008a8b5c-da32-426f-bdcf-6db4c9f404d8","ios":"levelo://app?vid=008a8b5c-da32-426f-bdcf-6db4c9f404d8"},"vehicle_type_id":"4","last_reported":1748693928,"current_range_meters":8800,"station_id":"cpo3532slgdg3j2ikp40","pricing_plan_id":"cebpf4jnsgd1na2vs0mg"},{"bike_id":"54f525fd-3cd5-445a-908b-54b3be0d90f3","system_id":"levelo_inurba_marseille","lat":43.28264,"lon":5.35058,"is_reserved":false,"is_disabled":false,"rental_uris":{"android":"levelo://app?vid=54f525fd-3cd5-445a-908b-54b3be0d90f3","ios":"levelo://app?vid=54f525fd-3cd5-445a-908b-54b3be0d90f3"},"vehicle_type_id":"4","last_reported":1748693928,"current_range_meters":9200,"station_id":"ce4bhbp2rcd13ifvqerg","pricing_plan_id":"cebpf4jnsgd1na2vs0mg"},{"bike_id":"d16f5222-3d1e-4d65-a992-1bc93f719178","system_id":"levelo_inurba_marseille","lat":43.30381,"lon":5.36574,"is_reserved":false,"is_disabled":false,"rental_uris":{"android":"levelo://app?vid=d16f5222-3d1e-4d65-a992-1bc93f719178","ios":"levelo://app?vid=d16f5222-3d1e-4d65-a992-1bc93f719178"},"vehicle_type_id":"4","last_reported":1748693928,"current_range_meters":9200,"station_id":"","pricing_plan_id":"cebpf4jnsgd1na2vs0mg"},{"bike_id":"828b48a0-f893-4b2a-a05b-7adf043b0123","system_id":"levelo_inurba_marseille","lat":43.26034,"lon":5.37546,"is_reserved":false,"is_disabled":false,"rental_uris":{"android":"levelo://app?vid=828b48a0-f893-4b2a-a05b-7adf043b0123","ios":"levelo://app?vid=828b48a0-f893-4b2a-a05b-7adf043b0123"},"vehicle_type_id":"4","last_reported":1748693928,"current_range_meters":9200,"station_id":"ce4bhgh2rcd13ifvqfa0","pricing_plan_id":"cebpf4jnsgd1na2vs0mg"},{"bike_id":"6be43384-d08c-4160-808c-ea26b4db80bc","system_id":"levelo_inurba_marseille","lat":43.2782,"lon":5.40715,"is_reserved":false,"is_disabled":false,"rental_uris":{"android":"levelo://app?vid=6be43384-d08c-4160-808c-ea26b4db80bc","ios":"levelo://app?vid=6be43384-d08c-4160-808c-ea26b4db80bc"},"vehicle_type_id":"4","last_reported":1748693928,"current_range_meters":9200,"station_id":"ce4bhnh2rcd13ifvqgtg","pricing_plan_id":"cebpf4jnsgd1na2vs0mg"},{"bike_id":"a672e2ce-ff65-491a-baf8-b5fcce4f4059","system_id":"levelo_inurba_marseille","lat":43.31705,"lon":5.39018,"is_reserved":false,"is_disabled":false,"rental_uris":{"android":"levelo://app?vid=a672e2ce-ff65-491a-baf8-b5fcce4f4059","ios":"levelo://app?vid=a672e2ce-ff65-491a-baf8-b5fcce4f4059"},"vehicle_type_id":"4","last_reported":1748693928,"current_range_meters":9600,"station_id":"","pricing_plan_id":"cebpf4jnsgd1na2vs0mg"},{"bike_id":"f61266f9-9ef3-44c7-b1fc-8a9106712a53","system_id":"levelo_inurba_marseille","lat":43.2175,"lon":5.346,"is_reserved":false,"is_disabled":false,"rental_uris":{"android":"levelo://app?vid=f61266f9-9ef3-44c7-b1fc-8a9106712a53","ios":"levelo://app?vid=f61266f9-9ef3-44c7-b1fc-8a9106712a53"},"vehicle_type_id":"4","last_reported":1748693928,"current_range_meters":9600,"station_id":"st_cvj6r9ubvosntc0bgbag","pricing_plan_id":"cebpf4jnsgd1na2vs0mg"},{"bike_id":"3d1c46f6-4edf-4333-9694-a8d754201811","system_id":"levelo_inurba_marseille","lat":43.28416,"lon":5.34978,"is_reserved":false,"is_disabled":false,"rental_uris":{"android":"levelo://app?vid=3d1c46f6-4edf-4333-9694-a8d754201811","ios":"levelo://app?vid=3d1c46f6-4edf-4333-9694-a8d754201811"},"vehicle_type_id":"4","last_reported":1748693928,"current_range_meters":9600,"station_id":"ce4bhbh2rcd13ifvqepg","pricing_plan_id":"cebpf4jnsgd1na2vs0mg"},{"bike_id":"4c149bc0-61a6-47e8-90e6-46529b8411ab","system_id":"levelo_inurba_marseille","lat":43.28421,"lon":5.34974,"is_reserved":false,"is_disabled":false,"rental_uris":{"android":"levelo://app?vid=4c149bc0-61a6-47e8-90e6-46529b8411ab","ios":"levelo://app?vid=4c149bc0-61a6-47e8-90e6-46529b8411ab"},"vehicle_type_id":"4","last_reported":1748693928,"current_range_meters":9600,"station_id":"ce4bhbh2rcd13ifvqepg","pricing_plan_id":"cebpf4jnsgd1na2vs0mg"},{"bike_id":"73d88a46-c1ac-4c9c-a30a-497c3af5dd0e","system_id":"levelo_inurba_marseille","lat":43.21759,"lon":5.34608,"is_reserved":false,"is_disabled":false,"rental_uris":{"android":"levelo://app?vid=73d88a46-c1ac-4c9c-a30a-497c3af5dd0e","ios":"levelo://app?vid=73d88a46-c1ac-4c9c-a30a-497c3af5dd0e"},"vehicle_type_id":"4","last_reported":1748693928,"current_range_meters":9600,"station_id":"st_cvj6r9ubvosntc0bgbag","pricing_plan_id":"cebpf4jnsgd1na2vs0mg"},{"bike_id":"f0012670-04e8-44ad-ae17-5630e3d7eeb8","system_id":"levelo_inurba_marseille","lat":43.23196,"lon":5.3999,"is_reserved":false,"is_disabled":false,"rental_uris":{"android":"levelo://app?vid=f0012670-04e8-44ad-ae17-5630e3d7eeb8","ios":"levelo://app?vid=f0012670-04e8-44ad-ae17-5630e3d7eeb8"},"vehicle_type_id":"4","last_reported":1748693928,"current_range_meters":9600,"station_id":"ce4bhn12rcd13ifvqgqg","pricing_plan_id":"cebpf4jnsgd1na2vs0mg"},{"bike_id":"95cd80fa-c2e5-401c-95da-632e1df7bbde","system_id":"levelo_inurba_marseille","lat":43.231435,"lon":5.437111,"is_reserved":false,"is_disabled":false,"rental_uris":{"android":"levelo://app?vid=95cd80fa-c2e5-401c-95da-632e1df7bbde","ios":"levelo://app?vid=95cd80fa-c2e5-401c-95da-632e1df7bbde"},"vehicle_type_id":"4","last_reported":1748693928,"current_range_meters":10000,"station_id":"ce4bhmp2rcd13ifvqgog","pricing_plan_id":"cebpf4jnsgd1na2vs0mg"},{"bike_id":"8d48119e-760e-4c00-b401-59af0a322afa","system_id":"levelo_inurba_marseille","lat":43.25655,"lon":5.4085,"is_reserved":false,"is_disabled":false,"rental_uris":{"android":"levelo://app?vid=8d48119e-760e-4c00-b401-59af0a322afa","ios":"levelo://app?vid=8d48119e-760e-4c00-b401-59af0a322afa"},"vehicle_type_id":"4","last_reported":1748693928,"current_range_meters":10000,"station_id":"","pricing_plan_id":"cebpf4jnsgd1na2vs0mg"},{"bike_id":"b50609fe-871b-4904-824b-ee2be6c32b2d","system_id":"levelo_inurba_marseille","lat":43.217461,"lon":5.346012,"is_reserved":false,"is_disabled":false,"rental_uris":{"android":"levelo://app?vid=b50609fe-871b-4904-824b-ee2be6c32b2d","ios":"levelo://app?vid=b50609fe-871b-4904-824b-ee2be6c32b2d"},"vehicle_type_id":"4","last_reported":1748693928,"current_range_meters":10000,"station_id":"st_cvj6r9ubvosntc0bgbag","pricing_plan_id":"cebpf4jnsgd1na2vs0mg"},{"bike_id":"a2b05694-d9e0-4b83-8e25-2604bfbf2718","system_id":"levelo_inurba_marseille","lat":43.296946,"lon":5.372746,"is_reserved":false,"is_disabled":false,"rental_uris":{"android":"levelo://app?vid=a2b05694-d9e0-4b83-8e25-2604bfbf2718","ios":"levelo://app?vid=a2b05694-d9e0-4b83-8e25-2604bfbf2718"},"vehicle_type_id":"4","last_reported":1748693928,"current_range_meters":10000,"station_id":"ce4bgk12rcd13ifvqbj0","pricing_plan_id":"cebpf4jnsgd1na2vs0mg"},{"bike_id":"41c3fe72-11c8-46f8-813e-eaa558408062","system_id":"levelo_inurba_marseille","lat":43.30313,"lon":5.39208,"is_reserved":false,"is_disabled":false,"rental_uris":{"android":"levelo://app?vid=41c3fe72-11c8-46f8-813e-eaa558408062","ios":"levelo://app?vid=41c3fe72-11c8-46f8-813e-eaa558408062"},"vehicle_type_id":"4","last_reported":1748693928,"current_range_meters":10000,"station_id":"ce4bgkh2rcd13ifvqbk0","pricing_plan_id":"cebpf4jnsgd1na2vs0mg"},{"bike_id":"2e16673d-a53c-4388-bdc9-bb6b86c0cfae","system_id":"levelo_inurba_marseille","lat":43.31705,"lon":5.37734,"is_reserved":false,"is_disabled":false,"rental_uris":{"android":"levelo://app?vid=2e16673d-a53c-4388-bdc9-bb6b86c0cfae","ios":"levelo://app?vid=2e16673d-a53c-4388-bdc9-bb6b86c0cfae"},"vehicle_type_id":"4","last_reported":1748693928,"current_range_meters":10800,"station_id":"ce4bgth2rcd13ifvqch0","pricing_plan_id":"cebpf4jnsgd1na2vs0mg"},{"bike_id":"90661731-e0ab-494e-b197-0ad194ea14f4","system_id":"levelo_inurba_marseille","lat":43.26944,"lon":5.40252,"is_reserved":false,"is_disabled":false,"rental_uris":{"android":"levelo://app?vid=90661731-e0ab-494e-b197-0ad194ea14f4","ios":"levelo://app?vid=90661731-e0ab-494e-b197-0ad194ea14f4"},"vehicle_type_id":"4","last_reported":1748693928,"current_range_meters":10800,"station_id":"cjm6bp8fraef2m0cb0m0","pricing_plan_id":"cebpf4jnsgd1na2vs0mg"},{"bike_id":"94e96d19-122d-4d1b-8d6c-fd8fbafc6028","system_id":"levelo_inurba_marseille","lat":43.29709,"lon":5.377,"is_reserved":false,"is_disabled":false,"rental_uris":{"android":"levelo://app?vid=94e96d19-122d-4d1b-8d6c-fd8fbafc6028","ios":"levelo://app?vid=94e96d19-122d-4d1b-8d6c-fd8fbafc6028"},"vehicle_type_id":"4","last_reported":1748693928,"current_range_meters":10800,"station_id":"ce4bgkh2rcd13ifvqbl0","pricing_plan_id":"cebpf4jnsgd1na2vs0mg"},{"bike_id":"f4431ae7-57a2-44b7-b0f4-0bd0d29a42ab","system_id":"levelo_inurba_marseille","lat":43.26943,"lon":5.4025,"is_reserved":false,"is_disabled":false,"rental_uris":{"android":"levelo://app?vid=f4431ae7-57a2-44b7-b0f4-0bd0d29a42ab","ios":"levelo://app?vid=f4431ae7-57a2-44b7-b0f4-0bd0d29a42ab"},"vehicle_type_id":"4","last_reported":1748693928,"current_range_meters":10800,"station_id":"cjm6bp8fraef2m0cb0m0","pricing_plan_id":"cebpf4jnsgd1na2vs0mg"},{"bike_id":"0a16772c-8bb0-46f7-b578-bad5ed406846","system_id":"levelo_inurba_marseille","lat":43.29566,"lon":5.37489,"is_reserved":false,"is_disabled":false,"rental_uris":{"android":"levelo://app?vid=0a16772c-8bb0-46f7-b578-bad5ed406846","ios":"levelo://app?vid=0a16772c-8bb0-46f7-b578-bad5ed406846"},"vehicle_type_id":"4","last_reported":1748693928,"current_range_meters":10800,"station_id":"ce4bgh92rcd13ifvqb50","pricing_plan_id":"cebpf4jnsgd1na2vs0mg"},{"bike_id":"5291cf4b-2021-40c9-9a7c-11e51c847979","system_id":"levelo_inurba_marseille","lat":43.23159,"lon":5.43737,"is_reserved":false,"is_disabled":false,"rental_uris":{"android":"levelo://app?vid=5291cf4b-2021-40c9-9a7c-11e51c847979","ios":"levelo://app?vid=5291cf4b-2021-40c9-9a7c-11e51c847979"},"vehicle_type_id":"4","last_reported":1748693928,"current_range_meters":10800,"station_id":"ce4bhmp2rcd13ifvqgog","pricing_plan_id":"cebpf4jnsgd1na2vs0mg"},{"bike_id":"d35279df-65fa-4a1d-a5be-df30ee6e8cd3","system_id":"levelo_inurba_marseille","lat":43.28728,"lon":5.36083,"is_reserved":false,"is_disabled":false,"rental_uris":{"android":"levelo://app?vid=d35279df-65fa-4a1d-a5be-df30ee6e8cd3","ios":"levelo://app?vid=d35279df-65fa-4a1d-a5be-df30ee6e8cd3"},"vehicle_type_id":"4","last_reported":1748693928,"current_range_meters":10800,"station_id":"cki0cbj6b192h4jlfktg","pricing_plan_id":"cebpf4jnsgd1na2vs0mg"},{"bike_id":"30ccaddc-e3ed-48e6-b2dd-d0758bb72c66","system_id":"levelo_inurba_marseille","lat":43.27381,"lon":5.36251,"is_reserved":false,"is_disabled":false,"rental_uris":{"android":"levelo://app?vid=30ccaddc-e3ed-48e6-b2dd-d0758bb72c66","ios":"levelo://app?vid=30ccaddc-e3ed-48e6-b2dd-d0758bb72c66"},"vehicle_type_id":"4","last_reported":1748693928,"current_range_meters":10800,"station_id":"ce4bhbh2rcd13ifvqeo0","pricing_plan_id":"cebpf4jnsgd1na2vs0mg"},{"bike_id":"b18036e4-cdbb-441f-a4f1-99c9cdbece34","system_id":"levelo_inurba_marseille","lat":43.29504,"lon":5.39062,"is_reserved":false,"is_disabled":false,"rental_uris":{"android":"levelo://app?vid=b18036e4-cdbb-441f-a4f1-99c9cdbece34","ios":"levelo://app?vid=b18036e4-cdbb-441f-a4f1-99c9cdbece34"},"vehicle_type_id":"4","last_reported":1748693928,"current_range_meters":10800,"station_id":"ce4bh3p2rcd13ifvqdp0","pricing_plan_id":"cebpf4jnsgd1na2vs0mg"},{"bike_id":"25866adb-6a96-4a09-8ec1-e154dc548fb4","system_id":"levelo_inurba_marseille","lat":43.2319,"lon":5.35553,"is_reserved":false,"is_disabled":false,"rental_uris":{"android":"levelo://app?vid=25866adb-6a96-4a09-8ec1-e154dc548fb4","ios":"levelo://app?vid=25866adb-6a96-4a09-8ec1-e154dc548fb4"},"vehicle_type_id":"4","last_reported":1748693928,"current_range_meters":11200,"station_id":"ce4bhu92rcd13ifvqi70","pricing_plan_id":"cebpf4jnsgd1na2vs0mg"},{"bike_id":"86fc78a0-4db5-46a1-9ae0-dfe89fdc9f97","system_id":"levelo_inurba_marseille","lat":43.28931,"lon":5.36633,"is_reserved":false,"is_disabled":false,"rental_uris":{"android":"levelo://app?vid=86fc78a0-4db5-46a1-9ae0-dfe89fdc9f97","ios":"levelo://app?vid=86fc78a0-4db5-46a1-9ae0-dfe89fdc9f97"},"vehicle_type_id":"4","last_reported":1748693928,"current_range_meters":11200,"station_id":"ce4bhap2rcd13ifvqek0","pricing_plan_id":"cebpf4jnsgd1na2vs0mg"},{"bike_id":"863d38d6-4f9a-4bdd-91f6-2a74d14185fb","system_id":"levelo_inurba_marseille","lat":43.29973,"lon":5.37164,"is_reserved":false,"is_disabled":false,"rental_uris":{"android":"levelo://app?vid=863d38d6-4f9a-4bdd-91f6-2a74d14185fb","ios":"levelo://app?vid=863d38d6-4f9a-4bdd-91f6-2a74d14185fb"},"vehicle_type_id":"4","last_reported":1748693928,"current_range_meters":10800,"station_id":"ce4bgr92rcd13ifvqc7g","pricing_plan_id":"cebpf4jnsgd1na2vs0mg"},{"bike_id":"b28abc00-7db7-4211-9853-5715e0eeb4ff","system_id":"levelo_inurba_marseille","lat":43.27061,"lon":5.40258,"is_reserved":false,"is_disabled":false,"rental_uris":{"android":"levelo://app?vid=b28abc00-7db7-4211-9853-5715e0eeb4ff","ios":"levelo://app?vid=b28abc00-7db7-4211-9853-5715e0eeb4ff"},"vehicle_type_id":"4","last_reported":1748693928,"current_range_meters":11200,"station_id":"ce4bhk92rcd13ifvqgc0","pricing_plan_id":"cebpf4jnsgd1na2vs0mg"},{"bike_id":"0d3bab2f-26cf-41f1-82dd-bb5db963b288","system_id":"levelo_inurba_marseille","lat":43.32542,"lon":5.36483,"is_reserved":false,"is_disabled":true,"rental_uris":{"android":"levelo://app?vid=0d3bab2f-26cf-41f1-82dd-bb5db963b288","ios":"levelo://app?vid=0d3bab2f-26cf-41f1-82dd-bb5db963b288"},"vehicle_type_id":"4","last_reported":1748693928,"current_range_meters":11200,"station_id":"","pricing_plan_id":"cebpf4jnsgd1na2vs0mg"},{"bike_id":"61aa5dc8-a305-4df7-865c-b3948b2ce7ec","system_id":"levelo_inurba_marseille","lat":43.29569,"lon":5.3751,"is_reserved":false,"is_disabled":false,"rental_uris":{"android":"levelo://app?vid=61aa5dc8-a305-4df7-865c-b3948b2ce7ec","ios":"levelo://app?vid=61aa5dc8-a305-4df7-865c-b3948b2ce7ec"},"vehicle_type_id":"4","last_reported":1748693928,"current_range_meters":11200,"station_id":"ce4bgh92rcd13ifvqb50","pricing_plan_id":"cebpf4jnsgd1na2vs0mg"},{"bike_id":"abdca04b-ad9b-4589-b336-b305b6309912","system_id":"levelo_inurba_marseille","lat":43.26209,"lon":5.37456,"is_reserved":false,"is_disabled":false,"rental_uris":{"android":"levelo://app?vid=abdca04b-ad9b-4589-b336-b305b6309912","ios":"levelo://app?vid=abdca04b-ad9b-4589-b336-b305b6309912"},"vehicle_type_id":"4","last_reported":1748693928,"current_range_meters":11200,"station_id":"ce4bhgp2rcd13ifvqfc0","pricing_plan_id":"cebpf4jnsgd1na2vs0mg"},{"bike_id":"dc2a7579-2e98-4a2e-b8c1-5be64e8aff44","system_id":"levelo_inurba_marseille","lat":43.211963,"lon":5.350714,"is_reserved":false,"is_disabled":false,"rental_uris":{"android":"levelo://app?vid=dc2a7579-2e98-4a2e-b8c1-5be64e8aff44","ios":"levelo://app?vid=dc2a7579-2e98-4a2e-b8c1-5be64e8aff44"},"vehicle_type_id":"4","last_reported":1748693928,"current_range_meters":11600,"station_id":"st_cvj6sg6p6f1abm77japg","pricing_plan_id":"cebpf4jnsgd1na2vs0mg"},{"bike_id":"6dbec55b-fee0-4a3a-9ed2-723f9ae1c783","system_id":"levelo_inurba_marseille","lat":43.2989,"lon":5.43658,"is_reserved":false,"is_disabled":true,"rental_uris":{"android":"levelo://app?vid=6dbec55b-fee0-4a3a-9ed2-723f9ae1c783","ios":"levelo://app?vid=6dbec55b-fee0-4a3a-9ed2-723f9ae1c783"},"vehicle_type_id":"4","last_reported":1748693928,"current_range_meters":11600,"station_id":"ce4bhpp2rcd13ifvqhfg","pricing_plan_id":"cebpf4jnsgd1na2vs0mg"},{"bike_id":"2386d5f3-e5e5-4bbc-9a9c-b268c1a186c0","system_id":"levelo_inurba_marseille","lat":43.2293,"lon":5.35374,"is_reserved":false,"is_disabled":false,"rental_uris":{"android":"levelo://app?vid=2386d5f3-e5e5-4bbc-9a9c-b268c1a186c0","ios":"levelo://app?vid=2386d5f3-e5e5-4bbc-9a9c-b268c1a186c0"},"vehicle_type_id":"4","last_reported":1748693928,"current_range_meters":11600,"station_id":"cpo3532slgdg3j2ikp40","pricing_plan_id":"cebpf4jnsgd1na2vs0mg"},{"bike_id":"70a6db2d-83b3-48ee-b09e-79f00c1ff217","system_id":"levelo_inurba_marseille","lat":43.21753,"lon":5.34619,"is_reserved":false,"is_disabled":false,"rental_uris":{"android":"levelo://app?vid=70a6db2d-83b3-48ee-b09e-79f00c1ff217","ios":"levelo://app?vid=70a6db2d-83b3-48ee-b09e-79f00c1ff217"},"vehicle_type_id":"4","last_reported":1748693928,"current_range_meters":11600,"station_id":"st_cvj6r9ubvosntc0bgbag","pricing_plan_id":"cebpf4jnsgd1na2vs0mg"},{"bike_id":"42060358-49d8-44c6-acbb-a8fdaec06f62","system_id":"levelo_inurba_marseille","lat":43.2621,"lon":5.40443,"is_reserved":false,"is_disabled":false,"rental_uris":{"android":"levelo://app?vid=42060358-49d8-44c6-acbb-a8fdaec06f62","ios":"levelo://app?vid=42060358-49d8-44c6-acbb-a8fdaec06f62"},"vehicle_type_id":"4","last_reported":1748693928,"current_range_meters":11600,"station_id":"ce4bhmh2rcd13ifvqgmg","pricing_plan_id":"cebpf4jnsgd1na2vs0mg"},{"bike_id":"7b10dec4-e5dc-4df6-8532-f95695b2d176","system_id":"levelo_inurba_marseille","lat":43.23963,"lon":5.36624,"is_reserved":false,"is_disabled":false,"rental_uris":{"android":"levelo://app?vid=7b10dec4-e5dc-4df6-8532-f95695b2d176","ios":"levelo://app?vid=7b10dec4-e5dc-4df6-8532-f95695b2d176"},"vehicle_type_id":"4","last_reported":1748693928,"current_range_meters":12000,"station_id":"ce4bhi12rcd13ifvqfp0","pricing_plan_id":"cebpf4jnsgd1na2vs0mg"},{"bike_id":"0ed326a3-9064-4693-82c9-b95ec10ad3cf","system_id":"levelo_inurba_marseille","lat":43.29895,"lon":5.43669,"is_reserved":false,"is_disabled":false,"rental_uris":{"android":"levelo://app?vid=0ed326a3-9064-4693-82c9-b95ec10ad3cf","ios":"levelo://app?vid=0ed326a3-9064-4693-82c9-b95ec10ad3cf"},"vehicle_type_id":"4","last_reported":1748693928,"current_range_meters":12000,"station_id":"ce4bhpp2rcd13ifvqhfg","pricing_plan_id":"cebpf4jnsgd1na2vs0mg"},{"bike_id":"2b0ea758-574e-43b7-8043-d726c6b21adc","system_id":"levelo_inurba_marseille","lat":43.299803,"lon":5.37178,"is_reserved":false,"is_disabled":false,"rental_uris":{"android":"levelo://app?vid=2b0ea758-574e-43b7-8043-d726c6b21adc","ios":"levelo://app?vid=2b0ea758-574e-43b7-8043-d726c6b21adc"},"vehicle_type_id":"4","last_reported":1748693928,"current_range_meters":12000,"station_id":"ce4bgr92rcd13ifvqc7g","pricing_plan_id":"cebpf4jnsgd1na2vs0mg"},{"bike_id":"bc48938d-c70f-4f1d-8804-8fda4bb815fa","system_id":"levelo_inurba_marseille","lat":43.24391,"lon":5.3706,"is_reserved":false,"is_disabled":false,"rental_uris":{"android":"levelo://app?vid=bc48938d-c70f-4f1d-8804-8fda4bb815fa","ios":"levelo://app?vid=bc48938d-c70f-4f1d-8804-8fda4bb815fa"},"vehicle_type_id":"4","last_reported":1748693928,"current_range_meters":12000,"station_id":"ce4bhhh2rcd13ifvqfk0","pricing_plan_id":"cebpf4jnsgd1na2vs0mg"},{"bike_id":"e6791328-fedd-400d-a669-cd1745f88ba4","system_id":"levelo_inurba_marseille","lat":43.291994,"lon":5.357983,"is_reserved":false,"is_disabled":false,"rental_uris":{"android":"levelo://app?vid=e6791328-fedd-400d-a669-cd1745f88ba4","ios":"levelo://app?vid=e6791328-fedd-400d-a669-cd1745f88ba4"},"vehicle_type_id":"4","last_reported":1748693928,"current_range_meters":12000,"station_id":"ce4bhb12rcd13ifvqel0","pricing_plan_id":"cebpf4jnsgd1na2vs0mg"},{"bike_id":"0a9ffdd7-c167-4d81-8c08-db4e255360a4","system_id":"levelo_inurba_marseille","lat":43.279925,"lon":5.40024,"is_reserved":false,"is_disabled":false,"rental_uris":{"android":"levelo://app?vid=0a9ffdd7-c167-4d81-8c08-db4e255360a4","ios":"levelo://app?vid=0a9ffdd7-c167-4d81-8c08-db4e255360a4"},"vehicle_type_id":"4","last_reported":1748693928,"current_range_meters":12000,"station_id":"ce4bho92rcd13ifvqh4g","pricing_plan_id":"cebpf4jnsgd1na2vs0mg"},{"bike_id":"fa0b97a9-ed1d-4daa-869e-5c856177ec78","system_id":"levelo_inurba_marseille","lat":43.28268,"lon":5.35059,"is_reserved":false,"is_disabled":false,"rental_uris":{"android":"levelo://app?vid=fa0b97a9-ed1d-4daa-869e-5c856177ec78","ios":"levelo://app?vid=fa0b97a9-ed1d-4daa-869e-5c856177ec78"},"vehicle_type_id":"4","last_reported":1748693928,"current_range_meters":12000,"station_id":"ce4bhbp2rcd13ifvqerg","pricing_plan_id":"cebpf4jnsgd1na2vs0mg"},{"bike_id":"934904aa-b6fe-443c-8d85-9d5ac099efe4","system_id":"levelo_inurba_marseille","lat":43.21746,"lon":5.34591,"is_reserved":false,"is_disabled":false,"rental_uris":{"android":"levelo://app?vid=934904aa-b6fe-443c-8d85-9d5ac099efe4","ios":"levelo://app?vid=934904aa-b6fe-443c-8d85-9d5ac099efe4"},"vehicle_type_id":"4","last_reported":1748693928,"current_range_meters":12000,"station_id":"st_cvj6r9ubvosntc0bgbag","pricing_plan_id":"cebpf4jnsgd1na2vs0mg"},{"bike_id":"ca45ae50-8fdf-43fd-8443-30c134198d86","system_id":"levelo_inurba_marseille","lat":43.265671,"lon":5.403197,"is_reserved":false,"is_disabled":false,"rental_uris":{"android":"levelo://app?vid=ca45ae50-8fdf-43fd-8443-30c134198d86","ios":"levelo://app?vid=ca45ae50-8fdf-43fd-8443-30c134198d86"},"vehicle_type_id":"4","last_reported":1748693928,"current_range_meters":12000,"station_id":"","pricing_plan_id":"cebpf4jnsgd1na2vs0mg"},{"bike_id":"7a930e6c-8535-4c43-9feb-143c96b071b5","system_id":"levelo_inurba_marseille","lat":43.27823,"lon":5.40714,"is_reserved":false,"is_disabled":false,"rental_uris":{"android":"levelo://app?vid=7a930e6c-8535-4c43-9feb-143c96b071b5","ios":"levelo://app?vid=7a930e6c-8535-4c43-9feb-143c96b071b5"},"vehicle_type_id":"4","last_reported":1748693928,"current_range_meters":12000,"station_id":"ce4bhnh2rcd13ifvqgtg","pricing_plan_id":"cebpf4jnsgd1na2vs0mg"},{"bike_id":"a7bc0857-ba13-43fa-9be2-c26b232e5a26","system_id":"levelo_inurba_marseille","lat":43.25922,"lon":5.4089,"is_reserved":false,"is_disabled":false,"rental_uris":{"android":"levelo://app?vid=a7bc0857-ba13-43fa-9be2-c26b232e5a26","ios":"levelo://app?vid=a7bc0857-ba13-43fa-9be2-c26b232e5a26"},"vehicle_type_id":"4","last_reported":1748693928,"current_range_meters":12800,"station_id":"ce4bhm92rcd13ifvqglg","pricing_plan_id":"cebpf4jnsgd1na2vs0mg"},{"bike_id":"56649147-93b6-4d20-af2c-9b2398c02f31","system_id":"levelo_inurba_marseille","lat":43.23966,"lon":5.36627,"is_reserved":false,"is_disabled":false,"rental_uris":{"android":"levelo://app?vid=56649147-93b6-4d20-af2c-9b2398c02f31","ios":"levelo://app?vid=56649147-93b6-4d20-af2c-9b2398c02f31"},"vehicle_type_id":"4","last_reported":1748693928,"current_range_meters":12400,"station_id":"ce4bhi12rcd13ifvqfp0","pricing_plan_id":"cebpf4jnsgd1na2vs0mg"},{"bike_id":"d8af0821-bc5d-459f-b24d-bbfca9521714","system_id":"levelo_inurba_marseille","lat":43.24188,"lon":5.39767,"is_reserved":false,"is_disabled":false,"rental_uris":{"android":"levelo://app?vid=d8af0821-bc5d-459f-b24d-bbfca9521714","ios":"levelo://app?vid=d8af0821-bc5d-459f-b24d-bbfca9521714"},"vehicle_type_id":"4","last_reported":1748693928,"current_range_meters":12400,"station_id":"ce4bhn12rcd13ifvqgpg","pricing_plan_id":"cebpf4jnsgd1na2vs0mg"},{"bike_id":"67614841-9f24-4f1f-81f7-acf09b9bb6b8","system_id":"levelo_inurba_marseille","lat":43.25715,"lon":5.41124,"is_reserved":false,"is_disabled":false,"rental_uris":{"android":"levelo://app?vid=67614841-9f24-4f1f-81f7-acf09b9bb6b8","ios":"levelo://app?vid=67614841-9f24-4f1f-81f7-acf09b9bb6b8"},"vehicle_type_id":"4","last_reported":1748693928,"current_range_meters":12400,"station_id":"ce4bhkp2rcd13ifvqgd0","pricing_plan_id":"cebpf4jnsgd1na2vs0mg"},{"bike_id":"c9a8ab5e-4f64-4e9c-8db2-4dbad5a71d1d","system_id":"levelo_inurba_marseille","lat":43.21768,"lon":5.34589,"is_reserved":false,"is_disabled":false,"rental_uris":{"android":"levelo://app?vid=c9a8ab5e-4f64-4e9c-8db2-4dbad5a71d1d","ios":"levelo://app?vid=c9a8ab5e-4f64-4e9c-8db2-4dbad5a71d1d"},"vehicle_type_id":"4","last_reported":1748693928,"current_range_meters":12400,"station_id":"st_cvj6r9ubvosntc0bgbag","pricing_plan_id":"cebpf4jnsgd1na2vs0mg"},{"bike_id":"78abdce2-500e-46f5-9d50-c85a5bb1c0e8","system_id":"levelo_inurba_marseille","lat":43.23153,"lon":5.43716,"is_reserved":false,"is_disabled":false,"rental_uris":{"android":"levelo://app?vid=78abdce2-500e-46f5-9d50-c85a5bb1c0e8","ios":"levelo://app?vid=78abdce2-500e-46f5-9d50-c85a5bb1c0e8"},"vehicle_type_id":"4","last_reported":1748693928,"current_range_meters":12400,"station_id":"ce4bhmp2rcd13ifvqgog","pricing_plan_id":"cebpf4jnsgd1na2vs0mg"},{"bike_id":"03c1751e-ef60-4175-a52f-4759bb9df88b","system_id":"levelo_inurba_marseille","lat":43.27965,"lon":5.38818,"is_reserved":false,"is_disabled":false,"rental_uris":{"android":"levelo://app?vid=03c1751e-ef60-4175-a52f-4759bb9df88b","ios":"levelo://app?vid=03c1751e-ef60-4175-a52f-4759bb9df88b"},"vehicle_type_id":"4","last_reported":1748693928,"current_range_meters":12400,"station_id":"","pricing_plan_id":"cebpf4jnsgd1na2vs0mg"},{"bike_id":"43fcadd4-ff94-430e-a1ec-23b77368e446","system_id":"levelo_inurba_marseille","lat":43.29855,"lon":5.36291,"is_reserved":false,"is_disabled":false,"rental_uris":{"android":"levelo://app?vid=43fcadd4-ff94-430e-a1ec-23b77368e446","ios":"levelo://app?vid=43fcadd4-ff94-430e-a1ec-23b77368e446"},"vehicle_type_id":"4","last_reported":1748693928,"current_range_meters":12800,"station_id":"ce4bgpp2rcd13ifvqc3g","pricing_plan_id":"cebpf4jnsgd1na2vs0mg"},{"bike_id":"4de4869b-de06-4e44-a694-4c7e41c789a8","system_id":"levelo_inurba_marseille","lat":43.25942,"lon":5.40901,"is_reserved":false,"is_disabled":false,"rental_uris":{"android":"levelo://app?vid=4de4869b-de06-4e44-a694-4c7e41c789a8","ios":"levelo://app?vid=4de4869b-de06-4e44-a694-4c7e41c789a8"},"vehicle_type_id":"4","last_reported":1748693928,"current_range_meters":12800,"station_id":"ce4bhm92rcd13ifvqglg","pricing_plan_id":"cebpf4jnsgd1na2vs0mg"},{"bike_id":"d5d0bfbb-f2bc-4297-a453-115bac476736","system_id":"levelo_inurba_marseille","lat":43.29383,"lon":5.37508,"is_reserved":false,"is_disabled":false,"rental_uris":{"android":"levelo://app?vid=d5d0bfbb-f2bc-4297-a453-115bac476736","ios":"levelo://app?vid=d5d0bfbb-f2bc-4297-a453-115bac476736"},"vehicle_type_id":"4","last_reported":1748693928,"current_range_meters":12800,"station_id":"","pricing_plan_id":"cebpf4jnsgd1na2vs0mg"},{"bike_id":"a1afee0d-636a-4145-8e38-9b2384426a66","system_id":"levelo_inurba_marseille","lat":43.32283,"lon":5.38287,"is_reserved":false,"is_disabled":false,"rental_uris":{"android":"levelo://app?vid=a1afee0d-636a-4145-8e38-9b2384426a66","ios":"levelo://app?vid=a1afee0d-636a-4145-8e38-9b2384426a66"},"vehicle_type_id":"4","last_reported":1748693928,"current_range_meters":13600,"station_id":"ce4bhr12rcd13ifvqhqg","pricing_plan_id":"cebpf4jnsgd1na2vs0mg"},{"bike_id":"8fa2986e-e7ee-4a67-9283-136ddf42da81","system_id":"levelo_inurba_marseille","lat":43.26211,"lon":5.37424,"is_reserved":false,"is_disabled":false,"rental_uris":{"android":"levelo://app?vid=8fa2986e-e7ee-4a67-9283-136ddf42da81","ios":"levelo://app?vid=8fa2986e-e7ee-4a67-9283-136ddf42da81"},"vehicle_type_id":"4","last_reported":1748693928,"current_range_meters":13600,"station_id":"ce4bhgp2rcd13ifvqfc0","pricing_plan_id":"cebpf4jnsgd1na2vs0mg"},{"bike_id":"dfc6964a-7e15-4f5d-9faf-f56504505ccd","system_id":"levelo_inurba_marseille","lat":43.24171,"lon":5.36397,"is_reserved":false,"is_disabled":false,"rental_uris":{"android":"levelo://app?vid=dfc6964a-7e15-4f5d-9faf-f56504505ccd","ios":"levelo://app?vid=dfc6964a-7e15-4f5d-9faf-f56504505ccd"},"vehicle_type_id":"4","last_reported":1748693928,"current_range_meters":13600,"station_id":"cpo36qri1sfpv3e86is0","pricing_plan_id":"cebpf4jnsgd1na2vs0mg"},{"bike_id":"85b57ead-8a3b-4148-81a7-7994880056e9","system_id":"levelo_inurba_marseille","lat":43.217501,"lon":5.34602,"is_reserved":false,"is_disabled":false,"rental_uris":{"android":"levelo://app?vid=85b57ead-8a3b-4148-81a7-7994880056e9","ios":"levelo://app?vid=85b57ead-8a3b-4148-81a7-7994880056e9"},"vehicle_type_id":"4","last_reported":1748693928,"current_range_meters":13600,"station_id":"st_cvj6r9ubvosntc0bgbag","pricing_plan_id":"cebpf4jnsgd1na2vs0mg"},{"bike_id":"e6901d81-8f28-4d7d-9700-121d525d1548","system_id":"levelo_inurba_marseille","lat":43.21764,"lon":5.34621,"is_reserved":false,"is_disabled":false,"rental_uris":{"android":"levelo://app?vid=e6901d81-8f28-4d7d-9700-121d525d1548","ios":"levelo://app?vid=e6901d81-8f28-4d7d-9700-121d525d1548"},"vehicle_type_id":"4","last_reported":1748693928,"current_range_meters":13600,"station_id":"st_cvj6r9ubvosntc0bgbag","pricing_plan_id":"cebpf4jnsgd1na2vs0mg"},{"bike_id":"965f07d7-e957-45ef-953c-8871a1c8c78d","system_id":"levelo_inurba_marseille","lat":43.231893,"lon":5.355537,"is_reserved":false,"is_disabled":false,"rental_uris":{"android":"levelo://app?vid=965f07d7-e957-45ef-953c-8871a1c8c78d","ios":"levelo://app?vid=965f07d7-e957-45ef-953c-8871a1c8c78d"},"vehicle_type_id":"4","last_reported":1748693928,"current_range_meters":13600,"station_id":"ce4bhu92rcd13ifvqi70","pricing_plan_id":"cebpf4jnsgd1na2vs0mg"},{"bike_id":"b5e7c5da-4a72-499d-b836-838107a6451c","system_id":"levelo_inurba_marseille","lat":43.21762,"lon":5.34614,"is_reserved":false,"is_disabled":false,"rental_uris":{"android":"levelo://app?vid=b5e7c5da-4a72-499d-b836-838107a6451c","ios":"levelo://app?vid=b5e7c5da-4a72-499d-b836-838107a6451c"},"vehicle_type_id":"4","last_reported":1748693928,"current_range_meters":13600,"station_id":"st_cvj6r9ubvosntc0bgbag","pricing_plan_id":"cebpf4jnsgd1na2vs0mg"},{"bike_id":"b4a389d7-474d-4a9d-8dec-223a88612b5c","system_id":"levelo_inurba_marseille","lat":43.24998,"lon":5.37952,"is_reserved":false,"is_disabled":false,"rental_uris":{"android":"levelo://app?vid=b4a389d7-474d-4a9d-8dec-223a88612b5c","ios":"levelo://app?vid=b4a389d7-474d-4a9d-8dec-223a88612b5c"},"vehicle_type_id":"4","last_reported":1748693928,"current_range_meters":14000,"station_id":"","pricing_plan_id":"cebpf4jnsgd1na2vs0mg"},{"bike_id":"0e907a98-08e0-4ea9-ac53-5614cc09da10","system_id":"levelo_inurba_marseille","lat":43.28445,"lon":5.39203,"is_reserved":false,"is_disabled":false,"rental_uris":{"android":"levelo://app?vid=0e907a98-08e0-4ea9-ac53-5614cc09da10","ios":"levelo://app?vid=0e907a98-08e0-4ea9-ac53-5614cc09da10"},"vehicle_type_id":"4","last_reported":1748693928,"current_range_meters":14000,"station_id":"ce4bhoh2rcd13ifvqh5g","pricing_plan_id":"cebpf4jnsgd1na2vs0mg"},{"bike_id":"bef96db7-48d8-4f30-8db3-5f0291ef01df","system_id":"levelo_inurba_marseille","lat":43.21739,"lon":5.34598,"is_reserved":false,"is_disabled":false,"rental_uris":{"android":"levelo://app?vid=bef96db7-48d8-4f30-8db3-5f0291ef01df","ios":"levelo://app?vid=bef96db7-48d8-4f30-8db3-5f0291ef01df"},"vehicle_type_id":"4","last_reported":1748693928,"current_range_meters":14000,"station_id":"st_cvj6r9ubvosntc0bgbag","pricing_plan_id":"cebpf4jnsgd1na2vs0mg"},{"bike_id":"9ce817ae-ae82-4126-a366-12f12b60fd32","system_id":"levelo_inurba_marseille","lat":43.27898,"lon":5.38011,"is_reserved":false,"is_disabled":false,"rental_uris":{"android":"levelo://app?vid=9ce817ae-ae82-4126-a366-12f12b60fd32","ios":"levelo://app?vid=9ce817ae-ae82-4126-a366-12f12b60fd32"},"vehicle_type_id":"4","last_reported":1748693928,"current_range_meters":14000,"station_id":"ce4bhf92rcd13ifvqf50","pricing_plan_id":"cebpf4jnsgd1na2vs0mg"},{"bike_id":"6b14e1db-1fea-4eaa-af95-50c504ff2e11","system_id":"levelo_inurba_marseille","lat":43.26556,"lon":5.37283,"is_reserved":false,"is_disabled":false,"rental_uris":{"android":"levelo://app?vid=6b14e1db-1fea-4eaa-af95-50c504ff2e11","ios":"levelo://app?vid=6b14e1db-1fea-4eaa-af95-50c504ff2e11"},"vehicle_type_id":"4","last_reported":1748693928,"current_range_meters":14000,"station_id":"ce4bhg12rcd13ifvqf70","pricing_plan_id":"cebpf4jnsgd1na2vs0mg"},{"bike_id":"348ddc31-f232-46b0-bbef-5931b86212cf","system_id":"levelo_inurba_marseille","lat":43.24175,"lon":5.39737,"is_reserved":false,"is_disabled":false,"rental_uris":{"android":"levelo://app?vid=348ddc31-f232-46b0-bbef-5931b86212cf","ios":"levelo://app?vid=348ddc31-f232-46b0-bbef-5931b86212cf"},"vehicle_type_id":"4","last_reported":1748693928,"current_range_meters":14000,"station_id":"ce4bhn12rcd13ifvqgpg","pricing_plan_id":"cebpf4jnsgd1na2vs0mg"},{"bike_id":"4ef8a2ee-833d-4d7d-8071-f509866a33ec","system_id":"levelo_inurba_marseille","lat":43.28,"lon":5.4002,"is_reserved":false,"is_disabled":false,"rental_uris":{"android":"levelo://app?vid=4ef8a2ee-833d-4d7d-8071-f509866a33ec","ios":"levelo://app?vid=4ef8a2ee-833d-4d7d-8071-f509866a33ec"},"vehicle_type_id":"4","last_reported":1748693928,"current_range_meters":14000,"station_id":"ce4bho92rcd13ifvqh4g","pricing_plan_id":"cebpf4jnsgd1na2vs0mg"},{"bike_id":"14036455-f919-44f7-8d5e-0b2e84f48674","system_id":"levelo_inurba_marseille","lat":43.30931,"lon":5.40392,"is_reserved":false,"is_disabled":false,"rental_uris":{"android":"levelo://app?vid=14036455-f919-44f7-8d5e-0b2e84f48674","ios":"levelo://app?vid=14036455-f919-44f7-8d5e-0b2e84f48674"},"vehicle_type_id":"4","last_reported":1748693928,"current_range_meters":14000,"station_id":"","pricing_plan_id":"cebpf4jnsgd1na2vs0mg"},{"bike_id":"1a5fbb0d-d200-43fd-afbe-c81e8eaadb14","system_id":"levelo_inurba_marseille","lat":43.29533,"lon":5.3748,"is_reserved":false,"is_disabled":false,"rental_uris":{"android":"levelo://app?vid=1a5fbb0d-d200-43fd-afbe-c81e8eaadb14","ios":"levelo://app?vid=1a5fbb0d-d200-43fd-afbe-c81e8eaadb14"},"vehicle_type_id":"4","last_reported":1748693928,"current_range_meters":14000,"station_id":"ce4bgkp2rcd13ifvqbmg","pricing_plan_id":"cebpf4jnsgd1na2vs0mg"},{"bike_id":"e0834e8a-8a5f-409d-a2a9-cfff4aed0706","system_id":"levelo_inurba_marseille","lat":43.26682,"lon":5.38261,"is_reserved":false,"is_disabled":false,"rental_uris":{"android":"levelo://app?vid=e0834e8a-8a5f-409d-a2a9-cfff4aed0706","ios":"levelo://app?vid=e0834e8a-8a5f-409d-a2a9-cfff4aed0706"},"vehicle_type_id":"4","last_reported":1748693928,"current_range_meters":13600,"station_id":"ce4bhg92rcd13ifvqf90","pricing_plan_id":"cebpf4jnsgd1na2vs0mg"},{"bike_id":"9dd8b8cc-b2f3-445f-a172-5fd0cc0494af","system_id":"levelo_inurba_marseille","lat":43.28182,"lon":5.42653,"is_reserved":false,"is_disabled":false,"rental_uris":{"android":"levelo://app?vid=9dd8b8cc-b2f3-445f-a172-5fd0cc0494af","ios":"levelo://app?vid=9dd8b8cc-b2f3-445f-a172-5fd0cc0494af"},"vehicle_type_id":"4","last_reported":1748693928,"current_range_meters":14000,"station_id":"ce4bhnh2rcd13ifvqgug","pricing_plan_id":"cebpf4jnsgd1na2vs0mg"},{"bike_id":"937f9e3f-8b13-4a88-a638-6f5372018cc9","system_id":"levelo_inurba_marseille","lat":43.29852,"lon":5.36284,"is_reserved":false,"is_disabled":false,"rental_uris":{"android":"levelo://app?vid=937f9e3f-8b13-4a88-a638-6f5372018cc9","ios":"levelo://app?vid=937f9e3f-8b13-4a88-a638-6f5372018cc9"},"vehicle_type_id":"4","last_reported":1748693928,"current_range_meters":14400,"station_id":"ce4bgpp2rcd13ifvqc3g","pricing_plan_id":"cebpf4jnsgd1na2vs0mg"},{"bike_id":"8c3dd327-e718-4c84-b2c5-7a0b3845fc6d","system_id":"levelo_inurba_marseille","lat":43.27956,"lon":5.386767,"is_reserved":false,"is_disabled":false,"rental_uris":{"android":"levelo://app?vid=8c3dd327-e718-4c84-b2c5-7a0b3845fc6d","ios":"levelo://app?vid=8c3dd327-e718-4c84-b2c5-7a0b3845fc6d"},"vehicle_type_id":"4","last_reported":1748693928,"current_range_meters":14400,"station_id":"","pricing_plan_id":"cebpf4jnsgd1na2vs0mg"},{"bike_id":"03cf0df6-ebcf-49b4-962e-0bf9da3bd21e","system_id":"levelo_inurba_marseille","lat":43.23152,"lon":5.43716,"is_reserved":false,"is_disabled":false,"rental_uris":{"android":"levelo://app?vid=03cf0df6-ebcf-49b4-962e-0bf9da3bd21e","ios":"levelo://app?vid=03cf0df6-ebcf-49b4-962e-0bf9da3bd21e"},"vehicle_type_id":"4","last_reported":1748693928,"current_range_meters":14400,"station_id":"ce4bhmp2rcd13ifvqgog","pricing_plan_id":"cebpf4jnsgd1na2vs0mg"},{"bike_id":"8f0300e4-899f-4e13-b8a7-90f137ab1640","system_id":"levelo_inurba_marseille","lat":43.27053,"lon":5.3928,"is_reserved":false,"is_disabled":false,"rental_uris":{"android":"levelo://app?vid=8f0300e4-899f-4e13-b8a7-90f137ab1640","ios":"levelo://app?vid=8f0300e4-899f-4e13-b8a7-90f137ab1640"},"vehicle_type_id":"4","last_reported":1748693928,"current_range_meters":14400,"station_id":"","pricing_plan_id":"cebpf4jnsgd1na2vs0mg"},{"bike_id":"f834d568-f3e2-4973-beb0-7959512c9902","system_id":"levelo_inurba_marseille","lat":43.23962,"lon":5.36625,"is_reserved":false,"is_disabled":false,"rental_uris":{"android":"levelo://app?vid=f834d568-f3e2-4973-beb0-7959512c9902","ios":"levelo://app?vid=f834d568-f3e2-4973-beb0-7959512c9902"},"vehicle_type_id":"4","last_reported":1748693928,"current_range_meters":14400,"station_id":"ce4bhi12rcd13ifvqfp0","pricing_plan_id":"cebpf4jnsgd1na2vs0mg"},{"bike_id":"d2dd3510-eb8b-47f5-ae18-f18358da230e","system_id":"levelo_inurba_marseille","lat":43.217464,"lon":5.346066,"is_reserved":false,"is_disabled":false,"rental_uris":{"android":"levelo://app?vid=d2dd3510-eb8b-47f5-ae18-f18358da230e","ios":"levelo://app?vid=d2dd3510-eb8b-47f5-ae18-f18358da230e"},"vehicle_type_id":"4","last_reported":1748693928,"current_range_meters":14400,"station_id":"st_cvj6r9ubvosntc0bgbag","pricing_plan_id":"cebpf4jnsgd1na2vs0mg"},{"bike_id":"d4eaaff6-c979-4c36-9f1c-b8c4ec006171","system_id":"levelo_inurba_marseille","lat":43.28413,"lon":5.34994,"is_reserved":false,"is_disabled":false,"rental_uris":{"android":"levelo://app?vid=d4eaaff6-c979-4c36-9f1c-b8c4ec006171","ios":"levelo://app?vid=d4eaaff6-c979-4c36-9f1c-b8c4ec006171"},"vehicle_type_id":"4","last_reported":1748693928,"current_range_meters":14800,"station_id":"ce4bhbh2rcd13ifvqepg","pricing_plan_id":"cebpf4jnsgd1na2vs0mg"},{"bike_id":"740ed209-b5ad-426f-b900-542a97bce272","system_id":"levelo_inurba_marseille","lat":43.23151,"lon":5.43715,"is_reserved":false,"is_disabled":false,"rental_uris":{"android":"levelo://app?vid=740ed209-b5ad-426f-b900-542a97bce272","ios":"levelo://app?vid=740ed209-b5ad-426f-b900-542a97bce272"},"vehicle_type_id":"4","last_reported":1748693928,"current_range_meters":14800,"station_id":"ce4bhmp2rcd13ifvqgog","pricing_plan_id":"cebpf4jnsgd1na2vs0mg"},{"bike_id":"dfac133b-0fc5-49f4-afed-bd3ae3d03ae6","system_id":"levelo_inurba_marseille","lat":43.28619,"lon":5.35123,"is_reserved":false,"is_disabled":false,"rental_uris":{"android":"levelo://app?vid=dfac133b-0fc5-49f4-afed-bd3ae3d03ae6","ios":"levelo://app?vid=dfac133b-0fc5-49f4-afed-bd3ae3d03ae6"},"vehicle_type_id":"4","last_reported":1748693928,"current_range_meters":14800,"station_id":"ce4bhch2rcd13ifvqeug","pricing_plan_id":"cebpf4jnsgd1na2vs0mg"},{"bike_id":"bd7aa9b7-9857-4961-82b0-c8baef67f534","system_id":"levelo_inurba_marseille","lat":43.239594,"lon":5.366271,"is_reserved":false,"is_disabled":false,"rental_uris":{"android":"levelo://app?vid=bd7aa9b7-9857-4961-82b0-c8baef67f534","ios":"levelo://app?vid=bd7aa9b7-9857-4961-82b0-c8baef67f534"},"vehicle_type_id":"4","last_reported":1748693928,"current_range_meters":15200,"station_id":"ce4bhi12rcd13ifvqfp0","pricing_plan_id":"cebpf4jnsgd1na2vs0mg"},{"bike_id":"19f5b483-5b36-4c43-8206-d0f53f4ecf01","system_id":"levelo_inurba_marseille","lat":43.24176,"lon":5.36393,"is_reserved":false,"is_disabled":false,"rental_uris":{"android":"levelo://app?vid=19f5b483-5b36-4c43-8206-d0f53f4ecf01","ios":"levelo://app?vid=19f5b483-5b36-4c43-8206-d0f53f4ecf01"},"vehicle_type_id":"4","last_reported":1748693928,"current_range_meters":15200,"station_id":"cpo36qri1sfpv3e86is0","pricing_plan_id":"cebpf4jnsgd1na2vs0mg"},{"bike_id":"2969971d-b044-43a4-83ab-432c358acdbb","system_id":"levelo_inurba_marseille","lat":43.23152,"lon":5.43714,"is_reserved":false,"is_disabled":false,"rental_uris":{"android":"levelo://app?vid=2969971d-b044-43a4-83ab-432c358acdbb","ios":"levelo://app?vid=2969971d-b044-43a4-83ab-432c358acdbb"},"vehicle_type_id":"4","last_reported":1748693928,"current_range_meters":15200,"station_id":"ce4bhmp2rcd13ifvqgog","pricing_plan_id":"cebpf4jnsgd1na2vs0mg"},{"bike_id":"db72b677-109d-4dfe-81fc-e7b5d55b0b97","system_id":"levelo_inurba_marseille","lat":43.29264,"lon":5.40904,"is_reserved":false,"is_disabled":false,"rental_uris":{"android":"levelo://app?vid=db72b677-109d-4dfe-81fc-e7b5d55b0b97","ios":"levelo://app?vid=db72b677-109d-4dfe-81fc-e7b5d55b0b97"},"vehicle_type_id":"4","last_reported":1748693928,"current_range_meters":15200,"station_id":"ce4bh192rcd13ifvqdc0","pricing_plan_id":"cebpf4jnsgd1na2vs0mg"},{"bike_id":"6ab3e183-6b4d-4aeb-b7a7-69d54715656c","system_id":"levelo_inurba_marseille","lat":43.26561,"lon":5.37278,"is_reserved":false,"is_disabled":false,"rental_uris":{"android":"levelo://app?vid=6ab3e183-6b4d-4aeb-b7a7-69d54715656c","ios":"levelo://app?vid=6ab3e183-6b4d-4aeb-b7a7-69d54715656c"},"vehicle_type_id":"4","last_reported":1748693928,"current_range_meters":15200,"station_id":"ce4bhg12rcd13ifvqf70","pricing_plan_id":"cebpf4jnsgd1na2vs0mg"},{"bike_id":"d94ad4e9-ef56-400a-81a8-14ac56c6093e","system_id":"levelo_inurba_marseille","lat":43.217499,"lon":5.345984,"is_reserved":false,"is_disabled":false,"rental_uris":{"android":"levelo://app?vid=d94ad4e9-ef56-400a-81a8-14ac56c6093e","ios":"levelo://app?vid=d94ad4e9-ef56-400a-81a8-14ac56c6093e"},"vehicle_type_id":"4","last_reported":1748693928,"current_range_meters":15200,"station_id":"st_cvj6r9ubvosntc0bgbag","pricing_plan_id":"cebpf4jnsgd1na2vs0mg"},{"bike_id":"e35f13ce-a6c7-4a08-9fa1-ffa4b3601a0b","system_id":"levelo_inurba_marseille","lat":43.21195,"lon":5.35105,"is_reserved":false,"is_disabled":false,"rental_uris":{"android":"levelo://app?vid=e35f13ce-a6c7-4a08-9fa1-ffa4b3601a0b","ios":"levelo://app?vid=e35f13ce-a6c7-4a08-9fa1-ffa4b3601a0b"},"vehicle_type_id":"4","last_reported":1748693928,"current_range_meters":15200,"station_id":"st_cvj6sg6p6f1abm77japg","pricing_plan_id":"cebpf4jnsgd1na2vs0mg"},{"bike_id":"5f224e55-2261-440e-bf2f-3cbcb28e1363","system_id":"levelo_inurba_marseille","lat":43.21762,"lon":5.34588,"is_reserved":false,"is_disabled":false,"rental_uris":{"android":"levelo://app?vid=5f224e55-2261-440e-bf2f-3cbcb28e1363","ios":"levelo://app?vid=5f224e55-2261-440e-bf2f-3cbcb28e1363"},"vehicle_type_id":"4","last_reported":1748693928,"current_range_meters":16000,"station_id":"st_cvj6r9ubvosntc0bgbag","pricing_plan_id":"cebpf4jnsgd1na2vs0mg"},{"bike_id":"d6b4ed67-6940-4a6a-9359-66a810bc270d","system_id":"levelo_inurba_marseille","lat":43.323322,"lon":5.406251,"is_reserved":false,"is_disabled":false,"rental_uris":{"android":"levelo://app?vid=d6b4ed67-6940-4a6a-9359-66a810bc270d","ios":"levelo://app?vid=d6b4ed67-6940-4a6a-9359-66a810bc270d"},"vehicle_type_id":"4","last_reported":1748693928,"current_range_meters":16000,"station_id":"ce4bhq92rcd13ifvqhjg","pricing_plan_id":"cebpf4jnsgd1na2vs0mg"},{"bike_id":"70d76874-7e36-4723-99ab-b5674c3e1bcc","system_id":"levelo_inurba_marseille","lat":43.292,"lon":5.35811,"is_reserved":false,"is_disabled":false,"rental_uris":{"android":"levelo://app?vid=70d76874-7e36-4723-99ab-b5674c3e1bcc","ios":"levelo://app?vid=70d76874-7e36-4723-99ab-b5674c3e1bcc"},"vehicle_type_id":"4","last_reported":1748693928,"current_range_meters":16000,"station_id":"ce4bhb12rcd13ifvqel0","pricing_plan_id":"cebpf4jnsgd1na2vs0mg"},{"bike_id":"9a724ef8-d819-47e7-a9f7-9a3986491294","system_id":"levelo_inurba_marseille","lat":43.29349,"lon":5.38823,"is_reserved":false,"is_disabled":false,"rental_uris":{"android":"levelo://app?vid=9a724ef8-d819-47e7-a9f7-9a3986491294","ios":"levelo://app?vid=9a724ef8-d819-47e7-a9f7-9a3986491294"},"vehicle_type_id":"4","last_reported":1748693928,"current_range_meters":16000,"station_id":"","pricing_plan_id":"cebpf4jnsgd1na2vs0mg"},{"bike_id":"5dae0668-833e-4f25-993a-cb99cb88669d","system_id":"levelo_inurba_marseille","lat":43.21769,"lon":5.34614,"is_reserved":false,"is_disabled":false,"rental_uris":{"android":"levelo://app?vid=5dae0668-833e-4f25-993a-cb99cb88669d","ios":"levelo://app?vid=5dae0668-833e-4f25-993a-cb99cb88669d"},"vehicle_type_id":"4","last_reported":1748693928,"current_range_meters":16000,"station_id":"st_cvj6r9ubvosntc0bgbag","pricing_plan_id":"cebpf4jnsgd1na2vs0mg"},{"bike_id":"acf16947-b203-4b81-91fe-aabb86c76086","system_id":"levelo_inurba_marseille","lat":43.25649,"lon":5.41086,"is_reserved":false,"is_disabled":false,"rental_uris":{"android":"levelo://app?vid=acf16947-b203-4b81-91fe-aabb86c76086","ios":"levelo://app?vid=acf16947-b203-4b81-91fe-aabb86c76086"},"vehicle_type_id":"4","last_reported":1748693928,"current_range_meters":16000,"station_id":"","pricing_plan_id":"cebpf4jnsgd1na2vs0mg"},{"bike_id":"53d48a31-7afb-4d8d-b66c-02e9d5d5f306","system_id":"levelo_inurba_marseille","lat":43.28466,"lon":5.35887,"is_reserved":false,"is_disabled":false,"rental_uris":{"android":"levelo://app?vid=53d48a31-7afb-4d8d-b66c-02e9d5d5f306","ios":"levelo://app?vid=53d48a31-7afb-4d8d-b66c-02e9d5d5f306"},"vehicle_type_id":"4","last_reported":1748693928,"current_range_meters":16000,"station_id":"ce4bhah2rcd13ifvqei0","pricing_plan_id":"cebpf4jnsgd1na2vs0mg"},{"bike_id":"792b8862-e581-44be-8ddc-645d1733b829","system_id":"levelo_inurba_marseille","lat":43.28585,"lon":5.37052,"is_reserved":false,"is_disabled":false,"rental_uris":{"android":"levelo://app?vid=792b8862-e581-44be-8ddc-645d1733b829","ios":"levelo://app?vid=792b8862-e581-44be-8ddc-645d1733b829"},"vehicle_type_id":"4","last_reported":1748693928,"current_range_meters":16000,"station_id":"ce4bht12rcd13ifvqi60","pricing_plan_id":"cebpf4jnsgd1na2vs0mg"},{"bike_id":"c708db33-f160-47b2-8ded-6a5dc946bde4","system_id":"levelo_inurba_marseille","lat":43.3091,"lon":5.3685,"is_reserved":false,"is_disabled":false,"rental_uris":{"android":"levelo://app?vid=c708db33-f160-47b2-8ded-6a5dc946bde4","ios":"levelo://app?vid=c708db33-f160-47b2-8ded-6a5dc946bde4"},"vehicle_type_id":"4","last_reported":1748693928,"current_range_meters":15200,"station_id":"ce4bgn92rcd13ifvqbvg","pricing_plan_id":"cebpf4jnsgd1na2vs0mg"},{"bike_id":"9fd00f75-73ec-4746-8405-da8d84c0d05b","system_id":"levelo_inurba_marseille","lat":43.29709,"lon":5.37696,"is_reserved":false,"is_disabled":false,"rental_uris":{"android":"levelo://app?vid=9fd00f75-73ec-4746-8405-da8d84c0d05b","ios":"levelo://app?vid=9fd00f75-73ec-4746-8405-da8d84c0d05b"},"vehicle_type_id":"4","last_reported":1748693928,"current_range_meters":16000,"station_id":"ce4bgkh2rcd13ifvqbl0","pricing_plan_id":"cebpf4jnsgd1na2vs0mg"},{"bike_id":"7461bcf7-b969-4f08-b387-af4801dbf891","system_id":"levelo_inurba_marseille","lat":43.29368,"lon":5.37822,"is_reserved":false,"is_disabled":false,"rental_uris":{"android":"levelo://app?vid=7461bcf7-b969-4f08-b387-af4801dbf891","ios":"levelo://app?vid=7461bcf7-b969-4f08-b387-af4801dbf891"},"vehicle_type_id":"4","last_reported":1748693928,"current_range_meters":15200,"station_id":"ce4bgjh2rcd13ifvqbf0","pricing_plan_id":"cebpf4jnsgd1na2vs0mg"},{"bike_id":"9a189ee8-27ed-444b-b171-f705371af28f","system_id":"levelo_inurba_marseille","lat":43.28257,"lon":5.34908,"is_reserved":false,"is_disabled":false,"rental_uris":{"android":"levelo://app?vid=9a189ee8-27ed-444b-b171-f705371af28f","ios":"levelo://app?vid=9a189ee8-27ed-444b-b171-f705371af28f"},"vehicle_type_id":"4","last_reported":1748693928,"current_range_meters":16400,"station_id":"","pricing_plan_id":"cebpf4jnsgd1na2vs0mg"},{"bike_id":"4634b1a0-27fb-4f28-89df-b2b50c9cbade","system_id":"levelo_inurba_marseille","lat":43.28608,"lon":5.36985,"is_reserved":false,"is_disabled":false,"rental_uris":{"android":"levelo://app?vid=4634b1a0-27fb-4f28-89df-b2b50c9cbade","ios":"levelo://app?vid=4634b1a0-27fb-4f28-89df-b2b50c9cbade"},"vehicle_type_id":"4","last_reported":1748693928,"current_range_meters":16400,"station_id":"","pricing_plan_id":"cebpf4jnsgd1na2vs0mg"},{"bike_id":"65d21794-10b3-49f4-afd8-2d607a21c94c","system_id":"levelo_inurba_marseille","lat":43.26203,"lon":5.37921,"is_reserved":false,"is_disabled":false,"rental_uris":{"android":"levelo://app?vid=65d21794-10b3-49f4-afd8-2d607a21c94c","ios":"levelo://app?vid=65d21794-10b3-49f4-afd8-2d607a21c94c"},"vehicle_type_id":"4","last_reported":1748693928,"current_range_meters":16400,"station_id":"ce4bhjp2rcd13ifvqg90","pricing_plan_id":"cebpf4jnsgd1na2vs0mg"},{"bike_id":"54d444ac-75b8-4499-ae29-4714dcf7ca9e","system_id":"levelo_inurba_marseille","lat":43.2894,"lon":5.36393,"is_reserved":false,"is_disabled":false,"rental_uris":{"android":"levelo://app?vid=54d444ac-75b8-4499-ae29-4714dcf7ca9e","ios":"levelo://app?vid=54d444ac-75b8-4499-ae29-4714dcf7ca9e"},"vehicle_type_id":"4","last_reported":1748693928,"current_range_meters":16400,"station_id":"ce4bhc92rcd13ifvqetg","pricing_plan_id":"cebpf4jnsgd1na2vs0mg"},{"bike_id":"79dc2c4b-de48-43e6-8216-8272ce81eb46","system_id":"levelo_inurba_marseille","lat":43.29898,"lon":5.43668,"is_reserved":false,"is_disabled":false,"rental_uris":{"android":"levelo://app?vid=79dc2c4b-de48-43e6-8216-8272ce81eb46","ios":"levelo://app?vid=79dc2c4b-de48-43e6-8216-8272ce81eb46"},"vehicle_type_id":"4","last_reported":1748693928,"current_range_meters":16000,"station_id":"ce4bhpp2rcd13ifvqhfg","pricing_plan_id":"cebpf4jnsgd1na2vs0mg"},{"bike_id":"eb1e668d-26c6-496e-b983-6b9753e54854","system_id":"levelo_inurba_marseille","lat":43.29199,"lon":5.35799,"is_reserved":false,"is_disabled":false,"rental_uris":{"android":"levelo://app?vid=eb1e668d-26c6-496e-b983-6b9753e54854","ios":"levelo://app?vid=eb1e668d-26c6-496e-b983-6b9753e54854"},"vehicle_type_id":"4","last_reported":1748693928,"current_range_meters":16400,"station_id":"ce4bhb12rcd13ifvqel0","pricing_plan_id":"cebpf4jnsgd1na2vs0mg"},{"bike_id":"2f727641-8372-4e37-b639-88cbef7c9941","system_id":"levelo_inurba_marseille","lat":43.27064,"lon":5.40272,"is_reserved":false,"is_disabled":true,"rental_uris":{"android":"levelo://app?vid=2f727641-8372-4e37-b639-88cbef7c9941","ios":"levelo://app?vid=2f727641-8372-4e37-b639-88cbef7c9941"},"vehicle_type_id":"4","last_reported":1748693928,"current_range_meters":16400,"station_id":"ce4bhk92rcd13ifvqgc0","pricing_plan_id":"cebpf4jnsgd1na2vs0mg"},{"bike_id":"e210be7e-07b8-44d3-ae09-6702f28e2ae8","system_id":"levelo_inurba_marseille","lat":43.25122,"lon":5.39365,"is_reserved":false,"is_disabled":false,"rental_uris":{"android":"levelo://app?vid=e210be7e-07b8-44d3-ae09-6702f28e2ae8","ios":"levelo://app?vid=e210be7e-07b8-44d3-ae09-6702f28e2ae8"},"vehicle_type_id":"4","last_reported":1748693928,"current_range_meters":16400,"station_id":"","pricing_plan_id":"cebpf4jnsgd1na2vs0mg"},{"bike_id":"011117a2-216d-42d8-bc46-4ff9154c1250","system_id":"levelo_inurba_marseille","lat":43.26027,"lon":5.37548,"is_reserved":false,"is_disabled":false,"rental_uris":{"android":"levelo://app?vid=011117a2-216d-42d8-bc46-4ff9154c1250","ios":"levelo://app?vid=011117a2-216d-42d8-bc46-4ff9154c1250"},"vehicle_type_id":"4","last_reported":1748693928,"current_range_meters":16000,"station_id":"ce4bhgh2rcd13ifvqfa0","pricing_plan_id":"cebpf4jnsgd1na2vs0mg"},{"bike_id":"10cccf0e-5e24-4b75-8e4f-e089b2d3e656","system_id":"levelo_inurba_marseille","lat":43.23185,"lon":5.39984,"is_reserved":false,"is_disabled":false,"rental_uris":{"android":"levelo://app?vid=10cccf0e-5e24-4b75-8e4f-e089b2d3e656","ios":"levelo://app?vid=10cccf0e-5e24-4b75-8e4f-e089b2d3e656"},"vehicle_type_id":"4","last_reported":1748693928,"current_range_meters":16400,"station_id":"ce4bhn12rcd13ifvqgqg","pricing_plan_id":"cebpf4jnsgd1na2vs0mg"},{"bike_id":"d9ec35c4-388c-4ab8-ae02-d1cc8b808a2b","system_id":"levelo_inurba_marseille","lat":43.21763,"lon":5.34615,"is_reserved":false,"is_disabled":false,"rental_uris":{"android":"levelo://app?vid=d9ec35c4-388c-4ab8-ae02-d1cc8b808a2b","ios":"levelo://app?vid=d9ec35c4-388c-4ab8-ae02-d1cc8b808a2b"},"vehicle_type_id":"4","last_reported":1748693928,"current_range_meters":16800,"station_id":"st_cvj6r9ubvosntc0bgbag","pricing_plan_id":"cebpf4jnsgd1na2vs0mg"},{"bike_id":"32503fa7-7208-4269-b40f-34ba3dae0f9e","system_id":"levelo_inurba_marseille","lat":43.308688,"lon":5.403702,"is_reserved":false,"is_disabled":false,"rental_uris":{"android":"levelo://app?vid=32503fa7-7208-4269-b40f-34ba3dae0f9e","ios":"levelo://app?vid=32503fa7-7208-4269-b40f-34ba3dae0f9e"},"vehicle_type_id":"4","last_reported":1748693928,"current_range_meters":16800,"station_id":"","pricing_plan_id":"cebpf4jnsgd1na2vs0mg"},{"bike_id":"e7177d95-1523-44fc-8625-8d734cdfb209","system_id":"levelo_inurba_marseille","lat":43.21746,"lon":5.34598,"is_reserved":false,"is_disabled":false,"rental_uris":{"android":"levelo://app?vid=e7177d95-1523-44fc-8625-8d734cdfb209","ios":"levelo://app?vid=e7177d95-1523-44fc-8625-8d734cdfb209"},"vehicle_type_id":"4","last_reported":1748693928,"current_range_meters":16800,"station_id":"st_cvj6r9ubvosntc0bgbag","pricing_plan_id":"cebpf4jnsgd1na2vs0mg"},{"bike_id":"59cc9f64-369b-40a4-aef4-571b231df862","system_id":"levelo_inurba_marseille","lat":43.28099,"lon":5.35206,"is_reserved":false,"is_disabled":false,"rental_uris":{"android":"levelo://app?vid=59cc9f64-369b-40a4-aef4-571b231df862","ios":"levelo://app?vid=59cc9f64-369b-40a4-aef4-571b231df862"},"vehicle_type_id":"4","last_reported":1748693928,"current_range_meters":16800,"station_id":"","pricing_plan_id":"cebpf4jnsgd1na2vs0mg"},{"bike_id":"b433c371-fa62-4ef0-9c6a-19d8581a9331","system_id":"levelo_inurba_marseille","lat":43.281423,"lon":5.381736,"is_reserved":false,"is_disabled":false,"rental_uris":{"android":"levelo://app?vid=b433c371-fa62-4ef0-9c6a-19d8581a9331","ios":"levelo://app?vid=b433c371-fa62-4ef0-9c6a-19d8581a9331"},"vehicle_type_id":"4","last_reported":1748693928,"current_range_meters":16800,"station_id":"","pricing_plan_id":"cebpf4jnsgd1na2vs0mg"},{"bike_id":"0b248cd5-f7f1-4616-ab60-adc75f0b322e","system_id":"levelo_inurba_marseille","lat":43.22501,"lon":5.34786,"is_reserved":false,"is_disabled":false,"rental_uris":{"android":"levelo://app?vid=0b248cd5-f7f1-4616-ab60-adc75f0b322e","ios":"levelo://app?vid=0b248cd5-f7f1-4616-ab60-adc75f0b322e"},"vehicle_type_id":"4","last_reported":1748693928,"current_range_meters":16800,"station_id":"st_cvj5dfep6f1abm77gieg","pricing_plan_id":"cebpf4jnsgd1na2vs0mg"},{"bike_id":"c2c9a056-ac46-4716-b14a-bbd4354c60cf","system_id":"levelo_inurba_marseille","lat":43.231893,"lon":5.355563,"is_reserved":false,"is_disabled":false,"rental_uris":{"android":"levelo://app?vid=c2c9a056-ac46-4716-b14a-bbd4354c60cf","ios":"levelo://app?vid=c2c9a056-ac46-4716-b14a-bbd4354c60cf"},"vehicle_type_id":"4","last_reported":1748693928,"current_range_meters":17200,"station_id":"ce4bhu92rcd13ifvqi70","pricing_plan_id":"cebpf4jnsgd1na2vs0mg"},{"bike_id":"83120baa-5e2f-445c-b3c0-c27db817844a","system_id":"levelo_inurba_marseille","lat":43.24383,"lon":5.37057,"is_reserved":false,"is_disabled":false,"rental_uris":{"android":"levelo://app?vid=83120baa-5e2f-445c-b3c0-c27db817844a","ios":"levelo://app?vid=83120baa-5e2f-445c-b3c0-c27db817844a"},"vehicle_type_id":"4","last_reported":1748693928,"current_range_meters":17200,"station_id":"ce4bhhh2rcd13ifvqfk0","pricing_plan_id":"cebpf4jnsgd1na2vs0mg"},{"bike_id":"f5a90625-b7e8-48a8-90c6-777efe255a32","system_id":"levelo_inurba_marseille","lat":43.25104,"lon":5.40962,"is_reserved":false,"is_disabled":false,"rental_uris":{"android":"levelo://app?vid=f5a90625-b7e8-48a8-90c6-777efe255a32","ios":"levelo://app?vid=f5a90625-b7e8-48a8-90c6-777efe255a32"},"vehicle_type_id":"4","last_reported":1748693928,"current_range_meters":17200,"station_id":"","pricing_plan_id":"cebpf4jnsgd1na2vs0mg"},{"bike_id":"513c66b8-dd4e-48b8-ad3a-5156d540c547","system_id":"levelo_inurba_marseille","lat":43.29714,"lon":5.37694,"is_reserved":false,"is_disabled":false,"rental_uris":{"android":"levelo://app?vid=513c66b8-dd4e-48b8-ad3a-5156d540c547","ios":"levelo://app?vid=513c66b8-dd4e-48b8-ad3a-5156d540c547"},"vehicle_type_id":"4","last_reported":1748693928,"current_range_meters":17200,"station_id":"ce4bgkh2rcd13ifvqbl0","pricing_plan_id":"cebpf4jnsgd1na2vs0mg"},{"bike_id":"4d9035a1-4135-4911-9f5a-65e8a1a4939f","system_id":"levelo_inurba_marseille","lat":43.21747,"lon":5.34598,"is_reserved":false,"is_disabled":false,"rental_uris":{"android":"levelo://app?vid=4d9035a1-4135-4911-9f5a-65e8a1a4939f","ios":"levelo://app?vid=4d9035a1-4135-4911-9f5a-65e8a1a4939f"},"vehicle_type_id":"4","last_reported":1748693928,"current_range_meters":17200,"station_id":"st_cvj6r9ubvosntc0bgbag","pricing_plan_id":"cebpf4jnsgd1na2vs0mg"},{"bike_id":"4c4359de-53be-49b8-b5f9-06e857c5718c","system_id":"levelo_inurba_marseille","lat":43.246904,"lon":5.399502,"is_reserved":false,"is_disabled":false,"rental_uris":{"android":"levelo://app?vid=4c4359de-53be-49b8-b5f9-06e857c5718c","ios":"levelo://app?vid=4c4359de-53be-49b8-b5f9-06e857c5718c"},"vehicle_type_id":"4","last_reported":1748693928,"current_range_meters":17200,"station_id":"","pricing_plan_id":"cebpf4jnsgd1na2vs0mg"},{"bike_id":"9a87b717-f8e2-4016-bc78-03583a62a953","system_id":"levelo_inurba_marseille","lat":43.26577,"lon":5.40336,"is_reserved":false,"is_disabled":false,"rental_uris":{"android":"levelo://app?vid=9a87b717-f8e2-4016-bc78-03583a62a953","ios":"levelo://app?vid=9a87b717-f8e2-4016-bc78-03583a62a953"},"vehicle_type_id":"4","last_reported":1748693928,"current_range_meters":17600,"station_id":"","pricing_plan_id":"cebpf4jnsgd1na2vs0mg"},{"bike_id":"f365caa8-1088-42e4-9d08-18d155792df5","system_id":"levelo_inurba_marseille","lat":43.217545,"lon":5.346089,"is_reserved":false,"is_disabled":false,"rental_uris":{"android":"levelo://app?vid=f365caa8-1088-42e4-9d08-18d155792df5","ios":"levelo://app?vid=f365caa8-1088-42e4-9d08-18d155792df5"},"vehicle_type_id":"4","last_reported":1748693928,"current_range_meters":17600,"station_id":"st_cvj6r9ubvosntc0bgbag","pricing_plan_id":"cebpf4jnsgd1na2vs0mg"},{"bike_id":"04d9466d-772b-4411-a821-e01cfcd178ce","system_id":"levelo_inurba_marseille","lat":43.24169,"lon":5.36395,"is_reserved":false,"is_disabled":false,"rental_uris":{"android":"levelo://app?vid=04d9466d-772b-4411-a821-e01cfcd178ce","ios":"levelo://app?vid=04d9466d-772b-4411-a821-e01cfcd178ce"},"vehicle_type_id":"4","last_reported":1748693928,"current_range_meters":17600,"station_id":"cpo36qri1sfpv3e86is0","pricing_plan_id":"cebpf4jnsgd1na2vs0mg"},{"bike_id":"77c8d843-097d-4a21-9eaf-ceba89e1d972","system_id":"levelo_inurba_marseille","lat":43.241619,"lon":5.363934,"is_reserved":false,"is_disabled":false,"rental_uris":{"android":"levelo://app?vid=77c8d843-097d-4a21-9eaf-ceba89e1d972","ios":"levelo://app?vid=77c8d843-097d-4a21-9eaf-ceba89e1d972"},"vehicle_type_id":"4","last_reported":1748693928,"current_range_meters":17600,"station_id":"cpo36qri1sfpv3e86is0","pricing_plan_id":"cebpf4jnsgd1na2vs0mg"},{"bike_id":"93d5c392-0778-4cad-89ec-024023e88599","system_id":"levelo_inurba_marseille","lat":43.21743,"lon":5.3461,"is_reserved":false,"is_disabled":false,"rental_uris":{"android":"levelo://app?vid=93d5c392-0778-4cad-89ec-024023e88599","ios":"levelo://app?vid=93d5c392-0778-4cad-89ec-024023e88599"},"vehicle_type_id":"4","last_reported":1748693928,"current_range_meters":17600,"station_id":"st_cvj6r9ubvosntc0bgbag","pricing_plan_id":"cebpf4jnsgd1na2vs0mg"},{"bike_id":"77520d45-03bf-4b26-9f9b-8ac6c162ce6b","system_id":"levelo_inurba_marseille","lat":43.243616,"lon":5.411448,"is_reserved":false,"is_disabled":false,"rental_uris":{"android":"levelo://app?vid=77520d45-03bf-4b26-9f9b-8ac6c162ce6b","ios":"levelo://app?vid=77520d45-03bf-4b26-9f9b-8ac6c162ce6b"},"vehicle_type_id":"4","last_reported":1748693928,"current_range_meters":17600,"station_id":"","pricing_plan_id":"cebpf4jnsgd1na2vs0mg"},{"bike_id":"88394dab-750a-4000-a664-329d1611cc61","system_id":"levelo_inurba_marseille","lat":43.21745,"lon":5.34602,"is_reserved":false,"is_disabled":false,"rental_uris":{"android":"levelo://app?vid=88394dab-750a-4000-a664-329d1611cc61","ios":"levelo://app?vid=88394dab-750a-4000-a664-329d1611cc61"},"vehicle_type_id":"4","last_reported":1748693928,"current_range_meters":17600,"station_id":"st_cvj6r9ubvosntc0bgbag","pricing_plan_id":"cebpf4jnsgd1na2vs0mg"},{"bike_id":"56ed4761-a43c-4469-9ea6-f227f320ed7f","system_id":"levelo_inurba_marseille","lat":43.2315,"lon":5.43724,"is_reserved":false,"is_disabled":false,"rental_uris":{"android":"levelo://app?vid=56ed4761-a43c-4469-9ea6-f227f320ed7f","ios":"levelo://app?vid=56ed4761-a43c-4469-9ea6-f227f320ed7f"},"vehicle_type_id":"4","last_reported":1748693928,"current_range_meters":17600,"station_id":"ce4bhmp2rcd13ifvqgog","pricing_plan_id":"cebpf4jnsgd1na2vs0mg"},{"bike_id":"62b02994-5210-426a-980f-6cb47507004d","system_id":"levelo_inurba_marseille","lat":43.29198,"lon":5.36035,"is_reserved":false,"is_disabled":false,"rental_uris":{"android":"levelo://app?vid=62b02994-5210-426a-980f-6cb47507004d","ios":"levelo://app?vid=62b02994-5210-426a-980f-6cb47507004d"},"vehicle_type_id":"4","last_reported":1748693928,"current_range_meters":17600,"station_id":"ce4bhbh2rcd13ifvqeqg","pricing_plan_id":"cebpf4jnsgd1na2vs0mg"},{"bike_id":"3d49a5c2-7134-46cf-bb35-a86663709de6","system_id":"levelo_inurba_marseille","lat":43.28948,"lon":5.36401,"is_reserved":false,"is_disabled":false,"rental_uris":{"android":"levelo://app?vid=3d49a5c2-7134-46cf-bb35-a86663709de6","ios":"levelo://app?vid=3d49a5c2-7134-46cf-bb35-a86663709de6"},"vehicle_type_id":"4","last_reported":1748693928,"current_range_meters":18000,"station_id":"ce4bhc92rcd13ifvqetg","pricing_plan_id":"cebpf4jnsgd1na2vs0mg"},{"bike_id":"f81af539-ec78-40b9-bb0c-6f60cab8d76b","system_id":"levelo_inurba_marseille","lat":43.21749,"lon":5.34589,"is_reserved":false,"is_disabled":false,"rental_uris":{"android":"levelo://app?vid=f81af539-ec78-40b9-bb0c-6f60cab8d76b","ios":"levelo://app?vid=f81af539-ec78-40b9-bb0c-6f60cab8d76b"},"vehicle_type_id":"4","last_reported":1748693928,"current_range_meters":18000,"station_id":"st_cvj6r9ubvosntc0bgbag","pricing_plan_id":"cebpf4jnsgd1na2vs0mg"},{"bike_id":"5d6afee9-4d2e-43ba-b697-77394f1156a3","system_id":"levelo_inurba_marseille","lat":43.29034,"lon":5.35912,"is_reserved":false,"is_disabled":false,"rental_uris":{"android":"levelo://app?vid=5d6afee9-4d2e-43ba-b697-77394f1156a3","ios":"levelo://app?vid=5d6afee9-4d2e-43ba-b697-77394f1156a3"},"vehicle_type_id":"4","last_reported":1748693928,"current_range_meters":18000,"station_id":"ce4bha92rcd13ifvqeg0","pricing_plan_id":"cebpf4jnsgd1na2vs0mg"},{"bike_id":"5a436b3c-3791-4f88-abc0-5dc61bfc571d","system_id":"levelo_inurba_marseille","lat":43.29787,"lon":5.37095,"is_reserved":false,"is_disabled":false,"rental_uris":{"android":"levelo://app?vid=5a436b3c-3791-4f88-abc0-5dc61bfc571d","ios":"levelo://app?vid=5a436b3c-3791-4f88-abc0-5dc61bfc571d"},"vehicle_type_id":"4","last_reported":1748693928,"current_range_meters":17600,"station_id":"ce4bgop2rcd13ifvqc1g","pricing_plan_id":"cebpf4jnsgd1na2vs0mg"},{"bike_id":"cf99540e-56c9-47fd-bb37-414f9e70e2e8","system_id":"levelo_inurba_marseille","lat":43.29843,"lon":5.36293,"is_reserved":false,"is_disabled":false,"rental_uris":{"android":"levelo://app?vid=cf99540e-56c9-47fd-bb37-414f9e70e2e8","ios":"levelo://app?vid=cf99540e-56c9-47fd-bb37-414f9e70e2e8"},"vehicle_type_id":"4","last_reported":1748693928,"current_range_meters":18000,"station_id":"ce4bgpp2rcd13ifvqc3g","pricing_plan_id":"cebpf4jnsgd1na2vs0mg"},{"bike_id":"1e60c35d-5a7a-4b9c-a5d6-944ac48cc260","system_id":"levelo_inurba_marseille","lat":43.29036,"lon":5.38646,"is_reserved":false,"is_disabled":false,"rental_uris":{"android":"levelo://app?vid=1e60c35d-5a7a-4b9c-a5d6-944ac48cc260","ios":"levelo://app?vid=1e60c35d-5a7a-4b9c-a5d6-944ac48cc260"},"vehicle_type_id":"4","last_reported":1748693928,"current_range_meters":18000,"station_id":"ce4bh4p2rcd13ifvqe0g","pricing_plan_id":"cebpf4jnsgd1na2vs0mg"},{"bike_id":"1d263f10-9721-4d26-a29f-a3f07fb70da2","system_id":"levelo_inurba_marseille","lat":43.30609,"lon":5.37231,"is_reserved":false,"is_disabled":false,"rental_uris":{"android":"levelo://app?vid=1d263f10-9721-4d26-a29f-a3f07fb70da2","ios":"levelo://app?vid=1d263f10-9721-4d26-a29f-a3f07fb70da2"},"vehicle_type_id":"4","last_reported":1748693928,"current_range_meters":18000,"station_id":"","pricing_plan_id":"cebpf4jnsgd1na2vs0mg"},{"bike_id":"56c27787-6e09-4c37-adcf-e37557169f4a","system_id":"levelo_inurba_marseille","lat":43.290775,"lon":5.371689,"is_reserved":false,"is_disabled":false,"rental_uris":{"android":"levelo://app?vid=56c27787-6e09-4c37-adcf-e37557169f4a","ios":"levelo://app?vid=56c27787-6e09-4c37-adcf-e37557169f4a"},"vehicle_type_id":"4","last_reported":1748693928,"current_range_meters":18000,"station_id":"ce4bh5p2rcd13ifvqe4g","pricing_plan_id":"cebpf4jnsgd1na2vs0mg"},{"bike_id":"829412e5-1063-41b5-891d-c0e4b1ceb0e2","system_id":"levelo_inurba_marseille","lat":43.28271,"lon":5.35061,"is_reserved":false,"is_disabled":false,"rental_uris":{"android":"levelo://app?vid=829412e5-1063-41b5-891d-c0e4b1ceb0e2","ios":"levelo://app?vid=829412e5-1063-41b5-891d-c0e4b1ceb0e2"},"vehicle_type_id":"4","last_reported":1748693928,"current_range_meters":18000,"station_id":"ce4bhbp2rcd13ifvqerg","pricing_plan_id":"cebpf4jnsgd1na2vs0mg"},{"bike_id":"52138315-f13b-4871-ab78-9e5155a1008c","system_id":"levelo_inurba_marseille","lat":43.322888,"lon":5.382634,"is_reserved":false,"is_disabled":false,"rental_uris":{"android":"levelo://app?vid=52138315-f13b-4871-ab78-9e5155a1008c","ios":"levelo://app?vid=52138315-f13b-4871-ab78-9e5155a1008c"},"vehicle_type_id":"4","last_reported":1748693928,"current_range_meters":18000,"station_id":"ce4bhr12rcd13ifvqhqg","pricing_plan_id":"cebpf4jnsgd1na2vs0mg"},{"bike_id":"c319417c-4b61-4a2f-b2cd-1ff58f3f859d","system_id":"levelo_inurba_marseille","lat":43.29697,"lon":5.37292,"is_reserved":false,"is_disabled":false,"rental_uris":{"android":"levelo://app?vid=c319417c-4b61-4a2f-b2cd-1ff58f3f859d","ios":"levelo://app?vid=c319417c-4b61-4a2f-b2cd-1ff58f3f859d"},"vehicle_type_id":"4","last_reported":1748693928,"current_range_meters":18000,"station_id":"ce4bgk12rcd13ifvqbj0","pricing_plan_id":"cebpf4jnsgd1na2vs0mg"},{"bike_id":"6578478f-d104-4cd6-bfb0-80e5cad41a4c","system_id":"levelo_inurba_marseille","lat":43.23193,"lon":5.39989,"is_reserved":false,"is_disabled":false,"rental_uris":{"android":"levelo://app?vid=6578478f-d104-4cd6-bfb0-80e5cad41a4c","ios":"levelo://app?vid=6578478f-d104-4cd6-bfb0-80e5cad41a4c"},"vehicle_type_id":"4","last_reported":1748693928,"current_range_meters":18000,"station_id":"ce4bhn12rcd13ifvqgqg","pricing_plan_id":"cebpf4jnsgd1na2vs0mg"},{"bike_id":"788b90c6-2084-4eb3-bb08-4e058b371f4b","system_id":"levelo_inurba_marseille","lat":43.26211,"lon":5.37439,"is_reserved":false,"is_disabled":false,"rental_uris":{"android":"levelo://app?vid=788b90c6-2084-4eb3-bb08-4e058b371f4b","ios":"levelo://app?vid=788b90c6-2084-4eb3-bb08-4e058b371f4b"},"vehicle_type_id":"4","last_reported":1748693928,"current_range_meters":18800,"station_id":"ce4bhgp2rcd13ifvqfc0","pricing_plan_id":"cebpf4jnsgd1na2vs0mg"},{"bike_id":"e8eca7f3-9bb0-477a-adcc-f2bde2b56bd6","system_id":"levelo_inurba_marseille","lat":43.27377,"lon":5.36258,"is_reserved":false,"is_disabled":false,"rental_uris":{"android":"levelo://app?vid=e8eca7f3-9bb0-477a-adcc-f2bde2b56bd6","ios":"levelo://app?vid=e8eca7f3-9bb0-477a-adcc-f2bde2b56bd6"},"vehicle_type_id":"4","last_reported":1748693928,"current_range_meters":18800,"station_id":"ce4bhbh2rcd13ifvqeo0","pricing_plan_id":"cebpf4jnsgd1na2vs0mg"},{"bike_id":"37da63eb-922c-43a2-a033-1797e8a35c14","system_id":"levelo_inurba_marseille","lat":43.27927,"lon":5.39594,"is_reserved":false,"is_disabled":false,"rental_uris":{"android":"levelo://app?vid=37da63eb-922c-43a2-a033-1797e8a35c14","ios":"levelo://app?vid=37da63eb-922c-43a2-a033-1797e8a35c14"},"vehicle_type_id":"4","last_reported":1748693928,"current_range_meters":18800,"station_id":"ce4bhf92rcd13ifvqf40","pricing_plan_id":"cebpf4jnsgd1na2vs0mg"},{"bike_id":"cb0bfac2-c2d3-4d9e-8e37-bb9beda6d44a","system_id":"levelo_inurba_marseille","lat":43.2119,"lon":5.35072,"is_reserved":false,"is_disabled":false,"rental_uris":{"android":"levelo://app?vid=cb0bfac2-c2d3-4d9e-8e37-bb9beda6d44a","ios":"levelo://app?vid=cb0bfac2-c2d3-4d9e-8e37-bb9beda6d44a"},"vehicle_type_id":"4","last_reported":1748693928,"current_range_meters":18800,"station_id":"st_cvj6sg6p6f1abm77japg","pricing_plan_id":"cebpf4jnsgd1na2vs0mg"},{"bike_id":"0cd0f35a-8fb8-4853-b498-8b85d9daafee","system_id":"levelo_inurba_marseille","lat":43.21201,"lon":5.35102,"is_reserved":false,"is_disabled":false,"rental_uris":{"android":"levelo://app?vid=0cd0f35a-8fb8-4853-b498-8b85d9daafee","ios":"levelo://app?vid=0cd0f35a-8fb8-4853-b498-8b85d9daafee"},"vehicle_type_id":"4","last_reported":1748693928,"current_range_meters":18800,"station_id":"st_cvj6sg6p6f1abm77japg","pricing_plan_id":"cebpf4jnsgd1na2vs0mg"},{"bike_id":"18fa9a24-85b2-4d2f-986e-4e414af349d9","system_id":"levelo_inurba_marseille","lat":43.21748,"lon":5.34601,"is_reserved":false,"is_disabled":false,"rental_uris":{"android":"levelo://app?vid=18fa9a24-85b2-4d2f-986e-4e414af349d9","ios":"levelo://app?vid=18fa9a24-85b2-4d2f-986e-4e414af349d9"},"vehicle_type_id":"4","last_reported":1748693928,"current_range_meters":18800,"station_id":"st_cvj6r9ubvosntc0bgbag","pricing_plan_id":"cebpf4jnsgd1na2vs0mg"},{"bike_id":"92bf34cb-321f-489c-b278-b49ef3204b97","system_id":"levelo_inurba_marseille","lat":43.23964,"lon":5.36634,"is_reserved":false,"is_disabled":false,"rental_uris":{"android":"levelo://app?vid=92bf34cb-321f-489c-b278-b49ef3204b97","ios":"levelo://app?vid=92bf34cb-321f-489c-b278-b49ef3204b97"},"vehicle_type_id":"4","last_reported":1748693928,"current_range_meters":18800,"station_id":"ce4bhi12rcd13ifvqfp0","pricing_plan_id":"cebpf4jnsgd1na2vs0mg"},{"bike_id":"2f650bb1-6027-4191-83d2-16315820a0a7","system_id":"levelo_inurba_marseille","lat":43.30013,"lon":5.37322,"is_reserved":false,"is_disabled":false,"rental_uris":{"android":"levelo://app?vid=2f650bb1-6027-4191-83d2-16315820a0a7","ios":"levelo://app?vid=2f650bb1-6027-4191-83d2-16315820a0a7"},"vehicle_type_id":"4","last_reported":1748693928,"current_range_meters":18800,"station_id":"","pricing_plan_id":"cebpf4jnsgd1na2vs0mg"},{"bike_id":"c8025895-7adb-49b0-b3ee-9ddae26ac437","system_id":"levelo_inurba_marseille","lat":43.29998,"lon":5.37144,"is_reserved":false,"is_disabled":false,"rental_uris":{"android":"levelo://app?vid=c8025895-7adb-49b0-b3ee-9ddae26ac437","ios":"levelo://app?vid=c8025895-7adb-49b0-b3ee-9ddae26ac437"},"vehicle_type_id":"4","last_reported":1748693928,"current_range_meters":19200,"station_id":"ce4bgr92rcd13ifvqc7g","pricing_plan_id":"cebpf4jnsgd1na2vs0mg"},{"bike_id":"77521ad0-6381-4c44-9981-ebf90a850956","system_id":"levelo_inurba_marseille","lat":43.27585,"lon":5.37786,"is_reserved":false,"is_disabled":false,"rental_uris":{"android":"levelo://app?vid=77521ad0-6381-4c44-9981-ebf90a850956","ios":"levelo://app?vid=77521ad0-6381-4c44-9981-ebf90a850956"},"vehicle_type_id":"4","last_reported":1748693928,"current_range_meters":19200,"station_id":"","pricing_plan_id":"cebpf4jnsgd1na2vs0mg"},{"bike_id":"04bd1dfb-00b3-41d8-9a49-0ec41ec690df","system_id":"levelo_inurba_marseille","lat":43.30781,"lon":5.37641,"is_reserved":false,"is_disabled":false,"rental_uris":{"android":"levelo://app?vid=04bd1dfb-00b3-41d8-9a49-0ec41ec690df","ios":"levelo://app?vid=04bd1dfb-00b3-41d8-9a49-0ec41ec690df"},"vehicle_type_id":"4","last_reported":1748693928,"current_range_meters":19200,"station_id":"ce4bgv92rcd13ifvqcq0","pricing_plan_id":"cebpf4jnsgd1na2vs0mg"},{"bike_id":"58937c05-a12e-4dcc-a859-474459fa2a09","system_id":"levelo_inurba_marseille","lat":43.28697,"lon":5.37384,"is_reserved":false,"is_disabled":false,"rental_uris":{"android":"levelo://app?vid=58937c05-a12e-4dcc-a859-474459fa2a09","ios":"levelo://app?vid=58937c05-a12e-4dcc-a859-474459fa2a09"},"vehicle_type_id":"4","last_reported":1748693928,"current_range_meters":19200,"station_id":"ce4bh3p2rcd13ifvqdq0","pricing_plan_id":"cebpf4jnsgd1na2vs0mg"},{"bike_id":"b452de5e-ffc4-40f9-bde0-5f12f7d76c7f","system_id":"levelo_inurba_marseille","lat":43.28724,"lon":5.36101,"is_reserved":false,"is_disabled":false,"rental_uris":{"android":"levelo://app?vid=b452de5e-ffc4-40f9-bde0-5f12f7d76c7f","ios":"levelo://app?vid=b452de5e-ffc4-40f9-bde0-5f12f7d76c7f"},"vehicle_type_id":"4","last_reported":1748693928,"current_range_meters":19200,"station_id":"cki0cbj6b192h4jlfktg","pricing_plan_id":"cebpf4jnsgd1na2vs0mg"},{"bike_id":"b8cd38f1-e16c-42e3-b289-c6ba0fd31338","system_id":"levelo_inurba_marseille","lat":43.30553,"lon":5.36525,"is_reserved":false,"is_disabled":false,"rental_uris":{"android":"levelo://app?vid=b8cd38f1-e16c-42e3-b289-c6ba0fd31338","ios":"levelo://app?vid=b8cd38f1-e16c-42e3-b289-c6ba0fd31338"},"vehicle_type_id":"4","last_reported":1748693928,"current_range_meters":19200,"station_id":"ce4bgs12rcd13ifvqcag","pricing_plan_id":"cebpf4jnsgd1na2vs0mg"},{"bike_id":"06d84860-65e0-4134-b6ad-1e0fe5ddc0d6","system_id":"levelo_inurba_marseille","lat":43.25706,"lon":5.37686,"is_reserved":false,"is_disabled":false,"rental_uris":{"android":"levelo://app?vid=06d84860-65e0-4134-b6ad-1e0fe5ddc0d6","ios":"levelo://app?vid=06d84860-65e0-4134-b6ad-1e0fe5ddc0d6"},"vehicle_type_id":"4","last_reported":1748693928,"current_range_meters":19200,"station_id":"","pricing_plan_id":"cebpf4jnsgd1na2vs0mg"},{"bike_id":"b8a13ef2-f75f-43cc-b6c5-56549b3ab028","system_id":"levelo_inurba_marseille","lat":43.2319,"lon":5.35532,"is_reserved":false,"is_disabled":false,"rental_uris":{"android":"levelo://app?vid=b8a13ef2-f75f-43cc-b6c5-56549b3ab028","ios":"levelo://app?vid=b8a13ef2-f75f-43cc-b6c5-56549b3ab028"},"vehicle_type_id":"4","last_reported":1748693928,"current_range_meters":19600,"station_id":"ce4bhu92rcd13ifvqi70","pricing_plan_id":"cebpf4jnsgd1na2vs0mg"},{"bike_id":"da95f25b-27df-45f4-ae30-9fbde1b4f1a5","system_id":"levelo_inurba_marseille","lat":43.29624,"lon":5.40591,"is_reserved":false,"is_disabled":false,"rental_uris":{"android":"levelo://app?vid=da95f25b-27df-45f4-ae30-9fbde1b4f1a5","ios":"levelo://app?vid=da95f25b-27df-45f4-ae30-9fbde1b4f1a5"},"vehicle_type_id":"4","last_reported":1748693928,"current_range_meters":19600,"station_id":"","pricing_plan_id":"cebpf4jnsgd1na2vs0mg"},{"bike_id":"049d89f2-a275-4623-b00e-488039c707ca","system_id":"levelo_inurba_marseille","lat":43.26035,"lon":5.37543,"is_reserved":false,"is_disabled":false,"rental_uris":{"android":"levelo://app?vid=049d89f2-a275-4623-b00e-488039c707ca","ios":"levelo://app?vid=049d89f2-a275-4623-b00e-488039c707ca"},"vehicle_type_id":"4","last_reported":1748693928,"current_range_meters":19600,"station_id":"ce4bhgh2rcd13ifvqfa0","pricing_plan_id":"cebpf4jnsgd1na2vs0mg"},{"bike_id":"089e56f6-6830-4e81-a5d0-2f1506350941","system_id":"levelo_inurba_marseille","lat":43.321112,"lon":5.367718,"is_reserved":false,"is_disabled":false,"rental_uris":{"android":"levelo://app?vid=089e56f6-6830-4e81-a5d0-2f1506350941","ios":"levelo://app?vid=089e56f6-6830-4e81-a5d0-2f1506350941"},"vehicle_type_id":"4","last_reported":1748693928,"current_range_meters":19600,"station_id":"ce4bhrh2rcd13ifvqhug","pricing_plan_id":"cebpf4jnsgd1na2vs0mg"},{"bike_id":"448538d2-0e7f-4c96-8500-b0a60b5f5887","system_id":"levelo_inurba_marseille","lat":43.2861,"lon":5.35106,"is_reserved":false,"is_disabled":false,"rental_uris":{"android":"levelo://app?vid=448538d2-0e7f-4c96-8500-b0a60b5f5887","ios":"levelo://app?vid=448538d2-0e7f-4c96-8500-b0a60b5f5887"},"vehicle_type_id":"4","last_reported":1748693928,"current_range_meters":19600,"station_id":"ce4bhch2rcd13ifvqeug","pricing_plan_id":"cebpf4jnsgd1na2vs0mg"},{"bike_id":"190aefaa-3d5e-49d5-821b-ae05a74feff8","system_id":"levelo_inurba_marseille","lat":43.29222,"lon":5.36076,"is_reserved":false,"is_disabled":false,"rental_uris":{"android":"levelo://app?vid=190aefaa-3d5e-49d5-821b-ae05a74feff8","ios":"levelo://app?vid=190aefaa-3d5e-49d5-821b-ae05a74feff8"},"vehicle_type_id":"4","last_reported":1748693928,"current_range_meters":20000,"station_id":"ce4bhbh2rcd13ifvqeqg","pricing_plan_id":"cebpf4jnsgd1na2vs0mg"},