{"last_updated":1728058340,"ttl":60,"version":"2.2","data":{"bikes":[{"bike_id":"506be927-a9d1-4731-a39d-2cfd452e98eb","system_id":"levelo_inurba_marseille","lat":43.32037,"lon":5.4155,"is_reserved":false,"is_disabled":false,"rental_uris":{"android":"levelo://app?vid=506be927-a9d1-4731-a39d-2cfd452e98eb","ios":"levelo://app?vid=506be927-a9d1-4731-a39d-2cfd452e98eb"},"vehicle_type_id":"4","last_reported":1728058341,"current_range_meters":21600,"station_id":"ce4bhq92rcd13ifvqhkg","pricing_plan_id":"cebpf4jnsgd1na2vs0mg"},{"bike_id":"40ddeb56-afeb-414a-b821-3ce837b2f039","system_id":"levelo_inurba_marseille","lat":43.32353,"lon":5.38888,"is_reserved":false,"is_disabled":false,"rental_uris":{"android":"levelo://app?vid=40ddeb56-afeb-414a-b821-3ce837b2f039","ios":"levelo://app?vid=40ddeb56-afeb-414a-b821-3ce837b2f039"},"vehicle_type_id":"4","last_reported":1728058341,"current_range_meters":35200,"station_id":"ce4bhqp2rcd13ifvqhog","pricing_plan_id":"cebpf4jnsgd1na2vs0mg"},{"bike_id":"7d14ffcd-701f-423c-995d-258cdca29bd1","system_id":"levelo_inurba_marseille","lat":43.3199,"lon":5.38152,"is_reserved":false,"is_disabled":false,"rental_uris":{"android":"levelo://app?vid=7d14ffcd-701f-423c-995d-258cdca29bd1","ios":"levelo://app?vid=7d14ffcd-701f-423c-995d-258cdca29bd1"},"vehicle_type_id":"4","last_reported":1728058341,"current_range_meters":26000,"station_id":"ce4bhr12rcd13ifvqhpg","pricing_plan_id":"cebpf4jnsgd1na2vs0mg"},{"bike_id":"32e2c902-4ecc-4821-8b31-a5546c26e345","system_id":"levelo_inurba_marseille","lat":43.31147,"lon":5.38769,"is_reserved":false,"is_disabled":false,"rental_uris":{"android":"levelo://app?vid=32e2c902-4ecc-4821-8b31-a5546c26e345","ios":"levelo://app?vid=32e2c902-4ecc-4821-8b31-a5546c26e345"},"vehicle_type_id":"4","last_reported":1728058341,"current_range_meters":37600,"station_id":"ce4bgv12rcd13ifvqcp0","pricing_plan_id":"cebpf4jnsgd1na2vs0mg"},{"bike_id":"0ab31a2b-100e-46ba-8518-e3de7fc7122e","system_id":"levelo_inurba_marseille","lat":43.3375,"lon":5.37445,"is_reserved":false,"is_disabled":false,"rental_uris":{"android":"levelo://app?vid=0ab31a2b-100e-46ba-8518-e3de7fc7122e","ios":"levelo://app?vid=0ab31a2b-100e-46ba-8518-e3de7fc7122e"},"vehicle_type_id":"4","last_reported":1728058341,"current_range_meters":37600,"station_id":"","pricing_plan_id":"cebpf4jnsgd1na2vs0mg"},{"bike_id":"7f528f9c-e10d-4310-b1e8-1156af8894a5","system_id":"levelo_inurba_marseille","lat":43.25084,"lon":5.39517,"is_reserved":false,"is_disabled":false,"rental_uris":{"android":"levelo://app?vid=7f528f9c-e10d-4310-b1e8-1156af8894a5","ios":"levelo://app?vid=7f528f9c-e10d-4310-b1e8-1156af8894a5"},"vehicle_type_id":"4","last_reported":1728058341,"current_range_meters":14800,"station_id":"ce4bhm12rcd13ifvqgkg","pricing_plan_id":"cebpf4jnsgd1na2vs0mg"},{"bike_id":"756088e4-bd38-4606-aa6f-cbbf1461af00","system_id":"levelo_inurba_marseille","lat":43.22936,"lon":5.35378,"is_reserved":false,"is_disabled":false,"rental_uris":{"android":"levelo://app?vid=756088e4-bd38-4606-aa6f-cbbf1461af00","ios":"levelo://app?vid=756088e4-bd38-4606-aa6f-cbbf1461af00"},"vehicle_type_id":"4","last_reported":1728058341,"current_range_meters":11600,"station_id":"cpo3532slgdg3j2ikp40","pricing_plan_id":"cebpf4jnsgd1na2vs0mg"},{"bike_id":"c3158434-4a40-4a2c-8d7d-93509809c972","system_id":"levelo_inurba_marseille","lat":43.296,"lon":5.38103,"is_reserved":false,"is_disabled":false,"rental_uris":{"android":"levelo://app?vid=c3158434-4a40-4a2c-8d7d-93509809c972","ios":"levelo://app?vid=c3158434-4a40-4a2c-8d7d-93509809c972"},"vehicle_type_id":"4","last_reported":1728058341,"current_range_meters":14400,"station_id":"ce4bgl12rcd13ifvqbo0","pricing_plan_id":"cebpf4jnsgd1na2vs0mg"},{"bike_id":"16a7453d-5033-40ec-9ebd-f083fd49f903","system_id":"levelo_inurba_marseille","lat":43.31492,"lon":5.37311,"is_reserved":false,"is_disabled":false,"rental_uris":{"android":"levelo://app?vid=16a7453d-5033-40ec-9ebd-f083fd49f903","ios":"levelo://app?vid=16a7453d-5033-40ec-9ebd-f083fd49f903"},"vehicle_type_id":"4","last_reported":1728058341,"current_range_meters":36000,"station_id":"ce4bgt12rcd13ifvqcd0","pricing_plan_id":"cebpf4jnsgd1na2vs0mg"},{"bike_id":"d953d6f2-12fd-4d19-928e-37dae3a5a642","system_id":"levelo_inurba_marseille","lat":43.30433,"lon":5.38894,"is_reserved":false,"is_disabled":false,"rental_uris":{"android":"levelo://app?vid=d953d6f2-12fd-4d19-928e-37dae3a5a642","ios":"levelo://app?vid=d953d6f2-12fd-4d19-928e-37dae3a5a642"},"vehicle_type_id":"4","last_reported":1728058341,"current_range_meters":6800,"station_id":"ce4bgk12rcd13ifvqbi0","pricing_plan_id":"cebpf4jnsgd1na2vs0mg"},{"bike_id":"c372b49c-ddbc-432f-a28f-dafa03f6420f","system_id":"levelo_inurba_marseille","lat":43.30249,"lon":5.400759,"is_reserved":false,"is_disabled":false,"rental_uris":{"android":"levelo://app?vid=c372b49c-ddbc-432f-a28f-dafa03f6420f","ios":"levelo://app?vid=c372b49c-ddbc-432f-a28f-dafa03f6420f"},"vehicle_type_id":"4","last_reported":1728058341,"current_range_meters":15200,"station_id":"ce4bgvh2rcd13ifvqcs0","pricing_plan_id":"cebpf4jnsgd1na2vs0mg"},{"bike_id":"2b2b8537-230e-445a-bfe1-618d6ee428c4","system_id":"levelo_inurba_marseille","lat":43.28363,"lon":5.38649,"is_reserved":false,"is_disabled":false,"rental_uris":{"android":"levelo://app?vid=2b2b8537-230e-445a-bfe1-618d6ee428c4","ios":"levelo://app?vid=2b2b8537-230e-445a-bfe1-618d6ee428c4"},"vehicle_type_id":"4","last_reported":1728058341,"current_range_meters":16000,"station_id":"ce4bh492rcd13ifvqdvg","pricing_plan_id":"cebpf4jnsgd1na2vs0mg"},{"bike_id":"2d3e76d7-3579-45ed-ae45-f686e9283e1b","system_id":"levelo_inurba_marseille","lat":43.28735,"lon":5.36084,"is_reserved":false,"is_disabled":false,"rental_uris":{"android":"levelo://app?vid=2d3e76d7-3579-45ed-ae45-f686e9283e1b","ios":"levelo://app?vid=2d3e76d7-3579-45ed-ae45-f686e9283e1b"},"vehicle_type_id":"4","last_reported":1728058341,"current_range_meters":8000,"station_id":"cki0cbj6b192h4jlfktg","pricing_plan_id":"cebpf4jnsgd1na2vs0mg"},{"bike_id":"826c6069-7043-464a-97a9-803bb40b1add","system_id":"levelo_inurba_marseille","lat":43.27198,"lon":5.40996,"is_reserved":false,"is_disabled":false,"rental_uris":{"android":"levelo://app?vid=826c6069-7043-464a-97a9-803bb40b1add","ios":"levelo://app?vid=826c6069-7043-464a-97a9-803bb40b1add"},"vehicle_type_id":"4","last_reported":1728058341,"current_range_meters":38800,"station_id":"ce4bhl12rcd13ifvqgf0","pricing_plan_id":"cebpf4jnsgd1na2vs0mg"},{"bike_id":"04847ddc-cb3d-450b-98b0-eff546943d08","system_id":"levelo_inurba_marseille","lat":43.301819,"lon":5.397818,"is_reserved":false,"is_disabled":false,"rental_uris":{"android":"levelo://app?vid=04847ddc-cb3d-450b-98b0-eff546943d08","ios":"levelo://app?vid=04847ddc-cb3d-450b-98b0-eff546943d08"},"vehicle_type_id":"4","last_reported":1728058341,"current_range_meters":23200,"station_id":"ce4bh0h2rcd13ifvqd40","pricing_plan_id":"cebpf4jnsgd1na2vs0mg"},{"bike_id":"85a9e6a4-b1a0-4b4b-8442-b841cbbb277a","system_id":"levelo_inurba_marseille","lat":43.29301,"lon":5.37453,"is_reserved":false,"is_disabled":false,"rental_uris":{"android":"levelo://app?vid=85a9e6a4-b1a0-4b4b-8442-b841cbbb277a","ios":"levelo://app?vid=85a9e6a4-b1a0-4b4b-8442-b841cbbb277a"},"vehicle_type_id":"4","last_reported":1728058341,"current_range_meters":14000,"station_id":"ce4bgi12rcd13ifvqb70","pricing_plan_id":"cebpf4jnsgd1na2vs0mg"},{"bike_id":"cb92aba5-4872-4e7f-a488-965e8c3995a3","system_id":"levelo_inurba_marseille","lat":43.29895,"lon":5.43665,"is_reserved":false,"is_disabled":false,"rental_uris":{"android":"levelo://app?vid=cb92aba5-4872-4e7f-a488-965e8c3995a3","ios":"levelo://app?vid=cb92aba5-4872-4e7f-a488-965e8c3995a3"},"vehicle_type_id":"4","last_reported":1728058341,"current_range_meters":31200,"station_id":"ce4bhpp2rcd13ifvqhfg","pricing_plan_id":"cebpf4jnsgd1na2vs0mg"},{"bike_id":"4ad08bd1-867a-4f86-ba23-2306b2e9d545","system_id":"levelo_inurba_marseille","lat":43.28004,"lon":5.40008,"is_reserved":false,"is_disabled":false,"rental_uris":{"android":"levelo://app?vid=4ad08bd1-867a-4f86-ba23-2306b2e9d545","ios":"levelo://app?vid=4ad08bd1-867a-4f86-ba23-2306b2e9d545"},"vehicle_type_id":"4","last_reported":1728058341,"current_range_meters":38800,"station_id":"","pricing_plan_id":"cebpf4jnsgd1na2vs0mg"},{"bike_id":"5c2a8f15-517d-44a8-8899-b5494f8a5f31","system_id":"levelo_inurba_marseille","lat":43.29302,"lon":5.37173,"is_reserved":false,"is_disabled":false,"rental_uris":{"android":"levelo://app?vid=5c2a8f15-517d-44a8-8899-b5494f8a5f31","ios":"levelo://app?vid=5c2a8f15-517d-44a8-8899-b5494f8a5f31"},"vehicle_type_id":"4","last_reported":1728058341,"current_range_meters":38800,"station_id":"ce4bgh92rcd13ifvqb40","pricing_plan_id":"cebpf4jnsgd1na2vs0mg"},{"bike_id":"bbe16d9f-1398-4ae8-9389-fdd330196eb0","system_id":"levelo_inurba_marseille","lat":43.28429,"lon":5.34996,"is_reserved":false,"is_disabled":false,"rental_uris":{"android":"levelo://app?vid=bbe16d9f-1398-4ae8-9389-fdd330196eb0","ios":"levelo://app?vid=bbe16d9f-1398-4ae8-9389-fdd330196eb0"},"vehicle_type_id":"4","last_reported":1728058341,"current_range_meters":38800,"station_id":"ce4bhbh2rcd13ifvqepg","pricing_plan_id":"cebpf4jnsgd1na2vs0mg"},{"bike_id":"e6b2df58-b4a0-4aec-933d-a62e42f34d34","system_id":"levelo_inurba_marseille","lat":43.33732,"lon":5.39194,"is_reserved":false,"is_disabled":false,"rental_uris":{"android":"levelo://app?vid=e6b2df58-b4a0-4aec-933d-a62e42f34d34","ios":"levelo://app?vid=e6b2df58-b4a0-4aec-933d-a62e42f34d34"},"vehicle_type_id":"4","last_reported":1728058341,"current_range_meters":18800,"station_id":"ce4bhr92rcd13ifvqhsg","pricing_plan_id":"cebpf4jnsgd1na2vs0mg"},{"bike_id":"d77938b7-ff1e-465c-a8b9-4b07085a5cc9","system_id":"levelo_inurba_marseille","lat":43.2307,"lon":5.35496,"is_reserved":false,"is_disabled":false,"rental_uris":{"android":"levelo://app?vid=d77938b7-ff1e-465c-a8b9-4b07085a5cc9","ios":"levelo://app?vid=d77938b7-ff1e-465c-a8b9-4b07085a5cc9"},"vehicle_type_id":"4","last_reported":1728058341,"current_range_meters":18800,"station_id":"cpo3342slgdg3j2ifvpg","pricing_plan_id":"cebpf4jnsgd1na2vs0mg"},{"bike_id":"69c4eb56-058e-4af1-b352-7ce95220b25e","system_id":"levelo_inurba_marseille","lat":43.33772,"lon":5.37433,"is_reserved":false,"is_disabled":false,"rental_uris":{"android":"levelo://app?vid=69c4eb56-058e-4af1-b352-7ce95220b25e","ios":"levelo://app?vid=69c4eb56-058e-4af1-b352-7ce95220b25e"},"vehicle_type_id":"4","last_reported":1728058341,"current_range_meters":38000,"station_id":"","pricing_plan_id":"cebpf4jnsgd1na2vs0mg"},{"bike_id":"f3fb0b60-ecd1-4c34-ace0-30bbdae6ef53","system_id":"levelo_inurba_marseille","lat":43.3133,"lon":5.39688,"is_reserved":false,"is_disabled":false,"rental_uris":{"android":"levelo://app?vid=f3fb0b60-ecd1-4c34-ace0-30bbdae6ef53","ios":"levelo://app?vid=f3fb0b60-ecd1-4c34-ace0-30bbdae6ef53"},"vehicle_type_id":"4","last_reported":1728058341,"current_range_meters":15200,"station_id":"ce4bgvp2rcd13ifvqcu0","pricing_plan_id":"cebpf4jnsgd1na2vs0mg"},{"bike_id":"b5b18430-59a6-470a-8e49-26e0e646325a","system_id":"levelo_inurba_marseille","lat":43.29912,"lon":5.38133,"is_reserved":false,"is_disabled":false,"rental_uris":{"android":"levelo://app?vid=b5b18430-59a6-470a-8e49-26e0e646325a","ios":"levelo://app?vid=b5b18430-59a6-470a-8e49-26e0e646325a"},"vehicle_type_id":"4","last_reported":1728058341,"current_range_meters":26800,"station_id":"ce4bgj12rcd13ifvqbc0","pricing_plan_id":"cebpf4jnsgd1na2vs0mg"},{"bike_id":"04e42e1d-c78d-4150-8446-7452d898559e","system_id":"levelo_inurba_marseille","lat":43.27226,"lon":5.3626,"is_reserved":false,"is_disabled":false,"rental_uris":{"android":"levelo://app?vid=04e42e1d-c78d-4150-8446-7452d898559e","ios":"levelo://app?vid=04e42e1d-c78d-4150-8446-7452d898559e"},"vehicle_type_id":"4","last_reported":1728058341,"current_range_meters":21600,"station_id":"","pricing_plan_id":"cebpf4jnsgd1na2vs0mg"},{"bike_id":"566a9cf0-f209-4c9f-9e1e-a43a024de395","system_id":"levelo_inurba_marseille","lat":43.27379,"lon":5.36248,"is_reserved":false,"is_disabled":false,"rental_uris":{"android":"levelo://app?vid=566a9cf0-f209-4c9f-9e1e-a43a024de395","ios":"levelo://app?vid=566a9cf0-f209-4c9f-9e1e-a43a024de395"},"vehicle_type_id":"4","last_reported":1728058341,"current_range_meters":25200,"station_id":"ce4bhbh2rcd13ifvqeo0","pricing_plan_id":"cebpf4jnsgd1na2vs0mg"},{"bike_id":"b73551f1-4737-42f3-8efd-5f2fca843848","system_id":"levelo_inurba_marseille","lat":43.29907,"lon":5.43681,"is_reserved":false,"is_disabled":false,"rental_uris":{"android":"levelo://app?vid=b73551f1-4737-42f3-8efd-5f2fca843848","ios":"levelo://app?vid=b73551f1-4737-42f3-8efd-5f2fca843848"},"vehicle_type_id":"4","last_reported":1728058341,"current_range_meters":17200,"station_id":"ce4bhpp2rcd13ifvqhfg","pricing_plan_id":"cebpf4jnsgd1na2vs0mg"},{"bike_id":"8cbcbce5-76c7-479a-bb54-ab697e3b28de","system_id":"levelo_inurba_marseille","lat":43.2945,"lon":5.43352,"is_reserved":false,"is_disabled":false,"rental_uris":{"android":"levelo://app?vid=8cbcbce5-76c7-479a-bb54-ab697e3b28de","ios":"levelo://app?vid=8cbcbce5-76c7-479a-bb54-ab697e3b28de"},"vehicle_type_id":"4","last_reported":1728058341,"current_range_meters":9600,"station_id":"ce4bhpp2rcd13ifvqhfg","pricing_plan_id":"cebpf4jnsgd1na2vs0mg"},{"bike_id":"45c73878-b9e1-43d5-ba10-d1146f8a842e","system_id":"levelo_inurba_marseille","lat":43.28942,"lon":5.36638,"is_reserved":false,"is_disabled":false,"rental_uris":{"android":"levelo://app?vid=45c73878-b9e1-43d5-ba10-d1146f8a842e","ios":"levelo://app?vid=45c73878-b9e1-43d5-ba10-d1146f8a842e"},"vehicle_type_id":"4","last_reported":1728058341,"current_range_meters":2800,"station_id":"ce4bgl92rcd13ifvqbq0","pricing_plan_id":"cebpf4jnsgd1na2vs0mg"},{"bike_id":"ab37fb53-d8b8-4300-b42f-93c8d62f66d6","system_id":"levelo_inurba_marseille","lat":43.29601,"lon":5.38104,"is_reserved":false,"is_disabled":false,"rental_uris":{"android":"levelo://app?vid=ab37fb53-d8b8-4300-b42f-93c8d62f66d6","ios":"levelo://app?vid=ab37fb53-d8b8-4300-b42f-93c8d62f66d6"},"vehicle_type_id":"4","last_reported":1728058341,"current_range_meters":36400,"station_id":"ce4bgl12rcd13ifvqbo0","pricing_plan_id":"cebpf4jnsgd1na2vs0mg"},{"bike_id":"86a59fdf-5419-4bd8-a9ed-c91c60731103","system_id":"levelo_inurba_marseille","lat":43.303061,"lon":5.379093,"is_reserved":false,"is_disabled":false,"rental_uris":{"android":"levelo://app?vid=86a59fdf-5419-4bd8-a9ed-c91c60731103","ios":"levelo://app?vid=86a59fdf-5419-4bd8-a9ed-c91c60731103"},"vehicle_type_id":"4","last_reported":1728058341,"current_range_meters":16800,"station_id":"","pricing_plan_id":"cebpf4jnsgd1na2vs0mg"},{"bike_id":"6590b25a-356b-4736-8d7a-c0a745654953","system_id":"levelo_inurba_marseille","lat":43.27947,"lon":5.4105,"is_reserved":false,"is_disabled":false,"rental_uris":{"android":"levelo://app?vid=6590b25a-356b-4736-8d7a-c0a745654953","ios":"levelo://app?vid=6590b25a-356b-4736-8d7a-c0a745654953"},"vehicle_type_id":"4","last_reported":1728058341,"current_range_meters":28400,"station_id":"ce4bhnp2rcd13ifvqh0g","pricing_plan_id":"cebpf4jnsgd1na2vs0mg"},{"bike_id":"8eeff7ae-60b7-4a1c-bbb3-e5909bcac5b2","system_id":"levelo_inurba_marseille","lat":43.30419,"lon":5.41287,"is_reserved":false,"is_disabled":false,"rental_uris":{"android":"levelo://app?vid=8eeff7ae-60b7-4a1c-bbb3-e5909bcac5b2","ios":"levelo://app?vid=8eeff7ae-60b7-4a1c-bbb3-e5909bcac5b2"},"vehicle_type_id":"4","last_reported":1728058341,"current_range_meters":6400,"station_id":"ce4bhop2rcd13ifvqh8g","pricing_plan_id":"cebpf4jnsgd1na2vs0mg"},{"bike_id":"b8217c8f-92a4-47e6-96fc-626571965d9c","system_id":"levelo_inurba_marseille","lat":43.29677,"lon":5.37285,"is_reserved":false,"is_disabled":false,"rental_uris":{"android":"levelo://app?vid=b8217c8f-92a4-47e6-96fc-626571965d9c","ios":"levelo://app?vid=b8217c8f-92a4-47e6-96fc-626571965d9c"},"vehicle_type_id":"4","last_reported":1728058341,"current_range_meters":35200,"station_id":"ce4bgk12rcd13ifvqbj0","pricing_plan_id":"cebpf4jnsgd1na2vs0mg"},{"bike_id":"6102bacc-0bb3-4c79-854a-2d4ec81b21c1","system_id":"levelo_inurba_marseille","lat":43.31724,"lon":5.42396,"is_reserved":false,"is_disabled":false,"rental_uris":{"android":"levelo://app?vid=6102bacc-0bb3-4c79-854a-2d4ec81b21c1","ios":"levelo://app?vid=6102bacc-0bb3-4c79-854a-2d4ec81b21c1"},"vehicle_type_id":"4","last_reported":1728058341,"current_range_meters":39200,"station_id":"ce4bhp92rcd13ifvqhbg","pricing_plan_id":"cebpf4jnsgd1na2vs0mg"},{"bike_id":"ea6e224a-a4c4-4a22-bf99-cf98122402ea","system_id":"levelo_inurba_marseille","lat":43.30133,"lon":5.39864,"is_reserved":false,"is_disabled":false,"rental_uris":{"android":"levelo://app?vid=ea6e224a-a4c4-4a22-bf99-cf98122402ea","ios":"levelo://app?vid=ea6e224a-a4c4-4a22-bf99-cf98122402ea"},"vehicle_type_id":"4","last_reported":1728058341,"current_range_meters":4800,"station_id":"ce4bh0h2rcd13ifvqd40","pricing_plan_id":"cebpf4jnsgd1na2vs0mg"},{"bike_id":"6f9ea692-b854-4466-8783-f86828c11080","system_id":"levelo_inurba_marseille","lat":43.3254,"lon":5.41449,"is_reserved":false,"is_disabled":false,"rental_uris":{"android":"levelo://app?vid=6f9ea692-b854-4466-8783-f86828c11080","ios":"levelo://app?vid=6f9ea692-b854-4466-8783-f86828c11080"},"vehicle_type_id":"4","last_reported":1728058341,"current_range_meters":39200,"station_id":"ce4bhq12rcd13ifvqhhg","pricing_plan_id":"cebpf4jnsgd1na2vs0mg"},{"bike_id":"35347ff9-1df5-4143-a126-6d01f12fc425","system_id":"levelo_inurba_marseille","lat":43.28616,"lon":5.37072,"is_reserved":false,"is_disabled":false,"rental_uris":{"android":"levelo://app?vid=35347ff9-1df5-4143-a126-6d01f12fc425","ios":"levelo://app?vid=35347ff9-1df5-4143-a126-6d01f12fc425"},"vehicle_type_id":"4","last_reported":1728058341,"current_range_meters":7200,"station_id":"ce4bht12rcd13ifvqi60","pricing_plan_id":"cebpf4jnsgd1na2vs0mg"},{"bike_id":"f214cf31-2934-4d86-be30-3a2665d3d269","system_id":"levelo_inurba_marseille","lat":43.28422,"lon":5.3499,"is_reserved":false,"is_disabled":false,"rental_uris":{"android":"levelo://app?vid=f214cf31-2934-4d86-be30-3a2665d3d269","ios":"levelo://app?vid=f214cf31-2934-4d86-be30-3a2665d3d269"},"vehicle_type_id":"4","last_reported":1728058341,"current_range_meters":20400,"station_id":"ce4bhbh2rcd13ifvqepg","pricing_plan_id":"cebpf4jnsgd1na2vs0mg"},{"bike_id":"a9080e9e-b054-43d8-994c-a9d66e6c85a4","system_id":"levelo_inurba_marseille","lat":43.32367,"lon":5.38879,"is_reserved":false,"is_disabled":false,"rental_uris":{"android":"levelo://app?vid=a9080e9e-b054-43d8-994c-a9d66e6c85a4","ios":"levelo://app?vid=a9080e9e-b054-43d8-994c-a9d66e6c85a4"},"vehicle_type_id":"4","last_reported":1728058341,"current_range_meters":24000,"station_id":"ce4bhqp2rcd13ifvqhog","pricing_plan_id":"cebpf4jnsgd1na2vs0mg"},{"bike_id":"9ced3692-6a88-4498-8d1a-9e86b8958b28","system_id":"levelo_inurba_marseille","lat":43.30017,"lon":5.38755,"is_reserved":false,"is_disabled":false,"rental_uris":{"android":"levelo://app?vid=9ced3692-6a88-4498-8d1a-9e86b8958b28","ios":"levelo://app?vid=9ced3692-6a88-4498-8d1a-9e86b8958b28"},"vehicle_type_id":"4","last_reported":1728058341,"current_range_meters":3200,"station_id":"ce4bgs92rcd13ifvqcc0","pricing_plan_id":"cebpf4jnsgd1na2vs0mg"},{"bike_id":"e08c062f-61a2-493a-875d-6e296e2965d6","system_id":"levelo_inurba_marseille","lat":43.33756,"lon":5.37452,"is_reserved":false,"is_disabled":false,"rental_uris":{"android":"levelo://app?vid=e08c062f-61a2-493a-875d-6e296e2965d6","ios":"levelo://app?vid=e08c062f-61a2-493a-875d-6e296e2965d6"},"vehicle_type_id":"4","last_reported":1728058341,"current_range_meters":34000,"station_id":"","pricing_plan_id":"cebpf4jnsgd1na2vs0mg"},{"bike_id":"d2940846-8984-465b-bbaa-9e158fa700fd","system_id":"levelo_inurba_marseille","lat":43.23969,"lon":5.36636,"is_reserved":false,"is_disabled":false,"rental_uris":{"android":"levelo://app?vid=d2940846-8984-465b-bbaa-9e158fa700fd","ios":"levelo://app?vid=d2940846-8984-465b-bbaa-9e158fa700fd"},"vehicle_type_id":"4","last_reported":1728058341,"current_range_meters":21600,"station_id":"ce4bhi12rcd13ifvqfp0","pricing_plan_id":"cebpf4jnsgd1na2vs0mg"},{"bike_id":"c12c32d7-ec93-4232-a8a9-81c464d0fa43","system_id":"levelo_inurba_marseille","lat":43.30416,"lon":5.41285,"is_reserved":false,"is_disabled":false,"rental_uris":{"android":"levelo://app?vid=c12c32d7-ec93-4232-a8a9-81c464d0fa43","ios":"levelo://app?vid=c12c32d7-ec93-4232-a8a9-81c464d0fa43"},"vehicle_type_id":"4","last_reported":1728058341,"current_range_meters":8800,"station_id":"ce4bhop2rcd13ifvqh8g","pricing_plan_id":"cebpf4jnsgd1na2vs0mg"},{"bike_id":"7e4dac90-f5d4-4387-a844-2cc819cf7412","system_id":"levelo_inurba_marseille","lat":43.29274,"lon":5.40114,"is_reserved":false,"is_disabled":false,"rental_uris":{"android":"levelo://app?vid=7e4dac90-f5d4-4387-a844-2cc819cf7412","ios":"levelo://app?vid=7e4dac90-f5d4-4387-a844-2cc819cf7412"},"vehicle_type_id":"4","last_reported":1728058341,"current_range_meters":28400,"station_id":"ce4bh312rcd13ifvqdk0","pricing_plan_id":"cebpf4jnsgd1na2vs0mg"},{"bike_id":"c640e211-ce8b-4598-a45c-f38ca28fe1a4","system_id":"levelo_inurba_marseille","lat":43.31328,"lon":5.3969,"is_reserved":false,"is_disabled":false,"rental_uris":{"android":"levelo://app?vid=c640e211-ce8b-4598-a45c-f38ca28fe1a4","ios":"levelo://app?vid=c640e211-ce8b-4598-a45c-f38ca28fe1a4"},"vehicle_type_id":"4","last_reported":1728058341,"current_range_meters":10800,"station_id":"ce4bgvp2rcd13ifvqcu0","pricing_plan_id":"cebpf4jnsgd1na2vs0mg"},{"bike_id":"36fa01c4-1005-4dd2-9462-82136ac04e52","system_id":"levelo_inurba_marseille","lat":43.23966,"lon":5.36631,"is_reserved":false,"is_disabled":false,"rental_uris":{"android":"levelo://app?vid=36fa01c4-1005-4dd2-9462-82136ac04e52","ios":"levelo://app?vid=36fa01c4-1005-4dd2-9462-82136ac04e52"},"vehicle_type_id":"4","last_reported":1728058341,"current_range_meters":3600,"station_id":"ce4bhi12rcd13ifvqfp0","pricing_plan_id":"cebpf4jnsgd1na2vs0mg"},{"bike_id":"3f471ad9-f9f2-4849-b4b8-2d175a0e6f1d","system_id":"levelo_inurba_marseille","lat":43.28611,"lon":5.35103,"is_reserved":false,"is_disabled":false,"rental_uris":{"android":"levelo://app?vid=3f471ad9-f9f2-4849-b4b8-2d175a0e6f1d","ios":"levelo://app?vid=3f471ad9-f9f2-4849-b4b8-2d175a0e6f1d"},"vehicle_type_id":"4","last_reported":1728058341,"current_range_meters":8000,"station_id":"ce4bhch2rcd13ifvqeug","pricing_plan_id":"cebpf4jnsgd1na2vs0mg"},{"bike_id":"fd872ba7-9877-4e67-9269-d8995abba644","system_id":"levelo_inurba_marseille","lat":43.22936,"lon":5.35378,"is_reserved":false,"is_disabled":false,"rental_uris":{"android":"levelo://app?vid=fd872ba7-9877-4e67-9269-d8995abba644","ios":"levelo://app?vid=fd872ba7-9877-4e67-9269-d8995abba644"},"vehicle_type_id":"4","last_reported":1728058341,"current_range_meters":19200,"station_id":"cpo3532slgdg3j2ikp40","pricing_plan_id":"cebpf4jnsgd1na2vs0mg"},{"bike_id":"44e35401-1287-4e5a-a48d-ce6f5d673420","system_id":"levelo_inurba_marseille","lat":43.29621,"lon":5.38104,"is_reserved":false,"is_disabled":false,"rental_uris":{"android":"levelo://app?vid=44e35401-1287-4e5a-a48d-ce6f5d673420","ios":"levelo://app?vid=44e35401-1287-4e5a-a48d-ce6f5d673420"},"vehicle_type_id":"4","last_reported":1728058341,"current_range_meters":8000,"station_id":"ce4bgl12rcd13ifvqbo0","pricing_plan_id":"cebpf4jnsgd1na2vs0mg"},{"bike_id":"d952b48a-2bae-4eb8-a7e3-3f112f8e757b","system_id":"levelo_inurba_marseille","lat":43.26218,"lon":5.37442,"is_reserved":false,"is_disabled":false,"rental_uris":{"android":"levelo://app?vid=d952b48a-2bae-4eb8-a7e3-3f112f8e757b","ios":"levelo://app?vid=d952b48a-2bae-4eb8-a7e3-3f112f8e757b"},"vehicle_type_id":"4","last_reported":1728058341,"current_range_meters":20400,"station_id":"ce4bhgp2rcd13ifvqfc0","pricing_plan_id":"cebpf4jnsgd1na2vs0mg"},{"bike_id":"846a8fcc-4d2f-40a1-b5b3-3ed21b16d93e","system_id":"levelo_inurba_marseille","lat":43.28611,"lon":5.37067,"is_reserved":false,"is_disabled":false,"rental_uris":{"android":"levelo://app?vid=846a8fcc-4d2f-40a1-b5b3-3ed21b16d93e","ios":"levelo://app?vid=846a8fcc-4d2f-40a1-b5b3-3ed21b16d93e"},"vehicle_type_id":"4","last_reported":1728058341,"current_range_meters":25200,"station_id":"ce4bht12rcd13ifvqi60","pricing_plan_id":"cebpf4jnsgd1na2vs0mg"},{"bike_id":"a4223774-082b-44f0-ac0e-51dfe1b1e772","system_id":"levelo_inurba_marseille","lat":43.31495,"lon":5.37312,"is_reserved":false,"is_disabled":false,"rental_uris":{"android":"levelo://app?vid=a4223774-082b-44f0-ac0e-51dfe1b1e772","ios":"levelo://app?vid=a4223774-082b-44f0-ac0e-51dfe1b1e772"},"vehicle_type_id":"4","last_reported":1728058341,"current_range_meters":35600,"station_id":"ce4bgt12rcd13ifvqcd0","pricing_plan_id":"cebpf4jnsgd1na2vs0mg"},{"bike_id":"878d4383-546c-4705-8ea2-efe1952219d9","system_id":"levelo_inurba_marseille","lat":43.2991,"lon":5.37472,"is_reserved":false,"is_disabled":false,"rental_uris":{"android":"levelo://app?vid=878d4383-546c-4705-8ea2-efe1952219d9","ios":"levelo://app?vid=878d4383-546c-4705-8ea2-efe1952219d9"},"vehicle_type_id":"4","last_reported":1728058341,"current_range_meters":30000,"station_id":"ce4bgjh2rcd13ifvqbg0","pricing_plan_id":"cebpf4jnsgd1na2vs0mg"},{"bike_id":"1cf311fc-8ecc-43e2-a7a5-a0b7c79f4001","system_id":"levelo_inurba_marseille","lat":43.28615,"lon":5.35104,"is_reserved":false,"is_disabled":false,"rental_uris":{"android":"levelo://app?vid=1cf311fc-8ecc-43e2-a7a5-a0b7c79f4001","ios":"levelo://app?vid=1cf311fc-8ecc-43e2-a7a5-a0b7c79f4001"},"vehicle_type_id":"4","last_reported":1728058341,"current_range_meters":27200,"station_id":"ce4bhch2rcd13ifvqeug","pricing_plan_id":"cebpf4jnsgd1na2vs0mg"},{"bike_id":"6a6d8ccf-8060-4013-a68a-b578e86c78e3","system_id":"levelo_inurba_marseille","lat":43.29717,"lon":5.37698,"is_reserved":false,"is_disabled":false,"rental_uris":{"android":"levelo://app?vid=6a6d8ccf-8060-4013-a68a-b578e86c78e3","ios":"levelo://app?vid=6a6d8ccf-8060-4013-a68a-b578e86c78e3"},"vehicle_type_id":"4","last_reported":1728058341,"current_range_meters":31200,"station_id":"ce4bgkh2rcd13ifvqbl0","pricing_plan_id":"cebpf4jnsgd1na2vs0mg"},{"bike_id":"f36f5f45-0e07-46d0-89d6-5d25abe1e53f","system_id":"levelo_inurba_marseille","lat":43.33022,"lon":5.39042,"is_reserved":false,"is_disabled":false,"rental_uris":{"android":"levelo://app?vid=f36f5f45-0e07-46d0-89d6-5d25abe1e53f","ios":"levelo://app?vid=f36f5f45-0e07-46d0-89d6-5d25abe1e53f"},"vehicle_type_id":"4","last_reported":1728058341,"current_range_meters":23200,"station_id":"ce4bhr92rcd13ifvqhrg","pricing_plan_id":"cebpf4jnsgd1na2vs0mg"},{"bike_id":"50e6aeb8-7e25-4c09-9781-24c9f5d23dff","system_id":"levelo_inurba_marseille","lat":43.33761,"lon":5.37453,"is_reserved":false,"is_disabled":false,"rental_uris":{"android":"levelo://app?vid=50e6aeb8-7e25-4c09-9781-24c9f5d23dff","ios":"levelo://app?vid=50e6aeb8-7e25-4c09-9781-24c9f5d23dff"},"vehicle_type_id":"4","last_reported":1728058341,"current_range_meters":32000,"station_id":"","pricing_plan_id":"cebpf4jnsgd1na2vs0mg"},{"bike_id":"b7bcd165-9a8c-4a48-9c22-f02fdf118c85","system_id":"levelo_inurba_marseille","lat":43.284058,"lon":5.375074,"is_reserved":false,"is_disabled":false,"rental_uris":{"android":"levelo://app?vid=b7bcd165-9a8c-4a48-9c22-f02fdf118c85","ios":"levelo://app?vid=b7bcd165-9a8c-4a48-9c22-f02fdf118c85"},"vehicle_type_id":"4","last_reported":1728058341,"current_range_meters":7200,"station_id":"ce4bh412rcd13ifvqds0","pricing_plan_id":"cebpf4jnsgd1na2vs0mg"},{"bike_id":"76bf7ddb-b293-4c01-91a8-808855b87398","system_id":"levelo_inurba_marseille","lat":43.24654,"lon":5.38896,"is_reserved":false,"is_disabled":false,"rental_uris":{"android":"levelo://app?vid=76bf7ddb-b293-4c01-91a8-808855b87398","ios":"levelo://app?vid=76bf7ddb-b293-4c01-91a8-808855b87398"},"vehicle_type_id":"4","last_reported":1728058341,"current_range_meters":20400,"station_id":"ce4bhip2rcd13ifvqft0","pricing_plan_id":"cebpf4jnsgd1na2vs0mg"},{"bike_id":"af31dfb6-dfe7-4fee-beda-0955f9768496","system_id":"levelo_inurba_marseille","lat":43.29359,"lon":5.37849,"is_reserved":false,"is_disabled":false,"rental_uris":{"android":"levelo://app?vid=af31dfb6-dfe7-4fee-beda-0955f9768496","ios":"levelo://app?vid=af31dfb6-dfe7-4fee-beda-0955f9768496"},"vehicle_type_id":"4","last_reported":1728058341,"current_range_meters":20000,"station_id":"ce4bgjh2rcd13ifvqbf0","pricing_plan_id":"cebpf4jnsgd1na2vs0mg"},{"bike_id":"5f1e6470-0b38-4320-ade2-13b6be7ceaf5","system_id":"levelo_inurba_marseille","lat":43.29622,"lon":5.3773,"is_reserved":false,"is_disabled":false,"rental_uris":{"android":"levelo://app?vid=5f1e6470-0b38-4320-ade2-13b6be7ceaf5","ios":"levelo://app?vid=5f1e6470-0b38-4320-ade2-13b6be7ceaf5"},"vehicle_type_id":"4","last_reported":1728058341,"current_range_meters":8800,"station_id":"ce4bgi92rcd13ifvqb90","pricing_plan_id":"cebpf4jnsgd1na2vs0mg"},{"bike_id":"166e3348-9679-4e6e-9add-7357dfdbb1ad","system_id":"levelo_inurba_marseille","lat":43.29783,"lon":5.37111,"is_reserved":false,"is_disabled":false,"rental_uris":{"android":"levelo://app?vid=166e3348-9679-4e6e-9add-7357dfdbb1ad","ios":"levelo://app?vid=166e3348-9679-4e6e-9add-7357dfdbb1ad"},"vehicle_type_id":"4","last_reported":1728058341,"current_range_meters":38800,"station_id":"ce4bgop2rcd13ifvqc1g","pricing_plan_id":"cebpf4jnsgd1na2vs0mg"},{"bike_id":"25b78fa2-3809-454e-bafc-195a6ad18db0","system_id":"levelo_inurba_marseille","lat":43.31487,"lon":5.37309,"is_reserved":false,"is_disabled":false,"rental_uris":{"android":"levelo://app?vid=25b78fa2-3809-454e-bafc-195a6ad18db0","ios":"levelo://app?vid=25b78fa2-3809-454e-bafc-195a6ad18db0"},"vehicle_type_id":"4","last_reported":1728058341,"current_range_meters":36800,"station_id":"ce4bgt12rcd13ifvqcd0","pricing_plan_id":"cebpf4jnsgd1na2vs0mg"},{"bike_id":"2b80bbb4-b029-40e3-9af0-506a43a0fb67","system_id":"levelo_inurba_marseille","lat":43.24998,"lon":5.38936,"is_reserved":false,"is_disabled":false,"rental_uris":{"android":"levelo://app?vid=2b80bbb4-b029-40e3-9af0-506a43a0fb67","ios":"levelo://app?vid=2b80bbb4-b029-40e3-9af0-506a43a0fb67"},"vehicle_type_id":"4","last_reported":1728058341,"current_range_meters":24800,"station_id":"ce4bhgp2rcd13ifvqfd0","pricing_plan_id":"cebpf4jnsgd1na2vs0mg"},{"bike_id":"6ce60676-3f86-4aaa-a5df-572436c32ad4","system_id":"levelo_inurba_marseille","lat":43.23193,"lon":5.35545,"is_reserved":false,"is_disabled":false,"rental_uris":{"android":"levelo://app?vid=6ce60676-3f86-4aaa-a5df-572436c32ad4","ios":"levelo://app?vid=6ce60676-3f86-4aaa-a5df-572436c32ad4"},"vehicle_type_id":"4","last_reported":1728058341,"current_range_meters":14000,"station_id":"ce4bhu92rcd13ifvqi70","pricing_plan_id":"cebpf4jnsgd1na2vs0mg"},{"bike_id":"23d23fc1-e4ba-4775-9dab-3f543ed73c3e","system_id":"levelo_inurba_marseille","lat":43.30775,"lon":5.4353,"is_reserved":false,"is_disabled":false,"rental_uris":{"android":"levelo://app?vid=23d23fc1-e4ba-4775-9dab-3f543ed73c3e","ios":"levelo://app?vid=23d23fc1-e4ba-4775-9dab-3f543ed73c3e"},"vehicle_type_id":"4","last_reported":1728058341,"current_range_meters":3600,"station_id":"ce4bhph2rcd13ifvqheg","pricing_plan_id":"cebpf4jnsgd1na2vs0mg"},{"bike_id":"fd54381f-fe44-40da-b058-94a86155b5cf","system_id":"levelo_inurba_marseille","lat":43.29274,"lon":5.38455,"is_reserved":false,"is_disabled":false,"rental_uris":{"android":"levelo://app?vid=fd54381f-fe44-40da-b058-94a86155b5cf","ios":"levelo://app?vid=fd54381f-fe44-40da-b058-94a86155b5cf"},"vehicle_type_id":"4","last_reported":1728058341,"current_range_meters":10000,"station_id":"ce4bh692rcd13ifvqea0","pricing_plan_id":"cebpf4jnsgd1na2vs0mg"},{"bike_id":"31ecef33-6b86-4cac-a246-a2a9caabd920","system_id":"levelo_inurba_marseille","lat":43.29725,"lon":5.37688,"is_reserved":false,"is_disabled":false,"rental_uris":{"android":"levelo://app?vid=31ecef33-6b86-4cac-a246-a2a9caabd920","ios":"levelo://app?vid=31ecef33-6b86-4cac-a246-a2a9caabd920"},"vehicle_type_id":"4","last_reported":1728058341,"current_range_meters":3200,"station_id":"ce4bgkh2rcd13ifvqbl0","pricing_plan_id":"cebpf4jnsgd1na2vs0mg"},{"bike_id":"9703ce0f-15e3-4fa0-9ac4-71f9eb8c8f09","system_id":"levelo_inurba_marseille","lat":43.28426,"lon":5.34978,"is_reserved":false,"is_disabled":false,"rental_uris":{"android":"levelo://app?vid=9703ce0f-15e3-4fa0-9ac4-71f9eb8c8f09","ios":"levelo://app?vid=9703ce0f-15e3-4fa0-9ac4-71f9eb8c8f09"},"vehicle_type_id":"4","last_reported":1728058341,"current_range_meters":10800,"station_id":"ce4bhbh2rcd13ifvqepg","pricing_plan_id":"cebpf4jnsgd1na2vs0mg"},{"bike_id":"97f9f9f6-b560-4bb1-94c3-0e727d2a4c1b","system_id":"levelo_inurba_marseille","lat":43.30807,"lon":5.43523,"is_reserved":false,"is_disabled":false,"rental_uris":{"android":"levelo://app?vid=97f9f9f6-b560-4bb1-94c3-0e727d2a4c1b","ios":"levelo://app?vid=97f9f9f6-b560-4bb1-94c3-0e727d2a4c1b"},"vehicle_type_id":"4","last_reported":1728058341,"current_range_meters":17600,"station_id":"ce4bhph2rcd13ifvqheg","pricing_plan_id":"cebpf4jnsgd1na2vs0mg"},{"bike_id":"22fc4c1e-709c-4b01-8f56-2f50fb76e361","system_id":"levelo_inurba_marseille","lat":43.32659,"lon":5.40996,"is_reserved":false,"is_disabled":false,"rental_uris":{"android":"levelo://app?vid=22fc4c1e-709c-4b01-8f56-2f50fb76e361","ios":"levelo://app?vid=22fc4c1e-709c-4b01-8f56-2f50fb76e361"},"vehicle_type_id":"4","last_reported":1728058341,"current_range_meters":24400,"station_id":"ce4bhpp2rcd13ifvqhgg","pricing_plan_id":"cebpf4jnsgd1na2vs0mg"},{"bike_id":"ac491eed-1fef-4832-b4ca-d42b5b54f337","system_id":"levelo_inurba_marseille","lat":43.28423,"lon":5.34988,"is_reserved":false,"is_disabled":false,"rental_uris":{"android":"levelo://app?vid=ac491eed-1fef-4832-b4ca-d42b5b54f337","ios":"levelo://app?vid=ac491eed-1fef-4832-b4ca-d42b5b54f337"},"vehicle_type_id":"4","last_reported":1728058341,"current_range_meters":36400,"station_id":"ce4bhbh2rcd13ifvqepg","pricing_plan_id":"cebpf4jnsgd1na2vs0mg"},{"bike_id":"bb5f5452-4b9b-417d-b148-b396a874f3d9","system_id":"levelo_inurba_marseille","lat":43.33763,"lon":5.37452,"is_reserved":false,"is_disabled":false,"rental_uris":{"android":"levelo://app?vid=bb5f5452-4b9b-417d-b148-b396a874f3d9","ios":"levelo://app?vid=bb5f5452-4b9b-417d-b148-b396a874f3d9"},"vehicle_type_id":"4","last_reported":1728058341,"current_range_meters":36400,"station_id":"","pricing_plan_id":"cebpf4jnsgd1na2vs0mg"},{"bike_id":"a9b9c5e8-c2d5-4873-a26d-fb5513e5b1a4","system_id":"levelo_inurba_marseille","lat":43.26059,"lon":5.39402,"is_reserved":false,"is_disabled":false,"rental_uris":{"android":"levelo://app?vid=a9b9c5e8-c2d5-4873-a26d-fb5513e5b1a4","ios":"levelo://app?vid=a9b9c5e8-c2d5-4873-a26d-fb5513e5b1a4"},"vehicle_type_id":"4","last_reported":1728058341,"current_range_meters":2800,"station_id":"ce4bhh92rcd13ifvqfj0","pricing_plan_id":"cebpf4jnsgd1na2vs0mg"},{"bike_id":"364c6e35-9ac3-4ea6-b01b-b6a378366ce5","system_id":"levelo_inurba_marseille","lat":43.25092,"lon":5.39517,"is_reserved":false,"is_disabled":false,"rental_uris":{"android":"levelo://app?vid=364c6e35-9ac3-4ea6-b01b-b6a378366ce5","ios":"levelo://app?vid=364c6e35-9ac3-4ea6-b01b-b6a378366ce5"},"vehicle_type_id":"4","last_reported":1728058341,"current_range_meters":4400,"station_id":"ce4bhm12rcd13ifvqgkg","pricing_plan_id":"cebpf4jnsgd1na2vs0mg"},{"bike_id":"d7a0298f-5c2b-438d-ab05-5d6a7ac83160","system_id":"levelo_inurba_marseille","lat":43.30795,"lon":5.4353,"is_reserved":false,"is_disabled":false,"rental_uris":{"android":"levelo://app?vid=d7a0298f-5c2b-438d-ab05-5d6a7ac83160","ios":"levelo://app?vid=d7a0298f-5c2b-438d-ab05-5d6a7ac83160"},"vehicle_type_id":"4","last_reported":1728058341,"current_range_meters":38800,"station_id":"ce4bhph2rcd13ifvqheg","pricing_plan_id":"cebpf4jnsgd1na2vs0mg"},{"bike_id":"f63cd0b2-834b-4640-814a-4db969865f19","system_id":"levelo_inurba_marseille","lat":43.30144,"lon":5.37407,"is_reserved":false,"is_disabled":false,"rental_uris":{"android":"levelo://app?vid=f63cd0b2-834b-4640-814a-4db969865f19","ios":"levelo://app?vid=f63cd0b2-834b-4640-814a-4db969865f19"},"vehicle_type_id":"4","last_reported":1728058341,"current_range_meters":32400,"station_id":"ce4bgs92rcd13ifvqcc0","pricing_plan_id":"cebpf4jnsgd1na2vs0mg"},{"bike_id":"1ee3305f-fc89-443e-b910-425eebfc3b8c","system_id":"levelo_inurba_marseille","lat":43.26063,"lon":5.39395,"is_reserved":false,"is_disabled":false,"rental_uris":{"android":"levelo://app?vid=1ee3305f-fc89-443e-b910-425eebfc3b8c","ios":"levelo://app?vid=1ee3305f-fc89-443e-b910-425eebfc3b8c"},"vehicle_type_id":"4","last_reported":1728058341,"current_range_meters":10000,"station_id":"ce4bhh92rcd13ifvqfj0","pricing_plan_id":"cebpf4jnsgd1na2vs0mg"},{"bike_id":"59bf3051-a141-4b2f-9c98-63a67aa1fef3","system_id":"levelo_inurba_marseille","lat":43.272156,"lon":5.390855,"is_reserved":false,"is_disabled":false,"rental_uris":{"android":"levelo://app?vid=59bf3051-a141-4b2f-9c98-63a67aa1fef3","ios":"levelo://app?vid=59bf3051-a141-4b2f-9c98-63a67aa1fef3"},"vehicle_type_id":"4","last_reported":1728058341,"current_range_meters":2800,"station_id":"ce4bhhp2rcd13ifvqfm0","pricing_plan_id":"cebpf4jnsgd1na2vs0mg"},{"bike_id":"b10c30a0-b259-422f-868e-13ec51bde383","system_id":"levelo_inurba_marseille","lat":43.29031,"lon":5.37567,"is_reserved":false,"is_disabled":false,"rental_uris":{"android":"levelo://app?vid=b10c30a0-b259-422f-868e-13ec51bde383","ios":"levelo://app?vid=b10c30a0-b259-422f-868e-13ec51bde383"},"vehicle_type_id":"4","last_reported":1728058341,"current_range_meters":22400,"station_id":"ce4bh692rcd13ifvqe90","pricing_plan_id":"cebpf4jnsgd1na2vs0mg"},{"bike_id":"6edb6a1f-c151-4ec9-9308-f41e759a4b31","system_id":"levelo_inurba_marseille","lat":43.25481,"lon":5.3765,"is_reserved":false,"is_disabled":false,"rental_uris":{"android":"levelo://app?vid=6edb6a1f-c151-4ec9-9308-f41e759a4b31","ios":"levelo://app?vid=6edb6a1f-c151-4ec9-9308-f41e759a4b31"},"vehicle_type_id":"4","last_reported":1728058341,"current_range_meters":20000,"station_id":"ce4bhh12rcd13ifvqff0","pricing_plan_id":"cebpf4jnsgd1na2vs0mg"},{"bike_id":"629610c7-7afa-46ea-9fa1-f1aa7309d94e","system_id":"levelo_inurba_marseille","lat":43.27811,"lon":5.40713,"is_reserved":false,"is_disabled":false,"rental_uris":{"android":"levelo://app?vid=629610c7-7afa-46ea-9fa1-f1aa7309d94e","ios":"levelo://app?vid=629610c7-7afa-46ea-9fa1-f1aa7309d94e"},"vehicle_type_id":"4","last_reported":1728058341,"current_range_meters":38800,"station_id":"ce4bhnh2rcd13ifvqgtg","pricing_plan_id":"cebpf4jnsgd1na2vs0mg"},{"bike_id":"0cc554e0-6e03-4c8b-875f-6753492a8090","system_id":"levelo_inurba_marseille","lat":43.24175,"lon":5.39735,"is_reserved":false,"is_disabled":false,"rental_uris":{"android":"levelo://app?vid=0cc554e0-6e03-4c8b-875f-6753492a8090","ios":"levelo://app?vid=0cc554e0-6e03-4c8b-875f-6753492a8090"},"vehicle_type_id":"4","last_reported":1728058341,"current_range_meters":12400,"station_id":"ce4bhn12rcd13ifvqgpg","pricing_plan_id":"cebpf4jnsgd1na2vs0mg"},{"bike_id":"c8e4ff73-620c-4248-92f7-758d5098242c","system_id":"levelo_inurba_marseille","lat":43.22931,"lon":5.35376,"is_reserved":false,"is_disabled":false,"rental_uris":{"android":"levelo://app?vid=c8e4ff73-620c-4248-92f7-758d5098242c","ios":"levelo://app?vid=c8e4ff73-620c-4248-92f7-758d5098242c"},"vehicle_type_id":"4","last_reported":1728058341,"current_range_meters":20000,"station_id":"cpo3532slgdg3j2ikp40","pricing_plan_id":"cebpf4jnsgd1na2vs0mg"},{"bike_id":"062734ce-2412-4d7d-95e7-8266eddb5133","system_id":"levelo_inurba_marseille","lat":43.30254,"lon":5.40075,"is_reserved":false,"is_disabled":false,"rental_uris":{"android":"levelo://app?vid=062734ce-2412-4d7d-95e7-8266eddb5133","ios":"levelo://app?vid=062734ce-2412-4d7d-95e7-8266eddb5133"},"vehicle_type_id":"4","last_reported":1728058341,"current_range_meters":14400,"station_id":"ce4bgvh2rcd13ifvqcs0","pricing_plan_id":"cebpf4jnsgd1na2vs0mg"},{"bike_id":"77c59eab-5250-44c4-be86-099c0defe9c4","system_id":"levelo_inurba_marseille","lat":43.33754,"lon":5.37446,"is_reserved":false,"is_disabled":false,"rental_uris":{"android":"levelo://app?vid=77c59eab-5250-44c4-be86-099c0defe9c4","ios":"levelo://app?vid=77c59eab-5250-44c4-be86-099c0defe9c4"},"vehicle_type_id":"4","last_reported":1728058341,"current_range_meters":30000,"station_id":"","pricing_plan_id":"cebpf4jnsgd1na2vs0mg"},{"bike_id":"84b07b81-8a90-4e9c-96ec-461a75726f5b","system_id":"levelo_inurba_marseille","lat":43.32,"lon":5.38169,"is_reserved":false,"is_disabled":false,"rental_uris":{"android":"levelo://app?vid=84b07b81-8a90-4e9c-96ec-461a75726f5b","ios":"levelo://app?vid=84b07b81-8a90-4e9c-96ec-461a75726f5b"},"vehicle_type_id":"4","last_reported":1728058341,"current_range_meters":8400,"station_id":"ce4bhr12rcd13ifvqhpg","pricing_plan_id":"cebpf4jnsgd1na2vs0mg"},{"bike_id":"6f9996ec-6ade-45fe-a2d7-81b9febb6697","system_id":"levelo_inurba_marseille","lat":43.28942,"lon":5.39636,"is_reserved":false,"is_disabled":false,"rental_uris":{"android":"levelo://app?vid=6f9996ec-6ade-45fe-a2d7-81b9febb6697","ios":"levelo://app?vid=6f9996ec-6ade-45fe-a2d7-81b9febb6697"},"vehicle_type_id":"4","last_reported":1728058341,"current_range_meters":25200,"station_id":"ce4bh3h2rcd13ifvqdn0","pricing_plan_id":"cebpf4jnsgd1na2vs0mg"},{"bike_id":"49340c1a-d2a9-4645-9c5c-032a51e5da69","system_id":"levelo_inurba_marseille","lat":43.2873,"lon":5.36094,"is_reserved":false,"is_disabled":false,"rental_uris":{"android":"levelo://app?vid=49340c1a-d2a9-4645-9c5c-032a51e5da69","ios":"levelo://app?vid=49340c1a-d2a9-4645-9c5c-032a51e5da69"},"vehicle_type_id":"4","last_reported":1728058341,"current_range_meters":24800,"station_id":"cki0cbj6b192h4jlfktg","pricing_plan_id":"cebpf4jnsgd1na2vs0mg"},{"bike_id":"367b50b7-8d26-4135-85ab-e2b432e765a9","system_id":"levelo_inurba_marseille","lat":43.27581,"lon":5.38459,"is_reserved":false,"is_disabled":false,"rental_uris":{"android":"levelo://app?vid=367b50b7-8d26-4135-85ab-e2b432e765a9","ios":"levelo://app?vid=367b50b7-8d26-4135-85ab-e2b432e765a9"},"vehicle_type_id":"4","last_reported":1728058341,"current_range_meters":16800,"station_id":"ce4bhh92rcd13ifvqfi0","pricing_plan_id":"cebpf4jnsgd1na2vs0mg"},{"bike_id":"f78875be-2a22-407c-ba27-982f9e339ac5","system_id":"levelo_inurba_marseille","lat":43.28676,"lon":5.38653,"is_reserved":false,"is_disabled":false,"rental_uris":{"android":"levelo://app?vid=f78875be-2a22-407c-ba27-982f9e339ac5","ios":"levelo://app?vid=f78875be-2a22-407c-ba27-982f9e339ac5"},"vehicle_type_id":"4","last_reported":1728058341,"current_range_meters":17200,"station_id":"ce4bh492rcd13ifvqdug","pricing_plan_id":"cebpf4jnsgd1na2vs0mg"},{"bike_id":"b417a8d0-1fac-4a2b-9294-35cea48e57c1","system_id":"levelo_inurba_marseille","lat":43.33029,"lon":5.39049,"is_reserved":false,"is_disabled":false,"rental_uris":{"android":"levelo://app?vid=b417a8d0-1fac-4a2b-9294-35cea48e57c1","ios":"levelo://app?vid=b417a8d0-1fac-4a2b-9294-35cea48e57c1"},"vehicle_type_id":"4","last_reported":1728058341,"current_range_meters":30800,"station_id":"ce4bhr92rcd13ifvqhrg","pricing_plan_id":"cebpf4jnsgd1na2vs0mg"},{"bike_id":"5cb2f8ea-bc2c-41a6-9c4d-81fd68fd96bb","system_id":"levelo_inurba_marseille","lat":43.29581,"lon":5.37519,"is_reserved":false,"is_disabled":false,"rental_uris":{"android":"levelo://app?vid=5cb2f8ea-bc2c-41a6-9c4d-81fd68fd96bb","ios":"levelo://app?vid=5cb2f8ea-bc2c-41a6-9c4d-81fd68fd96bb"},"vehicle_type_id":"4","last_reported":1728058341,"current_range_meters":24800,"station_id":"ce4bgh92rcd13ifvqb50","pricing_plan_id":"cebpf4jnsgd1na2vs0mg"},{"bike_id":"3e06e3f9-7d22-477a-9588-5a751ad1620e","system_id":"levelo_inurba_marseille","lat":43.27954,"lon":5.41047,"is_reserved":false,"is_disabled":false,"rental_uris":{"android":"levelo://app?vid=3e06e3f9-7d22-477a-9588-5a751ad1620e","ios":"levelo://app?vid=3e06e3f9-7d22-477a-9588-5a751ad1620e"},"vehicle_type_id":"4","last_reported":1728058341,"current_range_meters":38800,"station_id":"ce4bhnp2rcd13ifvqh0g","pricing_plan_id":"cebpf4jnsgd1na2vs0mg"},{"bike_id":"9afc44ae-d6d7-4511-8794-8685767ee84c","system_id":"levelo_inurba_marseille","lat":43.28406,"lon":5.3752,"is_reserved":false,"is_disabled":false,"rental_uris":{"android":"levelo://app?vid=9afc44ae-d6d7-4511-8794-8685767ee84c","ios":"levelo://app?vid=9afc44ae-d6d7-4511-8794-8685767ee84c"},"vehicle_type_id":"4","last_reported":1728058341,"current_range_meters":9600,"station_id":"ce4bh412rcd13ifvqds0","pricing_plan_id":"cebpf4jnsgd1na2vs0mg"},{"bike_id":"ef147a6b-32d1-441f-a0f3-2f3956b6b98a","system_id":"levelo_inurba_marseille","lat":43.26807,"lon":5.40262,"is_reserved":false,"is_disabled":false,"rental_uris":{"android":"levelo://app?vid=ef147a6b-32d1-441f-a0f3-2f3956b6b98a","ios":"levelo://app?vid=ef147a6b-32d1-441f-a0f3-2f3956b6b98a"},"vehicle_type_id":"4","last_reported":1728058341,"current_range_meters":28800,"station_id":"ce501612rcd8frsf0b60","pricing_plan_id":"cebpf4jnsgd1na2vs0mg"},{"bike_id":"e248f30e-d3f3-4f9a-a34f-e3dea939fe74","system_id":"levelo_inurba_marseille","lat":43.287442,"lon":5.365295,"is_reserved":false,"is_disabled":false,"rental_uris":{"android":"levelo://app?vid=e248f30e-d3f3-4f9a-a34f-e3dea939fe74","ios":"levelo://app?vid=e248f30e-d3f3-4f9a-a34f-e3dea939fe74"},"vehicle_type_id":"4","last_reported":1728058341,"current_range_meters":9600,"station_id":"ce4bhah2rcd13ifvqej0","pricing_plan_id":"cebpf4jnsgd1na2vs0mg"},{"bike_id":"ef1e8555-b1f3-447b-9e5a-1ebace3ad78e","system_id":"levelo_inurba_marseille","lat":43.24545,"lon":5.39525,"is_reserved":false,"is_disabled":false,"rental_uris":{"android":"levelo://app?vid=ef1e8555-b1f3-447b-9e5a-1ebace3ad78e","ios":"levelo://app?vid=ef1e8555-b1f3-447b-9e5a-1ebace3ad78e"},"vehicle_type_id":"4","last_reported":1728058341,"current_range_meters":26000,"station_id":"ce4bhlp2rcd13ifvqgjg","pricing_plan_id":"cebpf4jnsgd1na2vs0mg"},{"bike_id":"2bf2985d-f00d-4352-ba22-8e4412e5e92a","system_id":"levelo_inurba_marseille","lat":43.29878,"lon":5.39743,"is_reserved":false,"is_disabled":false,"rental_uris":{"android":"levelo://app?vid=2bf2985d-f00d-4352-ba22-8e4412e5e92a","ios":"levelo://app?vid=2bf2985d-f00d-4352-ba22-8e4412e5e92a"},"vehicle_type_id":"4","last_reported":1728058341,"current_range_meters":8000,"station_id":"ce4bh0h2rcd13ifvqd50","pricing_plan_id":"cebpf4jnsgd1na2vs0mg"},{"bike_id":"e28dc4af-b06d-4752-8eb4-cacc388523e0","system_id":"levelo_inurba_marseille","lat":43.29445,"lon":5.39754,"is_reserved":false,"is_disabled":false,"rental_uris":{"android":"levelo://app?vid=e28dc4af-b06d-4752-8eb4-cacc388523e0","ios":"levelo://app?vid=e28dc4af-b06d-4752-8eb4-cacc388523e0"},"vehicle_type_id":"4","last_reported":1728058341,"current_range_meters":8800,"station_id":"ce4bh3h2rcd13ifvqdo0","pricing_plan_id":"cebpf4jnsgd1na2vs0mg"},{"bike_id":"57b4cb11-f829-4e05-a29f-61214b1ebae6","system_id":"levelo_inurba_marseille","lat":43.23181,"lon":5.39988,"is_reserved":false,"is_disabled":false,"rental_uris":{"android":"levelo://app?vid=57b4cb11-f829-4e05-a29f-61214b1ebae6","ios":"levelo://app?vid=57b4cb11-f829-4e05-a29f-61214b1ebae6"},"vehicle_type_id":"4","last_reported":1728058341,"current_range_meters":20400,"station_id":"ce4bhn12rcd13ifvqgqg","pricing_plan_id":"cebpf4jnsgd1na2vs0mg"},{"bike_id":"22a2e61a-acfd-4ed4-8936-e9c0f4b9e415","system_id":"levelo_inurba_marseille","lat":43.255,"lon":5.3765,"is_reserved":false,"is_disabled":false,"rental_uris":{"android":"levelo://app?vid=22a2e61a-acfd-4ed4-8936-e9c0f4b9e415","ios":"levelo://app?vid=22a2e61a-acfd-4ed4-8936-e9c0f4b9e415"},"vehicle_type_id":"4","last_reported":1728058341,"current_range_meters":17600,"station_id":"ce4bhh12rcd13ifvqff0","pricing_plan_id":"cebpf4jnsgd1na2vs0mg"},{"bike_id":"411a622e-0c64-4ae7-ab3a-3b4f2603408c","system_id":"levelo_inurba_marseille","lat":43.29897,"lon":5.43667,"is_reserved":false,"is_disabled":false,"rental_uris":{"android":"levelo://app?vid=411a622e-0c64-4ae7-ab3a-3b4f2603408c","ios":"levelo://app?vid=411a622e-0c64-4ae7-ab3a-3b4f2603408c"},"vehicle_type_id":"4","last_reported":1728058341,"current_range_meters":38800,"station_id":"ce4bhpp2rcd13ifvqhfg","pricing_plan_id":"cebpf4jnsgd1na2vs0mg"},{"bike_id":"d9513a24-3235-43a7-b9a5-1c5cfe37603f","system_id":"levelo_inurba_marseille","lat":43.23056,"lon":5.35493,"is_reserved":false,"is_disabled":false,"rental_uris":{"android":"levelo://app?vid=d9513a24-3235-43a7-b9a5-1c5cfe37603f","ios":"levelo://app?vid=d9513a24-3235-43a7-b9a5-1c5cfe37603f"},"vehicle_type_id":"4","last_reported":1728058341,"current_range_meters":24800,"station_id":"cpo3342slgdg3j2ifvpg","pricing_plan_id":"cebpf4jnsgd1na2vs0mg"},{"bike_id":"009d6d0e-c1a8-4ddc-b330-ebf04e9c45b9","system_id":"levelo_inurba_marseille","lat":43.29903,"lon":5.43663,"is_reserved":false,"is_disabled":false,"rental_uris":{"android":"levelo://app?vid=009d6d0e-c1a8-4ddc-b330-ebf04e9c45b9","ios":"levelo://app?vid=009d6d0e-c1a8-4ddc-b330-ebf04e9c45b9"},"vehicle_type_id":"4","last_reported":1728058341,"current_range_meters":26000,"station_id":"ce4bhpp2rcd13ifvqhfg","pricing_plan_id":"cebpf4jnsgd1na2vs0mg"},{"bike_id":"9635f674-e72b-49a6-864f-901a12804f62","system_id":"levelo_inurba_marseille","lat":43.24649,"lon":5.38895,"is_reserved":false,"is_disabled":false,"rental_uris":{"android":"levelo://app?vid=9635f674-e72b-49a6-864f-901a12804f62","ios":"levelo://app?vid=9635f674-e72b-49a6-864f-901a12804f62"},"vehicle_type_id":"4","last_reported":1728058341,"current_range_meters":19200,"station_id":"ce4bhg12rcd13ifvqf60","pricing_plan_id":"cebpf4jnsgd1na2vs0mg"},{"bike_id":"4e0c83a2-b0c3-4894-8559-e509681998d3","system_id":"levelo_inurba_marseille","lat":43.31116,"lon":5.38328,"is_reserved":false,"is_disabled":false,"rental_uris":{"android":"levelo://app?vid=4e0c83a2-b0c3-4894-8559-e509681998d3","ios":"levelo://app?vid=4e0c83a2-b0c3-4894-8559-e509681998d3"},"vehicle_type_id":"4","last_reported":1728058341,"current_range_meters":22400,"station_id":"ce4bgv92rcd13ifvqcr0","pricing_plan_id":"cebpf4jnsgd1na2vs0mg"},{"bike_id":"fd40f338-b6db-4b0d-8b4a-980befd8276c","system_id":"levelo_inurba_marseille","lat":43.291699,"lon":5.371611,"is_reserved":false,"is_disabled":false,"rental_uris":{"android":"levelo://app?vid=fd40f338-b6db-4b0d-8b4a-980befd8276c","ios":"levelo://app?vid=fd40f338-b6db-4b0d-8b4a-980befd8276c"},"vehicle_type_id":"4","last_reported":1728058341,"current_range_meters":35200,"station_id":"ce4bha92rcd13ifvqeh0","pricing_plan_id":"cebpf4jnsgd1na2vs0mg"},{"bike_id":"b71ba2f4-348d-4141-a7f7-1b07ee33acd3","system_id":"levelo_inurba_marseille","lat":43.30146,"lon":5.37424,"is_reserved":false,"is_disabled":false,"rental_uris":{"android":"levelo://app?vid=b71ba2f4-348d-4141-a7f7-1b07ee33acd3","ios":"levelo://app?vid=b71ba2f4-348d-4141-a7f7-1b07ee33acd3"},"vehicle_type_id":"4","last_reported":1728058341,"current_range_meters":10800,"station_id":"ce4bgs92rcd13ifvqcc0","pricing_plan_id":"cebpf4jnsgd1na2vs0mg"},{"bike_id":"e7305f57-4c84-4c76-b8ce-52555d1986d7","system_id":"levelo_inurba_marseille","lat":43.240767,"lon":5.377277,"is_reserved":false,"is_disabled":false,"rental_uris":{"android":"levelo://app?vid=e7305f57-4c84-4c76-b8ce-52555d1986d7","ios":"levelo://app?vid=e7305f57-4c84-4c76-b8ce-52555d1986d7"},"vehicle_type_id":"4","last_reported":1728058341,"current_range_meters":38400,"station_id":"ce4bhnp2rcd13ifvqgvg","pricing_plan_id":"cebpf4jnsgd1na2vs0mg"},{"bike_id":"691b6d8a-ebdd-4931-ab99-13812600fca7","system_id":"levelo_inurba_marseille","lat":43.27307,"lon":5.39077,"is_reserved":false,"is_disabled":false,"rental_uris":{"android":"levelo://app?vid=691b6d8a-ebdd-4931-ab99-13812600fca7","ios":"levelo://app?vid=691b6d8a-ebdd-4931-ab99-13812600fca7"},"vehicle_type_id":"4","last_reported":1728058341,"current_range_meters":39200,"station_id":"ce4bhgp2rcd13ifvqfe0","pricing_plan_id":"cebpf4jnsgd1na2vs0mg"},{"bike_id":"745956e2-85a4-4e28-8a9f-f9dc9abb062e","system_id":"levelo_inurba_marseille","lat":43.31062,"lon":5.40094,"is_reserved":false,"is_disabled":false,"rental_uris":{"android":"levelo://app?vid=745956e2-85a4-4e28-8a9f-f9dc9abb062e","ios":"levelo://app?vid=745956e2-85a4-4e28-8a9f-f9dc9abb062e"},"vehicle_type_id":"4","last_reported":1728058341,"current_range_meters":38800,"station_id":"","pricing_plan_id":"cebpf4jnsgd1na2vs0mg"},{"bike_id":"81be3230-d93f-4316-aeee-9043460cb076","system_id":"levelo_inurba_marseille","lat":43.23194,"lon":5.35554,"is_reserved":false,"is_disabled":false,"rental_uris":{"android":"levelo://app?vid=81be3230-d93f-4316-aeee-9043460cb076","ios":"levelo://app?vid=81be3230-d93f-4316-aeee-9043460cb076"},"vehicle_type_id":"4","last_reported":1728058341,"current_range_meters":4800,"station_id":"ce4bhu92rcd13ifvqi70","pricing_plan_id":"cebpf4jnsgd1na2vs0mg"},{"bike_id":"4e5012d3-097e-4752-930f-fc706eefd5c7","system_id":"levelo_inurba_marseille","lat":43.26949,"lon":5.40241,"is_reserved":false,"is_disabled":false,"rental_uris":{"android":"levelo://app?vid=4e5012d3-097e-4752-930f-fc706eefd5c7","ios":"levelo://app?vid=4e5012d3-097e-4752-930f-fc706eefd5c7"},"vehicle_type_id":"4","last_reported":1728058341,"current_range_meters":8800,"station_id":"cjm6bp8fraef2m0cb0m0","pricing_plan_id":"cebpf4jnsgd1na2vs0mg"},{"bike_id":"3c2d2204-8e63-4611-8774-dd53b9c47a40","system_id":"levelo_inurba_marseille","lat":43.24776,"lon":5.39005,"is_reserved":false,"is_disabled":false,"rental_uris":{"android":"levelo://app?vid=3c2d2204-8e63-4611-8774-dd53b9c47a40","ios":"levelo://app?vid=3c2d2204-8e63-4611-8774-dd53b9c47a40"},"vehicle_type_id":"4","last_reported":1728058341,"current_range_meters":23200,"station_id":"ce4bhih2rcd13ifvqfs0","pricing_plan_id":"cebpf4jnsgd1na2vs0mg"},{"bike_id":"fd67db3d-cfc6-4457-99c9-b1cfb05a9bdf","system_id":"levelo_inurba_marseille","lat":43.23065,"lon":5.35496,"is_reserved":false,"is_disabled":false,"rental_uris":{"android":"levelo://app?vid=fd67db3d-cfc6-4457-99c9-b1cfb05a9bdf","ios":"levelo://app?vid=fd67db3d-cfc6-4457-99c9-b1cfb05a9bdf"},"vehicle_type_id":"4","last_reported":1728058341,"current_range_meters":21600,"station_id":"cpo3342slgdg3j2ifvpg","pricing_plan_id":"cebpf4jnsgd1na2vs0mg"},{"bike_id":"1340693e-00c2-4fee-87d2-950446c2c14c","system_id":"levelo_inurba_marseille","lat":43.31079,"lon":5.38375,"is_reserved":false,"is_disabled":false,"rental_uris":{"android":"levelo://app?vid=1340693e-00c2-4fee-87d2-950446c2c14c","ios":"levelo://app?vid=1340693e-00c2-4fee-87d2-950446c2c14c"},"vehicle_type_id":"4","last_reported":1728058341,"current_range_meters":38800,"station_id":"ce4bgv92rcd13ifvqcr0","pricing_plan_id":"cebpf4jnsgd1na2vs0mg"},{"bike_id":"ad439fee-f7ec-4e7c-885d-99ad4c425aff","system_id":"levelo_inurba_marseille","lat":43.28351,"lon":5.38105,"is_reserved":false,"is_disabled":false,"rental_uris":{"android":"levelo://app?vid=ad439fee-f7ec-4e7c-885d-99ad4c425aff","ios":"levelo://app?vid=ad439fee-f7ec-4e7c-885d-99ad4c425aff"},"vehicle_type_id":"4","last_reported":1728058341,"current_range_meters":6800,"station_id":"ce4bgjh2rcd13ifvqbf0","pricing_plan_id":"cebpf4jnsgd1na2vs0mg"},{"bike_id":"113eb33e-7e24-4537-b290-a8d50313c751","system_id":"levelo_inurba_marseille","lat":43.29614,"lon":5.3773,"is_reserved":false,"is_disabled":false,"rental_uris":{"android":"levelo://app?vid=113eb33e-7e24-4537-b290-a8d50313c751","ios":"levelo://app?vid=113eb33e-7e24-4537-b290-a8d50313c751"},"vehicle_type_id":"4","last_reported":1728058341,"current_range_meters":20000,"station_id":"ce4bgi92rcd13ifvqb90","pricing_plan_id":"cebpf4jnsgd1na2vs0mg"},{"bike_id":"abedcaca-ce9a-464c-8437-8a94d42dcb16","system_id":"levelo_inurba_marseille","lat":43.29845,"lon":5.36272,"is_reserved":false,"is_disabled":false,"rental_uris":{"android":"levelo://app?vid=abedcaca-ce9a-464c-8437-8a94d42dcb16","ios":"levelo://app?vid=abedcaca-ce9a-464c-8437-8a94d42dcb16"},"vehicle_type_id":"4","last_reported":1728058341,"current_range_meters":37600,"station_id":"ce4bgpp2rcd13ifvqc3g","pricing_plan_id":"cebpf4jnsgd1na2vs0mg"},{"bike_id":"650262df-c1d1-46ae-ad74-907bc1d8f23e","system_id":"levelo_inurba_marseille","lat":43.28447,"lon":5.39176,"is_reserved":false,"is_disabled":false,"rental_uris":{"android":"levelo://app?vid=650262df-c1d1-46ae-ad74-907bc1d8f23e","ios":"levelo://app?vid=650262df-c1d1-46ae-ad74-907bc1d8f23e"},"vehicle_type_id":"4","last_reported":1728058341,"current_range_meters":19600,"station_id":"ce4bhoh2rcd13ifvqh5g","pricing_plan_id":"cebpf4jnsgd1na2vs0mg"},{"bike_id":"4435174a-e2d6-45be-96d7-e10ceda9595d","system_id":"levelo_inurba_marseille","lat":43.28422,"lon":5.34983,"is_reserved":false,"is_disabled":false,"rental_uris":{"android":"levelo://app?vid=4435174a-e2d6-45be-96d7-e10ceda9595d","ios":"levelo://app?vid=4435174a-e2d6-45be-96d7-e10ceda9595d"},"vehicle_type_id":"4","last_reported":1728058341,"current_range_meters":28000,"station_id":"ce4bhbh2rcd13ifvqepg","pricing_plan_id":"cebpf4jnsgd1na2vs0mg"},{"bike_id":"8c8a0035-555a-4363-8b84-df526cdc859d","system_id":"levelo_inurba_marseille","lat":43.295776,"lon":5.375197,"is_reserved":false,"is_disabled":false,"rental_uris":{"android":"levelo://app?vid=8c8a0035-555a-4363-8b84-df526cdc859d","ios":"levelo://app?vid=8c8a0035-555a-4363-8b84-df526cdc859d"},"vehicle_type_id":"4","last_reported":1728058341,"current_range_meters":38400,"station_id":"ce4bgh92rcd13ifvqb50","pricing_plan_id":"cebpf4jnsgd1na2vs0mg"},{"bike_id":"5acc05b7-3f5f-4a86-b3cb-0b9e5716511f","system_id":"levelo_inurba_marseille","lat":43.32026,"lon":5.41596,"is_reserved":false,"is_disabled":false,"rental_uris":{"android":"levelo://app?vid=5acc05b7-3f5f-4a86-b3cb-0b9e5716511f","ios":"levelo://app?vid=5acc05b7-3f5f-4a86-b3cb-0b9e5716511f"},"vehicle_type_id":"4","last_reported":1728058341,"current_range_meters":34000,"station_id":"ce4bhq92rcd13ifvqhkg","pricing_plan_id":"cebpf4jnsgd1na2vs0mg"},{"bike_id":"a7c0ceaa-0f29-4c95-86a1-0302663d514c","system_id":"levelo_inurba_marseille","lat":43.2397,"lon":5.36632,"is_reserved":false,"is_disabled":false,"rental_uris":{"android":"levelo://app?vid=a7c0ceaa-0f29-4c95-86a1-0302663d514c","ios":"levelo://app?vid=a7c0ceaa-0f29-4c95-86a1-0302663d514c"},"vehicle_type_id":"4","last_reported":1728058341,"current_range_meters":38400,"station_id":"ce4bhi12rcd13ifvqfp0","pricing_plan_id":"cebpf4jnsgd1na2vs0mg"},{"bike_id":"83d74885-53cd-47e8-beaa-610a85ab96d5","system_id":"levelo_inurba_marseille","lat":43.27563,"lon":5.38425,"is_reserved":false,"is_disabled":false,"rental_uris":{"android":"levelo://app?vid=83d74885-53cd-47e8-beaa-610a85ab96d5","ios":"levelo://app?vid=83d74885-53cd-47e8-beaa-610a85ab96d5"},"vehicle_type_id":"4","last_reported":1728058341,"current_range_meters":35200,"station_id":"ce4bhh92rcd13ifvqfi0","pricing_plan_id":"cebpf4jnsgd1na2vs0mg"},{"bike_id":"9b40c789-cbbd-4312-8985-e424830be911","system_id":"levelo_inurba_marseille","lat":43.303401,"lon":5.396812,"is_reserved":false,"is_disabled":false,"rental_uris":{"android":"levelo://app?vid=9b40c789-cbbd-4312-8985-e424830be911","ios":"levelo://app?vid=9b40c789-cbbd-4312-8985-e424830be911"},"vehicle_type_id":"4","last_reported":1728058341,"current_range_meters":29600,"station_id":"ce4bgg92rcd13ifvqb30","pricing_plan_id":"cebpf4jnsgd1na2vs0mg"},{"bike_id":"05875f5a-6e36-4ed4-b34a-429266400251","system_id":"levelo_inurba_marseille","lat":43.33023,"lon":5.39042,"is_reserved":false,"is_disabled":false,"rental_uris":{"android":"levelo://app?vid=05875f5a-6e36-4ed4-b34a-429266400251","ios":"levelo://app?vid=05875f5a-6e36-4ed4-b34a-429266400251"},"vehicle_type_id":"4","last_reported":1728058341,"current_range_meters":30400,"station_id":"ce4bhr92rcd13ifvqhrg","pricing_plan_id":"cebpf4jnsgd1na2vs0mg"},{"bike_id":"26f290bb-1447-4f43-ab6d-1590e2a06a4b","system_id":"levelo_inurba_marseille","lat":43.31444,"lon":5.37382,"is_reserved":false,"is_disabled":false,"rental_uris":{"android":"levelo://app?vid=26f290bb-1447-4f43-ab6d-1590e2a06a4b","ios":"levelo://app?vid=26f290bb-1447-4f43-ab6d-1590e2a06a4b"},"vehicle_type_id":"4","last_reported":1728058341,"current_range_meters":38400,"station_id":"ce4bgt12rcd13ifvqcd0","pricing_plan_id":"cebpf4jnsgd1na2vs0mg"},{"bike_id":"e0358f12-da17-4292-a417-c99684aafca3","system_id":"levelo_inurba_marseille","lat":43.29285,"lon":5.40118,"is_reserved":false,"is_disabled":false,"rental_uris":{"android":"levelo://app?vid=e0358f12-da17-4292-a417-c99684aafca3","ios":"levelo://app?vid=e0358f12-da17-4292-a417-c99684aafca3"},"vehicle_type_id":"4","last_reported":1728058341,"current_range_meters":26000,"station_id":"ce4bh312rcd13ifvqdk0","pricing_plan_id":"cebpf4jnsgd1na2vs0mg"},{"bike_id":"ead15650-09b2-4c11-bd0d-e1a5dfbb571d","system_id":"levelo_inurba_marseille","lat":43.31898,"lon":5.40727,"is_reserved":false,"is_disabled":false,"rental_uris":{"android":"levelo://app?vid=ead15650-09b2-4c11-bd0d-e1a5dfbb571d","ios":"levelo://app?vid=ead15650-09b2-4c11-bd0d-e1a5dfbb571d"},"vehicle_type_id":"4","last_reported":1728058341,"current_range_meters":18800,"station_id":"ce4bhq12rcd13ifvqhig","pricing_plan_id":"cebpf4jnsgd1na2vs0mg"},{"bike_id":"56f53b8b-890b-49c8-9833-a36290a5ebe1","system_id":"levelo_inurba_marseille","lat":43.31084,"lon":5.42436,"is_reserved":false,"is_disabled":false,"rental_uris":{"android":"levelo://app?vid=56f53b8b-890b-49c8-9833-a36290a5ebe1","ios":"levelo://app?vid=56f53b8b-890b-49c8-9833-a36290a5ebe1"},"vehicle_type_id":"4","last_reported":1728058341,"current_range_meters":30800,"station_id":"ce4bhp92rcd13ifvqhag","pricing_plan_id":"cebpf4jnsgd1na2vs0mg"},{"bike_id":"5b0a6d7f-c426-454a-82ad-28e2608bee63","system_id":"levelo_inurba_marseille","lat":43.32252,"lon":5.38656,"is_reserved":false,"is_disabled":false,"rental_uris":{"android":"levelo://app?vid=5b0a6d7f-c426-454a-82ad-28e2608bee63","ios":"levelo://app?vid=5b0a6d7f-c426-454a-82ad-28e2608bee63"},"vehicle_type_id":"4","last_reported":1728058341,"current_range_meters":24800,"station_id":"","pricing_plan_id":"cebpf4jnsgd1na2vs0mg"},{"bike_id":"70dacfaa-68db-48e1-9c23-4637ec987cba","system_id":"levelo_inurba_marseille","lat":43.29525,"lon":5.39046,"is_reserved":false,"is_disabled":false,"rental_uris":{"android":"levelo://app?vid=70dacfaa-68db-48e1-9c23-4637ec987cba","ios":"levelo://app?vid=70dacfaa-68db-48e1-9c23-4637ec987cba"},"vehicle_type_id":"4","last_reported":1728058341,"current_range_meters":19200,"station_id":"ce4bh3p2rcd13ifvqdp0","pricing_plan_id":"cebpf4jnsgd1na2vs0mg"},{"bike_id":"0d97d594-b9fc-427a-b336-dd239ba1ab9e","system_id":"levelo_inurba_marseille","lat":43.30153,"lon":5.37436,"is_reserved":false,"is_disabled":false,"rental_uris":{"android":"levelo://app?vid=0d97d594-b9fc-427a-b336-dd239ba1ab9e","ios":"levelo://app?vid=0d97d594-b9fc-427a-b336-dd239ba1ab9e"},"vehicle_type_id":"4","last_reported":1728058341,"current_range_meters":4000,"station_id":"ce4bgs92rcd13ifvqcc0","pricing_plan_id":"cebpf4jnsgd1na2vs0mg"},{"bike_id":"52508c0e-d0ea-499d-840f-ea0d936aa8fd","system_id":"levelo_inurba_marseille","lat":43.30148,"lon":5.37412,"is_reserved":false,"is_disabled":false,"rental_uris":{"android":"levelo://app?vid=52508c0e-d0ea-499d-840f-ea0d936aa8fd","ios":"levelo://app?vid=52508c0e-d0ea-499d-840f-ea0d936aa8fd"},"vehicle_type_id":"4","last_reported":1728058341,"current_range_meters":19200,"station_id":"ce4bgs92rcd13ifvqcc0","pricing_plan_id":"cebpf4jnsgd1na2vs0mg"},{"bike_id":"40e27bd2-1780-4061-b64e-a496814e2637","system_id":"levelo_inurba_marseille","lat":43.31615,"lon":5.37455,"is_reserved":false,"is_disabled":false,"rental_uris":{"android":"levelo://app?vid=40e27bd2-1780-4061-b64e-a496814e2637","ios":"levelo://app?vid=40e27bd2-1780-4061-b64e-a496814e2637"},"vehicle_type_id":"4","last_reported":1728058341,"current_range_meters":31200,"station_id":"","pricing_plan_id":"cebpf4jnsgd1na2vs0mg"},{"bike_id":"0cb9acb2-15eb-485b-842c-a3f570e8e7c5","system_id":"levelo_inurba_marseille","lat":43.22937,"lon":5.35378,"is_reserved":false,"is_disabled":false,"rental_uris":{"android":"levelo://app?vid=0cb9acb2-15eb-485b-842c-a3f570e8e7c5","ios":"levelo://app?vid=0cb9acb2-15eb-485b-842c-a3f570e8e7c5"},"vehicle_type_id":"4","last_reported":1728058341,"current_range_meters":20800,"station_id":"cpo3532slgdg3j2ikp40","pricing_plan_id":"cebpf4jnsgd1na2vs0mg"},{"bike_id":"53292b62-1ea2-4c81-a87b-621bc4043460","system_id":"levelo_inurba_marseille","lat":43.2992,"lon":5.37476,"is_reserved":false,"is_disabled":false,"rental_uris":{"android":"levelo://app?vid=53292b62-1ea2-4c81-a87b-621bc4043460","ios":"levelo://app?vid=53292b62-1ea2-4c81-a87b-621bc4043460"},"vehicle_type_id":"4","last_reported":1728058341,"current_range_meters":3600,"station_id":"ce4bgjh2rcd13ifvqbg0","pricing_plan_id":"cebpf4jnsgd1na2vs0mg"},{"bike_id":"b6a817d8-5787-46a3-898e-0b46c75fc481","system_id":"levelo_inurba_marseille","lat":43.32663,"lon":5.40988,"is_reserved":false,"is_disabled":false,"rental_uris":{"android":"levelo://app?vid=b6a817d8-5787-46a3-898e-0b46c75fc481","ios":"levelo://app?vid=b6a817d8-5787-46a3-898e-0b46c75fc481"},"vehicle_type_id":"4","last_reported":1728058341,"current_range_meters":9600,"station_id":"ce4bhpp2rcd13ifvqhgg","pricing_plan_id":"cebpf4jnsgd1na2vs0mg"},{"bike_id":"9ce5f349-10d1-4e28-aaee-a7d315b10e14","system_id":"levelo_inurba_marseille","lat":43.31521,"lon":5.38038,"is_reserved":false,"is_disabled":false,"rental_uris":{"android":"levelo://app?vid=9ce5f349-10d1-4e28-aaee-a7d315b10e14","ios":"levelo://app?vid=9ce5f349-10d1-4e28-aaee-a7d315b10e14"},"vehicle_type_id":"4","last_reported":1728058341,"current_range_meters":8800,"station_id":"ce4bhsp2rcd13ifvqi50","pricing_plan_id":"cebpf4jnsgd1na2vs0mg"},{"bike_id":"34b51fdd-b55c-4726-99ec-246c29040001","system_id":"levelo_inurba_marseille","lat":43.30127,"lon":5.39875,"is_reserved":false,"is_disabled":false,"rental_uris":{"android":"levelo://app?vid=34b51fdd-b55c-4726-99ec-246c29040001","ios":"levelo://app?vid=34b51fdd-b55c-4726-99ec-246c29040001"},"vehicle_type_id":"4","last_reported":1728058341,"current_range_meters":12000,"station_id":"ce4bh0h2rcd13ifvqd40","pricing_plan_id":"cebpf4jnsgd1na2vs0mg"},{"bike_id":"64bd957e-b978-44cb-a85c-928d627d24ec","system_id":"levelo_inurba_marseille","lat":43.3581,"lon":5.35914,"is_reserved":false,"is_disabled":false,"rental_uris":{"android":"levelo://app?vid=64bd957e-b978-44cb-a85c-928d627d24ec","ios":"levelo://app?vid=64bd957e-b978-44cb-a85c-928d627d24ec"},"vehicle_type_id":"4","last_reported":1728058341,"current_range_meters":8800,"station_id":"","pricing_plan_id":"cebpf4jnsgd1na2vs0mg"},{"bike_id":"3e12fdb5-6d04-495d-a755-863c18da8030","system_id":"levelo_inurba_marseille","lat":43.30312,"lon":5.39207,"is_reserved":false,"is_disabled":false,"rental_uris":{"android":"levelo://app?vid=3e12fdb5-6d04-495d-a755-863c18da8030","ios":"levelo://app?vid=3e12fdb5-6d04-495d-a755-863c18da8030"},"vehicle_type_id":"4","last_reported":1728058341,"current_range_meters":15200,"station_id":"ce4bgkh2rcd13ifvqbk0","pricing_plan_id":"cebpf4jnsgd1na2vs0mg"},{"bike_id":"297f5029-12be-4495-bae6-394eabe88d49","system_id":"levelo_inurba_marseille","lat":43.26216,"lon":5.37442,"is_reserved":false,"is_disabled":false,"rental_uris":{"android":"levelo://app?vid=297f5029-12be-4495-bae6-394eabe88d49","ios":"levelo://app?vid=297f5029-12be-4495-bae6-394eabe88d49"},"vehicle_type_id":"4","last_reported":1728058341,"current_range_meters":36800,"station_id":"ce4bhgp2rcd13ifvqfc0","pricing_plan_id":"cebpf4jnsgd1na2vs0mg"},{"bike_id":"b00cf890-4187-46a3-ac11-265bf03bf625","system_id":"levelo_inurba_marseille","lat":43.29876,"lon":5.3974,"is_reserved":false,"is_disabled":false,"rental_uris":{"android":"levelo://app?vid=b00cf890-4187-46a3-ac11-265bf03bf625","ios":"levelo://app?vid=b00cf890-4187-46a3-ac11-265bf03bf625"},"vehicle_type_id":"4","last_reported":1728058341,"current_range_meters":8000,"station_id":"ce4bh0h2rcd13ifvqd50","pricing_plan_id":"cebpf4jnsgd1na2vs0mg"},{"bike_id":"2436a593-2e7a-4ae9-b1a3-1b8ec839a3f7","system_id":"levelo_inurba_marseille","lat":43.28276,"lon":5.35054,"is_reserved":false,"is_disabled":false,"rental_uris":{"android":"levelo://app?vid=2436a593-2e7a-4ae9-b1a3-1b8ec839a3f7","ios":"levelo://app?vid=2436a593-2e7a-4ae9-b1a3-1b8ec839a3f7"},"vehicle_type_id":"4","last_reported":1728058341,"current_range_meters":7200,"station_id":"ce4bgl12rcd13ifvqbo0","pricing_plan_id":"cebpf4jnsgd1na2vs0mg"},{"bike_id":"92f19090-bc3d-43fe-9f24-8efc5eb57511","system_id":"levelo_inurba_marseille","lat":43.33726,"lon":5.39197,"is_reserved":false,"is_disabled":false,"rental_uris":{"android":"levelo://app?vid=92f19090-bc3d-43fe-9f24-8efc5eb57511","ios":"levelo://app?vid=92f19090-bc3d-43fe-9f24-8efc5eb57511"},"vehicle_type_id":"4","last_reported":1728058341,"current_range_meters":21600,"station_id":"ce4bhr92rcd13ifvqhsg","pricing_plan_id":"cebpf4jnsgd1na2vs0mg"},{"bike_id":"cb4a478c-c983-47d4-879d-24da2426e7f2","system_id":"levelo_inurba_marseille","lat":43.26558,"lon":5.37288,"is_reserved":false,"is_disabled":false,"rental_uris":{"android":"levelo://app?vid=cb4a478c-c983-47d4-879d-24da2426e7f2","ios":"levelo://app?vid=cb4a478c-c983-47d4-879d-24da2426e7f2"},"vehicle_type_id":"4","last_reported":1728058341,"current_range_meters":32800,"station_id":"ce4bhg12rcd13ifvqf70","pricing_plan_id":"cebpf4jnsgd1na2vs0mg"},{"bike_id":"a2905303-4d5d-4e8a-a1fb-d7f33a0e8438","system_id":"levelo_inurba_marseille","lat":43.31529,"lon":5.38039,"is_reserved":false,"is_disabled":false,"rental_uris":{"android":"levelo://app?vid=a2905303-4d5d-4e8a-a1fb-d7f33a0e8438","ios":"levelo://app?vid=a2905303-4d5d-4e8a-a1fb-d7f33a0e8438"},"vehicle_type_id":"4","last_reported":1728058341,"current_range_meters":21600,"station_id":"ce4bhsp2rcd13ifvqi50","pricing_plan_id":"cebpf4jnsgd1na2vs0mg"},{"bike_id":"dfa0c2e0-806a-4be3-b0fd-2daa97e0061b","system_id":"levelo_inurba_marseille","lat":43.27208,"lon":5.39175,"is_reserved":false,"is_disabled":false,"rental_uris":{"android":"levelo://app?vid=dfa0c2e0-806a-4be3-b0fd-2daa97e0061b","ios":"levelo://app?vid=dfa0c2e0-806a-4be3-b0fd-2daa97e0061b"},"vehicle_type_id":"4","last_reported":1728058341,"current_range_meters":3200,"station_id":"ce4bhhp2rcd13ifvqfm0","pricing_plan_id":"cebpf4jnsgd1na2vs0mg"},{"bike_id":"502499c3-6aab-4406-bcb4-408c33d46745","system_id":"levelo_inurba_marseille","lat":43.2408,"lon":5.37755,"is_reserved":false,"is_disabled":false,"rental_uris":{"android":"levelo://app?vid=502499c3-6aab-4406-bcb4-408c33d46745","ios":"levelo://app?vid=502499c3-6aab-4406-bcb4-408c33d46745"},"vehicle_type_id":"4","last_reported":1728058341,"current_range_meters":19600,"station_id":"ce4bhnp2rcd13ifvqgvg","pricing_plan_id":"cebpf4jnsgd1na2vs0mg"},{"bike_id":"6d679b6b-38e0-4f37-8caf-d0dfb3677fc5","system_id":"levelo_inurba_marseille","lat":43.2293,"lon":5.35379,"is_reserved":false,"is_disabled":false,"rental_uris":{"android":"levelo://app?vid=6d679b6b-38e0-4f37-8caf-d0dfb3677fc5","ios":"levelo://app?vid=6d679b6b-38e0-4f37-8caf-d0dfb3677fc5"},"vehicle_type_id":"4","last_reported":1728058341,"current_range_meters":17600,"station_id":"cpo3532slgdg3j2ikp40","pricing_plan_id":"cebpf4jnsgd1na2vs0mg"},{"bike_id":"42715632-e225-47f3-813c-9451f24e5700","system_id":"levelo_inurba_marseille","lat":43.23197,"lon":5.3555,"is_reserved":false,"is_disabled":false,"rental_uris":{"android":"levelo://app?vid=42715632-e225-47f3-813c-9451f24e5700","ios":"levelo://app?vid=42715632-e225-47f3-813c-9451f24e5700"},"vehicle_type_id":"4","last_reported":1728058341,"current_range_meters":13600,"station_id":"ce4bhu92rcd13ifvqi70","pricing_plan_id":"cebpf4jnsgd1na2vs0mg"},{"bike_id":"2979cc9e-7cf4-48ec-8072-777a271a1c95","system_id":"levelo_inurba_marseille","lat":43.29707,"lon":5.37691,"is_reserved":false,"is_disabled":false,"rental_uris":{"android":"levelo://app?vid=2979cc9e-7cf4-48ec-8072-777a271a1c95","ios":"levelo://app?vid=2979cc9e-7cf4-48ec-8072-777a271a1c95"},"vehicle_type_id":"4","last_reported":1728058341,"current_range_meters":26000,"station_id":"ce4bgkh2rcd13ifvqbl0","pricing_plan_id":"cebpf4jnsgd1na2vs0mg"},{"bike_id":"862e8e23-c11f-4150-8df8-7b570635bd62","system_id":"levelo_inurba_marseille","lat":43.298862,"lon":5.389182,"is_reserved":false,"is_disabled":false,"rental_uris":{"android":"levelo://app?vid=862e8e23-c11f-4150-8df8-7b570635bd62","ios":"levelo://app?vid=862e8e23-c11f-4150-8df8-7b570635bd62"},"vehicle_type_id":"4","last_reported":1728058341,"current_range_meters":14800,"station_id":"ce4bh392rcd13ifvqdl0","pricing_plan_id":"cebpf4jnsgd1na2vs0mg"},{"bike_id":"904532ad-22bc-4cfa-a579-5d228bf8a445","system_id":"levelo_inurba_marseille","lat":43.32368,"lon":5.38881,"is_reserved":false,"is_disabled":false,"rental_uris":{"android":"levelo://app?vid=904532ad-22bc-4cfa-a579-5d228bf8a445","ios":"levelo://app?vid=904532ad-22bc-4cfa-a579-5d228bf8a445"},"vehicle_type_id":"4","last_reported":1728058341,"current_range_meters":8800,"station_id":"ce4bhqp2rcd13ifvqhog","pricing_plan_id":"cebpf4jnsgd1na2vs0mg"},{"bike_id":"9c6ceacf-46aa-4972-8a1c-69fbeaf93293","system_id":"levelo_inurba_marseille","lat":43.3176,"lon":5.39028,"is_reserved":false,"is_disabled":false,"rental_uris":{"android":"levelo://app?vid=9c6ceacf-46aa-4972-8a1c-69fbeaf93293","ios":"levelo://app?vid=9c6ceacf-46aa-4972-8a1c-69fbeaf93293"},"vehicle_type_id":"4","last_reported":1728058341,"current_range_meters":11200,"station_id":"ce4bhqp2rcd13ifvqhng","pricing_plan_id":"cebpf4jnsgd1na2vs0mg"},{"bike_id":"773c34d3-5e2b-4b8b-a6c1-7251462cf793","system_id":"levelo_inurba_marseille","lat":43.27318,"lon":5.39078,"is_reserved":false,"is_disabled":false,"rental_uris":{"android":"levelo://app?vid=773c34d3-5e2b-4b8b-a6c1-7251462cf793","ios":"levelo://app?vid=773c34d3-5e2b-4b8b-a6c1-7251462cf793"},"vehicle_type_id":"4","last_reported":1728058341,"current_range_meters":8000,"station_id":"ce4bhih2rcd13ifvqfs0","pricing_plan_id":"cebpf4jnsgd1na2vs0mg"},{"bike_id":"aa52df7a-6036-4b51-b89d-4900cec91c4c","system_id":"levelo_inurba_marseille","lat":43.28426,"lon":5.34988,"is_reserved":false,"is_disabled":false,"rental_uris":{"android":"levelo://app?vid=aa52df7a-6036-4b51-b89d-4900cec91c4c","ios":"levelo://app?vid=aa52df7a-6036-4b51-b89d-4900cec91c4c"},"vehicle_type_id":"4","last_reported":1728058341,"current_range_meters":38800,"station_id":"ce4bhbh2rcd13ifvqepg","pricing_plan_id":"cebpf4jnsgd1na2vs0mg"},{"bike_id":"c38d4b04-a352-40d3-9b57-9936b63c318d","system_id":"levelo_inurba_marseille","lat":43.2961,"lon":5.37713,"is_reserved":false,"is_disabled":false,"rental_uris":{"android":"levelo://app?vid=c38d4b04-a352-40d3-9b57-9936b63c318d","ios":"levelo://app?vid=c38d4b04-a352-40d3-9b57-9936b63c318d"},"vehicle_type_id":"4","last_reported":1728058341,"current_range_meters":2000,"station_id":"ce4bgi92rcd13ifvqb90","pricing_plan_id":"cebpf4jnsgd1na2vs0mg"},{"bike_id":"b6eb07e8-7112-430a-b13b-f5cb08bf1543","system_id":"levelo_inurba_marseille","lat":43.31755,"lon":5.39016,"is_reserved":false,"is_disabled":false,"rental_uris":{"android":"levelo://app?vid=b6eb07e8-7112-430a-b13b-f5cb08bf1543","ios":"levelo://app?vid=b6eb07e8-7112-430a-b13b-f5cb08bf1543"},"vehicle_type_id":"4","last_reported":1728058341,"current_range_meters":17200,"station_id":"ce4bhqp2rcd13ifvqhng","pricing_plan_id":"cebpf4jnsgd1na2vs0mg"},{"bike_id":"a81e4719-348d-46ac-a3e3-7f5f70704a24","system_id":"levelo_inurba_marseille","lat":43.26558,"lon":5.37293,"is_reserved":false,"is_disabled":false,"rental_uris":{"android":"levelo://app?vid=a81e4719-348d-46ac-a3e3-7f5f70704a24","ios":"levelo://app?vid=a81e4719-348d-46ac-a3e3-7f5f70704a24"},"vehicle_type_id":"4","last_reported":1728058341,"current_range_meters":14400,"station_id":"ce4bhg12rcd13ifvqf70","pricing_plan_id":"cebpf4jnsgd1na2vs0mg"},{"bike_id":"2ae07cb9-873c-459e-b99b-e2d2146c75e4","system_id":"levelo_inurba_marseille","lat":43.28444,"lon":5.39177,"is_reserved":false,"is_disabled":false,"rental_uris":{"android":"levelo://app?vid=2ae07cb9-873c-459e-b99b-e2d2146c75e4","ios":"levelo://app?vid=2ae07cb9-873c-459e-b99b-e2d2146c75e4"},"vehicle_type_id":"4","last_reported":1728058341,"current_range_meters":24000,"station_id":"ce4bhoh2rcd13ifvqh5g","pricing_plan_id":"cebpf4jnsgd1na2vs0mg"},{"bike_id":"8c999e2d-d4cc-4b86-a684-ef19c4b992b1","system_id":"levelo_inurba_marseille","lat":43.290021,"lon":5.356172,"is_reserved":false,"is_disabled":false,"rental_uris":{"android":"levelo://app?vid=8c999e2d-d4cc-4b86-a684-ef19c4b992b1","ios":"levelo://app?vid=8c999e2d-d4cc-4b86-a684-ef19c4b992b1"},"vehicle_type_id":"4","last_reported":1728058341,"current_range_meters":34000,"station_id":"ce4bhb92rcd13ifvqen0","pricing_plan_id":"cebpf4jnsgd1na2vs0mg"},{"bike_id":"8e4ce264-7122-4884-a6d3-e55935bb05eb","system_id":"levelo_inurba_marseille","lat":43.26947,"lon":5.40241,"is_reserved":false,"is_disabled":false,"rental_uris":{"android":"levelo://app?vid=8e4ce264-7122-4884-a6d3-e55935bb05eb","ios":"levelo://app?vid=8e4ce264-7122-4884-a6d3-e55935bb05eb"},"vehicle_type_id":"4","last_reported":1728058341,"current_range_meters":10800,"station_id":"cjm6bp8fraef2m0cb0m0","pricing_plan_id":"cebpf4jnsgd1na2vs0mg"},{"bike_id":"e315600c-3ff8-4893-abe5-0c310d48465d","system_id":"levelo_inurba_marseille","lat":43.33775,"lon":5.37451,"is_reserved":false,"is_disabled":false,"rental_uris":{"android":"levelo://app?vid=e315600c-3ff8-4893-abe5-0c310d48465d","ios":"levelo://app?vid=e315600c-3ff8-4893-abe5-0c310d48465d"},"vehicle_type_id":"4","last_reported":1728058341,"current_range_meters":37600,"station_id":"","pricing_plan_id":"cebpf4jnsgd1na2vs0mg"},{"bike_id":"675bfb4f-0c47-40ff-a3a9-c442260f1cb9","system_id":"levelo_inurba_marseille","lat":43.248096,"lon":5.374583,"is_reserved":false,"is_disabled":false,"rental_uris":{"android":"levelo://app?vid=675bfb4f-0c47-40ff-a3a9-c442260f1cb9","ios":"levelo://app?vid=675bfb4f-0c47-40ff-a3a9-c442260f1cb9"},"vehicle_type_id":"4","last_reported":1728058341,"current_range_meters":6000,"station_id":"ce4bhgh2rcd13ifvqfb0","pricing_plan_id":"cebpf4jnsgd1na2vs0mg"},{"bike_id":"bda54a69-f40b-4725-b91a-b78a4d28c0ea","system_id":"levelo_inurba_marseille","lat":43.28031,"lon":5.36955,"is_reserved":false,"is_disabled":false,"rental_uris":{"android":"levelo://app?vid=bda54a69-f40b-4725-b91a-b78a4d28c0ea","ios":"levelo://app?vid=bda54a69-f40b-4725-b91a-b78a4d28c0ea"},"vehicle_type_id":"4","last_reported":1728058341,"current_range_meters":24400,"station_id":"ce4bha12rcd13ifvqef0","pricing_plan_id":"cebpf4jnsgd1na2vs0mg"},{"bike_id":"947d8870-bfc2-4ac5-89ae-8d8d34b6cd43","system_id":"levelo_inurba_marseille","lat":43.30246,"lon":5.36641,"is_reserved":false,"is_disabled":false,"rental_uris":{"android":"levelo://app?vid=947d8870-bfc2-4ac5-89ae-8d8d34b6cd43","ios":"levelo://app?vid=947d8870-bfc2-4ac5-89ae-8d8d34b6cd43"},"vehicle_type_id":"4","last_reported":1728058341,"current_range_meters":11600,"station_id":"ce4bgrh2rcd13ifvqc8g","pricing_plan_id":"cebpf4jnsgd1na2vs0mg"},{"bike_id":"b170bbea-d78b-4285-8517-a99b0a2ca83b","system_id":"levelo_inurba_marseille","lat":43.26562,"lon":5.37297,"is_reserved":false,"is_disabled":false,"rental_uris":{"android":"levelo://app?vid=b170bbea-d78b-4285-8517-a99b0a2ca83b","ios":"levelo://app?vid=b170bbea-d78b-4285-8517-a99b0a2ca83b"},"vehicle_type_id":"4","last_reported":1728058341,"current_range_meters":30000,"station_id":"ce4bhg12rcd13ifvqf70","pricing_plan_id":"cebpf4jnsgd1na2vs0mg"},{"bike_id":"0f310745-dd27-4862-90b0-54739b07d55d","system_id":"levelo_inurba_marseille","lat":43.25587,"lon":5.38231,"is_reserved":false,"is_disabled":false,"rental_uris":{"android":"levelo://app?vid=0f310745-dd27-4862-90b0-54739b07d55d","ios":"levelo://app?vid=0f310745-dd27-4862-90b0-54739b07d55d"},"vehicle_type_id":"4","last_reported":1728058341,"current_range_meters":4800,"station_id":"ce4bhih2rcd13ifvqfs0","pricing_plan_id":"cebpf4jnsgd1na2vs0mg"},{"bike_id":"740aa9b1-bf7f-495f-b4b6-8c44676bc674","system_id":"levelo_inurba_marseille","lat":43.33756,"lon":5.37448,"is_reserved":false,"is_disabled":false,"rental_uris":{"android":"levelo://app?vid=740aa9b1-bf7f-495f-b4b6-8c44676bc674","ios":"levelo://app?vid=740aa9b1-bf7f-495f-b4b6-8c44676bc674"},"vehicle_type_id":"4","last_reported":1728058341,"current_range_meters":8400,"station_id":"","pricing_plan_id":"cebpf4jnsgd1na2vs0mg"},{"bike_id":"e027f24f-0473-42ed-b341-0ac5426f0eaa","system_id":"levelo_inurba_marseille","lat":43.29896,"lon":5.38308,"is_reserved":false,"is_disabled":false,"rental_uris":{"android":"levelo://app?vid=e027f24f-0473-42ed-b341-0ac5426f0eaa","ios":"levelo://app?vid=e027f24f-0473-42ed-b341-0ac5426f0eaa"},"vehicle_type_id":"4","last_reported":1728058341,"current_range_meters":8000,"station_id":"","pricing_plan_id":"cebpf4jnsgd1na2vs0mg"},{"bike_id":"bf70e735-d1ab-4e73-844a-73925af8dbc0","system_id":"levelo_inurba_marseille","lat":43.28271,"lon":5.35058,"is_reserved":false,"is_disabled":false,"rental_uris":{"android":"levelo://app?vid=bf70e735-d1ab-4e73-844a-73925af8dbc0","ios":"levelo://app?vid=bf70e735-d1ab-4e73-844a-73925af8dbc0"},"vehicle_type_id":"4","last_reported":1728058341,"current_range_meters":6000,"station_id":"ce4bhbp2rcd13ifvqerg","pricing_plan_id":"cebpf4jnsgd1na2vs0mg"},{"bike_id":"77b9203a-0842-4b45-acd8-ada92dfc3441","system_id":"levelo_inurba_marseille","lat":43.29925,"lon":5.38204,"is_reserved":false,"is_disabled":false,"rental_uris":{"android":"levelo://app?vid=77b9203a-0842-4b45-acd8-ada92dfc3441","ios":"levelo://app?vid=77b9203a-0842-4b45-acd8-ada92dfc3441"},"vehicle_type_id":"4","last_reported":1728058341,"current_range_meters":17200,"station_id":"ce4bgj12rcd13ifvqbc0","pricing_plan_id":"cebpf4jnsgd1na2vs0mg"},{"bike_id":"8c61526c-2d67-4b1a-8f32-0018924d753f","system_id":"levelo_inurba_marseille","lat":43.337444,"lon":5.374475,"is_reserved":false,"is_disabled":false,"rental_uris":{"android":"levelo://app?vid=8c61526c-2d67-4b1a-8f32-0018924d753f","ios":"levelo://app?vid=8c61526c-2d67-4b1a-8f32-0018924d753f"},"vehicle_type_id":"4","last_reported":1728058341,"current_range_meters":38400,"station_id":"","pricing_plan_id":"cebpf4jnsgd1na2vs0mg"},{"bike_id":"5861294d-7a89-4305-b563-09ce1c6210f8","system_id":"levelo_inurba_marseille","lat":43.3031,"lon":5.3921,"is_reserved":false,"is_disabled":false,"rental_uris":{"android":"levelo://app?vid=5861294d-7a89-4305-b563-09ce1c6210f8","ios":"levelo://app?vid=5861294d-7a89-4305-b563-09ce1c6210f8"},"vehicle_type_id":"4","last_reported":1728058341,"current_range_meters":34800,"station_id":"ce4bgkh2rcd13ifvqbk0","pricing_plan_id":"cebpf4jnsgd1na2vs0mg"},{"bike_id":"191fe870-2e76-455a-bb62-606cb62d5ffa","system_id":"levelo_inurba_marseille","lat":43.30136,"lon":5.39894,"is_reserved":false,"is_disabled":false,"rental_uris":{"android":"levelo://app?vid=191fe870-2e76-455a-bb62-606cb62d5ffa","ios":"levelo://app?vid=191fe870-2e76-455a-bb62-606cb62d5ffa"},"vehicle_type_id":"4","last_reported":1728058341,"current_range_meters":38800,"station_id":"ce4bh0h2rcd13ifvqd40","pricing_plan_id":"cebpf4jnsgd1na2vs0mg"},{"bike_id":"f8891d34-dd27-4357-9c30-bd5281071bd2","system_id":"levelo_inurba_marseille","lat":43.286618,"lon":5.386633,"is_reserved":false,"is_disabled":false,"rental_uris":{"android":"levelo://app?vid=f8891d34-dd27-4357-9c30-bd5281071bd2","ios":"levelo://app?vid=f8891d34-dd27-4357-9c30-bd5281071bd2"},"vehicle_type_id":"4","last_reported":1728058341,"current_range_meters":9600,"station_id":"ce4bh492rcd13ifvqdug","pricing_plan_id":"cebpf4jnsgd1na2vs0mg"},{"bike_id":"ab11e5b7-ed06-4ab6-bead-54ee33fc61c2","system_id":"levelo_inurba_marseille","lat":43.265694,"lon":5.373526,"is_reserved":false,"is_disabled":false,"rental_uris":{"android":"levelo://app?vid=ab11e5b7-ed06-4ab6-bead-54ee33fc61c2","ios":"levelo://app?vid=ab11e5b7-ed06-4ab6-bead-54ee33fc61c2"},"vehicle_type_id":"4","last_reported":1728058341,"current_range_meters":28800,"station_id":"ce4bhg12rcd13ifvqf70","pricing_plan_id":"cebpf4jnsgd1na2vs0mg"},{"bike_id":"6b315d99-3ae8-4acd-8c24-9531c7a83eb8","system_id":"levelo_inurba_marseille","lat":43.23063,"lon":5.35493,"is_reserved":false,"is_disabled":false,"rental_uris":{"android":"levelo://app?vid=6b315d99-3ae8-4acd-8c24-9531c7a83eb8","ios":"levelo://app?vid=6b315d99-3ae8-4acd-8c24-9531c7a83eb8"},"vehicle_type_id":"4","last_reported":1728058341,"current_range_meters":18000,"station_id":"cpo3342slgdg3j2ifvpg","pricing_plan_id":"cebpf4jnsgd1na2vs0mg"},{"bike_id":"d26e4c8e-6154-43fe-9bb3-8cfbcdb85e0a","system_id":"levelo_inurba_marseille","lat":43.30333,"lon":5.37048,"is_reserved":false,"is_disabled":false,"rental_uris":{"android":"levelo://app?vid=d26e4c8e-6154-43fe-9bb3-8cfbcdb85e0a","ios":"levelo://app?vid=d26e4c8e-6154-43fe-9bb3-8cfbcdb85e0a"},"vehicle_type_id":"4","last_reported":1728058341,"current_range_meters":6800,"station_id":"","pricing_plan_id":"cebpf4jnsgd1na2vs0mg"},{"bike_id":"55188226-ff9f-45e8-99b6-3c0c54d286d9","system_id":"levelo_inurba_marseille","lat":43.28447,"lon":5.36648,"is_reserved":false,"is_disabled":false,"rental_uris":{"android":"levelo://app?vid=55188226-ff9f-45e8-99b6-3c0c54d286d9","ios":"levelo://app?vid=55188226-ff9f-45e8-99b6-3c0c54d286d9"},"vehicle_type_id":"4","last_reported":1728058341,"current_range_meters":7200,"station_id":"ce4bhbp2rcd13ifvqerg","pricing_plan_id":"cebpf4jnsgd1na2vs0mg"},{"bike_id":"29201111-7e17-45d6-a39e-37751c0402e6","system_id":"levelo_inurba_marseille","lat":43.29007,"lon":5.35619,"is_reserved":false,"is_disabled":false,"rental_uris":{"android":"levelo://app?vid=29201111-7e17-45d6-a39e-37751c0402e6","ios":"levelo://app?vid=29201111-7e17-45d6-a39e-37751c0402e6"},"vehicle_type_id":"4","last_reported":1728058341,"current_range_meters":6800,"station_id":"ce4bhb92rcd13ifvqen0","pricing_plan_id":"cebpf4jnsgd1na2vs0mg"},{"bike_id":"8bd5252c-6294-43a1-863d-f1c0353c0ace","system_id":"levelo_inurba_marseille","lat":43.25574,"lon":5.38255,"is_reserved":false,"is_disabled":false,"rental_uris":{"android":"levelo://app?vid=8bd5252c-6294-43a1-863d-f1c0353c0ace","ios":"levelo://app?vid=8bd5252c-6294-43a1-863d-f1c0353c0ace"},"vehicle_type_id":"4","last_reported":1728058341,"current_range_meters":27600,"station_id":"ce4bhih2rcd13ifvqfs0","pricing_plan_id":"cebpf4jnsgd1na2vs0mg"},{"bike_id":"d7f98b9a-aea7-4d41-bd52-c2594cd83f10","system_id":"levelo_inurba_marseille","lat":43.30429,"lon":5.39751,"is_reserved":false,"is_disabled":false,"rental_uris":{"android":"levelo://app?vid=d7f98b9a-aea7-4d41-bd52-c2594cd83f10","ios":"levelo://app?vid=d7f98b9a-aea7-4d41-bd52-c2594cd83f10"},"vehicle_type_id":"4","last_reported":1728058341,"current_range_meters":9600,"station_id":"ce4bh092rcd13ifvqd20","pricing_plan_id":"cebpf4jnsgd1na2vs0mg"},{"bike_id":"8ec56e8c-1fba-4042-b742-e841d8daec3b","system_id":"levelo_inurba_marseille","lat":43.26558,"lon":5.37287,"is_reserved":false,"is_disabled":false,"rental_uris":{"android":"levelo://app?vid=8ec56e8c-1fba-4042-b742-e841d8daec3b","ios":"levelo://app?vid=8ec56e8c-1fba-4042-b742-e841d8daec3b"},"vehicle_type_id":"4","last_reported":1728058341,"current_range_meters":24400,"station_id":"ce4bgnh2rcd13ifvqc0g","pricing_plan_id":"cebpf4jnsgd1na2vs0mg"},{"bike_id":"9a4212d4-dfbb-45d0-9670-69900c1c2395","system_id":"levelo_inurba_marseille","lat":43.31713,"lon":5.37159,"is_reserved":false,"is_disabled":false,"rental_uris":{"android":"levelo://app?vid=9a4212d4-dfbb-45d0-9670-69900c1c2395","ios":"levelo://app?vid=9a4212d4-dfbb-45d0-9670-69900c1c2395"},"vehicle_type_id":"4","last_reported":1728058341,"current_range_meters":16400,"station_id":"","pricing_plan_id":"cebpf4jnsgd1na2vs0mg"},{"bike_id":"18e39a3f-f78e-4e3c-8396-9f8397f3964e","system_id":"levelo_inurba_marseille","lat":43.33025,"lon":5.39037,"is_reserved":false,"is_disabled":false,"rental_uris":{"android":"levelo://app?vid=18e39a3f-f78e-4e3c-8396-9f8397f3964e","ios":"levelo://app?vid=18e39a3f-f78e-4e3c-8396-9f8397f3964e"},"vehicle_type_id":"4","last_reported":1728058341,"current_range_meters":4400,"station_id":"ce4bhr92rcd13ifvqhrg","pricing_plan_id":"cebpf4jnsgd1na2vs0mg"},{"bike_id":"8eba77a8-588b-4abb-8436-359b678f0e34","system_id":"levelo_inurba_marseille","lat":43.27431,"lon":5.39414,"is_reserved":false,"is_disabled":false,"rental_uris":{"android":"levelo://app?vid=8eba77a8-588b-4abb-8436-359b678f0e34","ios":"levelo://app?vid=8eba77a8-588b-4abb-8436-359b678f0e34"},"vehicle_type_id":"4","last_reported":1728058341,"current_range_meters":35600,"station_id":"ce4bhdp2rcd13ifvqf20","pricing_plan_id":"cebpf4jnsgd1na2vs0mg"},{"bike_id":"2dec3f65-1db3-4999-9a3f-084ac13924e3","system_id":"levelo_inurba_marseille","lat":43.29772,"lon":5.37103,"is_reserved":false,"is_disabled":false,"rental_uris":{"android":"levelo://app?vid=2dec3f65-1db3-4999-9a3f-084ac13924e3","ios":"levelo://app?vid=2dec3f65-1db3-4999-9a3f-084ac13924e3"},"vehicle_type_id":"4","last_reported":1728058341,"current_range_meters":24800,"station_id":"ce4bgop2rcd13ifvqc1g","pricing_plan_id":"cebpf4jnsgd1na2vs0mg"},{"bike_id":"495b707b-2db1-45f5-b72d-0106bac69d03","system_id":"levelo_inurba_marseille","lat":43.29051,"lon":5.35913,"is_reserved":false,"is_disabled":false,"rental_uris":{"android":"levelo://app?vid=495b707b-2db1-45f5-b72d-0106bac69d03","ios":"levelo://app?vid=495b707b-2db1-45f5-b72d-0106bac69d03"},"vehicle_type_id":"4","last_reported":1728058341,"current_range_meters":7200,"station_id":"ce4bha92rcd13ifvqeg0","pricing_plan_id":"cebpf4jnsgd1na2vs0mg"},{"bike_id":"87dbcfac-a352-4e9a-b02f-707f526fd230","system_id":"levelo_inurba_marseille","lat":43.33767,"lon":5.37428,"is_reserved":false,"is_disabled":false,"rental_uris":{"android":"levelo://app?vid=87dbcfac-a352-4e9a-b02f-707f526fd230","ios":"levelo://app?vid=87dbcfac-a352-4e9a-b02f-707f526fd230"},"vehicle_type_id":"4","last_reported":1728058341,"current_range_meters":36000,"station_id":"","pricing_plan_id":"cebpf4jnsgd1na2vs0mg"},{"bike_id":"b1e82195-8737-4b91-8d76-5ccf5899abaf","system_id":"levelo_inurba_marseille","lat":43.287948,"lon":5.36094,"is_reserved":false,"is_disabled":false,"rental_uris":{"android":"levelo://app?vid=b1e82195-8737-4b91-8d76-5ccf5899abaf","ios":"levelo://app?vid=b1e82195-8737-4b91-8d76-5ccf5899abaf"},"vehicle_type_id":"4","last_reported":1728058341,"current_range_meters":17600,"station_id":"","pricing_plan_id":"cebpf4jnsgd1na2vs0mg"},{"bike_id":"695a0fae-2d34-4667-bbfc-a4eadf01e0da","system_id":"levelo_inurba_marseille","lat":43.29879,"lon":5.38897,"is_reserved":false,"is_disabled":false,"rental_uris":{"android":"levelo://app?vid=695a0fae-2d34-4667-bbfc-a4eadf01e0da","ios":"levelo://app?vid=695a0fae-2d34-4667-bbfc-a4eadf01e0da"},"vehicle_type_id":"4","last_reported":1728058341,"current_range_meters":6000,"station_id":"ce4bh392rcd13ifvqdl0","pricing_plan_id":"cebpf4jnsgd1na2vs0mg"},{"bike_id":"5cb05266-7e3a-434f-8778-bbcbbfb3641d","system_id":"levelo_inurba_marseille","lat":43.295532,"lon":5.395446,"is_reserved":false,"is_disabled":false,"rental_uris":{"android":"levelo://app?vid=5cb05266-7e3a-434f-8778-bbcbbfb3641d","ios":"levelo://app?vid=5cb05266-7e3a-434f-8778-bbcbbfb3641d"},"vehicle_type_id":"4","last_reported":1728058341,"current_range_meters":16000,"station_id":"ce4bgvp2rcd13ifvqct0","pricing_plan_id":"cebpf4jnsgd1na2vs0mg"},{"bike_id":"d242e93b-4b96-432f-9234-907aa84a2ecd","system_id":"levelo_inurba_marseille","lat":43.29063,"lon":5.37162,"is_reserved":false,"is_disabled":false,"rental_uris":{"android":"levelo://app?vid=d242e93b-4b96-432f-9234-907aa84a2ecd","ios":"levelo://app?vid=d242e93b-4b96-432f-9234-907aa84a2ecd"},"vehicle_type_id":"4","last_reported":1728058341,"current_range_meters":28400,"station_id":"ce4bh5p2rcd13ifvqe4g","pricing_plan_id":"cebpf4jnsgd1na2vs0mg"},{"bike_id":"fac85e5e-7249-4399-90fd-2f54b2f8ec4e","system_id":"levelo_inurba_marseille","lat":43.26804,"lon":5.4027,"is_reserved":false,"is_disabled":false,"rental_uris":{"android":"levelo://app?vid=fac85e5e-7249-4399-90fd-2f54b2f8ec4e","ios":"levelo://app?vid=fac85e5e-7249-4399-90fd-2f54b2f8ec4e"},"vehicle_type_id":"4","last_reported":1728058341,"current_range_meters":16800,"station_id":"ce501612rcd8frsf0b60","pricing_plan_id":"cebpf4jnsgd1na2vs0mg"},{"bike_id":"dbf1a5bf-eaf9-4f0b-898b-080ad9acdf9a","system_id":"levelo_inurba_marseille","lat":43.27059,"lon":5.40259,"is_reserved":false,"is_disabled":false,"rental_uris":{"android":"levelo://app?vid=dbf1a5bf-eaf9-4f0b-898b-080ad9acdf9a","ios":"levelo://app?vid=dbf1a5bf-eaf9-4f0b-898b-080ad9acdf9a"},"vehicle_type_id":"4","last_reported":1728058341,"current_range_meters":25600,"station_id":"ce4bhk92rcd13ifvqgc0","pricing_plan_id":"cebpf4jnsgd1na2vs0mg"},{"bike_id":"55ba4f94-d6d8-427e-9178-618755c2d069","system_id":"levelo_inurba_marseille","lat":43.24547,"lon":5.3952,"is_reserved":false,"is_disabled":false,"rental_uris":{"android":"levelo://app?vid=55ba4f94-d6d8-427e-9178-618755c2d069","ios":"levelo://app?vid=55ba4f94-d6d8-427e-9178-618755c2d069"},"vehicle_type_id":"4","last_reported":1728058341,"current_range_meters":12000,"station_id":"ce4bhlp2rcd13ifvqgjg","pricing_plan_id":"cebpf4jnsgd1na2vs0mg"},{"bike_id":"d23a4f03-6ec0-4ece-81ea-75a978d5b687","system_id":"levelo_inurba_marseille","lat":43.33758,"lon":5.37438,"is_reserved":false,"is_disabled":false,"rental_uris":{"android":"levelo://app?vid=d23a4f03-6ec0-4ece-81ea-75a978d5b687","ios":"levelo://app?vid=d23a4f03-6ec0-4ece-81ea-75a978d5b687"},"vehicle_type_id":"4","last_reported":1728058341,"current_range_meters":38800,"station_id":"","pricing_plan_id":"cebpf4jnsgd1na2vs0mg"},{"bike_id":"26909916-67f8-4b02-b377-9e5e283eeb93","system_id":"levelo_inurba_marseille","lat":43.30432,"lon":5.39747,"is_reserved":false,"is_disabled":false,"rental_uris":{"android":"levelo://app?vid=26909916-67f8-4b02-b377-9e5e283eeb93","ios":"levelo://app?vid=26909916-67f8-4b02-b377-9e5e283eeb93"},"vehicle_type_id":"4","last_reported":1728058341,"current_range_meters":6000,"station_id":"ce4bh092rcd13ifvqd20","pricing_plan_id":"cebpf4jnsgd1na2vs0mg"},{"bike_id":"204acf08-3fd0-4a60-943f-6f915f5c1b91","system_id":"levelo_inurba_marseille","lat":43.32366,"lon":5.38883,"is_reserved":false,"is_disabled":false,"rental_uris":{"android":"levelo://app?vid=204acf08-3fd0-4a60-943f-6f915f5c1b91","ios":"levelo://app?vid=204acf08-3fd0-4a60-943f-6f915f5c1b91"},"vehicle_type_id":"4","last_reported":1728058341,"current_range_meters":21600,"station_id":"ce4bhqp2rcd13ifvqhog","pricing_plan_id":"cebpf4jnsgd1na2vs0mg"},{"bike_id":"dd45ebbe-327c-4cd7-b981-e624a2989d58","system_id":"levelo_inurba_marseille","lat":43.28428,"lon":5.35,"is_reserved":false,"is_disabled":false,"rental_uris":{"android":"levelo://app?vid=dd45ebbe-327c-4cd7-b981-e624a2989d58","ios":"levelo://app?vid=dd45ebbe-327c-4cd7-b981-e624a2989d58"},"vehicle_type_id":"4","last_reported":1728058341,"current_range_meters":33600,"station_id":"ce4bhbh2rcd13ifvqepg","pricing_plan_id":"cebpf4jnsgd1na2vs0mg"},{"bike_id":"05c37b3a-d180-4f39-8a05-3a039b77b11c","system_id":"levelo_inurba_marseille","lat":43.2862,"lon":5.35103,"is_reserved":false,"is_disabled":false,"rental_uris":{"android":"levelo://app?vid=05c37b3a-d180-4f39-8a05-3a039b77b11c","ios":"levelo://app?vid=05c37b3a-d180-4f39-8a05-3a039b77b11c"},"vehicle_type_id":"4","last_reported":1728058341,"current_range_meters":38800,"station_id":"ce4bhch2rcd13ifvqeug","pricing_plan_id":"cebpf4jnsgd1na2vs0mg"},{"bike_id":"5f24aa6a-a0ce-459b-92f1-f7886bc487d5","system_id":"levelo_inurba_marseille","lat":43.29901,"lon":5.43676,"is_reserved":false,"is_disabled":false,"rental_uris":{"android":"levelo://app?vid=5f24aa6a-a0ce-459b-92f1-f7886bc487d5","ios":"levelo://app?vid=5f24aa6a-a0ce-459b-92f1-f7886bc487d5"},"vehicle_type_id":"4","last_reported":1728058341,"current_range_meters":4400,"station_id":"ce4bhpp2rcd13ifvqhfg","pricing_plan_id":"cebpf4jnsgd1na2vs0mg"},{"bike_id":"2fc5050f-b036-4255-a193-23eec2fec7cc","system_id":"levelo_inurba_marseille","lat":43.23061,"lon":5.35493,"is_reserved":false,"is_disabled":false,"rental_uris":{"android":"levelo://app?vid=2fc5050f-b036-4255-a193-23eec2fec7cc","ios":"levelo://app?vid=2fc5050f-b036-4255-a193-23eec2fec7cc"},"vehicle_type_id":"4","last_reported":1728058341,"current_range_meters":9200,"station_id":"cpo3342slgdg3j2ifvpg","pricing_plan_id":"cebpf4jnsgd1na2vs0mg"},{"bike_id":"f01042e1-b26c-4c0c-9560-fc302d270473","system_id":"levelo_inurba_marseille","lat":43.28702,"lon":5.37387,"is_reserved":false,"is_disabled":false,"rental_uris":{"android":"levelo://app?vid=f01042e1-b26c-4c0c-9560-fc302d270473","ios":"levelo://app?vid=f01042e1-b26c-4c0c-9560-fc302d270473"},"vehicle_type_id":"4","last_reported":1728058341,"current_range_meters":6400,"station_id":"ce4bh3p2rcd13ifvqdq0","pricing_plan_id":"cebpf4jnsgd1na2vs0mg"},{"bike_id":"be02eb35-ecaa-446f-b22c-bb52b81351cd","system_id":"levelo_inurba_marseille","lat":43.337444,"lon":5.374475,"is_reserved":false,"is_disabled":false,"rental_uris":{"android":"levelo://app?vid=be02eb35-ecaa-446f-b22c-bb52b81351cd","ios":"levelo://app?vid=be02eb35-ecaa-446f-b22c-bb52b81351cd"},"vehicle_type_id":"4","last_reported":1728058341,"current_range_meters":38000,"station_id":"ce4bhp12rcd13ifvqh9g","pricing_plan_id":"cebpf4jnsgd1na2vs0mg"},{"bike_id":"d9dd41bb-4b88-4001-a39e-386b168f7bc4","system_id":"levelo_inurba_marseille","lat":43.31331,"lon":5.39689,"is_reserved":false,"is_disabled":false,"rental_uris":{"android":"levelo://app?vid=d9dd41bb-4b88-4001-a39e-386b168f7bc4","ios":"levelo://app?vid=d9dd41bb-4b88-4001-a39e-386b168f7bc4"},"vehicle_type_id":"4","last_reported":1728058341,"current_range_meters":6800,"station_id":"ce4bgvp2rcd13ifvqcu0","pricing_plan_id":"cebpf4jnsgd1na2vs0mg"},{"bike_id":"ab7f67b1-4bcb-4ea4-aa8e-d3b3c4b653e5","system_id":"levelo_inurba_marseille","lat":43.2293,"lon":5.35379,"is_reserved":false,"is_disabled":false,"rental_uris":{"android":"levelo://app?vid=ab7f67b1-4bcb-4ea4-aa8e-d3b3c4b653e5","ios":"levelo://app?vid=ab7f67b1-4bcb-4ea4-aa8e-d3b3c4b653e5"},"vehicle_type_id":"4","last_reported":1728058341,"current_range_meters":24800,"station_id":"cpo3532slgdg3j2ikp40","pricing_plan_id":"cebpf4jnsgd1na2vs0mg"},{"bike_id":"18797f7b-03ff-4561-b4b7-4a39b50c03f6","system_id":"levelo_inurba_marseille","lat":43.29901,"lon":5.43658,"is_reserved":false,"is_disabled":false,"rental_uris":{"android":"levelo://app?vid=18797f7b-03ff-4561-b4b7-4a39b50c03f6","ios":"levelo://app?vid=18797f7b-03ff-4561-b4b7-4a39b50c03f6"},"vehicle_type_id":"4","last_reported":1728058341,"current_range_meters":38400,"station_id":"ce4bhpp2rcd13ifvqhfg","pricing_plan_id":"cebpf4jnsgd1na2vs0mg"},{"bike_id":"dc0cb00a-c751-409f-bb67-4581837588c6","system_id":"levelo_inurba_marseille","lat":43.29901,"lon":5.4366,"is_reserved":false,"is_disabled":false,"rental_uris":{"android":"levelo://app?vid=dc0cb00a-c751-409f-bb67-4581837588c6","ios":"levelo://app?vid=dc0cb00a-c751-409f-bb67-4581837588c6"},"vehicle_type_id":"4","last_reported":1728058341,"current_range_meters":14400,"station_id":"ce4bhpp2rcd13ifvqhfg","pricing_plan_id":"cebpf4jnsgd1na2vs0mg"},{"bike_id":"8e45e5b5-c3d2-4750-bd14-0fc5daa657ab","system_id":"levelo_inurba_marseille","lat":43.31081,"lon":5.42429,"is_reserved":false,"is_disabled":false,"rental_uris":{"android":"levelo://app?vid=8e45e5b5-c3d2-4750-bd14-0fc5daa657ab","ios":"levelo://app?vid=8e45e5b5-c3d2-4750-bd14-0fc5daa657ab"},"vehicle_type_id":"4","last_reported":1728058341,"current_range_meters":39200,"station_id":"ce4bhp92rcd13ifvqhag","pricing_plan_id":"cebpf4jnsgd1na2vs0mg"},{"bike_id":"82535dcd-b54e-4085-b5a9-ac389364bfa7","system_id":"levelo_inurba_marseille","lat":43.27561,"lon":5.38476,"is_reserved":false,"is_disabled":false,"rental_uris":{"android":"levelo://app?vid=82535dcd-b54e-4085-b5a9-ac389364bfa7","ios":"levelo://app?vid=82535dcd-b54e-4085-b5a9-ac389364bfa7"},"vehicle_type_id":"4","last_reported":1728058341,"current_range_meters":11200,"station_id":"ce4bhh92rcd13ifvqfi0","pricing_plan_id":"cebpf4jnsgd1na2vs0mg"},{"bike_id":"1e81b852-cce1-4bc2-be3c-a21315bf41ba","system_id":"levelo_inurba_marseille","lat":43.30086,"lon":5.39062,"is_reserved":false,"is_disabled":false,"rental_uris":{"android":"levelo://app?vid=1e81b852-cce1-4bc2-be3c-a21315bf41ba","ios":"levelo://app?vid=1e81b852-cce1-4bc2-be3c-a21315bf41ba"},"vehicle_type_id":"4","last_reported":1728058341,"current_range_meters":26000,"station_id":"ce4bh192rcd13ifvqdb0","pricing_plan_id":"cebpf4jnsgd1na2vs0mg"},{"bike_id":"f3ecbc1a-44e8-495e-88d9-ac550596c832","system_id":"levelo_inurba_marseille","lat":43.28617,"lon":5.37063,"is_reserved":false,"is_disabled":false,"rental_uris":{"android":"levelo://app?vid=f3ecbc1a-44e8-495e-88d9-ac550596c832","ios":"levelo://app?vid=f3ecbc1a-44e8-495e-88d9-ac550596c832"},