{"last_updated":1740593581,"ttl":60,"version":"2.2","data":{"bikes":[{"bike_id":"efcdd71a-2aeb-4666-b067-94623c0c981a","system_id":"levelo_inurba_marseille","lat":43.30744,"lon":5.38186,"is_reserved":false,"is_disabled":false,"rental_uris":{"android":"levelo://app?vid=efcdd71a-2aeb-4666-b067-94623c0c981a","ios":"levelo://app?vid=efcdd71a-2aeb-4666-b067-94623c0c981a"},"vehicle_type_id":"4","last_reported":1740593581,"current_range_meters":2800,"station_id":"","pricing_plan_id":"cebpf4jnsgd1na2vs0mg"},{"bike_id":"24a04eeb-09d5-40ca-835b-69f5ef43731f","system_id":"levelo_inurba_marseille","lat":43.29866,"lon":5.3972,"is_reserved":false,"is_disabled":false,"rental_uris":{"android":"levelo://app?vid=24a04eeb-09d5-40ca-835b-69f5ef43731f","ios":"levelo://app?vid=24a04eeb-09d5-40ca-835b-69f5ef43731f"},"vehicle_type_id":"4","last_reported":1740593581,"current_range_meters":2800,"station_id":"ce4bh0h2rcd13ifvqd50","pricing_plan_id":"cebpf4jnsgd1na2vs0mg"},{"bike_id":"8bc19daa-7cd7-4bcb-a199-feff52fa3d76","system_id":"levelo_inurba_marseille","lat":43.29575,"lon":5.39959,"is_reserved":false,"is_disabled":false,"rental_uris":{"android":"levelo://app?vid=8bc19daa-7cd7-4bcb-a199-feff52fa3d76","ios":"levelo://app?vid=8bc19daa-7cd7-4bcb-a199-feff52fa3d76"},"vehicle_type_id":"4","last_reported":1740593581,"current_range_meters":2800,"station_id":"ce4bh312rcd13ifvqdj0","pricing_plan_id":"cebpf4jnsgd1na2vs0mg"},{"bike_id":"151bf084-2ea8-4bf4-a178-58748ed15a15","system_id":"levelo_inurba_marseille","lat":43.29944,"lon":5.36541,"is_reserved":false,"is_disabled":false,"rental_uris":{"android":"levelo://app?vid=151bf084-2ea8-4bf4-a178-58748ed15a15","ios":"levelo://app?vid=151bf084-2ea8-4bf4-a178-58748ed15a15"},"vehicle_type_id":"4","last_reported":1740593581,"current_range_meters":2800,"station_id":"ce4bgm92rcd13ifvqbr0","pricing_plan_id":"cebpf4jnsgd1na2vs0mg"},{"bike_id":"5e3bc055-53f5-4e27-b05a-f6514521a1e0","system_id":"levelo_inurba_marseille","lat":43.25493,"lon":5.37652,"is_reserved":false,"is_disabled":false,"rental_uris":{"android":"levelo://app?vid=5e3bc055-53f5-4e27-b05a-f6514521a1e0","ios":"levelo://app?vid=5e3bc055-53f5-4e27-b05a-f6514521a1e0"},"vehicle_type_id":"4","last_reported":1740593581,"current_range_meters":2800,"station_id":"ce4bhh12rcd13ifvqff0","pricing_plan_id":"cebpf4jnsgd1na2vs0mg"},{"bike_id":"da017975-521b-49d4-a8bb-b8944ff16e13","system_id":"levelo_inurba_marseille","lat":43.23192,"lon":5.35549,"is_reserved":false,"is_disabled":false,"rental_uris":{"android":"levelo://app?vid=da017975-521b-49d4-a8bb-b8944ff16e13","ios":"levelo://app?vid=da017975-521b-49d4-a8bb-b8944ff16e13"},"vehicle_type_id":"4","last_reported":1740593581,"current_range_meters":3200,"station_id":"ce4bhu92rcd13ifvqi70","pricing_plan_id":"cebpf4jnsgd1na2vs0mg"},{"bike_id":"a927b24b-6eb1-4dea-9282-eb7237210e65","system_id":"levelo_inurba_marseille","lat":43.29228,"lon":5.3607,"is_reserved":false,"is_disabled":false,"rental_uris":{"android":"levelo://app?vid=a927b24b-6eb1-4dea-9282-eb7237210e65","ios":"levelo://app?vid=a927b24b-6eb1-4dea-9282-eb7237210e65"},"vehicle_type_id":"4","last_reported":1740593581,"current_range_meters":1200,"station_id":"ce4bhbh2rcd13ifvqeqg","pricing_plan_id":"cebpf4jnsgd1na2vs0mg"},{"bike_id":"b1390c52-917d-4eb2-9a5a-de5ed9ba5ddc","system_id":"levelo_inurba_marseille","lat":43.29921,"lon":5.43612,"is_reserved":false,"is_disabled":false,"rental_uris":{"android":"levelo://app?vid=b1390c52-917d-4eb2-9a5a-de5ed9ba5ddc","ios":"levelo://app?vid=b1390c52-917d-4eb2-9a5a-de5ed9ba5ddc"},"vehicle_type_id":"4","last_reported":1740593581,"current_range_meters":3200,"station_id":"","pricing_plan_id":"cebpf4jnsgd1na2vs0mg"},{"bike_id":"d32266a4-5cf1-4f5a-9f6d-c0589924d5f6","system_id":"levelo_inurba_marseille","lat":43.28269,"lon":5.35076,"is_reserved":false,"is_disabled":false,"rental_uris":{"android":"levelo://app?vid=d32266a4-5cf1-4f5a-9f6d-c0589924d5f6","ios":"levelo://app?vid=d32266a4-5cf1-4f5a-9f6d-c0589924d5f6"},"vehicle_type_id":"4","last_reported":1740593581,"current_range_meters":2800,"station_id":"ce4bhbp2rcd13ifvqerg","pricing_plan_id":"cebpf4jnsgd1na2vs0mg"},{"bike_id":"aac2a0bf-61f8-423a-80b0-553c682af473","system_id":"levelo_inurba_marseille","lat":43.29866,"lon":5.39746,"is_reserved":false,"is_disabled":false,"rental_uris":{"android":"levelo://app?vid=aac2a0bf-61f8-423a-80b0-553c682af473","ios":"levelo://app?vid=aac2a0bf-61f8-423a-80b0-553c682af473"},"vehicle_type_id":"4","last_reported":1740593581,"current_range_meters":2800,"station_id":"ce4bh0h2rcd13ifvqd50","pricing_plan_id":"cebpf4jnsgd1na2vs0mg"},{"bike_id":"2d9fd4d8-c93e-4482-ac9a-27e0eb1c2dfe","system_id":"levelo_inurba_marseille","lat":43.31436,"lon":5.3876,"is_reserved":false,"is_disabled":false,"rental_uris":{"android":"levelo://app?vid=2d9fd4d8-c93e-4482-ac9a-27e0eb1c2dfe","ios":"levelo://app?vid=2d9fd4d8-c93e-4482-ac9a-27e0eb1c2dfe"},"vehicle_type_id":"4","last_reported":1740593581,"current_range_meters":3200,"station_id":"","pricing_plan_id":"cebpf4jnsgd1na2vs0mg"},{"bike_id":"81ba0aa0-f712-443e-b93c-1dfef59f8a22","system_id":"levelo_inurba_marseille","lat":43.29918,"lon":5.38135,"is_reserved":false,"is_disabled":false,"rental_uris":{"android":"levelo://app?vid=81ba0aa0-f712-443e-b93c-1dfef59f8a22","ios":"levelo://app?vid=81ba0aa0-f712-443e-b93c-1dfef59f8a22"},"vehicle_type_id":"4","last_reported":1740593581,"current_range_meters":3600,"station_id":"ce4bgj12rcd13ifvqbc0","pricing_plan_id":"cebpf4jnsgd1na2vs0mg"},{"bike_id":"fc3b0701-6ff0-4508-a8d1-76bb4f57b7f6","system_id":"levelo_inurba_marseille","lat":43.24063,"lon":5.37758,"is_reserved":false,"is_disabled":false,"rental_uris":{"android":"levelo://app?vid=fc3b0701-6ff0-4508-a8d1-76bb4f57b7f6","ios":"levelo://app?vid=fc3b0701-6ff0-4508-a8d1-76bb4f57b7f6"},"vehicle_type_id":"4","last_reported":1740593581,"current_range_meters":3600,"station_id":"ce4bhnp2rcd13ifvqgvg","pricing_plan_id":"cebpf4jnsgd1na2vs0mg"},{"bike_id":"d8241dcb-1b5b-4fe6-aa5d-18612a4c32c1","system_id":"levelo_inurba_marseille","lat":43.29581,"lon":5.36747,"is_reserved":false,"is_disabled":false,"rental_uris":{"android":"levelo://app?vid=d8241dcb-1b5b-4fe6-aa5d-18612a4c32c1","ios":"levelo://app?vid=d8241dcb-1b5b-4fe6-aa5d-18612a4c32c1"},"vehicle_type_id":"4","last_reported":1740593581,"current_range_meters":3200,"station_id":"ce4bgph2rcd13ifvqc2g","pricing_plan_id":"cebpf4jnsgd1na2vs0mg"},{"bike_id":"521d663b-15ff-4081-b55d-050096b7c9a0","system_id":"levelo_inurba_marseille","lat":43.27811,"lon":5.40716,"is_reserved":false,"is_disabled":false,"rental_uris":{"android":"levelo://app?vid=521d663b-15ff-4081-b55d-050096b7c9a0","ios":"levelo://app?vid=521d663b-15ff-4081-b55d-050096b7c9a0"},"vehicle_type_id":"4","last_reported":1740593581,"current_range_meters":3200,"station_id":"ce4bhnh2rcd13ifvqgtg","pricing_plan_id":"cebpf4jnsgd1na2vs0mg"},{"bike_id":"4df591c0-6182-41eb-a252-dab3ecc79a22","system_id":"levelo_inurba_marseille","lat":43.29851,"lon":5.36273,"is_reserved":false,"is_disabled":false,"rental_uris":{"android":"levelo://app?vid=4df591c0-6182-41eb-a252-dab3ecc79a22","ios":"levelo://app?vid=4df591c0-6182-41eb-a252-dab3ecc79a22"},"vehicle_type_id":"4","last_reported":1740593581,"current_range_meters":1200,"station_id":"ce4bgpp2rcd13ifvqc3g","pricing_plan_id":"cebpf4jnsgd1na2vs0mg"},{"bike_id":"799f2c34-7d44-4f4f-b2a9-44bc3993d907","system_id":"levelo_inurba_marseille","lat":43.30788,"lon":5.38162,"is_reserved":false,"is_disabled":false,"rental_uris":{"android":"levelo://app?vid=799f2c34-7d44-4f4f-b2a9-44bc3993d907","ios":"levelo://app?vid=799f2c34-7d44-4f4f-b2a9-44bc3993d907"},"vehicle_type_id":"4","last_reported":1740593581,"current_range_meters":3600,"station_id":"ce4bgt12rcd13ifvqce0","pricing_plan_id":"cebpf4jnsgd1na2vs0mg"},{"bike_id":"98f523d2-e2f5-4341-843c-7df6565338b7","system_id":"levelo_inurba_marseille","lat":43.28464,"lon":5.35889,"is_reserved":false,"is_disabled":false,"rental_uris":{"android":"levelo://app?vid=98f523d2-e2f5-4341-843c-7df6565338b7","ios":"levelo://app?vid=98f523d2-e2f5-4341-843c-7df6565338b7"},"vehicle_type_id":"4","last_reported":1740593581,"current_range_meters":4000,"station_id":"ce4bhah2rcd13ifvqei0","pricing_plan_id":"cebpf4jnsgd1na2vs0mg"},{"bike_id":"1820ddbc-24da-4c28-b46f-1a96bd96d67c","system_id":"levelo_inurba_marseille","lat":43.29932,"lon":5.36532,"is_reserved":false,"is_disabled":false,"rental_uris":{"android":"levelo://app?vid=1820ddbc-24da-4c28-b46f-1a96bd96d67c","ios":"levelo://app?vid=1820ddbc-24da-4c28-b46f-1a96bd96d67c"},"vehicle_type_id":"4","last_reported":1740593581,"current_range_meters":4000,"station_id":"ce4bgm92rcd13ifvqbr0","pricing_plan_id":"cebpf4jnsgd1na2vs0mg"},{"bike_id":"d2881312-9c8c-479d-bdca-93ff41e259c8","system_id":"levelo_inurba_marseille","lat":43.30434,"lon":5.38891,"is_reserved":false,"is_disabled":false,"rental_uris":{"android":"levelo://app?vid=d2881312-9c8c-479d-bdca-93ff41e259c8","ios":"levelo://app?vid=d2881312-9c8c-479d-bdca-93ff41e259c8"},"vehicle_type_id":"4","last_reported":1740593581,"current_range_meters":800,"station_id":"ce4bgk12rcd13ifvqbi0","pricing_plan_id":"cebpf4jnsgd1na2vs0mg"},{"bike_id":"10005bf3-4d82-4250-913c-7a000a9bdda7","system_id":"levelo_inurba_marseille","lat":43.30144,"lon":5.37416,"is_reserved":false,"is_disabled":false,"rental_uris":{"android":"levelo://app?vid=10005bf3-4d82-4250-913c-7a000a9bdda7","ios":"levelo://app?vid=10005bf3-4d82-4250-913c-7a000a9bdda7"},"vehicle_type_id":"4","last_reported":1740593581,"current_range_meters":4400,"station_id":"ce4bgs92rcd13ifvqcc0","pricing_plan_id":"cebpf4jnsgd1na2vs0mg"},{"bike_id":"522c2386-75e2-4fd2-82f0-cb73251ef00c","system_id":"levelo_inurba_marseille","lat":43.29192,"lon":5.358,"is_reserved":false,"is_disabled":false,"rental_uris":{"android":"levelo://app?vid=522c2386-75e2-4fd2-82f0-cb73251ef00c","ios":"levelo://app?vid=522c2386-75e2-4fd2-82f0-cb73251ef00c"},"vehicle_type_id":"4","last_reported":1740593581,"current_range_meters":4000,"station_id":"ce4bhb12rcd13ifvqel0","pricing_plan_id":"cebpf4jnsgd1na2vs0mg"},{"bike_id":"0d0f6b4f-d197-461b-9eaf-1d3222086e8e","system_id":"levelo_inurba_marseille","lat":43.28842,"lon":5.39314,"is_reserved":false,"is_disabled":false,"rental_uris":{"android":"levelo://app?vid=0d0f6b4f-d197-461b-9eaf-1d3222086e8e","ios":"levelo://app?vid=0d0f6b4f-d197-461b-9eaf-1d3222086e8e"},"vehicle_type_id":"4","last_reported":1740593581,"current_range_meters":3200,"station_id":"ce4bh2p2rcd13ifvqdi0","pricing_plan_id":"cebpf4jnsgd1na2vs0mg"},{"bike_id":"f0418695-2000-4948-85fb-479bd1cfdfe6","system_id":"levelo_inurba_marseille","lat":43.29527,"lon":5.39396,"is_reserved":false,"is_disabled":false,"rental_uris":{"android":"levelo://app?vid=f0418695-2000-4948-85fb-479bd1cfdfe6","ios":"levelo://app?vid=f0418695-2000-4948-85fb-479bd1cfdfe6"},"vehicle_type_id":"4","last_reported":1740593581,"current_range_meters":4000,"station_id":"ce4bh292rcd13ifvqdf0","pricing_plan_id":"cebpf4jnsgd1na2vs0mg"},{"bike_id":"e5642478-1041-4d33-a946-7b0facad806e","system_id":"levelo_inurba_marseille","lat":43.29422,"lon":5.38621,"is_reserved":false,"is_disabled":false,"rental_uris":{"android":"levelo://app?vid=e5642478-1041-4d33-a946-7b0facad806e","ios":"levelo://app?vid=e5642478-1041-4d33-a946-7b0facad806e"},"vehicle_type_id":"4","last_reported":1740593581,"current_range_meters":4000,"station_id":"ce4bh2h2rcd13ifvqdh0","pricing_plan_id":"cebpf4jnsgd1na2vs0mg"},{"bike_id":"3f4f815b-1074-40ef-b9e6-cf125be8c286","system_id":"levelo_inurba_marseille","lat":43.30206,"lon":5.39476,"is_reserved":false,"is_disabled":false,"rental_uris":{"android":"levelo://app?vid=3f4f815b-1074-40ef-b9e6-cf125be8c286","ios":"levelo://app?vid=3f4f815b-1074-40ef-b9e6-cf125be8c286"},"vehicle_type_id":"4","last_reported":1740593581,"current_range_meters":3600,"station_id":"ce4bh0p2rcd13ifvqd70","pricing_plan_id":"cebpf4jnsgd1na2vs0mg"},{"bike_id":"d781153a-e0bd-4f05-85a8-8589fd9aa21a","system_id":"levelo_inurba_marseille","lat":43.32087,"lon":5.36791,"is_reserved":false,"is_disabled":false,"rental_uris":{"android":"levelo://app?vid=d781153a-e0bd-4f05-85a8-8589fd9aa21a","ios":"levelo://app?vid=d781153a-e0bd-4f05-85a8-8589fd9aa21a"},"vehicle_type_id":"4","last_reported":1740593581,"current_range_meters":4000,"station_id":"ce4bhrh2rcd13ifvqhug","pricing_plan_id":"cebpf4jnsgd1na2vs0mg"},{"bike_id":"72f0b98c-11a7-4557-aa2d-31dd41aea2a1","system_id":"levelo_inurba_marseille","lat":43.29971,"lon":5.38498,"is_reserved":false,"is_disabled":false,"rental_uris":{"android":"levelo://app?vid=72f0b98c-11a7-4557-aa2d-31dd41aea2a1","ios":"levelo://app?vid=72f0b98c-11a7-4557-aa2d-31dd41aea2a1"},"vehicle_type_id":"4","last_reported":1740593581,"current_range_meters":4400,"station_id":"ce4bgk12rcd13ifvqbi0","pricing_plan_id":"cebpf4jnsgd1na2vs0mg"},{"bike_id":"ebb9fd43-8129-4a3f-857b-5d67d27ad18e","system_id":"levelo_inurba_marseille","lat":43.24547,"lon":5.39521,"is_reserved":false,"is_disabled":false,"rental_uris":{"android":"levelo://app?vid=ebb9fd43-8129-4a3f-857b-5d67d27ad18e","ios":"levelo://app?vid=ebb9fd43-8129-4a3f-857b-5d67d27ad18e"},"vehicle_type_id":"4","last_reported":1740593581,"current_range_meters":4000,"station_id":"ce4bhlp2rcd13ifvqgjg","pricing_plan_id":"cebpf4jnsgd1na2vs0mg"},{"bike_id":"4bad24c8-c76c-4ff1-8b3b-15a4fa270f56","system_id":"levelo_inurba_marseille","lat":43.28933,"lon":5.36636,"is_reserved":false,"is_disabled":false,"rental_uris":{"android":"levelo://app?vid=4bad24c8-c76c-4ff1-8b3b-15a4fa270f56","ios":"levelo://app?vid=4bad24c8-c76c-4ff1-8b3b-15a4fa270f56"},"vehicle_type_id":"4","last_reported":1740593581,"current_range_meters":4400,"station_id":"ce4bhap2rcd13ifvqek0","pricing_plan_id":"cebpf4jnsgd1na2vs0mg"},{"bike_id":"4328d663-34be-4966-a051-eaec8a5b406e","system_id":"levelo_inurba_marseille","lat":43.286642,"lon":5.386591,"is_reserved":false,"is_disabled":false,"rental_uris":{"android":"levelo://app?vid=4328d663-34be-4966-a051-eaec8a5b406e","ios":"levelo://app?vid=4328d663-34be-4966-a051-eaec8a5b406e"},"vehicle_type_id":"4","last_reported":1740593581,"current_range_meters":3600,"station_id":"ce4bgjh2rcd13ifvqbf0","pricing_plan_id":"cebpf4jnsgd1na2vs0mg"},{"bike_id":"496915c7-eb4d-4506-8286-11ac6afab698","system_id":"levelo_inurba_marseille","lat":43.28454,"lon":5.35884,"is_reserved":false,"is_disabled":false,"rental_uris":{"android":"levelo://app?vid=496915c7-eb4d-4506-8286-11ac6afab698","ios":"levelo://app?vid=496915c7-eb4d-4506-8286-11ac6afab698"},"vehicle_type_id":"4","last_reported":1740593581,"current_range_meters":4800,"station_id":"ce4bhah2rcd13ifvqei0","pricing_plan_id":"cebpf4jnsgd1na2vs0mg"},{"bike_id":"c4658f8c-5cfe-4583-bfc0-8c2d871b3b19","system_id":"levelo_inurba_marseille","lat":43.29275,"lon":5.40115,"is_reserved":false,"is_disabled":false,"rental_uris":{"android":"levelo://app?vid=c4658f8c-5cfe-4583-bfc0-8c2d871b3b19","ios":"levelo://app?vid=c4658f8c-5cfe-4583-bfc0-8c2d871b3b19"},"vehicle_type_id":"4","last_reported":1740593581,"current_range_meters":4800,"station_id":"ce4bh312rcd13ifvqdk0","pricing_plan_id":"cebpf4jnsgd1na2vs0mg"},{"bike_id":"586d8ac1-9e8d-4b0d-83a6-2887a87a33a2","system_id":"levelo_inurba_marseille","lat":43.28964,"lon":5.37824,"is_reserved":false,"is_disabled":false,"rental_uris":{"android":"levelo://app?vid=586d8ac1-9e8d-4b0d-83a6-2887a87a33a2","ios":"levelo://app?vid=586d8ac1-9e8d-4b0d-83a6-2887a87a33a2"},"vehicle_type_id":"4","last_reported":1740593581,"current_range_meters":4400,"station_id":"ce4bh9p2rcd13ifvqed0","pricing_plan_id":"cebpf4jnsgd1na2vs0mg"},{"bike_id":"8cf36668-8d15-45b6-ad3d-86d66413c917","system_id":"levelo_inurba_marseille","lat":43.29003,"lon":5.35618,"is_reserved":false,"is_disabled":false,"rental_uris":{"android":"levelo://app?vid=8cf36668-8d15-45b6-ad3d-86d66413c917","ios":"levelo://app?vid=8cf36668-8d15-45b6-ad3d-86d66413c917"},"vehicle_type_id":"4","last_reported":1740593581,"current_range_meters":4800,"station_id":"ce4bhb92rcd13ifvqen0","pricing_plan_id":"cebpf4jnsgd1na2vs0mg"},{"bike_id":"e308fed7-018d-42b3-8eb8-b86f0590eb1c","system_id":"levelo_inurba_marseille","lat":43.287018,"lon":5.373857,"is_reserved":false,"is_disabled":false,"rental_uris":{"android":"levelo://app?vid=e308fed7-018d-42b3-8eb8-b86f0590eb1c","ios":"levelo://app?vid=e308fed7-018d-42b3-8eb8-b86f0590eb1c"},"vehicle_type_id":"4","last_reported":1740593581,"current_range_meters":5600,"station_id":"ce4bh3p2rcd13ifvqdq0","pricing_plan_id":"cebpf4jnsgd1na2vs0mg"},{"bike_id":"ad3f0595-a3c5-4dd3-86fa-bd940d0dc018","system_id":"levelo_inurba_marseille","lat":43.295288,"lon":5.390417,"is_reserved":false,"is_disabled":false,"rental_uris":{"android":"levelo://app?vid=ad3f0595-a3c5-4dd3-86fa-bd940d0dc018","ios":"levelo://app?vid=ad3f0595-a3c5-4dd3-86fa-bd940d0dc018"},"vehicle_type_id":"4","last_reported":1740593581,"current_range_meters":3600,"station_id":"ce4bh492rcd13ifvqdug","pricing_plan_id":"cebpf4jnsgd1na2vs0mg"},{"bike_id":"aa91a3f2-a1c7-49b9-ab06-f14aec4db27b","system_id":"levelo_inurba_marseille","lat":43.29518,"lon":5.39034,"is_reserved":false,"is_disabled":false,"rental_uris":{"android":"levelo://app?vid=aa91a3f2-a1c7-49b9-ab06-f14aec4db27b","ios":"levelo://app?vid=aa91a3f2-a1c7-49b9-ab06-f14aec4db27b"},"vehicle_type_id":"4","last_reported":1740593581,"current_range_meters":6000,"station_id":"ce4bh3p2rcd13ifvqdp0","pricing_plan_id":"cebpf4jnsgd1na2vs0mg"},{"bike_id":"e5c275a2-a964-47d8-9489-ed1126cf4cef","system_id":"levelo_inurba_marseille","lat":43.29611,"lon":5.37904,"is_reserved":false,"is_disabled":false,"rental_uris":{"android":"levelo://app?vid=e5c275a2-a964-47d8-9489-ed1126cf4cef","ios":"levelo://app?vid=e5c275a2-a964-47d8-9489-ed1126cf4cef"},"vehicle_type_id":"4","last_reported":1740593581,"current_range_meters":6000,"station_id":"","pricing_plan_id":"cebpf4jnsgd1na2vs0mg"},{"bike_id":"9ee05a79-6ed0-471b-8dcb-b288b1c46214","system_id":"levelo_inurba_marseille","lat":43.29182,"lon":5.39328,"is_reserved":false,"is_disabled":false,"rental_uris":{"android":"levelo://app?vid=9ee05a79-6ed0-471b-8dcb-b288b1c46214","ios":"levelo://app?vid=9ee05a79-6ed0-471b-8dcb-b288b1c46214"},"vehicle_type_id":"4","last_reported":1740593581,"current_range_meters":3600,"station_id":"ce4bh192rcd13ifvqdd0","pricing_plan_id":"cebpf4jnsgd1na2vs0mg"},{"bike_id":"1cf1ec02-40f9-4368-a950-dc33269bfa18","system_id":"levelo_inurba_marseille","lat":43.33018,"lon":5.39037,"is_reserved":false,"is_disabled":false,"rental_uris":{"android":"levelo://app?vid=1cf1ec02-40f9-4368-a950-dc33269bfa18","ios":"levelo://app?vid=1cf1ec02-40f9-4368-a950-dc33269bfa18"},"vehicle_type_id":"4","last_reported":1740593581,"current_range_meters":3200,"station_id":"ce4bhr92rcd13ifvqhrg","pricing_plan_id":"cebpf4jnsgd1na2vs0mg"},{"bike_id":"07b52420-dc14-4435-a46d-7b54d4699f71","system_id":"levelo_inurba_marseille","lat":43.2847,"lon":5.38419,"is_reserved":false,"is_disabled":false,"rental_uris":{"android":"levelo://app?vid=07b52420-dc14-4435-a46d-7b54d4699f71","ios":"levelo://app?vid=07b52420-dc14-4435-a46d-7b54d4699f71"},"vehicle_type_id":"4","last_reported":1740593581,"current_range_meters":6000,"station_id":"ce4bh512rcd13ifvqe3g","pricing_plan_id":"cebpf4jnsgd1na2vs0mg"},{"bike_id":"1d974f08-0d32-4aba-bcc0-b99f7e6915a8","system_id":"levelo_inurba_marseille","lat":43.29524,"lon":5.39038,"is_reserved":false,"is_disabled":false,"rental_uris":{"android":"levelo://app?vid=1d974f08-0d32-4aba-bcc0-b99f7e6915a8","ios":"levelo://app?vid=1d974f08-0d32-4aba-bcc0-b99f7e6915a8"},"vehicle_type_id":"4","last_reported":1740593581,"current_range_meters":6000,"station_id":"ce4bh3p2rcd13ifvqdp0","pricing_plan_id":"cebpf4jnsgd1na2vs0mg"},{"bike_id":"805f4576-ccef-4640-96ce-86e8597c3281","system_id":"levelo_inurba_marseille","lat":43.284087,"lon":5.375077,"is_reserved":false,"is_disabled":false,"rental_uris":{"android":"levelo://app?vid=805f4576-ccef-4640-96ce-86e8597c3281","ios":"levelo://app?vid=805f4576-ccef-4640-96ce-86e8597c3281"},"vehicle_type_id":"4","last_reported":1740593581,"current_range_meters":6400,"station_id":"ce4bh412rcd13ifvqds0","pricing_plan_id":"cebpf4jnsgd1na2vs0mg"},{"bike_id":"8c35d2f6-1214-4b92-b21e-5a6480a0f50b","system_id":"levelo_inurba_marseille","lat":43.28346,"lon":5.38104,"is_reserved":false,"is_disabled":false,"rental_uris":{"android":"levelo://app?vid=8c35d2f6-1214-4b92-b21e-5a6480a0f50b","ios":"levelo://app?vid=8c35d2f6-1214-4b92-b21e-5a6480a0f50b"},"vehicle_type_id":"4","last_reported":1740593581,"current_range_meters":6400,"station_id":"ce4bh412rcd13ifvqdr0","pricing_plan_id":"cebpf4jnsgd1na2vs0mg"},{"bike_id":"77d72656-ec37-44f1-ab2b-c05ee9e3e3e9","system_id":"levelo_inurba_marseille","lat":43.292724,"lon":5.375868,"is_reserved":false,"is_disabled":false,"rental_uris":{"android":"levelo://app?vid=77d72656-ec37-44f1-ab2b-c05ee9e3e3e9","ios":"levelo://app?vid=77d72656-ec37-44f1-ab2b-c05ee9e3e3e9"},"vehicle_type_id":"4","last_reported":1740593581,"current_range_meters":6400,"station_id":"ce4bgi12rcd13ifvqb80","pricing_plan_id":"cebpf4jnsgd1na2vs0mg"},{"bike_id":"cf3ab1f0-0123-4e26-8e4f-f65d17d40274","system_id":"levelo_inurba_marseille","lat":43.29297,"lon":5.37146,"is_reserved":false,"is_disabled":false,"rental_uris":{"android":"levelo://app?vid=cf3ab1f0-0123-4e26-8e4f-f65d17d40274","ios":"levelo://app?vid=cf3ab1f0-0123-4e26-8e4f-f65d17d40274"},"vehicle_type_id":"4","last_reported":1740593581,"current_range_meters":6800,"station_id":"ce4bgh92rcd13ifvqb40","pricing_plan_id":"cebpf4jnsgd1na2vs0mg"},{"bike_id":"1b397636-a381-4c13-8346-8357793adf97","system_id":"levelo_inurba_marseille","lat":43.25817,"lon":5.39434,"is_reserved":false,"is_disabled":false,"rental_uris":{"android":"levelo://app?vid=1b397636-a381-4c13-8346-8357793adf97","ios":"levelo://app?vid=1b397636-a381-4c13-8346-8357793adf97"},"vehicle_type_id":"4","last_reported":1740593581,"current_range_meters":6400,"station_id":"ce4bhip2rcd13ifvqft0","pricing_plan_id":"cebpf4jnsgd1na2vs0mg"},{"bike_id":"c5c12b70-ef68-45d9-a001-dfe524b876e3","system_id":"levelo_inurba_marseille","lat":43.29547,"lon":5.39417,"is_reserved":false,"is_disabled":false,"rental_uris":{"android":"levelo://app?vid=c5c12b70-ef68-45d9-a001-dfe524b876e3","ios":"levelo://app?vid=c5c12b70-ef68-45d9-a001-dfe524b876e3"},"vehicle_type_id":"4","last_reported":1740593581,"current_range_meters":4400,"station_id":"ce4bh292rcd13ifvqdf0","pricing_plan_id":"cebpf4jnsgd1na2vs0mg"},{"bike_id":"411b5315-e03f-43f4-b5cd-9f0caf8d3081","system_id":"levelo_inurba_marseille","lat":43.23174,"lon":5.40003,"is_reserved":false,"is_disabled":false,"rental_uris":{"android":"levelo://app?vid=411b5315-e03f-43f4-b5cd-9f0caf8d3081","ios":"levelo://app?vid=411b5315-e03f-43f4-b5cd-9f0caf8d3081"},"vehicle_type_id":"4","last_reported":1740593581,"current_range_meters":6400,"station_id":"ce4bhn12rcd13ifvqgqg","pricing_plan_id":"cebpf4jnsgd1na2vs0mg"},{"bike_id":"29e95dc2-ac78-4281-80d3-204b46893858","system_id":"levelo_inurba_marseille","lat":43.29576,"lon":5.39973,"is_reserved":false,"is_disabled":false,"rental_uris":{"android":"levelo://app?vid=29e95dc2-ac78-4281-80d3-204b46893858","ios":"levelo://app?vid=29e95dc2-ac78-4281-80d3-204b46893858"},"vehicle_type_id":"4","last_reported":1740593581,"current_range_meters":5600,"station_id":"ce4bh312rcd13ifvqdj0","pricing_plan_id":"cebpf4jnsgd1na2vs0mg"},{"bike_id":"736a190e-ed80-4b2a-b68c-48408830e8e6","system_id":"levelo_inurba_marseille","lat":43.29273,"lon":5.38439,"is_reserved":false,"is_disabled":false,"rental_uris":{"android":"levelo://app?vid=736a190e-ed80-4b2a-b68c-48408830e8e6","ios":"levelo://app?vid=736a190e-ed80-4b2a-b68c-48408830e8e6"},"vehicle_type_id":"4","last_reported":1740593581,"current_range_meters":6400,"station_id":"ce4bh692rcd13ifvqea0","pricing_plan_id":"cebpf4jnsgd1na2vs0mg"},{"bike_id":"7c95904b-ee6c-442a-a902-49c0c9d387e4","system_id":"levelo_inurba_marseille","lat":43.24389,"lon":5.37064,"is_reserved":false,"is_disabled":false,"rental_uris":{"android":"levelo://app?vid=7c95904b-ee6c-442a-a902-49c0c9d387e4","ios":"levelo://app?vid=7c95904b-ee6c-442a-a902-49c0c9d387e4"},"vehicle_type_id":"4","last_reported":1740593581,"current_range_meters":6400,"station_id":"ce4bhhh2rcd13ifvqfk0","pricing_plan_id":"cebpf4jnsgd1na2vs0mg"},{"bike_id":"f49194fe-2add-4193-a9fc-9b656cf6f366","system_id":"levelo_inurba_marseille","lat":43.25481,"lon":5.37648,"is_reserved":false,"is_disabled":false,"rental_uris":{"android":"levelo://app?vid=f49194fe-2add-4193-a9fc-9b656cf6f366","ios":"levelo://app?vid=f49194fe-2add-4193-a9fc-9b656cf6f366"},"vehicle_type_id":"4","last_reported":1740593581,"current_range_meters":6400,"station_id":"ce4bhh12rcd13ifvqff0","pricing_plan_id":"cebpf4jnsgd1na2vs0mg"},{"bike_id":"83b1ebb1-4e5d-4df8-82b4-c6e9ba30bb5e","system_id":"levelo_inurba_marseille","lat":43.24092,"lon":5.37759,"is_reserved":false,"is_disabled":false,"rental_uris":{"android":"levelo://app?vid=83b1ebb1-4e5d-4df8-82b4-c6e9ba30bb5e","ios":"levelo://app?vid=83b1ebb1-4e5d-4df8-82b4-c6e9ba30bb5e"},"vehicle_type_id":"4","last_reported":1740593581,"current_range_meters":800,"station_id":"ce4bhnp2rcd13ifvqgvg","pricing_plan_id":"cebpf4jnsgd1na2vs0mg"},{"bike_id":"3b52814a-e239-49b5-924f-8509ea1b359d","system_id":"levelo_inurba_marseille","lat":43.23192,"lon":5.35547,"is_reserved":false,"is_disabled":false,"rental_uris":{"android":"levelo://app?vid=3b52814a-e239-49b5-924f-8509ea1b359d","ios":"levelo://app?vid=3b52814a-e239-49b5-924f-8509ea1b359d"},"vehicle_type_id":"4","last_reported":1740593581,"current_range_meters":6400,"station_id":"ce4bhu92rcd13ifvqi70","pricing_plan_id":"cebpf4jnsgd1na2vs0mg"},{"bike_id":"fa82a287-f16a-47c9-8f93-561b7622c814","system_id":"levelo_inurba_marseille","lat":43.30881,"lon":5.3719,"is_reserved":false,"is_disabled":false,"rental_uris":{"android":"levelo://app?vid=fa82a287-f16a-47c9-8f93-561b7622c814","ios":"levelo://app?vid=fa82a287-f16a-47c9-8f93-561b7622c814"},"vehicle_type_id":"4","last_reported":1740593581,"current_range_meters":8000,"station_id":"ce4bguh2rcd13ifvqckg","pricing_plan_id":"cebpf4jnsgd1na2vs0mg"},{"bike_id":"ea19bdd3-8c08-43c6-aa16-0edc19458f7c","system_id":"levelo_inurba_marseille","lat":43.29627,"lon":5.4059,"is_reserved":false,"is_disabled":false,"rental_uris":{"android":"levelo://app?vid=ea19bdd3-8c08-43c6-aa16-0edc19458f7c","ios":"levelo://app?vid=ea19bdd3-8c08-43c6-aa16-0edc19458f7c"},"vehicle_type_id":"4","last_reported":1740593581,"current_range_meters":2000,"station_id":"ce4bh0h2rcd13ifvqd60","pricing_plan_id":"cebpf4jnsgd1na2vs0mg"},{"bike_id":"cbcbae4c-c280-4795-ba4c-e1dbdf894537","system_id":"levelo_inurba_marseille","lat":43.29217,"lon":5.36067,"is_reserved":false,"is_disabled":false,"rental_uris":{"android":"levelo://app?vid=cbcbae4c-c280-4795-ba4c-e1dbdf894537","ios":"levelo://app?vid=cbcbae4c-c280-4795-ba4c-e1dbdf894537"},"vehicle_type_id":"4","last_reported":1740593581,"current_range_meters":4400,"station_id":"ce4bhbh2rcd13ifvqeqg","pricing_plan_id":"cebpf4jnsgd1na2vs0mg"},{"bike_id":"39c490fa-7a92-47db-bc32-fe7f8b3890e2","system_id":"levelo_inurba_marseille","lat":43.2927,"lon":5.36826,"is_reserved":false,"is_disabled":true,"rental_uris":{"android":"levelo://app?vid=39c490fa-7a92-47db-bc32-fe7f8b3890e2","ios":"levelo://app?vid=39c490fa-7a92-47db-bc32-fe7f8b3890e2"},"vehicle_type_id":"4","last_reported":1740593581,"current_range_meters":6800,"station_id":"ce4bhbp2rcd13ifvqesg","pricing_plan_id":"cebpf4jnsgd1na2vs0mg"},{"bike_id":"cd10686f-c971-4b3f-932b-0955ecbea819","system_id":"levelo_inurba_marseille","lat":43.29263,"lon":5.38442,"is_reserved":false,"is_disabled":false,"rental_uris":{"android":"levelo://app?vid=cd10686f-c971-4b3f-932b-0955ecbea819","ios":"levelo://app?vid=cd10686f-c971-4b3f-932b-0955ecbea819"},"vehicle_type_id":"4","last_reported":1740593581,"current_range_meters":6800,"station_id":"ce4bh692rcd13ifvqea0","pricing_plan_id":"cebpf4jnsgd1na2vs0mg"},{"bike_id":"526a433c-389c-490b-94d7-5118aa133a1d","system_id":"levelo_inurba_marseille","lat":43.29302,"lon":5.37159,"is_reserved":false,"is_disabled":false,"rental_uris":{"android":"levelo://app?vid=526a433c-389c-490b-94d7-5118aa133a1d","ios":"levelo://app?vid=526a433c-389c-490b-94d7-5118aa133a1d"},"vehicle_type_id":"4","last_reported":1740593581,"current_range_meters":6800,"station_id":"ce4bgh92rcd13ifvqb40","pricing_plan_id":"cebpf4jnsgd1na2vs0mg"},{"bike_id":"20eebe9c-8036-4965-9deb-072652b3ea8c","system_id":"levelo_inurba_marseille","lat":43.29524,"lon":5.394,"is_reserved":false,"is_disabled":false,"rental_uris":{"android":"levelo://app?vid=20eebe9c-8036-4965-9deb-072652b3ea8c","ios":"levelo://app?vid=20eebe9c-8036-4965-9deb-072652b3ea8c"},"vehicle_type_id":"4","last_reported":1740593581,"current_range_meters":6800,"station_id":"ce4bh292rcd13ifvqdf0","pricing_plan_id":"cebpf4jnsgd1na2vs0mg"},{"bike_id":"0909a757-7337-48fe-8556-5cf886d9744e","system_id":"levelo_inurba_marseille","lat":43.29172,"lon":5.37164,"is_reserved":false,"is_disabled":false,"rental_uris":{"android":"levelo://app?vid=0909a757-7337-48fe-8556-5cf886d9744e","ios":"levelo://app?vid=0909a757-7337-48fe-8556-5cf886d9744e"},"vehicle_type_id":"4","last_reported":1740593581,"current_range_meters":6800,"station_id":"ce4bha92rcd13ifvqeh0","pricing_plan_id":"cebpf4jnsgd1na2vs0mg"},{"bike_id":"8fb42d55-ce42-48d8-ae7f-5b20b0348403","system_id":"levelo_inurba_marseille","lat":43.27619,"lon":5.36113,"is_reserved":false,"is_disabled":false,"rental_uris":{"android":"levelo://app?vid=8fb42d55-ce42-48d8-ae7f-5b20b0348403","ios":"levelo://app?vid=8fb42d55-ce42-48d8-ae7f-5b20b0348403"},"vehicle_type_id":"4","last_reported":1740593581,"current_range_meters":7200,"station_id":"ce4bgj92rcd13ifvqbe0","pricing_plan_id":"cebpf4jnsgd1na2vs0mg"},{"bike_id":"2e6a1f64-b4f9-4cf4-95ed-c761f21483b9","system_id":"levelo_inurba_marseille","lat":43.29271,"lon":5.38428,"is_reserved":false,"is_disabled":false,"rental_uris":{"android":"levelo://app?vid=2e6a1f64-b4f9-4cf4-95ed-c761f21483b9","ios":"levelo://app?vid=2e6a1f64-b4f9-4cf4-95ed-c761f21483b9"},"vehicle_type_id":"4","last_reported":1740593581,"current_range_meters":6800,"station_id":"ce4bh692rcd13ifvqea0","pricing_plan_id":"cebpf4jnsgd1na2vs0mg"},{"bike_id":"5a15810c-0011-4f4f-a987-c1620c46a0ec","system_id":"levelo_inurba_marseille","lat":43.255788,"lon":5.382345,"is_reserved":false,"is_disabled":false,"rental_uris":{"android":"levelo://app?vid=5a15810c-0011-4f4f-a987-c1620c46a0ec","ios":"levelo://app?vid=5a15810c-0011-4f4f-a987-c1620c46a0ec"},"vehicle_type_id":"4","last_reported":1740593581,"current_range_meters":6800,"station_id":"ce4bhih2rcd13ifvqfs0","pricing_plan_id":"cebpf4jnsgd1na2vs0mg"},{"bike_id":"05f51bd6-bf8c-4b6c-ba2f-d7bf7cec3006","system_id":"levelo_inurba_marseille","lat":43.23189,"lon":5.35563,"is_reserved":false,"is_disabled":false,"rental_uris":{"android":"levelo://app?vid=05f51bd6-bf8c-4b6c-ba2f-d7bf7cec3006","ios":"levelo://app?vid=05f51bd6-bf8c-4b6c-ba2f-d7bf7cec3006"},"vehicle_type_id":"4","last_reported":1740593581,"current_range_meters":7200,"station_id":"ce4bhu92rcd13ifvqi70","pricing_plan_id":"cebpf4jnsgd1na2vs0mg"},{"bike_id":"ce5f4502-5131-426e-a910-34f92fd46170","system_id":"levelo_inurba_marseille","lat":43.28459,"lon":5.35891,"is_reserved":false,"is_disabled":false,"rental_uris":{"android":"levelo://app?vid=ce5f4502-5131-426e-a910-34f92fd46170","ios":"levelo://app?vid=ce5f4502-5131-426e-a910-34f92fd46170"},"vehicle_type_id":"4","last_reported":1740593581,"current_range_meters":7200,"station_id":"ce4bhah2rcd13ifvqei0","pricing_plan_id":"cebpf4jnsgd1na2vs0mg"},{"bike_id":"274a0001-6316-4453-9c79-e95591e69152","system_id":"levelo_inurba_marseille","lat":43.319,"lon":5.40734,"is_reserved":false,"is_disabled":false,"rental_uris":{"android":"levelo://app?vid=274a0001-6316-4453-9c79-e95591e69152","ios":"levelo://app?vid=274a0001-6316-4453-9c79-e95591e69152"},"vehicle_type_id":"4","last_reported":1740593581,"current_range_meters":7200,"station_id":"ce4bhq12rcd13ifvqhig","pricing_plan_id":"cebpf4jnsgd1na2vs0mg"},{"bike_id":"68db716c-6572-40ea-b079-987ee4623b4d","system_id":"levelo_inurba_marseille","lat":43.26854,"lon":5.4095,"is_reserved":false,"is_disabled":false,"rental_uris":{"android":"levelo://app?vid=68db716c-6572-40ea-b079-987ee4623b4d","ios":"levelo://app?vid=68db716c-6572-40ea-b079-987ee4623b4d"},"vehicle_type_id":"4","last_reported":1740593581,"current_range_meters":8000,"station_id":"","pricing_plan_id":"cebpf4jnsgd1na2vs0mg"},{"bike_id":"9c24a9e2-7378-4601-93d3-5ed31818cd93","system_id":"levelo_inurba_marseille","lat":43.23192,"lon":5.35547,"is_reserved":false,"is_disabled":false,"rental_uris":{"android":"levelo://app?vid=9c24a9e2-7378-4601-93d3-5ed31818cd93","ios":"levelo://app?vid=9c24a9e2-7378-4601-93d3-5ed31818cd93"},"vehicle_type_id":"4","last_reported":1740593581,"current_range_meters":7200,"station_id":"ce4bhu92rcd13ifvqi70","pricing_plan_id":"cebpf4jnsgd1na2vs0mg"},{"bike_id":"b0bfd91b-56c6-474d-8178-ab7c165259bf","system_id":"levelo_inurba_marseille","lat":43.294732,"lon":5.381779,"is_reserved":false,"is_disabled":false,"rental_uris":{"android":"levelo://app?vid=b0bfd91b-56c6-474d-8178-ab7c165259bf","ios":"levelo://app?vid=b0bfd91b-56c6-474d-8178-ab7c165259bf"},"vehicle_type_id":"4","last_reported":1740593581,"current_range_meters":8000,"station_id":"ce4bgr92rcd13ifvqc7g","pricing_plan_id":"cebpf4jnsgd1na2vs0mg"},{"bike_id":"91ce115e-ee1d-4ad5-b88c-a3d423e7e5e1","system_id":"levelo_inurba_marseille","lat":43.29006,"lon":5.35608,"is_reserved":false,"is_disabled":false,"rental_uris":{"android":"levelo://app?vid=91ce115e-ee1d-4ad5-b88c-a3d423e7e5e1","ios":"levelo://app?vid=91ce115e-ee1d-4ad5-b88c-a3d423e7e5e1"},"vehicle_type_id":"4","last_reported":1740593581,"current_range_meters":8400,"station_id":"ce4bhb92rcd13ifvqen0","pricing_plan_id":"cebpf4jnsgd1na2vs0mg"},{"bike_id":"500a9ed7-544a-42b9-98df-1492609712bc","system_id":"levelo_inurba_marseille","lat":43.30131,"lon":5.38771,"is_reserved":false,"is_disabled":false,"rental_uris":{"android":"levelo://app?vid=500a9ed7-544a-42b9-98df-1492609712bc","ios":"levelo://app?vid=500a9ed7-544a-42b9-98df-1492609712bc"},"vehicle_type_id":"4","last_reported":1740593581,"current_range_meters":3600,"station_id":"ce4bghh2rcd13ifvqb60","pricing_plan_id":"cebpf4jnsgd1na2vs0mg"},{"bike_id":"64d1dcdb-2974-4aea-a074-f7aa761c6db6","system_id":"levelo_inurba_marseille","lat":43.25086,"lon":5.41055,"is_reserved":false,"is_disabled":false,"rental_uris":{"android":"levelo://app?vid=64d1dcdb-2974-4aea-a074-f7aa761c6db6","ios":"levelo://app?vid=64d1dcdb-2974-4aea-a074-f7aa761c6db6"},"vehicle_type_id":"4","last_reported":1740593581,"current_range_meters":8000,"station_id":"","pricing_plan_id":"cebpf4jnsgd1na2vs0mg"},{"bike_id":"82202fb8-4f3d-4b3d-b6c1-3754ac1d79ef","system_id":"levelo_inurba_marseille","lat":43.324781,"lon":5.365711,"is_reserved":false,"is_disabled":false,"rental_uris":{"android":"levelo://app?vid=82202fb8-4f3d-4b3d-b6c1-3754ac1d79ef","ios":"levelo://app?vid=82202fb8-4f3d-4b3d-b6c1-3754ac1d79ef"},"vehicle_type_id":"4","last_reported":1740593581,"current_range_meters":8000,"station_id":"ce4bh392rcd13ifvqdl0","pricing_plan_id":"cebpf4jnsgd1na2vs0mg"},{"bike_id":"692772d7-7df1-47bf-8448-7ff1d0a3e3f6","system_id":"levelo_inurba_marseille","lat":43.31712,"lon":5.40432,"is_reserved":false,"is_disabled":false,"rental_uris":{"android":"levelo://app?vid=692772d7-7df1-47bf-8448-7ff1d0a3e3f6","ios":"levelo://app?vid=692772d7-7df1-47bf-8448-7ff1d0a3e3f6"},"vehicle_type_id":"4","last_reported":1740593581,"current_range_meters":8000,"station_id":"ce4bh012rcd13ifvqd00","pricing_plan_id":"cebpf4jnsgd1na2vs0mg"},{"bike_id":"930e8c91-afc8-485c-88c1-5dd6f737e345","system_id":"levelo_inurba_marseille","lat":43.29225,"lon":5.36061,"is_reserved":false,"is_disabled":false,"rental_uris":{"android":"levelo://app?vid=930e8c91-afc8-485c-88c1-5dd6f737e345","ios":"levelo://app?vid=930e8c91-afc8-485c-88c1-5dd6f737e345"},"vehicle_type_id":"4","last_reported":1740593581,"current_range_meters":8400,"station_id":"ce4bhbh2rcd13ifvqeqg","pricing_plan_id":"cebpf4jnsgd1na2vs0mg"},{"bike_id":"e80aada6-8a51-4d84-89a9-f7834d4683b3","system_id":"levelo_inurba_marseille","lat":43.28149,"lon":5.42641,"is_reserved":false,"is_disabled":false,"rental_uris":{"android":"levelo://app?vid=e80aada6-8a51-4d84-89a9-f7834d4683b3","ios":"levelo://app?vid=e80aada6-8a51-4d84-89a9-f7834d4683b3"},"vehicle_type_id":"4","last_reported":1740593581,"current_range_meters":8000,"station_id":"ce4bhnh2rcd13ifvqgug","pricing_plan_id":"cebpf4jnsgd1na2vs0mg"},{"bike_id":"6f919063-e13f-432d-8c87-9b4ea48dcb4d","system_id":"levelo_inurba_marseille","lat":43.28927,"lon":5.36621,"is_reserved":false,"is_disabled":false,"rental_uris":{"android":"levelo://app?vid=6f919063-e13f-432d-8c87-9b4ea48dcb4d","ios":"levelo://app?vid=6f919063-e13f-432d-8c87-9b4ea48dcb4d"},"vehicle_type_id":"4","last_reported":1740593581,"current_range_meters":8000,"station_id":"ce4bhap2rcd13ifvqek0","pricing_plan_id":"cebpf4jnsgd1na2vs0mg"},{"bike_id":"b0838caa-5ad6-4bbb-a5cf-77932b5e6313","system_id":"levelo_inurba_marseille","lat":43.29815,"lon":5.41661,"is_reserved":false,"is_disabled":false,"rental_uris":{"android":"levelo://app?vid=b0838caa-5ad6-4bbb-a5cf-77932b5e6313","ios":"levelo://app?vid=b0838caa-5ad6-4bbb-a5cf-77932b5e6313"},"vehicle_type_id":"4","last_reported":1740593581,"current_range_meters":8400,"station_id":"ce4bh192rcd13ifvqdc0","pricing_plan_id":"cebpf4jnsgd1na2vs0mg"},{"bike_id":"12c5a27a-3320-4821-be2c-10f7b273b30a","system_id":"levelo_inurba_marseille","lat":43.31365,"lon":5.38493,"is_reserved":false,"is_disabled":false,"rental_uris":{"android":"levelo://app?vid=12c5a27a-3320-4821-be2c-10f7b273b30a","ios":"levelo://app?vid=12c5a27a-3320-4821-be2c-10f7b273b30a"},"vehicle_type_id":"4","last_reported":1740593581,"current_range_meters":8000,"station_id":"ce4bgt92rcd13ifvqcf0","pricing_plan_id":"cebpf4jnsgd1na2vs0mg"},{"bike_id":"06be81d7-25f3-4130-9793-4ba2d316de7c","system_id":"levelo_inurba_marseille","lat":43.30325,"lon":5.40444,"is_reserved":false,"is_disabled":false,"rental_uris":{"android":"levelo://app?vid=06be81d7-25f3-4130-9793-4ba2d316de7c","ios":"levelo://app?vid=06be81d7-25f3-4130-9793-4ba2d316de7c"},"vehicle_type_id":"4","last_reported":1740593581,"current_range_meters":8400,"station_id":"ce4bh012rcd13ifvqd10","pricing_plan_id":"cebpf4jnsgd1na2vs0mg"},{"bike_id":"38c5593a-31b2-463b-b188-a00ad3764a2e","system_id":"levelo_inurba_marseille","lat":43.27897,"lon":5.3802,"is_reserved":false,"is_disabled":false,"rental_uris":{"android":"levelo://app?vid=38c5593a-31b2-463b-b188-a00ad3764a2e","ios":"levelo://app?vid=38c5593a-31b2-463b-b188-a00ad3764a2e"},"vehicle_type_id":"4","last_reported":1740593581,"current_range_meters":14400,"station_id":"ce4bhf92rcd13ifvqf50","pricing_plan_id":"cebpf4jnsgd1na2vs0mg"},{"bike_id":"2d3be99a-7a09-400c-8764-e0f4a48082e3","system_id":"levelo_inurba_marseille","lat":43.26059,"lon":5.39401,"is_reserved":false,"is_disabled":false,"rental_uris":{"android":"levelo://app?vid=2d3be99a-7a09-400c-8764-e0f4a48082e3","ios":"levelo://app?vid=2d3be99a-7a09-400c-8764-e0f4a48082e3"},"vehicle_type_id":"4","last_reported":1740593581,"current_range_meters":8400,"station_id":"ce4bhh92rcd13ifvqfj0","pricing_plan_id":"cebpf4jnsgd1na2vs0mg"},{"bike_id":"d62901af-3b92-4217-b193-ac9a74de4d70","system_id":"levelo_inurba_marseille","lat":43.29523,"lon":5.39406,"is_reserved":false,"is_disabled":false,"rental_uris":{"android":"levelo://app?vid=d62901af-3b92-4217-b193-ac9a74de4d70","ios":"levelo://app?vid=d62901af-3b92-4217-b193-ac9a74de4d70"},"vehicle_type_id":"4","last_reported":1740593581,"current_range_meters":1600,"station_id":"ce4bh292rcd13ifvqdf0","pricing_plan_id":"cebpf4jnsgd1na2vs0mg"},{"bike_id":"5c47d4c3-83ff-4b25-91fb-a87385c61f6a","system_id":"levelo_inurba_marseille","lat":43.31733,"lon":5.43545,"is_reserved":false,"is_disabled":false,"rental_uris":{"android":"levelo://app?vid=5c47d4c3-83ff-4b25-91fb-a87385c61f6a","ios":"levelo://app?vid=5c47d4c3-83ff-4b25-91fb-a87385c61f6a"},"vehicle_type_id":"4","last_reported":1740593581,"current_range_meters":8800,"station_id":"","pricing_plan_id":"cebpf4jnsgd1na2vs0mg"},{"bike_id":"224b87a4-0e72-49b5-8b58-3ee98d369726","system_id":"levelo_inurba_marseille","lat":43.2942,"lon":5.3862,"is_reserved":false,"is_disabled":false,"rental_uris":{"android":"levelo://app?vid=224b87a4-0e72-49b5-8b58-3ee98d369726","ios":"levelo://app?vid=224b87a4-0e72-49b5-8b58-3ee98d369726"},"vehicle_type_id":"4","last_reported":1740593581,"current_range_meters":14400,"station_id":"ce4bh2h2rcd13ifvqdh0","pricing_plan_id":"cebpf4jnsgd1na2vs0mg"},{"bike_id":"8f4f5c61-91cc-4fd5-85ad-d5b23eff483d","system_id":"levelo_inurba_marseille","lat":43.29486,"lon":5.36232,"is_reserved":false,"is_disabled":false,"rental_uris":{"android":"levelo://app?vid=8f4f5c61-91cc-4fd5-85ad-d5b23eff483d","ios":"levelo://app?vid=8f4f5c61-91cc-4fd5-85ad-d5b23eff483d"},"vehicle_type_id":"4","last_reported":1740593581,"current_range_meters":8400,"station_id":"","pricing_plan_id":"cebpf4jnsgd1na2vs0mg"},{"bike_id":"26d1edd1-2a52-428c-b2a6-7dd75e71037c","system_id":"levelo_inurba_marseille","lat":43.28621,"lon":5.3511,"is_reserved":false,"is_disabled":false,"rental_uris":{"android":"levelo://app?vid=26d1edd1-2a52-428c-b2a6-7dd75e71037c","ios":"levelo://app?vid=26d1edd1-2a52-428c-b2a6-7dd75e71037c"},"vehicle_type_id":"4","last_reported":1740593581,"current_range_meters":8400,"station_id":"ce4bhch2rcd13ifvqeug","pricing_plan_id":"cebpf4jnsgd1na2vs0mg"},{"bike_id":"dac480e2-51ca-45aa-97d0-483a85b902f6","system_id":"levelo_inurba_marseille","lat":43.302,"lon":5.39448,"is_reserved":false,"is_disabled":false,"rental_uris":{"android":"levelo://app?vid=dac480e2-51ca-45aa-97d0-483a85b902f6","ios":"levelo://app?vid=dac480e2-51ca-45aa-97d0-483a85b902f6"},"vehicle_type_id":"4","last_reported":1740593581,"current_range_meters":8800,"station_id":"ce4bh0p2rcd13ifvqd70","pricing_plan_id":"cebpf4jnsgd1na2vs0mg"},{"bike_id":"3fad02a6-d740-4393-b65f-171d58ad8a80","system_id":"levelo_inurba_marseille","lat":43.30247,"lon":5.40059,"is_reserved":false,"is_disabled":false,"rental_uris":{"android":"levelo://app?vid=3fad02a6-d740-4393-b65f-171d58ad8a80","ios":"levelo://app?vid=3fad02a6-d740-4393-b65f-171d58ad8a80"},"vehicle_type_id":"4","last_reported":1740593581,"current_range_meters":8800,"station_id":"ce4bgvh2rcd13ifvqcs0","pricing_plan_id":"cebpf4jnsgd1na2vs0mg"},{"bike_id":"b007f058-4163-4bbe-ba13-50835769bd43","system_id":"levelo_inurba_marseille","lat":43.3171,"lon":5.43713,"is_reserved":false,"is_disabled":false,"rental_uris":{"android":"levelo://app?vid=b007f058-4163-4bbe-ba13-50835769bd43","ios":"levelo://app?vid=b007f058-4163-4bbe-ba13-50835769bd43"},"vehicle_type_id":"4","last_reported":1740593581,"current_range_meters":9200,"station_id":"ce4bhp92rcd13ifvqhcg","pricing_plan_id":"cebpf4jnsgd1na2vs0mg"},{"bike_id":"c3452fd9-2444-49ba-a35e-7f70e8715dbb","system_id":"levelo_inurba_marseille","lat":43.29786,"lon":5.38106,"is_reserved":false,"is_disabled":false,"rental_uris":{"android":"levelo://app?vid=c3452fd9-2444-49ba-a35e-7f70e8715dbb","ios":"levelo://app?vid=c3452fd9-2444-49ba-a35e-7f70e8715dbb"},"vehicle_type_id":"4","last_reported":1740593581,"current_range_meters":8800,"station_id":"ce4bgip2rcd13ifvqbb0","pricing_plan_id":"cebpf4jnsgd1na2vs0mg"},{"bike_id":"a18d2462-6430-4fa5-8ce7-637ac348b4cd","system_id":"levelo_inurba_marseille","lat":43.27962,"lon":5.41082,"is_reserved":false,"is_disabled":false,"rental_uris":{"android":"levelo://app?vid=a18d2462-6430-4fa5-8ce7-637ac348b4cd","ios":"levelo://app?vid=a18d2462-6430-4fa5-8ce7-637ac348b4cd"},"vehicle_type_id":"4","last_reported":1740593581,"current_range_meters":8800,"station_id":"ce4bhnp2rcd13ifvqh0g","pricing_plan_id":"cebpf4jnsgd1na2vs0mg"},{"bike_id":"5e75271f-d4b3-4cee-b36a-0c7607f7417a","system_id":"levelo_inurba_marseille","lat":43.27972,"lon":5.38727,"is_reserved":false,"is_disabled":false,"rental_uris":{"android":"levelo://app?vid=5e75271f-d4b3-4cee-b36a-0c7607f7417a","ios":"levelo://app?vid=5e75271f-d4b3-4cee-b36a-0c7607f7417a"},"vehicle_type_id":"4","last_reported":1740593581,"current_range_meters":6800,"station_id":"ce4bhg12rcd13ifvqf80","pricing_plan_id":"cebpf4jnsgd1na2vs0mg"},{"bike_id":"d0801915-0de0-4f9d-9726-750b42c06614","system_id":"levelo_inurba_marseille","lat":43.32108,"lon":5.36778,"is_reserved":false,"is_disabled":false,"rental_uris":{"android":"levelo://app?vid=d0801915-0de0-4f9d-9726-750b42c06614","ios":"levelo://app?vid=d0801915-0de0-4f9d-9726-750b42c06614"},"vehicle_type_id":"4","last_reported":1740593581,"current_range_meters":8800,"station_id":"ce4bhrh2rcd13ifvqhug","pricing_plan_id":"cebpf4jnsgd1na2vs0mg"},{"bike_id":"9c87f5c8-0447-4e6f-bec6-30808cb71ea4","system_id":"levelo_inurba_marseille","lat":43.29711,"lon":5.36611,"is_reserved":false,"is_disabled":false,"rental_uris":{"android":"levelo://app?vid=9c87f5c8-0447-4e6f-bec6-30808cb71ea4","ios":"levelo://app?vid=9c87f5c8-0447-4e6f-bec6-30808cb71ea4"},"vehicle_type_id":"4","last_reported":1740593581,"current_range_meters":8000,"station_id":"ce4bgn12rcd13ifvqbt0","pricing_plan_id":"cebpf4jnsgd1na2vs0mg"},{"bike_id":"6f1c46a5-5c05-472f-a5f2-1fe451bb672d","system_id":"levelo_inurba_marseille","lat":43.27561,"lon":5.38428,"is_reserved":false,"is_disabled":false,"rental_uris":{"android":"levelo://app?vid=6f1c46a5-5c05-472f-a5f2-1fe451bb672d","ios":"levelo://app?vid=6f1c46a5-5c05-472f-a5f2-1fe451bb672d"},"vehicle_type_id":"4","last_reported":1740593581,"current_range_meters":9600,"station_id":"ce4bhh92rcd13ifvqfi0","pricing_plan_id":"cebpf4jnsgd1na2vs0mg"},{"bike_id":"f15e950f-7c3d-4712-b07b-a6030d34bb2c","system_id":"levelo_inurba_marseille","lat":43.29442,"lon":5.38654,"is_reserved":false,"is_disabled":false,"rental_uris":{"android":"levelo://app?vid=f15e950f-7c3d-4712-b07b-a6030d34bb2c","ios":"levelo://app?vid=f15e950f-7c3d-4712-b07b-a6030d34bb2c"},"vehicle_type_id":"4","last_reported":1740593581,"current_range_meters":9200,"station_id":"ce4bh2h2rcd13ifvqdh0","pricing_plan_id":"cebpf4jnsgd1na2vs0mg"},{"bike_id":"6b286004-f086-4023-9675-02a95f8e917b","system_id":"levelo_inurba_marseille","lat":43.30951,"lon":5.39051,"is_reserved":false,"is_disabled":true,"rental_uris":{"android":"levelo://app?vid=6b286004-f086-4023-9675-02a95f8e917b","ios":"levelo://app?vid=6b286004-f086-4023-9675-02a95f8e917b"},"vehicle_type_id":"4","last_reported":1740593581,"current_range_meters":9200,"station_id":"ce4bgup2rcd13ifvqco0","pricing_plan_id":"cebpf4jnsgd1na2vs0mg"},{"bike_id":"719baaea-c293-42a3-a0f8-1e9953de7b58","system_id":"levelo_inurba_marseille","lat":43.26548,"lon":5.3904,"is_reserved":false,"is_disabled":true,"rental_uris":{"android":"levelo://app?vid=719baaea-c293-42a3-a0f8-1e9953de7b58","ios":"levelo://app?vid=719baaea-c293-42a3-a0f8-1e9953de7b58"},"vehicle_type_id":"4","last_reported":1740593581,"current_range_meters":9200,"station_id":"ce4bhe12rcd13ifvqf30","pricing_plan_id":"cebpf4jnsgd1na2vs0mg"},{"bike_id":"57772caa-8ab8-4428-afea-3c045597a429","system_id":"levelo_inurba_marseille","lat":43.30542,"lon":5.38427,"is_reserved":false,"is_disabled":true,"rental_uris":{"android":"levelo://app?vid=57772caa-8ab8-4428-afea-3c045597a429","ios":"levelo://app?vid=57772caa-8ab8-4428-afea-3c045597a429"},"vehicle_type_id":"4","last_reported":1740593581,"current_range_meters":9600,"station_id":"ce4bgg92rcd13ifvqb30","pricing_plan_id":"cebpf4jnsgd1na2vs0mg"},{"bike_id":"b4adff87-b429-4081-b086-a53fe9414b22","system_id":"levelo_inurba_marseille","lat":43.31326,"lon":5.39699,"is_reserved":false,"is_disabled":false,"rental_uris":{"android":"levelo://app?vid=b4adff87-b429-4081-b086-a53fe9414b22","ios":"levelo://app?vid=b4adff87-b429-4081-b086-a53fe9414b22"},"vehicle_type_id":"4","last_reported":1740593581,"current_range_meters":8400,"station_id":"ce4bgvp2rcd13ifvqcu0","pricing_plan_id":"cebpf4jnsgd1na2vs0mg"},{"bike_id":"c0a2a32a-46bb-4cee-95b0-6aa802a18302","system_id":"levelo_inurba_marseille","lat":43.29308,"lon":5.37172,"is_reserved":false,"is_disabled":false,"rental_uris":{"android":"levelo://app?vid=c0a2a32a-46bb-4cee-95b0-6aa802a18302","ios":"levelo://app?vid=c0a2a32a-46bb-4cee-95b0-6aa802a18302"},"vehicle_type_id":"4","last_reported":1740593581,"current_range_meters":8800,"station_id":"ce4bgh92rcd13ifvqb40","pricing_plan_id":"cebpf4jnsgd1na2vs0mg"},{"bike_id":"6166f08d-2a05-485c-90d8-403b3d3cb8f7","system_id":"levelo_inurba_marseille","lat":43.291846,"lon":5.356823,"is_reserved":false,"is_disabled":false,"rental_uris":{"android":"levelo://app?vid=6166f08d-2a05-485c-90d8-403b3d3cb8f7","ios":"levelo://app?vid=6166f08d-2a05-485c-90d8-403b3d3cb8f7"},"vehicle_type_id":"4","last_reported":1740593581,"current_range_meters":9600,"station_id":"ce4bhch2rcd13ifvqeug","pricing_plan_id":"cebpf4jnsgd1na2vs0mg"},{"bike_id":"b983d621-06d1-4a23-a18d-766fc62bb8c7","system_id":"levelo_inurba_marseille","lat":43.28158,"lon":5.42657,"is_reserved":false,"is_disabled":false,"rental_uris":{"android":"levelo://app?vid=b983d621-06d1-4a23-a18d-766fc62bb8c7","ios":"levelo://app?vid=b983d621-06d1-4a23-a18d-766fc62bb8c7"},"vehicle_type_id":"4","last_reported":1740593581,"current_range_meters":10000,"station_id":"ce4bhnh2rcd13ifvqgug","pricing_plan_id":"cebpf4jnsgd1na2vs0mg"},{"bike_id":"6036f1a9-ba58-4cb4-aa3d-fa9be82da2fd","system_id":"levelo_inurba_marseille","lat":43.28973,"lon":5.37835,"is_reserved":false,"is_disabled":false,"rental_uris":{"android":"levelo://app?vid=6036f1a9-ba58-4cb4-aa3d-fa9be82da2fd","ios":"levelo://app?vid=6036f1a9-ba58-4cb4-aa3d-fa9be82da2fd"},"vehicle_type_id":"4","last_reported":1740593581,"current_range_meters":10000,"station_id":"ce4bh9p2rcd13ifvqed0","pricing_plan_id":"cebpf4jnsgd1na2vs0mg"},{"bike_id":"22d551b1-e5e0-4408-b51b-71ee2fa5f665","system_id":"levelo_inurba_marseille","lat":43.25585,"lon":5.38245,"is_reserved":false,"is_disabled":false,"rental_uris":{"android":"levelo://app?vid=22d551b1-e5e0-4408-b51b-71ee2fa5f665","ios":"levelo://app?vid=22d551b1-e5e0-4408-b51b-71ee2fa5f665"},"vehicle_type_id":"4","last_reported":1740593581,"current_range_meters":10000,"station_id":"ce4bhih2rcd13ifvqfs0","pricing_plan_id":"cebpf4jnsgd1na2vs0mg"},{"bike_id":"1e37517c-7c13-497e-93a6-2c0209fd3d04","system_id":"levelo_inurba_marseille","lat":43.2862,"lon":5.35093,"is_reserved":false,"is_disabled":false,"rental_uris":{"android":"levelo://app?vid=1e37517c-7c13-497e-93a6-2c0209fd3d04","ios":"levelo://app?vid=1e37517c-7c13-497e-93a6-2c0209fd3d04"},"vehicle_type_id":"4","last_reported":1740593581,"current_range_meters":10800,"station_id":"ce4bhch2rcd13ifvqeug","pricing_plan_id":"cebpf4jnsgd1na2vs0mg"},{"bike_id":"1d70c622-10e8-4a33-8612-a7dc67991c51","system_id":"levelo_inurba_marseille","lat":43.317013,"lon":5.377413,"is_reserved":false,"is_disabled":false,"rental_uris":{"android":"levelo://app?vid=1d70c622-10e8-4a33-8612-a7dc67991c51","ios":"levelo://app?vid=1d70c622-10e8-4a33-8612-a7dc67991c51"},"vehicle_type_id":"4","last_reported":1740593581,"current_range_meters":10800,"station_id":"ce4bgth2rcd13ifvqch0","pricing_plan_id":"cebpf4jnsgd1na2vs0mg"},{"bike_id":"2a2854fd-727e-4e49-b134-c09e35fdd553","system_id":"levelo_inurba_marseille","lat":43.2835,"lon":5.38627,"is_reserved":false,"is_disabled":false,"rental_uris":{"android":"levelo://app?vid=2a2854fd-727e-4e49-b134-c09e35fdd553","ios":"levelo://app?vid=2a2854fd-727e-4e49-b134-c09e35fdd553"},"vehicle_type_id":"4","last_reported":1740593581,"current_range_meters":10000,"station_id":"ce4bh492rcd13ifvqdvg","pricing_plan_id":"cebpf4jnsgd1na2vs0mg"},{"bike_id":"52a02ec7-8e0c-4781-ae9b-a63b7edaabaf","system_id":"levelo_inurba_marseille","lat":43.2827,"lon":5.350605,"is_reserved":false,"is_disabled":false,"rental_uris":{"android":"levelo://app?vid=52a02ec7-8e0c-4781-ae9b-a63b7edaabaf","ios":"levelo://app?vid=52a02ec7-8e0c-4781-ae9b-a63b7edaabaf"},"vehicle_type_id":"4","last_reported":1740593581,"current_range_meters":10000,"station_id":"ce4bhbp2rcd13ifvqerg","pricing_plan_id":"cebpf4jnsgd1na2vs0mg"},{"bike_id":"abca7d8c-3ea1-47f9-b791-a0deee4597a3","system_id":"levelo_inurba_marseille","lat":43.28684,"lon":5.38658,"is_reserved":false,"is_disabled":false,"rental_uris":{"android":"levelo://app?vid=abca7d8c-3ea1-47f9-b791-a0deee4597a3","ios":"levelo://app?vid=abca7d8c-3ea1-47f9-b791-a0deee4597a3"},"vehicle_type_id":"4","last_reported":1740593581,"current_range_meters":10000,"station_id":"ce4bh492rcd13ifvqdug","pricing_plan_id":"cebpf4jnsgd1na2vs0mg"},{"bike_id":"cf24c843-c17b-4762-b4d2-148bce0026ec","system_id":"levelo_inurba_marseille","lat":43.29528,"lon":5.38535,"is_reserved":false,"is_disabled":false,"rental_uris":{"android":"levelo://app?vid=cf24c843-c17b-4762-b4d2-148bce0026ec","ios":"levelo://app?vid=cf24c843-c17b-4762-b4d2-148bce0026ec"},"vehicle_type_id":"4","last_reported":1740593581,"current_range_meters":10800,"station_id":"ce4bgih2rcd13ifvqba0","pricing_plan_id":"cebpf4jnsgd1na2vs0mg"},{"bike_id":"ce3fe5a4-4283-4607-a942-3a962e09ade3","system_id":"levelo_inurba_marseille","lat":43.29523,"lon":5.39399,"is_reserved":false,"is_disabled":false,"rental_uris":{"android":"levelo://app?vid=ce3fe5a4-4283-4607-a942-3a962e09ade3","ios":"levelo://app?vid=ce3fe5a4-4283-4607-a942-3a962e09ade3"},"vehicle_type_id":"4","last_reported":1740593581,"current_range_meters":9600,"station_id":"ce4bh292rcd13ifvqdf0","pricing_plan_id":"cebpf4jnsgd1na2vs0mg"},{"bike_id":"7adec233-a05c-4987-b429-306f302068e8","system_id":"levelo_inurba_marseille","lat":43.29525,"lon":5.39394,"is_reserved":false,"is_disabled":false,"rental_uris":{"android":"levelo://app?vid=7adec233-a05c-4987-b429-306f302068e8","ios":"levelo://app?vid=7adec233-a05c-4987-b429-306f302068e8"},"vehicle_type_id":"4","last_reported":1740593581,"current_range_meters":10800,"station_id":"ce4bh292rcd13ifvqdf0","pricing_plan_id":"cebpf4jnsgd1na2vs0mg"},{"bike_id":"f9eed1e4-1895-44e2-8624-cc9551693ed5","system_id":"levelo_inurba_marseille","lat":43.29857,"lon":5.36293,"is_reserved":false,"is_disabled":false,"rental_uris":{"android":"levelo://app?vid=f9eed1e4-1895-44e2-8624-cc9551693ed5","ios":"levelo://app?vid=f9eed1e4-1895-44e2-8624-cc9551693ed5"},"vehicle_type_id":"4","last_reported":1740593581,"current_range_meters":10800,"station_id":"ce4bgpp2rcd13ifvqc3g","pricing_plan_id":"cebpf4jnsgd1na2vs0mg"},{"bike_id":"0fe73288-2a9e-45dd-a7fd-796e3cdd5bff","system_id":"levelo_inurba_marseille","lat":43.28435,"lon":5.39201,"is_reserved":false,"is_disabled":false,"rental_uris":{"android":"levelo://app?vid=0fe73288-2a9e-45dd-a7fd-796e3cdd5bff","ios":"levelo://app?vid=0fe73288-2a9e-45dd-a7fd-796e3cdd5bff"},"vehicle_type_id":"4","last_reported":1740593581,"current_range_meters":10800,"station_id":"ce4bhoh2rcd13ifvqh5g","pricing_plan_id":"cebpf4jnsgd1na2vs0mg"},{"bike_id":"2fe6d3c4-cc6a-431d-ac58-cab4daf5a53a","system_id":"levelo_inurba_marseille","lat":43.255,"lon":5.37647,"is_reserved":false,"is_disabled":false,"rental_uris":{"android":"levelo://app?vid=2fe6d3c4-cc6a-431d-ac58-cab4daf5a53a","ios":"levelo://app?vid=2fe6d3c4-cc6a-431d-ac58-cab4daf5a53a"},"vehicle_type_id":"4","last_reported":1740593581,"current_range_meters":10800,"station_id":"ce4bhh12rcd13ifvqff0","pricing_plan_id":"cebpf4jnsgd1na2vs0mg"},{"bike_id":"55e56dce-b3e3-4247-99a6-2e9087e0e346","system_id":"levelo_inurba_marseille","lat":43.32655,"lon":5.40995,"is_reserved":false,"is_disabled":false,"rental_uris":{"android":"levelo://app?vid=55e56dce-b3e3-4247-99a6-2e9087e0e346","ios":"levelo://app?vid=55e56dce-b3e3-4247-99a6-2e9087e0e346"},"vehicle_type_id":"4","last_reported":1740593581,"current_range_meters":6400,"station_id":"ce4bhpp2rcd13ifvqhgg","pricing_plan_id":"cebpf4jnsgd1na2vs0mg"},{"bike_id":"f247707b-e888-49c3-89ee-ab785bbf1a0b","system_id":"levelo_inurba_marseille","lat":43.27575,"lon":5.38422,"is_reserved":false,"is_disabled":false,"rental_uris":{"android":"levelo://app?vid=f247707b-e888-49c3-89ee-ab785bbf1a0b","ios":"levelo://app?vid=f247707b-e888-49c3-89ee-ab785bbf1a0b"},"vehicle_type_id":"4","last_reported":1740593581,"current_range_meters":10800,"station_id":"ce4bhh92rcd13ifvqfi0","pricing_plan_id":"cebpf4jnsgd1na2vs0mg"},{"bike_id":"f1891932-ee72-4c3d-b59a-e2e00348afea","system_id":"levelo_inurba_marseille","lat":43.29796,"lon":5.38096,"is_reserved":false,"is_disabled":false,"rental_uris":{"android":"levelo://app?vid=f1891932-ee72-4c3d-b59a-e2e00348afea","ios":"levelo://app?vid=f1891932-ee72-4c3d-b59a-e2e00348afea"},"vehicle_type_id":"4","last_reported":1740593581,"current_range_meters":10800,"station_id":"ce4bgip2rcd13ifvqbb0","pricing_plan_id":"cebpf4jnsgd1na2vs0mg"},{"bike_id":"53f6206c-2750-42e7-a8f3-9533b6f35c4a","system_id":"levelo_inurba_marseille","lat":43.28619,"lon":5.351,"is_reserved":false,"is_disabled":false,"rental_uris":{"android":"levelo://app?vid=53f6206c-2750-42e7-a8f3-9533b6f35c4a","ios":"levelo://app?vid=53f6206c-2750-42e7-a8f3-9533b6f35c4a"},"vehicle_type_id":"4","last_reported":1740593581,"current_range_meters":11200,"station_id":"ce4bhch2rcd13ifvqeug","pricing_plan_id":"cebpf4jnsgd1na2vs0mg"},{"bike_id":"1a8278a7-b630-4880-a801-ed8013b64146","system_id":"levelo_inurba_marseille","lat":43.29254,"lon":5.40915,"is_reserved":false,"is_disabled":false,"rental_uris":{"android":"levelo://app?vid=1a8278a7-b630-4880-a801-ed8013b64146","ios":"levelo://app?vid=1a8278a7-b630-4880-a801-ed8013b64146"},"vehicle_type_id":"4","last_reported":1740593581,"current_range_meters":10800,"station_id":"ce4bh192rcd13ifvqdc0","pricing_plan_id":"cebpf4jnsgd1na2vs0mg"},{"bike_id":"128d9f19-560e-4907-b2b5-99db2fe70c71","system_id":"levelo_inurba_marseille","lat":43.30641,"lon":5.40074,"is_reserved":false,"is_disabled":false,"rental_uris":{"android":"levelo://app?vid=128d9f19-560e-4907-b2b5-99db2fe70c71","ios":"levelo://app?vid=128d9f19-560e-4907-b2b5-99db2fe70c71"},"vehicle_type_id":"4","last_reported":1740593581,"current_range_meters":11200,"station_id":"ce4bh112rcd13ifvqda0","pricing_plan_id":"cebpf4jnsgd1na2vs0mg"},{"bike_id":"805133f8-ef6b-40bc-aded-8bbf9d93a71c","system_id":"levelo_inurba_marseille","lat":43.31281,"lon":5.40178,"is_reserved":false,"is_disabled":false,"rental_uris":{"android":"levelo://app?vid=805133f8-ef6b-40bc-aded-8bbf9d93a71c","ios":"levelo://app?vid=805133f8-ef6b-40bc-aded-8bbf9d93a71c"},"vehicle_type_id":"4","last_reported":1740593581,"current_range_meters":11600,"station_id":"ce4bh092rcd13ifvqd30","pricing_plan_id":"cebpf4jnsgd1na2vs0mg"},{"bike_id":"eccbcc79-6300-47b3-8907-f9c8d79d983b","system_id":"levelo_inurba_marseille","lat":43.25579,"lon":5.38246,"is_reserved":false,"is_disabled":false,"rental_uris":{"android":"levelo://app?vid=eccbcc79-6300-47b3-8907-f9c8d79d983b","ios":"levelo://app?vid=eccbcc79-6300-47b3-8907-f9c8d79d983b"},"vehicle_type_id":"4","last_reported":1740593581,"current_range_meters":11200,"station_id":"ce4bhih2rcd13ifvqfs0","pricing_plan_id":"cebpf4jnsgd1na2vs0mg"},{"bike_id":"36737abc-92c8-4805-b92e-39887fb8602b","system_id":"levelo_inurba_marseille","lat":43.31692,"lon":5.40469,"is_reserved":false,"is_disabled":false,"rental_uris":{"android":"levelo://app?vid=36737abc-92c8-4805-b92e-39887fb8602b","ios":"levelo://app?vid=36737abc-92c8-4805-b92e-39887fb8602b"},"vehicle_type_id":"4","last_reported":1740593581,"current_range_meters":10800,"station_id":"ce4bh012rcd13ifvqd00","pricing_plan_id":"cebpf4jnsgd1na2vs0mg"},{"bike_id":"fcf2db79-5866-451d-a559-8ea7618ab830","system_id":"levelo_inurba_marseille","lat":43.29717,"lon":5.37682,"is_reserved":false,"is_disabled":false,"rental_uris":{"android":"levelo://app?vid=fcf2db79-5866-451d-a559-8ea7618ab830","ios":"levelo://app?vid=fcf2db79-5866-451d-a559-8ea7618ab830"},"vehicle_type_id":"4","last_reported":1740593581,"current_range_meters":10000,"station_id":"ce4bgkh2rcd13ifvqbl0","pricing_plan_id":"cebpf4jnsgd1na2vs0mg"},{"bike_id":"1690cf1f-489e-42fe-b2b4-7448c418d56d","system_id":"levelo_inurba_marseille","lat":43.32011,"lon":5.38158,"is_reserved":false,"is_disabled":false,"rental_uris":{"android":"levelo://app?vid=1690cf1f-489e-42fe-b2b4-7448c418d56d","ios":"levelo://app?vid=1690cf1f-489e-42fe-b2b4-7448c418d56d"},"vehicle_type_id":"4","last_reported":1740593581,"current_range_meters":11600,"station_id":"ce4bhr12rcd13ifvqhpg","pricing_plan_id":"cebpf4jnsgd1na2vs0mg"},{"bike_id":"aa1c1254-8b09-4cc6-908c-bacac335dd0d","system_id":"levelo_inurba_marseille","lat":43.24081,"lon":5.37751,"is_reserved":false,"is_disabled":false,"rental_uris":{"android":"levelo://app?vid=aa1c1254-8b09-4cc6-908c-bacac335dd0d","ios":"levelo://app?vid=aa1c1254-8b09-4cc6-908c-bacac335dd0d"},"vehicle_type_id":"4","last_reported":1740593581,"current_range_meters":11600,"station_id":"ce4bhnp2rcd13ifvqgvg","pricing_plan_id":"cebpf4jnsgd1na2vs0mg"},{"bike_id":"67b3b19a-9c33-45c3-874a-9702e7a51cf9","system_id":"levelo_inurba_marseille","lat":43.28718,"lon":5.37923,"is_reserved":false,"is_disabled":false,"rental_uris":{"android":"levelo://app?vid=67b3b19a-9c33-45c3-874a-9702e7a51cf9","ios":"levelo://app?vid=67b3b19a-9c33-45c3-874a-9702e7a51cf9"},"vehicle_type_id":"4","last_reported":1740593581,"current_range_meters":11600,"station_id":"ce4bh9p2rcd13ifvqec0","pricing_plan_id":"cebpf4jnsgd1na2vs0mg"},{"bike_id":"b156e998-d6d4-4844-95a7-fdc37eed401c","system_id":"levelo_inurba_marseille","lat":43.28422,"lon":5.34985,"is_reserved":false,"is_disabled":false,"rental_uris":{"android":"levelo://app?vid=b156e998-d6d4-4844-95a7-fdc37eed401c","ios":"levelo://app?vid=b156e998-d6d4-4844-95a7-fdc37eed401c"},"vehicle_type_id":"4","last_reported":1740593581,"current_range_meters":11600,"station_id":"ce4bhbh2rcd13ifvqepg","pricing_plan_id":"cebpf4jnsgd1na2vs0mg"},{"bike_id":"8d140011-12bc-4b74-936f-ba6eef713fcd","system_id":"levelo_inurba_marseille","lat":43.28973,"lon":5.37831,"is_reserved":false,"is_disabled":false,"rental_uris":{"android":"levelo://app?vid=8d140011-12bc-4b74-936f-ba6eef713fcd","ios":"levelo://app?vid=8d140011-12bc-4b74-936f-ba6eef713fcd"},"vehicle_type_id":"4","last_reported":1740593581,"current_range_meters":11200,"station_id":"ce4bh9p2rcd13ifvqed0","pricing_plan_id":"cebpf4jnsgd1na2vs0mg"},{"bike_id":"0a64e61f-897c-4815-820c-abd46ad90ec9","system_id":"levelo_inurba_marseille","lat":43.29576,"lon":5.36738,"is_reserved":false,"is_disabled":false,"rental_uris":{"android":"levelo://app?vid=0a64e61f-897c-4815-820c-abd46ad90ec9","ios":"levelo://app?vid=0a64e61f-897c-4815-820c-abd46ad90ec9"},"vehicle_type_id":"4","last_reported":1740593581,"current_range_meters":11600,"station_id":"ce4bgph2rcd13ifvqc2g","pricing_plan_id":"cebpf4jnsgd1na2vs0mg"},{"bike_id":"2eaefa51-b974-49b3-96df-79c1dff5061e","system_id":"levelo_inurba_marseille","lat":43.257324,"lon":5.394289,"is_reserved":false,"is_disabled":false,"rental_uris":{"android":"levelo://app?vid=2eaefa51-b974-49b3-96df-79c1dff5061e","ios":"levelo://app?vid=2eaefa51-b974-49b3-96df-79c1dff5061e"},"vehicle_type_id":"4","last_reported":1740593581,"current_range_meters":11600,"station_id":"ce4bhip2rcd13ifvqft0","pricing_plan_id":"cebpf4jnsgd1na2vs0mg"},{"bike_id":"54834f48-7ff9-4d7a-b626-fe8c3158ddea","system_id":"levelo_inurba_marseille","lat":43.30638,"lon":5.40091,"is_reserved":false,"is_disabled":false,"rental_uris":{"android":"levelo://app?vid=54834f48-7ff9-4d7a-b626-fe8c3158ddea","ios":"levelo://app?vid=54834f48-7ff9-4d7a-b626-fe8c3158ddea"},"vehicle_type_id":"4","last_reported":1740593581,"current_range_meters":11600,"station_id":"ce4bh112rcd13ifvqda0","pricing_plan_id":"cebpf4jnsgd1na2vs0mg"},{"bike_id":"7d69b8ca-a9aa-4484-978b-c0e582be99d5","system_id":"levelo_inurba_marseille","lat":43.28725,"lon":5.36093,"is_reserved":false,"is_disabled":false,"rental_uris":{"android":"levelo://app?vid=7d69b8ca-a9aa-4484-978b-c0e582be99d5","ios":"levelo://app?vid=7d69b8ca-a9aa-4484-978b-c0e582be99d5"},"vehicle_type_id":"4","last_reported":1740593581,"current_range_meters":12000,"station_id":"cki0cbj6b192h4jlfktg","pricing_plan_id":"cebpf4jnsgd1na2vs0mg"},{"bike_id":"1cdb2957-8d2c-4020-8bb4-adb03a5080f6","system_id":"levelo_inurba_marseille","lat":43.27947,"lon":5.41046,"is_reserved":false,"is_disabled":false,"rental_uris":{"android":"levelo://app?vid=1cdb2957-8d2c-4020-8bb4-adb03a5080f6","ios":"levelo://app?vid=1cdb2957-8d2c-4020-8bb4-adb03a5080f6"},"vehicle_type_id":"4","last_reported":1740593581,"current_range_meters":12000,"station_id":"ce4bhnp2rcd13ifvqh0g","pricing_plan_id":"cebpf4jnsgd1na2vs0mg"},{"bike_id":"1d603e55-5939-499f-95ae-55d30c9c2364","system_id":"levelo_inurba_marseille","lat":43.28154,"lon":5.42644,"is_reserved":false,"is_disabled":false,"rental_uris":{"android":"levelo://app?vid=1d603e55-5939-499f-95ae-55d30c9c2364","ios":"levelo://app?vid=1d603e55-5939-499f-95ae-55d30c9c2364"},"vehicle_type_id":"4","last_reported":1740593581,"current_range_meters":12000,"station_id":"ce4bhnh2rcd13ifvqgug","pricing_plan_id":"cebpf4jnsgd1na2vs0mg"},{"bike_id":"ad9571bc-5194-4f71-90ef-f1cb0835f36e","system_id":"levelo_inurba_marseille","lat":43.25492,"lon":5.37659,"is_reserved":false,"is_disabled":false,"rental_uris":{"android":"levelo://app?vid=ad9571bc-5194-4f71-90ef-f1cb0835f36e","ios":"levelo://app?vid=ad9571bc-5194-4f71-90ef-f1cb0835f36e"},"vehicle_type_id":"4","last_reported":1740593581,"current_range_meters":12000,"station_id":"ce4bhh12rcd13ifvqff0","pricing_plan_id":"cebpf4jnsgd1na2vs0mg"},{"bike_id":"a7791d15-770e-4fea-a2f7-660eb501014c","system_id":"levelo_inurba_marseille","lat":43.283988,"lon":5.375203,"is_reserved":false,"is_disabled":false,"rental_uris":{"android":"levelo://app?vid=a7791d15-770e-4fea-a2f7-660eb501014c","ios":"levelo://app?vid=a7791d15-770e-4fea-a2f7-660eb501014c"},"vehicle_type_id":"4","last_reported":1740593581,"current_range_meters":12400,"station_id":"ce4bgup2rcd13ifvqcn0","pricing_plan_id":"cebpf4jnsgd1na2vs0mg"},{"bike_id":"7f7cc99d-4ce7-4009-91d2-73969ba982b5","system_id":"levelo_inurba_marseille","lat":43.29881,"lon":5.38912,"is_reserved":false,"is_disabled":false,"rental_uris":{"android":"levelo://app?vid=7f7cc99d-4ce7-4009-91d2-73969ba982b5","ios":"levelo://app?vid=7f7cc99d-4ce7-4009-91d2-73969ba982b5"},"vehicle_type_id":"4","last_reported":1740593581,"current_range_meters":12800,"station_id":"ce4bh392rcd13ifvqdl0","pricing_plan_id":"cebpf4jnsgd1na2vs0mg"},{"bike_id":"acfa4b5d-266b-4b15-b835-76a88aab3a2c","system_id":"levelo_inurba_marseille","lat":43.29577,"lon":5.36741,"is_reserved":false,"is_disabled":false,"rental_uris":{"android":"levelo://app?vid=acfa4b5d-266b-4b15-b835-76a88aab3a2c","ios":"levelo://app?vid=acfa4b5d-266b-4b15-b835-76a88aab3a2c"},"vehicle_type_id":"4","last_reported":1740593581,"current_range_meters":12400,"station_id":"ce4bgph2rcd13ifvqc2g","pricing_plan_id":"cebpf4jnsgd1na2vs0mg"},{"bike_id":"fe2546e9-9200-4096-b336-515a11621879","system_id":"levelo_inurba_marseille","lat":43.295698,"lon":5.40052,"is_reserved":false,"is_disabled":false,"rental_uris":{"android":"levelo://app?vid=fe2546e9-9200-4096-b336-515a11621879","ios":"levelo://app?vid=fe2546e9-9200-4096-b336-515a11621879"},"vehicle_type_id":"4","last_reported":1740593581,"current_range_meters":6800,"station_id":"ce4bgvh2rcd13ifvqcs0","pricing_plan_id":"cebpf4jnsgd1na2vs0mg"},{"bike_id":"16279315-50bb-4d73-8fff-28c2dcc18db7","system_id":"levelo_inurba_marseille","lat":43.29061,"lon":5.35918,"is_reserved":false,"is_disabled":false,"rental_uris":{"android":"levelo://app?vid=16279315-50bb-4d73-8fff-28c2dcc18db7","ios":"levelo://app?vid=16279315-50bb-4d73-8fff-28c2dcc18db7"},"vehicle_type_id":"4","last_reported":1740593581,"current_range_meters":12400,"station_id":"ce4bha92rcd13ifvqeg0","pricing_plan_id":"cebpf4jnsgd1na2vs0mg"},{"bike_id":"4a55367e-93a4-4ad3-bcb1-42567a1393b2","system_id":"levelo_inurba_marseille","lat":43.29228,"lon":5.36063,"is_reserved":false,"is_disabled":false,"rental_uris":{"android":"levelo://app?vid=4a55367e-93a4-4ad3-bcb1-42567a1393b2","ios":"levelo://app?vid=4a55367e-93a4-4ad3-bcb1-42567a1393b2"},"vehicle_type_id":"4","last_reported":1740593581,"current_range_meters":12400,"station_id":"ce4bhbh2rcd13ifvqeqg","pricing_plan_id":"cebpf4jnsgd1na2vs0mg"},{"bike_id":"c78cf680-290d-4aff-8c35-9bb0c0d0f61d","system_id":"levelo_inurba_marseille","lat":43.30171,"lon":5.39741,"is_reserved":false,"is_disabled":false,"rental_uris":{"android":"levelo://app?vid=c78cf680-290d-4aff-8c35-9bb0c0d0f61d","ios":"levelo://app?vid=c78cf680-290d-4aff-8c35-9bb0c0d0f61d"},"vehicle_type_id":"4","last_reported":1740593581,"current_range_meters":12800,"station_id":"","pricing_plan_id":"cebpf4jnsgd1na2vs0mg"},{"bike_id":"82551d1c-e487-48ad-9d7c-5158274d49d9","system_id":"levelo_inurba_marseille","lat":43.299787,"lon":5.371813,"is_reserved":false,"is_disabled":false,"rental_uris":{"android":"levelo://app?vid=82551d1c-e487-48ad-9d7c-5158274d49d9","ios":"levelo://app?vid=82551d1c-e487-48ad-9d7c-5158274d49d9"},"vehicle_type_id":"4","last_reported":1740593581,"current_range_meters":12800,"station_id":"ce4bh4p2rcd13ifvqe0g","pricing_plan_id":"cebpf4jnsgd1na2vs0mg"},{"bike_id":"f66913d8-adc8-4497-b81a-8613461ae8a9","system_id":"levelo_inurba_marseille","lat":43.28407,"lon":5.35011,"is_reserved":false,"is_disabled":false,"rental_uris":{"android":"levelo://app?vid=f66913d8-adc8-4497-b81a-8613461ae8a9","ios":"levelo://app?vid=f66913d8-adc8-4497-b81a-8613461ae8a9"},"vehicle_type_id":"4","last_reported":1740593581,"current_range_meters":12800,"station_id":"ce4bhbh2rcd13ifvqepg","pricing_plan_id":"cebpf4jnsgd1na2vs0mg"},{"bike_id":"620faf8f-9860-4e84-b6cd-4559a0b9a89c","system_id":"levelo_inurba_marseille","lat":43.32475,"lon":5.36545,"is_reserved":false,"is_disabled":false,"rental_uris":{"android":"levelo://app?vid=620faf8f-9860-4e84-b6cd-4559a0b9a89c","ios":"levelo://app?vid=620faf8f-9860-4e84-b6cd-4559a0b9a89c"},"vehicle_type_id":"4","last_reported":1740593581,"current_range_meters":12800,"station_id":"ce4bhs12rcd13ifvqhvg","pricing_plan_id":"cebpf4jnsgd1na2vs0mg"},{"bike_id":"7b33f413-8f08-43ef-9261-24eef4ff1549","system_id":"levelo_inurba_marseille","lat":43.23964,"lon":5.36632,"is_reserved":false,"is_disabled":false,"rental_uris":{"android":"levelo://app?vid=7b33f413-8f08-43ef-9261-24eef4ff1549","ios":"levelo://app?vid=7b33f413-8f08-43ef-9261-24eef4ff1549"},"vehicle_type_id":"4","last_reported":1740593581,"current_range_meters":12800,"station_id":"ce4bhi12rcd13ifvqfp0","pricing_plan_id":"cebpf4jnsgd1na2vs0mg"},{"bike_id":"e2231c40-4e68-4e65-8d31-9d3b67df341a","system_id":"levelo_inurba_marseille","lat":43.25507,"lon":5.37656,"is_reserved":false,"is_disabled":false,"rental_uris":{"android":"levelo://app?vid=e2231c40-4e68-4e65-8d31-9d3b67df341a","ios":"levelo://app?vid=e2231c40-4e68-4e65-8d31-9d3b67df341a"},"vehicle_type_id":"4","last_reported":1740593581,"current_range_meters":13600,"station_id":"ce4bhh12rcd13ifvqff0","pricing_plan_id":"cebpf4jnsgd1na2vs0mg"},{"bike_id":"f18c632a-d158-4155-9675-d3c5ff19ae33","system_id":"levelo_inurba_marseille","lat":43.255,"lon":5.3765,"is_reserved":false,"is_disabled":false,"rental_uris":{"android":"levelo://app?vid=f18c632a-d158-4155-9675-d3c5ff19ae33","ios":"levelo://app?vid=f18c632a-d158-4155-9675-d3c5ff19ae33"},"vehicle_type_id":"4","last_reported":1740593581,"current_range_meters":13600,"station_id":"ce4bhh12rcd13ifvqff0","pricing_plan_id":"cebpf4jnsgd1na2vs0mg"},{"bike_id":"19e4983d-b74d-4524-9c14-80fb6905f947","system_id":"levelo_inurba_marseille","lat":43.32103,"lon":5.36783,"is_reserved":false,"is_disabled":false,"rental_uris":{"android":"levelo://app?vid=19e4983d-b74d-4524-9c14-80fb6905f947","ios":"levelo://app?vid=19e4983d-b74d-4524-9c14-80fb6905f947"},"vehicle_type_id":"4","last_reported":1740593581,"current_range_meters":13600,"station_id":"ce4bhrh2rcd13ifvqhug","pricing_plan_id":"cebpf4jnsgd1na2vs0mg"},{"bike_id":"0928dd8c-9aac-472c-9f91-5ac6b9941f43","system_id":"levelo_inurba_marseille","lat":43.31706,"lon":5.40451,"is_reserved":false,"is_disabled":false,"rental_uris":{"android":"levelo://app?vid=0928dd8c-9aac-472c-9f91-5ac6b9941f43","ios":"levelo://app?vid=0928dd8c-9aac-472c-9f91-5ac6b9941f43"},"vehicle_type_id":"4","last_reported":1740593581,"current_range_meters":13600,"station_id":"ce4bh012rcd13ifvqd00","pricing_plan_id":"cebpf4jnsgd1na2vs0mg"},{"bike_id":"7266af47-e9f0-4e43-bba1-095ebf3818bf","system_id":"levelo_inurba_marseille","lat":43.25075,"lon":5.39543,"is_reserved":false,"is_disabled":false,"rental_uris":{"android":"levelo://app?vid=7266af47-e9f0-4e43-bba1-095ebf3818bf","ios":"levelo://app?vid=7266af47-e9f0-4e43-bba1-095ebf3818bf"},"vehicle_type_id":"4","last_reported":1740593581,"current_range_meters":14000,"station_id":"ce4bhm12rcd13ifvqgkg","pricing_plan_id":"cebpf4jnsgd1na2vs0mg"},{"bike_id":"a29c9bb4-893c-4806-a38d-fe3bd2f5a3e1","system_id":"levelo_inurba_marseille","lat":43.30792,"lon":5.37644,"is_reserved":false,"is_disabled":false,"rental_uris":{"android":"levelo://app?vid=a29c9bb4-893c-4806-a38d-fe3bd2f5a3e1","ios":"levelo://app?vid=a29c9bb4-893c-4806-a38d-fe3bd2f5a3e1"},"vehicle_type_id":"4","last_reported":1740593581,"current_range_meters":14000,"station_id":"ce4bgv92rcd13ifvqcq0","pricing_plan_id":"cebpf4jnsgd1na2vs0mg"},{"bike_id":"9ea15ae9-9c11-486a-bb35-d4dcef991c05","system_id":"levelo_inurba_marseille","lat":43.28622,"lon":5.35114,"is_reserved":false,"is_disabled":false,"rental_uris":{"android":"levelo://app?vid=9ea15ae9-9c11-486a-bb35-d4dcef991c05","ios":"levelo://app?vid=9ea15ae9-9c11-486a-bb35-d4dcef991c05"},"vehicle_type_id":"4","last_reported":1740593581,"current_range_meters":13600,"station_id":"ce4bhch2rcd13ifvqeug","pricing_plan_id":"cebpf4jnsgd1na2vs0mg"},{"bike_id":"4ba12d90-76ed-49c3-8f11-c6f91fca27fb","system_id":"levelo_inurba_marseille","lat":43.29421,"lon":5.38659,"is_reserved":false,"is_disabled":false,"rental_uris":{"android":"levelo://app?vid=4ba12d90-76ed-49c3-8f11-c6f91fca27fb","ios":"levelo://app?vid=4ba12d90-76ed-49c3-8f11-c6f91fca27fb"},"vehicle_type_id":"4","last_reported":1740593581,"current_range_meters":14000,"station_id":"ce4bh2h2rcd13ifvqdh0","pricing_plan_id":"cebpf4jnsgd1na2vs0mg"},{"bike_id":"d905ca0c-c944-4730-94c6-4871cc7ae277","system_id":"levelo_inurba_marseille","lat":43.28402,"lon":5.37525,"is_reserved":false,"is_disabled":false,"rental_uris":{"android":"levelo://app?vid=d905ca0c-c944-4730-94c6-4871cc7ae277","ios":"levelo://app?vid=d905ca0c-c944-4730-94c6-4871cc7ae277"},"vehicle_type_id":"4","last_reported":1740593581,"current_range_meters":14000,"station_id":"ce4bh412rcd13ifvqds0","pricing_plan_id":"cebpf4jnsgd1na2vs0mg"},{"bike_id":"eb6ab5a8-2601-46cb-9411-6e44dd80d04e","system_id":"levelo_inurba_marseille","lat":43.29571,"lon":5.39968,"is_reserved":false,"is_disabled":false,"rental_uris":{"android":"levelo://app?vid=eb6ab5a8-2601-46cb-9411-6e44dd80d04e","ios":"levelo://app?vid=eb6ab5a8-2601-46cb-9411-6e44dd80d04e"},"vehicle_type_id":"4","last_reported":1740593581,"current_range_meters":13600,"station_id":"ce4bh312rcd13ifvqdj0","pricing_plan_id":"cebpf4jnsgd1na2vs0mg"},{"bike_id":"17973595-0627-4cbe-be09-6d52168568c1","system_id":"levelo_inurba_marseille","lat":43.27815,"lon":5.40717,"is_reserved":false,"is_disabled":false,"rental_uris":{"android":"levelo://app?vid=17973595-0627-4cbe-be09-6d52168568c1","ios":"levelo://app?vid=17973595-0627-4cbe-be09-6d52168568c1"},"vehicle_type_id":"4","last_reported":1740593581,"current_range_meters":14000,"station_id":"ce4bhnh2rcd13ifvqgtg","pricing_plan_id":"cebpf4jnsgd1na2vs0mg"},{"bike_id":"e04a9f8f-606b-4134-9126-5302efad29d1","system_id":"levelo_inurba_marseille","lat":43.29187,"lon":5.35795,"is_reserved":false,"is_disabled":false,"rental_uris":{"android":"levelo://app?vid=e04a9f8f-606b-4134-9126-5302efad29d1","ios":"levelo://app?vid=e04a9f8f-606b-4134-9126-5302efad29d1"},"vehicle_type_id":"4","last_reported":1740593581,"current_range_meters":14000,"station_id":"ce4bhb12rcd13ifvqel0","pricing_plan_id":"cebpf4jnsgd1na2vs0mg"},{"bike_id":"3a521ef0-66dc-438e-9f1d-8efbfceb9336","system_id":"levelo_inurba_marseille","lat":43.2949,"lon":5.40133,"is_reserved":false,"is_disabled":false,"rental_uris":{"android":"levelo://app?vid=3a521ef0-66dc-438e-9f1d-8efbfceb9336","ios":"levelo://app?vid=3a521ef0-66dc-438e-9f1d-8efbfceb9336"},"vehicle_type_id":"4","last_reported":1740593581,"current_range_meters":14400,"station_id":"ce4bh312rcd13ifvqdj0","pricing_plan_id":"cebpf4jnsgd1na2vs0mg"},{"bike_id":"2d5bfecd-4c3f-4425-be69-05777b5f3085","system_id":"levelo_inurba_marseille","lat":43.29028,"lon":5.38645,"is_reserved":false,"is_disabled":false,"rental_uris":{"android":"levelo://app?vid=2d5bfecd-4c3f-4425-be69-05777b5f3085","ios":"levelo://app?vid=2d5bfecd-4c3f-4425-be69-05777b5f3085"},"vehicle_type_id":"4","last_reported":1740593581,"current_range_meters":18000,"station_id":"ce4bh4p2rcd13ifvqe0g","pricing_plan_id":"cebpf4jnsgd1na2vs0mg"},{"bike_id":"d1f874e3-2dfe-443b-9857-31019dd83c83","system_id":"levelo_inurba_marseille","lat":43.31751,"lon":5.39021,"is_reserved":false,"is_disabled":false,"rental_uris":{"android":"levelo://app?vid=d1f874e3-2dfe-443b-9857-31019dd83c83","ios":"levelo://app?vid=d1f874e3-2dfe-443b-9857-31019dd83c83"},"vehicle_type_id":"4","last_reported":1740593581,"current_range_meters":14800,"station_id":"ce4bhqp2rcd13ifvqhng","pricing_plan_id":"cebpf4jnsgd1na2vs0mg"},{"bike_id":"2199a98d-0b01-413d-a5db-41d988d5115a","system_id":"levelo_inurba_marseille","lat":43.28937,"lon":5.36639,"is_reserved":false,"is_disabled":false,"rental_uris":{"android":"levelo://app?vid=2199a98d-0b01-413d-a5db-41d988d5115a","ios":"levelo://app?vid=2199a98d-0b01-413d-a5db-41d988d5115a"},"vehicle_type_id":"4","last_reported":1740593581,"current_range_meters":14800,"station_id":"ce4bhap2rcd13ifvqek0","pricing_plan_id":"cebpf4jnsgd1na2vs0mg"},{"bike_id":"17f4d80a-1474-40a7-8fb0-00bdaf513420","system_id":"levelo_inurba_marseille","lat":43.28124,"lon":5.37866,"is_reserved":false,"is_disabled":false,"rental_uris":{"android":"levelo://app?vid=17f4d80a-1474-40a7-8fb0-00bdaf513420","ios":"levelo://app?vid=17f4d80a-1474-40a7-8fb0-00bdaf513420"},"vehicle_type_id":"4","last_reported":1740593581,"current_range_meters":14800,"station_id":"ce4bha12rcd13ifvqee0","pricing_plan_id":"cebpf4jnsgd1na2vs0mg"},{"bike_id":"411c46b4-16ae-45d1-be94-238c464d1ea8","system_id":"levelo_inurba_marseille","lat":43.29482,"lon":5.38411,"is_reserved":false,"is_disabled":false,"rental_uris":{"android":"levelo://app?vid=411c46b4-16ae-45d1-be94-238c464d1ea8","ios":"levelo://app?vid=411c46b4-16ae-45d1-be94-238c464d1ea8"},"vehicle_type_id":"4","last_reported":1740593581,"current_range_meters":14800,"station_id":"ce4bgih2rcd13ifvqba0","pricing_plan_id":"cebpf4jnsgd1na2vs0mg"},{"bike_id":"51ca93f2-a1d1-4fc8-8cc0-e2f0f7e05dab","system_id":"levelo_inurba_marseille","lat":43.30155,"lon":5.38086,"is_reserved":false,"is_disabled":false,"rental_uris":{"android":"levelo://app?vid=51ca93f2-a1d1-4fc8-8cc0-e2f0f7e05dab","ios":"levelo://app?vid=51ca93f2-a1d1-4fc8-8cc0-e2f0f7e05dab"},"vehicle_type_id":"4","last_reported":1740593581,"current_range_meters":14800,"station_id":"ce4bgjp2rcd13ifvqbh0","pricing_plan_id":"cebpf4jnsgd1na2vs0mg"},{"bike_id":"b8df1215-f442-481c-94b8-e67ec22bb778","system_id":"levelo_inurba_marseille","lat":43.29598,"lon":5.38099,"is_reserved":false,"is_disabled":false,"rental_uris":{"android":"levelo://app?vid=b8df1215-f442-481c-94b8-e67ec22bb778","ios":"levelo://app?vid=b8df1215-f442-481c-94b8-e67ec22bb778"},"vehicle_type_id":"4","last_reported":1740593581,"current_range_meters":14800,"station_id":"ce4bgl12rcd13ifvqbo0","pricing_plan_id":"cebpf4jnsgd1na2vs0mg"},{"bike_id":"cc050e32-128f-4e39-b654-d2598b0daca4","system_id":"levelo_inurba_marseille","lat":43.30794,"lon":5.38152,"is_reserved":false,"is_disabled":false,"rental_uris":{"android":"levelo://app?vid=cc050e32-128f-4e39-b654-d2598b0daca4","ios":"levelo://app?vid=cc050e32-128f-4e39-b654-d2598b0daca4"},"vehicle_type_id":"4","last_reported":1740593581,"current_range_meters":16000,"station_id":"ce4bgt12rcd13ifvqce0","pricing_plan_id":"cebpf4jnsgd1na2vs0mg"},{"bike_id":"8ef81c1a-3d5e-401e-9c2c-c024f755ea23","system_id":"levelo_inurba_marseille","lat":43.29181,"lon":5.35802,"is_reserved":false,"is_disabled":false,"rental_uris":{"android":"levelo://app?vid=8ef81c1a-3d5e-401e-9c2c-c024f755ea23","ios":"levelo://app?vid=8ef81c1a-3d5e-401e-9c2c-c024f755ea23"},"vehicle_type_id":"4","last_reported":1740593581,"current_range_meters":15200,"station_id":"ce4bhb12rcd13ifvqel0","pricing_plan_id":"cebpf4jnsgd1na2vs0mg"},{"bike_id":"db30ffcd-fb6c-442b-809b-d08849c7c727","system_id":"levelo_inurba_marseille","lat":43.33023,"lon":5.39039,"is_reserved":false,"is_disabled":false,"rental_uris":{"android":"levelo://app?vid=db30ffcd-fb6c-442b-809b-d08849c7c727","ios":"levelo://app?vid=db30ffcd-fb6c-442b-809b-d08849c7c727"},"vehicle_type_id":"4","last_reported":1740593581,"current_range_meters":14800,"station_id":"ce4bhr92rcd13ifvqhrg","pricing_plan_id":"cebpf4jnsgd1na2vs0mg"},{"bike_id":"7eebcedb-18f4-4398-b9bd-d7d8a33415a2","system_id":"levelo_inurba_marseille","lat":43.29227,"lon":5.36061,"is_reserved":false,"is_disabled":false,"rental_uris":{"android":"levelo://app?vid=7eebcedb-18f4-4398-b9bd-d7d8a33415a2","ios":"levelo://app?vid=7eebcedb-18f4-4398-b9bd-d7d8a33415a2"},"vehicle_type_id":"4","last_reported":1740593581,"current_range_meters":15200,"station_id":"ce4bhbh2rcd13ifvqeqg","pricing_plan_id":"cebpf4jnsgd1na2vs0mg"},{"bike_id":"b15edacc-3b77-44ac-bec3-4eaa9539a5ec","system_id":"levelo_inurba_marseille","lat":43.27173,"lon":5.4099,"is_reserved":false,"is_disabled":false,"rental_uris":{"android":"levelo://app?vid=b15edacc-3b77-44ac-bec3-4eaa9539a5ec","ios":"levelo://app?vid=b15edacc-3b77-44ac-bec3-4eaa9539a5ec"},"vehicle_type_id":"4","last_reported":1740593581,"current_range_meters":12800,"station_id":"ce4bhl12rcd13ifvqgf0","pricing_plan_id":"cebpf4jnsgd1na2vs0mg"},{"bike_id":"985d16b2-8859-4895-bc32-7c0857320f09","system_id":"levelo_inurba_marseille","lat":43.29257,"lon":5.38448,"is_reserved":false,"is_disabled":false,"rental_uris":{"android":"levelo://app?vid=985d16b2-8859-4895-bc32-7c0857320f09","ios":"levelo://app?vid=985d16b2-8859-4895-bc32-7c0857320f09"},"vehicle_type_id":"4","last_reported":1740593581,"current_range_meters":16000,"station_id":"ce4bh692rcd13ifvqea0","pricing_plan_id":"cebpf4jnsgd1na2vs0mg"},{"bike_id":"c3a5f772-b546-4206-91a7-6e545a8300b3","system_id":"levelo_inurba_marseille","lat":43.29278,"lon":5.36851,"is_reserved":false,"is_disabled":false,"rental_uris":{"android":"levelo://app?vid=c3a5f772-b546-4206-91a7-6e545a8300b3","ios":"levelo://app?vid=c3a5f772-b546-4206-91a7-6e545a8300b3"},"vehicle_type_id":"4","last_reported":1740593581,"current_range_meters":16000,"station_id":"ce4bhbp2rcd13ifvqesg","pricing_plan_id":"cebpf4jnsgd1na2vs0mg"},{"bike_id":"2215d5e4-8798-4621-81ec-24430288d53b","system_id":"levelo_inurba_marseille","lat":43.32025,"lon":5.38133,"is_reserved":false,"is_disabled":false,"rental_uris":{"android":"levelo://app?vid=2215d5e4-8798-4621-81ec-24430288d53b","ios":"levelo://app?vid=2215d5e4-8798-4621-81ec-24430288d53b"},"vehicle_type_id":"4","last_reported":1740593581,"current_range_meters":16000,"station_id":"ce4bhr12rcd13ifvqhpg","pricing_plan_id":"cebpf4jnsgd1na2vs0mg"},{"bike_id":"3e0c8d38-ca09-486f-9f84-8409d9a9b6f2","system_id":"levelo_inurba_marseille","lat":43.3032,"lon":5.40431,"is_reserved":false,"is_disabled":false,"rental_uris":{"android":"levelo://app?vid=3e0c8d38-ca09-486f-9f84-8409d9a9b6f2","ios":"levelo://app?vid=3e0c8d38-ca09-486f-9f84-8409d9a9b6f2"},"vehicle_type_id":"4","last_reported":1740593581,"current_range_meters":16000,"station_id":"ce4bh012rcd13ifvqd10","pricing_plan_id":"cebpf4jnsgd1na2vs0mg"},{"bike_id":"79a585c5-cf42-4150-9df4-5cf43862e690","system_id":"levelo_inurba_marseille","lat":43.24654,"lon":5.38881,"is_reserved":false,"is_disabled":false,"rental_uris":{"android":"levelo://app?vid=79a585c5-cf42-4150-9df4-5cf43862e690","ios":"levelo://app?vid=79a585c5-cf42-4150-9df4-5cf43862e690"},"vehicle_type_id":"4","last_reported":1740593581,"current_range_meters":16000,"station_id":"ce4bhg12rcd13ifvqf60","pricing_plan_id":"cebpf4jnsgd1na2vs0mg"},{"bike_id":"dc1deb5f-be60-47dd-a397-2458bf714b12","system_id":"levelo_inurba_marseille","lat":43.23063,"lon":5.35504,"is_reserved":false,"is_disabled":false,"rental_uris":{"android":"levelo://app?vid=dc1deb5f-be60-47dd-a397-2458bf714b12","ios":"levelo://app?vid=dc1deb5f-be60-47dd-a397-2458bf714b12"},"vehicle_type_id":"4","last_reported":1740593581,"current_range_meters":16000,"station_id":"cpo3342slgdg3j2ifvpg","pricing_plan_id":"cebpf4jnsgd1na2vs0mg"},{"bike_id":"075dab4a-9af9-4a25-a4d6-34f6178dd79c","system_id":"levelo_inurba_marseille","lat":43.28356,"lon":5.38105,"is_reserved":false,"is_disabled":false,"rental_uris":{"android":"levelo://app?vid=075dab4a-9af9-4a25-a4d6-34f6178dd79c","ios":"levelo://app?vid=075dab4a-9af9-4a25-a4d6-34f6178dd79c"},"vehicle_type_id":"4","last_reported":1740593581,"current_range_meters":13600,"station_id":"ce4bh412rcd13ifvqdr0","pricing_plan_id":"cebpf4jnsgd1na2vs0mg"},{"bike_id":"732557cf-5b7a-4bbd-a0b0-62f32f2fbd15","system_id":"levelo_inurba_marseille","lat":43.29277,"lon":5.36844,"is_reserved":false,"is_disabled":false,"rental_uris":{"android":"levelo://app?vid=732557cf-5b7a-4bbd-a0b0-62f32f2fbd15","ios":"levelo://app?vid=732557cf-5b7a-4bbd-a0b0-62f32f2fbd15"},"vehicle_type_id":"4","last_reported":1740593581,"current_range_meters":13600,"station_id":"ce4bhbp2rcd13ifvqesg","pricing_plan_id":"cebpf4jnsgd1na2vs0mg"},{"bike_id":"bf7f976e-4112-44b2-bf1d-a5116467df00","system_id":"levelo_inurba_marseille","lat":43.28711,"lon":5.37934,"is_reserved":false,"is_disabled":false,"rental_uris":{"android":"levelo://app?vid=bf7f976e-4112-44b2-bf1d-a5116467df00","ios":"levelo://app?vid=bf7f976e-4112-44b2-bf1d-a5116467df00"},"vehicle_type_id":"4","last_reported":1740593581,"current_range_meters":16000,"station_id":"ce4bh9p2rcd13ifvqec0","pricing_plan_id":"cebpf4jnsgd1na2vs0mg"},{"bike_id":"2308716e-8437-4dbb-8df9-dbb520c35048","system_id":"levelo_inurba_marseille","lat":43.29385,"lon":5.37854,"is_reserved":false,"is_disabled":false,"rental_uris":{"android":"levelo://app?vid=2308716e-8437-4dbb-8df9-dbb520c35048","ios":"levelo://app?vid=2308716e-8437-4dbb-8df9-dbb520c35048"},"vehicle_type_id":"4","last_reported":1740593581,"current_range_meters":16000,"station_id":"ce4bgjh2rcd13ifvqbf0","pricing_plan_id":"cebpf4jnsgd1na2vs0mg"},{"bike_id":"5ab74027-0266-42e6-903d-055b2632fc94","system_id":"levelo_inurba_marseille","lat":43.276267,"lon":5.36112,"is_reserved":false,"is_disabled":false,"rental_uris":{"android":"levelo://app?vid=5ab74027-0266-42e6-903d-055b2632fc94","ios":"levelo://app?vid=5ab74027-0266-42e6-903d-055b2632fc94"},"vehicle_type_id":"4","last_reported":1740593581,"current_range_meters":16400,"station_id":"ce4bgj92rcd13ifvqbe0","pricing_plan_id":"cebpf4jnsgd1na2vs0mg"},{"bike_id":"32022f30-217e-4459-b186-dd7b6ca601cd","system_id":"levelo_inurba_marseille","lat":43.27803,"lon":5.40711,"is_reserved":false,"is_disabled":false,"rental_uris":{"android":"levelo://app?vid=32022f30-217e-4459-b186-dd7b6ca601cd","ios":"levelo://app?vid=32022f30-217e-4459-b186-dd7b6ca601cd"},"vehicle_type_id":"4","last_reported":1740593581,"current_range_meters":16400,"station_id":"ce4bhnh2rcd13ifvqgtg","pricing_plan_id":"cebpf4jnsgd1na2vs0mg"},{"bike_id":"cb230696-43b2-428f-8d6a-97e35aaa3f92","system_id":"levelo_inurba_marseille","lat":43.27916,"lon":5.39587,"is_reserved":false,"is_disabled":false,"rental_uris":{"android":"levelo://app?vid=cb230696-43b2-428f-8d6a-97e35aaa3f92","ios":"levelo://app?vid=cb230696-43b2-428f-8d6a-97e35aaa3f92"},"vehicle_type_id":"4","last_reported":1740593581,"current_range_meters":16400,"station_id":"ce4bhf92rcd13ifvqf40","pricing_plan_id":"cebpf4jnsgd1na2vs0mg"},{"bike_id":"ba9049d3-09e4-4707-a3da-1c98e5784d0b","system_id":"levelo_inurba_marseille","lat":43.30298,"lon":5.36918,"is_reserved":false,"is_disabled":false,"rental_uris":{"android":"levelo://app?vid=ba9049d3-09e4-4707-a3da-1c98e5784d0b","ios":"levelo://app?vid=ba9049d3-09e4-4707-a3da-1c98e5784d0b"},"vehicle_type_id":"4","last_reported":1740593581,"current_range_meters":16400,"station_id":"ce4bgqh2rcd13ifvqc5g","pricing_plan_id":"cebpf4jnsgd1na2vs0mg"},{"bike_id":"dfc1333f-4a22-49c8-8fd6-ee4ffd669f6f","system_id":"levelo_inurba_marseille","lat":43.24179,"lon":5.39725,"is_reserved":false,"is_disabled":false,"rental_uris":{"android":"levelo://app?vid=dfc1333f-4a22-49c8-8fd6-ee4ffd669f6f","ios":"levelo://app?vid=dfc1333f-4a22-49c8-8fd6-ee4ffd669f6f"},"vehicle_type_id":"4","last_reported":1740593581,"current_range_meters":19600,"station_id":"ce4bhn12rcd13ifvqgpg","pricing_plan_id":"cebpf4jnsgd1na2vs0mg"},{"bike_id":"0a1c16b2-ff0b-4c45-a62e-00a34f22a786","system_id":"levelo_inurba_marseille","lat":43.28461,"lon":5.35881,"is_reserved":false,"is_disabled":false,"rental_uris":{"android":"levelo://app?vid=0a1c16b2-ff0b-4c45-a62e-00a34f22a786","ios":"levelo://app?vid=0a1c16b2-ff0b-4c45-a62e-00a34f22a786"},"vehicle_type_id":"4","last_reported":1740593581,"current_range_meters":16400,"station_id":"ce4bhah2rcd13ifvqei0","pricing_plan_id":"cebpf4jnsgd1na2vs0mg"},{"bike_id":"bc679af8-b2d8-495d-8f01-39de79e9748b","system_id":"levelo_inurba_marseille","lat":43.29584,"lon":5.36743,"is_reserved":false,"is_disabled":false,"rental_uris":{"android":"levelo://app?vid=bc679af8-b2d8-495d-8f01-39de79e9748b","ios":"levelo://app?vid=bc679af8-b2d8-495d-8f01-39de79e9748b"},"vehicle_type_id":"4","last_reported":1740593581,"current_range_meters":16800,"station_id":"ce4bgph2rcd13ifvqc2g","pricing_plan_id":"cebpf4jnsgd1na2vs0mg"},{"bike_id":"3ef4a283-1278-481d-a678-2032504e228a","system_id":"levelo_inurba_marseille","lat":43.28979,"lon":5.35595,"is_reserved":false,"is_disabled":true,"rental_uris":{"android":"levelo://app?vid=3ef4a283-1278-481d-a678-2032504e228a","ios":"levelo://app?vid=3ef4a283-1278-481d-a678-2032504e228a"},"vehicle_type_id":"4","last_reported":1740593581,"current_range_meters":16800,"station_id":"ce4bhb92rcd13ifvqen0","pricing_plan_id":"cebpf4jnsgd1na2vs0mg"},{"bike_id":"c8cf8366-0c44-45bd-9143-3b5fae02e2ac","system_id":"levelo_inurba_marseille","lat":43.28164,"lon":5.42649,"is_reserved":false,"is_disabled":false,"rental_uris":{"android":"levelo://app?vid=c8cf8366-0c44-45bd-9143-3b5fae02e2ac","ios":"levelo://app?vid=c8cf8366-0c44-45bd-9143-3b5fae02e2ac"},"vehicle_type_id":"4","last_reported":1740593581,"current_range_meters":17200,"station_id":"ce4bhnh2rcd13ifvqgug","pricing_plan_id":"cebpf4jnsgd1na2vs0mg"},{"bike_id":"19e09a69-c57f-482a-b847-7f66783bd645","system_id":"levelo_inurba_marseille","lat":43.27819,"lon":5.40701,"is_reserved":false,"is_disabled":false,"rental_uris":{"android":"levelo://app?vid=19e09a69-c57f-482a-b847-7f66783bd645","ios":"levelo://app?vid=19e09a69-c57f-482a-b847-7f66783bd645"},"vehicle_type_id":"4","last_reported":1740593581,"current_range_meters":16800,"station_id":"ce4bhnh2rcd13ifvqgtg","pricing_plan_id":"cebpf4jnsgd1na2vs0mg"},{"bike_id":"f4348f33-a7cf-4ac2-8c6b-8458decddb9e","system_id":"levelo_inurba_marseille","lat":43.31108,"lon":5.40083,"is_reserved":false,"is_disabled":false,"rental_uris":{"android":"levelo://app?vid=f4348f33-a7cf-4ac2-8c6b-8458decddb9e","ios":"levelo://app?vid=f4348f33-a7cf-4ac2-8c6b-8458decddb9e"},"vehicle_type_id":"4","last_reported":1740593581,"current_range_meters":17200,"station_id":"ce4bh092rcd13ifvqd30","pricing_plan_id":"cebpf4jnsgd1na2vs0mg"},{"bike_id":"7e63f67f-4335-4c8c-9fe4-2c0940c95793","system_id":"levelo_inurba_marseille","lat":43.28564,"lon":5.37359,"is_reserved":false,"is_disabled":false,"rental_uris":{"android":"levelo://app?vid=7e63f67f-4335-4c8c-9fe4-2c0940c95793","ios":"levelo://app?vid=7e63f67f-4335-4c8c-9fe4-2c0940c95793"},"vehicle_type_id":"4","last_reported":1740593581,"current_range_meters":17600,"station_id":"ce4bh3p2rcd13ifvqdq0","pricing_plan_id":"cebpf4jnsgd1na2vs0mg"},{"bike_id":"f69342f6-4610-415f-a3f7-9cf182d9b1e1","system_id":"levelo_inurba_marseille","lat":43.28842,"lon":5.39294,"is_reserved":false,"is_disabled":false,"rental_uris":{"android":"levelo://app?vid=f69342f6-4610-415f-a3f7-9cf182d9b1e1","ios":"levelo://app?vid=f69342f6-4610-415f-a3f7-9cf182d9b1e1"},"vehicle_type_id":"4","last_reported":1740593581,"current_range_meters":16800,"station_id":"ce4bh2p2rcd13ifvqdi0","pricing_plan_id":"cebpf4jnsgd1na2vs0mg"},{"bike_id":"d9edb359-99e6-43de-99dd-b9b1164fad3d","system_id":"levelo_inurba_marseille","lat":43.2847,"lon":5.38433,"is_reserved":false,"is_disabled":true,"rental_uris":{"android":"levelo://app?vid=d9edb359-99e6-43de-99dd-b9b1164fad3d","ios":"levelo://app?vid=d9edb359-99e6-43de-99dd-b9b1164fad3d"},"vehicle_type_id":"4","last_reported":1740593581,"current_range_meters":13600,"station_id":"ce4bh512rcd13ifvqe3g","pricing_plan_id":"cebpf4jnsgd1na2vs0mg"},{"bike_id":"5d817dd1-ddbd-4992-8c15-171a01bbfdec","system_id":"levelo_inurba_marseille","lat":43.26233,"lon":5.40452,"is_reserved":false,"is_disabled":false,"rental_uris":{"android":"levelo://app?vid=5d817dd1-ddbd-4992-8c15-171a01bbfdec","ios":"levelo://app?vid=5d817dd1-ddbd-4992-8c15-171a01bbfdec"},"vehicle_type_id":"4","last_reported":1740593581,"current_range_meters":16800,"station_id":"ce4bhmh2rcd13ifvqgmg","pricing_plan_id":"cebpf4jnsgd1na2vs0mg"},{"bike_id":"bee51a31-cd90-43b0-a846-93b874ee0230","system_id":"levelo_inurba_marseille","lat":43.29632,"lon":5.40602,"is_reserved":false,"is_disabled":false,"rental_uris":{"android":"levelo://app?vid=bee51a31-cd90-43b0-a846-93b874ee0230","ios":"levelo://app?vid=bee51a31-cd90-43b0-a846-93b874ee0230"},"vehicle_type_id":"4","last_reported":1740593581,"current_range_meters":16800,"station_id":"ce4bh0h2rcd13ifvqd60","pricing_plan_id":"cebpf4jnsgd1na2vs0mg"},{"bike_id":"31c58e5d-9342-432b-b32a-4dfcdf1667fa","system_id":"levelo_inurba_marseille","lat":43.24387,"lon":5.37062,"is_reserved":false,"is_disabled":false,"rental_uris":{"android":"levelo://app?vid=31c58e5d-9342-432b-b32a-4dfcdf1667fa","ios":"levelo://app?vid=31c58e5d-9342-432b-b32a-4dfcdf1667fa"},"vehicle_type_id":"4","last_reported":1740593581,"current_range_meters":17200,"station_id":"ce4bhhh2rcd13ifvqfk0","pricing_plan_id":"cebpf4jnsgd1na2vs0mg"},{"bike_id":"f3a30e9b-47fe-47d5-ac2e-267d81f68680","system_id":"levelo_inurba_marseille","lat":43.30938,"lon":5.40158,"is_reserved":false,"is_disabled":false,"rental_uris":{"android":"levelo://app?vid=f3a30e9b-47fe-47d5-ac2e-267d81f68680","ios":"levelo://app?vid=f3a30e9b-47fe-47d5-ac2e-267d81f68680"},"vehicle_type_id":"4","last_reported":1740593581,"current_range_meters":17200,"station_id":"ce4bgvp2rcd13ifvqct0","pricing_plan_id":"cebpf4jnsgd1na2vs0mg"},{"bike_id":"5706d79e-b7a1-4ec9-8bf0-98985e8d331f","system_id":"levelo_inurba_marseille","lat":43.28936,"lon":5.36634,"is_reserved":false,"is_disabled":false,"rental_uris":{"android":"levelo://app?vid=5706d79e-b7a1-4ec9-8bf0-98985e8d331f","ios":"levelo://app?vid=5706d79e-b7a1-4ec9-8bf0-98985e8d331f"},"vehicle_type_id":"4","last_reported":1740593581,"current_range_meters":19200,"station_id":"ce4bhap2rcd13ifvqek0","pricing_plan_id":"cebpf4jnsgd1na2vs0mg"},{"bike_id":"a3520f26-0319-488f-8488-964453c663ea","system_id":"levelo_inurba_marseille","lat":43.28857,"lon":5.35868,"is_reserved":false,"is_disabled":false,"rental_uris":{"android":"levelo://app?vid=a3520f26-0319-488f-8488-964453c663ea","ios":"levelo://app?vid=a3520f26-0319-488f-8488-964453c663ea"},"vehicle_type_id":"4","last_reported":1740593581,"current_range_meters":17200,"station_id":"ce4bhb12rcd13ifvqem0","pricing_plan_id":"cebpf4jnsgd1na2vs0mg"},{"bike_id":"74f5ad13-ba47-4035-8829-8af8683b9740","system_id":"levelo_inurba_marseille","lat":43.27842,"lon":5.39196,"is_reserved":false,"is_disabled":false,"rental_uris":{"android":"levelo://app?vid=74f5ad13-ba47-4035-8829-8af8683b9740","ios":"levelo://app?vid=74f5ad13-ba47-4035-8829-8af8683b9740"},"vehicle_type_id":"4","last_reported":1740593581,"current_range_meters":16800,"station_id":"ce4bhjp2rcd13ifvqga0","pricing_plan_id":"cebpf4jnsgd1na2vs0mg"},{"bike_id":"8a339686-9723-415b-8f3c-02f3810e4035","system_id":"levelo_inurba_marseille","lat":43.29863,"lon":5.39737,"is_reserved":false,"is_disabled":false,"rental_uris":{"android":"levelo://app?vid=8a339686-9723-415b-8f3c-02f3810e4035","ios":"levelo://app?vid=8a339686-9723-415b-8f3c-02f3810e4035"},"vehicle_type_id":"4","last_reported":1740593581,"current_range_meters":17200,"station_id":"ce4bh0h2rcd13ifvqd50","pricing_plan_id":"cebpf4jnsgd1na2vs0mg"},{"bike_id":"e91cd605-327e-4dd8-ae3d-60a7965e63fc","system_id":"levelo_inurba_marseille","lat":43.289283,"lon":5.383909,"is_reserved":false,"is_disabled":false,"rental_uris":{"android":"levelo://app?vid=e91cd605-327e-4dd8-ae3d-60a7965e63fc","ios":"levelo://app?vid=e91cd605-327e-4dd8-ae3d-60a7965e63fc"},"vehicle_type_id":"4","last_reported":1740593581,"current_range_meters":16800,"station_id":"ce4bh612rcd13ifvqe6g","pricing_plan_id":"cebpf4jnsgd1na2vs0mg"},{"bike_id":"aa86509d-88ac-4658-8809-048774216a69","system_id":"levelo_inurba_marseille","lat":43.29635,"lon":5.40682,"is_reserved":false,"is_disabled":false,"rental_uris":{"android":"levelo://app?vid=aa86509d-88ac-4658-8809-048774216a69","ios":"levelo://app?vid=aa86509d-88ac-4658-8809-048774216a69"},"vehicle_type_id":"4","last_reported":1740593581,"current_range_meters":17600,"station_id":"","pricing_plan_id":"cebpf4jnsgd1na2vs0mg"},{"bike_id":"7f319ef0-f091-49a0-b3bf-1dc7a7a815a3","system_id":"levelo_inurba_marseille","lat":43.28857,"lon":5.39316,"is_reserved":false,"is_disabled":false,"rental_uris":{"android":"levelo://app?vid=7f319ef0-f091-49a0-b3bf-1dc7a7a815a3","ios":"levelo://app?vid=7f319ef0-f091-49a0-b3bf-1dc7a7a815a3"},"vehicle_type_id":"4","last_reported":1740593581,"current_range_meters":17600,"station_id":"ce4bh2p2rcd13ifvqdi0","pricing_plan_id":"cebpf4jnsgd1na2vs0mg"},{"bike_id":"9bb9c93d-6152-4604-9c7f-343f6040c93a","system_id":"levelo_inurba_marseille","lat":43.29228,"lon":5.36072,"is_reserved":false,"is_disabled":false,"rental_uris":{"android":"levelo://app?vid=9bb9c93d-6152-4604-9c7f-343f6040c93a","ios":"levelo://app?vid=9bb9c93d-6152-4604-9c7f-343f6040c93a"},"vehicle_type_id":"4","last_reported":1740593581,"current_range_meters":17600,"station_id":"ce4bhbh2rcd13ifvqeqg","pricing_plan_id":"cebpf4jnsgd1na2vs0mg"},{"bike_id":"8e7ca1de-f2e1-45da-a0a6-c0442942ed30","system_id":"levelo_inurba_marseille","lat":43.25503,"lon":5.37642,"is_reserved":false,"is_disabled":false,"rental_uris":{"android":"levelo://app?vid=8e7ca1de-f2e1-45da-a0a6-c0442942ed30","ios":"levelo://app?vid=8e7ca1de-f2e1-45da-a0a6-c0442942ed30"},"vehicle_type_id":"4","last_reported":1740593581,"current_range_meters":17600,"station_id":"ce4bhh12rcd13ifvqff0","pricing_plan_id":"cebpf4jnsgd1na2vs0mg"},{"bike_id":"ec5e8170-722e-4041-bc02-bfff8a6be250","system_id":"levelo_inurba_marseille","lat":43.23964,"lon":5.3664,"is_reserved":false,"is_disabled":false,"rental_uris":{"android":"levelo://app?vid=ec5e8170-722e-4041-bc02-bfff8a6be250","ios":"levelo://app?vid=ec5e8170-722e-4041-bc02-bfff8a6be250"},"vehicle_type_id":"4","last_reported":1740593581,"current_range_meters":17200,"station_id":"ce4bhi12rcd13ifvqfp0","pricing_plan_id":"cebpf4jnsgd1na2vs0mg"},{"bike_id":"12488ac2-6ba9-4438-aff6-4367872ef220","system_id":"levelo_inurba_marseille","lat":43.25004,"lon":5.3892,"is_reserved":false,"is_disabled":false,"rental_uris":{"android":"levelo://app?vid=12488ac2-6ba9-4438-aff6-4367872ef220","ios":"levelo://app?vid=12488ac2-6ba9-4438-aff6-4367872ef220"},"vehicle_type_id":"4","last_reported":1740593581,"current_range_meters":17600,"station_id":"ce4bhgp2rcd13ifvqfd0","pricing_plan_id":"cebpf4jnsgd1na2vs0mg"},{"bike_id":"f5900fd7-5ebc-4e9b-ae58-1b8e740df4a2","system_id":"levelo_inurba_marseille","lat":43.2781,"lon":5.40708,"is_reserved":false,"is_disabled":false,"rental_uris":{"android":"levelo://app?vid=f5900fd7-5ebc-4e9b-ae58-1b8e740df4a2","ios":"levelo://app?vid=f5900fd7-5ebc-4e9b-ae58-1b8e740df4a2"},"vehicle_type_id":"4","last_reported":1740593581,"current_range_meters":17600,"station_id":"ce4bhnh2rcd13ifvqgtg","pricing_plan_id":"cebpf4jnsgd1na2vs0mg"},