{"last_updated":1712163965,"ttl":30,"version":"2.2","data":{"bikes":[{"bike_id":"18cb13bd-8e21-4def-a445-b95777413498","system_id":"levelo_inurba_marseille","lat":43.312239,"lon":5.368562,"is_reserved":false,"is_disabled":false,"rental_uris":{"android":"levelo://app?vid=18cb13bd-8e21-4def-a445-b95777413498","ios":"levelo://app?vid=18cb13bd-8e21-4def-a445-b95777413498"},"vehicle_type_id":"4","last_reported":1712163965,"current_range_meters":11600,"station_id":"ce4bgl92rcd13ifvqbq0","pricing_plan_id":"cebpf4jnsgd1na2vs0mg"},{"bike_id":"1bfabb6b-0209-4d6b-94ba-3a6e41a2276a","system_id":"levelo_inurba_marseille","lat":43.284217,"lon":5.349697,"is_reserved":false,"is_disabled":false,"rental_uris":{"android":"levelo://app?vid=1bfabb6b-0209-4d6b-94ba-3a6e41a2276a","ios":"levelo://app?vid=1bfabb6b-0209-4d6b-94ba-3a6e41a2276a"},"vehicle_type_id":"4","last_reported":1712163965,"current_range_meters":0,"station_id":"ce4bhbh2rcd13ifvqepg","pricing_plan_id":"cebpf4jnsgd1na2vs0mg"},{"bike_id":"b725948a-0ed1-40b7-b117-1947a9d9fa4b","system_id":"levelo_inurba_marseille","lat":43.312239,"lon":5.368562,"is_reserved":false,"is_disabled":false,"rental_uris":{"android":"levelo://app?vid=b725948a-0ed1-40b7-b117-1947a9d9fa4b","ios":"levelo://app?vid=b725948a-0ed1-40b7-b117-1947a9d9fa4b"},"vehicle_type_id":"4","last_reported":1712163965,"current_range_meters":0,"station_id":"ce4bgl92rcd13ifvqbq0","pricing_plan_id":"cebpf4jnsgd1na2vs0mg"},{"bike_id":"c1a838bd-f1c9-4af4-9a7a-0a14a228eb47","system_id":"levelo_inurba_marseille","lat":43.312239,"lon":5.368562,"is_reserved":false,"is_disabled":false,"rental_uris":{"android":"levelo://app?vid=c1a838bd-f1c9-4af4-9a7a-0a14a228eb47","ios":"levelo://app?vid=c1a838bd-f1c9-4af4-9a7a-0a14a228eb47"},"vehicle_type_id":"4","last_reported":1712163965,"current_range_meters":0,"station_id":"ce4bgl92rcd13ifvqbq0","pricing_plan_id":"cebpf4jnsgd1na2vs0mg"},{"bike_id":"27293a2e-79b4-4d77-99f6-e19ec5da16da","system_id":"levelo_inurba_marseille","lat":43.312239,"lon":5.368562,"is_reserved":false,"is_disabled":false,"rental_uris":{"android":"levelo://app?vid=27293a2e-79b4-4d77-99f6-e19ec5da16da","ios":"levelo://app?vid=27293a2e-79b4-4d77-99f6-e19ec5da16da"},"vehicle_type_id":"4","last_reported":1712163965,"current_range_meters":10400,"station_id":"ce4bgl92rcd13ifvqbq0","pricing_plan_id":"cebpf4jnsgd1na2vs0mg"},{"bike_id":"1c672718-e09d-48db-80c7-2afc3685b161","system_id":"levelo_inurba_marseille","lat":43.309076,"lon":5.368465,"is_reserved":false,"is_disabled":false,"rental_uris":{"android":"levelo://app?vid=1c672718-e09d-48db-80c7-2afc3685b161","ios":"levelo://app?vid=1c672718-e09d-48db-80c7-2afc3685b161"},"vehicle_type_id":"4","last_reported":1712163965,"current_range_meters":6000,"station_id":"ce4bgn92rcd13ifvqbvg","pricing_plan_id":"cebpf4jnsgd1na2vs0mg"},{"bike_id":"1125b1f9-c727-4b50-97e0-a50d42845dc0","system_id":"levelo_inurba_marseille","lat":43.31455,"lon":5.37321,"is_reserved":false,"is_disabled":false,"rental_uris":{"android":"levelo://app?vid=1125b1f9-c727-4b50-97e0-a50d42845dc0","ios":"levelo://app?vid=1125b1f9-c727-4b50-97e0-a50d42845dc0"},"vehicle_type_id":"4","last_reported":1712163965,"current_range_meters":5200,"station_id":"ce4bhp92rcd13ifvqhcg","pricing_plan_id":"cebpf4jnsgd1na2vs0mg"},{"bike_id":"ef3c8e90-f545-4a99-b175-20b1d23b45b8","system_id":"levelo_inurba_marseille","lat":43.319935,"lon":5.381699,"is_reserved":false,"is_disabled":false,"rental_uris":{"android":"levelo://app?vid=ef3c8e90-f545-4a99-b175-20b1d23b45b8","ios":"levelo://app?vid=ef3c8e90-f545-4a99-b175-20b1d23b45b8"},"vehicle_type_id":"4","last_reported":1712163965,"current_range_meters":5600,"station_id":"ce4bhr12rcd13ifvqhpg","pricing_plan_id":"cebpf4jnsgd1na2vs0mg"},{"bike_id":"cd58e203-ebdc-483f-be44-3dd755378352","system_id":"levelo_inurba_marseille","lat":43.314811,"lon":5.373103,"is_reserved":false,"is_disabled":false,"rental_uris":{"android":"levelo://app?vid=cd58e203-ebdc-483f-be44-3dd755378352","ios":"levelo://app?vid=cd58e203-ebdc-483f-be44-3dd755378352"},"vehicle_type_id":"4","last_reported":1712163965,"current_range_meters":0,"station_id":"ce4bgt12rcd13ifvqcd0","pricing_plan_id":"cebpf4jnsgd1na2vs0mg"},{"bike_id":"494d3408-8d40-4414-b824-d04592cc143e","system_id":"levelo_inurba_marseille","lat":43.31506,"lon":5.37306,"is_reserved":false,"is_disabled":false,"rental_uris":{"android":"levelo://app?vid=494d3408-8d40-4414-b824-d04592cc143e","ios":"levelo://app?vid=494d3408-8d40-4414-b824-d04592cc143e"},"vehicle_type_id":"4","last_reported":1712163965,"current_range_meters":0,"station_id":"ce4bgt12rcd13ifvqcd0","pricing_plan_id":"cebpf4jnsgd1na2vs0mg"},{"bike_id":"ebaa3de5-9a03-4b12-aaf8-156898291d88","system_id":"levelo_inurba_marseille","lat":43.298681,"lon":5.397225,"is_reserved":false,"is_disabled":false,"rental_uris":{"android":"levelo://app?vid=ebaa3de5-9a03-4b12-aaf8-156898291d88","ios":"levelo://app?vid=ebaa3de5-9a03-4b12-aaf8-156898291d88"},"vehicle_type_id":"4","last_reported":1712163965,"current_range_meters":0,"station_id":"ce4bh0h2rcd13ifvqd50","pricing_plan_id":"cebpf4jnsgd1na2vs0mg"},{"bike_id":"131e5753-8e30-43c8-80e0-366b1b2aaa28","system_id":"levelo_inurba_marseille","lat":43.30898,"lon":5.37444,"is_reserved":false,"is_disabled":false,"rental_uris":{"android":"levelo://app?vid=131e5753-8e30-43c8-80e0-366b1b2aaa28","ios":"levelo://app?vid=131e5753-8e30-43c8-80e0-366b1b2aaa28"},"vehicle_type_id":"4","last_reported":1712163965,"current_range_meters":26400,"station_id":"","pricing_plan_id":"cebpf4jnsgd1na2vs0mg"},{"bike_id":"6703e7f7-4000-4a84-961b-4cd1dc3f7564","system_id":"levelo_inurba_marseille","lat":43.305459,"lon":5.366949,"is_reserved":false,"is_disabled":false,"rental_uris":{"android":"levelo://app?vid=6703e7f7-4000-4a84-961b-4cd1dc3f7564","ios":"levelo://app?vid=6703e7f7-4000-4a84-961b-4cd1dc3f7564"},"vehicle_type_id":"4","last_reported":1712163965,"current_range_meters":31200,"station_id":"ce4bgrp2rcd13ifvqc9g","pricing_plan_id":"cebpf4jnsgd1na2vs0mg"},{"bike_id":"2a8cbc3b-48d9-4b86-a91c-bc0625427c10","system_id":"levelo_inurba_marseille","lat":43.305714,"lon":5.365633,"is_reserved":false,"is_disabled":false,"rental_uris":{"android":"levelo://app?vid=2a8cbc3b-48d9-4b86-a91c-bc0625427c10","ios":"levelo://app?vid=2a8cbc3b-48d9-4b86-a91c-bc0625427c10"},"vehicle_type_id":"4","last_reported":1712163965,"current_range_meters":2800,"station_id":"ce4bgs12rcd13ifvqcag","pricing_plan_id":"cebpf4jnsgd1na2vs0mg"},{"bike_id":"8d1f1cb3-19a5-437e-b8f7-b7a9ae126080","system_id":"levelo_inurba_marseille","lat":43.298433,"lon":5.362774,"is_reserved":false,"is_disabled":false,"rental_uris":{"android":"levelo://app?vid=8d1f1cb3-19a5-437e-b8f7-b7a9ae126080","ios":"levelo://app?vid=8d1f1cb3-19a5-437e-b8f7-b7a9ae126080"},"vehicle_type_id":"4","last_reported":1712163965,"current_range_meters":9200,"station_id":"ce4bgpp2rcd13ifvqc3g","pricing_plan_id":"cebpf4jnsgd1na2vs0mg"},{"bike_id":"784c7f0b-43ee-4aec-9995-e45cddbb993a","system_id":"levelo_inurba_marseille","lat":43.305989,"lon":5.37225,"is_reserved":false,"is_disabled":false,"rental_uris":{"android":"levelo://app?vid=784c7f0b-43ee-4aec-9995-e45cddbb993a","ios":"levelo://app?vid=784c7f0b-43ee-4aec-9995-e45cddbb993a"},"vehicle_type_id":"4","last_reported":1712163965,"current_range_meters":0,"station_id":"ce4bgqh2rcd13ifvqc4g","pricing_plan_id":"cebpf4jnsgd1na2vs0mg"},{"bike_id":"9229cedc-f0e0-49be-9237-597077914d7b","system_id":"levelo_inurba_marseille","lat":43.31736,"lon":5.3764,"is_reserved":false,"is_disabled":false,"rental_uris":{"android":"levelo://app?vid=9229cedc-f0e0-49be-9237-597077914d7b","ios":"levelo://app?vid=9229cedc-f0e0-49be-9237-597077914d7b"},"vehicle_type_id":"4","last_reported":1712163965,"current_range_meters":9200,"station_id":"","pricing_plan_id":"cebpf4jnsgd1na2vs0mg"},{"bike_id":"77894729-fd0e-41df-a610-f23c8d707e57","system_id":"levelo_inurba_marseille","lat":43.307945,"lon":5.376487,"is_reserved":false,"is_disabled":false,"rental_uris":{"android":"levelo://app?vid=77894729-fd0e-41df-a610-f23c8d707e57","ios":"levelo://app?vid=77894729-fd0e-41df-a610-f23c8d707e57"},"vehicle_type_id":"4","last_reported":1712163965,"current_range_meters":28000,"station_id":"ce4bgv92rcd13ifvqcq0","pricing_plan_id":"cebpf4jnsgd1na2vs0mg"},{"bike_id":"5558b474-b4de-4410-9d62-248c6dcac371","system_id":"levelo_inurba_marseille","lat":43.307945,"lon":5.376487,"is_reserved":false,"is_disabled":false,"rental_uris":{"android":"levelo://app?vid=5558b474-b4de-4410-9d62-248c6dcac371","ios":"levelo://app?vid=5558b474-b4de-4410-9d62-248c6dcac371"},"vehicle_type_id":"4","last_reported":1712163965,"current_range_meters":19200,"station_id":"ce4bgv92rcd13ifvqcq0","pricing_plan_id":"cebpf4jnsgd1na2vs0mg"},{"bike_id":"ded79122-69bd-42c2-98c1-e752dd21c980","system_id":"levelo_inurba_marseille","lat":43.307945,"lon":5.376487,"is_reserved":false,"is_disabled":false,"rental_uris":{"android":"levelo://app?vid=ded79122-69bd-42c2-98c1-e752dd21c980","ios":"levelo://app?vid=ded79122-69bd-42c2-98c1-e752dd21c980"},"vehicle_type_id":"4","last_reported":1712163965,"current_range_meters":3600,"station_id":"ce4bgv92rcd13ifvqcq0","pricing_plan_id":"cebpf4jnsgd1na2vs0mg"},{"bike_id":"bbfed310-f5ca-41c8-bf3a-f83cd6959697","system_id":"levelo_inurba_marseille","lat":43.313254,"lon":5.37881,"is_reserved":false,"is_disabled":false,"rental_uris":{"android":"levelo://app?vid=bbfed310-f5ca-41c8-bf3a-f83cd6959697","ios":"levelo://app?vid=bbfed310-f5ca-41c8-bf3a-f83cd6959697"},"vehicle_type_id":"4","last_reported":1712163965,"current_range_meters":12000,"station_id":"","pricing_plan_id":"cebpf4jnsgd1na2vs0mg"},{"bike_id":"967b1596-263b-4a71-bae0-8fede07be14d","system_id":"levelo_inurba_marseille","lat":43.317075,"lon":5.377367,"is_reserved":false,"is_disabled":false,"rental_uris":{"android":"levelo://app?vid=967b1596-263b-4a71-bae0-8fede07be14d","ios":"levelo://app?vid=967b1596-263b-4a71-bae0-8fede07be14d"},"vehicle_type_id":"4","last_reported":1712163965,"current_range_meters":2800,"station_id":"ce4bgth2rcd13ifvqch0","pricing_plan_id":"cebpf4jnsgd1na2vs0mg"},{"bike_id":"2bcc38b2-4941-4b1b-8538-cafb230e0a52","system_id":"levelo_inurba_marseille","lat":43.317075,"lon":5.377367,"is_reserved":false,"is_disabled":false,"rental_uris":{"android":"levelo://app?vid=2bcc38b2-4941-4b1b-8538-cafb230e0a52","ios":"levelo://app?vid=2bcc38b2-4941-4b1b-8538-cafb230e0a52"},"vehicle_type_id":"4","last_reported":1712163965,"current_range_meters":21200,"station_id":"ce4bgth2rcd13ifvqch0","pricing_plan_id":"cebpf4jnsgd1na2vs0mg"},{"bike_id":"4577ae11-021e-4746-95f6-9070c70efa98","system_id":"levelo_inurba_marseille","lat":43.317075,"lon":5.377367,"is_reserved":false,"is_disabled":false,"rental_uris":{"android":"levelo://app?vid=4577ae11-021e-4746-95f6-9070c70efa98","ios":"levelo://app?vid=4577ae11-021e-4746-95f6-9070c70efa98"},"vehicle_type_id":"4","last_reported":1712163965,"current_range_meters":9200,"station_id":"ce4bgth2rcd13ifvqch0","pricing_plan_id":"cebpf4jnsgd1na2vs0mg"},{"bike_id":"052497a7-2b52-4fe9-bc2f-746cc935ba04","system_id":"levelo_inurba_marseille","lat":43.317075,"lon":5.377367,"is_reserved":false,"is_disabled":false,"rental_uris":{"android":"levelo://app?vid=052497a7-2b52-4fe9-bc2f-746cc935ba04","ios":"levelo://app?vid=052497a7-2b52-4fe9-bc2f-746cc935ba04"},"vehicle_type_id":"4","last_reported":1712163965,"current_range_meters":2800,"station_id":"ce4bgth2rcd13ifvqch0","pricing_plan_id":"cebpf4jnsgd1na2vs0mg"},{"bike_id":"9746db13-e53c-4244-9e1e-75dbc4335eb6","system_id":"levelo_inurba_marseille","lat":43.317075,"lon":5.377367,"is_reserved":false,"is_disabled":false,"rental_uris":{"android":"levelo://app?vid=9746db13-e53c-4244-9e1e-75dbc4335eb6","ios":"levelo://app?vid=9746db13-e53c-4244-9e1e-75dbc4335eb6"},"vehicle_type_id":"4","last_reported":1712163965,"current_range_meters":3600,"station_id":"ce4bgth2rcd13ifvqch0","pricing_plan_id":"cebpf4jnsgd1na2vs0mg"},{"bike_id":"f003aa38-34e1-4934-9538-11c58faa2954","system_id":"levelo_inurba_marseille","lat":43.317075,"lon":5.377367,"is_reserved":false,"is_disabled":false,"rental_uris":{"android":"levelo://app?vid=f003aa38-34e1-4934-9538-11c58faa2954","ios":"levelo://app?vid=f003aa38-34e1-4934-9538-11c58faa2954"},"vehicle_type_id":"4","last_reported":1712163965,"current_range_meters":22800,"station_id":"ce4bgth2rcd13ifvqch0","pricing_plan_id":"cebpf4jnsgd1na2vs0mg"},{"bike_id":"5e72890e-031e-4686-866c-b249c65d2ba7","system_id":"levelo_inurba_marseille","lat":43.317075,"lon":5.377367,"is_reserved":false,"is_disabled":false,"rental_uris":{"android":"levelo://app?vid=5e72890e-031e-4686-866c-b249c65d2ba7","ios":"levelo://app?vid=5e72890e-031e-4686-866c-b249c65d2ba7"},"vehicle_type_id":"4","last_reported":1712163965,"current_range_meters":9200,"station_id":"ce4bgth2rcd13ifvqch0","pricing_plan_id":"cebpf4jnsgd1na2vs0mg"},{"bike_id":"54442281-bf6b-483d-9167-5a099234b6c5","system_id":"levelo_inurba_marseille","lat":43.317075,"lon":5.377367,"is_reserved":false,"is_disabled":false,"rental_uris":{"android":"levelo://app?vid=54442281-bf6b-483d-9167-5a099234b6c5","ios":"levelo://app?vid=54442281-bf6b-483d-9167-5a099234b6c5"},"vehicle_type_id":"4","last_reported":1712163965,"current_range_meters":800,"station_id":"ce4bgth2rcd13ifvqch0","pricing_plan_id":"cebpf4jnsgd1na2vs0mg"},{"bike_id":"9503d1a4-8d10-4c47-ac53-b6ca34dba0c7","system_id":"levelo_inurba_marseille","lat":43.303046,"lon":5.368981,"is_reserved":false,"is_disabled":false,"rental_uris":{"android":"levelo://app?vid=9503d1a4-8d10-4c47-ac53-b6ca34dba0c7","ios":"levelo://app?vid=9503d1a4-8d10-4c47-ac53-b6ca34dba0c7"},"vehicle_type_id":"4","last_reported":1712163965,"current_range_meters":2400,"station_id":"ce4bgqh2rcd13ifvqc5g","pricing_plan_id":"cebpf4jnsgd1na2vs0mg"},{"bike_id":"0294f2dc-0731-417f-b8b4-b15aefcfe31a","system_id":"levelo_inurba_marseille","lat":43.30301,"lon":5.36871,"is_reserved":false,"is_disabled":false,"rental_uris":{"android":"levelo://app?vid=0294f2dc-0731-417f-b8b4-b15aefcfe31a","ios":"levelo://app?vid=0294f2dc-0731-417f-b8b4-b15aefcfe31a"},"vehicle_type_id":"4","last_reported":1712163965,"current_range_meters":0,"station_id":"ce4bgi12rcd13ifvqb70","pricing_plan_id":"cebpf4jnsgd1na2vs0mg"},{"bike_id":"66ca0955-5336-4301-9a43-c48db52eb0c3","system_id":"levelo_inurba_marseille","lat":43.303046,"lon":5.368981,"is_reserved":false,"is_disabled":false,"rental_uris":{"android":"levelo://app?vid=66ca0955-5336-4301-9a43-c48db52eb0c3","ios":"levelo://app?vid=66ca0955-5336-4301-9a43-c48db52eb0c3"},"vehicle_type_id":"4","last_reported":1712163965,"current_range_meters":28400,"station_id":"ce4bgqh2rcd13ifvqc5g","pricing_plan_id":"cebpf4jnsgd1na2vs0mg"},{"bike_id":"9eb2c359-cf04-4b29-a6ab-7108c4580c82","system_id":"levelo_inurba_marseille","lat":43.315289,"lon":5.380349,"is_reserved":false,"is_disabled":false,"rental_uris":{"android":"levelo://app?vid=9eb2c359-cf04-4b29-a6ab-7108c4580c82","ios":"levelo://app?vid=9eb2c359-cf04-4b29-a6ab-7108c4580c82"},"vehicle_type_id":"4","last_reported":1712163965,"current_range_meters":18000,"station_id":"ce4bhsp2rcd13ifvqi50","pricing_plan_id":"cebpf4jnsgd1na2vs0mg"},{"bike_id":"34024670-66dc-4a76-9bdc-69b777e109c5","system_id":"levelo_inurba_marseille","lat":43.315293,"lon":5.380349,"is_reserved":false,"is_disabled":false,"rental_uris":{"android":"levelo://app?vid=34024670-66dc-4a76-9bdc-69b777e109c5","ios":"levelo://app?vid=34024670-66dc-4a76-9bdc-69b777e109c5"},"vehicle_type_id":"4","last_reported":1712163965,"current_range_meters":20800,"station_id":"ce4bhsp2rcd13ifvqi50","pricing_plan_id":"cebpf4jnsgd1na2vs0mg"},{"bike_id":"9466e6aa-551a-4433-9b10-7f256bc23a4e","system_id":"levelo_inurba_marseille","lat":43.315293,"lon":5.380349,"is_reserved":false,"is_disabled":false,"rental_uris":{"android":"levelo://app?vid=9466e6aa-551a-4433-9b10-7f256bc23a4e","ios":"levelo://app?vid=9466e6aa-551a-4433-9b10-7f256bc23a4e"},"vehicle_type_id":"4","last_reported":1712163965,"current_range_meters":21600,"station_id":"ce4bhsp2rcd13ifvqi50","pricing_plan_id":"cebpf4jnsgd1na2vs0mg"},{"bike_id":"d2594c3b-cc04-4555-90b3-5163dd4aebcc","system_id":"levelo_inurba_marseille","lat":43.315293,"lon":5.380349,"is_reserved":false,"is_disabled":false,"rental_uris":{"android":"levelo://app?vid=d2594c3b-cc04-4555-90b3-5163dd4aebcc","ios":"levelo://app?vid=d2594c3b-cc04-4555-90b3-5163dd4aebcc"},"vehicle_type_id":"4","last_reported":1712163965,"current_range_meters":17600,"station_id":"ce4bhsp2rcd13ifvqi50","pricing_plan_id":"cebpf4jnsgd1na2vs0mg"},{"bike_id":"1179b424-e642-4cc9-8eef-6573e93ba9dd","system_id":"levelo_inurba_marseille","lat":43.302957,"lon":5.372327,"is_reserved":false,"is_disabled":false,"rental_uris":{"android":"levelo://app?vid=1179b424-e642-4cc9-8eef-6573e93ba9dd","ios":"levelo://app?vid=1179b424-e642-4cc9-8eef-6573e93ba9dd"},"vehicle_type_id":"4","last_reported":1712163965,"current_range_meters":7200,"station_id":"","pricing_plan_id":"cebpf4jnsgd1na2vs0mg"},{"bike_id":"ddb83b84-cefc-4d99-b043-6f46b491a47f","system_id":"levelo_inurba_marseille","lat":43.301939,"lon":5.366286,"is_reserved":false,"is_disabled":false,"rental_uris":{"android":"levelo://app?vid=ddb83b84-cefc-4d99-b043-6f46b491a47f","ios":"levelo://app?vid=ddb83b84-cefc-4d99-b043-6f46b491a47f"},"vehicle_type_id":"4","last_reported":1712163965,"current_range_meters":400,"station_id":"ce4bgrh2rcd13ifvqc8g","pricing_plan_id":"cebpf4jnsgd1na2vs0mg"},{"bike_id":"41bdd03e-99de-4422-8681-044b2cf54578","system_id":"levelo_inurba_marseille","lat":43.301939,"lon":5.366286,"is_reserved":false,"is_disabled":false,"rental_uris":{"android":"levelo://app?vid=41bdd03e-99de-4422-8681-044b2cf54578","ios":"levelo://app?vid=41bdd03e-99de-4422-8681-044b2cf54578"},"vehicle_type_id":"4","last_reported":1712163965,"current_range_meters":0,"station_id":"ce4bgrh2rcd13ifvqc8g","pricing_plan_id":"cebpf4jnsgd1na2vs0mg"},{"bike_id":"e116aca6-5a92-4d0a-ae29-d026405c858d","system_id":"levelo_inurba_marseille","lat":43.301939,"lon":5.366286,"is_reserved":false,"is_disabled":false,"rental_uris":{"android":"levelo://app?vid=e116aca6-5a92-4d0a-ae29-d026405c858d","ios":"levelo://app?vid=e116aca6-5a92-4d0a-ae29-d026405c858d"},"vehicle_type_id":"4","last_reported":1712163965,"current_range_meters":2800,"station_id":"ce4bgrh2rcd13ifvqc8g","pricing_plan_id":"cebpf4jnsgd1na2vs0mg"},{"bike_id":"20d163d7-5001-499a-85a4-9a70d67a1e7c","system_id":"levelo_inurba_marseille","lat":43.308012,"lon":5.381511,"is_reserved":false,"is_disabled":false,"rental_uris":{"android":"levelo://app?vid=20d163d7-5001-499a-85a4-9a70d67a1e7c","ios":"levelo://app?vid=20d163d7-5001-499a-85a4-9a70d67a1e7c"},"vehicle_type_id":"4","last_reported":1712163965,"current_range_meters":11600,"station_id":"ce4bgt12rcd13ifvqce0","pricing_plan_id":"cebpf4jnsgd1na2vs0mg"},{"bike_id":"9df7e85d-1dc6-4132-ae86-a14fb4740b36","system_id":"levelo_inurba_marseille","lat":43.308012,"lon":5.381511,"is_reserved":false,"is_disabled":false,"rental_uris":{"android":"levelo://app?vid=9df7e85d-1dc6-4132-ae86-a14fb4740b36","ios":"levelo://app?vid=9df7e85d-1dc6-4132-ae86-a14fb4740b36"},"vehicle_type_id":"4","last_reported":1712163965,"current_range_meters":8800,"station_id":"ce4bgt12rcd13ifvqce0","pricing_plan_id":"cebpf4jnsgd1na2vs0mg"},{"bike_id":"8379505a-b10f-401a-beb1-5671c297c8a4","system_id":"levelo_inurba_marseille","lat":43.324771,"lon":5.36557,"is_reserved":false,"is_disabled":false,"rental_uris":{"android":"levelo://app?vid=8379505a-b10f-401a-beb1-5671c297c8a4","ios":"levelo://app?vid=8379505a-b10f-401a-beb1-5671c297c8a4"},"vehicle_type_id":"4","last_reported":1712163965,"current_range_meters":17200,"station_id":"ce4bhs12rcd13ifvqhvg","pricing_plan_id":"cebpf4jnsgd1na2vs0mg"},{"bike_id":"c7c2b0bc-13d4-4539-9ad9-c4c0342f7b84","system_id":"levelo_inurba_marseille","lat":43.324771,"lon":5.36557,"is_reserved":false,"is_disabled":false,"rental_uris":{"android":"levelo://app?vid=c7c2b0bc-13d4-4539-9ad9-c4c0342f7b84","ios":"levelo://app?vid=c7c2b0bc-13d4-4539-9ad9-c4c0342f7b84"},"vehicle_type_id":"4","last_reported":1712163965,"current_range_meters":8800,"station_id":"ce4bhs12rcd13ifvqhvg","pricing_plan_id":"cebpf4jnsgd1na2vs0mg"},{"bike_id":"401bc7b5-9ce9-443b-a290-c2f943b6888e","system_id":"levelo_inurba_marseille","lat":43.324771,"lon":5.36557,"is_reserved":false,"is_disabled":false,"rental_uris":{"android":"levelo://app?vid=401bc7b5-9ce9-443b-a290-c2f943b6888e","ios":"levelo://app?vid=401bc7b5-9ce9-443b-a290-c2f943b6888e"},"vehicle_type_id":"4","last_reported":1712163965,"current_range_meters":16400,"station_id":"ce4bhs12rcd13ifvqhvg","pricing_plan_id":"cebpf4jnsgd1na2vs0mg"},{"bike_id":"eb6b09c8-6428-45b7-9cbe-b857eee8a101","system_id":"levelo_inurba_marseille","lat":43.324771,"lon":5.36557,"is_reserved":false,"is_disabled":false,"rental_uris":{"android":"levelo://app?vid=eb6b09c8-6428-45b7-9cbe-b857eee8a101","ios":"levelo://app?vid=eb6b09c8-6428-45b7-9cbe-b857eee8a101"},"vehicle_type_id":"4","last_reported":1712163965,"current_range_meters":4800,"station_id":"ce4bhs12rcd13ifvqhvg","pricing_plan_id":"cebpf4jnsgd1na2vs0mg"},{"bike_id":"e70ebec3-3ac1-4be2-817f-f59fd1ce73ef","system_id":"levelo_inurba_marseille","lat":43.324771,"lon":5.36557,"is_reserved":false,"is_disabled":false,"rental_uris":{"android":"levelo://app?vid=e70ebec3-3ac1-4be2-817f-f59fd1ce73ef","ios":"levelo://app?vid=e70ebec3-3ac1-4be2-817f-f59fd1ce73ef"},"vehicle_type_id":"4","last_reported":1712163965,"current_range_meters":23200,"station_id":"ce4bhs12rcd13ifvqhvg","pricing_plan_id":"cebpf4jnsgd1na2vs0mg"},{"bike_id":"408b6fa9-a17a-4b72-bd8a-a9829cdeac9b","system_id":"levelo_inurba_marseille","lat":43.310804,"lon":5.38359,"is_reserved":false,"is_disabled":false,"rental_uris":{"android":"levelo://app?vid=408b6fa9-a17a-4b72-bd8a-a9829cdeac9b","ios":"levelo://app?vid=408b6fa9-a17a-4b72-bd8a-a9829cdeac9b"},"vehicle_type_id":"4","last_reported":1712163965,"current_range_meters":13600,"station_id":"ce4bgv92rcd13ifvqcr0","pricing_plan_id":"cebpf4jnsgd1na2vs0mg"},{"bike_id":"dc5fb5e0-7256-4c58-8fa0-f473ab974c8b","system_id":"levelo_inurba_marseille","lat":43.3107,"lon":5.383632,"is_reserved":false,"is_disabled":false,"rental_uris":{"android":"levelo://app?vid=dc5fb5e0-7256-4c58-8fa0-f473ab974c8b","ios":"levelo://app?vid=dc5fb5e0-7256-4c58-8fa0-f473ab974c8b"},"vehicle_type_id":"4","last_reported":1712163965,"current_range_meters":0,"station_id":"ce4bh2h2rcd13ifvqdh0","pricing_plan_id":"cebpf4jnsgd1na2vs0mg"},{"bike_id":"580f5019-6039-4b53-8383-3e329a385fb5","system_id":"levelo_inurba_marseille","lat":43.290104,"lon":5.356111,"is_reserved":false,"is_disabled":false,"rental_uris":{"android":"levelo://app?vid=580f5019-6039-4b53-8383-3e329a385fb5","ios":"levelo://app?vid=580f5019-6039-4b53-8383-3e329a385fb5"},"vehicle_type_id":"4","last_reported":1712163965,"current_range_meters":1200,"station_id":"ce4bhb92rcd13ifvqen0","pricing_plan_id":"cebpf4jnsgd1na2vs0mg"},{"bike_id":"4645b5c6-6f66-463a-8e2d-edc4235f9355","system_id":"levelo_inurba_marseille","lat":43.312609,"lon":5.401662,"is_reserved":false,"is_disabled":false,"rental_uris":{"android":"levelo://app?vid=4645b5c6-6f66-463a-8e2d-edc4235f9355","ios":"levelo://app?vid=4645b5c6-6f66-463a-8e2d-edc4235f9355"},"vehicle_type_id":"4","last_reported":1712163965,"current_range_meters":800,"station_id":"ce4bh092rcd13ifvqd30","pricing_plan_id":"cebpf4jnsgd1na2vs0mg"},{"bike_id":"b70b5053-6115-4fef-b8a6-dd5efe9a11be","system_id":"levelo_inurba_marseille","lat":43.30136,"lon":5.37411,"is_reserved":false,"is_disabled":false,"rental_uris":{"android":"levelo://app?vid=b70b5053-6115-4fef-b8a6-dd5efe9a11be","ios":"levelo://app?vid=b70b5053-6115-4fef-b8a6-dd5efe9a11be"},"vehicle_type_id":"4","last_reported":1712163965,"current_range_meters":0,"station_id":"ce4bgs92rcd13ifvqcc0","pricing_plan_id":"cebpf4jnsgd1na2vs0mg"},{"bike_id":"2e39f1fc-b85a-4875-ac59-f9394a845a98","system_id":"levelo_inurba_marseille","lat":43.319935,"lon":5.381699,"is_reserved":false,"is_disabled":false,"rental_uris":{"android":"levelo://app?vid=2e39f1fc-b85a-4875-ac59-f9394a845a98","ios":"levelo://app?vid=2e39f1fc-b85a-4875-ac59-f9394a845a98"},"vehicle_type_id":"4","last_reported":1712163965,"current_range_meters":8800,"station_id":"ce4bhr12rcd13ifvqhpg","pricing_plan_id":"cebpf4jnsgd1na2vs0mg"},{"bike_id":"90967822-0d01-4979-ab6f-bdd1bbae9452","system_id":"levelo_inurba_marseille","lat":43.319935,"lon":5.381699,"is_reserved":false,"is_disabled":false,"rental_uris":{"android":"levelo://app?vid=90967822-0d01-4979-ab6f-bdd1bbae9452","ios":"levelo://app?vid=90967822-0d01-4979-ab6f-bdd1bbae9452"},"vehicle_type_id":"4","last_reported":1712163965,"current_range_meters":29200,"station_id":"ce4bhr12rcd13ifvqhpg","pricing_plan_id":"cebpf4jnsgd1na2vs0mg"},{"bike_id":"42a0bf20-b24e-4f44-b085-c1bf12053021","system_id":"levelo_inurba_marseille","lat":43.319947,"lon":5.381609,"is_reserved":false,"is_disabled":false,"rental_uris":{"android":"levelo://app?vid=42a0bf20-b24e-4f44-b085-c1bf12053021","ios":"levelo://app?vid=42a0bf20-b24e-4f44-b085-c1bf12053021"},"vehicle_type_id":"4","last_reported":1712163965,"current_range_meters":13200,"station_id":"ce4bhr12rcd13ifvqhpg","pricing_plan_id":"cebpf4jnsgd1na2vs0mg"},{"bike_id":"5789774d-2d81-4bc4-a2c7-4bff61082549","system_id":"levelo_inurba_marseille","lat":43.313571,"lon":5.384829,"is_reserved":false,"is_disabled":false,"rental_uris":{"android":"levelo://app?vid=5789774d-2d81-4bc4-a2c7-4bff61082549","ios":"levelo://app?vid=5789774d-2d81-4bc4-a2c7-4bff61082549"},"vehicle_type_id":"4","last_reported":1712163965,"current_range_meters":20400,"station_id":"ce4bgt92rcd13ifvqcf0","pricing_plan_id":"cebpf4jnsgd1na2vs0mg"},{"bike_id":"6d955627-784b-4dd8-bc98-30b66326b3d0","system_id":"levelo_inurba_marseille","lat":43.313571,"lon":5.384829,"is_reserved":false,"is_disabled":false,"rental_uris":{"android":"levelo://app?vid=6d955627-784b-4dd8-bc98-30b66326b3d0","ios":"levelo://app?vid=6d955627-784b-4dd8-bc98-30b66326b3d0"},"vehicle_type_id":"4","last_reported":1712163965,"current_range_meters":4000,"station_id":"ce4bgt92rcd13ifvqcf0","pricing_plan_id":"cebpf4jnsgd1na2vs0mg"},{"bike_id":"89b047dc-a49d-43a8-a711-624e6ff66bbc","system_id":"levelo_inurba_marseille","lat":43.29979,"lon":5.37178,"is_reserved":false,"is_disabled":false,"rental_uris":{"android":"levelo://app?vid=89b047dc-a49d-43a8-a711-624e6ff66bbc","ios":"levelo://app?vid=89b047dc-a49d-43a8-a711-624e6ff66bbc"},"vehicle_type_id":"4","last_reported":1712163965,"current_range_meters":0,"station_id":"ce4bgr92rcd13ifvqc7g","pricing_plan_id":"cebpf4jnsgd1na2vs0mg"},{"bike_id":"b46a31af-6d15-480f-bb68-9ad901ff1f81","system_id":"levelo_inurba_marseille","lat":43.299724,"lon":5.371829,"is_reserved":false,"is_disabled":false,"rental_uris":{"android":"levelo://app?vid=b46a31af-6d15-480f-bb68-9ad901ff1f81","ios":"levelo://app?vid=b46a31af-6d15-480f-bb68-9ad901ff1f81"},"vehicle_type_id":"4","last_reported":1712163965,"current_range_meters":5200,"station_id":"ce4bgr92rcd13ifvqc7g","pricing_plan_id":"cebpf4jnsgd1na2vs0mg"},{"bike_id":"b087fa94-0635-4057-91c7-be957f61ab09","system_id":"levelo_inurba_marseille","lat":43.313035,"lon":5.38619,"is_reserved":false,"is_disabled":false,"rental_uris":{"android":"levelo://app?vid=b087fa94-0635-4057-91c7-be957f61ab09","ios":"levelo://app?vid=b087fa94-0635-4057-91c7-be957f61ab09"},"vehicle_type_id":"4","last_reported":1712163965,"current_range_meters":24000,"station_id":"ce4bgt92rcd13ifvqcf0","pricing_plan_id":"cebpf4jnsgd1na2vs0mg"},{"bike_id":"e89ad0d0-46d9-4e96-8f21-1d13905d1f32","system_id":"levelo_inurba_marseille","lat":43.30216,"lon":5.37995,"is_reserved":false,"is_disabled":false,"rental_uris":{"android":"levelo://app?vid=e89ad0d0-46d9-4e96-8f21-1d13905d1f32","ios":"levelo://app?vid=e89ad0d0-46d9-4e96-8f21-1d13905d1f32"},"vehicle_type_id":"4","last_reported":1712163965,"current_range_meters":5200,"station_id":"","pricing_plan_id":"cebpf4jnsgd1na2vs0mg"},{"bike_id":"2d265120-e746-40bd-b89a-a521787e26fd","system_id":"levelo_inurba_marseille","lat":43.305364,"lon":5.384119,"is_reserved":false,"is_disabled":false,"rental_uris":{"android":"levelo://app?vid=2d265120-e746-40bd-b89a-a521787e26fd","ios":"levelo://app?vid=2d265120-e746-40bd-b89a-a521787e26fd"},"vehicle_type_id":"4","last_reported":1712163965,"current_range_meters":10400,"station_id":"ce4bgg92rcd13ifvqb30","pricing_plan_id":"cebpf4jnsgd1na2vs0mg"},{"bike_id":"0fbc7e04-df36-46ca-b31d-5b060a588802","system_id":"levelo_inurba_marseille","lat":43.29852,"lon":5.36286,"is_reserved":false,"is_disabled":false,"rental_uris":{"android":"levelo://app?vid=0fbc7e04-df36-46ca-b31d-5b060a588802","ios":"levelo://app?vid=0fbc7e04-df36-46ca-b31d-5b060a588802"},"vehicle_type_id":"4","last_reported":1712163965,"current_range_meters":0,"station_id":"ce4bgpp2rcd13ifvqc3g","pricing_plan_id":"cebpf4jnsgd1na2vs0mg"},{"bike_id":"0a83f435-8722-4744-befc-b97b5eb75ad4","system_id":"levelo_inurba_marseille","lat":43.298433,"lon":5.362774,"is_reserved":false,"is_disabled":false,"rental_uris":{"android":"levelo://app?vid=0a83f435-8722-4744-befc-b97b5eb75ad4","ios":"levelo://app?vid=0a83f435-8722-4744-befc-b97b5eb75ad4"},"vehicle_type_id":"4","last_reported":1712163965,"current_range_meters":3600,"station_id":"ce4bgpp2rcd13ifvqc3g","pricing_plan_id":"cebpf4jnsgd1na2vs0mg"},{"bike_id":"ad10e065-9714-4048-a450-eaab487cd3db","system_id":"levelo_inurba_marseille","lat":43.304274,"lon":5.388873,"is_reserved":false,"is_disabled":false,"rental_uris":{"android":"levelo://app?vid=ad10e065-9714-4048-a450-eaab487cd3db","ios":"levelo://app?vid=ad10e065-9714-4048-a450-eaab487cd3db"},"vehicle_type_id":"4","last_reported":1712163965,"current_range_meters":5600,"station_id":"ce4bgk12rcd13ifvqbi0","pricing_plan_id":"cebpf4jnsgd1na2vs0mg"},{"bike_id":"c3df9a6e-f530-4be2-8594-cb70117be13d","system_id":"levelo_inurba_marseille","lat":43.292749,"lon":5.368398,"is_reserved":false,"is_disabled":false,"rental_uris":{"android":"levelo://app?vid=c3df9a6e-f530-4be2-8594-cb70117be13d","ios":"levelo://app?vid=c3df9a6e-f530-4be2-8594-cb70117be13d"},"vehicle_type_id":"4","last_reported":1712163965,"current_range_meters":10000,"station_id":"ce4bhbp2rcd13ifvqesg","pricing_plan_id":"cebpf4jnsgd1na2vs0mg"},{"bike_id":"4325af60-831a-4376-b5c7-5aecdab2214e","system_id":"levelo_inurba_marseille","lat":43.299243,"lon":5.37481,"is_reserved":false,"is_disabled":false,"rental_uris":{"android":"levelo://app?vid=4325af60-831a-4376-b5c7-5aecdab2214e","ios":"levelo://app?vid=4325af60-831a-4376-b5c7-5aecdab2214e"},"vehicle_type_id":"4","last_reported":1712163965,"current_range_meters":3200,"station_id":"ce4bgjh2rcd13ifvqbg0","pricing_plan_id":"cebpf4jnsgd1na2vs0mg"},{"bike_id":"72cf49eb-85bd-432e-be61-6c62e7802ecf","system_id":"levelo_inurba_marseille","lat":43.299243,"lon":5.374807,"is_reserved":false,"is_disabled":false,"rental_uris":{"android":"levelo://app?vid=72cf49eb-85bd-432e-be61-6c62e7802ecf","ios":"levelo://app?vid=72cf49eb-85bd-432e-be61-6c62e7802ecf"},"vehicle_type_id":"4","last_reported":1712163965,"current_range_meters":28800,"station_id":"ce4bgjh2rcd13ifvqbg0","pricing_plan_id":"cebpf4jnsgd1na2vs0mg"},{"bike_id":"c9833981-e543-465d-9cd7-22bb47896a8a","system_id":"levelo_inurba_marseille","lat":43.311722,"lon":5.387247,"is_reserved":false,"is_disabled":false,"rental_uris":{"android":"levelo://app?vid=c9833981-e543-465d-9cd7-22bb47896a8a","ios":"levelo://app?vid=c9833981-e543-465d-9cd7-22bb47896a8a"},"vehicle_type_id":"4","last_reported":1712163965,"current_range_meters":0,"station_id":"ce4bgv12rcd13ifvqcp0","pricing_plan_id":"cebpf4jnsgd1na2vs0mg"},{"bike_id":"6fc6bf0e-a7e1-467a-8dae-569f133af102","system_id":"levelo_inurba_marseille","lat":43.311722,"lon":5.387247,"is_reserved":false,"is_disabled":false,"rental_uris":{"android":"levelo://app?vid=6fc6bf0e-a7e1-467a-8dae-569f133af102","ios":"levelo://app?vid=6fc6bf0e-a7e1-467a-8dae-569f133af102"},"vehicle_type_id":"4","last_reported":1712163965,"current_range_meters":6800,"station_id":"ce4bgv12rcd13ifvqcp0","pricing_plan_id":"cebpf4jnsgd1na2vs0mg"},{"bike_id":"7dad3a0a-7542-4521-ab16-2f46d61d4df4","system_id":"levelo_inurba_marseille","lat":43.322872,"lon":5.382756,"is_reserved":false,"is_disabled":false,"rental_uris":{"android":"levelo://app?vid=7dad3a0a-7542-4521-ab16-2f46d61d4df4","ios":"levelo://app?vid=7dad3a0a-7542-4521-ab16-2f46d61d4df4"},"vehicle_type_id":"4","last_reported":1712163965,"current_range_meters":10800,"station_id":"ce4bhr12rcd13ifvqhqg","pricing_plan_id":"cebpf4jnsgd1na2vs0mg"},{"bike_id":"26923e7a-1cda-4606-bad0-5144049af557","system_id":"levelo_inurba_marseille","lat":43.3229,"lon":5.38258,"is_reserved":false,"is_disabled":false,"rental_uris":{"android":"levelo://app?vid=26923e7a-1cda-4606-bad0-5144049af557","ios":"levelo://app?vid=26923e7a-1cda-4606-bad0-5144049af557"},"vehicle_type_id":"4","last_reported":1712163965,"current_range_meters":26800,"station_id":"ce4bhr12rcd13ifvqhqg","pricing_plan_id":"cebpf4jnsgd1na2vs0mg"},{"bike_id":"5ed1088d-e0ad-4614-a220-0449cb3d1e58","system_id":"levelo_inurba_marseille","lat":43.322872,"lon":5.382756,"is_reserved":false,"is_disabled":false,"rental_uris":{"android":"levelo://app?vid=5ed1088d-e0ad-4614-a220-0449cb3d1e58","ios":"levelo://app?vid=5ed1088d-e0ad-4614-a220-0449cb3d1e58"},"vehicle_type_id":"4","last_reported":1712163965,"current_range_meters":2800,"station_id":"ce4bhr12rcd13ifvqhqg","pricing_plan_id":"cebpf4jnsgd1na2vs0mg"},{"bike_id":"c29712cd-3098-4c57-a5df-b20f91b90d40","system_id":"levelo_inurba_marseille","lat":43.322872,"lon":5.382756,"is_reserved":false,"is_disabled":false,"rental_uris":{"android":"levelo://app?vid=c29712cd-3098-4c57-a5df-b20f91b90d40","ios":"levelo://app?vid=c29712cd-3098-4c57-a5df-b20f91b90d40"},"vehicle_type_id":"4","last_reported":1712163965,"current_range_meters":12800,"station_id":"ce4bhr12rcd13ifvqhqg","pricing_plan_id":"cebpf4jnsgd1na2vs0mg"},{"bike_id":"5df532e5-5c86-4a98-8bde-e41b6075a0fa","system_id":"levelo_inurba_marseille","lat":43.322872,"lon":5.382756,"is_reserved":false,"is_disabled":false,"rental_uris":{"android":"levelo://app?vid=5df532e5-5c86-4a98-8bde-e41b6075a0fa","ios":"levelo://app?vid=5df532e5-5c86-4a98-8bde-e41b6075a0fa"},"vehicle_type_id":"4","last_reported":1712163965,"current_range_meters":14800,"station_id":"ce4bhr12rcd13ifvqhqg","pricing_plan_id":"cebpf4jnsgd1na2vs0mg"},{"bike_id":"8c3dad49-2614-4d9b-bd1e-1d381af501e9","system_id":"levelo_inurba_marseille","lat":43.322872,"lon":5.382756,"is_reserved":false,"is_disabled":false,"rental_uris":{"android":"levelo://app?vid=8c3dad49-2614-4d9b-bd1e-1d381af501e9","ios":"levelo://app?vid=8c3dad49-2614-4d9b-bd1e-1d381af501e9"},"vehicle_type_id":"4","last_reported":1712163965,"current_range_meters":26400,"station_id":"ce4bhr12rcd13ifvqhqg","pricing_plan_id":"cebpf4jnsgd1na2vs0mg"},{"bike_id":"af91ee66-ebec-4e5f-b566-646a8b5863b7","system_id":"levelo_inurba_marseille","lat":43.322872,"lon":5.382756,"is_reserved":false,"is_disabled":false,"rental_uris":{"android":"levelo://app?vid=af91ee66-ebec-4e5f-b566-646a8b5863b7","ios":"levelo://app?vid=af91ee66-ebec-4e5f-b566-646a8b5863b7"},"vehicle_type_id":"4","last_reported":1712163965,"current_range_meters":11600,"station_id":"ce4bhr12rcd13ifvqhqg","pricing_plan_id":"cebpf4jnsgd1na2vs0mg"},{"bike_id":"353ac126-27b4-449b-8dd4-072aa441f091","system_id":"levelo_inurba_marseille","lat":43.322897,"lon":5.382715,"is_reserved":false,"is_disabled":false,"rental_uris":{"android":"levelo://app?vid=353ac126-27b4-449b-8dd4-072aa441f091","ios":"levelo://app?vid=353ac126-27b4-449b-8dd4-072aa441f091"},"vehicle_type_id":"4","last_reported":1712163965,"current_range_meters":2400,"station_id":"ce4bhr12rcd13ifvqhqg","pricing_plan_id":"cebpf4jnsgd1na2vs0mg"},{"bike_id":"6db4ba56-cdbd-44f6-826d-1abf96302385","system_id":"levelo_inurba_marseille","lat":43.322872,"lon":5.382756,"is_reserved":false,"is_disabled":false,"rental_uris":{"android":"levelo://app?vid=6db4ba56-cdbd-44f6-826d-1abf96302385","ios":"levelo://app?vid=6db4ba56-cdbd-44f6-826d-1abf96302385"},"vehicle_type_id":"4","last_reported":1712163965,"current_range_meters":31200,"station_id":"ce4bhr12rcd13ifvqhqg","pricing_plan_id":"cebpf4jnsgd1na2vs0mg"},{"bike_id":"e9ecb505-fc9c-4061-ad11-37d408084452","system_id":"levelo_inurba_marseille","lat":43.29873,"lon":5.37595,"is_reserved":false,"is_disabled":false,"rental_uris":{"android":"levelo://app?vid=e9ecb505-fc9c-4061-ad11-37d408084452","ios":"levelo://app?vid=e9ecb505-fc9c-4061-ad11-37d408084452"},"vehicle_type_id":"4","last_reported":1712163965,"current_range_meters":0,"station_id":"","pricing_plan_id":"cebpf4jnsgd1na2vs0mg"},{"bike_id":"531c6cb3-0de5-4084-a95a-d65d5be773b0","system_id":"levelo_inurba_marseille","lat":43.297163,"lon":5.365866,"is_reserved":false,"is_disabled":false,"rental_uris":{"android":"levelo://app?vid=531c6cb3-0de5-4084-a95a-d65d5be773b0","ios":"levelo://app?vid=531c6cb3-0de5-4084-a95a-d65d5be773b0"},"vehicle_type_id":"4","last_reported":1712163965,"current_range_meters":8000,"station_id":"ce4bgn12rcd13ifvqbt0","pricing_plan_id":"cebpf4jnsgd1na2vs0mg"},{"bike_id":"bbc25636-82ad-4a92-8f53-a5e79ee7650b","system_id":"levelo_inurba_marseille","lat":43.3279,"lon":5.36158,"is_reserved":false,"is_disabled":false,"rental_uris":{"android":"levelo://app?vid=bbc25636-82ad-4a92-8f53-a5e79ee7650b","ios":"levelo://app?vid=bbc25636-82ad-4a92-8f53-a5e79ee7650b"},"vehicle_type_id":"4","last_reported":1712163965,"current_range_meters":20000,"station_id":"","pricing_plan_id":"cebpf4jnsgd1na2vs0mg"},{"bike_id":"cab9342a-47e2-4d4e-bddd-24f70efb4332","system_id":"levelo_inurba_marseille","lat":43.297163,"lon":5.365866,"is_reserved":false,"is_disabled":false,"rental_uris":{"android":"levelo://app?vid=cab9342a-47e2-4d4e-bddd-24f70efb4332","ios":"levelo://app?vid=cab9342a-47e2-4d4e-bddd-24f70efb4332"},"vehicle_type_id":"4","last_reported":1712163965,"current_range_meters":1600,"station_id":"ce4bgn12rcd13ifvqbt0","pricing_plan_id":"cebpf4jnsgd1na2vs0mg"},{"bike_id":"c46411bc-aa1e-4588-9da5-00dd76cc35a6","system_id":"levelo_inurba_marseille","lat":43.32916,"lon":5.367,"is_reserved":false,"is_disabled":false,"rental_uris":{"android":"levelo://app?vid=c46411bc-aa1e-4588-9da5-00dd76cc35a6","ios":"levelo://app?vid=c46411bc-aa1e-4588-9da5-00dd76cc35a6"},"vehicle_type_id":"4","last_reported":1712163965,"current_range_meters":0,"station_id":"","pricing_plan_id":"cebpf4jnsgd1na2vs0mg"},{"bike_id":"fb76a1a6-0f8d-4aa1-a933-8cabc626e59f","system_id":"levelo_inurba_marseille","lat":43.292644,"lon":5.384257,"is_reserved":false,"is_disabled":false,"rental_uris":{"android":"levelo://app?vid=fb76a1a6-0f8d-4aa1-a933-8cabc626e59f","ios":"levelo://app?vid=fb76a1a6-0f8d-4aa1-a933-8cabc626e59f"},"vehicle_type_id":"4","last_reported":1712163965,"current_range_meters":17600,"station_id":"ce4bh692rcd13ifvqea0","pricing_plan_id":"cebpf4jnsgd1na2vs0mg"},{"bike_id":"a5353f0a-953f-44bf-a546-92ff966c6c44","system_id":"levelo_inurba_marseille","lat":43.29573,"lon":5.367355,"is_reserved":false,"is_disabled":false,"rental_uris":{"android":"levelo://app?vid=a5353f0a-953f-44bf-a546-92ff966c6c44","ios":"levelo://app?vid=a5353f0a-953f-44bf-a546-92ff966c6c44"},"vehicle_type_id":"4","last_reported":1712163965,"current_range_meters":16000,"station_id":"ce4bgph2rcd13ifvqc2g","pricing_plan_id":"cebpf4jnsgd1na2vs0mg"},{"bike_id":"340b9729-6114-4549-9d6c-a057670b7ba2","system_id":"levelo_inurba_marseille","lat":43.296921,"lon":5.376579,"is_reserved":false,"is_disabled":false,"rental_uris":{"android":"levelo://app?vid=340b9729-6114-4549-9d6c-a057670b7ba2","ios":"levelo://app?vid=340b9729-6114-4549-9d6c-a057670b7ba2"},"vehicle_type_id":"4","last_reported":1712163965,"current_range_meters":0,"station_id":"ce4bgkh2rcd13ifvqbl0","pricing_plan_id":"cebpf4jnsgd1na2vs0mg"},{"bike_id":"382602c8-acf9-4297-89fc-3a2d2656de37","system_id":"levelo_inurba_marseille","lat":43.29563,"lon":5.36518,"is_reserved":false,"is_disabled":false,"rental_uris":{"android":"levelo://app?vid=382602c8-acf9-4297-89fc-3a2d2656de37","ios":"levelo://app?vid=382602c8-acf9-4297-89fc-3a2d2656de37"},"vehicle_type_id":"4","last_reported":1712163965,"current_range_meters":15200,"station_id":"","pricing_plan_id":"cebpf4jnsgd1na2vs0mg"},{"bike_id":"937b8a6d-fc2d-4cbc-88c8-01732e5a5a4f","system_id":"levelo_inurba_marseille","lat":43.296921,"lon":5.376579,"is_reserved":false,"is_disabled":false,"rental_uris":{"android":"levelo://app?vid=937b8a6d-fc2d-4cbc-88c8-01732e5a5a4f","ios":"levelo://app?vid=937b8a6d-fc2d-4cbc-88c8-01732e5a5a4f"},"vehicle_type_id":"4","last_reported":1712163965,"current_range_meters":0,"station_id":"ce4bgkh2rcd13ifvqbl0","pricing_plan_id":"cebpf4jnsgd1na2vs0mg"},{"bike_id":"e2f5e59c-9437-4456-b245-3eb109c5755d","system_id":"levelo_inurba_marseille","lat":43.296935,"lon":5.376544,"is_reserved":false,"is_disabled":false,"rental_uris":{"android":"levelo://app?vid=e2f5e59c-9437-4456-b245-3eb109c5755d","ios":"levelo://app?vid=e2f5e59c-9437-4456-b245-3eb109c5755d"},"vehicle_type_id":"4","last_reported":1712163965,"current_range_meters":17600,"station_id":"ce4bgkh2rcd13ifvqbl0","pricing_plan_id":"cebpf4jnsgd1na2vs0mg"},{"bike_id":"eea24c2a-ba1f-413f-84f4-c0a416a5b45d","system_id":"levelo_inurba_marseille","lat":43.296935,"lon":5.376544,"is_reserved":false,"is_disabled":false,"rental_uris":{"android":"levelo://app?vid=eea24c2a-ba1f-413f-84f4-c0a416a5b45d","ios":"levelo://app?vid=eea24c2a-ba1f-413f-84f4-c0a416a5b45d"},"vehicle_type_id":"4","last_reported":1712163965,"current_range_meters":800,"station_id":"ce4bgkh2rcd13ifvqbl0","pricing_plan_id":"cebpf4jnsgd1na2vs0mg"},{"bike_id":"4bc4ea82-5882-49c0-908e-dc463a5981a4","system_id":"levelo_inurba_marseille","lat":43.309574,"lon":5.390354,"is_reserved":false,"is_disabled":false,"rental_uris":{"android":"levelo://app?vid=4bc4ea82-5882-49c0-908e-dc463a5981a4","ios":"levelo://app?vid=4bc4ea82-5882-49c0-908e-dc463a5981a4"},"vehicle_type_id":"4","last_reported":1712163965,"current_range_meters":0,"station_id":"ce4bgup2rcd13ifvqco0","pricing_plan_id":"cebpf4jnsgd1na2vs0mg"},{"bike_id":"7c599bbb-e1e3-46f2-8293-3261a453d88a","system_id":"levelo_inurba_marseille","lat":43.317425,"lon":5.39007,"is_reserved":false,"is_disabled":false,"rental_uris":{"android":"levelo://app?vid=7c599bbb-e1e3-46f2-8293-3261a453d88a","ios":"levelo://app?vid=7c599bbb-e1e3-46f2-8293-3261a453d88a"},"vehicle_type_id":"4","last_reported":1712163965,"current_range_meters":1600,"station_id":"ce4bhqp2rcd13ifvqhng","pricing_plan_id":"cebpf4jnsgd1na2vs0mg"},{"bike_id":"e84a9939-0068-4b5b-9643-c23d94fda3ac","system_id":"levelo_inurba_marseille","lat":43.317557,"lon":5.390173,"is_reserved":false,"is_disabled":false,"rental_uris":{"android":"levelo://app?vid=e84a9939-0068-4b5b-9643-c23d94fda3ac","ios":"levelo://app?vid=e84a9939-0068-4b5b-9643-c23d94fda3ac"},"vehicle_type_id":"4","last_reported":1712163965,"current_range_meters":21600,"station_id":"ce4bhqp2rcd13ifvqhng","pricing_plan_id":"cebpf4jnsgd1na2vs0mg"},{"bike_id":"981ecbda-8223-4d3f-8a06-12785a976ebb","system_id":"levelo_inurba_marseille","lat":43.3176,"lon":5.39011,"is_reserved":false,"is_disabled":false,"rental_uris":{"android":"levelo://app?vid=981ecbda-8223-4d3f-8a06-12785a976ebb","ios":"levelo://app?vid=981ecbda-8223-4d3f-8a06-12785a976ebb"},"vehicle_type_id":"4","last_reported":1712163965,"current_range_meters":0,"station_id":"ce4bhqp2rcd13ifvqhng","pricing_plan_id":"cebpf4jnsgd1na2vs0mg"},{"bike_id":"311c5eec-aa43-4974-87bd-f8d13047b375","system_id":"levelo_inurba_marseille","lat":43.317566,"lon":5.390127,"is_reserved":false,"is_disabled":false,"rental_uris":{"android":"levelo://app?vid=311c5eec-aa43-4974-87bd-f8d13047b375","ios":"levelo://app?vid=311c5eec-aa43-4974-87bd-f8d13047b375"},"vehicle_type_id":"4","last_reported":1712163965,"current_range_meters":6400,"station_id":"ce4bhqp2rcd13ifvqhng","pricing_plan_id":"cebpf4jnsgd1na2vs0mg"},{"bike_id":"3228d70c-51fa-4d00-8009-806004829f4a","system_id":"levelo_inurba_marseille","lat":43.317557,"lon":5.390173,"is_reserved":false,"is_disabled":false,"rental_uris":{"android":"levelo://app?vid=3228d70c-51fa-4d00-8009-806004829f4a","ios":"levelo://app?vid=3228d70c-51fa-4d00-8009-806004829f4a"},"vehicle_type_id":"4","last_reported":1712163965,"current_range_meters":14000,"station_id":"ce4bhqp2rcd13ifvqhng","pricing_plan_id":"cebpf4jnsgd1na2vs0mg"},{"bike_id":"d7259eb1-daad-48fc-8a74-4078b2d81c45","system_id":"levelo_inurba_marseille","lat":43.317586,"lon":5.390175,"is_reserved":false,"is_disabled":false,"rental_uris":{"android":"levelo://app?vid=d7259eb1-daad-48fc-8a74-4078b2d81c45","ios":"levelo://app?vid=d7259eb1-daad-48fc-8a74-4078b2d81c45"},"vehicle_type_id":"4","last_reported":1712163965,"current_range_meters":27600,"station_id":"ce4bhqp2rcd13ifvqhng","pricing_plan_id":"cebpf4jnsgd1na2vs0mg"},{"bike_id":"e9c9d0ab-16e3-4a62-85f5-b95b95b81749","system_id":"levelo_inurba_marseille","lat":43.317557,"lon":5.390173,"is_reserved":false,"is_disabled":false,"rental_uris":{"android":"levelo://app?vid=e9c9d0ab-16e3-4a62-85f5-b95b95b81749","ios":"levelo://app?vid=e9c9d0ab-16e3-4a62-85f5-b95b95b81749"},"vehicle_type_id":"4","last_reported":1712163965,"current_range_meters":2800,"station_id":"ce4bhqp2rcd13ifvqhng","pricing_plan_id":"cebpf4jnsgd1na2vs0mg"},{"bike_id":"78de3b95-47e6-4ca8-90e4-8d755b7be4e8","system_id":"levelo_inurba_marseille","lat":43.317561,"lon":5.390245,"is_reserved":false,"is_disabled":false,"rental_uris":{"android":"levelo://app?vid=78de3b95-47e6-4ca8-90e4-8d755b7be4e8","ios":"levelo://app?vid=78de3b95-47e6-4ca8-90e4-8d755b7be4e8"},"vehicle_type_id":"4","last_reported":1712163965,"current_range_meters":27200,"station_id":"ce4bhqp2rcd13ifvqhng","pricing_plan_id":"cebpf4jnsgd1na2vs0mg"},{"bike_id":"65007f04-8707-4d7b-a2eb-97118f58ea02","system_id":"levelo_inurba_marseille","lat":43.31756,"lon":5.39026,"is_reserved":false,"is_disabled":false,"rental_uris":{"android":"levelo://app?vid=65007f04-8707-4d7b-a2eb-97118f58ea02","ios":"levelo://app?vid=65007f04-8707-4d7b-a2eb-97118f58ea02"},"vehicle_type_id":"4","last_reported":1712163965,"current_range_meters":800,"station_id":"ce4bhqp2rcd13ifvqhng","pricing_plan_id":"cebpf4jnsgd1na2vs0mg"},{"bike_id":"6774b486-b9e0-45cf-8ff1-929b4f15721d","system_id":"levelo_inurba_marseille","lat":43.30425,"lon":5.38832,"is_reserved":false,"is_disabled":false,"rental_uris":{"android":"levelo://app?vid=6774b486-b9e0-45cf-8ff1-929b4f15721d","ios":"levelo://app?vid=6774b486-b9e0-45cf-8ff1-929b4f15721d"},"vehicle_type_id":"4","last_reported":1712163965,"current_range_meters":7600,"station_id":"ce4bgk12rcd13ifvqbi0","pricing_plan_id":"cebpf4jnsgd1na2vs0mg"},{"bike_id":"fd65a646-4e24-4a93-b276-b9e6551096fd","system_id":"levelo_inurba_marseille","lat":43.29585,"lon":5.3751,"is_reserved":false,"is_disabled":false,"rental_uris":{"android":"levelo://app?vid=fd65a646-4e24-4a93-b276-b9e6551096fd","ios":"levelo://app?vid=fd65a646-4e24-4a93-b276-b9e6551096fd"},"vehicle_type_id":"4","last_reported":1712163965,"current_range_meters":0,"station_id":"ce4bgh92rcd13ifvqb50","pricing_plan_id":"cebpf4jnsgd1na2vs0mg"},{"bike_id":"bba5636d-5c3c-4a9f-b6e0-5ccd92e650d4","system_id":"levelo_inurba_marseille","lat":43.295748,"lon":5.37522,"is_reserved":false,"is_disabled":false,"rental_uris":{"android":"levelo://app?vid=bba5636d-5c3c-4a9f-b6e0-5ccd92e650d4","ios":"levelo://app?vid=bba5636d-5c3c-4a9f-b6e0-5ccd92e650d4"},"vehicle_type_id":"4","last_reported":1712163965,"current_range_meters":5200,"station_id":"ce4bgh92rcd13ifvqb50","pricing_plan_id":"cebpf4jnsgd1na2vs0mg"},{"bike_id":"4b9872d4-82b0-4778-ab79-4d5b5de882e9","system_id":"levelo_inurba_marseille","lat":43.29796,"lon":5.38083,"is_reserved":false,"is_disabled":false,"rental_uris":{"android":"levelo://app?vid=4b9872d4-82b0-4778-ab79-4d5b5de882e9","ios":"levelo://app?vid=4b9872d4-82b0-4778-ab79-4d5b5de882e9"},"vehicle_type_id":"4","last_reported":1712163965,"current_range_meters":14800,"station_id":"ce4bgip2rcd13ifvqbb0","pricing_plan_id":"cebpf4jnsgd1na2vs0mg"},{"bike_id":"d8c86f98-c02c-4f3d-9fea-60ace5e52dc1","system_id":"levelo_inurba_marseille","lat":43.29793,"lon":5.38088,"is_reserved":false,"is_disabled":false,"rental_uris":{"android":"levelo://app?vid=d8c86f98-c02c-4f3d-9fea-60ace5e52dc1","ios":"levelo://app?vid=d8c86f98-c02c-4f3d-9fea-60ace5e52dc1"},"vehicle_type_id":"4","last_reported":1712163965,"current_range_meters":400,"station_id":"ce4bgip2rcd13ifvqbb0","pricing_plan_id":"cebpf4jnsgd1na2vs0mg"},{"bike_id":"207baf0e-da67-4a91-8559-951c252522d0","system_id":"levelo_inurba_marseille","lat":43.29791,"lon":5.38084,"is_reserved":false,"is_disabled":false,"rental_uris":{"android":"levelo://app?vid=207baf0e-da67-4a91-8559-951c252522d0","ios":"levelo://app?vid=207baf0e-da67-4a91-8559-951c252522d0"},"vehicle_type_id":"4","last_reported":1712163965,"current_range_meters":26800,"station_id":"ce4bgip2rcd13ifvqbb0","pricing_plan_id":"cebpf4jnsgd1na2vs0mg"},{"bike_id":"a6197d1c-7047-4b32-bd63-b87c992165a7","system_id":"levelo_inurba_marseille","lat":43.297959,"lon":5.380945,"is_reserved":false,"is_disabled":false,"rental_uris":{"android":"levelo://app?vid=a6197d1c-7047-4b32-bd63-b87c992165a7","ios":"levelo://app?vid=a6197d1c-7047-4b32-bd63-b87c992165a7"},"vehicle_type_id":"4","last_reported":1712163965,"current_range_meters":0,"station_id":"ce4bgip2rcd13ifvqbb0","pricing_plan_id":"cebpf4jnsgd1na2vs0mg"},{"bike_id":"9a09de4c-6a5e-46fe-9747-03139b08a0fb","system_id":"levelo_inurba_marseille","lat":43.29545,"lon":5.37376,"is_reserved":false,"is_disabled":false,"rental_uris":{"android":"levelo://app?vid=9a09de4c-6a5e-46fe-9747-03139b08a0fb","ios":"levelo://app?vid=9a09de4c-6a5e-46fe-9747-03139b08a0fb"},"vehicle_type_id":"4","last_reported":1712163965,"current_range_meters":18800,"station_id":"","pricing_plan_id":"cebpf4jnsgd1na2vs0mg"},{"bike_id":"9e7f526a-1450-4987-920e-a5df8daad106","system_id":"levelo_inurba_marseille","lat":43.29789,"lon":5.38093,"is_reserved":false,"is_disabled":false,"rental_uris":{"android":"levelo://app?vid=9e7f526a-1450-4987-920e-a5df8daad106","ios":"levelo://app?vid=9e7f526a-1450-4987-920e-a5df8daad106"},"vehicle_type_id":"4","last_reported":1712163965,"current_range_meters":6800,"station_id":"ce4bgip2rcd13ifvqbb0","pricing_plan_id":"cebpf4jnsgd1na2vs0mg"},{"bike_id":"5f49fd80-4ee8-47e7-a77e-147d053cfdac","system_id":"levelo_inurba_marseille","lat":43.307945,"lon":5.376487,"is_reserved":false,"is_disabled":false,"rental_uris":{"android":"levelo://app?vid=5f49fd80-4ee8-47e7-a77e-147d053cfdac","ios":"levelo://app?vid=5f49fd80-4ee8-47e7-a77e-147d053cfdac"},"vehicle_type_id":"4","last_reported":1712163965,"current_range_meters":2400,"station_id":"ce4bgv92rcd13ifvqcq0","pricing_plan_id":"cebpf4jnsgd1na2vs0mg"},{"bike_id":"063d7971-47ef-4324-9e7e-afc9400fdb09","system_id":"levelo_inurba_marseille","lat":43.29568,"lon":5.37498,"is_reserved":false,"is_disabled":false,"rental_uris":{"android":"levelo://app?vid=063d7971-47ef-4324-9e7e-afc9400fdb09","ios":"levelo://app?vid=063d7971-47ef-4324-9e7e-afc9400fdb09"},"vehicle_type_id":"4","last_reported":1712163965,"current_range_meters":0,"station_id":"ce4bgh92rcd13ifvqb50","pricing_plan_id":"cebpf4jnsgd1na2vs0mg"},{"bike_id":"054522e2-a08a-4cd4-86e0-1f599df0ac7d","system_id":"levelo_inurba_marseille","lat":43.297838,"lon":5.380986,"is_reserved":false,"is_disabled":false,"rental_uris":{"android":"levelo://app?vid=054522e2-a08a-4cd4-86e0-1f599df0ac7d","ios":"levelo://app?vid=054522e2-a08a-4cd4-86e0-1f599df0ac7d"},"vehicle_type_id":"4","last_reported":1712163965,"current_range_meters":0,"station_id":"ce4bgip2rcd13ifvqbb0","pricing_plan_id":"cebpf4jnsgd1na2vs0mg"},{"bike_id":"04143135-8382-45d1-8d45-995a8364e1ac","system_id":"levelo_inurba_marseille","lat":43.284214,"lon":5.349706,"is_reserved":false,"is_disabled":false,"rental_uris":{"android":"levelo://app?vid=04143135-8382-45d1-8d45-995a8364e1ac","ios":"levelo://app?vid=04143135-8382-45d1-8d45-995a8364e1ac"},"vehicle_type_id":"4","last_reported":1712163965,"current_range_meters":5600,"station_id":"ce4bhbh2rcd13ifvqepg","pricing_plan_id":"cebpf4jnsgd1na2vs0mg"},{"bike_id":"d6c91bb0-6982-4d91-baec-a3db68c071ef","system_id":"levelo_inurba_marseille","lat":43.299724,"lon":5.384848,"is_reserved":false,"is_disabled":false,"rental_uris":{"android":"levelo://app?vid=d6c91bb0-6982-4d91-baec-a3db68c071ef","ios":"levelo://app?vid=d6c91bb0-6982-4d91-baec-a3db68c071ef"},"vehicle_type_id":"4","last_reported":1712163965,"current_range_meters":25600,"station_id":"ce4bgj92rcd13ifvqbd0","pricing_plan_id":"cebpf4jnsgd1na2vs0mg"},{"bike_id":"9b448ba0-d4e9-4d08-8f0a-b2caaf41ea04","system_id":"levelo_inurba_marseille","lat":43.2998,"lon":5.385046,"is_reserved":false,"is_disabled":false,"rental_uris":{"android":"levelo://app?vid=9b448ba0-d4e9-4d08-8f0a-b2caaf41ea04","ios":"levelo://app?vid=9b448ba0-d4e9-4d08-8f0a-b2caaf41ea04"},"vehicle_type_id":"4","last_reported":1712163965,"current_range_meters":2000,"station_id":"ce4bgj92rcd13ifvqbd0","pricing_plan_id":"cebpf4jnsgd1na2vs0mg"},{"bike_id":"6ced93fa-b94b-4576-9fbb-c1c1d98c22b5","system_id":"levelo_inurba_marseille","lat":43.29969,"lon":5.38493,"is_reserved":false,"is_disabled":false,"rental_uris":{"android":"levelo://app?vid=6ced93fa-b94b-4576-9fbb-c1c1d98c22b5","ios":"levelo://app?vid=6ced93fa-b94b-4576-9fbb-c1c1d98c22b5"},"vehicle_type_id":"4","last_reported":1712163965,"current_range_meters":14000,"station_id":"ce4bhap2rcd13ifvqek0","pricing_plan_id":"cebpf4jnsgd1na2vs0mg"},{"bike_id":"83661f6f-debd-430d-817c-68a37828a3fa","system_id":"levelo_inurba_marseille","lat":43.299669,"lon":5.384925,"is_reserved":false,"is_disabled":false,"rental_uris":{"android":"levelo://app?vid=83661f6f-debd-430d-817c-68a37828a3fa","ios":"levelo://app?vid=83661f6f-debd-430d-817c-68a37828a3fa"},"vehicle_type_id":"4","last_reported":1712163965,"current_range_meters":24000,"station_id":"ce4bgj92rcd13ifvqbd0","pricing_plan_id":"cebpf4jnsgd1na2vs0mg"},{"bike_id":"fd535c3a-14ca-4cd6-a170-d68da32008a7","system_id":"levelo_inurba_marseille","lat":43.298764,"lon":5.388973,"is_reserved":false,"is_disabled":false,"rental_uris":{"android":"levelo://app?vid=fd535c3a-14ca-4cd6-a170-d68da32008a7","ios":"levelo://app?vid=fd535c3a-14ca-4cd6-a170-d68da32008a7"},"vehicle_type_id":"4","last_reported":1712163965,"current_range_meters":6000,"station_id":"ce4bh392rcd13ifvqdl0","pricing_plan_id":"cebpf4jnsgd1na2vs0mg"},{"bike_id":"6f065ba8-51c7-4f80-b770-278e3c7e1d3d","system_id":"levelo_inurba_marseille","lat":43.299724,"lon":5.384848,"is_reserved":false,"is_disabled":false,"rental_uris":{"android":"levelo://app?vid=6f065ba8-51c7-4f80-b770-278e3c7e1d3d","ios":"levelo://app?vid=6f065ba8-51c7-4f80-b770-278e3c7e1d3d"},"vehicle_type_id":"4","last_reported":1712163965,"current_range_meters":14800,"station_id":"ce4bgj92rcd13ifvqbd0","pricing_plan_id":"cebpf4jnsgd1na2vs0mg"},{"bike_id":"25c303ca-7101-4217-99af-ec800bdc00fc","system_id":"levelo_inurba_marseille","lat":43.299603,"lon":5.384964,"is_reserved":false,"is_disabled":false,"rental_uris":{"android":"levelo://app?vid=25c303ca-7101-4217-99af-ec800bdc00fc","ios":"levelo://app?vid=25c303ca-7101-4217-99af-ec800bdc00fc"},"vehicle_type_id":"4","last_reported":1712163965,"current_range_meters":31200,"station_id":"ce4bgj92rcd13ifvqbd0","pricing_plan_id":"cebpf4jnsgd1na2vs0mg"},{"bike_id":"8ef8925f-98cb-4b15-834a-92fee08026c4","system_id":"levelo_inurba_marseille","lat":43.290779,"lon":5.371482,"is_reserved":false,"is_disabled":false,"rental_uris":{"android":"levelo://app?vid=8ef8925f-98cb-4b15-834a-92fee08026c4","ios":"levelo://app?vid=8ef8925f-98cb-4b15-834a-92fee08026c4"},"vehicle_type_id":"4","last_reported":1712163965,"current_range_meters":10800,"station_id":"ce4bh5p2rcd13ifvqe4g","pricing_plan_id":"cebpf4jnsgd1na2vs0mg"},{"bike_id":"3710534b-f2d9-4f2e-9ae2-c00d98f4e8ed","system_id":"levelo_inurba_marseille","lat":43.299724,"lon":5.384848,"is_reserved":false,"is_disabled":false,"rental_uris":{"android":"levelo://app?vid=3710534b-f2d9-4f2e-9ae2-c00d98f4e8ed","ios":"levelo://app?vid=3710534b-f2d9-4f2e-9ae2-c00d98f4e8ed"},"vehicle_type_id":"4","last_reported":1712163965,"current_range_meters":19200,"station_id":"ce4bgj92rcd13ifvqbd0","pricing_plan_id":"cebpf4jnsgd1na2vs0mg"},{"bike_id":"ad2ddc8c-c8c1-4dd1-9da0-285c20e45595","system_id":"levelo_inurba_marseille","lat":43.299724,"lon":5.384848,"is_reserved":false,"is_disabled":false,"rental_uris":{"android":"levelo://app?vid=ad2ddc8c-c8c1-4dd1-9da0-285c20e45595","ios":"levelo://app?vid=ad2ddc8c-c8c1-4dd1-9da0-285c20e45595"},"vehicle_type_id":"4","last_reported":1712163965,"current_range_meters":10800,"station_id":"ce4bgj92rcd13ifvqbd0","pricing_plan_id":"cebpf4jnsgd1na2vs0mg"},{"bike_id":"0f6087a5-3ec0-43d6-a39c-6e7fe18c6484","system_id":"levelo_inurba_marseille","lat":43.323554,"lon":5.388786,"is_reserved":false,"is_disabled":false,"rental_uris":{"android":"levelo://app?vid=0f6087a5-3ec0-43d6-a39c-6e7fe18c6484","ios":"levelo://app?vid=0f6087a5-3ec0-43d6-a39c-6e7fe18c6484"},"vehicle_type_id":"4","last_reported":1712163965,"current_range_meters":24000,"station_id":"ce4bhqp2rcd13ifvqhog","pricing_plan_id":"cebpf4jnsgd1na2vs0mg"},{"bike_id":"cdfe5023-0e68-4329-bb84-dff95a6dd74b","system_id":"levelo_inurba_marseille","lat":43.323555,"lon":5.38881,"is_reserved":false,"is_disabled":false,"rental_uris":{"android":"levelo://app?vid=cdfe5023-0e68-4329-bb84-dff95a6dd74b","ios":"levelo://app?vid=cdfe5023-0e68-4329-bb84-dff95a6dd74b"},"vehicle_type_id":"4","last_reported":1712163965,"current_range_meters":0,"station_id":"ce4bhqp2rcd13ifvqhog","pricing_plan_id":"cebpf4jnsgd1na2vs0mg"},{"bike_id":"907dbd5d-c21c-4a69-9ccc-cacb9df34ad3","system_id":"levelo_inurba_marseille","lat":43.32364,"lon":5.38877,"is_reserved":false,"is_disabled":false,"rental_uris":{"android":"levelo://app?vid=907dbd5d-c21c-4a69-9ccc-cacb9df34ad3","ios":"levelo://app?vid=907dbd5d-c21c-4a69-9ccc-cacb9df34ad3"},"vehicle_type_id":"4","last_reported":1712163965,"current_range_meters":0,"station_id":"ce4bhqp2rcd13ifvqhog","pricing_plan_id":"cebpf4jnsgd1na2vs0mg"},{"bike_id":"eb32ceb2-da9c-416b-b73e-26be742f1e74","system_id":"levelo_inurba_marseille","lat":43.32366,"lon":5.38877,"is_reserved":false,"is_disabled":false,"rental_uris":{"android":"levelo://app?vid=eb32ceb2-da9c-416b-b73e-26be742f1e74","ios":"levelo://app?vid=eb32ceb2-da9c-416b-b73e-26be742f1e74"},"vehicle_type_id":"4","last_reported":1712163965,"current_range_meters":0,"station_id":"ce4bhqp2rcd13ifvqhog","pricing_plan_id":"cebpf4jnsgd1na2vs0mg"},{"bike_id":"93b4a369-f495-402e-913c-9946b76dc550","system_id":"levelo_inurba_marseille","lat":43.32365,"lon":5.38878,"is_reserved":false,"is_disabled":false,"rental_uris":{"android":"levelo://app?vid=93b4a369-f495-402e-913c-9946b76dc550","ios":"levelo://app?vid=93b4a369-f495-402e-913c-9946b76dc550"},"vehicle_type_id":"4","last_reported":1712163965,"current_range_meters":1200,"station_id":"ce4bhqp2rcd13ifvqhog","pricing_plan_id":"cebpf4jnsgd1na2vs0mg"},{"bike_id":"9e493a95-b485-4bb0-999b-816b365c3344","system_id":"levelo_inurba_marseille","lat":43.32367,"lon":5.388836,"is_reserved":false,"is_disabled":false,"rental_uris":{"android":"levelo://app?vid=9e493a95-b485-4bb0-999b-816b365c3344","ios":"levelo://app?vid=9e493a95-b485-4bb0-999b-816b365c3344"},"vehicle_type_id":"4","last_reported":1712163965,"current_range_meters":24800,"station_id":"ce4bhqp2rcd13ifvqhog","pricing_plan_id":"cebpf4jnsgd1na2vs0mg"},{"bike_id":"98875af4-dcb3-4d03-8aa4-5aa5cbd117b1","system_id":"levelo_inurba_marseille","lat":43.32364,"lon":5.38885,"is_reserved":false,"is_disabled":false,"rental_uris":{"android":"levelo://app?vid=98875af4-dcb3-4d03-8aa4-5aa5cbd117b1","ios":"levelo://app?vid=98875af4-dcb3-4d03-8aa4-5aa5cbd117b1"},"vehicle_type_id":"4","last_reported":1712163965,"current_range_meters":800,"station_id":"ce4bhqp2rcd13ifvqhog","pricing_plan_id":"cebpf4jnsgd1na2vs0mg"},{"bike_id":"6d6a17d8-9928-4469-a29c-08171cd0fabc","system_id":"levelo_inurba_marseille","lat":43.323696,"lon":5.38885,"is_reserved":false,"is_disabled":false,"rental_uris":{"android":"levelo://app?vid=6d6a17d8-9928-4469-a29c-08171cd0fabc","ios":"levelo://app?vid=6d6a17d8-9928-4469-a29c-08171cd0fabc"},"vehicle_type_id":"4","last_reported":1712163965,"current_range_meters":0,"station_id":"ce4bhqp2rcd13ifvqhog","pricing_plan_id":"cebpf4jnsgd1na2vs0mg"},{"bike_id":"579e9715-ccb2-4482-828f-512d66ddd6d0","system_id":"levelo_inurba_marseille","lat":43.32367,"lon":5.388836,"is_reserved":false,"is_disabled":false,"rental_uris":{"android":"levelo://app?vid=579e9715-ccb2-4482-828f-512d66ddd6d0","ios":"levelo://app?vid=579e9715-ccb2-4482-828f-512d66ddd6d0"},"vehicle_type_id":"4","last_reported":1712163965,"current_range_meters":5600,"station_id":"ce4bhqp2rcd13ifvqhog","pricing_plan_id":"cebpf4jnsgd1na2vs0mg"},{"bike_id":"3edf8a4f-a10f-481e-b19f-6a9b04f6ecc8","system_id":"levelo_inurba_marseille","lat":43.32367,"lon":5.388836,"is_reserved":false,"is_disabled":false,"rental_uris":{"android":"levelo://app?vid=3edf8a4f-a10f-481e-b19f-6a9b04f6ecc8","ios":"levelo://app?vid=3edf8a4f-a10f-481e-b19f-6a9b04f6ecc8"},"vehicle_type_id":"4","last_reported":1712163965,"current_range_meters":4000,"station_id":"ce4bhqp2rcd13ifvqhog","pricing_plan_id":"cebpf4jnsgd1na2vs0mg"},{"bike_id":"ba48cd55-ffab-451b-af5d-1bb5058c888b","system_id":"levelo_inurba_marseille","lat":43.29602,"lon":5.381084,"is_reserved":false,"is_disabled":false,"rental_uris":{"android":"levelo://app?vid=ba48cd55-ffab-451b-af5d-1bb5058c888b","ios":"levelo://app?vid=ba48cd55-ffab-451b-af5d-1bb5058c888b"},"vehicle_type_id":"4","last_reported":1712163965,"current_range_meters":4000,"station_id":"ce4bgl12rcd13ifvqbo0","pricing_plan_id":"cebpf4jnsgd1na2vs0mg"},{"bike_id":"921c551f-3b07-4d3d-badd-5313e942fad4","system_id":"levelo_inurba_marseille","lat":43.294153,"lon":5.386305,"is_reserved":false,"is_disabled":false,"rental_uris":{"android":"levelo://app?vid=921c551f-3b07-4d3d-badd-5313e942fad4","ios":"levelo://app?vid=921c551f-3b07-4d3d-badd-5313e942fad4"},"vehicle_type_id":"4","last_reported":1712163965,"current_range_meters":8400,"station_id":"ce4bh2h2rcd13ifvqdh0","pricing_plan_id":"cebpf4jnsgd1na2vs0mg"},{"bike_id":"88fc380e-af29-488c-ac29-be74bba23fed","system_id":"levelo_inurba_marseille","lat":43.292749,"lon":5.368402,"is_reserved":false,"is_disabled":false,"rental_uris":{"android":"levelo://app?vid=88fc380e-af29-488c-ac29-be74bba23fed","ios":"levelo://app?vid=88fc380e-af29-488c-ac29-be74bba23fed"},"vehicle_type_id":"4","last_reported":1712163965,"current_range_meters":25600,"station_id":"ce4bhbp2rcd13ifvqesg","pricing_plan_id":"cebpf4jnsgd1na2vs0mg"},{"bike_id":"4d820a38-76e8-43d9-9615-ae6b630c2c11","system_id":"levelo_inurba_marseille","lat":43.292749,"lon":5.368402,"is_reserved":false,"is_disabled":false,"rental_uris":{"android":"levelo://app?vid=4d820a38-76e8-43d9-9615-ae6b630c2c11","ios":"levelo://app?vid=4d820a38-76e8-43d9-9615-ae6b630c2c11"},"vehicle_type_id":"4","last_reported":1712163965,"current_range_meters":14400,"station_id":"ce4bhbp2rcd13ifvqesg","pricing_plan_id":"cebpf4jnsgd1na2vs0mg"},{"bike_id":"089a0019-14dc-48e2-af7b-6dde365ab062","system_id":"levelo_inurba_marseille","lat":43.292749,"lon":5.368402,"is_reserved":false,"is_disabled":false,"rental_uris":{"android":"levelo://app?vid=089a0019-14dc-48e2-af7b-6dde365ab062","ios":"levelo://app?vid=089a0019-14dc-48e2-af7b-6dde365ab062"},"vehicle_type_id":"4","last_reported":1712163965,"current_range_meters":0,"station_id":"ce4bhbp2rcd13ifvqesg","pricing_plan_id":"cebpf4jnsgd1na2vs0mg"},{"bike_id":"882a81dd-1fad-4176-a37e-b1d579c2b0ec","system_id":"levelo_inurba_marseille","lat":43.292749,"lon":5.368402,"is_reserved":false,"is_disabled":false,"rental_uris":{"android":"levelo://app?vid=882a81dd-1fad-4176-a37e-b1d579c2b0ec","ios":"levelo://app?vid=882a81dd-1fad-4176-a37e-b1d579c2b0ec"},"vehicle_type_id":"4","last_reported":1712163965,"current_range_meters":18000,"station_id":"ce4bhbp2rcd13ifvqesg","pricing_plan_id":"cebpf4jnsgd1na2vs0mg"},{"bike_id":"8f33d25a-a785-4214-a5b0-90e360ffab93","system_id":"levelo_inurba_marseille","lat":43.292749,"lon":5.368402,"is_reserved":false,"is_disabled":false,"rental_uris":{"android":"levelo://app?vid=8f33d25a-a785-4214-a5b0-90e360ffab93","ios":"levelo://app?vid=8f33d25a-a785-4214-a5b0-90e360ffab93"},"vehicle_type_id":"4","last_reported":1712163965,"current_range_meters":14400,"station_id":"ce4bhbp2rcd13ifvqesg","pricing_plan_id":"cebpf4jnsgd1na2vs0mg"},{"bike_id":"2111eeaf-abc7-440a-932c-3cbb3c4812b3","system_id":"levelo_inurba_marseille","lat":43.29305,"lon":5.37174,"is_reserved":false,"is_disabled":false,"rental_uris":{"android":"levelo://app?vid=2111eeaf-abc7-440a-932c-3cbb3c4812b3","ios":"levelo://app?vid=2111eeaf-abc7-440a-932c-3cbb3c4812b3"},"vehicle_type_id":"4","last_reported":1712163965,"current_range_meters":28800,"station_id":"ce4bgh92rcd13ifvqb40","pricing_plan_id":"cebpf4jnsgd1na2vs0mg"},{"bike_id":"f33f94e7-062f-433c-bbf9-3aba07a37a2f","system_id":"levelo_inurba_marseille","lat":43.292749,"lon":5.368402,"is_reserved":false,"is_disabled":false,"rental_uris":{"android":"levelo://app?vid=f33f94e7-062f-433c-bbf9-3aba07a37a2f","ios":"levelo://app?vid=f33f94e7-062f-433c-bbf9-3aba07a37a2f"},"vehicle_type_id":"4","last_reported":1712163965,"current_range_meters":2400,"station_id":"ce4bhbp2rcd13ifvqesg","pricing_plan_id":"cebpf4jnsgd1na2vs0mg"},{"bike_id":"10995c60-5799-4426-8388-63ef2d8e6763","system_id":"levelo_inurba_marseille","lat":43.292749,"lon":5.368402,"is_reserved":false,"is_disabled":false,"rental_uris":{"android":"levelo://app?vid=10995c60-5799-4426-8388-63ef2d8e6763","ios":"levelo://app?vid=10995c60-5799-4426-8388-63ef2d8e6763"},"vehicle_type_id":"4","last_reported":1712163965,"current_range_meters":0,"station_id":"ce4bhbp2rcd13ifvqesg","pricing_plan_id":"cebpf4jnsgd1na2vs0mg"},{"bike_id":"ac767e91-9a7b-4012-8f81-9da05f326c34","system_id":"levelo_inurba_marseille","lat":43.292749,"lon":5.368402,"is_reserved":false,"is_disabled":false,"rental_uris":{"android":"levelo://app?vid=ac767e91-9a7b-4012-8f81-9da05f326c34","ios":"levelo://app?vid=ac767e91-9a7b-4012-8f81-9da05f326c34"},"vehicle_type_id":"4","last_reported":1712163965,"current_range_meters":8800,"station_id":"ce4bhbp2rcd13ifvqesg","pricing_plan_id":"cebpf4jnsgd1na2vs0mg"},{"bike_id":"c457978a-0dfb-472d-bbd9-2888c928f570","system_id":"levelo_inurba_marseille","lat":43.292749,"lon":5.368402,"is_reserved":false,"is_disabled":false,"rental_uris":{"android":"levelo://app?vid=c457978a-0dfb-472d-bbd9-2888c928f570","ios":"levelo://app?vid=c457978a-0dfb-472d-bbd9-2888c928f570"},"vehicle_type_id":"4","last_reported":1712163965,"current_range_meters":2800,"station_id":"ce4bhbp2rcd13ifvqesg","pricing_plan_id":"cebpf4jnsgd1na2vs0mg"},{"bike_id":"1116beac-bec8-471f-861a-d55066d21f15","system_id":"levelo_inurba_marseille","lat":43.29271,"lon":5.36839,"is_reserved":false,"is_disabled":false,"rental_uris":{"android":"levelo://app?vid=1116beac-bec8-471f-861a-d55066d21f15","ios":"levelo://app?vid=1116beac-bec8-471f-861a-d55066d21f15"},"vehicle_type_id":"4","last_reported":1712163965,"current_range_meters":0,"station_id":"ce4bhbp2rcd13ifvqesg","pricing_plan_id":"cebpf4jnsgd1na2vs0mg"},{"bike_id":"1055a346-82fa-4eb4-badc-fec15552b840","system_id":"levelo_inurba_marseille","lat":43.292575,"lon":5.366994,"is_reserved":false,"is_disabled":false,"rental_uris":{"android":"levelo://app?vid=1055a346-82fa-4eb4-badc-fec15552b840","ios":"levelo://app?vid=1055a346-82fa-4eb4-badc-fec15552b840"},"vehicle_type_id":"4","last_reported":1712163965,"current_range_meters":2400,"station_id":"ce4bhbp2rcd13ifvqesg","pricing_plan_id":"cebpf4jnsgd1na2vs0mg"},{"bike_id":"0f0185a2-4672-4723-a9cd-634ddf602963","system_id":"levelo_inurba_marseille","lat":43.29308,"lon":5.37442,"is_reserved":false,"is_disabled":false,"rental_uris":{"android":"levelo://app?vid=0f0185a2-4672-4723-a9cd-634ddf602963","ios":"levelo://app?vid=0f0185a2-4672-4723-a9cd-634ddf602963"},"vehicle_type_id":"4","last_reported":1712163965,"current_range_meters":0,"station_id":"ce4bgi12rcd13ifvqb70","pricing_plan_id":"cebpf4jnsgd1na2vs0mg"},{"bike_id":"009d0bac-af61-45d5-baeb-76922c2e48a4","system_id":"levelo_inurba_marseille","lat":43.303002,"lon":5.392142,"is_reserved":false,"is_disabled":false,"rental_uris":{"android":"levelo://app?vid=009d0bac-af61-45d5-baeb-76922c2e48a4","ios":"levelo://app?vid=009d0bac-af61-45d5-baeb-76922c2e48a4"},"vehicle_type_id":"4","last_reported":1712163965,"current_range_meters":0,"station_id":"ce4bgkh2rcd13ifvqbk0","pricing_plan_id":"cebpf4jnsgd1na2vs0mg"},{"bike_id":"0961d867-f942-4018-a3e2-4792263a0ded","system_id":"levelo_inurba_marseille","lat":43.298433,"lon":5.362774,"is_reserved":false,"is_disabled":false,"rental_uris":{"android":"levelo://app?vid=0961d867-f942-4018-a3e2-4792263a0ded","ios":"levelo://app?vid=0961d867-f942-4018-a3e2-4792263a0ded"},"vehicle_type_id":"4","last_reported":1712163965,"current_range_meters":6800,"station_id":"ce4bgpp2rcd13ifvqc3g","pricing_plan_id":"cebpf4jnsgd1na2vs0mg"},{"bike_id":"d91afdfc-bce0-4957-b29a-4019b5af62f3","system_id":"levelo_inurba_marseille","lat":43.293009,"lon":5.374584,"is_reserved":false,"is_disabled":false,"rental_uris":{"android":"levelo://app?vid=d91afdfc-bce0-4957-b29a-4019b5af62f3","ios":"levelo://app?vid=d91afdfc-bce0-4957-b29a-4019b5af62f3"},"vehicle_type_id":"4","last_reported":1712163965,"current_range_meters":20800,"station_id":"ce4bgi12rcd13ifvqb70","pricing_plan_id":"cebpf4jnsgd1na2vs0mg"},{"bike_id":"12430e55-8154-49d8-85ef-5a71efc19eb9","system_id":"levelo_inurba_marseille","lat":43.293009,"lon":5.374584,"is_reserved":false,"is_disabled":false,"rental_uris":{"android":"levelo://app?vid=12430e55-8154-49d8-85ef-5a71efc19eb9","ios":"levelo://app?vid=12430e55-8154-49d8-85ef-5a71efc19eb9"},"vehicle_type_id":"4","last_reported":1712163965,"current_range_meters":27200,"station_id":"ce4bgi12rcd13ifvqb70","pricing_plan_id":"cebpf4jnsgd1na2vs0mg"},{"bike_id":"e1b1dc71-9ead-4579-853b-3949b0a73db3","system_id":"levelo_inurba_marseille","lat":43.284538,"lon":5.358657,"is_reserved":false,"is_disabled":false,"rental_uris":{"android":"levelo://app?vid=e1b1dc71-9ead-4579-853b-3949b0a73db3","ios":"levelo://app?vid=e1b1dc71-9ead-4579-853b-3949b0a73db3"},"vehicle_type_id":"4","last_reported":1712163965,"current_range_meters":9600,"station_id":"ce4bhah2rcd13ifvqei0","pricing_plan_id":"cebpf4jnsgd1na2vs0mg"},{"bike_id":"5ad31daf-7d76-4e10-b873-cb0139127782","system_id":"levelo_inurba_marseille","lat":43.303002,"lon":5.392142,"is_reserved":false,"is_disabled":false,"rental_uris":{"android":"levelo://app?vid=5ad31daf-7d76-4e10-b873-cb0139127782","ios":"levelo://app?vid=5ad31daf-7d76-4e10-b873-cb0139127782"},"vehicle_type_id":"4","last_reported":1712163965,"current_range_meters":1600,"station_id":"ce4bgkh2rcd13ifvqbk0","pricing_plan_id":"cebpf4jnsgd1na2vs0mg"},{"bike_id":"07ae493d-5849-4ba4-a430-0dbe072958ed","system_id":"levelo_inurba_marseille","lat":43.308012,"lon":5.381511,"is_reserved":false,"is_disabled":false,"rental_uris":{"android":"levelo://app?vid=07ae493d-5849-4ba4-a430-0dbe072958ed","ios":"levelo://app?vid=07ae493d-5849-4ba4-a430-0dbe072958ed"},"vehicle_type_id":"4","last_reported":1712163965,"current_range_meters":31200,"station_id":"ce4bgt12rcd13ifvqce0","pricing_plan_id":"cebpf4jnsgd1na2vs0mg"},{"bike_id":"c06714a1-8b53-4541-b177-abe473343fb7","system_id":"levelo_inurba_marseille","lat":43.29373,"lon":5.378457,"is_reserved":false,"is_disabled":false,"rental_uris":{"android":"levelo://app?vid=c06714a1-8b53-4541-b177-abe473343fb7","ios":"levelo://app?vid=c06714a1-8b53-4541-b177-abe473343fb7"},"vehicle_type_id":"4","last_reported":1712163965,"current_range_meters":0,"station_id":"ce4bgjh2rcd13ifvqbf0","pricing_plan_id":"cebpf4jnsgd1na2vs0mg"},{"bike_id":"7f4c984c-e10a-4496-8a23-b0c2f5f23a06","system_id":"levelo_inurba_marseille","lat":43.300852,"lon":5.390859,"is_reserved":false,"is_disabled":false,"rental_uris":{"android":"levelo://app?vid=7f4c984c-e10a-4496-8a23-b0c2f5f23a06","ios":"levelo://app?vid=7f4c984c-e10a-4496-8a23-b0c2f5f23a06"},"vehicle_type_id":"4","last_reported":1712163965,"current_range_meters":400,"station_id":"ce4bh192rcd13ifvqdb0","pricing_plan_id":"cebpf4jnsgd1na2vs0mg"},{"bike_id":"898ec547-b9c3-48bf-92e5-f9bd2d5f3f3d","system_id":"levelo_inurba_marseille","lat":43.283998,"lon":5.375062,"is_reserved":false,"is_disabled":false,"rental_uris":{"android":"levelo://app?vid=898ec547-b9c3-48bf-92e5-f9bd2d5f3f3d","ios":"levelo://app?vid=898ec547-b9c3-48bf-92e5-f9bd2d5f3f3d"},"vehicle_type_id":"4","last_reported":1712163965,"current_range_meters":0,"station_id":"ce4bh412rcd13ifvqds0","pricing_plan_id":"cebpf4jnsgd1na2vs0mg"},{"bike_id":"92e800c0-814e-47c0-9c71-6187a65da22d","system_id":"levelo_inurba_marseille","lat":43.298764,"lon":5.388973,"is_reserved":false,"is_disabled":false,"rental_uris":{"android":"levelo://app?vid=92e800c0-814e-47c0-9c71-6187a65da22d","ios":"levelo://app?vid=92e800c0-814e-47c0-9c71-6187a65da22d"},"vehicle_type_id":"4","last_reported":1712163965,"current_range_meters":24000,"station_id":"ce4bh392rcd13ifvqdl0","pricing_plan_id":"cebpf4jnsgd1na2vs0mg"},{"bike_id":"b4283f36-086d-4d38-abd4-d13450c82d6f","system_id":"levelo_inurba_marseille","lat":43.293009,"lon":5.374584,"is_reserved":false,"is_disabled":false,"rental_uris":{"android":"levelo://app?vid=b4283f36-086d-4d38-abd4-d13450c82d6f","ios":"levelo://app?vid=b4283f36-086d-4d38-abd4-d13450c82d6f"},"vehicle_type_id":"4","last_reported":1712163965,"current_range_meters":0,"station_id":"ce4bgi12rcd13ifvqb70","pricing_plan_id":"cebpf4jnsgd1na2vs0mg"},{"bike_id":"f8211ecd-b9d7-46eb-9ffb-0d18debbd4d1","system_id":"levelo_inurba_marseille","lat":43.298764,"lon":5.388973,"is_reserved":false,"is_disabled":false,"rental_uris":{"android":"levelo://app?vid=f8211ecd-b9d7-46eb-9ffb-0d18debbd4d1","ios":"levelo://app?vid=f8211ecd-b9d7-46eb-9ffb-0d18debbd4d1"},"vehicle_type_id":"4","last_reported":1712163965,"current_range_meters":25600,"station_id":"ce4bh392rcd13ifvqdl0","pricing_plan_id":"cebpf4jnsgd1na2vs0mg"},{"bike_id":"6cf34119-12d2-46f1-a9e1-c5a50d9e303d","system_id":"levelo_inurba_marseille","lat":43.298764,"lon":5.388973,"is_reserved":false,"is_disabled":false,"rental_uris":{"android":"levelo://app?vid=6cf34119-12d2-46f1-a9e1-c5a50d9e303d","ios":"levelo://app?vid=6cf34119-12d2-46f1-a9e1-c5a50d9e303d"},"vehicle_type_id":"4","last_reported":1712163965,"current_range_meters":3600,"station_id":"ce4bh392rcd13ifvqdl0","pricing_plan_id":"cebpf4jnsgd1na2vs0mg"},{"bike_id":"2e173919-b65c-41e8-adf9-0c4cbb622305","system_id":"levelo_inurba_marseille","lat":43.291783,"lon":5.371577,"is_reserved":false,"is_disabled":false,"rental_uris":{"android":"levelo://app?vid=2e173919-b65c-41e8-adf9-0c4cbb622305","ios":"levelo://app?vid=2e173919-b65c-41e8-adf9-0c4cbb622305"},"vehicle_type_id":"4","last_reported":1712163965,"current_range_meters":0,"station_id":"ce4bha92rcd13ifvqeh0","pricing_plan_id":"cebpf4jnsgd1na2vs0mg"},{"bike_id":"c7ebc2e2-1a13-4c93-88ec-34cb1671b597","system_id":"levelo_inurba_marseille","lat":43.313291,"lon":5.396838,"is_reserved":false,"is_disabled":false,"rental_uris":{"android":"levelo://app?vid=c7ebc2e2-1a13-4c93-88ec-34cb1671b597","ios":"levelo://app?vid=c7ebc2e2-1a13-4c93-88ec-34cb1671b597"},"vehicle_type_id":"4","last_reported":1712163965,"current_range_meters":13600,"station_id":"ce4bgvp2rcd13ifvqcu0","pricing_plan_id":"cebpf4jnsgd1na2vs0mg"},{"bike_id":"28aa9438-7303-444f-8077-de9838e3eb1b","system_id":"levelo_inurba_marseille","lat":43.291671,"lon":5.371575,"is_reserved":false,"is_disabled":false,"rental_uris":{"android":"levelo://app?vid=28aa9438-7303-444f-8077-de9838e3eb1b","ios":"levelo://app?vid=28aa9438-7303-444f-8077-de9838e3eb1b"},"vehicle_type_id":"4","last_reported":1712163965,"current_range_meters":0,"station_id":"ce4bha92rcd13ifvqeh0","pricing_plan_id":"cebpf4jnsgd1na2vs0mg"},{"bike_id":"586ef2c2-4395-48ae-9447-3b4720b276a3","system_id":"levelo_inurba_marseille","lat":43.291675,"lon":5.371583,"is_reserved":false,"is_disabled":false,"rental_uris":{"android":"levelo://app?vid=586ef2c2-4395-48ae-9447-3b4720b276a3","ios":"levelo://app?vid=586ef2c2-4395-48ae-9447-3b4720b276a3"},"vehicle_type_id":"4","last_reported":1712163965,"current_range_meters":20000,"station_id":"ce4bha92rcd13ifvqeh0","pricing_plan_id":"cebpf4jnsgd1na2vs0mg"},{"bike_id":"b632367c-f7a0-488e-8c65-b33c5c20a1b3","system_id":"levelo_inurba_marseille","lat":43.298901,"lon":5.389357,"is_reserved":false,"is_disabled":false,"rental_uris":{"android":"levelo://app?vid=b632367c-f7a0-488e-8c65-b33c5c20a1b3","ios":"levelo://app?vid=b632367c-f7a0-488e-8c65-b33c5c20a1b3"},"vehicle_type_id":"4","last_reported":1712163965,"current_range_meters":2000,"station_id":"","pricing_plan_id":"cebpf4jnsgd1na2vs0mg"},{"bike_id":"4b7ddeac-c604-47a5-932d-a4f6eac3f65a","system_id":"levelo_inurba_marseille","lat":43.291994,"lon":5.357886,"is_reserved":false,"is_disabled":false,"rental_uris":{"android":"levelo://app?vid=4b7ddeac-c604-47a5-932d-a4f6eac3f65a","ios":"levelo://app?vid=4b7ddeac-c604-47a5-932d-a4f6eac3f65a"},"vehicle_type_id":"4","last_reported":1712163965,"current_range_meters":0,"station_id":"ce4bhb12rcd13ifvqel0","pricing_plan_id":"cebpf4jnsgd1na2vs0mg"},{"bike_id":"3cbdba4a-7307-4047-8c34-716a00604c6f","system_id":"levelo_inurba_marseille","lat":43.31326,"lon":5.39684,"is_reserved":false,"is_disabled":false,"rental_uris":{"android":"levelo://app?vid=3cbdba4a-7307-4047-8c34-716a00604c6f","ios":"levelo://app?vid=3cbdba4a-7307-4047-8c34-716a00604c6f"},"vehicle_type_id":"4","last_reported":1712163965,"current_range_meters":3200,"station_id":"ce4bgvp2rcd13ifvqcu0","pricing_plan_id":"cebpf4jnsgd1na2vs0mg"},{"bike_id":"6fef1af7-a655-4e5c-bd8d-91a911bfe05e","system_id":"levelo_inurba_marseille","lat":43.291994,"lon":5.357886,"is_reserved":false,"is_disabled":false,"rental_uris":{"android":"levelo://app?vid=6fef1af7-a655-4e5c-bd8d-91a911bfe05e","ios":"levelo://app?vid=6fef1af7-a655-4e5c-bd8d-91a911bfe05e"},"vehicle_type_id":"4","last_reported":1712163965,"current_range_meters":2000,"station_id":"ce4bhb12rcd13ifvqel0","pricing_plan_id":"cebpf4jnsgd1na2vs0mg"},{"bike_id":"4872a12f-16fb-4ac6-801a-0ad9d486c8f9","system_id":"levelo_inurba_marseille","lat":43.30891,"lon":5.39639,"is_reserved":false,"is_disabled":false,"rental_uris":{"android":"levelo://app?vid=4872a12f-16fb-4ac6-801a-0ad9d486c8f9","ios":"levelo://app?vid=4872a12f-16fb-4ac6-801a-0ad9d486c8f9"},"vehicle_type_id":"4","last_reported":1712163965,"current_range_meters":0,"station_id":"ce4bh012rcd13ifvqcv0","pricing_plan_id":"cebpf4jnsgd1na2vs0mg"},{"bike_id":"f1ba1708-906a-4d78-8d3c-ae8429c7b87f","system_id":"levelo_inurba_marseille","lat":43.313291,"lon":5.396838,"is_reserved":false,"is_disabled":false,"rental_uris":{"android":"levelo://app?vid=f1ba1708-906a-4d78-8d3c-ae8429c7b87f","ios":"levelo://app?vid=f1ba1708-906a-4d78-8d3c-ae8429c7b87f"},"vehicle_type_id":"4","last_reported":1712163965,"current_range_meters":18400,"station_id":"ce4bgvp2rcd13ifvqcu0","pricing_plan_id":"cebpf4jnsgd1na2vs0mg"},{"bike_id":"abbb56fc-f0d1-4ae8-a7bb-6f9cb6a1e125","system_id":"levelo_inurba_marseille","lat":43.309038,"lon":5.396546,"is_reserved":false,"is_disabled":false,"rental_uris":{"android":"levelo://app?vid=abbb56fc-f0d1-4ae8-a7bb-6f9cb6a1e125","ios":"levelo://app?vid=abbb56fc-f0d1-4ae8-a7bb-6f9cb6a1e125"},"vehicle_type_id":"4","last_reported":1712163965,"current_range_meters":0,"station_id":"ce4bh012rcd13ifvqcv0","pricing_plan_id":"cebpf4jnsgd1na2vs0mg"},{"bike_id":"70caaba6-f476-406e-8c62-5feefbe2ca23","system_id":"levelo_inurba_marseille","lat":43.309038,"lon":5.396546,"is_reserved":false,"is_disabled":false,"rental_uris":{"android":"levelo://app?vid=70caaba6-f476-406e-8c62-5feefbe2ca23","ios":"levelo://app?vid=70caaba6-f476-406e-8c62-5feefbe2ca23"},"vehicle_type_id":"4","last_reported":1712163965,"current_range_meters":0,"station_id":"ce4bh012rcd13ifvqcv0","pricing_plan_id":"cebpf4jnsgd1na2vs0mg"},{"bike_id":"4ecf0374-24f1-462d-8582-08cd1a9bd22c","system_id":"levelo_inurba_marseille","lat":43.299243,"lon":5.374807,"is_reserved":false,"is_disabled":false,"rental_uris":{"android":"levelo://app?vid=4ecf0374-24f1-462d-8582-08cd1a9bd22c","ios":"levelo://app?vid=4ecf0374-24f1-462d-8582-08cd1a9bd22c"},"vehicle_type_id":"4","last_reported":1712163965,"current_range_meters":1600,"station_id":"ce4bgjh2rcd13ifvqbg0","pricing_plan_id":"cebpf4jnsgd1na2vs0mg"},{"bike_id":"dd6176d4-4167-43e6-8a26-3ff0ce4e6bad","system_id":"levelo_inurba_marseille","lat":43.309038,"lon":5.396546,"is_reserved":false,"is_disabled":false,"rental_uris":{"android":"levelo://app?vid=dd6176d4-4167-43e6-8a26-3ff0ce4e6bad","ios":"levelo://app?vid=dd6176d4-4167-43e6-8a26-3ff0ce4e6bad"},"vehicle_type_id":"4","last_reported":1712163965,"current_range_meters":18400,"station_id":"ce4bh012rcd13ifvqcv0","pricing_plan_id":"cebpf4jnsgd1na2vs0mg"},{"bike_id":"57a96fd6-b77c-4ae8-870a-30efe53c1a90","system_id":"levelo_inurba_marseille","lat":43.309038,"lon":5.396546,"is_reserved":false,"is_disabled":false,"rental_uris":{"android":"levelo://app?vid=57a96fd6-b77c-4ae8-870a-30efe53c1a90","ios":"levelo://app?vid=57a96fd6-b77c-4ae8-870a-30efe53c1a90"},"vehicle_type_id":"4","last_reported":1712163965,"current_range_meters":5600,"station_id":"ce4bh012rcd13ifvqcv0","pricing_plan_id":"cebpf4jnsgd1na2vs0mg"},{"bike_id":"4f9a63fa-cc40-4b3e-b466-2ce0fb774da2","system_id":"levelo_inurba_marseille","lat":43.29539,"lon":5.38542,"is_reserved":false,"is_disabled":false,"rental_uris":{"android":"levelo://app?vid=4f9a63fa-cc40-4b3e-b466-2ce0fb774da2","ios":"levelo://app?vid=4f9a63fa-cc40-4b3e-b466-2ce0fb774da2"},"vehicle_type_id":"4","last_reported":1712163965,"current_range_meters":0,"station_id":"ce4bgih2rcd13ifvqba0","pricing_plan_id":"cebpf4jnsgd1na2vs0mg"},{"bike_id":"7d729f67-b453-4d02-93ae-019b74e25596","system_id":"levelo_inurba_marseille","lat":43.2954,"lon":5.38544,"is_reserved":false,"is_disabled":false,"rental_uris":{"android":"levelo://app?vid=7d729f67-b453-4d02-93ae-019b74e25596","ios":"levelo://app?vid=7d729f67-b453-4d02-93ae-019b74e25596"},"vehicle_type_id":"4","last_reported":1712163965,"current_range_meters":0,"station_id":"ce4bgih2rcd13ifvqba0","pricing_plan_id":"cebpf4jnsgd1na2vs0mg"},{"bike_id":"0aa2f275-0361-41f3-91ad-06818e8bafc7","system_id":"levelo_inurba_marseille","lat":43.29529,"lon":5.385581,"is_reserved":false,"is_disabled":false,"rental_uris":{"android":"levelo://app?vid=0aa2f275-0361-41f3-91ad-06818e8bafc7","ios":"levelo://app?vid=0aa2f275-0361-41f3-91ad-06818e8bafc7"},"vehicle_type_id":"4","last_reported":1712163965,"current_range_meters":11600,"station_id":"ce4bgih2rcd13ifvqba0","pricing_plan_id":"cebpf4jnsgd1na2vs0mg"},{"bike_id":"eadea4bc-d82e-45e4-badc-aabbebaf9cea","system_id":"levelo_inurba_marseille","lat":43.29529,"lon":5.385581,"is_reserved":false,"is_disabled":false,"rental_uris":{"android":"levelo://app?vid=eadea4bc-d82e-45e4-badc-aabbebaf9cea","ios":"levelo://app?vid=eadea4bc-d82e-45e4-badc-aabbebaf9cea"},"vehicle_type_id":"4","last_reported":1712163965,"current_range_meters":20400,"station_id":"ce4bgih2rcd13ifvqba0","pricing_plan_id":"cebpf4jnsgd1na2vs0mg"},{"bike_id":"cb02ff99-0daa-4aad-9f6b-6ee00254ee6d","system_id":"levelo_inurba_marseille","lat":43.29529,"lon":5.385581,"is_reserved":false,"is_disabled":false,"rental_uris":{"android":"levelo://app?vid=cb02ff99-0daa-4aad-9f6b-6ee00254ee6d","ios":"levelo://app?vid=cb02ff99-0daa-4aad-9f6b-6ee00254ee6d"},"vehicle_type_id":"4","last_reported":1712163965,"current_range_meters":0,"station_id":"ce4bgih2rcd13ifvqba0","pricing_plan_id":"cebpf4jnsgd1na2vs0mg"},{"bike_id":"88b450f0-ed32-45f3-a025-759307629290","system_id":"levelo_inurba_marseille","lat":43.29534,"lon":5.38545,"is_reserved":false,"is_disabled":false,"rental_uris":{"android":"levelo://app?vid=88b450f0-ed32-45f3-a025-759307629290","ios":"levelo://app?vid=88b450f0-ed32-45f3-a025-759307629290"},"vehicle_type_id":"4","last_reported":1712163965,"current_range_meters":13200,"station_id":"ce4bgih2rcd13ifvqba0","pricing_plan_id":"cebpf4jnsgd1na2vs0mg"},{"bike_id":"844085a7-a226-40a8-93ea-c79793c8a9f3","system_id":"levelo_inurba_marseille","lat":43.29529,"lon":5.385581,"is_reserved":false,"is_disabled":false,"rental_uris":{"android":"levelo://app?vid=844085a7-a226-40a8-93ea-c79793c8a9f3","ios":"levelo://app?vid=844085a7-a226-40a8-93ea-c79793c8a9f3"},"vehicle_type_id":"4","last_reported":1712163965,"current_range_meters":19600,"station_id":"ce4bgih2rcd13ifvqba0","pricing_plan_id":"cebpf4jnsgd1na2vs0mg"},{"bike_id":"39e8209c-01d7-4d94-9716-67de14853e17","system_id":"levelo_inurba_marseille","lat":43.290779,"lon":5.371482,"is_reserved":false,"is_disabled":false,"rental_uris":{"android":"levelo://app?vid=39e8209c-01d7-4d94-9716-67de14853e17","ios":"levelo://app?vid=39e8209c-01d7-4d94-9716-67de14853e17"},"vehicle_type_id":"4","last_reported":1712163965,"current_range_meters":1200,"station_id":"ce4bh5p2rcd13ifvqe4g","pricing_plan_id":"cebpf4jnsgd1na2vs0mg"},{"bike_id":"250d9241-1393-4d73-8973-36bf865a7fb4","system_id":"levelo_inurba_marseille","lat":43.289184,"lon":5.366408,"is_reserved":false,"is_disabled":false,"rental_uris":{"android":"levelo://app?vid=250d9241-1393-4d73-8973-36bf865a7fb4","ios":"levelo://app?vid=250d9241-1393-4d73-8973-36bf865a7fb4"},"vehicle_type_id":"4","last_reported":1712163965,"current_range_meters":4000,"station_id":"ce4bhap2rcd13ifvqek0","pricing_plan_id":"cebpf4jnsgd1na2vs0mg"},{"bike_id":"e1612d15-ca4a-40f3-9587-4e03ca0c6707","system_id":"levelo_inurba_marseille","lat":43.302008,"lon":5.394694,"is_reserved":false,"is_disabled":false,"rental_uris":{"android":"levelo://app?vid=e1612d15-ca4a-40f3-9587-4e03ca0c6707","ios":"levelo://app?vid=e1612d15-ca4a-40f3-9587-4e03ca0c6707"},"vehicle_type_id":"4","last_reported":1712163965,"current_range_meters":28400,"station_id":"ce4bh0p2rcd13ifvqd70","pricing_plan_id":"cebpf4jnsgd1na2vs0mg"},{"bike_id":"2e9addb0-1971-4336-bfbe-bd0bfefdd75c","system_id":"levelo_inurba_marseille","lat":43.290631,"lon":5.359244,"is_reserved":false,"is_disabled":false,"rental_uris":{"android":"levelo://app?vid=2e9addb0-1971-4336-bfbe-bd0bfefdd75c","ios":"levelo://app?vid=2e9addb0-1971-4336-bfbe-bd0bfefdd75c"},"vehicle_type_id":"4","last_reported":1712163965,"current_range_meters":20800,"station_id":"ce4bha92rcd13ifvqeg0","pricing_plan_id":"cebpf4jnsgd1na2vs0mg"},{"bike_id":"a7ad865c-cbfe-4d9a-9cad-e2f9c23b7496","system_id":"levelo_inurba_marseille","lat":43.289649,"lon":5.36684,"is_reserved":false,"is_disabled":false,"rental_uris":{"android":"levelo://app?vid=a7ad865c-cbfe-4d9a-9cad-e2f9c23b7496","ios":"levelo://app?vid=a7ad865c-cbfe-4d9a-9cad-e2f9c23b7496"},"vehicle_type_id":"4","last_reported":1712163965,"current_range_meters":4400,"station_id":"ce4bhap2rcd13ifvqek0","pricing_plan_id":"cebpf4jnsgd1na2vs0mg"},{"bike_id":"84076006-3dfa-4940-ba34-d272cfb8e913","system_id":"levelo_inurba_marseille","lat":43.29431,"lon":5.38616,"is_reserved":false,"is_disabled":false,"rental_uris":{"android":"levelo://app?vid=84076006-3dfa-4940-ba34-d272cfb8e913","ios":"levelo://app?vid=84076006-3dfa-4940-ba34-d272cfb8e913"},"vehicle_type_id":"4","last_reported":1712163965,"current_range_meters":12400,"station_id":"ce4bh2h2rcd13ifvqdh0","pricing_plan_id":"cebpf4jnsgd1na2vs0mg"},{"bike_id":"6bdcfc7c-1172-489e-a0d3-efecab6e662b","system_id":"levelo_inurba_marseille","lat":43.294153,"lon":5.386305,"is_reserved":false,"is_disabled":false,"rental_uris":{"android":"levelo://app?vid=6bdcfc7c-1172-489e-a0d3-efecab6e662b","ios":"levelo://app?vid=6bdcfc7c-1172-489e-a0d3-efecab6e662b"},"vehicle_type_id":"4","last_reported":1712163965,"current_range_meters":0,"station_id":"ce4bh2h2rcd13ifvqdh0","pricing_plan_id":"cebpf4jnsgd1na2vs0mg"},{"bike_id":"77daa25f-d20d-4822-bfb2-1e3be74f0979","system_id":"levelo_inurba_marseille","lat":43.294153,"lon":5.386305,"is_reserved":false,"is_disabled":false,"rental_uris":{"android":"levelo://app?vid=77daa25f-d20d-4822-bfb2-1e3be74f0979","ios":"levelo://app?vid=77daa25f-d20d-4822-bfb2-1e3be74f0979"},"vehicle_type_id":"4","last_reported":1712163965,"current_range_meters":9200,"station_id":"ce4bh2h2rcd13ifvqdh0","pricing_plan_id":"cebpf4jnsgd1na2vs0mg"},{"bike_id":"6c17d499-2b3d-4157-bbc6-2486a5da8fbd","system_id":"levelo_inurba_marseille","lat":43.294153,"lon":5.386305,"is_reserved":false,"is_disabled":false,"rental_uris":{"android":"levelo://app?vid=6c17d499-2b3d-4157-bbc6-2486a5da8fbd","ios":"levelo://app?vid=6c17d499-2b3d-4157-bbc6-2486a5da8fbd"},"vehicle_type_id":"4","last_reported":1712163965,"current_range_meters":28000,"station_id":"ce4bh2h2rcd13ifvqdh0","pricing_plan_id":"cebpf4jnsgd1na2vs0mg"},{"bike_id":"11601741-e49a-405a-a12e-0a0052afe477","system_id":"levelo_inurba_marseille","lat":43.29421,"lon":5.3862,"is_reserved":false,"is_disabled":false,"rental_uris":{"android":"levelo://app?vid=11601741-e49a-405a-a12e-0a0052afe477","ios":"levelo://app?vid=11601741-e49a-405a-a12e-0a0052afe477"},"vehicle_type_id":"4","last_reported":1712163965,"current_range_meters":0,"station_id":"ce4bh2h2rcd13ifvqdh0","pricing_plan_id":"cebpf4jnsgd1na2vs0mg"},{"bike_id":"ba14b6c6-efaf-4ec8-b21e-144e89747092","system_id":"levelo_inurba_marseille","lat":43.29423,"lon":5.38625,"is_reserved":false,"is_disabled":false,"rental_uris":{"android":"levelo://app?vid=ba14b6c6-efaf-4ec8-b21e-144e89747092","ios":"levelo://app?vid=ba14b6c6-efaf-4ec8-b21e-144e89747092"},"vehicle_type_id":"4","last_reported":1712163965,"current_range_meters":0,"station_id":"ce4bh2h2rcd13ifvqdh0","pricing_plan_id":"cebpf4jnsgd1na2vs0mg"},{"bike_id":"694daf92-0e6d-4b9d-bfa8-d64419c62af8","system_id":"levelo_inurba_marseille","lat":43.29421,"lon":5.38622,"is_reserved":false,"is_disabled":false,"rental_uris":{"android":"levelo://app?vid=694daf92-0e6d-4b9d-bfa8-d64419c62af8","ios":"levelo://app?vid=694daf92-0e6d-4b9d-bfa8-d64419c62af8"},"vehicle_type_id":"4","last_reported":1712163965,"current_range_meters":16000,"station_id":"ce4bh2h2rcd13ifvqdh0","pricing_plan_id":"cebpf4jnsgd1na2vs0mg"},{"bike_id":"75294633-ddb8-4aef-85d4-14f0de03422c","system_id":"levelo_inurba_marseille","lat":43.29419,"lon":5.38624,"is_reserved":false,"is_disabled":false,"rental_uris":{"android":"levelo://app?vid=75294633-ddb8-4aef-85d4-14f0de03422c","ios":"levelo://app?vid=75294633-ddb8-4aef-85d4-14f0de03422c"},"vehicle_type_id":"4","last_reported":1712163965,"current_range_meters":0,"station_id":"ce4bh2h2rcd13ifvqdh0","pricing_plan_id":"cebpf4jnsgd1na2vs0mg"},{"bike_id":"384a1c4b-cc67-4aff-bbca-1eac55612ace","system_id":"levelo_inurba_marseille","lat":43.29419,"lon":5.38625,"is_reserved":false,"is_disabled":false,"rental_uris":{"android":"levelo://app?vid=384a1c4b-cc67-4aff-bbca-1eac55612ace","ios":"levelo://app?vid=384a1c4b-cc67-4aff-bbca-1eac55612ace"},"vehicle_type_id":"4","last_reported":1712163965,"current_range_meters":0,"station_id":"ce4bh2h2rcd13ifvqdh0","pricing_plan_id":"cebpf4jnsgd1na2vs0mg"},{"bike_id":"dbefea97-c997-44e0-ac45-515a8e4ae921","system_id":"levelo_inurba_marseille","lat":43.289184,"lon":5.366408,"is_reserved":false,"is_disabled":false,"rental_uris":{"android":"levelo://app?vid=dbefea97-c997-44e0-ac45-515a8e4ae921","ios":"levelo://app?vid=dbefea97-c997-44e0-ac45-515a8e4ae921"},"vehicle_type_id":"4","last_reported":1712163965,"current_range_meters":9200,"station_id":"ce4bhap2rcd13ifvqek0","pricing_plan_id":"cebpf4jnsgd1na2vs0mg"},{"bike_id":"94beaf5d-7403-483d-b578-138efff8a813","system_id":"levelo_inurba_marseille","lat":43.2942,"lon":5.38627,"is_reserved":false,"is_disabled":false,"rental_uris":{"android":"levelo://app?vid=94beaf5d-7403-483d-b578-138efff8a813","ios":"levelo://app?vid=94beaf5d-7403-483d-b578-138efff8a813"},"vehicle_type_id":"4","last_reported":1712163965,"current_range_meters":13600,"station_id":"ce4bh2h2rcd13ifvqdh0","pricing_plan_id":"cebpf4jnsgd1na2vs0mg"},{"bike_id":"80d1b659-f88a-4df7-bc24-f91063f6eef0","system_id":"levelo_inurba_marseille","lat":43.289184,"lon":5.366408,"is_reserved":false,"is_disabled":false,"rental_uris":{"android":"levelo://app?vid=80d1b659-f88a-4df7-bc24-f91063f6eef0","ios":"levelo://app?vid=80d1b659-f88a-4df7-bc24-f91063f6eef0"},"vehicle_type_id":"4","last_reported":1712163965,"current_range_meters":4400,"station_id":"ce4bhap2rcd13ifvqek0","pricing_plan_id":"cebpf4jnsgd1na2vs0mg"},{"bike_id":"c13cf45c-115b-4a7c-923e-df5595177965","system_id":"levelo_inurba_marseille","lat":43.29417,"lon":5.38625,"is_reserved":false,"is_disabled":false,"rental_uris":{"android":"levelo://app?vid=c13cf45c-115b-4a7c-923e-df5595177965","ios":"levelo://app?vid=c13cf45c-115b-4a7c-923e-df5595177965"},"vehicle_type_id":"4","last_reported":1712163965,"current_range_meters":24000,"station_id":"ce4bh2h2rcd13ifvqdh0","pricing_plan_id":"cebpf4jnsgd1na2vs0mg"},{"bike_id":"949d4e5f-7b3a-4f14-a90a-ce98cbf0aad0","system_id":"levelo_inurba_marseille","lat":43.29419,"lon":5.3863,"is_reserved":false,"is_disabled":false,"rental_uris":{"android":"levelo://app?vid=949d4e5f-7b3a-4f14-a90a-ce98cbf0aad0","ios":"levelo://app?vid=949d4e5f-7b3a-4f14-a90a-ce98cbf0aad0"},"vehicle_type_id":"4","last_reported":1712163965,"current_range_meters":26400,"station_id":"ce4bh2h2rcd13ifvqdh0","pricing_plan_id":"cebpf4jnsgd1na2vs0mg"},{"bike_id":"c46f44de-5e23-4d8d-8878-fbd278af6197","system_id":"levelo_inurba_marseille","lat":43.2942,"lon":5.38632,"is_reserved":false,"is_disabled":false,"rental_uris":{"android":"levelo://app?vid=c46f44de-5e23-4d8d-8878-fbd278af6197","ios":"levelo://app?vid=c46f44de-5e23-4d8d-8878-fbd278af6197"},"vehicle_type_id":"4","last_reported":1712163965,"current_range_meters":18400,"station_id":"ce4bh2h2rcd13ifvqdh0","pricing_plan_id":"cebpf4jnsgd1na2vs0mg"},{"bike_id":"490f97e1-3e24-4c40-b2eb-e51ca435ca7c","system_id":"levelo_inurba_marseille","lat":43.294153,"lon":5.386305,"is_reserved":false,"is_disabled":false,"rental_uris":{"android":"levelo://app?vid=490f97e1-3e24-4c40-b2eb-e51ca435ca7c","ios":"levelo://app?vid=490f97e1-3e24-4c40-b2eb-e51ca435ca7c"},"vehicle_type_id":"4","last_reported":1712163965,"current_range_meters":0,"station_id":"ce4bh2h2rcd13ifvqdh0","pricing_plan_id":"cebpf4jnsgd1na2vs0mg"},{"bike_id":"66006421-c894-4981-b176-ec9c069f0e0a","system_id":"levelo_inurba_marseille","lat":43.28943,"lon":5.36633,"is_reserved":false,"is_disabled":false,"rental_uris":{"android":"levelo://app?vid=66006421-c894-4981-b176-ec9c069f0e0a","ios":"levelo://app?vid=66006421-c894-4981-b176-ec9c069f0e0a"},"vehicle_type_id":"4","last_reported":1712163965,"current_range_meters":14400,"station_id":"ce4bhap2rcd13ifvqek0","pricing_plan_id":"cebpf4jnsgd1na2vs0mg"},{"bike_id":"2b6cc22b-00fa-459e-880a-36a00e0e3df5","system_id":"levelo_inurba_marseille","lat":43.28943,"lon":5.36632,"is_reserved":false,"is_disabled":false,"rental_uris":{"android":"levelo://app?vid=2b6cc22b-00fa-459e-880a-36a00e0e3df5","ios":"levelo://app?vid=2b6cc22b-00fa-459e-880a-36a00e0e3df5"},"vehicle_type_id":"4","last_reported":1712163965,"current_range_meters":0,"station_id":"ce4bhap2rcd13ifvqek0","pricing_plan_id":"cebpf4jnsgd1na2vs0mg"},{"bike_id":"a57f6b24-34b1-4bd0-9f2b-ea95c9e32138","system_id":"levelo_inurba_marseille","lat":43.294153,"lon":5.386305,"is_reserved":false,"is_disabled":false,"rental_uris":{"android":"levelo://app?vid=a57f6b24-34b1-4bd0-9f2b-ea95c9e32138","ios":"levelo://app?vid=a57f6b24-34b1-4bd0-9f2b-ea95c9e32138"},"vehicle_type_id":"4","last_reported":1712163965,"current_range_meters":12400,"station_id":"ce4bh2h2rcd13ifvqdh0","pricing_plan_id":"cebpf4jnsgd1na2vs0mg"},{"bike_id":"7f2df63b-c362-457f-b050-1743edb33c01","system_id":"levelo_inurba_marseille","lat":43.29416,"lon":5.38631,"is_reserved":false,"is_disabled":false,"rental_uris":{"android":"levelo://app?vid=7f2df63b-c362-457f-b050-1743edb33c01","ios":"levelo://app?vid=7f2df63b-c362-457f-b050-1743edb33c01"},"vehicle_type_id":"4","last_reported":1712163965,"current_range_meters":14800,"station_id":"ce4bh2h2rcd13ifvqdh0","pricing_plan_id":"cebpf4jnsgd1na2vs0mg"},{"bike_id":"9b463b34-9104-491d-a885-90db8d839e0c","system_id":"levelo_inurba_marseille","lat":43.290319,"lon":5.375732,"is_reserved":false,"is_disabled":false,"rental_uris":{"android":"levelo://app?vid=9b463b34-9104-491d-a885-90db8d839e0c","ios":"levelo://app?vid=9b463b34-9104-491d-a885-90db8d839e0c"},"vehicle_type_id":"4","last_reported":1712163965,"current_range_meters":3600,"station_id":"ce4bh692rcd13ifvqe90","pricing_plan_id":"cebpf4jnsgd1na2vs0mg"},{"bike_id":"7527fd8a-cb6d-475b-85a2-6ddac2223e21","system_id":"levelo_inurba_marseille","lat":43.289184,"lon":5.366408,"is_reserved":false,"is_disabled":false,"rental_uris":{"android":"levelo://app?vid=7527fd8a-cb6d-475b-85a2-6ddac2223e21","ios":"levelo://app?vid=7527fd8a-cb6d-475b-85a2-6ddac2223e21"},"vehicle_type_id":"4","last_reported":1712163965,"current_range_meters":0,"station_id":"ce4bhap2rcd13ifvqek0","pricing_plan_id":"cebpf4jnsgd1na2vs0mg"},{"bike_id":"343d759f-d4e8-4aa3-9150-4be712b9acb0","system_id":"levelo_inurba_marseille","lat":43.309076,"lon":5.368465,"is_reserved":false,"is_disabled":false,"rental_uris":{"android":"levelo://app?vid=343d759f-d4e8-4aa3-9150-4be712b9acb0","ios":"levelo://app?vid=343d759f-d4e8-4aa3-9150-4be712b9acb0"},"vehicle_type_id":"4","last_reported":1712163965,"current_range_meters":10400,"station_id":"ce4bgn92rcd13ifvqbvg","pricing_plan_id":"cebpf4jnsgd1na2vs0mg"},{"bike_id":"cff1b143-121f-497a-9b03-129f09885664","system_id":"levelo_inurba_marseille","lat":43.28939,"lon":5.36632,"is_reserved":false,"is_disabled":false,"rental_uris":{"android":"levelo://app?vid=cff1b143-121f-497a-9b03-129f09885664","ios":"levelo://app?vid=cff1b143-121f-497a-9b03-129f09885664"},"vehicle_type_id":"4","last_reported":1712163965,"current_range_meters":1200,"station_id":"ce4bhap2rcd13ifvqek0","pricing_plan_id":"cebpf4jnsgd1na2vs0mg"},{"bike_id":"26effc21-2a0e-419e-a5cf-eeb38556bc4a","system_id":"levelo_inurba_marseille","lat":43.289184,"lon":5.366408,"is_reserved":false,"is_disabled":false,"rental_uris":{"android":"levelo://app?vid=26effc21-2a0e-419e-a5cf-eeb38556bc4a","ios":"levelo://app?vid=26effc21-2a0e-419e-a5cf-eeb38556bc4a"},"vehicle_type_id":"4","last_reported":1712163965,"current_range_meters":27600,"station_id":"ce4bhap2rcd13ifvqek0","pricing_plan_id":"cebpf4jnsgd1na2vs0mg"},{"bike_id":"587b261e-3ff0-4959-ae40-d8e495f75cda","system_id":"levelo_inurba_marseille","lat":43.28935,"lon":5.36635,"is_reserved":false,"is_disabled":false,"rental_uris":{"android":"levelo://app?vid=587b261e-3ff0-4959-ae40-d8e495f75cda","ios":"levelo://app?vid=587b261e-3ff0-4959-ae40-d8e495f75cda"},"vehicle_type_id":"4","last_reported":1712163965,"current_range_meters":0,"station_id":"ce4bhap2rcd13ifvqek0","pricing_plan_id":"cebpf4jnsgd1na2vs0mg"},{"bike_id":"6d5a5d4f-3152-4029-9523-59f3b8294ac0","system_id":"levelo_inurba_marseille","lat":43.290103,"lon":5.356114,"is_reserved":false,"is_disabled":false,"rental_uris":{"android":"levelo://app?vid=6d5a5d4f-3152-4029-9523-59f3b8294ac0","ios":"levelo://app?vid=6d5a5d4f-3152-4029-9523-59f3b8294ac0"},"vehicle_type_id":"4","last_reported":1712163965,"current_range_meters":8400,"station_id":"ce4bhb92rcd13ifvqen0","pricing_plan_id":"cebpf4jnsgd1na2vs0mg"},{"bike_id":"630315ce-cd4f-421e-bfea-1b6b7b6d24df","system_id":"levelo_inurba_marseille","lat":43.290631,"lon":5.359244,"is_reserved":false,"is_disabled":false,"rental_uris":{"android":"levelo://app?vid=630315ce-cd4f-421e-bfea-1b6b7b6d24df","ios":"levelo://app?vid=630315ce-cd4f-421e-bfea-1b6b7b6d24df"},"vehicle_type_id":"4","last_reported":1712163965,"current_range_meters":1600,"station_id":"ce4bha92rcd13ifvqeg0","pricing_plan_id":"cebpf4jnsgd1na2vs0mg"},{"bike_id":"685fe059-aba9-4e2a-bcee-992383d78a52","system_id":"levelo_inurba_marseille","lat":43.292644,"lon":5.384257,"is_reserved":false,"is_disabled":false,"rental_uris":{"android":"levelo://app?vid=685fe059-aba9-4e2a-bcee-992383d78a52","ios":"levelo://app?vid=685fe059-aba9-4e2a-bcee-992383d78a52"},"vehicle_type_id":"4","last_reported":1712163965,"current_range_meters":24800,"station_id":"ce4bh692rcd13ifvqea0","pricing_plan_id":"cebpf4jnsgd1na2vs0mg"},