{"last_updated":1687526217,"ttl":30,"version":"2.2","data":{"bikes":[{"bike_id":"6af3ddd3-abe5-4014-930d-8bc2eb738f55","system_id":"levelo_inurba_marseille","lat":43.31333,"lon":5.36721,"is_reserved":false,"is_disabled":false,"rental_uris":{"android":"levelo://app?vid=6af3ddd3-abe5-4014-930d-8bc2eb738f55","ios":"levelo://app?vid=6af3ddd3-abe5-4014-930d-8bc2eb738f55"},"vehicle_type_id":"4","last_reported":1687526218,"current_range_meters":31200,"station_id":"ce4bgr92rcd13ifvqc6g","pricing_plan_id":"free"},{"bike_id":"e174d5f0-b6c8-4dda-a820-d2e61e69de13","system_id":"levelo_inurba_marseille","lat":43.31341,"lon":5.367098,"is_reserved":false,"is_disabled":false,"rental_uris":{"android":"levelo://app?vid=e174d5f0-b6c8-4dda-a820-d2e61e69de13","ios":"levelo://app?vid=e174d5f0-b6c8-4dda-a820-d2e61e69de13"},"vehicle_type_id":"4","last_reported":1687526218,"current_range_meters":31200,"station_id":"ce4bgr92rcd13ifvqc6g","pricing_plan_id":"free"},{"bike_id":"d4332dc1-ca7f-47c1-8251-6fc28249a3b4","system_id":"levelo_inurba_marseille","lat":43.313391,"lon":5.36706,"is_reserved":false,"is_disabled":false,"rental_uris":{"android":"levelo://app?vid=d4332dc1-ca7f-47c1-8251-6fc28249a3b4","ios":"levelo://app?vid=d4332dc1-ca7f-47c1-8251-6fc28249a3b4"},"vehicle_type_id":"4","last_reported":1687526218,"current_range_meters":31200,"station_id":"ce4bgr92rcd13ifvqc6g","pricing_plan_id":"free"},{"bike_id":"15c62054-955a-4820-982e-5c2322ea45bf","system_id":"levelo_inurba_marseille","lat":43.313391,"lon":5.36706,"is_reserved":false,"is_disabled":false,"rental_uris":{"android":"levelo://app?vid=15c62054-955a-4820-982e-5c2322ea45bf","ios":"levelo://app?vid=15c62054-955a-4820-982e-5c2322ea45bf"},"vehicle_type_id":"4","last_reported":1687526218,"current_range_meters":31200,"station_id":"ce4bgr92rcd13ifvqc6g","pricing_plan_id":"free"},{"bike_id":"0550341a-124c-4d98-bbe2-ecab3fc28f99","system_id":"levelo_inurba_marseille","lat":43.313391,"lon":5.36706,"is_reserved":false,"is_disabled":false,"rental_uris":{"android":"levelo://app?vid=0550341a-124c-4d98-bbe2-ecab3fc28f99","ios":"levelo://app?vid=0550341a-124c-4d98-bbe2-ecab3fc28f99"},"vehicle_type_id":"4","last_reported":1687526218,"current_range_meters":31200,"station_id":"ce4bgr92rcd13ifvqc6g","pricing_plan_id":"free"},{"bike_id":"4953f328-3844-4770-9687-adbaf569325c","system_id":"levelo_inurba_marseille","lat":43.31341,"lon":5.367098,"is_reserved":false,"is_disabled":false,"rental_uris":{"android":"levelo://app?vid=4953f328-3844-4770-9687-adbaf569325c","ios":"levelo://app?vid=4953f328-3844-4770-9687-adbaf569325c"},"vehicle_type_id":"4","last_reported":1687526218,"current_range_meters":31200,"station_id":"ce4bgr92rcd13ifvqc6g","pricing_plan_id":"free"},{"bike_id":"561dae15-b950-41f4-8280-62512ee198df","system_id":"levelo_inurba_marseille","lat":43.313391,"lon":5.36706,"is_reserved":false,"is_disabled":false,"rental_uris":{"android":"levelo://app?vid=561dae15-b950-41f4-8280-62512ee198df","ios":"levelo://app?vid=561dae15-b950-41f4-8280-62512ee198df"},"vehicle_type_id":"4","last_reported":1687526218,"current_range_meters":31200,"station_id":"ce4bgr92rcd13ifvqc6g","pricing_plan_id":"free"},{"bike_id":"da27ef06-e496-483e-a44e-da458b2936ad","system_id":"levelo_inurba_marseille","lat":43.312239,"lon":5.368562,"is_reserved":false,"is_disabled":false,"rental_uris":{"android":"levelo://app?vid=da27ef06-e496-483e-a44e-da458b2936ad","ios":"levelo://app?vid=da27ef06-e496-483e-a44e-da458b2936ad"},"vehicle_type_id":"4","last_reported":1687526218,"current_range_meters":27600,"station_id":"ce4bgl92rcd13ifvqbq0","pricing_plan_id":"free"},{"bike_id":"b32a7c5a-730f-4878-9abb-bb5c9c8313b4","system_id":"levelo_inurba_marseille","lat":43.312239,"lon":5.368562,"is_reserved":false,"is_disabled":false,"rental_uris":{"android":"levelo://app?vid=b32a7c5a-730f-4878-9abb-bb5c9c8313b4","ios":"levelo://app?vid=b32a7c5a-730f-4878-9abb-bb5c9c8313b4"},"vehicle_type_id":"4","last_reported":1687526218,"current_range_meters":28800,"station_id":"ce4bgl92rcd13ifvqbq0","pricing_plan_id":"free"},{"bike_id":"ea71a115-2106-4ab6-ac22-d81861c85c8f","system_id":"levelo_inurba_marseille","lat":43.312239,"lon":5.368562,"is_reserved":false,"is_disabled":false,"rental_uris":{"android":"levelo://app?vid=ea71a115-2106-4ab6-ac22-d81861c85c8f","ios":"levelo://app?vid=ea71a115-2106-4ab6-ac22-d81861c85c8f"},"vehicle_type_id":"4","last_reported":1687526218,"current_range_meters":23200,"station_id":"ce4bgl92rcd13ifvqbq0","pricing_plan_id":"free"},{"bike_id":"2cfa4f4f-0793-4835-ab20-166eef1a67fe","system_id":"levelo_inurba_marseille","lat":43.312239,"lon":5.368562,"is_reserved":false,"is_disabled":false,"rental_uris":{"android":"levelo://app?vid=2cfa4f4f-0793-4835-ab20-166eef1a67fe","ios":"levelo://app?vid=2cfa4f4f-0793-4835-ab20-166eef1a67fe"},"vehicle_type_id":"4","last_reported":1687526218,"current_range_meters":29200,"station_id":"ce4bgl92rcd13ifvqbq0","pricing_plan_id":"free"},{"bike_id":"6f4d7d39-70c9-4f48-8419-65d9aad33622","system_id":"levelo_inurba_marseille","lat":43.312239,"lon":5.368562,"is_reserved":false,"is_disabled":false,"rental_uris":{"android":"levelo://app?vid=6f4d7d39-70c9-4f48-8419-65d9aad33622","ios":"levelo://app?vid=6f4d7d39-70c9-4f48-8419-65d9aad33622"},"vehicle_type_id":"4","last_reported":1687526218,"current_range_meters":31200,"station_id":"ce4bgl92rcd13ifvqbq0","pricing_plan_id":"free"},{"bike_id":"94bbd703-05c6-4c29-81e0-a61dba6de954","system_id":"levelo_inurba_marseille","lat":43.314811,"lon":5.373103,"is_reserved":false,"is_disabled":false,"rental_uris":{"android":"levelo://app?vid=94bbd703-05c6-4c29-81e0-a61dba6de954","ios":"levelo://app?vid=94bbd703-05c6-4c29-81e0-a61dba6de954"},"vehicle_type_id":"4","last_reported":1687526218,"current_range_meters":30400,"station_id":"ce4bgt12rcd13ifvqcd0","pricing_plan_id":"free"},{"bike_id":"e4af3def-dd46-429d-ae8a-78e6638db1af","system_id":"levelo_inurba_marseille","lat":43.314811,"lon":5.373104,"is_reserved":false,"is_disabled":false,"rental_uris":{"android":"levelo://app?vid=e4af3def-dd46-429d-ae8a-78e6638db1af","ios":"levelo://app?vid=e4af3def-dd46-429d-ae8a-78e6638db1af"},"vehicle_type_id":"4","last_reported":1687526218,"current_range_meters":19200,"station_id":"ce4bgt12rcd13ifvqcd0","pricing_plan_id":"free"},{"bike_id":"882ccbbc-a513-4048-8cde-cbff26bb186c","system_id":"levelo_inurba_marseille","lat":43.305706,"lon":5.365654,"is_reserved":false,"is_disabled":false,"rental_uris":{"android":"levelo://app?vid=882ccbbc-a513-4048-8cde-cbff26bb186c","ios":"levelo://app?vid=882ccbbc-a513-4048-8cde-cbff26bb186c"},"vehicle_type_id":"4","last_reported":1687526218,"current_range_meters":22800,"station_id":"ce4bgs12rcd13ifvqcag","pricing_plan_id":"free"},{"bike_id":"e22f29dd-3df3-4db1-8659-1bf556ccd486","system_id":"levelo_inurba_marseille","lat":43.30539,"lon":5.36549,"is_reserved":false,"is_disabled":false,"rental_uris":{"android":"levelo://app?vid=e22f29dd-3df3-4db1-8659-1bf556ccd486","ios":"levelo://app?vid=e22f29dd-3df3-4db1-8659-1bf556ccd486"},"vehicle_type_id":"4","last_reported":1687526218,"current_range_meters":18000,"station_id":"ce4bgs12rcd13ifvqcag","pricing_plan_id":"free"},{"bike_id":"6384484c-afad-44e1-968e-772aaf7500ca","system_id":"levelo_inurba_marseille","lat":43.317075,"lon":5.377367,"is_reserved":false,"is_disabled":false,"rental_uris":{"android":"levelo://app?vid=6384484c-afad-44e1-968e-772aaf7500ca","ios":"levelo://app?vid=6384484c-afad-44e1-968e-772aaf7500ca"},"vehicle_type_id":"4","last_reported":1687526218,"current_range_meters":28000,"station_id":"ce4bgth2rcd13ifvqch0","pricing_plan_id":"free"},{"bike_id":"d62fa829-a3f5-4b14-bbcc-ae87f96e69df","system_id":"levelo_inurba_marseille","lat":43.303046,"lon":5.368981,"is_reserved":false,"is_disabled":false,"rental_uris":{"android":"levelo://app?vid=d62fa829-a3f5-4b14-bbcc-ae87f96e69df","ios":"levelo://app?vid=d62fa829-a3f5-4b14-bbcc-ae87f96e69df"},"vehicle_type_id":"4","last_reported":1687526218,"current_range_meters":24400,"station_id":"ce4bgqh2rcd13ifvqc5g","pricing_plan_id":"free"},{"bike_id":"349b977d-ce67-426d-b074-d36b878ea16c","system_id":"levelo_inurba_marseille","lat":43.303046,"lon":5.368981,"is_reserved":false,"is_disabled":false,"rental_uris":{"android":"levelo://app?vid=349b977d-ce67-426d-b074-d36b878ea16c","ios":"levelo://app?vid=349b977d-ce67-426d-b074-d36b878ea16c"},"vehicle_type_id":"4","last_reported":1687526218,"current_range_meters":4800,"station_id":"ce4bgqh2rcd13ifvqc5g","pricing_plan_id":"free"},{"bike_id":"9228df72-f11a-4bc7-ae5a-091ca8c4bcc8","system_id":"levelo_inurba_marseille","lat":43.30297,"lon":5.36911,"is_reserved":false,"is_disabled":false,"rental_uris":{"android":"levelo://app?vid=9228df72-f11a-4bc7-ae5a-091ca8c4bcc8","ios":"levelo://app?vid=9228df72-f11a-4bc7-ae5a-091ca8c4bcc8"},"vehicle_type_id":"4","last_reported":1687526218,"current_range_meters":25600,"station_id":"","pricing_plan_id":"free"},{"bike_id":"0e13cf0b-c678-4782-9343-57fb02171a73","system_id":"levelo_inurba_marseille","lat":43.31533,"lon":5.38035,"is_reserved":false,"is_disabled":false,"rental_uris":{"android":"levelo://app?vid=0e13cf0b-c678-4782-9343-57fb02171a73","ios":"levelo://app?vid=0e13cf0b-c678-4782-9343-57fb02171a73"},"vehicle_type_id":"4","last_reported":1687526218,"current_range_meters":29200,"station_id":"ce4bhsp2rcd13ifvqi50","pricing_plan_id":"free"},{"bike_id":"7333842c-3fe4-432e-8cfc-b6ce4f0247a5","system_id":"levelo_inurba_marseille","lat":43.30235,"lon":5.36794,"is_reserved":false,"is_disabled":false,"rental_uris":{"android":"levelo://app?vid=7333842c-3fe4-432e-8cfc-b6ce4f0247a5","ios":"levelo://app?vid=7333842c-3fe4-432e-8cfc-b6ce4f0247a5"},"vehicle_type_id":"4","last_reported":1687526218,"current_range_meters":0,"station_id":"","pricing_plan_id":"free"},{"bike_id":"072dec39-6ec7-4dd6-a112-40971bd277f9","system_id":"levelo_inurba_marseille","lat":43.30195,"lon":5.36718,"is_reserved":false,"is_disabled":false,"rental_uris":{"android":"levelo://app?vid=072dec39-6ec7-4dd6-a112-40971bd277f9","ios":"levelo://app?vid=072dec39-6ec7-4dd6-a112-40971bd277f9"},"vehicle_type_id":"4","last_reported":1687526218,"current_range_meters":26000,"station_id":"","pricing_plan_id":"free"},{"bike_id":"7aba2d4a-7151-44ac-a276-aea3af619fdd","system_id":"levelo_inurba_marseille","lat":43.308012,"lon":5.381511,"is_reserved":false,"is_disabled":false,"rental_uris":{"android":"levelo://app?vid=7aba2d4a-7151-44ac-a276-aea3af619fdd","ios":"levelo://app?vid=7aba2d4a-7151-44ac-a276-aea3af619fdd"},"vehicle_type_id":"4","last_reported":1687526218,"current_range_meters":28800,"station_id":"ce4bgt12rcd13ifvqce0","pricing_plan_id":"free"},{"bike_id":"c98c824a-5a21-41d7-a2b3-cfad705b7985","system_id":"levelo_inurba_marseille","lat":43.292642,"lon":5.384254,"is_reserved":false,"is_disabled":false,"rental_uris":{"android":"levelo://app?vid=c98c824a-5a21-41d7-a2b3-cfad705b7985","ios":"levelo://app?vid=c98c824a-5a21-41d7-a2b3-cfad705b7985"},"vehicle_type_id":"4","last_reported":1687526218,"current_range_meters":0,"station_id":"ce4bh692rcd13ifvqea0","pricing_plan_id":"free"},{"bike_id":"c6bd24bc-4722-4ab9-adf6-e23b44ad006c","system_id":"levelo_inurba_marseille","lat":43.304606,"lon":5.379026,"is_reserved":false,"is_disabled":false,"rental_uris":{"android":"levelo://app?vid=c6bd24bc-4722-4ab9-adf6-e23b44ad006c","ios":"levelo://app?vid=c6bd24bc-4722-4ab9-adf6-e23b44ad006c"},"vehicle_type_id":"4","last_reported":1687526218,"current_range_meters":29600,"station_id":"ce4bgup2rcd13ifvqcn0","pricing_plan_id":"free"},{"bike_id":"e90b0331-0e11-4fb8-a34e-3a6d48b76e7e","system_id":"levelo_inurba_marseille","lat":43.304606,"lon":5.379026,"is_reserved":false,"is_disabled":false,"rental_uris":{"android":"levelo://app?vid=e90b0331-0e11-4fb8-a34e-3a6d48b76e7e","ios":"levelo://app?vid=e90b0331-0e11-4fb8-a34e-3a6d48b76e7e"},"vehicle_type_id":"4","last_reported":1687526218,"current_range_meters":29600,"station_id":"ce4bgup2rcd13ifvqcn0","pricing_plan_id":"free"},{"bike_id":"de2cee6c-67e5-4a09-a122-35b3fba950e4","system_id":"levelo_inurba_marseille","lat":43.304606,"lon":5.379026,"is_reserved":false,"is_disabled":false,"rental_uris":{"android":"levelo://app?vid=de2cee6c-67e5-4a09-a122-35b3fba950e4","ios":"levelo://app?vid=de2cee6c-67e5-4a09-a122-35b3fba950e4"},"vehicle_type_id":"4","last_reported":1687526218,"current_range_meters":24000,"station_id":"ce4bgup2rcd13ifvqcn0","pricing_plan_id":"free"},{"bike_id":"43fc693e-f2a9-4aec-8fd9-d094bb02cb70","system_id":"levelo_inurba_marseille","lat":43.304606,"lon":5.379026,"is_reserved":false,"is_disabled":false,"rental_uris":{"android":"levelo://app?vid=43fc693e-f2a9-4aec-8fd9-d094bb02cb70","ios":"levelo://app?vid=43fc693e-f2a9-4aec-8fd9-d094bb02cb70"},"vehicle_type_id":"4","last_reported":1687526218,"current_range_meters":0,"station_id":"ce4bgup2rcd13ifvqcn0","pricing_plan_id":"free"},{"bike_id":"c7567b61-2e69-4b16-b23f-0ae6df1fa2d5","system_id":"levelo_inurba_marseille","lat":43.304606,"lon":5.379026,"is_reserved":false,"is_disabled":false,"rental_uris":{"android":"levelo://app?vid=c7567b61-2e69-4b16-b23f-0ae6df1fa2d5","ios":"levelo://app?vid=c7567b61-2e69-4b16-b23f-0ae6df1fa2d5"},"vehicle_type_id":"4","last_reported":1687526218,"current_range_meters":30000,"station_id":"ce4bgup2rcd13ifvqcn0","pricing_plan_id":"free"},{"bike_id":"dda37d75-9c76-4f58-b9e0-f1f334e036df","system_id":"levelo_inurba_marseille","lat":43.30146,"lon":5.37418,"is_reserved":false,"is_disabled":false,"rental_uris":{"android":"levelo://app?vid=dda37d75-9c76-4f58-b9e0-f1f334e036df","ios":"levelo://app?vid=dda37d75-9c76-4f58-b9e0-f1f334e036df"},"vehicle_type_id":"4","last_reported":1687526218,"current_range_meters":5200,"station_id":"ce4bgs92rcd13ifvqcc0","pricing_plan_id":"free"},{"bike_id":"a09451eb-42c1-4a74-8881-72ed5f72d08a","system_id":"levelo_inurba_marseille","lat":43.30143,"lon":5.37414,"is_reserved":false,"is_disabled":false,"rental_uris":{"android":"levelo://app?vid=a09451eb-42c1-4a74-8881-72ed5f72d08a","ios":"levelo://app?vid=a09451eb-42c1-4a74-8881-72ed5f72d08a"},"vehicle_type_id":"4","last_reported":1687526218,"current_range_meters":23200,"station_id":"ce4bgs92rcd13ifvqcc0","pricing_plan_id":"free"},{"bike_id":"62eaa1b4-bd00-4701-ac08-383f49a335e3","system_id":"levelo_inurba_marseille","lat":43.30139,"lon":5.3742,"is_reserved":false,"is_disabled":false,"rental_uris":{"android":"levelo://app?vid=62eaa1b4-bd00-4701-ac08-383f49a335e3","ios":"levelo://app?vid=62eaa1b4-bd00-4701-ac08-383f49a335e3"},"vehicle_type_id":"4","last_reported":1687526218,"current_range_meters":4000,"station_id":"ce4bgs92rcd13ifvqcc0","pricing_plan_id":"free"},{"bike_id":"8cbdd025-c300-4102-8aa3-1a382a79337f","system_id":"levelo_inurba_marseille","lat":43.30137,"lon":5.37415,"is_reserved":false,"is_disabled":false,"rental_uris":{"android":"levelo://app?vid=8cbdd025-c300-4102-8aa3-1a382a79337f","ios":"levelo://app?vid=8cbdd025-c300-4102-8aa3-1a382a79337f"},"vehicle_type_id":"4","last_reported":1687526218,"current_range_meters":18000,"station_id":"ce4bgs92rcd13ifvqcc0","pricing_plan_id":"free"},{"bike_id":"0b03bed2-85b6-43ba-8a36-33c78d25df6b","system_id":"levelo_inurba_marseille","lat":43.30683,"lon":5.38243,"is_reserved":false,"is_disabled":false,"rental_uris":{"android":"levelo://app?vid=0b03bed2-85b6-43ba-8a36-33c78d25df6b","ios":"levelo://app?vid=0b03bed2-85b6-43ba-8a36-33c78d25df6b"},"vehicle_type_id":"4","last_reported":1687526218,"current_range_meters":29600,"station_id":"","pricing_plan_id":"free"},{"bike_id":"401534d5-6681-4837-8f97-499cb4d5722a","system_id":"levelo_inurba_marseille","lat":43.300144,"lon":5.369806,"is_reserved":false,"is_disabled":false,"rental_uris":{"android":"levelo://app?vid=401534d5-6681-4837-8f97-499cb4d5722a","ios":"levelo://app?vid=401534d5-6681-4837-8f97-499cb4d5722a"},"vehicle_type_id":"4","last_reported":1687526218,"current_range_meters":4800,"station_id":"","pricing_plan_id":"free"},{"bike_id":"cc7ccaed-aeac-4fb6-a249-e3eec1cb8751","system_id":"levelo_inurba_marseille","lat":43.32227,"lon":5.379,"is_reserved":false,"is_disabled":false,"rental_uris":{"android":"levelo://app?vid=cc7ccaed-aeac-4fb6-a249-e3eec1cb8751","ios":"levelo://app?vid=cc7ccaed-aeac-4fb6-a249-e3eec1cb8751"},"vehicle_type_id":"4","last_reported":1687526218,"current_range_meters":27200,"station_id":"","pricing_plan_id":"free"},{"bike_id":"f8f87109-08b2-4d6a-81d3-4a0800e91ad2","system_id":"levelo_inurba_marseille","lat":43.313571,"lon":5.384829,"is_reserved":false,"is_disabled":false,"rental_uris":{"android":"levelo://app?vid=f8f87109-08b2-4d6a-81d3-4a0800e91ad2","ios":"levelo://app?vid=f8f87109-08b2-4d6a-81d3-4a0800e91ad2"},"vehicle_type_id":"4","last_reported":1687526218,"current_range_meters":28800,"station_id":"ce4bgt92rcd13ifvqcf0","pricing_plan_id":"free"},{"bike_id":"5560cbc5-8702-45d2-a9a5-6a4adc8f605f","system_id":"levelo_inurba_marseille","lat":43.299222,"lon":5.365554,"is_reserved":false,"is_disabled":false,"rental_uris":{"android":"levelo://app?vid=5560cbc5-8702-45d2-a9a5-6a4adc8f605f","ios":"levelo://app?vid=5560cbc5-8702-45d2-a9a5-6a4adc8f605f"},"vehicle_type_id":"4","last_reported":1687526218,"current_range_meters":27200,"station_id":"ce4bgm92rcd13ifvqbr0","pricing_plan_id":"free"},{"bike_id":"f63172e1-4fa4-4101-a4d5-639fd313cf2a","system_id":"levelo_inurba_marseille","lat":43.299222,"lon":5.365554,"is_reserved":false,"is_disabled":false,"rental_uris":{"android":"levelo://app?vid=f63172e1-4fa4-4101-a4d5-639fd313cf2a","ios":"levelo://app?vid=f63172e1-4fa4-4101-a4d5-639fd313cf2a"},"vehicle_type_id":"4","last_reported":1687526218,"current_range_meters":17600,"station_id":"ce4bgm92rcd13ifvqbr0","pricing_plan_id":"free"},{"bike_id":"8b313ab1-7fe5-4e24-b4a0-b82684e870c9","system_id":"levelo_inurba_marseille","lat":43.299222,"lon":5.365554,"is_reserved":false,"is_disabled":false,"rental_uris":{"android":"levelo://app?vid=8b313ab1-7fe5-4e24-b4a0-b82684e870c9","ios":"levelo://app?vid=8b313ab1-7fe5-4e24-b4a0-b82684e870c9"},"vehicle_type_id":"4","last_reported":1687526218,"current_range_meters":29200,"station_id":"ce4bgm92rcd13ifvqbr0","pricing_plan_id":"free"},{"bike_id":"94d75c80-2aeb-4d9f-b70f-4747abec3082","system_id":"levelo_inurba_marseille","lat":43.299222,"lon":5.365554,"is_reserved":false,"is_disabled":false,"rental_uris":{"android":"levelo://app?vid=94d75c80-2aeb-4d9f-b70f-4747abec3082","ios":"levelo://app?vid=94d75c80-2aeb-4d9f-b70f-4747abec3082"},"vehicle_type_id":"4","last_reported":1687526218,"current_range_meters":16000,"station_id":"ce4bgm92rcd13ifvqbr0","pricing_plan_id":"free"},{"bike_id":"4d9ebda9-288b-4530-8d67-d024043fe033","system_id":"levelo_inurba_marseille","lat":43.299222,"lon":5.365554,"is_reserved":false,"is_disabled":false,"rental_uris":{"android":"levelo://app?vid=4d9ebda9-288b-4530-8d67-d024043fe033","ios":"levelo://app?vid=4d9ebda9-288b-4530-8d67-d024043fe033"},"vehicle_type_id":"4","last_reported":1687526218,"current_range_meters":28800,"station_id":"ce4bgm92rcd13ifvqbr0","pricing_plan_id":"free"},{"bike_id":"249f3a92-b855-40b2-a47e-c79ddb144970","system_id":"levelo_inurba_marseille","lat":43.299222,"lon":5.365554,"is_reserved":false,"is_disabled":false,"rental_uris":{"android":"levelo://app?vid=249f3a92-b855-40b2-a47e-c79ddb144970","ios":"levelo://app?vid=249f3a92-b855-40b2-a47e-c79ddb144970"},"vehicle_type_id":"4","last_reported":1687526218,"current_range_meters":29200,"station_id":"ce4bgm92rcd13ifvqbr0","pricing_plan_id":"free"},{"bike_id":"42163b7f-29cc-4eec-a874-06cc694742d6","system_id":"levelo_inurba_marseille","lat":43.299222,"lon":5.365554,"is_reserved":false,"is_disabled":false,"rental_uris":{"android":"levelo://app?vid=42163b7f-29cc-4eec-a874-06cc694742d6","ios":"levelo://app?vid=42163b7f-29cc-4eec-a874-06cc694742d6"},"vehicle_type_id":"4","last_reported":1687526218,"current_range_meters":27600,"station_id":"ce4bgm92rcd13ifvqbr0","pricing_plan_id":"free"},{"bike_id":"55258237-a6be-4d30-b8fb-e235b20d907f","system_id":"levelo_inurba_marseille","lat":43.299222,"lon":5.365554,"is_reserved":false,"is_disabled":false,"rental_uris":{"android":"levelo://app?vid=55258237-a6be-4d30-b8fb-e235b20d907f","ios":"levelo://app?vid=55258237-a6be-4d30-b8fb-e235b20d907f"},"vehicle_type_id":"4","last_reported":1687526218,"current_range_meters":18000,"station_id":"ce4bgm92rcd13ifvqbr0","pricing_plan_id":"free"},{"bike_id":"c93e99f5-957b-42c3-973f-4e2b088013d9","system_id":"levelo_inurba_marseille","lat":43.299222,"lon":5.365554,"is_reserved":false,"is_disabled":false,"rental_uris":{"android":"levelo://app?vid=c93e99f5-957b-42c3-973f-4e2b088013d9","ios":"levelo://app?vid=c93e99f5-957b-42c3-973f-4e2b088013d9"},"vehicle_type_id":"4","last_reported":1687526218,"current_range_meters":31200,"station_id":"ce4bgm92rcd13ifvqbr0","pricing_plan_id":"free"},{"bike_id":"7281b72a-70f0-4b2d-85a6-32baa78662d8","system_id":"levelo_inurba_marseille","lat":43.299222,"lon":5.365554,"is_reserved":false,"is_disabled":false,"rental_uris":{"android":"levelo://app?vid=7281b72a-70f0-4b2d-85a6-32baa78662d8","ios":"levelo://app?vid=7281b72a-70f0-4b2d-85a6-32baa78662d8"},"vehicle_type_id":"4","last_reported":1687526218,"current_range_meters":26000,"station_id":"ce4bgm92rcd13ifvqbr0","pricing_plan_id":"free"},{"bike_id":"94796ca0-a760-45cb-9eb2-fe600d934b23","system_id":"levelo_inurba_marseille","lat":43.299222,"lon":5.365554,"is_reserved":false,"is_disabled":false,"rental_uris":{"android":"levelo://app?vid=94796ca0-a760-45cb-9eb2-fe600d934b23","ios":"levelo://app?vid=94796ca0-a760-45cb-9eb2-fe600d934b23"},"vehicle_type_id":"4","last_reported":1687526218,"current_range_meters":30800,"station_id":"ce4bgm92rcd13ifvqbr0","pricing_plan_id":"free"},{"bike_id":"5fe51217-7aca-4599-a058-8446b9e47b13","system_id":"levelo_inurba_marseille","lat":43.299222,"lon":5.365554,"is_reserved":false,"is_disabled":false,"rental_uris":{"android":"levelo://app?vid=5fe51217-7aca-4599-a058-8446b9e47b13","ios":"levelo://app?vid=5fe51217-7aca-4599-a058-8446b9e47b13"},"vehicle_type_id":"4","last_reported":1687526218,"current_range_meters":10000,"station_id":"ce4bgm92rcd13ifvqbr0","pricing_plan_id":"free"},{"bike_id":"2f3fae66-cb81-4b6d-9664-d56ef79a3ccb","system_id":"levelo_inurba_marseille","lat":43.299222,"lon":5.365554,"is_reserved":false,"is_disabled":false,"rental_uris":{"android":"levelo://app?vid=2f3fae66-cb81-4b6d-9664-d56ef79a3ccb","ios":"levelo://app?vid=2f3fae66-cb81-4b6d-9664-d56ef79a3ccb"},"vehicle_type_id":"4","last_reported":1687526218,"current_range_meters":29600,"station_id":"ce4bgm92rcd13ifvqbr0","pricing_plan_id":"free"},{"bike_id":"1eca5f05-201d-4146-9788-16b468e94e0a","system_id":"levelo_inurba_marseille","lat":43.299222,"lon":5.365554,"is_reserved":false,"is_disabled":false,"rental_uris":{"android":"levelo://app?vid=1eca5f05-201d-4146-9788-16b468e94e0a","ios":"levelo://app?vid=1eca5f05-201d-4146-9788-16b468e94e0a"},"vehicle_type_id":"4","last_reported":1687526218,"current_range_meters":28400,"station_id":"ce4bgm92rcd13ifvqbr0","pricing_plan_id":"free"},{"bike_id":"89f2fc3a-f86b-453f-92b5-8532e896f254","system_id":"levelo_inurba_marseille","lat":43.298433,"lon":5.362774,"is_reserved":false,"is_disabled":false,"rental_uris":{"android":"levelo://app?vid=89f2fc3a-f86b-453f-92b5-8532e896f254","ios":"levelo://app?vid=89f2fc3a-f86b-453f-92b5-8532e896f254"},"vehicle_type_id":"4","last_reported":1687526218,"current_range_meters":19600,"station_id":"ce4bgpp2rcd13ifvqc3g","pricing_plan_id":"free"},{"bike_id":"4e7495f9-16af-4ee3-b219-c26eab12e98e","system_id":"levelo_inurba_marseille","lat":43.298433,"lon":5.362774,"is_reserved":false,"is_disabled":false,"rental_uris":{"android":"levelo://app?vid=4e7495f9-16af-4ee3-b219-c26eab12e98e","ios":"levelo://app?vid=4e7495f9-16af-4ee3-b219-c26eab12e98e"},"vehicle_type_id":"4","last_reported":1687526218,"current_range_meters":31200,"station_id":"ce4bgpp2rcd13ifvqc3g","pricing_plan_id":"free"},{"bike_id":"8ff3c65f-9475-4a95-a660-49c761cbb0b5","system_id":"levelo_inurba_marseille","lat":43.231562,"lon":5.436933,"is_reserved":false,"is_disabled":false,"rental_uris":{"android":"levelo://app?vid=8ff3c65f-9475-4a95-a660-49c761cbb0b5","ios":"levelo://app?vid=8ff3c65f-9475-4a95-a660-49c761cbb0b5"},"vehicle_type_id":"4","last_reported":1687526218,"current_range_meters":2400,"station_id":"ce4bhmp2rcd13ifvqgog","pricing_plan_id":"free"},{"bike_id":"77c2edef-a27b-45a4-b05c-c3926eea7a6f","system_id":"levelo_inurba_marseille","lat":43.30538,"lon":5.38423,"is_reserved":false,"is_disabled":false,"rental_uris":{"android":"levelo://app?vid=77c2edef-a27b-45a4-b05c-c3926eea7a6f","ios":"levelo://app?vid=77c2edef-a27b-45a4-b05c-c3926eea7a6f"},"vehicle_type_id":"4","last_reported":1687526218,"current_range_meters":8800,"station_id":"ce4bgg92rcd13ifvqb30","pricing_plan_id":"free"},{"bike_id":"daee3697-f4e8-4ace-b9e5-fd0e62b7d3cf","system_id":"levelo_inurba_marseille","lat":43.298433,"lon":5.362774,"is_reserved":false,"is_disabled":false,"rental_uris":{"android":"levelo://app?vid=daee3697-f4e8-4ace-b9e5-fd0e62b7d3cf","ios":"levelo://app?vid=daee3697-f4e8-4ace-b9e5-fd0e62b7d3cf"},"vehicle_type_id":"4","last_reported":1687526218,"current_range_meters":31200,"station_id":"ce4bgpp2rcd13ifvqc3g","pricing_plan_id":"free"},{"bike_id":"ef5b0099-3e29-493b-b215-04e3b14e60ee","system_id":"levelo_inurba_marseille","lat":43.298433,"lon":5.362774,"is_reserved":false,"is_disabled":false,"rental_uris":{"android":"levelo://app?vid=ef5b0099-3e29-493b-b215-04e3b14e60ee","ios":"levelo://app?vid=ef5b0099-3e29-493b-b215-04e3b14e60ee"},"vehicle_type_id":"4","last_reported":1687526218,"current_range_meters":31200,"station_id":"ce4bgpp2rcd13ifvqc3g","pricing_plan_id":"free"},{"bike_id":"8926140c-b1ff-4a43-949f-3711fb8c2f53","system_id":"levelo_inurba_marseille","lat":43.29842,"lon":5.36263,"is_reserved":false,"is_disabled":false,"rental_uris":{"android":"levelo://app?vid=8926140c-b1ff-4a43-949f-3711fb8c2f53","ios":"levelo://app?vid=8926140c-b1ff-4a43-949f-3711fb8c2f53"},"vehicle_type_id":"4","last_reported":1687526218,"current_range_meters":31200,"station_id":"ce4bgpp2rcd13ifvqc3g","pricing_plan_id":"free"},{"bike_id":"62734ba8-d0f4-47ed-b765-84704c168f16","system_id":"levelo_inurba_marseille","lat":43.29842,"lon":5.36263,"is_reserved":false,"is_disabled":false,"rental_uris":{"android":"levelo://app?vid=62734ba8-d0f4-47ed-b765-84704c168f16","ios":"levelo://app?vid=62734ba8-d0f4-47ed-b765-84704c168f16"},"vehicle_type_id":"4","last_reported":1687526218,"current_range_meters":31200,"station_id":"ce4bgpp2rcd13ifvqc3g","pricing_plan_id":"free"},{"bike_id":"034ad213-2d9d-4e98-a1bf-ca3d06865951","system_id":"levelo_inurba_marseille","lat":43.29841,"lon":5.36264,"is_reserved":false,"is_disabled":false,"rental_uris":{"android":"levelo://app?vid=034ad213-2d9d-4e98-a1bf-ca3d06865951","ios":"levelo://app?vid=034ad213-2d9d-4e98-a1bf-ca3d06865951"},"vehicle_type_id":"4","last_reported":1687526218,"current_range_meters":23600,"station_id":"ce4bgpp2rcd13ifvqc3g","pricing_plan_id":"free"},{"bike_id":"87bcdb89-84eb-4abd-82d8-6cb4e62fd6c3","system_id":"levelo_inurba_marseille","lat":43.29839,"lon":5.36263,"is_reserved":false,"is_disabled":false,"rental_uris":{"android":"levelo://app?vid=87bcdb89-84eb-4abd-82d8-6cb4e62fd6c3","ios":"levelo://app?vid=87bcdb89-84eb-4abd-82d8-6cb4e62fd6c3"},"vehicle_type_id":"4","last_reported":1687526218,"current_range_meters":18800,"station_id":"ce4bgpp2rcd13ifvqc3g","pricing_plan_id":"free"},{"bike_id":"8b79f336-2662-40f7-8921-ae84c83cb4a5","system_id":"levelo_inurba_marseille","lat":43.29839,"lon":5.36261,"is_reserved":false,"is_disabled":false,"rental_uris":{"android":"levelo://app?vid=8b79f336-2662-40f7-8921-ae84c83cb4a5","ios":"levelo://app?vid=8b79f336-2662-40f7-8921-ae84c83cb4a5"},"vehicle_type_id":"4","last_reported":1687526218,"current_range_meters":31200,"station_id":"ce4bgpp2rcd13ifvqc3g","pricing_plan_id":"free"},{"bike_id":"8e1e6b17-fb7c-4fa0-86b9-a74100d9eddf","system_id":"levelo_inurba_marseille","lat":43.299243,"lon":5.37481,"is_reserved":false,"is_disabled":false,"rental_uris":{"android":"levelo://app?vid=8e1e6b17-fb7c-4fa0-86b9-a74100d9eddf","ios":"levelo://app?vid=8e1e6b17-fb7c-4fa0-86b9-a74100d9eddf"},"vehicle_type_id":"4","last_reported":1687526218,"current_range_meters":18800,"station_id":"ce4bgjh2rcd13ifvqbg0","pricing_plan_id":"free"},{"bike_id":"9e24d311-db25-46a4-b565-d03b152abf67","system_id":"levelo_inurba_marseille","lat":43.29839,"lon":5.36256,"is_reserved":false,"is_disabled":false,"rental_uris":{"android":"levelo://app?vid=9e24d311-db25-46a4-b565-d03b152abf67","ios":"levelo://app?vid=9e24d311-db25-46a4-b565-d03b152abf67"},"vehicle_type_id":"4","last_reported":1687526218,"current_range_meters":12000,"station_id":"ce4bgpp2rcd13ifvqc3g","pricing_plan_id":"free"},{"bike_id":"c09c5090-da81-4b8d-bacd-aff3a9182c8d","system_id":"levelo_inurba_marseille","lat":43.29837,"lon":5.36268,"is_reserved":false,"is_disabled":false,"rental_uris":{"android":"levelo://app?vid=c09c5090-da81-4b8d-bacd-aff3a9182c8d","ios":"levelo://app?vid=c09c5090-da81-4b8d-bacd-aff3a9182c8d"},"vehicle_type_id":"4","last_reported":1687526218,"current_range_meters":26400,"station_id":"ce4bgpp2rcd13ifvqc3g","pricing_plan_id":"free"},{"bike_id":"1e0736d2-0ba7-4299-bad7-03ddb0d462b4","system_id":"levelo_inurba_marseille","lat":43.298433,"lon":5.362774,"is_reserved":false,"is_disabled":false,"rental_uris":{"android":"levelo://app?vid=1e0736d2-0ba7-4299-bad7-03ddb0d462b4","ios":"levelo://app?vid=1e0736d2-0ba7-4299-bad7-03ddb0d462b4"},"vehicle_type_id":"4","last_reported":1687526218,"current_range_meters":31200,"station_id":"ce4bgpp2rcd13ifvqc3g","pricing_plan_id":"free"},{"bike_id":"c50ddabb-ddaf-445a-b2d1-8695c49d2731","system_id":"levelo_inurba_marseille","lat":43.305364,"lon":5.384119,"is_reserved":false,"is_disabled":false,"rental_uris":{"android":"levelo://app?vid=c50ddabb-ddaf-445a-b2d1-8695c49d2731","ios":"levelo://app?vid=c50ddabb-ddaf-445a-b2d1-8695c49d2731"},"vehicle_type_id":"4","last_reported":1687526218,"current_range_meters":800,"station_id":"ce4bgg92rcd13ifvqb30","pricing_plan_id":"free"},{"bike_id":"8ca2a6e2-deba-4f82-a5c0-43dcf1811432","system_id":"levelo_inurba_marseille","lat":43.29835,"lon":5.36265,"is_reserved":false,"is_disabled":false,"rental_uris":{"android":"levelo://app?vid=8ca2a6e2-deba-4f82-a5c0-43dcf1811432","ios":"levelo://app?vid=8ca2a6e2-deba-4f82-a5c0-43dcf1811432"},"vehicle_type_id":"4","last_reported":1687526218,"current_range_meters":25600,"station_id":"ce4bgpp2rcd13ifvqc3g","pricing_plan_id":"free"},{"bike_id":"a52f2ae5-eb0f-41df-a709-8813f5ac6019","system_id":"levelo_inurba_marseille","lat":43.299243,"lon":5.37481,"is_reserved":false,"is_disabled":false,"rental_uris":{"android":"levelo://app?vid=a52f2ae5-eb0f-41df-a709-8813f5ac6019","ios":"levelo://app?vid=a52f2ae5-eb0f-41df-a709-8813f5ac6019"},"vehicle_type_id":"4","last_reported":1687526218,"current_range_meters":1200,"station_id":"ce4bgjh2rcd13ifvqbg0","pricing_plan_id":"free"},{"bike_id":"0ced3d16-9da6-477b-8a57-5f8348ffff5a","system_id":"levelo_inurba_marseille","lat":43.328371,"lon":5.366909,"is_reserved":false,"is_disabled":false,"rental_uris":{"android":"levelo://app?vid=0ced3d16-9da6-477b-8a57-5f8348ffff5a","ios":"levelo://app?vid=0ced3d16-9da6-477b-8a57-5f8348ffff5a"},"vehicle_type_id":"4","last_reported":1687526218,"current_range_meters":0,"station_id":"ce4bhs92rcd13ifvqi0g","pricing_plan_id":"free"},{"bike_id":"f29725c6-87c0-4998-96d6-7b7afbecb764","system_id":"levelo_inurba_marseille","lat":43.328371,"lon":5.366909,"is_reserved":false,"is_disabled":false,"rental_uris":{"android":"levelo://app?vid=f29725c6-87c0-4998-96d6-7b7afbecb764","ios":"levelo://app?vid=f29725c6-87c0-4998-96d6-7b7afbecb764"},"vehicle_type_id":"4","last_reported":1687526218,"current_range_meters":400,"station_id":"ce4bhs92rcd13ifvqi0g","pricing_plan_id":"free"},{"bike_id":"32007623-af1f-4b13-99da-1a105ea60890","system_id":"levelo_inurba_marseille","lat":43.32826,"lon":5.36685,"is_reserved":false,"is_disabled":false,"rental_uris":{"android":"levelo://app?vid=32007623-af1f-4b13-99da-1a105ea60890","ios":"levelo://app?vid=32007623-af1f-4b13-99da-1a105ea60890"},"vehicle_type_id":"4","last_reported":1687526218,"current_range_meters":29200,"station_id":"ce4bhs92rcd13ifvqi0g","pricing_plan_id":"free"},{"bike_id":"41235149-f42e-4673-9d1a-055ac92c3df6","system_id":"levelo_inurba_marseille","lat":43.32828,"lon":5.36683,"is_reserved":false,"is_disabled":false,"rental_uris":{"android":"levelo://app?vid=41235149-f42e-4673-9d1a-055ac92c3df6","ios":"levelo://app?vid=41235149-f42e-4673-9d1a-055ac92c3df6"},"vehicle_type_id":"4","last_reported":1687526218,"current_range_meters":25600,"station_id":"ce4bhs92rcd13ifvqi0g","pricing_plan_id":"free"},{"bike_id":"90374857-a63d-4642-9017-e49bf86a7332","system_id":"levelo_inurba_marseille","lat":43.32832,"lon":5.36689,"is_reserved":false,"is_disabled":false,"rental_uris":{"android":"levelo://app?vid=90374857-a63d-4642-9017-e49bf86a7332","ios":"levelo://app?vid=90374857-a63d-4642-9017-e49bf86a7332"},"vehicle_type_id":"4","last_reported":1687526218,"current_range_meters":28800,"station_id":"ce4bhs92rcd13ifvqi0g","pricing_plan_id":"free"},{"bike_id":"228c28d0-0b80-482b-ad68-c51e8f6056f8","system_id":"levelo_inurba_marseille","lat":43.32835,"lon":5.36696,"is_reserved":false,"is_disabled":false,"rental_uris":{"android":"levelo://app?vid=228c28d0-0b80-482b-ad68-c51e8f6056f8","ios":"levelo://app?vid=228c28d0-0b80-482b-ad68-c51e8f6056f8"},"vehicle_type_id":"4","last_reported":1687526218,"current_range_meters":10800,"station_id":"ce4bhs92rcd13ifvqi0g","pricing_plan_id":"free"},{"bike_id":"c7b68411-77ee-40b4-9e54-c6a3e70a52f0","system_id":"levelo_inurba_marseille","lat":43.297163,"lon":5.365866,"is_reserved":false,"is_disabled":false,"rental_uris":{"android":"levelo://app?vid=c7b68411-77ee-40b4-9e54-c6a3e70a52f0","ios":"levelo://app?vid=c7b68411-77ee-40b4-9e54-c6a3e70a52f0"},"vehicle_type_id":"4","last_reported":1687526218,"current_range_meters":10800,"station_id":"ce4bgn12rcd13ifvqbt0","pricing_plan_id":"free"},{"bike_id":"d3319c22-50a6-42fc-846d-5b75a3100886","system_id":"levelo_inurba_marseille","lat":43.297163,"lon":5.365866,"is_reserved":false,"is_disabled":false,"rental_uris":{"android":"levelo://app?vid=d3319c22-50a6-42fc-846d-5b75a3100886","ios":"levelo://app?vid=d3319c22-50a6-42fc-846d-5b75a3100886"},"vehicle_type_id":"4","last_reported":1687526218,"current_range_meters":23200,"station_id":"ce4bgn12rcd13ifvqbt0","pricing_plan_id":"free"},{"bike_id":"d6aa4b8f-0fbd-492f-a726-f1b64033634e","system_id":"levelo_inurba_marseille","lat":43.29701,"lon":5.36409,"is_reserved":false,"is_disabled":false,"rental_uris":{"android":"levelo://app?vid=d6aa4b8f-0fbd-492f-a726-f1b64033634e","ios":"levelo://app?vid=d6aa4b8f-0fbd-492f-a726-f1b64033634e"},"vehicle_type_id":"4","last_reported":1687526218,"current_range_meters":10800,"station_id":"","pricing_plan_id":"free"},{"bike_id":"2f6d799e-04eb-44c2-b9b3-a07b09e7c0a7","system_id":"levelo_inurba_marseille","lat":43.29725,"lon":5.37692,"is_reserved":false,"is_disabled":false,"rental_uris":{"android":"levelo://app?vid=2f6d799e-04eb-44c2-b9b3-a07b09e7c0a7","ios":"levelo://app?vid=2f6d799e-04eb-44c2-b9b3-a07b09e7c0a7"},"vehicle_type_id":"4","last_reported":1687526218,"current_range_meters":14800,"station_id":"","pricing_plan_id":"free"},{"bike_id":"041bc147-ef2f-419b-bb81-deca3bdf89e2","system_id":"levelo_inurba_marseille","lat":43.29611,"lon":5.36046,"is_reserved":false,"is_disabled":false,"rental_uris":{"android":"levelo://app?vid=041bc147-ef2f-419b-bb81-deca3bdf89e2","ios":"levelo://app?vid=041bc147-ef2f-419b-bb81-deca3bdf89e2"},"vehicle_type_id":"4","last_reported":1687526218,"current_range_meters":10800,"station_id":"","pricing_plan_id":"free"},{"bike_id":"4db3287f-de8f-4d29-921d-06eff112ca80","system_id":"levelo_inurba_marseille","lat":43.309589,"lon":5.390258,"is_reserved":false,"is_disabled":false,"rental_uris":{"android":"levelo://app?vid=4db3287f-de8f-4d29-921d-06eff112ca80","ios":"levelo://app?vid=4db3287f-de8f-4d29-921d-06eff112ca80"},"vehicle_type_id":"4","last_reported":1687526218,"current_range_meters":30000,"station_id":"ce4bgup2rcd13ifvqco0","pricing_plan_id":"free"},{"bike_id":"5fab948e-f5a4-41c5-96eb-d3b330844b06","system_id":"levelo_inurba_marseille","lat":43.296921,"lon":5.376579,"is_reserved":false,"is_disabled":false,"rental_uris":{"android":"levelo://app?vid=5fab948e-f5a4-41c5-96eb-d3b330844b06","ios":"levelo://app?vid=5fab948e-f5a4-41c5-96eb-d3b330844b06"},"vehicle_type_id":"4","last_reported":1687526218,"current_range_meters":18800,"station_id":"ce4bgkh2rcd13ifvqbl0","pricing_plan_id":"free"},{"bike_id":"dd05dd5c-7082-4732-a78f-11d37dcb44fc","system_id":"levelo_inurba_marseille","lat":43.30947,"lon":5.39028,"is_reserved":false,"is_disabled":false,"rental_uris":{"android":"levelo://app?vid=dd05dd5c-7082-4732-a78f-11d37dcb44fc","ios":"levelo://app?vid=dd05dd5c-7082-4732-a78f-11d37dcb44fc"},"vehicle_type_id":"4","last_reported":1687526218,"current_range_meters":12800,"station_id":"ce4bgup2rcd13ifvqco0","pricing_plan_id":"free"},{"bike_id":"d1a29080-ba1a-4b02-a10b-caf331b0db5f","system_id":"levelo_inurba_marseille","lat":43.309589,"lon":5.390258,"is_reserved":false,"is_disabled":false,"rental_uris":{"android":"levelo://app?vid=d1a29080-ba1a-4b02-a10b-caf331b0db5f","ios":"levelo://app?vid=d1a29080-ba1a-4b02-a10b-caf331b0db5f"},"vehicle_type_id":"4","last_reported":1687526218,"current_range_meters":29200,"station_id":"ce4bgup2rcd13ifvqco0","pricing_plan_id":"free"},{"bike_id":"9c46eda4-ce28-4132-a992-9b4bc94941ea","system_id":"levelo_inurba_marseille","lat":43.31764,"lon":5.39008,"is_reserved":false,"is_disabled":false,"rental_uris":{"android":"levelo://app?vid=9c46eda4-ce28-4132-a992-9b4bc94941ea","ios":"levelo://app?vid=9c46eda4-ce28-4132-a992-9b4bc94941ea"},"vehicle_type_id":"4","last_reported":1687526218,"current_range_meters":19200,"station_id":"ce4bhqp2rcd13ifvqhng","pricing_plan_id":"free"},{"bike_id":"3c512352-c649-4d84-8868-fd3a8bfe1120","system_id":"levelo_inurba_marseille","lat":43.317557,"lon":5.390173,"is_reserved":false,"is_disabled":false,"rental_uris":{"android":"levelo://app?vid=3c512352-c649-4d84-8868-fd3a8bfe1120","ios":"levelo://app?vid=3c512352-c649-4d84-8868-fd3a8bfe1120"},"vehicle_type_id":"4","last_reported":1687526218,"current_range_meters":14800,"station_id":"ce4bhqp2rcd13ifvqhng","pricing_plan_id":"free"},{"bike_id":"a87cae3c-2c3f-41fc-8b52-7d5133db5583","system_id":"levelo_inurba_marseille","lat":43.31763,"lon":5.39013,"is_reserved":false,"is_disabled":false,"rental_uris":{"android":"levelo://app?vid=a87cae3c-2c3f-41fc-8b52-7d5133db5583","ios":"levelo://app?vid=a87cae3c-2c3f-41fc-8b52-7d5133db5583"},"vehicle_type_id":"4","last_reported":1687526218,"current_range_meters":31200,"station_id":"ce4bhqp2rcd13ifvqhng","pricing_plan_id":"free"},{"bike_id":"a26b3693-5eee-4958-8ca8-8a69361289e6","system_id":"levelo_inurba_marseille","lat":43.317557,"lon":5.390173,"is_reserved":false,"is_disabled":false,"rental_uris":{"android":"levelo://app?vid=a26b3693-5eee-4958-8ca8-8a69361289e6","ios":"levelo://app?vid=a26b3693-5eee-4958-8ca8-8a69361289e6"},"vehicle_type_id":"4","last_reported":1687526218,"current_range_meters":22800,"station_id":"ce4bhqp2rcd13ifvqhng","pricing_plan_id":"free"},{"bike_id":"69a21a20-1345-4a6d-925d-cd9430a32105","system_id":"levelo_inurba_marseille","lat":43.29801,"lon":5.38093,"is_reserved":false,"is_disabled":false,"rental_uris":{"android":"levelo://app?vid=69a21a20-1345-4a6d-925d-cd9430a32105","ios":"levelo://app?vid=69a21a20-1345-4a6d-925d-cd9430a32105"},"vehicle_type_id":"4","last_reported":1687526218,"current_range_meters":24800,"station_id":"ce4bgip2rcd13ifvqbb0","pricing_plan_id":"free"},{"bike_id":"7c4232f6-1f16-4745-9093-8bf84d6d14c2","system_id":"levelo_inurba_marseille","lat":43.295748,"lon":5.37522,"is_reserved":false,"is_disabled":false,"rental_uris":{"android":"levelo://app?vid=7c4232f6-1f16-4745-9093-8bf84d6d14c2","ios":"levelo://app?vid=7c4232f6-1f16-4745-9093-8bf84d6d14c2"},"vehicle_type_id":"4","last_reported":1687526218,"current_range_meters":2400,"station_id":"ce4bgh92rcd13ifvqb50","pricing_plan_id":"free"},{"bike_id":"078152dd-c1f5-40a7-aaaf-2d39b9619533","system_id":"levelo_inurba_marseille","lat":43.304274,"lon":5.388873,"is_reserved":false,"is_disabled":false,"rental_uris":{"android":"levelo://app?vid=078152dd-c1f5-40a7-aaaf-2d39b9619533","ios":"levelo://app?vid=078152dd-c1f5-40a7-aaaf-2d39b9619533"},"vehicle_type_id":"4","last_reported":1687526218,"current_range_meters":20000,"station_id":"ce4bgk12rcd13ifvqbi0","pricing_plan_id":"free"},{"bike_id":"3bba6e45-4194-4dd3-bbec-9decf75da85a","system_id":"levelo_inurba_marseille","lat":43.304274,"lon":5.388873,"is_reserved":false,"is_disabled":false,"rental_uris":{"android":"levelo://app?vid=3bba6e45-4194-4dd3-bbec-9decf75da85a","ios":"levelo://app?vid=3bba6e45-4194-4dd3-bbec-9decf75da85a"},"vehicle_type_id":"4","last_reported":1687526218,"current_range_meters":12800,"station_id":"ce4bgk12rcd13ifvqbi0","pricing_plan_id":"free"},{"bike_id":"e219fb45-fbbd-48da-bdf7-cb28ea37ed0c","system_id":"levelo_inurba_marseille","lat":43.295748,"lon":5.37522,"is_reserved":false,"is_disabled":false,"rental_uris":{"android":"levelo://app?vid=e219fb45-fbbd-48da-bdf7-cb28ea37ed0c","ios":"levelo://app?vid=e219fb45-fbbd-48da-bdf7-cb28ea37ed0c"},"vehicle_type_id":"4","last_reported":1687526218,"current_range_meters":14400,"station_id":"ce4bgh92rcd13ifvqb50","pricing_plan_id":"free"},{"bike_id":"ea9dd7ea-b9da-4aec-8365-e116b5f3c783","system_id":"levelo_inurba_marseille","lat":43.304274,"lon":5.388873,"is_reserved":false,"is_disabled":false,"rental_uris":{"android":"levelo://app?vid=ea9dd7ea-b9da-4aec-8365-e116b5f3c783","ios":"levelo://app?vid=ea9dd7ea-b9da-4aec-8365-e116b5f3c783"},"vehicle_type_id":"4","last_reported":1687526218,"current_range_meters":27600,"station_id":"ce4bgk12rcd13ifvqbi0","pricing_plan_id":"free"},{"bike_id":"3ad5d3a7-c8b8-48b8-ab76-9eeea6a25a45","system_id":"levelo_inurba_marseille","lat":43.295748,"lon":5.37522,"is_reserved":false,"is_disabled":false,"rental_uris":{"android":"levelo://app?vid=3ad5d3a7-c8b8-48b8-ab76-9eeea6a25a45","ios":"levelo://app?vid=3ad5d3a7-c8b8-48b8-ab76-9eeea6a25a45"},"vehicle_type_id":"4","last_reported":1687526218,"current_range_meters":29200,"station_id":"ce4bgh92rcd13ifvqb50","pricing_plan_id":"free"},{"bike_id":"a35dd0cf-72cd-4623-8ee8-016f5c7585ec","system_id":"levelo_inurba_marseille","lat":43.29619,"lon":5.3772,"is_reserved":false,"is_disabled":false,"rental_uris":{"android":"levelo://app?vid=a35dd0cf-72cd-4623-8ee8-016f5c7585ec","ios":"levelo://app?vid=a35dd0cf-72cd-4623-8ee8-016f5c7585ec"},"vehicle_type_id":"4","last_reported":1687526218,"current_range_meters":25200,"station_id":"ce4bgi92rcd13ifvqb90","pricing_plan_id":"free"},{"bike_id":"431a147e-80fb-4536-bc7c-454930512e91","system_id":"levelo_inurba_marseille","lat":43.29621,"lon":5.37742,"is_reserved":false,"is_disabled":false,"rental_uris":{"android":"levelo://app?vid=431a147e-80fb-4536-bc7c-454930512e91","ios":"levelo://app?vid=431a147e-80fb-4536-bc7c-454930512e91"},"vehicle_type_id":"4","last_reported":1687526218,"current_range_meters":19200,"station_id":"ce4bgi92rcd13ifvqb90","pricing_plan_id":"free"},{"bike_id":"5d097718-b2c9-4f29-8875-705649c4f076","system_id":"levelo_inurba_marseille","lat":43.295279,"lon":5.375048,"is_reserved":false,"is_disabled":false,"rental_uris":{"android":"levelo://app?vid=5d097718-b2c9-4f29-8875-705649c4f076","ios":"levelo://app?vid=5d097718-b2c9-4f29-8875-705649c4f076"},"vehicle_type_id":"4","last_reported":1687526218,"current_range_meters":800,"station_id":"ce4bgkp2rcd13ifvqbmg","pricing_plan_id":"free"},{"bike_id":"254894fd-921b-4843-8363-286bd1ba7f1a","system_id":"levelo_inurba_marseille","lat":43.32367,"lon":5.38882,"is_reserved":false,"is_disabled":false,"rental_uris":{"android":"levelo://app?vid=254894fd-921b-4843-8363-286bd1ba7f1a","ios":"levelo://app?vid=254894fd-921b-4843-8363-286bd1ba7f1a"},"vehicle_type_id":"4","last_reported":1687526218,"current_range_meters":23600,"station_id":"ce4bhqp2rcd13ifvqhog","pricing_plan_id":"free"},{"bike_id":"48ff30b1-ef2e-4c53-b522-619288760a76","system_id":"levelo_inurba_marseille","lat":43.29602,"lon":5.381084,"is_reserved":false,"is_disabled":false,"rental_uris":{"android":"levelo://app?vid=48ff30b1-ef2e-4c53-b522-619288760a76","ios":"levelo://app?vid=48ff30b1-ef2e-4c53-b522-619288760a76"},"vehicle_type_id":"4","last_reported":1687526218,"current_range_meters":0,"station_id":"ce4bgl12rcd13ifvqbo0","pricing_plan_id":"free"},{"bike_id":"220dc674-b4ed-4dc6-8633-f9ce64eeb13c","system_id":"levelo_inurba_marseille","lat":43.29304,"lon":5.37165,"is_reserved":false,"is_disabled":false,"rental_uris":{"android":"levelo://app?vid=220dc674-b4ed-4dc6-8633-f9ce64eeb13c","ios":"levelo://app?vid=220dc674-b4ed-4dc6-8633-f9ce64eeb13c"},"vehicle_type_id":"4","last_reported":1687526218,"current_range_meters":18800,"station_id":"ce4bgh92rcd13ifvqb40","pricing_plan_id":"free"},{"bike_id":"b429289b-9bad-4e8c-907b-810f00a4484c","system_id":"levelo_inurba_marseille","lat":43.292749,"lon":5.368398,"is_reserved":false,"is_disabled":false,"rental_uris":{"android":"levelo://app?vid=b429289b-9bad-4e8c-907b-810f00a4484c","ios":"levelo://app?vid=b429289b-9bad-4e8c-907b-810f00a4484c"},"vehicle_type_id":"4","last_reported":1687526218,"current_range_meters":4400,"station_id":"ce4bhbp2rcd13ifvqesg","pricing_plan_id":"free"},{"bike_id":"db86070c-f3e5-4cc1-ba25-66bc79171d5f","system_id":"levelo_inurba_marseille","lat":43.293009,"lon":5.374584,"is_reserved":false,"is_disabled":false,"rental_uris":{"android":"levelo://app?vid=db86070c-f3e5-4cc1-ba25-66bc79171d5f","ios":"levelo://app?vid=db86070c-f3e5-4cc1-ba25-66bc79171d5f"},"vehicle_type_id":"4","last_reported":1687526218,"current_range_meters":26800,"station_id":"ce4bgi12rcd13ifvqb70","pricing_plan_id":"free"},{"bike_id":"035403c8-28d7-4307-ac4d-e9d16c96e214","system_id":"levelo_inurba_marseille","lat":43.305994,"lon":5.393687,"is_reserved":false,"is_disabled":false,"rental_uris":{"android":"levelo://app?vid=035403c8-28d7-4307-ac4d-e9d16c96e214","ios":"levelo://app?vid=035403c8-28d7-4307-ac4d-e9d16c96e214"},"vehicle_type_id":"4","last_reported":1687526218,"current_range_meters":29200,"station_id":"ce4bh0p2rcd13ifvqd80","pricing_plan_id":"free"},{"bike_id":"aa4a69b7-aa30-4165-a3a5-63d0616fe16f","system_id":"levelo_inurba_marseille","lat":43.305994,"lon":5.393687,"is_reserved":false,"is_disabled":false,"rental_uris":{"android":"levelo://app?vid=aa4a69b7-aa30-4165-a3a5-63d0616fe16f","ios":"levelo://app?vid=aa4a69b7-aa30-4165-a3a5-63d0616fe16f"},"vehicle_type_id":"4","last_reported":1687526218,"current_range_meters":28800,"station_id":"ce4bh0p2rcd13ifvqd80","pricing_plan_id":"free"},{"bike_id":"faeabfed-74a2-433e-84f5-210de7bbcd09","system_id":"levelo_inurba_marseille","lat":43.305994,"lon":5.393687,"is_reserved":false,"is_disabled":false,"rental_uris":{"android":"levelo://app?vid=faeabfed-74a2-433e-84f5-210de7bbcd09","ios":"levelo://app?vid=faeabfed-74a2-433e-84f5-210de7bbcd09"},"vehicle_type_id":"4","last_reported":1687526218,"current_range_meters":31200,"station_id":"ce4bh0p2rcd13ifvqd80","pricing_plan_id":"free"},{"bike_id":"7b6c3f69-8242-4ddb-a949-bc57d15fa908","system_id":"levelo_inurba_marseille","lat":43.302992,"lon":5.392136,"is_reserved":false,"is_disabled":false,"rental_uris":{"android":"levelo://app?vid=7b6c3f69-8242-4ddb-a949-bc57d15fa908","ios":"levelo://app?vid=7b6c3f69-8242-4ddb-a949-bc57d15fa908"},"vehicle_type_id":"4","last_reported":1687526218,"current_range_meters":28000,"station_id":"ce4bgkh2rcd13ifvqbk0","pricing_plan_id":"free"},{"bike_id":"f2556ecb-26a9-42f7-8892-dcef625a27aa","system_id":"levelo_inurba_marseille","lat":43.303002,"lon":5.392142,"is_reserved":false,"is_disabled":false,"rental_uris":{"android":"levelo://app?vid=f2556ecb-26a9-42f7-8892-dcef625a27aa","ios":"levelo://app?vid=f2556ecb-26a9-42f7-8892-dcef625a27aa"},"vehicle_type_id":"4","last_reported":1687526218,"current_range_meters":26800,"station_id":"ce4bgkh2rcd13ifvqbk0","pricing_plan_id":"free"},{"bike_id":"86ecea65-cbe6-42b4-8a44-ddbbdc64c6f5","system_id":"levelo_inurba_marseille","lat":43.303002,"lon":5.392142,"is_reserved":false,"is_disabled":false,"rental_uris":{"android":"levelo://app?vid=86ecea65-cbe6-42b4-8a44-ddbbdc64c6f5","ios":"levelo://app?vid=86ecea65-cbe6-42b4-8a44-ddbbdc64c6f5"},"vehicle_type_id":"4","last_reported":1687526218,"current_range_meters":15600,"station_id":"ce4bgkh2rcd13ifvqbk0","pricing_plan_id":"free"},{"bike_id":"53e58073-519b-4f8d-96ad-f7b95459428f","system_id":"levelo_inurba_marseille","lat":43.29266,"lon":5.35983,"is_reserved":false,"is_disabled":false,"rental_uris":{"android":"levelo://app?vid=53e58073-519b-4f8d-96ad-f7b95459428f","ios":"levelo://app?vid=53e58073-519b-4f8d-96ad-f7b95459428f"},"vehicle_type_id":"4","last_reported":1687526218,"current_range_meters":8400,"station_id":"","pricing_plan_id":"free"},{"bike_id":"2962c5c8-ec51-4a3b-bc56-31b241bd04e6","system_id":"levelo_inurba_marseille","lat":43.302992,"lon":5.392136,"is_reserved":false,"is_disabled":false,"rental_uris":{"android":"levelo://app?vid=2962c5c8-ec51-4a3b-bc56-31b241bd04e6","ios":"levelo://app?vid=2962c5c8-ec51-4a3b-bc56-31b241bd04e6"},"vehicle_type_id":"4","last_reported":1687526218,"current_range_meters":24800,"station_id":"ce4bgkh2rcd13ifvqbk0","pricing_plan_id":"free"},{"bike_id":"8d9f9786-5c16-44dd-bcbd-14e64e5c2ee9","system_id":"levelo_inurba_marseille","lat":43.302992,"lon":5.392136,"is_reserved":false,"is_disabled":false,"rental_uris":{"android":"levelo://app?vid=8d9f9786-5c16-44dd-bcbd-14e64e5c2ee9","ios":"levelo://app?vid=8d9f9786-5c16-44dd-bcbd-14e64e5c2ee9"},"vehicle_type_id":"4","last_reported":1687526218,"current_range_meters":31600,"station_id":"ce4bgkh2rcd13ifvqbk0","pricing_plan_id":"free"},{"bike_id":"daaf91e9-9033-4b14-832f-227b2c97d08f","system_id":"levelo_inurba_marseille","lat":43.302992,"lon":5.392136,"is_reserved":false,"is_disabled":false,"rental_uris":{"android":"levelo://app?vid=daaf91e9-9033-4b14-832f-227b2c97d08f","ios":"levelo://app?vid=daaf91e9-9033-4b14-832f-227b2c97d08f"},"vehicle_type_id":"4","last_reported":1687526218,"current_range_meters":31200,"station_id":"ce4bgkh2rcd13ifvqbk0","pricing_plan_id":"free"},{"bike_id":"a74e59cb-5f53-4afa-a776-fd2683a58438","system_id":"levelo_inurba_marseille","lat":43.302992,"lon":5.392136,"is_reserved":false,"is_disabled":false,"rental_uris":{"android":"levelo://app?vid=a74e59cb-5f53-4afa-a776-fd2683a58438","ios":"levelo://app?vid=a74e59cb-5f53-4afa-a776-fd2683a58438"},"vehicle_type_id":"4","last_reported":1687526218,"current_range_meters":30000,"station_id":"ce4bgkh2rcd13ifvqbk0","pricing_plan_id":"free"},{"bike_id":"1301a3d4-c310-44c0-9da6-54c30923fb93","system_id":"levelo_inurba_marseille","lat":43.302992,"lon":5.392136,"is_reserved":false,"is_disabled":false,"rental_uris":{"android":"levelo://app?vid=1301a3d4-c310-44c0-9da6-54c30923fb93","ios":"levelo://app?vid=1301a3d4-c310-44c0-9da6-54c30923fb93"},"vehicle_type_id":"4","last_reported":1687526218,"current_range_meters":20400,"station_id":"ce4bgkh2rcd13ifvqbk0","pricing_plan_id":"free"},{"bike_id":"3bee8113-ebfb-43c0-ade5-302eaab4b438","system_id":"levelo_inurba_marseille","lat":43.303002,"lon":5.392142,"is_reserved":false,"is_disabled":false,"rental_uris":{"android":"levelo://app?vid=3bee8113-ebfb-43c0-ade5-302eaab4b438","ios":"levelo://app?vid=3bee8113-ebfb-43c0-ade5-302eaab4b438"},"vehicle_type_id":"4","last_reported":1687526218,"current_range_meters":30400,"station_id":"ce4bgkh2rcd13ifvqbk0","pricing_plan_id":"free"},{"bike_id":"a8dc5e45-a0a0-45e5-a5a8-a62a5081f76d","system_id":"levelo_inurba_marseille","lat":43.303002,"lon":5.392142,"is_reserved":false,"is_disabled":false,"rental_uris":{"android":"levelo://app?vid=a8dc5e45-a0a0-45e5-a5a8-a62a5081f76d","ios":"levelo://app?vid=a8dc5e45-a0a0-45e5-a5a8-a62a5081f76d"},"vehicle_type_id":"4","last_reported":1687526218,"current_range_meters":28400,"station_id":"ce4bgkh2rcd13ifvqbk0","pricing_plan_id":"free"},{"bike_id":"ca3d865f-ce8f-42da-874c-d76344399105","system_id":"levelo_inurba_marseille","lat":43.303002,"lon":5.392142,"is_reserved":false,"is_disabled":false,"rental_uris":{"android":"levelo://app?vid=ca3d865f-ce8f-42da-874c-d76344399105","ios":"levelo://app?vid=ca3d865f-ce8f-42da-874c-d76344399105"},"vehicle_type_id":"4","last_reported":1687526218,"current_range_meters":31200,"station_id":"ce4bgkh2rcd13ifvqbk0","pricing_plan_id":"free"},{"bike_id":"9aa50d3a-994c-400c-bcaa-40176da3a05a","system_id":"levelo_inurba_marseille","lat":43.302992,"lon":5.392136,"is_reserved":false,"is_disabled":false,"rental_uris":{"android":"levelo://app?vid=9aa50d3a-994c-400c-bcaa-40176da3a05a","ios":"levelo://app?vid=9aa50d3a-994c-400c-bcaa-40176da3a05a"},"vehicle_type_id":"4","last_reported":1687526218,"current_range_meters":31200,"station_id":"ce4bgkh2rcd13ifvqbk0","pricing_plan_id":"free"},{"bike_id":"9fc7c09a-7bf0-42e3-b5f6-ee70bfc4192e","system_id":"levelo_inurba_marseille","lat":43.2936,"lon":5.37835,"is_reserved":false,"is_disabled":false,"rental_uris":{"android":"levelo://app?vid=9fc7c09a-7bf0-42e3-b5f6-ee70bfc4192e","ios":"levelo://app?vid=9fc7c09a-7bf0-42e3-b5f6-ee70bfc4192e"},"vehicle_type_id":"4","last_reported":1687526218,"current_range_meters":16400,"station_id":"ce4bgjh2rcd13ifvqbf0","pricing_plan_id":"free"},{"bike_id":"3fb15cee-db4a-4411-8fb7-805cde5acd98","system_id":"levelo_inurba_marseille","lat":43.291675,"lon":5.371583,"is_reserved":false,"is_disabled":false,"rental_uris":{"android":"levelo://app?vid=3fb15cee-db4a-4411-8fb7-805cde5acd98","ios":"levelo://app?vid=3fb15cee-db4a-4411-8fb7-805cde5acd98"},"vehicle_type_id":"4","last_reported":1687526218,"current_range_meters":20400,"station_id":"ce4bha92rcd13ifvqeh0","pricing_plan_id":"free"},{"bike_id":"54fda2f9-7b1a-4838-9b70-087d4101d0ae","system_id":"levelo_inurba_marseille","lat":43.33248,"lon":5.37937,"is_reserved":false,"is_disabled":false,"rental_uris":{"android":"levelo://app?vid=54fda2f9-7b1a-4838-9b70-087d4101d0ae","ios":"levelo://app?vid=54fda2f9-7b1a-4838-9b70-087d4101d0ae"},"vehicle_type_id":"4","last_reported":1687526218,"current_range_meters":3200,"station_id":"","pricing_plan_id":"free"},{"bike_id":"2f9f4c7b-5d5b-4e79-ad82-69113148eaf4","system_id":"levelo_inurba_marseille","lat":43.313291,"lon":5.396838,"is_reserved":false,"is_disabled":false,"rental_uris":{"android":"levelo://app?vid=2f9f4c7b-5d5b-4e79-ad82-69113148eaf4","ios":"levelo://app?vid=2f9f4c7b-5d5b-4e79-ad82-69113148eaf4"},"vehicle_type_id":"4","last_reported":1687526218,"current_range_meters":29600,"station_id":"ce4bgvp2rcd13ifvqcu0","pricing_plan_id":"free"},{"bike_id":"f0694a89-00b0-4971-9ac4-d920fce401b7","system_id":"levelo_inurba_marseille","lat":43.29189,"lon":5.3581,"is_reserved":false,"is_disabled":false,"rental_uris":{"android":"levelo://app?vid=f0694a89-00b0-4971-9ac4-d920fce401b7","ios":"levelo://app?vid=f0694a89-00b0-4971-9ac4-d920fce401b7"},"vehicle_type_id":"4","last_reported":1687526218,"current_range_meters":27200,"station_id":"ce4bhb12rcd13ifvqel0","pricing_plan_id":"free"},{"bike_id":"26edca59-7890-44e6-aced-32a94c1b366b","system_id":"levelo_inurba_marseille","lat":43.290779,"lon":5.371482,"is_reserved":false,"is_disabled":false,"rental_uris":{"android":"levelo://app?vid=26edca59-7890-44e6-aced-32a94c1b366b","ios":"levelo://app?vid=26edca59-7890-44e6-aced-32a94c1b366b"},"vehicle_type_id":"4","last_reported":1687526218,"current_range_meters":6400,"station_id":"ce4bh5p2rcd13ifvqe4g","pricing_plan_id":"free"},{"bike_id":"f72fe8e3-757a-489b-ac55-08f98b24b055","system_id":"levelo_inurba_marseille","lat":43.290779,"lon":5.371482,"is_reserved":false,"is_disabled":false,"rental_uris":{"android":"levelo://app?vid=f72fe8e3-757a-489b-ac55-08f98b24b055","ios":"levelo://app?vid=f72fe8e3-757a-489b-ac55-08f98b24b055"},"vehicle_type_id":"4","last_reported":1687526218,"current_range_meters":14800,"station_id":"ce4bh5p2rcd13ifvqe4g","pricing_plan_id":"free"},{"bike_id":"00a2cfdc-1962-4804-aad4-809622f1ad38","system_id":"levelo_inurba_marseille","lat":43.302008,"lon":5.394694,"is_reserved":false,"is_disabled":false,"rental_uris":{"android":"levelo://app?vid=00a2cfdc-1962-4804-aad4-809622f1ad38","ios":"levelo://app?vid=00a2cfdc-1962-4804-aad4-809622f1ad38"},"vehicle_type_id":"4","last_reported":1687526218,"current_range_meters":4000,"station_id":"ce4bh0p2rcd13ifvqd70","pricing_plan_id":"free"},{"bike_id":"84189626-f005-421c-8f89-b35d84ed8b9b","system_id":"levelo_inurba_marseille","lat":43.29042,"lon":5.37507,"is_reserved":false,"is_disabled":false,"rental_uris":{"android":"levelo://app?vid=84189626-f005-421c-8f89-b35d84ed8b9b","ios":"levelo://app?vid=84189626-f005-421c-8f89-b35d84ed8b9b"},"vehicle_type_id":"4","last_reported":1687526218,"current_range_meters":6000,"station_id":"","pricing_plan_id":"free"},{"bike_id":"3a2826f7-7a4b-4ec1-b4dc-5369751a669b","system_id":"levelo_inurba_marseille","lat":43.28967,"lon":5.36517,"is_reserved":false,"is_disabled":false,"rental_uris":{"android":"levelo://app?vid=3a2826f7-7a4b-4ec1-b4dc-5369751a669b","ios":"levelo://app?vid=3a2826f7-7a4b-4ec1-b4dc-5369751a669b"},"vehicle_type_id":"4","last_reported":1687526218,"current_range_meters":14800,"station_id":"","pricing_plan_id":"free"},{"bike_id":"20b2702a-2cf1-439f-b7da-41f192fa1a0a","system_id":"levelo_inurba_marseille","lat":43.29411,"lon":5.38614,"is_reserved":false,"is_disabled":false,"rental_uris":{"android":"levelo://app?vid=20b2702a-2cf1-439f-b7da-41f192fa1a0a","ios":"levelo://app?vid=20b2702a-2cf1-439f-b7da-41f192fa1a0a"},"vehicle_type_id":"4","last_reported":1687526218,"current_range_meters":22800,"station_id":"","pricing_plan_id":"free"},{"bike_id":"e36874dc-7135-4ebc-b4cd-8f7cd3793fb7","system_id":"levelo_inurba_marseille","lat":43.30395,"lon":5.39723,"is_reserved":false,"is_disabled":false,"rental_uris":{"android":"levelo://app?vid=e36874dc-7135-4ebc-b4cd-8f7cd3793fb7","ios":"levelo://app?vid=e36874dc-7135-4ebc-b4cd-8f7cd3793fb7"},"vehicle_type_id":"4","last_reported":1687526218,"current_range_meters":26800,"station_id":"","pricing_plan_id":"free"},{"bike_id":"33e4158c-a35b-411c-9ccb-d3a1fae4d16d","system_id":"levelo_inurba_marseille","lat":43.330413,"lon":5.389147,"is_reserved":false,"is_disabled":false,"rental_uris":{"android":"levelo://app?vid=33e4158c-a35b-411c-9ccb-d3a1fae4d16d","ios":"levelo://app?vid=33e4158c-a35b-411c-9ccb-d3a1fae4d16d"},"vehicle_type_id":"4","last_reported":1687526218,"current_range_meters":30800,"station_id":"ce4bhr92rcd13ifvqhrg","pricing_plan_id":"free"},{"bike_id":"28c7dbbb-539c-4e0f-ae61-04dda52f6d09","system_id":"levelo_inurba_marseille","lat":43.33039,"lon":5.3892,"is_reserved":false,"is_disabled":false,"rental_uris":{"android":"levelo://app?vid=28c7dbbb-539c-4e0f-ae61-04dda52f6d09","ios":"levelo://app?vid=28c7dbbb-539c-4e0f-ae61-04dda52f6d09"},"vehicle_type_id":"4","last_reported":1687526218,"current_range_meters":21200,"station_id":"ce4bhr92rcd13ifvqhrg","pricing_plan_id":"free"},{"bike_id":"438e40b1-0aa7-4dcf-83d7-d4f1fa48543b","system_id":"levelo_inurba_marseille","lat":43.330426,"lon":5.389147,"is_reserved":false,"is_disabled":false,"rental_uris":{"android":"levelo://app?vid=438e40b1-0aa7-4dcf-83d7-d4f1fa48543b","ios":"levelo://app?vid=438e40b1-0aa7-4dcf-83d7-d4f1fa48543b"},"vehicle_type_id":"4","last_reported":1687526218,"current_range_meters":12800,"station_id":"ce4bhr92rcd13ifvqhrg","pricing_plan_id":"free"},{"bike_id":"1df9609f-923e-428c-8578-f970672df507","system_id":"levelo_inurba_marseille","lat":43.330431,"lon":5.389149,"is_reserved":false,"is_disabled":false,"rental_uris":{"android":"levelo://app?vid=1df9609f-923e-428c-8578-f970672df507","ios":"levelo://app?vid=1df9609f-923e-428c-8578-f970672df507"},"vehicle_type_id":"4","last_reported":1687526218,"current_range_meters":19600,"station_id":"ce4bhr92rcd13ifvqhrg","pricing_plan_id":"free"},{"bike_id":"7b598af4-6212-42db-b66f-f3560c42749c","system_id":"levelo_inurba_marseille","lat":43.290104,"lon":5.356111,"is_reserved":false,"is_disabled":false,"rental_uris":{"android":"levelo://app?vid=7b598af4-6212-42db-b66f-f3560c42749c","ios":"levelo://app?vid=7b598af4-6212-42db-b66f-f3560c42749c"},"vehicle_type_id":"4","last_reported":1687526218,"current_range_meters":5600,"station_id":"ce4bhb92rcd13ifvqen0","pricing_plan_id":"free"},{"bike_id":"8a9cec94-de9b-4fc4-9308-0821f4c48327","system_id":"levelo_inurba_marseille","lat":43.33044,"lon":5.38918,"is_reserved":false,"is_disabled":false,"rental_uris":{"android":"levelo://app?vid=8a9cec94-de9b-4fc4-9308-0821f4c48327","ios":"levelo://app?vid=8a9cec94-de9b-4fc4-9308-0821f4c48327"},"vehicle_type_id":"4","last_reported":1687526218,"current_range_meters":9600,"station_id":"ce4bhr92rcd13ifvqhrg","pricing_plan_id":"free"},{"bike_id":"1df701d1-1177-4d28-ad00-3d188e14cd97","system_id":"levelo_inurba_marseille","lat":43.290104,"lon":5.356111,"is_reserved":false,"is_disabled":false,"rental_uris":{"android":"levelo://app?vid=1df701d1-1177-4d28-ad00-3d188e14cd97","ios":"levelo://app?vid=1df701d1-1177-4d28-ad00-3d188e14cd97"},"vehicle_type_id":"4","last_reported":1687526218,"current_range_meters":24800,"station_id":"ce4bhb92rcd13ifvqen0","pricing_plan_id":"free"},{"bike_id":"5d1a1439-8334-470f-be3d-f78348e9bc2b","system_id":"levelo_inurba_marseille","lat":43.290104,"lon":5.356111,"is_reserved":false,"is_disabled":false,"rental_uris":{"android":"levelo://app?vid=5d1a1439-8334-470f-be3d-f78348e9bc2b","ios":"levelo://app?vid=5d1a1439-8334-470f-be3d-f78348e9bc2b"},"vehicle_type_id":"4","last_reported":1687526218,"current_range_meters":23600,"station_id":"ce4bhb92rcd13ifvqen0","pricing_plan_id":"free"},{"bike_id":"68abb654-ab51-46a6-b559-05601860ca6e","system_id":"levelo_inurba_marseille","lat":43.290103,"lon":5.356114,"is_reserved":false,"is_disabled":false,"rental_uris":{"android":"levelo://app?vid=68abb654-ab51-46a6-b559-05601860ca6e","ios":"levelo://app?vid=68abb654-ab51-46a6-b559-05601860ca6e"},"vehicle_type_id":"4","last_reported":1687526218,"current_range_meters":28000,"station_id":"ce4bhb92rcd13ifvqen0","pricing_plan_id":"free"},{"bike_id":"de4a6415-7cce-4656-89ac-d7d4eaa645b3","system_id":"levelo_inurba_marseille","lat":43.33046,"lon":5.3892,"is_reserved":false,"is_disabled":false,"rental_uris":{"android":"levelo://app?vid=de4a6415-7cce-4656-89ac-d7d4eaa645b3","ios":"levelo://app?vid=de4a6415-7cce-4656-89ac-d7d4eaa645b3"},"vehicle_type_id":"4","last_reported":1687526218,"current_range_meters":15200,"station_id":"ce4bhr92rcd13ifvqhrg","pricing_plan_id":"free"},{"bike_id":"c73d2cc7-61ec-4fd2-a002-ffa050603a67","system_id":"levelo_inurba_marseille","lat":43.33043,"lon":5.38926,"is_reserved":false,"is_disabled":false,"rental_uris":{"android":"levelo://app?vid=c73d2cc7-61ec-4fd2-a002-ffa050603a67","ios":"levelo://app?vid=c73d2cc7-61ec-4fd2-a002-ffa050603a67"},"vehicle_type_id":"4","last_reported":1687526218,"current_range_meters":30000,"station_id":"ce4bhr92rcd13ifvqhrg","pricing_plan_id":"free"},{"bike_id":"6315ef6b-302f-4977-a1f6-bb2ecb25191a","system_id":"levelo_inurba_marseille","lat":43.289741,"lon":5.378306,"is_reserved":false,"is_disabled":false,"rental_uris":{"android":"levelo://app?vid=6315ef6b-302f-4977-a1f6-bb2ecb25191a","ios":"levelo://app?vid=6315ef6b-302f-4977-a1f6-bb2ecb25191a"},"vehicle_type_id":"4","last_reported":1687526218,"current_range_meters":18400,"station_id":"ce4bh9p2rcd13ifvqed0","pricing_plan_id":"free"},{"bike_id":"ffe4b49a-8ed8-44ba-bdb1-fb1666e3d0d6","system_id":"levelo_inurba_marseille","lat":43.289741,"lon":5.378306,"is_reserved":false,"is_disabled":false,"rental_uris":{"android":"levelo://app?vid=ffe4b49a-8ed8-44ba-bdb1-fb1666e3d0d6","ios":"levelo://app?vid=ffe4b49a-8ed8-44ba-bdb1-fb1666e3d0d6"},"vehicle_type_id":"4","last_reported":1687526218,"current_range_meters":400,"station_id":"ce4bh9p2rcd13ifvqed0","pricing_plan_id":"free"},{"bike_id":"5603134d-1556-469f-a424-f7405c2d4cff","system_id":"levelo_inurba_marseille","lat":43.2901,"lon":5.381269,"is_reserved":false,"is_disabled":false,"rental_uris":{"android":"levelo://app?vid=5603134d-1556-469f-a424-f7405c2d4cff","ios":"levelo://app?vid=5603134d-1556-469f-a424-f7405c2d4cff"},"vehicle_type_id":"4","last_reported":1687526218,"current_range_meters":6800,"station_id":"ce4bh4p2rcd13ifvqe1g","pricing_plan_id":"free"},{"bike_id":"77a513c6-59d8-4b17-a7ce-950dca11fede","system_id":"levelo_inurba_marseille","lat":43.28856,"lon":5.358371,"is_reserved":false,"is_disabled":false,"rental_uris":{"android":"levelo://app?vid=77a513c6-59d8-4b17-a7ce-950dca11fede","ios":"levelo://app?vid=77a513c6-59d8-4b17-a7ce-950dca11fede"},"vehicle_type_id":"4","last_reported":1687526218,"current_range_meters":4400,"station_id":"ce4bhb12rcd13ifvqem0","pricing_plan_id":"free"},{"bike_id":"3f8a925a-6a54-4259-a38f-9cf091aab246","system_id":"levelo_inurba_marseille","lat":43.29266,"lon":5.38741,"is_reserved":false,"is_disabled":false,"rental_uris":{"android":"levelo://app?vid=3f8a925a-6a54-4259-a38f-9cf091aab246","ios":"levelo://app?vid=3f8a925a-6a54-4259-a38f-9cf091aab246"},"vehicle_type_id":"4","last_reported":1687526218,"current_range_meters":25200,"station_id":"","pricing_plan_id":"free"},{"bike_id":"9627618a-2d84-4756-a554-8191b4ca059f","system_id":"levelo_inurba_marseille","lat":43.28856,"lon":5.358371,"is_reserved":false,"is_disabled":false,"rental_uris":{"android":"levelo://app?vid=9627618a-2d84-4756-a554-8191b4ca059f","ios":"levelo://app?vid=9627618a-2d84-4756-a554-8191b4ca059f"},"vehicle_type_id":"4","last_reported":1687526218,"current_range_meters":24000,"station_id":"ce4bhb12rcd13ifvqem0","pricing_plan_id":"free"},{"bike_id":"c180ae38-f769-441f-8a55-5a6e4930e6ad","system_id":"levelo_inurba_marseille","lat":43.3375,"lon":5.37439,"is_reserved":false,"is_disabled":false,"rental_uris":{"android":"levelo://app?vid=c180ae38-f769-441f-8a55-5a6e4930e6ad","ios":"levelo://app?vid=c180ae38-f769-441f-8a55-5a6e4930e6ad"},"vehicle_type_id":"4","last_reported":1687526218,"current_range_meters":27200,"station_id":"","pricing_plan_id":"free"},{"bike_id":"8dbbf780-2000-40db-8a27-140279cb1255","system_id":"levelo_inurba_marseille","lat":43.309371,"lon":5.401449,"is_reserved":false,"is_disabled":false,"rental_uris":{"android":"levelo://app?vid=8dbbf780-2000-40db-8a27-140279cb1255","ios":"levelo://app?vid=8dbbf780-2000-40db-8a27-140279cb1255"},"vehicle_type_id":"4","last_reported":1687526218,"current_range_meters":18000,"station_id":"ce4bgvp2rcd13ifvqct0","pricing_plan_id":"free"},{"bike_id":"2cb5841e-cfd4-4329-9d4d-e35d1c08e5e2","system_id":"levelo_inurba_marseille","lat":43.33751,"lon":5.37445,"is_reserved":false,"is_disabled":false,"rental_uris":{"android":"levelo://app?vid=2cb5841e-cfd4-4329-9d4d-e35d1c08e5e2","ios":"levelo://app?vid=2cb5841e-cfd4-4329-9d4d-e35d1c08e5e2"},"vehicle_type_id":"4","last_reported":1687526218,"current_range_meters":24400,"station_id":"","pricing_plan_id":"free"},{"bike_id":"b0bd3bcb-bd35-4f75-8285-8f528f09b8d5","system_id":"levelo_inurba_marseille","lat":43.33753,"lon":5.37441,"is_reserved":false,"is_disabled":false,"rental_uris":{"android":"levelo://app?vid=b0bd3bcb-bd35-4f75-8285-8f528f09b8d5","ios":"levelo://app?vid=b0bd3bcb-bd35-4f75-8285-8f528f09b8d5"},"vehicle_type_id":"4","last_reported":1687526218,"current_range_meters":19200,"station_id":"","pricing_plan_id":"free"},{"bike_id":"47d7b8fc-b045-49c9-ad70-c2a85ea60d7d","system_id":"levelo_inurba_marseille","lat":43.309371,"lon":5.401449,"is_reserved":false,"is_disabled":false,"rental_uris":{"android":"levelo://app?vid=47d7b8fc-b045-49c9-ad70-c2a85ea60d7d","ios":"levelo://app?vid=47d7b8fc-b045-49c9-ad70-c2a85ea60d7d"},"vehicle_type_id":"4","last_reported":1687526218,"current_range_meters":12800,"station_id":"ce4bgvp2rcd13ifvqct0","pricing_plan_id":"free"},{"bike_id":"e3a1d8c5-4287-4d63-8a0a-0c8b945023e5","system_id":"levelo_inurba_marseille","lat":43.309371,"lon":5.401449,"is_reserved":false,"is_disabled":false,"rental_uris":{"android":"levelo://app?vid=e3a1d8c5-4287-4d63-8a0a-0c8b945023e5","ios":"levelo://app?vid=e3a1d8c5-4287-4d63-8a0a-0c8b945023e5"},"vehicle_type_id":"4","last_reported":1687526218,"current_range_meters":8800,"station_id":"ce4bgvp2rcd13ifvqct0","pricing_plan_id":"free"},{"bike_id":"fc3b0ac6-434b-486a-9b65-38ee565220ba","system_id":"levelo_inurba_marseille","lat":43.309371,"lon":5.401449,"is_reserved":false,"is_disabled":false,"rental_uris":{"android":"levelo://app?vid=fc3b0ac6-434b-486a-9b65-38ee565220ba","ios":"levelo://app?vid=fc3b0ac6-434b-486a-9b65-38ee565220ba"},"vehicle_type_id":"4","last_reported":1687526218,"current_range_meters":23200,"station_id":"ce4bgvp2rcd13ifvqct0","pricing_plan_id":"free"},{"bike_id":"371dca31-85f7-45b3-bdf7-456d92bfa579","system_id":"levelo_inurba_marseille","lat":43.301117,"lon":5.398795,"is_reserved":false,"is_disabled":false,"rental_uris":{"android":"levelo://app?vid=371dca31-85f7-45b3-bdf7-456d92bfa579","ios":"levelo://app?vid=371dca31-85f7-45b3-bdf7-456d92bfa579"},"vehicle_type_id":"4","last_reported":1687526218,"current_range_meters":19200,"station_id":"ce4bh0h2rcd13ifvqd40","pricing_plan_id":"free"},{"bike_id":"eb1284ec-e5da-4370-9566-b4c2604a67e1","system_id":"levelo_inurba_marseille","lat":43.298681,"lon":5.397225,"is_reserved":false,"is_disabled":false,"rental_uris":{"android":"levelo://app?vid=eb1284ec-e5da-4370-9566-b4c2604a67e1","ios":"levelo://app?vid=eb1284ec-e5da-4370-9566-b4c2604a67e1"},"vehicle_type_id":"4","last_reported":1687526218,"current_range_meters":4000,"station_id":"ce4bh0h2rcd13ifvqd50","pricing_plan_id":"free"},{"bike_id":"30f5d839-b3c5-4646-aab0-1fa82592da7d","system_id":"levelo_inurba_marseille","lat":43.28663,"lon":5.36356,"is_reserved":false,"is_disabled":false,"rental_uris":{"android":"levelo://app?vid=30f5d839-b3c5-4646-aab0-1fa82592da7d","ios":"levelo://app?vid=30f5d839-b3c5-4646-aab0-1fa82592da7d"},"vehicle_type_id":"4","last_reported":1687526218,"current_range_meters":27600,"station_id":"ce4bhah2rcd13ifvqej0","pricing_plan_id":"free"},{"bike_id":"1c70bdb2-8e9d-47ca-beff-e81d928592a2","system_id":"levelo_inurba_marseille","lat":43.290345,"lon":5.38646,"is_reserved":false,"is_disabled":false,"rental_uris":{"android":"levelo://app?vid=1c70bdb2-8e9d-47ca-beff-e81d928592a2","ios":"levelo://app?vid=1c70bdb2-8e9d-47ca-beff-e81d928592a2"},"vehicle_type_id":"4","last_reported":1687526218,"current_range_meters":24800,"station_id":"ce4bh4p2rcd13ifvqe0g","pricing_plan_id":"free"},{"bike_id":"93f6b053-1082-4819-b960-180eee3aaf91","system_id":"levelo_inurba_marseille","lat":43.290345,"lon":5.38646,"is_reserved":false,"is_disabled":false,"rental_uris":{"android":"levelo://app?vid=93f6b053-1082-4819-b960-180eee3aaf91","ios":"levelo://app?vid=93f6b053-1082-4819-b960-180eee3aaf91"},"vehicle_type_id":"4","last_reported":1687526218,"current_range_meters":10400,"station_id":"ce4bh4p2rcd13ifvqe0g","pricing_plan_id":"free"},{"bike_id":"2ae00855-b6ad-41ee-ae51-c541066a3f99","system_id":"levelo_inurba_marseille","lat":43.286039,"lon":5.370679,"is_reserved":false,"is_disabled":false,"rental_uris":{"android":"levelo://app?vid=2ae00855-b6ad-41ee-ae51-c541066a3f99","ios":"levelo://app?vid=2ae00855-b6ad-41ee-ae51-c541066a3f99"},"vehicle_type_id":"4","last_reported":1687526218,"current_range_meters":31200,"station_id":"ce4bht12rcd13ifvqi60","pricing_plan_id":"free"},{"bike_id":"9c61d523-82a5-44e7-9e87-c717b7519b89","system_id":"levelo_inurba_marseille","lat":43.286039,"lon":5.370679,"is_reserved":false,"is_disabled":false,"rental_uris":{"android":"levelo://app?vid=9c61d523-82a5-44e7-9e87-c717b7519b89","ios":"levelo://app?vid=9c61d523-82a5-44e7-9e87-c717b7519b89"},"vehicle_type_id":"4","last_reported":1687526218,"current_range_meters":31200,"station_id":"ce4bht12rcd13ifvqi60","pricing_plan_id":"free"},{"bike_id":"0a13ed62-17e9-46d0-96a9-2014b9142b36","system_id":"levelo_inurba_marseille","lat":43.287184,"lon":5.37937,"is_reserved":false,"is_disabled":false,"rental_uris":{"android":"levelo://app?vid=0a13ed62-17e9-46d0-96a9-2014b9142b36","ios":"levelo://app?vid=0a13ed62-17e9-46d0-96a9-2014b9142b36"},"vehicle_type_id":"4","last_reported":1687526218,"current_range_meters":13600,"station_id":"ce4bh9p2rcd13ifvqec0","pricing_plan_id":"free"},{"bike_id":"4d9c4f67-6795-42ea-b9b4-6982e6263406","system_id":"levelo_inurba_marseille","lat":43.287184,"lon":5.37937,"is_reserved":false,"is_disabled":false,"rental_uris":{"android":"levelo://app?vid=4d9c4f67-6795-42ea-b9b4-6982e6263406","ios":"levelo://app?vid=4d9c4f67-6795-42ea-b9b4-6982e6263406"},"vehicle_type_id":"4","last_reported":1687526218,"current_range_meters":18400,"station_id":"ce4bh9p2rcd13ifvqec0","pricing_plan_id":"free"},{"bike_id":"46db2128-f074-4d02-b2eb-b59ee5477c68","system_id":"levelo_inurba_marseille","lat":43.287184,"lon":5.37937,"is_reserved":false,"is_disabled":false,"rental_uris":{"android":"levelo://app?vid=46db2128-f074-4d02-b2eb-b59ee5477c68","ios":"levelo://app?vid=46db2128-f074-4d02-b2eb-b59ee5477c68"},"vehicle_type_id":"4","last_reported":1687526218,"current_range_meters":2800,"station_id":"ce4bh9p2rcd13ifvqec0","pricing_plan_id":"free"},{"bike_id":"a37c0fae-4a5a-439c-b657-92eb5b791bfa","system_id":"levelo_inurba_marseille","lat":43.287184,"lon":5.37937,"is_reserved":false,"is_disabled":false,"rental_uris":{"android":"levelo://app?vid=a37c0fae-4a5a-439c-b657-92eb5b791bfa","ios":"levelo://app?vid=a37c0fae-4a5a-439c-b657-92eb5b791bfa"},"vehicle_type_id":"4","last_reported":1687526218,"current_range_meters":15600,"station_id":"ce4bh9p2rcd13ifvqec0","pricing_plan_id":"free"},{"bike_id":"a7486434-67f6-48c3-8f2e-21776ad2f090","system_id":"levelo_inurba_marseille","lat":43.287184,"lon":5.37937,"is_reserved":false,"is_disabled":false,"rental_uris":{"android":"levelo://app?vid=a7486434-67f6-48c3-8f2e-21776ad2f090","ios":"levelo://app?vid=a7486434-67f6-48c3-8f2e-21776ad2f090"},"vehicle_type_id":"4","last_reported":1687526218,"current_range_meters":7200,"station_id":"ce4bh9p2rcd13ifvqec0","pricing_plan_id":"free"},{"bike_id":"d6bf0916-0065-40d6-8233-4524edf46584","system_id":"levelo_inurba_marseille","lat":43.287184,"lon":5.37937,"is_reserved":false,"is_disabled":false,"rental_uris":{"android":"levelo://app?vid=d6bf0916-0065-40d6-8233-4524edf46584","ios":"levelo://app?vid=d6bf0916-0065-40d6-8233-4524edf46584"},"vehicle_type_id":"4","last_reported":1687526218,"current_range_meters":14400,"station_id":"ce4bh9p2rcd13ifvqec0","pricing_plan_id":"free"},{"bike_id":"17861fe4-a192-45e3-a3a9-70de2816c8fb","system_id":"levelo_inurba_marseille","lat":43.316523,"lon":5.404367,"is_reserved":false,"is_disabled":false,"rental_uris":{"android":"levelo://app?vid=17861fe4-a192-45e3-a3a9-70de2816c8fb","ios":"levelo://app?vid=17861fe4-a192-45e3-a3a9-70de2816c8fb"},"vehicle_type_id":"4","last_reported":1687526218,"current_range_meters":30000,"station_id":"ce4bh012rcd13ifvqd00","pricing_plan_id":"free"},{"bike_id":"d88b197c-9f35-473a-8572-83cf28c374bc","system_id":"levelo_inurba_marseille","lat":43.316523,"lon":5.404367,"is_reserved":false,"is_disabled":false,"rental_uris":{"android":"levelo://app?vid=d88b197c-9f35-473a-8572-83cf28c374bc","ios":"levelo://app?vid=d88b197c-9f35-473a-8572-83cf28c374bc"},"vehicle_type_id":"4","last_reported":1687526218,"current_range_meters":0,"station_id":"ce4bh012rcd13ifvqd00","pricing_plan_id":"free"},{"bike_id":"40e0e303-21b9-4753-a467-8d3d8cd3a8a0","system_id":"levelo_inurba_marseille","lat":43.291994,"lon":5.392907,"is_reserved":false,"is_disabled":false,"rental_uris":{"android":"levelo://app?vid=40e0e303-21b9-4753-a467-8d3d8cd3a8a0","ios":"levelo://app?vid=40e0e303-21b9-4753-a467-8d3d8cd3a8a0"},"vehicle_type_id":"4","last_reported":1687526218,"current_range_meters":0,"station_id":"ce4bh192rcd13ifvqdd0","pricing_plan_id":"free"},{"bike_id":"b38a0814-4aee-400f-93d2-b0da5f3706ff","system_id":"levelo_inurba_marseille","lat":43.29197,"lon":5.39312,"is_reserved":false,"is_disabled":false,"rental_uris":{"android":"levelo://app?vid=b38a0814-4aee-400f-93d2-b0da5f3706ff","ios":"levelo://app?vid=b38a0814-4aee-400f-93d2-b0da5f3706ff"},"vehicle_type_id":"4","last_reported":1687526218,"current_range_meters":11200,"station_id":"ce4bh192rcd13ifvqdd0","pricing_plan_id":"free"},{"bike_id":"1d80e2af-fc5c-40a3-b738-6d5f6ef07b3b","system_id":"levelo_inurba_marseille","lat":43.281044,"lon":5.378308,"is_reserved":false,"is_disabled":false,"rental_uris":{"android":"levelo://app?vid=1d80e2af-fc5c-40a3-b738-6d5f6ef07b3b","ios":"levelo://app?vid=1d80e2af-fc5c-40a3-b738-6d5f6ef07b3b"},"vehicle_type_id":"4","last_reported":1687526218,"current_range_meters":30000,"station_id":"ce4bha12rcd13ifvqee0","pricing_plan_id":"free"},{"bike_id":"1e898244-17fd-4957-acb5-90810a891a3e","system_id":"levelo_inurba_marseille","lat":43.284534,"lon":5.358662,"is_reserved":false,"is_disabled":false,"rental_uris":{"android":"levelo://app?vid=1e898244-17fd-4957-acb5-90810a891a3e","ios":"levelo://app?vid=1e898244-17fd-4957-acb5-90810a891a3e"},"vehicle_type_id":"4","last_reported":1687526218,"current_range_meters":19200,"station_id":"ce4bhah2rcd13ifvqei0","pricing_plan_id":"free"},{"bike_id":"395ad6ca-ea43-4d5b-80ce-58acb4bcf91e","system_id":"levelo_inurba_marseille","lat":43.284534,"lon":5.358662,"is_reserved":false,"is_disabled":false,"rental_uris":{"android":"levelo://app?vid=395ad6ca-ea43-4d5b-80ce-58acb4bcf91e","ios":"levelo://app?vid=395ad6ca-ea43-4d5b-80ce-58acb4bcf91e"},"vehicle_type_id":"4","last_reported":1687526218,"current_range_meters":5600,"station_id":"ce4bhah2rcd13ifvqei0","pricing_plan_id":"free"},{"bike_id":"59670568-33af-485a-bcfd-1a725a37ec51","system_id":"levelo_inurba_marseille","lat":43.284534,"lon":5.358662,"is_reserved":false,"is_disabled":false,"rental_uris":{"android":"levelo://app?vid=59670568-33af-485a-bcfd-1a725a37ec51","ios":"levelo://app?vid=59670568-33af-485a-bcfd-1a725a37ec51"},"vehicle_type_id":"4","last_reported":1687526218,"current_range_meters":17600,"station_id":"ce4bhah2rcd13ifvqei0","pricing_plan_id":"free"},{"bike_id":"ac61b623-c5ed-45aa-82c6-7d62fd9d734b","system_id":"levelo_inurba_marseille","lat":43.284534,"lon":5.358662,"is_reserved":false,"is_disabled":false,"rental_uris":{"android":"levelo://app?vid=ac61b623-c5ed-45aa-82c6-7d62fd9d734b","ios":"levelo://app?vid=ac61b623-c5ed-45aa-82c6-7d62fd9d734b"},"vehicle_type_id":"4","last_reported":1687526218,"current_range_meters":4400,"station_id":"ce4bhah2rcd13ifvqei0","pricing_plan_id":"free"},{"bike_id":"9a131b55-59c4-4d0f-917d-ebae6c5fc671","system_id":"levelo_inurba_marseille","lat":43.284534,"lon":5.358662,"is_reserved":false,"is_disabled":false,"rental_uris":{"android":"levelo://app?vid=9a131b55-59c4-4d0f-917d-ebae6c5fc671","ios":"levelo://app?vid=9a131b55-59c4-4d0f-917d-ebae6c5fc671"},"vehicle_type_id":"4","last_reported":1687526218,"current_range_meters":5200,"station_id":"ce4bhah2rcd13ifvqei0","pricing_plan_id":"free"},{"bike_id":"359f1d83-978d-4fe8-990e-b8205d0ae83a","system_id":"levelo_inurba_marseille","lat":43.285856,"lon":5.350771,"is_reserved":false,"is_disabled":false,"rental_uris":{"android":"levelo://app?vid=359f1d83-978d-4fe8-990e-b8205d0ae83a","ios":"levelo://app?vid=359f1d83-978d-4fe8-990e-b8205d0ae83a"},"vehicle_type_id":"4","last_reported":1687526218,"current_range_meters":31200,"station_id":"ce4bhch2rcd13ifvqeug","pricing_plan_id":"free"},{"bike_id":"d00addf9-3455-48d2-a208-51f28ff95d2f","system_id":"levelo_inurba_marseille","lat":43.285856,"lon":5.350771,"is_reserved":false,"is_disabled":false,"rental_uris":{"android":"levelo://app?vid=d00addf9-3455-48d2-a208-51f28ff95d2f","ios":"levelo://app?vid=d00addf9-3455-48d2-a208-51f28ff95d2f"},"vehicle_type_id":"4","last_reported":1687526218,"current_range_meters":0,"station_id":"ce4bhch2rcd13ifvqeug","pricing_plan_id":"free"},{"bike_id":"31773a67-a98d-4552-9b3d-98ad3df9ceb2","system_id":"levelo_inurba_marseille","lat":43.285856,"lon":5.350771,"is_reserved":false,"is_disabled":false,"rental_uris":{"android":"levelo://app?vid=31773a67-a98d-4552-9b3d-98ad3df9ceb2","ios":"levelo://app?vid=31773a67-a98d-4552-9b3d-98ad3df9ceb2"},"vehicle_type_id":"4","last_reported":1687526218,"current_range_meters":22800,"station_id":"ce4bhch2rcd13ifvqeug","pricing_plan_id":"free"},{"bike_id":"b643ec1b-e4e8-4ee2-94e5-ed3c9f141955","system_id":"levelo_inurba_marseille","lat":43.283998,"lon":5.375062,"is_reserved":false,"is_disabled":false,"rental_uris":{"android":"levelo://app?vid=b643ec1b-e4e8-4ee2-94e5-ed3c9f141955","ios":"levelo://app?vid=b643ec1b-e4e8-4ee2-94e5-ed3c9f141955"},"vehicle_type_id":"4","last_reported":1687526218,"current_range_meters":4000,"station_id":"ce4bh412rcd13ifvqds0","pricing_plan_id":"free"},{"bike_id":"6c07a58c-b66f-43e4-bda4-a75c275ce07c","system_id":"levelo_inurba_marseille","lat":43.286595,"lon":5.386795,"is_reserved":false,"is_disabled":false,"rental_uris":{"android":"levelo://app?vid=6c07a58c-b66f-43e4-bda4-a75c275ce07c","ios":"levelo://app?vid=6c07a58c-b66f-43e4-bda4-a75c275ce07c"},"vehicle_type_id":"4","last_reported":1687526218,"current_range_meters":25600,"station_id":"ce4bh492rcd13ifvqdug","pricing_plan_id":"free"},{"bike_id":"f1143007-df06-4ca2-9520-1d6f824cdb2f","system_id":"levelo_inurba_marseille","lat":43.286595,"lon":5.386795,"is_reserved":false,"is_disabled":false,"rental_uris":{"android":"levelo://app?vid=f1143007-df06-4ca2-9520-1d6f824cdb2f","ios":"levelo://app?vid=f1143007-df06-4ca2-9520-1d6f824cdb2f"},"vehicle_type_id":"4","last_reported":1687526218,"current_range_meters":10800,"station_id":"ce4bh492rcd13ifvqdug","pricing_plan_id":"free"},{"bike_id":"31b1934a-83ac-42b6-8eea-a8824d1048df","system_id":"levelo_inurba_marseille","lat":43.28669,"lon":5.38658,"is_reserved":false,"is_disabled":false,"rental_uris":{"android":"levelo://app?vid=31b1934a-83ac-42b6-8eea-a8824d1048df","ios":"levelo://app?vid=31b1934a-83ac-42b6-8eea-a8824d1048df"},"vehicle_type_id":"4","last_reported":1687526218,"current_range_meters":31200,"station_id":"ce4bh492rcd13ifvqdug","pricing_plan_id":"free"},{"bike_id":"ed06e586-6292-4fde-a8a9-1ef03dc1d23a","system_id":"levelo_inurba_marseille","lat":43.286595,"lon":5.386795,"is_reserved":false,"is_disabled":false,"rental_uris":{"android":"levelo://app?vid=ed06e586-6292-4fde-a8a9-1ef03dc1d23a","ios":"levelo://app?vid=ed06e586-6292-4fde-a8a9-1ef03dc1d23a"},"vehicle_type_id":"4","last_reported":1687526218,"current_range_meters":18800,"station_id":"ce4bh492rcd13ifvqdug","pricing_plan_id":"free"},{"bike_id":"af229005-9587-414b-85b0-c47170a4db02","system_id":"levelo_inurba_marseille","lat":43.323464,"lon":5.406297,"is_reserved":false,"is_disabled":false,"rental_uris":{"android":"levelo://app?vid=af229005-9587-414b-85b0-c47170a4db02","ios":"levelo://app?vid=af229005-9587-414b-85b0-c47170a4db02"},"vehicle_type_id":"4","last_reported":1687526218,"current_range_meters":31600,"station_id":"ce4bhq92rcd13ifvqhjg","pricing_plan_id":"free"},{"bike_id":"e8556eb4-3ade-4dd7-8bae-89f0932c3983","system_id":"levelo_inurba_marseille","lat":43.323464,"lon":5.406297,"is_reserved":false,"is_disabled":false,"rental_uris":{"android":"levelo://app?vid=e8556eb4-3ade-4dd7-8bae-89f0932c3983","ios":"levelo://app?vid=e8556eb4-3ade-4dd7-8bae-89f0932c3983"},"vehicle_type_id":"4","last_reported":1687526218,"current_range_meters":30400,"station_id":"ce4bhq92rcd13ifvqhjg","pricing_plan_id":"free"},{"bike_id":"a54c5183-d12c-4b5d-b1a7-e6c2a62eb9b5","system_id":"levelo_inurba_marseille","lat":43.323464,"lon":5.406297,"is_reserved":false,"is_disabled":false,"rental_uris":{"android":"levelo://app?vid=a54c5183-d12c-4b5d-b1a7-e6c2a62eb9b5","ios":"levelo://app?vid=a54c5183-d12c-4b5d-b1a7-e6c2a62eb9b5"},"vehicle_type_id":"4","last_reported":1687526218,"current_range_meters":22800,"station_id":"ce4bhq92rcd13ifvqhjg","pricing_plan_id":"free"},{"bike_id":"023e4546-4bbe-4579-9c25-eb0f80bbce2f","system_id":"levelo_inurba_marseille","lat":43.323464,"lon":5.406297,"is_reserved":false,"is_disabled":false,"rental_uris":{"android":"levelo://app?vid=023e4546-4bbe-4579-9c25-eb0f80bbce2f","ios":"levelo://app?vid=023e4546-4bbe-4579-9c25-eb0f80bbce2f"},"vehicle_type_id":"4","last_reported":1687526218,"current_range_meters":15200,"station_id":"ce4bhq92rcd13ifvqhjg","pricing_plan_id":"free"},{"bike_id":"1d6451d3-95d8-4c84-90e0-ca873e7720cc","system_id":"levelo_inurba_marseille","lat":43.323464,"lon":5.406297,"is_reserved":false,"is_disabled":false,"rental_uris":{"android":"levelo://app?vid=1d6451d3-95d8-4c84-90e0-ca873e7720cc","ios":"levelo://app?vid=1d6451d3-95d8-4c84-90e0-ca873e7720cc"},"vehicle_type_id":"4","last_reported":1687526218,"current_range_meters":17600,"station_id":"ce4bhq92rcd13ifvqhjg","pricing_plan_id":"free"},{"bike_id":"4413f254-f987-4b8b-b5dd-4a830ccd4b99","system_id":"levelo_inurba_marseille","lat":43.323464,"lon":5.406297,"is_reserved":false,"is_disabled":false,"rental_uris":{"android":"levelo://app?vid=4413f254-f987-4b8b-b5dd-4a830ccd4b99","ios":"levelo://app?vid=4413f254-f987-4b8b-b5dd-4a830ccd4b99"},"vehicle_type_id":"4","last_reported":1687526218,"current_range_meters":21600,"station_id":"ce4bhq92rcd13ifvqhjg","pricing_plan_id":"free"},{"bike_id":"87a5776b-0848-44dd-9cd3-916b0569f09e","system_id":"levelo_inurba_marseille","lat":43.28468,"lon":5.38413,"is_reserved":false,"is_disabled":false,"rental_uris":{"android":"levelo://app?vid=87a5776b-0848-44dd-9cd3-916b0569f09e","ios":"levelo://app?vid=87a5776b-0848-44dd-9cd3-916b0569f09e"},"vehicle_type_id":"4","last_reported":1687526218,"current_range_meters":30800,"station_id":"ce4bh512rcd13ifvqe3g","pricing_plan_id":"free"},{"bike_id":"4f70e2c7-301e-4916-b9c6-0cd4c911dcf7","system_id":"levelo_inurba_marseille","lat":43.283494,"lon":5.380945,"is_reserved":false,"is_disabled":false,"rental_uris":{"android":"levelo://app?vid=4f70e2c7-301e-4916-b9c6-0cd4c911dcf7","ios":"levelo://app?vid=4f70e2c7-301e-4916-b9c6-0cd4c911dcf7"},"vehicle_type_id":"4","last_reported":1687526218,"current_range_meters":31200,"station_id":"ce4bh412rcd13ifvqdr0","pricing_plan_id":"free"},{"bike_id":"b4c950db-352f-4a1a-8e3c-c05101a6dad0","system_id":"levelo_inurba_marseille","lat":43.28849,"lon":5.39317,"is_reserved":false,"is_disabled":false,"rental_uris":{"android":"levelo://app?vid=b4c950db-352f-4a1a-8e3c-c05101a6dad0","ios":"levelo://app?vid=b4c950db-352f-4a1a-8e3c-c05101a6dad0"},"vehicle_type_id":"4","last_reported":1687526218,"current_range_meters":31200,"station_id":"ce4bh2p2rcd13ifvqdi0","pricing_plan_id":"free"},{"bike_id":"fc40407e-58ea-4053-a90c-d4c11008cda1","system_id":"levelo_inurba_marseille","lat":43.283494,"lon":5.380945,"is_reserved":false,"is_disabled":false,"rental_uris":{"android":"levelo://app?vid=fc40407e-58ea-4053-a90c-d4c11008cda1","ios":"levelo://app?vid=fc40407e-58ea-4053-a90c-d4c11008cda1"},"vehicle_type_id":"4","last_reported":1687526218,"current_range_meters":18400,"station_id":"ce4bh412rcd13ifvqdr0","pricing_plan_id":"free"},{"bike_id":"7edb7032-0f85-4cc7-8a59-042791d99e26","system_id":"levelo_inurba_marseille","lat":43.283498,"lon":5.380948,"is_reserved":false,"is_disabled":false,"rental_uris":{"android":"levelo://app?vid=7edb7032-0f85-4cc7-8a59-042791d99e26","ios":"levelo://app?vid=7edb7032-0f85-4cc7-8a59-042791d99e26"},"vehicle_type_id":"4","last_reported":1687526218,"current_range_meters":8400,"station_id":"ce4bh412rcd13ifvqdr0","pricing_plan_id":"free"},{"bike_id":"d7794388-932e-4da4-91d7-b4cb92d1f6f0","system_id":"levelo_inurba_marseille","lat":43.284219,"lon":5.3497,"is_reserved":false,"is_disabled":false,"rental_uris":{"android":"levelo://app?vid=d7794388-932e-4da4-91d7-b4cb92d1f6f0","ios":"levelo://app?vid=d7794388-932e-4da4-91d7-b4cb92d1f6f0"},"vehicle_type_id":"4","last_reported":1687526218,"current_range_meters":31600,"station_id":"ce4bhbh2rcd13ifvqepg","pricing_plan_id":"free"},{"bike_id":"2b9bc2ea-771b-457e-aa9b-329e484d1165","system_id":"levelo_inurba_marseille","lat":43.284219,"lon":5.3497,"is_reserved":false,"is_disabled":false,"rental_uris":{"android":"levelo://app?vid=2b9bc2ea-771b-457e-aa9b-329e484d1165","ios":"levelo://app?vid=2b9bc2ea-771b-457e-aa9b-329e484d1165"},"vehicle_type_id":"4","last_reported":1687526218,"current_range_meters":13200,"station_id":"ce4bhbh2rcd13ifvqepg","pricing_plan_id":"free"},{"bike_id":"5b5f07e8-e7c5-4caf-8fe2-96337408ac9a","system_id":"levelo_inurba_marseille","lat":43.284219,"lon":5.3497,"is_reserved":false,"is_disabled":false,"rental_uris":{"android":"levelo://app?vid=5b5f07e8-e7c5-4caf-8fe2-96337408ac9a","ios":"levelo://app?vid=5b5f07e8-e7c5-4caf-8fe2-96337408ac9a"},"vehicle_type_id":"4","last_reported":1687526218,"current_range_meters":19600,"station_id":"ce4bhbh2rcd13ifvqepg","pricing_plan_id":"free"},{"bike_id":"df92cf6f-d3fa-4ecc-ab43-8cc5a0e2f7f9","system_id":"levelo_inurba_marseille","lat":43.28422,"lon":5.34992,"is_reserved":false,"is_disabled":false,"rental_uris":{"android":"levelo://app?vid=df92cf6f-d3fa-4ecc-ab43-8cc5a0e2f7f9","ios":"levelo://app?vid=df92cf6f-d3fa-4ecc-ab43-8cc5a0e2f7f9"},"vehicle_type_id":"4","last_reported":1687526218,"current_range_meters":22000,"station_id":"ce4bhbh2rcd13ifvqepg","pricing_plan_id":"free"},{"bike_id":"65d953ba-43a1-4a27-abfe-d64c6a8b6a81","system_id":"levelo_inurba_marseille","lat":43.28344,"lon":5.38127,"is_reserved":false,"is_disabled":false,"rental_uris":{"android":"levelo://app?vid=65d953ba-43a1-4a27-abfe-d64c6a8b6a81","ios":"levelo://app?vid=65d953ba-43a1-4a27-abfe-d64c6a8b6a81"},"vehicle_type_id":"4","last_reported":1687526218,"current_range_meters":31200,"station_id":"ce4bh412rcd13ifvqdr0","pricing_plan_id":"free"},{"bike_id":"2bbe2a9a-7c60-4436-9184-8527ed226eae","system_id":"levelo_inurba_marseille","lat":43.28422,"lon":5.34986,"is_reserved":false,"is_disabled":false,"rental_uris":{"android":"levelo://app?vid=2bbe2a9a-7c60-4436-9184-8527ed226eae","ios":"levelo://app?vid=2bbe2a9a-7c60-4436-9184-8527ed226eae"},"vehicle_type_id":"4","last_reported":1687526218,"current_range_meters":24400,"station_id":"ce4bhbh2rcd13ifvqepg","pricing_plan_id":"free"},{"bike_id":"c91614d5-5289-4683-8df2-fb9c8741e891","system_id":"levelo_inurba_marseille","lat":43.284219,"lon":5.3497,"is_reserved":false,"is_disabled":false,"rental_uris":{"android":"levelo://app?vid=c91614d5-5289-4683-8df2-fb9c8741e891","ios":"levelo://app?vid=c91614d5-5289-4683-8df2-fb9c8741e891"},"vehicle_type_id":"4","last_reported":1687526218,"current_range_meters":21600,"station_id":"ce4bhbh2rcd13ifvqepg","pricing_plan_id":"free"},{"bike_id":"2041702f-d9ad-43de-b781-b01b85fcc79f","system_id":"levelo_inurba_marseille","lat":43.284219,"lon":5.3497,"is_reserved":false,"is_disabled":false,"rental_uris":{"android":"levelo://app?vid=2041702f-d9ad-43de-b781-b01b85fcc79f","ios":"levelo://app?vid=2041702f-d9ad-43de-b781-b01b85fcc79f"},"vehicle_type_id":"4","last_reported":1687526218,"current_range_meters":21200,"station_id":"ce4bhbh2rcd13ifvqepg","pricing_plan_id":"free"},{"bike_id":"6bc3c24b-2888-473a-afe2-b4cf73586357","system_id":"levelo_inurba_marseille","lat":43.284219,"lon":5.3497,"is_reserved":false,"is_disabled":false,"rental_uris":{"android":"levelo://app?vid=6bc3c24b-2888-473a-afe2-b4cf73586357","ios":"levelo://app?vid=6bc3c24b-2888-473a-afe2-b4cf73586357"},"vehicle_type_id":"4","last_reported":1687526218,"current_range_meters":16400,"station_id":"ce4bhbh2rcd13ifvqepg","pricing_plan_id":"free"},{"bike_id":"9070b5ec-4993-4141-b20b-4b064af8c820","system_id":"levelo_inurba_marseille","lat":43.28419,"lon":5.34991,"is_reserved":false,"is_disabled":false,"rental_uris":{"android":"levelo://app?vid=9070b5ec-4993-4141-b20b-4b064af8c820","ios":"levelo://app?vid=9070b5ec-4993-4141-b20b-4b064af8c820"},"vehicle_type_id":"4","last_reported":1687526218,"current_range_meters":28400,"station_id":"ce4bhbh2rcd13ifvqepg","pricing_plan_id":"free"},{"bike_id":"21c36aa3-829d-486e-a2c8-5cb2cc3c357c","system_id":"levelo_inurba_marseille","lat":43.28419,"lon":5.3499,"is_reserved":false,"is_disabled":false,"rental_uris":{"android":"levelo://app?vid=21c36aa3-829d-486e-a2c8-5cb2cc3c357c","ios":"levelo://app?vid=21c36aa3-829d-486e-a2c8-5cb2cc3c357c"},"vehicle_type_id":"4","last_reported":1687526218,"current_range_meters":17600,"station_id":"ce4bhbh2rcd13ifvqepg","pricing_plan_id":"free"},{"bike_id":"3a6da90d-0be9-46fb-b14f-e2b7a187c192","system_id":"levelo_inurba_marseille","lat":43.284219,"lon":5.3497,"is_reserved":false,"is_disabled":false,"rental_uris":{"android":"levelo://app?vid=3a6da90d-0be9-46fb-b14f-e2b7a187c192","ios":"levelo://app?vid=3a6da90d-0be9-46fb-b14f-e2b7a187c192"},"vehicle_type_id":"4","last_reported":1687526218,"current_range_meters":19200,"station_id":"ce4bhbh2rcd13ifvqepg","pricing_plan_id":"free"},{"bike_id":"2e5ae21f-36d7-4ced-ad98-27c007e5192f","system_id":"levelo_inurba_marseille","lat":43.284219,"lon":5.3497,"is_reserved":false,"is_disabled":false,"rental_uris":{"android":"levelo://app?vid=2e5ae21f-36d7-4ced-ad98-27c007e5192f","ios":"levelo://app?vid=2e5ae21f-36d7-4ced-ad98-27c007e5192f"},"vehicle_type_id":"4","last_reported":1687526218,"current_range_meters":12000,"station_id":"ce4bhbh2rcd13ifvqepg","pricing_plan_id":"free"},{"bike_id":"dd742f8b-67c0-4825-b83a-d3326cb40fb2","system_id":"levelo_inurba_marseille","lat":43.28417,"lon":5.34989,"is_reserved":false,"is_disabled":false,"rental_uris":{"android":"levelo://app?vid=dd742f8b-67c0-4825-b83a-d3326cb40fb2","ios":"levelo://app?vid=dd742f8b-67c0-4825-b83a-d3326cb40fb2"},"vehicle_type_id":"4","last_reported":1687526218,"current_range_meters":27200,"station_id":"ce4bhbh2rcd13ifvqepg","pricing_plan_id":"free"},{"bike_id":"540f18b9-471c-40fe-9ce4-fdffdde8d005","system_id":"levelo_inurba_marseille","lat":43.2842,"lon":5.34979,"is_reserved":false,"is_disabled":false,"rental_uris":{"android":"levelo://app?vid=540f18b9-471c-40fe-9ce4-fdffdde8d005","ios":"levelo://app?vid=540f18b9-471c-40fe-9ce4-fdffdde8d005"},"vehicle_type_id":"4","last_reported":1687526218,"current_range_meters":30000,"station_id":"ce4bhbh2rcd13ifvqepg","pricing_plan_id":"free"},{"bike_id":"253ed1d0-f512-4c04-8724-63840a41643a","system_id":"levelo_inurba_marseille","lat":43.284219,"lon":5.3497,"is_reserved":false,"is_disabled":false,"rental_uris":{"android":"levelo://app?vid=253ed1d0-f512-4c04-8724-63840a41643a","ios":"levelo://app?vid=253ed1d0-f512-4c04-8724-63840a41643a"},"vehicle_type_id":"4","last_reported":1687526218,"current_range_meters":5600,"station_id":"ce4bhbh2rcd13ifvqepg","pricing_plan_id":"free"},{"bike_id":"22f5e624-39af-4a83-8252-cf5f9e855a58","system_id":"levelo_inurba_marseille","lat":43.28416,"lon":5.3499,"is_reserved":false,"is_disabled":false,"rental_uris":{"android":"levelo://app?vid=22f5e624-39af-4a83-8252-cf5f9e855a58","ios":"levelo://app?vid=22f5e624-39af-4a83-8252-cf5f9e855a58"},"vehicle_type_id":"4","last_reported":1687526218,"current_range_meters":20800,"station_id":"ce4bhbh2rcd13ifvqepg","pricing_plan_id":"free"},{"bike_id":"8e9ceba5-d0ba-4232-ba7e-c87ca0dba1b5","system_id":"levelo_inurba_marseille","lat":43.284219,"lon":5.3497,"is_reserved":false,"is_disabled":false,"rental_uris":{"android":"levelo://app?vid=8e9ceba5-d0ba-4232-ba7e-c87ca0dba1b5","ios":"levelo://app?vid=8e9ceba5-d0ba-4232-ba7e-c87ca0dba1b5"},"vehicle_type_id":"4","last_reported":1687526218,"current_range_meters":28000,"station_id":"ce4bhbh2rcd13ifvqepg","pricing_plan_id":"free"},{"bike_id":"31957fe3-3a8e-422d-a861-57ebec8c35cc","system_id":"levelo_inurba_marseille","lat":43.28415,"lon":5.34985,"is_reserved":false,"is_disabled":false,"rental_uris":{"android":"levelo://app?vid=31957fe3-3a8e-422d-a861-57ebec8c35cc","ios":"levelo://app?vid=31957fe3-3a8e-422d-a861-57ebec8c35cc"},"vehicle_type_id":"4","last_reported":1687526218,"current_range_meters":17600,"station_id":"ce4bhbh2rcd13ifvqepg","pricing_plan_id":"free"},{"bike_id":"050fb729-29cb-4b46-a988-0360d0f8d9e6","system_id":"levelo_inurba_marseille","lat":43.28415,"lon":5.34983,"is_reserved":false,"is_disabled":false,"rental_uris":{"android":"levelo://app?vid=050fb729-29cb-4b46-a988-0360d0f8d9e6","ios":"levelo://app?vid=050fb729-29cb-4b46-a988-0360d0f8d9e6"},"vehicle_type_id":"4","last_reported":1687526218,"current_range_meters":22400,"station_id":"ce4bhbh2rcd13ifvqepg","pricing_plan_id":"free"},{"bike_id":"24dd11c6-e384-4d7b-a502-d02762964927","system_id":"levelo_inurba_marseille","lat":43.28413,"lon":5.34982,"is_reserved":false,"is_disabled":false,"rental_uris":{"android":"levelo://app?vid=24dd11c6-e384-4d7b-a502-d02762964927","ios":"levelo://app?vid=24dd11c6-e384-4d7b-a502-d02762964927"},"vehicle_type_id":"4","last_reported":1687526218,"current_range_meters":7200,"station_id":"ce4bhbh2rcd13ifvqepg","pricing_plan_id":"free"},{"bike_id":"3db759c3-3846-4d27-bb54-063e42af2141","system_id":"levelo_inurba_marseille","lat":43.284219,"lon":5.3497,"is_reserved":false,"is_disabled":false,"rental_uris":{"android":"levelo://app?vid=3db759c3-3846-4d27-bb54-063e42af2141","ios":"levelo://app?vid=3db759c3-3846-4d27-bb54-063e42af2141"},"vehicle_type_id":"4","last_reported":1687526218,"current_range_meters":29200,"station_id":"ce4bhbh2rcd13ifvqepg","pricing_plan_id":"free"},{"bike_id":"43571aef-ad50-451c-aa6e-2d04357bd179","system_id":"levelo_inurba_marseille","lat":43.282754,"lon":5.350519,"is_reserved":false,"is_disabled":false,"rental_uris":{"android":"levelo://app?vid=43571aef-ad50-451c-aa6e-2d04357bd179","ios":"levelo://app?vid=43571aef-ad50-451c-aa6e-2d04357bd179"},"vehicle_type_id":"4","last_reported":1687526218,"current_range_meters":4800,"station_id":"ce4bhbp2rcd13ifvqerg","pricing_plan_id":"free"},{"bike_id":"eefc3dcd-e74d-4dd0-9890-d17d6bb2673a","system_id":"levelo_inurba_marseille","lat":43.282754,"lon":5.350519,"is_reserved":false,"is_disabled":false,"rental_uris":{"android":"levelo://app?vid=eefc3dcd-e74d-4dd0-9890-d17d6bb2673a","ios":"levelo://app?vid=eefc3dcd-e74d-4dd0-9890-d17d6bb2673a"},"vehicle_type_id":"4","last_reported":1687526218,"current_range_meters":30800,"station_id":"ce4bhbp2rcd13ifvqerg","pricing_plan_id":"free"},{"bike_id":"9b9c38da-8980-4036-a865-baecdf11ed23","system_id":"levelo_inurba_marseille","lat":43.282744,"lon":5.350533,"is_reserved":false,"is_disabled":false,"rental_uris":{"android":"levelo://app?vid=9b9c38da-8980-4036-a865-baecdf11ed23","ios":"levelo://app?vid=9b9c38da-8980-4036-a865-baecdf11ed23"},"vehicle_type_id":"4","last_reported":1687526218,"current_range_meters":26800,"station_id":"ce4bhbp2rcd13ifvqerg","pricing_plan_id":"free"},{"bike_id":"03f29601-7be2-460b-9aba-e01c87cea381","system_id":"levelo_inurba_marseille","lat":43.282754,"lon":5.350519,"is_reserved":false,"is_disabled":false,"rental_uris":{"android":"levelo://app?vid=03f29601-7be2-460b-9aba-e01c87cea381","ios":"levelo://app?vid=03f29601-7be2-460b-9aba-e01c87cea381"},"vehicle_type_id":"4","last_reported":1687526218,"current_range_meters":14000,"station_id":"ce4bhbp2rcd13ifvqerg","pricing_plan_id":"free"},{"bike_id":"b684bfcd-e35d-4a06-93fa-200949439813","system_id":"levelo_inurba_marseille","lat":43.282744,"lon":5.350533,"is_reserved":false,"is_disabled":false,"rental_uris":{"android":"levelo://app?vid=b684bfcd-e35d-4a06-93fa-200949439813","ios":"levelo://app?vid=b684bfcd-e35d-4a06-93fa-200949439813"},"vehicle_type_id":"4","last_reported":1687526218,"current_range_meters":31200,"station_id":"ce4bhbp2rcd13ifvqerg","pricing_plan_id":"free"},{"bike_id":"15b6c589-c1cd-4e66-91c8-3664689ade0e","system_id":"levelo_inurba_marseille","lat":43.282754,"lon":5.350519,"is_reserved":false,"is_disabled":false,"rental_uris":{"android":"levelo://app?vid=15b6c589-c1cd-4e66-91c8-3664689ade0e","ios":"levelo://app?vid=15b6c589-c1cd-4e66-91c8-3664689ade0e"},"vehicle_type_id":"4","last_reported":1687526218,"current_range_meters":24000,"station_id":"ce4bhbp2rcd13ifvqerg","pricing_plan_id":"free"},{"bike_id":"13d248c4-7299-4aca-a713-df132d972ce1","system_id":"levelo_inurba_marseille","lat":43.282754,"lon":5.350519,"is_reserved":false,"is_disabled":false,"rental_uris":{"android":"levelo://app?vid=13d248c4-7299-4aca-a713-df132d972ce1","ios":"levelo://app?vid=13d248c4-7299-4aca-a713-df132d972ce1"},"vehicle_type_id":"4","last_reported":1687526218,"current_range_meters":3200,"station_id":"ce4bhbp2rcd13ifvqerg","pricing_plan_id":"free"},