{"last_updated":1769437148,"ttl":60,"version":"2.2","data":{"bikes":[{"bike_id":"414937c3-22ca-4ac8-a6d1-0b2223c3f608","system_id":"levelo_inurba_marseille","lat":43.25832,"lon":5.39445,"is_reserved":false,"is_disabled":false,"rental_uris":{"android":"levelo://app?vid=414937c3-22ca-4ac8-a6d1-0b2223c3f608","ios":"levelo://app?vid=414937c3-22ca-4ac8-a6d1-0b2223c3f608"},"vehicle_type_id":"4","last_reported":1769437148,"current_range_meters":2800,"station_id":"ce4bhip2rcd13ifvqft0","pricing_plan_id":"cebpf4jnsgd1na2vs0mg"},{"bike_id":"45f664f9-bdc1-4e93-87c1-60654cd7330a","system_id":"levelo_inurba_marseille","lat":43.27209,"lon":5.39182,"is_reserved":false,"is_disabled":false,"rental_uris":{"android":"levelo://app?vid=45f664f9-bdc1-4e93-87c1-60654cd7330a","ios":"levelo://app?vid=45f664f9-bdc1-4e93-87c1-60654cd7330a"},"vehicle_type_id":"4","last_reported":1769437148,"current_range_meters":2800,"station_id":"ce4bhhp2rcd13ifvqfm0","pricing_plan_id":"cebpf4jnsgd1na2vs0mg"},{"bike_id":"94bcfe7a-ec42-4d80-b65d-4f51f90031a6","system_id":"levelo_inurba_marseille","lat":43.28919,"lon":5.38384,"is_reserved":false,"is_disabled":false,"rental_uris":{"android":"levelo://app?vid=94bcfe7a-ec42-4d80-b65d-4f51f90031a6","ios":"levelo://app?vid=94bcfe7a-ec42-4d80-b65d-4f51f90031a6"},"vehicle_type_id":"4","last_reported":1769437148,"current_range_meters":2800,"station_id":"ce4bh612rcd13ifvqe6g","pricing_plan_id":"cebpf4jnsgd1na2vs0mg"},{"bike_id":"b546c434-8389-4f9d-a51a-92d16fdf4e3a","system_id":"levelo_inurba_marseille","lat":43.30949,"lon":5.3903,"is_reserved":false,"is_disabled":false,"rental_uris":{"android":"levelo://app?vid=b546c434-8389-4f9d-a51a-92d16fdf4e3a","ios":"levelo://app?vid=b546c434-8389-4f9d-a51a-92d16fdf4e3a"},"vehicle_type_id":"4","last_reported":1769437148,"current_range_meters":2800,"station_id":"ce4bgup2rcd13ifvqco0","pricing_plan_id":"cebpf4jnsgd1na2vs0mg"},{"bike_id":"76242551-1b05-40ac-a7fd-938c60f142d2","system_id":"levelo_inurba_marseille","lat":43.29934,"lon":5.36529,"is_reserved":false,"is_disabled":false,"rental_uris":{"android":"levelo://app?vid=76242551-1b05-40ac-a7fd-938c60f142d2","ios":"levelo://app?vid=76242551-1b05-40ac-a7fd-938c60f142d2"},"vehicle_type_id":"4","last_reported":1769437148,"current_range_meters":2800,"station_id":"ce4bgm92rcd13ifvqbr0","pricing_plan_id":"cebpf4jnsgd1na2vs0mg"},{"bike_id":"ad575e34-9700-47fe-85fd-58d08c795ba9","system_id":"levelo_inurba_marseille","lat":43.24653,"lon":5.38885,"is_reserved":false,"is_disabled":false,"rental_uris":{"android":"levelo://app?vid=ad575e34-9700-47fe-85fd-58d08c795ba9","ios":"levelo://app?vid=ad575e34-9700-47fe-85fd-58d08c795ba9"},"vehicle_type_id":"4","last_reported":1769437148,"current_range_meters":2800,"station_id":"ce4bhg12rcd13ifvqf60","pricing_plan_id":"cebpf4jnsgd1na2vs0mg"},{"bike_id":"e19418ad-aa76-4b1d-a53d-977a549e82e9","system_id":"levelo_inurba_marseille","lat":43.231907,"lon":5.35562,"is_reserved":false,"is_disabled":false,"rental_uris":{"android":"levelo://app?vid=e19418ad-aa76-4b1d-a53d-977a549e82e9","ios":"levelo://app?vid=e19418ad-aa76-4b1d-a53d-977a549e82e9"},"vehicle_type_id":"4","last_reported":1769437148,"current_range_meters":2800,"station_id":"ce4bhu92rcd13ifvqi70","pricing_plan_id":"cebpf4jnsgd1na2vs0mg"},{"bike_id":"8e33e763-1658-464f-be9b-297cfbfbdb28","system_id":"levelo_inurba_marseille","lat":43.28718,"lon":5.37915,"is_reserved":false,"is_disabled":false,"rental_uris":{"android":"levelo://app?vid=8e33e763-1658-464f-be9b-297cfbfbdb28","ios":"levelo://app?vid=8e33e763-1658-464f-be9b-297cfbfbdb28"},"vehicle_type_id":"4","last_reported":1769437148,"current_range_meters":2800,"station_id":"ce4bh9p2rcd13ifvqec0","pricing_plan_id":"cebpf4jnsgd1na2vs0mg"},{"bike_id":"3505f8b1-8fc5-4e81-ad99-9adf10bd1de1","system_id":"levelo_inurba_marseille","lat":43.24632,"lon":5.43142,"is_reserved":false,"is_disabled":false,"rental_uris":{"android":"levelo://app?vid=3505f8b1-8fc5-4e81-ad99-9adf10bd1de1","ios":"levelo://app?vid=3505f8b1-8fc5-4e81-ad99-9adf10bd1de1"},"vehicle_type_id":"4","last_reported":1769437148,"current_range_meters":2800,"station_id":"st_d2m6c4gdas8pm72e190g","pricing_plan_id":"cebpf4jnsgd1na2vs0mg"},{"bike_id":"60c8a143-764e-4a44-9fc2-d90eafdc89e3","system_id":"levelo_inurba_marseille","lat":43.255094,"lon":5.376578,"is_reserved":false,"is_disabled":false,"rental_uris":{"android":"levelo://app?vid=60c8a143-764e-4a44-9fc2-d90eafdc89e3","ios":"levelo://app?vid=60c8a143-764e-4a44-9fc2-d90eafdc89e3"},"vehicle_type_id":"4","last_reported":1769437148,"current_range_meters":2800,"station_id":"ce4bhh12rcd13ifvqff0","pricing_plan_id":"cebpf4jnsgd1na2vs0mg"},{"bike_id":"8159a709-98ea-45e8-8090-2a69bcff802f","system_id":"levelo_inurba_marseille","lat":43.246605,"lon":5.381473,"is_reserved":false,"is_disabled":false,"rental_uris":{"android":"levelo://app?vid=8159a709-98ea-45e8-8090-2a69bcff802f","ios":"levelo://app?vid=8159a709-98ea-45e8-8090-2a69bcff802f"},"vehicle_type_id":"4","last_reported":1769437148,"current_range_meters":2800,"station_id":"ce4bhih2rcd13ifvqfr0","pricing_plan_id":"cebpf4jnsgd1na2vs0mg"},{"bike_id":"ba76e5c4-a7e9-42f3-b906-39834ce38819","system_id":"levelo_inurba_marseille","lat":43.23974,"lon":5.36628,"is_reserved":false,"is_disabled":false,"rental_uris":{"android":"levelo://app?vid=ba76e5c4-a7e9-42f3-b906-39834ce38819","ios":"levelo://app?vid=ba76e5c4-a7e9-42f3-b906-39834ce38819"},"vehicle_type_id":"4","last_reported":1769437148,"current_range_meters":2800,"station_id":"ce4bhi12rcd13ifvqfp0","pricing_plan_id":"cebpf4jnsgd1na2vs0mg"},{"bike_id":"b7b68940-6e50-4a74-9685-2e0e8b628270","system_id":"levelo_inurba_marseille","lat":43.30617,"lon":5.36563,"is_reserved":false,"is_disabled":false,"rental_uris":{"android":"levelo://app?vid=b7b68940-6e50-4a74-9685-2e0e8b628270","ios":"levelo://app?vid=b7b68940-6e50-4a74-9685-2e0e8b628270"},"vehicle_type_id":"4","last_reported":1769437148,"current_range_meters":2800,"station_id":"","pricing_plan_id":"cebpf4jnsgd1na2vs0mg"},{"bike_id":"90d7dad9-792b-4cff-82af-6a4da41d8546","system_id":"levelo_inurba_marseille","lat":43.2957,"lon":5.37523,"is_reserved":false,"is_disabled":false,"rental_uris":{"android":"levelo://app?vid=90d7dad9-792b-4cff-82af-6a4da41d8546","ios":"levelo://app?vid=90d7dad9-792b-4cff-82af-6a4da41d8546"},"vehicle_type_id":"4","last_reported":1769437148,"current_range_meters":3200,"station_id":"ce4bgh92rcd13ifvqb50","pricing_plan_id":"cebpf4jnsgd1na2vs0mg"},{"bike_id":"77a8d6f7-8520-4e5a-a0e7-89573d4a6a77","system_id":"levelo_inurba_marseille","lat":43.23808,"lon":5.36626,"is_reserved":false,"is_disabled":false,"rental_uris":{"android":"levelo://app?vid=77a8d6f7-8520-4e5a-a0e7-89573d4a6a77","ios":"levelo://app?vid=77a8d6f7-8520-4e5a-a0e7-89573d4a6a77"},"vehicle_type_id":"4","last_reported":1769437148,"current_range_meters":3200,"station_id":"st_d3nk18o9ro0c73en2l3g","pricing_plan_id":"cebpf4jnsgd1na2vs0mg"},{"bike_id":"64233915-9aa0-4b27-ae1b-bcbb4c2f4356","system_id":"levelo_inurba_marseille","lat":43.296306,"lon":5.377336,"is_reserved":false,"is_disabled":false,"rental_uris":{"android":"levelo://app?vid=64233915-9aa0-4b27-ae1b-bcbb4c2f4356","ios":"levelo://app?vid=64233915-9aa0-4b27-ae1b-bcbb4c2f4356"},"vehicle_type_id":"4","last_reported":1769437148,"current_range_meters":3200,"station_id":"ce4bgi92rcd13ifvqb90","pricing_plan_id":"cebpf4jnsgd1na2vs0mg"},{"bike_id":"6252b5bc-7f21-4a5c-90b2-fb54de33b122","system_id":"levelo_inurba_marseille","lat":43.24396,"lon":5.37066,"is_reserved":false,"is_disabled":false,"rental_uris":{"android":"levelo://app?vid=6252b5bc-7f21-4a5c-90b2-fb54de33b122","ios":"levelo://app?vid=6252b5bc-7f21-4a5c-90b2-fb54de33b122"},"vehicle_type_id":"4","last_reported":1769437148,"current_range_meters":3200,"station_id":"ce4bhhh2rcd13ifvqfk0","pricing_plan_id":"cebpf4jnsgd1na2vs0mg"},{"bike_id":"b075d711-d93d-4120-85f9-64fa0a4a9a99","system_id":"levelo_inurba_marseille","lat":43.22559,"lon":5.41632,"is_reserved":false,"is_disabled":false,"rental_uris":{"android":"levelo://app?vid=b075d711-d93d-4120-85f9-64fa0a4a9a99","ios":"levelo://app?vid=b075d711-d93d-4120-85f9-64fa0a4a9a99"},"vehicle_type_id":"4","last_reported":1769437148,"current_range_meters":3200,"station_id":"st_d2o4gvlbi1j2169b742g","pricing_plan_id":"cebpf4jnsgd1na2vs0mg"},{"bike_id":"b9a85f81-db86-411f-bbb7-33e92cde08f2","system_id":"levelo_inurba_marseille","lat":43.309,"lon":5.40329,"is_reserved":false,"is_disabled":false,"rental_uris":{"android":"levelo://app?vid=b9a85f81-db86-411f-bbb7-33e92cde08f2","ios":"levelo://app?vid=b9a85f81-db86-411f-bbb7-33e92cde08f2"},"vehicle_type_id":"4","last_reported":1769437148,"current_range_meters":3200,"station_id":"ce4bgvp2rcd13ifvqct0","pricing_plan_id":"cebpf4jnsgd1na2vs0mg"},{"bike_id":"99338d76-4428-4400-844e-5055b8956c80","system_id":"levelo_inurba_marseille","lat":43.32479,"lon":5.36547,"is_reserved":false,"is_disabled":false,"rental_uris":{"android":"levelo://app?vid=99338d76-4428-4400-844e-5055b8956c80","ios":"levelo://app?vid=99338d76-4428-4400-844e-5055b8956c80"},"vehicle_type_id":"4","last_reported":1769437148,"current_range_meters":3200,"station_id":"ce4bhs12rcd13ifvqhvg","pricing_plan_id":"cebpf4jnsgd1na2vs0mg"},{"bike_id":"deee5351-4723-42ee-bd80-9af191803937","system_id":"levelo_inurba_marseille","lat":43.291447,"lon":5.407936,"is_reserved":false,"is_disabled":false,"rental_uris":{"android":"levelo://app?vid=deee5351-4723-42ee-bd80-9af191803937","ios":"levelo://app?vid=deee5351-4723-42ee-bd80-9af191803937"},"vehicle_type_id":"4","last_reported":1769437148,"current_range_meters":3200,"station_id":"","pricing_plan_id":"cebpf4jnsgd1na2vs0mg"},{"bike_id":"8fcf6c59-ea53-47bf-9a03-b6aef5a6a509","system_id":"levelo_inurba_marseille","lat":43.295748,"lon":5.375066,"is_reserved":false,"is_disabled":false,"rental_uris":{"android":"levelo://app?vid=8fcf6c59-ea53-47bf-9a03-b6aef5a6a509","ios":"levelo://app?vid=8fcf6c59-ea53-47bf-9a03-b6aef5a6a509"},"vehicle_type_id":"4","last_reported":1769437148,"current_range_meters":3200,"station_id":"ce4bgh92rcd13ifvqb50","pricing_plan_id":"cebpf4jnsgd1na2vs0mg"},{"bike_id":"5d411b85-7b12-4358-9445-6cfeeebcda1f","system_id":"levelo_inurba_marseille","lat":43.27622,"lon":5.36127,"is_reserved":false,"is_disabled":false,"rental_uris":{"android":"levelo://app?vid=5d411b85-7b12-4358-9445-6cfeeebcda1f","ios":"levelo://app?vid=5d411b85-7b12-4358-9445-6cfeeebcda1f"},"vehicle_type_id":"4","last_reported":1769437148,"current_range_meters":3200,"station_id":"ce4bgj92rcd13ifvqbe0","pricing_plan_id":"cebpf4jnsgd1na2vs0mg"},{"bike_id":"cefc0408-08b4-45e0-8592-a44786197f49","system_id":"levelo_inurba_marseille","lat":43.22572,"lon":5.4162,"is_reserved":false,"is_disabled":false,"rental_uris":{"android":"levelo://app?vid=cefc0408-08b4-45e0-8592-a44786197f49","ios":"levelo://app?vid=cefc0408-08b4-45e0-8592-a44786197f49"},"vehicle_type_id":"4","last_reported":1769437148,"current_range_meters":3200,"station_id":"st_d2o4gvlbi1j2169b742g","pricing_plan_id":"cebpf4jnsgd1na2vs0mg"},{"bike_id":"858634e8-caac-4268-9742-18257acbe5ad","system_id":"levelo_inurba_marseille","lat":43.30953,"lon":5.39018,"is_reserved":false,"is_disabled":false,"rental_uris":{"android":"levelo://app?vid=858634e8-caac-4268-9742-18257acbe5ad","ios":"levelo://app?vid=858634e8-caac-4268-9742-18257acbe5ad"},"vehicle_type_id":"4","last_reported":1769437148,"current_range_meters":3200,"station_id":"ce4bgup2rcd13ifvqco0","pricing_plan_id":"cebpf4jnsgd1na2vs0mg"},{"bike_id":"9596f630-a277-4b6a-a9aa-2677d5cc298d","system_id":"levelo_inurba_marseille","lat":43.24182,"lon":5.39708,"is_reserved":false,"is_disabled":false,"rental_uris":{"android":"levelo://app?vid=9596f630-a277-4b6a-a9aa-2677d5cc298d","ios":"levelo://app?vid=9596f630-a277-4b6a-a9aa-2677d5cc298d"},"vehicle_type_id":"4","last_reported":1769437148,"current_range_meters":3200,"station_id":"ce4bhn12rcd13ifvqgpg","pricing_plan_id":"cebpf4jnsgd1na2vs0mg"},{"bike_id":"c0117a5d-7bba-4599-bcc0-ee8506deb526","system_id":"levelo_inurba_marseille","lat":43.23967,"lon":5.36627,"is_reserved":false,"is_disabled":false,"rental_uris":{"android":"levelo://app?vid=c0117a5d-7bba-4599-bcc0-ee8506deb526","ios":"levelo://app?vid=c0117a5d-7bba-4599-bcc0-ee8506deb526"},"vehicle_type_id":"4","last_reported":1769437148,"current_range_meters":3200,"station_id":"ce4bhi12rcd13ifvqfp0","pricing_plan_id":"cebpf4jnsgd1na2vs0mg"},{"bike_id":"def0eaa8-0c75-4a7a-8975-358f67f36625","system_id":"levelo_inurba_marseille","lat":43.31226,"lon":5.36873,"is_reserved":false,"is_disabled":false,"rental_uris":{"android":"levelo://app?vid=def0eaa8-0c75-4a7a-8975-358f67f36625","ios":"levelo://app?vid=def0eaa8-0c75-4a7a-8975-358f67f36625"},"vehicle_type_id":"4","last_reported":1769437148,"current_range_meters":3200,"station_id":"ce4bgl92rcd13ifvqbq0","pricing_plan_id":"cebpf4jnsgd1na2vs0mg"},{"bike_id":"b9917ecd-02a8-40e9-a0d0-4758759eb040","system_id":"levelo_inurba_marseille","lat":43.24571,"lon":5.37342,"is_reserved":false,"is_disabled":false,"rental_uris":{"android":"levelo://app?vid=b9917ecd-02a8-40e9-a0d0-4758759eb040","ios":"levelo://app?vid=b9917ecd-02a8-40e9-a0d0-4758759eb040"},"vehicle_type_id":"4","last_reported":1769437148,"current_range_meters":3200,"station_id":"","pricing_plan_id":"cebpf4jnsgd1na2vs0mg"},{"bike_id":"6ecbdae7-abe2-4eda-9404-36c2caf00f73","system_id":"levelo_inurba_marseille","lat":43.281011,"lon":5.351927,"is_reserved":false,"is_disabled":false,"rental_uris":{"android":"levelo://app?vid=6ecbdae7-abe2-4eda-9404-36c2caf00f73","ios":"levelo://app?vid=6ecbdae7-abe2-4eda-9404-36c2caf00f73"},"vehicle_type_id":"4","last_reported":1769437148,"current_range_meters":3200,"station_id":"ce4bh692rcd13ifvqe90","pricing_plan_id":"cebpf4jnsgd1na2vs0mg"},{"bike_id":"995a6bb6-d88d-4735-8ea2-c72889b441e7","system_id":"levelo_inurba_marseille","lat":43.26215,"lon":5.37946,"is_reserved":false,"is_disabled":false,"rental_uris":{"android":"levelo://app?vid=995a6bb6-d88d-4735-8ea2-c72889b441e7","ios":"levelo://app?vid=995a6bb6-d88d-4735-8ea2-c72889b441e7"},"vehicle_type_id":"4","last_reported":1769437148,"current_range_meters":3200,"station_id":"ce4bhjp2rcd13ifvqg90","pricing_plan_id":"cebpf4jnsgd1na2vs0mg"},{"bike_id":"6d119075-388d-4f8b-a0bd-8ae2d009647c","system_id":"levelo_inurba_marseille","lat":43.26235,"lon":5.404593,"is_reserved":false,"is_disabled":false,"rental_uris":{"android":"levelo://app?vid=6d119075-388d-4f8b-a0bd-8ae2d009647c","ios":"levelo://app?vid=6d119075-388d-4f8b-a0bd-8ae2d009647c"},"vehicle_type_id":"4","last_reported":1769437148,"current_range_meters":3600,"station_id":"ce4bhmh2rcd13ifvqgmg","pricing_plan_id":"cebpf4jnsgd1na2vs0mg"},{"bike_id":"0de5032e-148a-468e-969e-fb644458ceae","system_id":"levelo_inurba_marseille","lat":43.2513,"lon":5.40531,"is_reserved":false,"is_disabled":false,"rental_uris":{"android":"levelo://app?vid=0de5032e-148a-468e-969e-fb644458ceae","ios":"levelo://app?vid=0de5032e-148a-468e-969e-fb644458ceae"},"vehicle_type_id":"4","last_reported":1769437148,"current_range_meters":3600,"station_id":"","pricing_plan_id":"cebpf4jnsgd1na2vs0mg"},{"bike_id":"50006eb5-7e2d-4eec-b7db-04ba6e598980","system_id":"levelo_inurba_marseille","lat":43.33147,"lon":5.37696,"is_reserved":false,"is_disabled":false,"rental_uris":{"android":"levelo://app?vid=50006eb5-7e2d-4eec-b7db-04ba6e598980","ios":"levelo://app?vid=50006eb5-7e2d-4eec-b7db-04ba6e598980"},"vehicle_type_id":"4","last_reported":1769437148,"current_range_meters":3600,"station_id":"st_d46cu089ee8s73dldbu0","pricing_plan_id":"cebpf4jnsgd1na2vs0mg"},{"bike_id":"afcd81cd-bdf3-4627-897b-31b0b9ca6129","system_id":"levelo_inurba_marseille","lat":43.25499,"lon":5.37647,"is_reserved":false,"is_disabled":false,"rental_uris":{"android":"levelo://app?vid=afcd81cd-bdf3-4627-897b-31b0b9ca6129","ios":"levelo://app?vid=afcd81cd-bdf3-4627-897b-31b0b9ca6129"},"vehicle_type_id":"4","last_reported":1769437148,"current_range_meters":3600,"station_id":"ce4bhh12rcd13ifvqff0","pricing_plan_id":"cebpf4jnsgd1na2vs0mg"},{"bike_id":"474798f8-bbd5-45f6-8a42-b1ac260b177a","system_id":"levelo_inurba_marseille","lat":43.25023,"lon":5.38907,"is_reserved":false,"is_disabled":false,"rental_uris":{"android":"levelo://app?vid=474798f8-bbd5-45f6-8a42-b1ac260b177a","ios":"levelo://app?vid=474798f8-bbd5-45f6-8a42-b1ac260b177a"},"vehicle_type_id":"4","last_reported":1769437148,"current_range_meters":3600,"station_id":"ce4bhgp2rcd13ifvqfd0","pricing_plan_id":"cebpf4jnsgd1na2vs0mg"},{"bike_id":"ca006b1c-64f2-4772-acb4-e94321165aec","system_id":"levelo_inurba_marseille","lat":43.305489,"lon":5.367403,"is_reserved":false,"is_disabled":true,"rental_uris":{"android":"levelo://app?vid=ca006b1c-64f2-4772-acb4-e94321165aec","ios":"levelo://app?vid=ca006b1c-64f2-4772-acb4-e94321165aec"},"vehicle_type_id":"4","last_reported":1769437148,"current_range_meters":3600,"station_id":"ce4bgn92rcd13ifvqbvg","pricing_plan_id":"cebpf4jnsgd1na2vs0mg"},{"bike_id":"78d2a701-7bb2-4a13-9060-9a6808b1cf18","system_id":"levelo_inurba_marseille","lat":43.29014,"lon":5.35604,"is_reserved":false,"is_disabled":false,"rental_uris":{"android":"levelo://app?vid=78d2a701-7bb2-4a13-9060-9a6808b1cf18","ios":"levelo://app?vid=78d2a701-7bb2-4a13-9060-9a6808b1cf18"},"vehicle_type_id":"4","last_reported":1769437148,"current_range_meters":3600,"station_id":"ce4bhb92rcd13ifvqen0","pricing_plan_id":"cebpf4jnsgd1na2vs0mg"},{"bike_id":"63bf1da5-ec91-4465-822f-293c4d36fbc2","system_id":"levelo_inurba_marseille","lat":43.29197,"lon":5.39322,"is_reserved":false,"is_disabled":false,"rental_uris":{"android":"levelo://app?vid=63bf1da5-ec91-4465-822f-293c4d36fbc2","ios":"levelo://app?vid=63bf1da5-ec91-4465-822f-293c4d36fbc2"},"vehicle_type_id":"4","last_reported":1769437148,"current_range_meters":3600,"station_id":"ce4bh192rcd13ifvqdd0","pricing_plan_id":"cebpf4jnsgd1na2vs0mg"},{"bike_id":"c101c5e7-a92c-4262-9de4-730cf3520d3e","system_id":"levelo_inurba_marseille","lat":43.24382,"lon":5.37053,"is_reserved":false,"is_disabled":false,"rental_uris":{"android":"levelo://app?vid=c101c5e7-a92c-4262-9de4-730cf3520d3e","ios":"levelo://app?vid=c101c5e7-a92c-4262-9de4-730cf3520d3e"},"vehicle_type_id":"4","last_reported":1769437148,"current_range_meters":4000,"station_id":"ce4bhhh2rcd13ifvqfk0","pricing_plan_id":"cebpf4jnsgd1na2vs0mg"},{"bike_id":"0a9315ef-49dd-4e1c-90ba-9ac1028ca5d9","system_id":"levelo_inurba_marseille","lat":43.321092,"lon":5.36766,"is_reserved":false,"is_disabled":false,"rental_uris":{"android":"levelo://app?vid=0a9315ef-49dd-4e1c-90ba-9ac1028ca5d9","ios":"levelo://app?vid=0a9315ef-49dd-4e1c-90ba-9ac1028ca5d9"},"vehicle_type_id":"4","last_reported":1769437148,"current_range_meters":4000,"station_id":"ce4bhrh2rcd13ifvqhug","pricing_plan_id":"cebpf4jnsgd1na2vs0mg"},{"bike_id":"ea53cb96-b018-4a32-8207-3b5118a7a50d","system_id":"levelo_inurba_marseille","lat":43.3211,"lon":5.36786,"is_reserved":false,"is_disabled":false,"rental_uris":{"android":"levelo://app?vid=ea53cb96-b018-4a32-8207-3b5118a7a50d","ios":"levelo://app?vid=ea53cb96-b018-4a32-8207-3b5118a7a50d"},"vehicle_type_id":"4","last_reported":1769437148,"current_range_meters":4000,"station_id":"ce4bhrh2rcd13ifvqhug","pricing_plan_id":"cebpf4jnsgd1na2vs0mg"},{"bike_id":"5620fd0b-568e-406e-8104-b0555da61e8a","system_id":"levelo_inurba_marseille","lat":43.284772,"lon":5.484065,"is_reserved":false,"is_disabled":false,"rental_uris":{"android":"levelo://app?vid=5620fd0b-568e-406e-8104-b0555da61e8a","ios":"levelo://app?vid=5620fd0b-568e-406e-8104-b0555da61e8a"},"vehicle_type_id":"4","last_reported":1769437148,"current_range_meters":4000,"station_id":"","pricing_plan_id":"cebpf4jnsgd1na2vs0mg"},{"bike_id":"0c11bc30-1254-4e35-b530-31f7fd6a4b39","system_id":"levelo_inurba_marseille","lat":43.30003,"lon":5.37381,"is_reserved":false,"is_disabled":false,"rental_uris":{"android":"levelo://app?vid=0c11bc30-1254-4e35-b530-31f7fd6a4b39","ios":"levelo://app?vid=0c11bc30-1254-4e35-b530-31f7fd6a4b39"},"vehicle_type_id":"4","last_reported":1769437148,"current_range_meters":4000,"station_id":"","pricing_plan_id":"cebpf4jnsgd1na2vs0mg"},{"bike_id":"1bd6a967-42b4-4083-9b03-21965ce3de5a","system_id":"levelo_inurba_marseille","lat":43.25936,"lon":5.40908,"is_reserved":false,"is_disabled":false,"rental_uris":{"android":"levelo://app?vid=1bd6a967-42b4-4083-9b03-21965ce3de5a","ios":"levelo://app?vid=1bd6a967-42b4-4083-9b03-21965ce3de5a"},"vehicle_type_id":"4","last_reported":1769437148,"current_range_meters":4000,"station_id":"ce4bhm92rcd13ifvqglg","pricing_plan_id":"cebpf4jnsgd1na2vs0mg"},{"bike_id":"0ae4a2c6-d456-4de2-8c9c-946c872e040e","system_id":"levelo_inurba_marseille","lat":43.28488,"lon":5.38561,"is_reserved":false,"is_disabled":false,"rental_uris":{"android":"levelo://app?vid=0ae4a2c6-d456-4de2-8c9c-946c872e040e","ios":"levelo://app?vid=0ae4a2c6-d456-4de2-8c9c-946c872e040e"},"vehicle_type_id":"4","last_reported":1769437148,"current_range_meters":4400,"station_id":"ce4bh8p2rcd13ifvqeb0","pricing_plan_id":"cebpf4jnsgd1na2vs0mg"},{"bike_id":"2f1e77a6-1ff2-4648-89fc-7d0a12b6f909","system_id":"levelo_inurba_marseille","lat":43.27496,"lon":5.4245,"is_reserved":false,"is_disabled":false,"rental_uris":{"android":"levelo://app?vid=2f1e77a6-1ff2-4648-89fc-7d0a12b6f909","ios":"levelo://app?vid=2f1e77a6-1ff2-4648-89fc-7d0a12b6f909"},"vehicle_type_id":"4","last_reported":1769437148,"current_range_meters":4400,"station_id":"ce4bhn92rcd13ifvqgrg","pricing_plan_id":"cebpf4jnsgd1na2vs0mg"},{"bike_id":"05702008-b9fb-4485-8852-be0161cdf405","system_id":"levelo_inurba_marseille","lat":43.254929,"lon":5.376639,"is_reserved":false,"is_disabled":false,"rental_uris":{"android":"levelo://app?vid=05702008-b9fb-4485-8852-be0161cdf405","ios":"levelo://app?vid=05702008-b9fb-4485-8852-be0161cdf405"},"vehicle_type_id":"4","last_reported":1769437148,"current_range_meters":4400,"station_id":"ce4bhh12rcd13ifvqff0","pricing_plan_id":"cebpf4jnsgd1na2vs0mg"},{"bike_id":"e8e4e087-a5f5-46d6-bde5-a155ee69ec30","system_id":"levelo_inurba_marseille","lat":43.261963,"lon":5.379201,"is_reserved":false,"is_disabled":true,"rental_uris":{"android":"levelo://app?vid=e8e4e087-a5f5-46d6-bde5-a155ee69ec30","ios":"levelo://app?vid=e8e4e087-a5f5-46d6-bde5-a155ee69ec30"},"vehicle_type_id":"4","last_reported":1769437148,"current_range_meters":4400,"station_id":"","pricing_plan_id":"cebpf4jnsgd1na2vs0mg"},{"bike_id":"a7d2959e-278b-41d6-9192-a644114b55de","system_id":"levelo_inurba_marseille","lat":43.23803,"lon":5.36598,"is_reserved":false,"is_disabled":false,"rental_uris":{"android":"levelo://app?vid=a7d2959e-278b-41d6-9192-a644114b55de","ios":"levelo://app?vid=a7d2959e-278b-41d6-9192-a644114b55de"},"vehicle_type_id":"4","last_reported":1769437148,"current_range_meters":4400,"station_id":"st_d3nk18o9ro0c73en2l3g","pricing_plan_id":"cebpf4jnsgd1na2vs0mg"},{"bike_id":"5e529a5d-b2ca-40f2-848b-027e979b3e6d","system_id":"levelo_inurba_marseille","lat":43.31869,"lon":5.43527,"is_reserved":false,"is_disabled":false,"rental_uris":{"android":"levelo://app?vid=5e529a5d-b2ca-40f2-848b-027e979b3e6d","ios":"levelo://app?vid=5e529a5d-b2ca-40f2-848b-027e979b3e6d"},"vehicle_type_id":"4","last_reported":1769437148,"current_range_meters":4400,"station_id":"","pricing_plan_id":"cebpf4jnsgd1na2vs0mg"},{"bike_id":"c0313abf-12fb-419d-943d-7cc5fd78e7ca","system_id":"levelo_inurba_marseille","lat":43.31232,"lon":5.36665,"is_reserved":false,"is_disabled":false,"rental_uris":{"android":"levelo://app?vid=c0313abf-12fb-419d-943d-7cc5fd78e7ca","ios":"levelo://app?vid=c0313abf-12fb-419d-943d-7cc5fd78e7ca"},"vehicle_type_id":"4","last_reported":1769437148,"current_range_meters":4400,"station_id":"","pricing_plan_id":"cebpf4jnsgd1na2vs0mg"},{"bike_id":"6b03ada9-beb1-4397-aab8-27781ac0b0d3","system_id":"levelo_inurba_marseille","lat":43.25119,"lon":5.40332,"is_reserved":false,"is_disabled":false,"rental_uris":{"android":"levelo://app?vid=6b03ada9-beb1-4397-aab8-27781ac0b0d3","ios":"levelo://app?vid=6b03ada9-beb1-4397-aab8-27781ac0b0d3"},"vehicle_type_id":"4","last_reported":1769437148,"current_range_meters":4400,"station_id":"ce4bhlh2rcd13ifvqgig","pricing_plan_id":"cebpf4jnsgd1na2vs0mg"},{"bike_id":"62204c5b-67c3-41e5-952c-e7488564457f","system_id":"levelo_inurba_marseille","lat":43.2594,"lon":5.40903,"is_reserved":false,"is_disabled":false,"rental_uris":{"android":"levelo://app?vid=62204c5b-67c3-41e5-952c-e7488564457f","ios":"levelo://app?vid=62204c5b-67c3-41e5-952c-e7488564457f"},"vehicle_type_id":"4","last_reported":1769437148,"current_range_meters":4400,"station_id":"ce4bhm92rcd13ifvqglg","pricing_plan_id":"cebpf4jnsgd1na2vs0mg"},{"bike_id":"23e8e2b5-e425-472a-bc08-b0b79ef75ac3","system_id":"levelo_inurba_marseille","lat":43.28531,"lon":5.4409,"is_reserved":false,"is_disabled":false,"rental_uris":{"android":"levelo://app?vid=23e8e2b5-e425-472a-bc08-b0b79ef75ac3","ios":"levelo://app?vid=23e8e2b5-e425-472a-bc08-b0b79ef75ac3"},"vehicle_type_id":"4","last_reported":1769437148,"current_range_meters":4400,"station_id":"st_d3j3df2ikq2c7380ej80","pricing_plan_id":"cebpf4jnsgd1na2vs0mg"},{"bike_id":"08e9b848-b24e-455b-bc14-6ca02726c682","system_id":"levelo_inurba_marseille","lat":43.29616,"lon":5.37722,"is_reserved":false,"is_disabled":false,"rental_uris":{"android":"levelo://app?vid=08e9b848-b24e-455b-bc14-6ca02726c682","ios":"levelo://app?vid=08e9b848-b24e-455b-bc14-6ca02726c682"},"vehicle_type_id":"4","last_reported":1769437148,"current_range_meters":4400,"station_id":"ce4bgi92rcd13ifvqb90","pricing_plan_id":"cebpf4jnsgd1na2vs0mg"},{"bike_id":"1ddabc6c-e7e0-4282-9efe-d0164dae7daf","system_id":"levelo_inurba_marseille","lat":43.325406,"lon":5.414231,"is_reserved":false,"is_disabled":false,"rental_uris":{"android":"levelo://app?vid=1ddabc6c-e7e0-4282-9efe-d0164dae7daf","ios":"levelo://app?vid=1ddabc6c-e7e0-4282-9efe-d0164dae7daf"},"vehicle_type_id":"4","last_reported":1769437148,"current_range_meters":4400,"station_id":"ce4bhq12rcd13ifvqhhg","pricing_plan_id":"cebpf4jnsgd1na2vs0mg"},{"bike_id":"99bc9e46-2a2d-4354-b606-97e38b1b91d7","system_id":"levelo_inurba_marseille","lat":43.2393,"lon":5.37591,"is_reserved":false,"is_disabled":false,"rental_uris":{"android":"levelo://app?vid=99bc9e46-2a2d-4354-b606-97e38b1b91d7","ios":"levelo://app?vid=99bc9e46-2a2d-4354-b606-97e38b1b91d7"},"vehicle_type_id":"4","last_reported":1769437148,"current_range_meters":4400,"station_id":"","pricing_plan_id":"cebpf4jnsgd1na2vs0mg"},{"bike_id":"367a6bfa-022d-4ac7-9a7a-fafdb9ad5966","system_id":"levelo_inurba_marseille","lat":43.23184,"lon":5.39992,"is_reserved":false,"is_disabled":false,"rental_uris":{"android":"levelo://app?vid=367a6bfa-022d-4ac7-9a7a-fafdb9ad5966","ios":"levelo://app?vid=367a6bfa-022d-4ac7-9a7a-fafdb9ad5966"},"vehicle_type_id":"4","last_reported":1769437148,"current_range_meters":4800,"station_id":"ce4bhn12rcd13ifvqgqg","pricing_plan_id":"cebpf4jnsgd1na2vs0mg"},{"bike_id":"b41ba2a0-1343-49eb-803d-f14eb8b0ccdf","system_id":"levelo_inurba_marseille","lat":43.26701,"lon":5.39242,"is_reserved":false,"is_disabled":false,"rental_uris":{"android":"levelo://app?vid=b41ba2a0-1343-49eb-803d-f14eb8b0ccdf","ios":"levelo://app?vid=b41ba2a0-1343-49eb-803d-f14eb8b0ccdf"},"vehicle_type_id":"4","last_reported":1769437148,"current_range_meters":4800,"station_id":"","pricing_plan_id":"cebpf4jnsgd1na2vs0mg"},{"bike_id":"70b373ec-c3e9-4acd-ad55-8386d0981035","system_id":"levelo_inurba_marseille","lat":43.23166,"lon":5.43729,"is_reserved":false,"is_disabled":false,"rental_uris":{"android":"levelo://app?vid=70b373ec-c3e9-4acd-ad55-8386d0981035","ios":"levelo://app?vid=70b373ec-c3e9-4acd-ad55-8386d0981035"},"vehicle_type_id":"4","last_reported":1769437148,"current_range_meters":4800,"station_id":"ce4bhmp2rcd13ifvqgog","pricing_plan_id":"cebpf4jnsgd1na2vs0mg"},{"bike_id":"35de4117-1885-471d-ae81-ebbd7b148d3a","system_id":"levelo_inurba_marseille","lat":43.28153,"lon":5.42637,"is_reserved":false,"is_disabled":false,"rental_uris":{"android":"levelo://app?vid=35de4117-1885-471d-ae81-ebbd7b148d3a","ios":"levelo://app?vid=35de4117-1885-471d-ae81-ebbd7b148d3a"},"vehicle_type_id":"4","last_reported":1769437148,"current_range_meters":4800,"station_id":"ce4bhnh2rcd13ifvqgug","pricing_plan_id":"cebpf4jnsgd1na2vs0mg"},{"bike_id":"1e2466f3-cb5c-4ea8-906e-40fcecdce842","system_id":"levelo_inurba_marseille","lat":43.28613,"lon":5.35098,"is_reserved":false,"is_disabled":false,"rental_uris":{"android":"levelo://app?vid=1e2466f3-cb5c-4ea8-906e-40fcecdce842","ios":"levelo://app?vid=1e2466f3-cb5c-4ea8-906e-40fcecdce842"},"vehicle_type_id":"4","last_reported":1769437148,"current_range_meters":4800,"station_id":"ce4bhch2rcd13ifvqeug","pricing_plan_id":"cebpf4jnsgd1na2vs0mg"},{"bike_id":"b1fda984-5b32-4372-a516-e488d838b343","system_id":"levelo_inurba_marseille","lat":43.24374,"lon":5.37075,"is_reserved":false,"is_disabled":false,"rental_uris":{"android":"levelo://app?vid=b1fda984-5b32-4372-a516-e488d838b343","ios":"levelo://app?vid=b1fda984-5b32-4372-a516-e488d838b343"},"vehicle_type_id":"4","last_reported":1769437148,"current_range_meters":4800,"station_id":"ce4bhhh2rcd13ifvqfk0","pricing_plan_id":"cebpf4jnsgd1na2vs0mg"},{"bike_id":"872ca787-ea41-43ac-9081-3181ff9b1e3b","system_id":"levelo_inurba_marseille","lat":43.27377,"lon":5.36251,"is_reserved":false,"is_disabled":false,"rental_uris":{"android":"levelo://app?vid=872ca787-ea41-43ac-9081-3181ff9b1e3b","ios":"levelo://app?vid=872ca787-ea41-43ac-9081-3181ff9b1e3b"},"vehicle_type_id":"4","last_reported":1769437148,"current_range_meters":4800,"station_id":"ce4bhbh2rcd13ifvqeo0","pricing_plan_id":"cebpf4jnsgd1na2vs0mg"},{"bike_id":"f70d9bcb-dac1-4232-aeaf-1caff458bedf","system_id":"levelo_inurba_marseille","lat":43.2917,"lon":5.37154,"is_reserved":false,"is_disabled":false,"rental_uris":{"android":"levelo://app?vid=f70d9bcb-dac1-4232-aeaf-1caff458bedf","ios":"levelo://app?vid=f70d9bcb-dac1-4232-aeaf-1caff458bedf"},"vehicle_type_id":"4","last_reported":1769437148,"current_range_meters":4800,"station_id":"ce4bha92rcd13ifvqeh0","pricing_plan_id":"cebpf4jnsgd1na2vs0mg"},{"bike_id":"b48ee151-3ed1-4e10-984a-1bdd1de5d934","system_id":"levelo_inurba_marseille","lat":43.26734,"lon":5.38982,"is_reserved":false,"is_disabled":false,"rental_uris":{"android":"levelo://app?vid=b48ee151-3ed1-4e10-984a-1bdd1de5d934","ios":"levelo://app?vid=b48ee151-3ed1-4e10-984a-1bdd1de5d934"},"vehicle_type_id":"4","last_reported":1769437148,"current_range_meters":4800,"station_id":"","pricing_plan_id":"cebpf4jnsgd1na2vs0mg"},{"bike_id":"5a924aa5-a60a-459f-9ce9-4aee6291d40d","system_id":"levelo_inurba_marseille","lat":43.24165,"lon":5.36398,"is_reserved":false,"is_disabled":false,"rental_uris":{"android":"levelo://app?vid=5a924aa5-a60a-459f-9ce9-4aee6291d40d","ios":"levelo://app?vid=5a924aa5-a60a-459f-9ce9-4aee6291d40d"},"vehicle_type_id":"4","last_reported":1769437148,"current_range_meters":5600,"station_id":"cpo36qri1sfpv3e86is0","pricing_plan_id":"cebpf4jnsgd1na2vs0mg"},{"bike_id":"220c418b-28b6-4540-8ffd-c0aa175c1092","system_id":"levelo_inurba_marseille","lat":43.28017,"lon":5.41667,"is_reserved":false,"is_disabled":false,"rental_uris":{"android":"levelo://app?vid=220c418b-28b6-4540-8ffd-c0aa175c1092","ios":"levelo://app?vid=220c418b-28b6-4540-8ffd-c0aa175c1092"},"vehicle_type_id":"4","last_reported":1769437148,"current_range_meters":5600,"station_id":"ce4bho12rcd13ifvqh1g","pricing_plan_id":"cebpf4jnsgd1na2vs0mg"},{"bike_id":"59782ed7-23ac-458b-8d65-142b4efc668f","system_id":"levelo_inurba_marseille","lat":43.2993,"lon":5.36522,"is_reserved":false,"is_disabled":false,"rental_uris":{"android":"levelo://app?vid=59782ed7-23ac-458b-8d65-142b4efc668f","ios":"levelo://app?vid=59782ed7-23ac-458b-8d65-142b4efc668f"},"vehicle_type_id":"4","last_reported":1769437148,"current_range_meters":5600,"station_id":"ce4bgm92rcd13ifvqbr0","pricing_plan_id":"cebpf4jnsgd1na2vs0mg"},{"bike_id":"d413ce98-ea9d-4141-a7f0-2c0cdb394883","system_id":"levelo_inurba_marseille","lat":43.26198,"lon":5.37455,"is_reserved":false,"is_disabled":false,"rental_uris":{"android":"levelo://app?vid=d413ce98-ea9d-4141-a7f0-2c0cdb394883","ios":"levelo://app?vid=d413ce98-ea9d-4141-a7f0-2c0cdb394883"},"vehicle_type_id":"4","last_reported":1769437148,"current_range_meters":5600,"station_id":"ce4bhgp2rcd13ifvqfc0","pricing_plan_id":"cebpf4jnsgd1na2vs0mg"},{"bike_id":"129b64f8-35ce-4ebc-b6ae-2b046fe4c047","system_id":"levelo_inurba_marseille","lat":43.3096,"lon":5.39056,"is_reserved":false,"is_disabled":false,"rental_uris":{"android":"levelo://app?vid=129b64f8-35ce-4ebc-b6ae-2b046fe4c047","ios":"levelo://app?vid=129b64f8-35ce-4ebc-b6ae-2b046fe4c047"},"vehicle_type_id":"4","last_reported":1769437148,"current_range_meters":5600,"station_id":"ce4bgup2rcd13ifvqco0","pricing_plan_id":"cebpf4jnsgd1na2vs0mg"},{"bike_id":"82f5d7cf-2c6e-4174-ab24-1fb4015f0fcf","system_id":"levelo_inurba_marseille","lat":43.23155,"lon":5.43709,"is_reserved":false,"is_disabled":false,"rental_uris":{"android":"levelo://app?vid=82f5d7cf-2c6e-4174-ab24-1fb4015f0fcf","ios":"levelo://app?vid=82f5d7cf-2c6e-4174-ab24-1fb4015f0fcf"},"vehicle_type_id":"4","last_reported":1769437148,"current_range_meters":5600,"station_id":"ce4bhmp2rcd13ifvqgog","pricing_plan_id":"cebpf4jnsgd1na2vs0mg"},{"bike_id":"e3ea631b-2709-44fa-bf03-1758cc5ac176","system_id":"levelo_inurba_marseille","lat":43.31251,"lon":5.36891,"is_reserved":false,"is_disabled":false,"rental_uris":{"android":"levelo://app?vid=e3ea631b-2709-44fa-bf03-1758cc5ac176","ios":"levelo://app?vid=e3ea631b-2709-44fa-bf03-1758cc5ac176"},"vehicle_type_id":"4","last_reported":1769437148,"current_range_meters":5600,"station_id":"ce4bgl92rcd13ifvqbq0","pricing_plan_id":"cebpf4jnsgd1na2vs0mg"},{"bike_id":"76f15ad4-d2a1-4e04-beac-26f7234bdc21","system_id":"levelo_inurba_marseille","lat":43.30303,"lon":5.36797,"is_reserved":false,"is_disabled":false,"rental_uris":{"android":"levelo://app?vid=76f15ad4-d2a1-4e04-beac-26f7234bdc21","ios":"levelo://app?vid=76f15ad4-d2a1-4e04-beac-26f7234bdc21"},"vehicle_type_id":"4","last_reported":1769437148,"current_range_meters":5600,"station_id":"","pricing_plan_id":"cebpf4jnsgd1na2vs0mg"},{"bike_id":"281c13db-7575-4f01-8cb4-ab2b2ff0bb6c","system_id":"levelo_inurba_marseille","lat":43.23075,"lon":5.35475,"is_reserved":false,"is_disabled":false,"rental_uris":{"android":"levelo://app?vid=281c13db-7575-4f01-8cb4-ab2b2ff0bb6c","ios":"levelo://app?vid=281c13db-7575-4f01-8cb4-ab2b2ff0bb6c"},"vehicle_type_id":"4","last_reported":1769437148,"current_range_meters":5600,"station_id":"cpo3342slgdg3j2ifvpg","pricing_plan_id":"cebpf4jnsgd1na2vs0mg"},{"bike_id":"20eec8f8-85e9-400d-b738-6bf652a0401b","system_id":"levelo_inurba_marseille","lat":43.24078,"lon":5.37748,"is_reserved":false,"is_disabled":false,"rental_uris":{"android":"levelo://app?vid=20eec8f8-85e9-400d-b738-6bf652a0401b","ios":"levelo://app?vid=20eec8f8-85e9-400d-b738-6bf652a0401b"},"vehicle_type_id":"4","last_reported":1769437148,"current_range_meters":5600,"station_id":"ce4bhnp2rcd13ifvqgvg","pricing_plan_id":"cebpf4jnsgd1na2vs0mg"},{"bike_id":"7dfa7e41-ba8a-48f0-9016-92342eef3731","system_id":"levelo_inurba_marseille","lat":43.28981,"lon":5.37844,"is_reserved":false,"is_disabled":false,"rental_uris":{"android":"levelo://app?vid=7dfa7e41-ba8a-48f0-9016-92342eef3731","ios":"levelo://app?vid=7dfa7e41-ba8a-48f0-9016-92342eef3731"},"vehicle_type_id":"4","last_reported":1769437148,"current_range_meters":6000,"station_id":"ce4bh9p2rcd13ifvqed0","pricing_plan_id":"cebpf4jnsgd1na2vs0mg"},{"bike_id":"af1a3621-d057-4ad0-b71e-c2bbcd71736a","system_id":"levelo_inurba_marseille","lat":43.30187,"lon":5.36601,"is_reserved":false,"is_disabled":true,"rental_uris":{"android":"levelo://app?vid=af1a3621-d057-4ad0-b71e-c2bbcd71736a","ios":"levelo://app?vid=af1a3621-d057-4ad0-b71e-c2bbcd71736a"},"vehicle_type_id":"4","last_reported":1769437148,"current_range_meters":6000,"station_id":"ce4bgrh2rcd13ifvqc8g","pricing_plan_id":"cebpf4jnsgd1na2vs0mg"},{"bike_id":"ea2bbc17-dcce-4d2e-b3db-b4bd0dc9b545","system_id":"levelo_inurba_marseille","lat":43.2828,"lon":5.35077,"is_reserved":false,"is_disabled":false,"rental_uris":{"android":"levelo://app?vid=ea2bbc17-dcce-4d2e-b3db-b4bd0dc9b545","ios":"levelo://app?vid=ea2bbc17-dcce-4d2e-b3db-b4bd0dc9b545"},"vehicle_type_id":"4","last_reported":1769437148,"current_range_meters":6000,"station_id":"ce4bhbp2rcd13ifvqerg","pricing_plan_id":"cebpf4jnsgd1na2vs0mg"},{"bike_id":"89e48cb7-3deb-47ce-a7bc-f3f1f73521c6","system_id":"levelo_inurba_marseille","lat":43.28719,"lon":5.37935,"is_reserved":false,"is_disabled":false,"rental_uris":{"android":"levelo://app?vid=89e48cb7-3deb-47ce-a7bc-f3f1f73521c6","ios":"levelo://app?vid=89e48cb7-3deb-47ce-a7bc-f3f1f73521c6"},"vehicle_type_id":"4","last_reported":1769437148,"current_range_meters":6000,"station_id":"ce4bh9p2rcd13ifvqec0","pricing_plan_id":"cebpf4jnsgd1na2vs0mg"},{"bike_id":"47492743-489d-45ae-8cd5-a690ce98ece0","system_id":"levelo_inurba_marseille","lat":43.25581,"lon":5.38218,"is_reserved":false,"is_disabled":false,"rental_uris":{"android":"levelo://app?vid=47492743-489d-45ae-8cd5-a690ce98ece0","ios":"levelo://app?vid=47492743-489d-45ae-8cd5-a690ce98ece0"},"vehicle_type_id":"4","last_reported":1769437148,"current_range_meters":6000,"station_id":"ce4bhih2rcd13ifvqfs0","pricing_plan_id":"cebpf4jnsgd1na2vs0mg"},{"bike_id":"399ac81d-4eef-4dd6-9d3c-75f658e814f0","system_id":"levelo_inurba_marseille","lat":43.231866,"lon":5.355554,"is_reserved":false,"is_disabled":false,"rental_uris":{"android":"levelo://app?vid=399ac81d-4eef-4dd6-9d3c-75f658e814f0","ios":"levelo://app?vid=399ac81d-4eef-4dd6-9d3c-75f658e814f0"},"vehicle_type_id":"4","last_reported":1769437148,"current_range_meters":6000,"station_id":"ce4bhu92rcd13ifvqi70","pricing_plan_id":"cebpf4jnsgd1na2vs0mg"},{"bike_id":"fdd9efc7-53e9-441d-b99b-586302834715","system_id":"levelo_inurba_marseille","lat":43.29694,"lon":5.37273,"is_reserved":false,"is_disabled":true,"rental_uris":{"android":"levelo://app?vid=fdd9efc7-53e9-441d-b99b-586302834715","ios":"levelo://app?vid=fdd9efc7-53e9-441d-b99b-586302834715"},"vehicle_type_id":"4","last_reported":1769437148,"current_range_meters":6000,"station_id":"ce4bgk12rcd13ifvqbj0","pricing_plan_id":"cebpf4jnsgd1na2vs0mg"},{"bike_id":"e2c06a73-fadf-4c7a-95d4-1d32398eb695","system_id":"levelo_inurba_marseille","lat":43.297392,"lon":5.380285,"is_reserved":false,"is_disabled":false,"rental_uris":{"android":"levelo://app?vid=e2c06a73-fadf-4c7a-95d4-1d32398eb695","ios":"levelo://app?vid=e2c06a73-fadf-4c7a-95d4-1d32398eb695"},"vehicle_type_id":"4","last_reported":1769437148,"current_range_meters":6000,"station_id":"ce4bghh2rcd13ifvqb60","pricing_plan_id":"cebpf4jnsgd1na2vs0mg"},{"bike_id":"42a8fc29-e4db-40c6-ab2b-72db9e2d569f","system_id":"levelo_inurba_marseille","lat":43.282691,"lon":5.350623,"is_reserved":false,"is_disabled":false,"rental_uris":{"android":"levelo://app?vid=42a8fc29-e4db-40c6-ab2b-72db9e2d569f","ios":"levelo://app?vid=42a8fc29-e4db-40c6-ab2b-72db9e2d569f"},"vehicle_type_id":"4","last_reported":1769437148,"current_range_meters":6000,"station_id":"ce4bhbp2rcd13ifvqerg","pricing_plan_id":"cebpf4jnsgd1na2vs0mg"},{"bike_id":"b3068d89-6006-49fd-8f19-f1ab3b5f066c","system_id":"levelo_inurba_marseille","lat":43.336079,"lon":5.41044,"is_reserved":false,"is_disabled":false,"rental_uris":{"android":"levelo://app?vid=b3068d89-6006-49fd-8f19-f1ab3b5f066c","ios":"levelo://app?vid=b3068d89-6006-49fd-8f19-f1ab3b5f066c"},"vehicle_type_id":"4","last_reported":1769437148,"current_range_meters":6000,"station_id":"ce4bhqh2rcd13ifvqhmg","pricing_plan_id":"cebpf4jnsgd1na2vs0mg"},{"bike_id":"20fbb145-d271-4097-b751-fbfe259aa534","system_id":"levelo_inurba_marseille","lat":43.24396,"lon":5.37057,"is_reserved":false,"is_disabled":false,"rental_uris":{"android":"levelo://app?vid=20fbb145-d271-4097-b751-fbfe259aa534","ios":"levelo://app?vid=20fbb145-d271-4097-b751-fbfe259aa534"},"vehicle_type_id":"4","last_reported":1769437148,"current_range_meters":6000,"station_id":"ce4bhhh2rcd13ifvqfk0","pricing_plan_id":"cebpf4jnsgd1na2vs0mg"},{"bike_id":"3cf68fad-3750-44eb-97e8-ef7985beedfe","system_id":"levelo_inurba_marseille","lat":43.312144,"lon":5.367286,"is_reserved":false,"is_disabled":false,"rental_uris":{"android":"levelo://app?vid=3cf68fad-3750-44eb-97e8-ef7985beedfe","ios":"levelo://app?vid=3cf68fad-3750-44eb-97e8-ef7985beedfe"},"vehicle_type_id":"4","last_reported":1769437148,"current_range_meters":6000,"station_id":"ce4bgph2rcd13ifvqc2g","pricing_plan_id":"cebpf4jnsgd1na2vs0mg"},{"bike_id":"dcc795f5-34a5-4b33-89a8-38509adc68cb","system_id":"levelo_inurba_marseille","lat":43.31353,"lon":5.36733,"is_reserved":false,"is_disabled":false,"rental_uris":{"android":"levelo://app?vid=dcc795f5-34a5-4b33-89a8-38509adc68cb","ios":"levelo://app?vid=dcc795f5-34a5-4b33-89a8-38509adc68cb"},"vehicle_type_id":"4","last_reported":1769437148,"current_range_meters":6400,"station_id":"ce4bgr92rcd13ifvqc6g","pricing_plan_id":"cebpf4jnsgd1na2vs0mg"},{"bike_id":"8c0442e3-2101-49d9-a999-4e4315bd74c6","system_id":"levelo_inurba_marseille","lat":43.29832,"lon":5.37667,"is_reserved":false,"is_disabled":false,"rental_uris":{"android":"levelo://app?vid=8c0442e3-2101-49d9-a999-4e4315bd74c6","ios":"levelo://app?vid=8c0442e3-2101-49d9-a999-4e4315bd74c6"},"vehicle_type_id":"4","last_reported":1769437148,"current_range_meters":6400,"station_id":"","pricing_plan_id":"cebpf4jnsgd1na2vs0mg"},{"bike_id":"43fe3bc6-8793-41a7-a6a2-cec6d1cfdc81","system_id":"levelo_inurba_marseille","lat":43.31071,"lon":5.37162,"is_reserved":false,"is_disabled":false,"rental_uris":{"android":"levelo://app?vid=43fe3bc6-8793-41a7-a6a2-cec6d1cfdc81","ios":"levelo://app?vid=43fe3bc6-8793-41a7-a6a2-cec6d1cfdc81"},"vehicle_type_id":"4","last_reported":1769437148,"current_range_meters":6400,"station_id":"st_d4kl2rp97mjs73e7tdfg","pricing_plan_id":"cebpf4jnsgd1na2vs0mg"},{"bike_id":"b681f863-0f3d-4d17-bb27-830d59083782","system_id":"levelo_inurba_marseille","lat":43.231548,"lon":5.437206,"is_reserved":false,"is_disabled":false,"rental_uris":{"android":"levelo://app?vid=b681f863-0f3d-4d17-bb27-830d59083782","ios":"levelo://app?vid=b681f863-0f3d-4d17-bb27-830d59083782"},"vehicle_type_id":"4","last_reported":1769437148,"current_range_meters":6400,"station_id":"ce4bhmp2rcd13ifvqgog","pricing_plan_id":"cebpf4jnsgd1na2vs0mg"},{"bike_id":"bb6bbf44-2d20-4d66-acf9-a244f73a09c0","system_id":"levelo_inurba_marseille","lat":43.31376,"lon":5.36688,"is_reserved":false,"is_disabled":false,"rental_uris":{"android":"levelo://app?vid=bb6bbf44-2d20-4d66-acf9-a244f73a09c0","ios":"levelo://app?vid=bb6bbf44-2d20-4d66-acf9-a244f73a09c0"},"vehicle_type_id":"4","last_reported":1769437148,"current_range_meters":6400,"station_id":"ce4bgr92rcd13ifvqc6g","pricing_plan_id":"cebpf4jnsgd1na2vs0mg"},{"bike_id":"3910aa42-366e-4191-a90b-34dd7a26d5b4","system_id":"levelo_inurba_marseille","lat":43.29575,"lon":5.37512,"is_reserved":false,"is_disabled":false,"rental_uris":{"android":"levelo://app?vid=3910aa42-366e-4191-a90b-34dd7a26d5b4","ios":"levelo://app?vid=3910aa42-366e-4191-a90b-34dd7a26d5b4"},"vehicle_type_id":"4","last_reported":1769437148,"current_range_meters":6400,"station_id":"ce4bgh92rcd13ifvqb50","pricing_plan_id":"cebpf4jnsgd1na2vs0mg"},{"bike_id":"2e7dad9e-9695-44d6-bc96-ef3eee5dfbfa","system_id":"levelo_inurba_marseille","lat":43.31353,"lon":5.36612,"is_reserved":false,"is_disabled":false,"rental_uris":{"android":"levelo://app?vid=2e7dad9e-9695-44d6-bc96-ef3eee5dfbfa","ios":"levelo://app?vid=2e7dad9e-9695-44d6-bc96-ef3eee5dfbfa"},"vehicle_type_id":"4","last_reported":1769437148,"current_range_meters":6400,"station_id":"","pricing_plan_id":"cebpf4jnsgd1na2vs0mg"},{"bike_id":"6e26fc8c-448e-43cd-b37f-f4be03989230","system_id":"levelo_inurba_marseille","lat":43.32355,"lon":5.3675,"is_reserved":false,"is_disabled":false,"rental_uris":{"android":"levelo://app?vid=6e26fc8c-448e-43cd-b37f-f4be03989230","ios":"levelo://app?vid=6e26fc8c-448e-43cd-b37f-f4be03989230"},"vehicle_type_id":"4","last_reported":1769437148,"current_range_meters":6400,"station_id":"ce4bhsh2rcd13ifvqi2g","pricing_plan_id":"cebpf4jnsgd1na2vs0mg"},{"bike_id":"2aaad497-2970-4001-adae-6482dc071a49","system_id":"levelo_inurba_marseille","lat":43.27369,"lon":5.36261,"is_reserved":false,"is_disabled":false,"rental_uris":{"android":"levelo://app?vid=2aaad497-2970-4001-adae-6482dc071a49","ios":"levelo://app?vid=2aaad497-2970-4001-adae-6482dc071a49"},"vehicle_type_id":"4","last_reported":1769437148,"current_range_meters":6400,"station_id":"ce4bhbh2rcd13ifvqeo0","pricing_plan_id":"cebpf4jnsgd1na2vs0mg"},{"bike_id":"3b5a4c25-8fd0-4c8d-9794-315ef613a5a9","system_id":"levelo_inurba_marseille","lat":43.30313,"lon":5.36908,"is_reserved":false,"is_disabled":false,"rental_uris":{"android":"levelo://app?vid=3b5a4c25-8fd0-4c8d-9794-315ef613a5a9","ios":"levelo://app?vid=3b5a4c25-8fd0-4c8d-9794-315ef613a5a9"},"vehicle_type_id":"4","last_reported":1769437148,"current_range_meters":6400,"station_id":"ce4bgqh2rcd13ifvqc5g","pricing_plan_id":"cebpf4jnsgd1na2vs0mg"},{"bike_id":"346256dc-36b6-4c06-91b5-7ed88484abfe","system_id":"levelo_inurba_marseille","lat":43.32475,"lon":5.36569,"is_reserved":false,"is_disabled":false,"rental_uris":{"android":"levelo://app?vid=346256dc-36b6-4c06-91b5-7ed88484abfe","ios":"levelo://app?vid=346256dc-36b6-4c06-91b5-7ed88484abfe"},"vehicle_type_id":"4","last_reported":1769437148,"current_range_meters":6400,"station_id":"ce4bhs12rcd13ifvqhvg","pricing_plan_id":"cebpf4jnsgd1na2vs0mg"},{"bike_id":"37c3f561-4ae3-4405-b9d1-0c2e91fbee87","system_id":"levelo_inurba_marseille","lat":43.284834,"lon":5.484052,"is_reserved":false,"is_disabled":false,"rental_uris":{"android":"levelo://app?vid=37c3f561-4ae3-4405-b9d1-0c2e91fbee87","ios":"levelo://app?vid=37c3f561-4ae3-4405-b9d1-0c2e91fbee87"},"vehicle_type_id":"4","last_reported":1769437148,"current_range_meters":6400,"station_id":"st_d3svhcjqgbts73a3dn0g","pricing_plan_id":"cebpf4jnsgd1na2vs0mg"},{"bike_id":"16a9d24d-a80a-4666-96bb-2c8e4e9c3ae4","system_id":"levelo_inurba_marseille","lat":43.29253,"lon":5.40911,"is_reserved":false,"is_disabled":false,"rental_uris":{"android":"levelo://app?vid=16a9d24d-a80a-4666-96bb-2c8e4e9c3ae4","ios":"levelo://app?vid=16a9d24d-a80a-4666-96bb-2c8e4e9c3ae4"},"vehicle_type_id":"4","last_reported":1769437148,"current_range_meters":6400,"station_id":"ce4bh192rcd13ifvqdc0","pricing_plan_id":"cebpf4jnsgd1na2vs0mg"},{"bike_id":"b8b10137-8c02-488c-ac38-a06db031ad26","system_id":"levelo_inurba_marseille","lat":43.28542,"lon":5.44115,"is_reserved":false,"is_disabled":false,"rental_uris":{"android":"levelo://app?vid=b8b10137-8c02-488c-ac38-a06db031ad26","ios":"levelo://app?vid=b8b10137-8c02-488c-ac38-a06db031ad26"},"vehicle_type_id":"4","last_reported":1769437148,"current_range_meters":6400,"station_id":"st_d3j3df2ikq2c7380ej80","pricing_plan_id":"cebpf4jnsgd1na2vs0mg"},{"bike_id":"ccf326ac-ae0a-4ffb-a071-520b4c6f402c","system_id":"levelo_inurba_marseille","lat":43.33285,"lon":5.37957,"is_reserved":false,"is_disabled":false,"rental_uris":{"android":"levelo://app?vid=ccf326ac-ae0a-4ffb-a071-520b4c6f402c","ios":"levelo://app?vid=ccf326ac-ae0a-4ffb-a071-520b4c6f402c"},"vehicle_type_id":"4","last_reported":1769437148,"current_range_meters":6400,"station_id":"","pricing_plan_id":"cebpf4jnsgd1na2vs0mg"},{"bike_id":"6ca833bc-eb2d-4968-a64f-dee268a3783e","system_id":"levelo_inurba_marseille","lat":43.23159,"lon":5.43705,"is_reserved":false,"is_disabled":false,"rental_uris":{"android":"levelo://app?vid=6ca833bc-eb2d-4968-a64f-dee268a3783e","ios":"levelo://app?vid=6ca833bc-eb2d-4968-a64f-dee268a3783e"},"vehicle_type_id":"4","last_reported":1769437148,"current_range_meters":6400,"station_id":"ce4bhmp2rcd13ifvqgog","pricing_plan_id":"cebpf4jnsgd1na2vs0mg"},{"bike_id":"34cffd8e-2f46-4dd8-8d27-cdda152fb2da","system_id":"levelo_inurba_marseille","lat":43.24088,"lon":5.37728,"is_reserved":false,"is_disabled":false,"rental_uris":{"android":"levelo://app?vid=34cffd8e-2f46-4dd8-8d27-cdda152fb2da","ios":"levelo://app?vid=34cffd8e-2f46-4dd8-8d27-cdda152fb2da"},"vehicle_type_id":"4","last_reported":1769437148,"current_range_meters":6400,"station_id":"ce4bhnp2rcd13ifvqgvg","pricing_plan_id":"cebpf4jnsgd1na2vs0mg"},{"bike_id":"c3528725-2b4a-40fe-91e3-32ddc8b6208c","system_id":"levelo_inurba_marseille","lat":43.29004,"lon":5.35618,"is_reserved":false,"is_disabled":false,"rental_uris":{"android":"levelo://app?vid=c3528725-2b4a-40fe-91e3-32ddc8b6208c","ios":"levelo://app?vid=c3528725-2b4a-40fe-91e3-32ddc8b6208c"},"vehicle_type_id":"4","last_reported":1769437148,"current_range_meters":6400,"station_id":"ce4bhb92rcd13ifvqen0","pricing_plan_id":"cebpf4jnsgd1na2vs0mg"},{"bike_id":"2d78c52a-e821-423c-8912-3c0fcf451046","system_id":"levelo_inurba_marseille","lat":43.241685,"lon":5.364055,"is_reserved":false,"is_disabled":false,"rental_uris":{"android":"levelo://app?vid=2d78c52a-e821-423c-8912-3c0fcf451046","ios":"levelo://app?vid=2d78c52a-e821-423c-8912-3c0fcf451046"},"vehicle_type_id":"4","last_reported":1769437148,"current_range_meters":6400,"station_id":"cpo36qri1sfpv3e86is0","pricing_plan_id":"cebpf4jnsgd1na2vs0mg"},{"bike_id":"4493373c-f94e-4639-b5cd-651171ec2379","system_id":"levelo_inurba_marseille","lat":43.24417,"lon":5.37084,"is_reserved":false,"is_disabled":false,"rental_uris":{"android":"levelo://app?vid=4493373c-f94e-4639-b5cd-651171ec2379","ios":"levelo://app?vid=4493373c-f94e-4639-b5cd-651171ec2379"},"vehicle_type_id":"4","last_reported":1769437148,"current_range_meters":6400,"station_id":"ce4bhhh2rcd13ifvqfk0","pricing_plan_id":"cebpf4jnsgd1na2vs0mg"},{"bike_id":"7f3e5c0b-c06f-4356-b8cb-68c8424b7076","system_id":"levelo_inurba_marseille","lat":43.3319,"lon":5.41263,"is_reserved":false,"is_disabled":false,"rental_uris":{"android":"levelo://app?vid=7f3e5c0b-c06f-4356-b8cb-68c8424b7076","ios":"levelo://app?vid=7f3e5c0b-c06f-4356-b8cb-68c8424b7076"},"vehicle_type_id":"4","last_reported":1769437148,"current_range_meters":6400,"station_id":"","pricing_plan_id":"cebpf4jnsgd1na2vs0mg"},{"bike_id":"9c5ec5ef-02e8-4667-9878-deb9eab9f4d6","system_id":"levelo_inurba_marseille","lat":43.257276,"lon":5.411155,"is_reserved":false,"is_disabled":false,"rental_uris":{"android":"levelo://app?vid=9c5ec5ef-02e8-4667-9878-deb9eab9f4d6","ios":"levelo://app?vid=9c5ec5ef-02e8-4667-9878-deb9eab9f4d6"},"vehicle_type_id":"4","last_reported":1769437148,"current_range_meters":6400,"station_id":"ce4bhkp2rcd13ifvqgd0","pricing_plan_id":"cebpf4jnsgd1na2vs0mg"},{"bike_id":"d63ed78d-eca7-4700-aaa5-48377a2e3e4e","system_id":"levelo_inurba_marseille","lat":43.2636,"lon":5.41063,"is_reserved":false,"is_disabled":false,"rental_uris":{"android":"levelo://app?vid=d63ed78d-eca7-4700-aaa5-48377a2e3e4e","ios":"levelo://app?vid=d63ed78d-eca7-4700-aaa5-48377a2e3e4e"},"vehicle_type_id":"4","last_reported":1769437148,"current_range_meters":6400,"station_id":"st_d4e5ca6na9uc73bfl5fg","pricing_plan_id":"cebpf4jnsgd1na2vs0mg"},{"bike_id":"1d4557f2-9194-433e-908c-7af0a931319a","system_id":"levelo_inurba_marseille","lat":43.25496,"lon":5.37654,"is_reserved":false,"is_disabled":false,"rental_uris":{"android":"levelo://app?vid=1d4557f2-9194-433e-908c-7af0a931319a","ios":"levelo://app?vid=1d4557f2-9194-433e-908c-7af0a931319a"},"vehicle_type_id":"4","last_reported":1769437148,"current_range_meters":6800,"station_id":"ce4bhh12rcd13ifvqff0","pricing_plan_id":"cebpf4jnsgd1na2vs0mg"},{"bike_id":"8fcc7dfb-9afa-4b40-8aed-c00c1dd819d8","system_id":"levelo_inurba_marseille","lat":43.31108,"lon":5.37826,"is_reserved":false,"is_disabled":false,"rental_uris":{"android":"levelo://app?vid=8fcc7dfb-9afa-4b40-8aed-c00c1dd819d8","ios":"levelo://app?vid=8fcc7dfb-9afa-4b40-8aed-c00c1dd819d8"},"vehicle_type_id":"4","last_reported":1769437148,"current_range_meters":6800,"station_id":"ce4bgt92rcd13ifvqcg0","pricing_plan_id":"cebpf4jnsgd1na2vs0mg"},{"bike_id":"9713f383-b08e-4426-b8eb-983d4865231f","system_id":"levelo_inurba_marseille","lat":43.24397,"lon":5.37054,"is_reserved":false,"is_disabled":false,"rental_uris":{"android":"levelo://app?vid=9713f383-b08e-4426-b8eb-983d4865231f","ios":"levelo://app?vid=9713f383-b08e-4426-b8eb-983d4865231f"},"vehicle_type_id":"4","last_reported":1769437148,"current_range_meters":6800,"station_id":"ce4bhhh2rcd13ifvqfk0","pricing_plan_id":"cebpf4jnsgd1na2vs0mg"},{"bike_id":"59a32110-ff6b-4156-94b4-62186bc46249","system_id":"levelo_inurba_marseille","lat":43.23141,"lon":5.43705,"is_reserved":false,"is_disabled":false,"rental_uris":{"android":"levelo://app?vid=59a32110-ff6b-4156-94b4-62186bc46249","ios":"levelo://app?vid=59a32110-ff6b-4156-94b4-62186bc46249"},"vehicle_type_id":"4","last_reported":1769437148,"current_range_meters":6800,"station_id":"ce4bhmp2rcd13ifvqgog","pricing_plan_id":"cebpf4jnsgd1na2vs0mg"},{"bike_id":"c3edd199-705c-4309-a8b9-4419712c3f01","system_id":"levelo_inurba_marseille","lat":43.337444,"lon":5.374475,"is_reserved":false,"is_disabled":false,"rental_uris":{"android":"levelo://app?vid=c3edd199-705c-4309-a8b9-4419712c3f01","ios":"levelo://app?vid=c3edd199-705c-4309-a8b9-4419712c3f01"},"vehicle_type_id":"4","last_reported":1769437148,"current_range_meters":6800,"station_id":"ce4bhb12rcd13ifvqem0","pricing_plan_id":"cebpf4jnsgd1na2vs0mg"},{"bike_id":"67ff9a75-4fe8-45e7-914d-fc416a457597","system_id":"levelo_inurba_marseille","lat":43.321144,"lon":5.368033,"is_reserved":false,"is_disabled":false,"rental_uris":{"android":"levelo://app?vid=67ff9a75-4fe8-45e7-914d-fc416a457597","ios":"levelo://app?vid=67ff9a75-4fe8-45e7-914d-fc416a457597"},"vehicle_type_id":"4","last_reported":1769437148,"current_range_meters":6800,"station_id":"ce4bhrh2rcd13ifvqhug","pricing_plan_id":"cebpf4jnsgd1na2vs0mg"},{"bike_id":"b633e966-5653-4f4f-933b-143a8d470829","system_id":"levelo_inurba_marseille","lat":43.26079,"lon":5.37231,"is_reserved":false,"is_disabled":false,"rental_uris":{"android":"levelo://app?vid=b633e966-5653-4f4f-933b-143a8d470829","ios":"levelo://app?vid=b633e966-5653-4f4f-933b-143a8d470829"},"vehicle_type_id":"4","last_reported":1769437148,"current_range_meters":6800,"station_id":"","pricing_plan_id":"cebpf4jnsgd1na2vs0mg"},{"bike_id":"22504924-9e54-4399-93b4-2d8b2985824d","system_id":"levelo_inurba_marseille","lat":43.24051,"lon":5.37723,"is_reserved":false,"is_disabled":false,"rental_uris":{"android":"levelo://app?vid=22504924-9e54-4399-93b4-2d8b2985824d","ios":"levelo://app?vid=22504924-9e54-4399-93b4-2d8b2985824d"},"vehicle_type_id":"4","last_reported":1769437148,"current_range_meters":6800,"station_id":"ce4bhnp2rcd13ifvqgvg","pricing_plan_id":"cebpf4jnsgd1na2vs0mg"},{"bike_id":"52039dc9-5cb7-4b25-9b2c-89165a707fb8","system_id":"levelo_inurba_marseille","lat":43.30264,"lon":5.4008,"is_reserved":false,"is_disabled":false,"rental_uris":{"android":"levelo://app?vid=52039dc9-5cb7-4b25-9b2c-89165a707fb8","ios":"levelo://app?vid=52039dc9-5cb7-4b25-9b2c-89165a707fb8"},"vehicle_type_id":"4","last_reported":1769437148,"current_range_meters":6800,"station_id":"ce4bgvh2rcd13ifvqcs0","pricing_plan_id":"cebpf4jnsgd1na2vs0mg"},{"bike_id":"fd001706-12fa-4e7c-83bf-349bf2fcad2c","system_id":"levelo_inurba_marseille","lat":43.2924,"lon":5.36055,"is_reserved":false,"is_disabled":false,"rental_uris":{"android":"levelo://app?vid=fd001706-12fa-4e7c-83bf-349bf2fcad2c","ios":"levelo://app?vid=fd001706-12fa-4e7c-83bf-349bf2fcad2c"},"vehicle_type_id":"4","last_reported":1769437148,"current_range_meters":6800,"station_id":"ce4bhbh2rcd13ifvqeqg","pricing_plan_id":"cebpf4jnsgd1na2vs0mg"},{"bike_id":"4f9646d0-e890-4075-9fb7-8871574ea59d","system_id":"levelo_inurba_marseille","lat":43.24987,"lon":5.38938,"is_reserved":false,"is_disabled":false,"rental_uris":{"android":"levelo://app?vid=4f9646d0-e890-4075-9fb7-8871574ea59d","ios":"levelo://app?vid=4f9646d0-e890-4075-9fb7-8871574ea59d"},"vehicle_type_id":"4","last_reported":1769437148,"current_range_meters":6800,"station_id":"ce4bhgp2rcd13ifvqfd0","pricing_plan_id":"cebpf4jnsgd1na2vs0mg"},{"bike_id":"41a31331-98fe-418f-9f13-cbbdf271d4a7","system_id":"levelo_inurba_marseille","lat":43.29631,"lon":5.37718,"is_reserved":false,"is_disabled":false,"rental_uris":{"android":"levelo://app?vid=41a31331-98fe-418f-9f13-cbbdf271d4a7","ios":"levelo://app?vid=41a31331-98fe-418f-9f13-cbbdf271d4a7"},"vehicle_type_id":"4","last_reported":1769437148,"current_range_meters":6800,"station_id":"ce4bgi92rcd13ifvqb90","pricing_plan_id":"cebpf4jnsgd1na2vs0mg"},{"bike_id":"45e07959-74ee-4a53-b95d-b4b3dff2ce2f","system_id":"levelo_inurba_marseille","lat":43.23778,"lon":5.36636,"is_reserved":false,"is_disabled":false,"rental_uris":{"android":"levelo://app?vid=45e07959-74ee-4a53-b95d-b4b3dff2ce2f","ios":"levelo://app?vid=45e07959-74ee-4a53-b95d-b4b3dff2ce2f"},"vehicle_type_id":"4","last_reported":1769437148,"current_range_meters":6800,"station_id":"st_d3nk18o9ro0c73en2l3g","pricing_plan_id":"cebpf4jnsgd1na2vs0mg"},{"bike_id":"b0d2c80e-ed15-4930-af0a-5bfc09a11396","system_id":"levelo_inurba_marseille","lat":43.22942,"lon":5.35376,"is_reserved":false,"is_disabled":false,"rental_uris":{"android":"levelo://app?vid=b0d2c80e-ed15-4930-af0a-5bfc09a11396","ios":"levelo://app?vid=b0d2c80e-ed15-4930-af0a-5bfc09a11396"},"vehicle_type_id":"4","last_reported":1769437148,"current_range_meters":6800,"station_id":"cpo3532slgdg3j2ikp40","pricing_plan_id":"cebpf4jnsgd1na2vs0mg"},{"bike_id":"1d825dae-dae9-4109-8795-05229a129ed7","system_id":"levelo_inurba_marseille","lat":43.28139,"lon":5.42642,"is_reserved":false,"is_disabled":false,"rental_uris":{"android":"levelo://app?vid=1d825dae-dae9-4109-8795-05229a129ed7","ios":"levelo://app?vid=1d825dae-dae9-4109-8795-05229a129ed7"},"vehicle_type_id":"4","last_reported":1769437148,"current_range_meters":6800,"station_id":"ce4bhnh2rcd13ifvqgug","pricing_plan_id":"cebpf4jnsgd1na2vs0mg"},{"bike_id":"3ea061e6-3522-4acc-948f-9e8a2f88b026","system_id":"levelo_inurba_marseille","lat":43.23149,"lon":5.43717,"is_reserved":false,"is_disabled":false,"rental_uris":{"android":"levelo://app?vid=3ea061e6-3522-4acc-948f-9e8a2f88b026","ios":"levelo://app?vid=3ea061e6-3522-4acc-948f-9e8a2f88b026"},"vehicle_type_id":"4","last_reported":1769437148,"current_range_meters":6800,"station_id":"ce4bhmp2rcd13ifvqgog","pricing_plan_id":"cebpf4jnsgd1na2vs0mg"},{"bike_id":"e725657d-fd79-4a5d-84bf-4f380f92bd1c","system_id":"levelo_inurba_marseille","lat":43.23964,"lon":5.36634,"is_reserved":false,"is_disabled":false,"rental_uris":{"android":"levelo://app?vid=e725657d-fd79-4a5d-84bf-4f380f92bd1c","ios":"levelo://app?vid=e725657d-fd79-4a5d-84bf-4f380f92bd1c"},"vehicle_type_id":"4","last_reported":1769437148,"current_range_meters":6800,"station_id":"ce4bhi12rcd13ifvqfp0","pricing_plan_id":"cebpf4jnsgd1na2vs0mg"},{"bike_id":"02643b03-13c2-4b2c-b909-6d51eac96e04","system_id":"levelo_inurba_marseille","lat":43.28674,"lon":5.38676,"is_reserved":false,"is_disabled":false,"rental_uris":{"android":"levelo://app?vid=02643b03-13c2-4b2c-b909-6d51eac96e04","ios":"levelo://app?vid=02643b03-13c2-4b2c-b909-6d51eac96e04"},"vehicle_type_id":"4","last_reported":1769437148,"current_range_meters":6800,"station_id":"ce4bh492rcd13ifvqdug","pricing_plan_id":"cebpf4jnsgd1na2vs0mg"},{"bike_id":"553d83bd-a03a-4ce1-85da-9494f4fb9698","system_id":"levelo_inurba_marseille","lat":43.24551,"lon":5.39525,"is_reserved":false,"is_disabled":false,"rental_uris":{"android":"levelo://app?vid=553d83bd-a03a-4ce1-85da-9494f4fb9698","ios":"levelo://app?vid=553d83bd-a03a-4ce1-85da-9494f4fb9698"},"vehicle_type_id":"4","last_reported":1769437148,"current_range_meters":6800,"station_id":"ce4bhlp2rcd13ifvqgjg","pricing_plan_id":"cebpf4jnsgd1na2vs0mg"},{"bike_id":"5f48f021-5f31-4d5d-99ab-e7a8bfea583b","system_id":"levelo_inurba_marseille","lat":43.29631,"lon":5.381261,"is_reserved":false,"is_disabled":false,"rental_uris":{"android":"levelo://app?vid=5f48f021-5f31-4d5d-99ab-e7a8bfea583b","ios":"levelo://app?vid=5f48f021-5f31-4d5d-99ab-e7a8bfea583b"},"vehicle_type_id":"4","last_reported":1769437148,"current_range_meters":6800,"station_id":"ce4bgl12rcd13ifvqbo0","pricing_plan_id":"cebpf4jnsgd1na2vs0mg"},{"bike_id":"1d64597d-9aab-4864-8716-3d19fa5cdb9d","system_id":"levelo_inurba_marseille","lat":43.29815,"lon":5.44051,"is_reserved":false,"is_disabled":false,"rental_uris":{"android":"levelo://app?vid=1d64597d-9aab-4864-8716-3d19fa5cdb9d","ios":"levelo://app?vid=1d64597d-9aab-4864-8716-3d19fa5cdb9d"},"vehicle_type_id":"4","last_reported":1769437148,"current_range_meters":6800,"station_id":"st_d3jp68qikq2c7381ktn0","pricing_plan_id":"cebpf4jnsgd1na2vs0mg"},{"bike_id":"35e70d31-e08f-491a-9954-11842990c3fc","system_id":"levelo_inurba_marseille","lat":43.325,"lon":5.38306,"is_reserved":false,"is_disabled":false,"rental_uris":{"android":"levelo://app?vid=35e70d31-e08f-491a-9954-11842990c3fc","ios":"levelo://app?vid=35e70d31-e08f-491a-9954-11842990c3fc"},"vehicle_type_id":"4","last_reported":1769437148,"current_range_meters":6800,"station_id":"st_d4asgbiv49dc73anf9m0","pricing_plan_id":"cebpf4jnsgd1na2vs0mg"},{"bike_id":"8f9da522-4132-4e9e-a406-f805a0681f69","system_id":"levelo_inurba_marseille","lat":43.28468,"lon":5.38236,"is_reserved":false,"is_disabled":false,"rental_uris":{"android":"levelo://app?vid=8f9da522-4132-4e9e-a406-f805a0681f69","ios":"levelo://app?vid=8f9da522-4132-4e9e-a406-f805a0681f69"},"vehicle_type_id":"4","last_reported":1769437148,"current_range_meters":6800,"station_id":"","pricing_plan_id":"cebpf4jnsgd1na2vs0mg"},{"bike_id":"5777293f-b66a-4a6f-8081-966890dd397a","system_id":"levelo_inurba_marseille","lat":43.32118,"lon":5.36754,"is_reserved":false,"is_disabled":false,"rental_uris":{"android":"levelo://app?vid=5777293f-b66a-4a6f-8081-966890dd397a","ios":"levelo://app?vid=5777293f-b66a-4a6f-8081-966890dd397a"},"vehicle_type_id":"4","last_reported":1769437148,"current_range_meters":6800,"station_id":"ce4bhrh2rcd13ifvqhug","pricing_plan_id":"cebpf4jnsgd1na2vs0mg"},{"bike_id":"832c2182-a4a1-4c1d-9220-583caa2e99ef","system_id":"levelo_inurba_marseille","lat":43.24667,"lon":5.38156,"is_reserved":false,"is_disabled":false,"rental_uris":{"android":"levelo://app?vid=832c2182-a4a1-4c1d-9220-583caa2e99ef","ios":"levelo://app?vid=832c2182-a4a1-4c1d-9220-583caa2e99ef"},"vehicle_type_id":"4","last_reported":1769437148,"current_range_meters":6800,"station_id":"ce4bhih2rcd13ifvqfr0","pricing_plan_id":"cebpf4jnsgd1na2vs0mg"},{"bike_id":"e73f1781-62f4-4a23-b153-6815bc29f05e","system_id":"levelo_inurba_marseille","lat":43.29312,"lon":5.41175,"is_reserved":false,"is_disabled":false,"rental_uris":{"android":"levelo://app?vid=e73f1781-62f4-4a23-b153-6815bc29f05e","ios":"levelo://app?vid=e73f1781-62f4-4a23-b153-6815bc29f05e"},"vehicle_type_id":"4","last_reported":1769437148,"current_range_meters":6800,"station_id":"","pricing_plan_id":"cebpf4jnsgd1na2vs0mg"},{"bike_id":"5e4893e0-7e86-482d-a767-2dc95c5fbe1a","system_id":"levelo_inurba_marseille","lat":43.28105,"lon":5.41061,"is_reserved":false,"is_disabled":false,"rental_uris":{"android":"levelo://app?vid=5e4893e0-7e86-482d-a767-2dc95c5fbe1a","ios":"levelo://app?vid=5e4893e0-7e86-482d-a767-2dc95c5fbe1a"},"vehicle_type_id":"4","last_reported":1769437148,"current_range_meters":7200,"station_id":"","pricing_plan_id":"cebpf4jnsgd1na2vs0mg"},{"bike_id":"93c7ca3c-2e02-4311-a0d1-b461f66e2ced","system_id":"levelo_inurba_marseille","lat":43.314982,"lon":5.373115,"is_reserved":false,"is_disabled":false,"rental_uris":{"android":"levelo://app?vid=93c7ca3c-2e02-4311-a0d1-b461f66e2ced","ios":"levelo://app?vid=93c7ca3c-2e02-4311-a0d1-b461f66e2ced"},"vehicle_type_id":"4","last_reported":1769437148,"current_range_meters":7200,"station_id":"","pricing_plan_id":"cebpf4jnsgd1na2vs0mg"},{"bike_id":"35a7406f-c3d7-4ad8-baa5-77e0b1066dfe","system_id":"levelo_inurba_marseille","lat":43.28155,"lon":5.42652,"is_reserved":false,"is_disabled":false,"rental_uris":{"android":"levelo://app?vid=35a7406f-c3d7-4ad8-baa5-77e0b1066dfe","ios":"levelo://app?vid=35a7406f-c3d7-4ad8-baa5-77e0b1066dfe"},"vehicle_type_id":"4","last_reported":1769437148,"current_range_meters":7200,"station_id":"ce4bhnh2rcd13ifvqgug","pricing_plan_id":"cebpf4jnsgd1na2vs0mg"},{"bike_id":"daab4c5f-eb65-4192-89dd-6363e81a674d","system_id":"levelo_inurba_marseille","lat":43.27546,"lon":5.40939,"is_reserved":false,"is_disabled":false,"rental_uris":{"android":"levelo://app?vid=daab4c5f-eb65-4192-89dd-6363e81a674d","ios":"levelo://app?vid=daab4c5f-eb65-4192-89dd-6363e81a674d"},"vehicle_type_id":"4","last_reported":1769437148,"current_range_meters":7200,"station_id":"st_d4a7ka997mjs738ck50g","pricing_plan_id":"cebpf4jnsgd1na2vs0mg"},{"bike_id":"4300228c-a74d-4d37-940c-46e3542698e2","system_id":"levelo_inurba_marseille","lat":43.252373,"lon":5.406192,"is_reserved":false,"is_disabled":false,"rental_uris":{"android":"levelo://app?vid=4300228c-a74d-4d37-940c-46e3542698e2","ios":"levelo://app?vid=4300228c-a74d-4d37-940c-46e3542698e2"},"vehicle_type_id":"4","last_reported":1769437148,"current_range_meters":7200,"station_id":"ce4bhdp2rcd13ifvqf20","pricing_plan_id":"cebpf4jnsgd1na2vs0mg"},{"bike_id":"a85c4dff-4d0e-447f-be35-ab46b7400fe4","system_id":"levelo_inurba_marseille","lat":43.24796,"lon":5.37448,"is_reserved":false,"is_disabled":false,"rental_uris":{"android":"levelo://app?vid=a85c4dff-4d0e-447f-be35-ab46b7400fe4","ios":"levelo://app?vid=a85c4dff-4d0e-447f-be35-ab46b7400fe4"},"vehicle_type_id":"4","last_reported":1769437148,"current_range_meters":7200,"station_id":"ce4bhgh2rcd13ifvqfb0","pricing_plan_id":"cebpf4jnsgd1na2vs0mg"},{"bike_id":"a15856db-9ac7-49b1-8876-30be7c45105f","system_id":"levelo_inurba_marseille","lat":43.24991,"lon":5.38934,"is_reserved":false,"is_disabled":false,"rental_uris":{"android":"levelo://app?vid=a15856db-9ac7-49b1-8876-30be7c45105f","ios":"levelo://app?vid=a15856db-9ac7-49b1-8876-30be7c45105f"},"vehicle_type_id":"4","last_reported":1769437148,"current_range_meters":7200,"station_id":"ce4bhgp2rcd13ifvqfd0","pricing_plan_id":"cebpf4jnsgd1na2vs0mg"},{"bike_id":"75a2c662-3527-4ba2-b6ec-26c092ff3157","system_id":"levelo_inurba_marseille","lat":43.29576,"lon":5.3998,"is_reserved":false,"is_disabled":false,"rental_uris":{"android":"levelo://app?vid=75a2c662-3527-4ba2-b6ec-26c092ff3157","ios":"levelo://app?vid=75a2c662-3527-4ba2-b6ec-26c092ff3157"},"vehicle_type_id":"4","last_reported":1769437148,"current_range_meters":7200,"station_id":"ce4bh312rcd13ifvqdj0","pricing_plan_id":"cebpf4jnsgd1na2vs0mg"},{"bike_id":"898169fa-29c0-4349-a185-41ab96475b8a","system_id":"levelo_inurba_marseille","lat":43.25007,"lon":5.38916,"is_reserved":false,"is_disabled":false,"rental_uris":{"android":"levelo://app?vid=898169fa-29c0-4349-a185-41ab96475b8a","ios":"levelo://app?vid=898169fa-29c0-4349-a185-41ab96475b8a"},"vehicle_type_id":"4","last_reported":1769437148,"current_range_meters":7200,"station_id":"ce4bhgp2rcd13ifvqfd0","pricing_plan_id":"cebpf4jnsgd1na2vs0mg"},{"bike_id":"736929a0-d6a8-4f12-8769-fcb0d31195b2","system_id":"levelo_inurba_marseille","lat":43.27851,"lon":5.40338,"is_reserved":false,"is_disabled":false,"rental_uris":{"android":"levelo://app?vid=736929a0-d6a8-4f12-8769-fcb0d31195b2","ios":"levelo://app?vid=736929a0-d6a8-4f12-8769-fcb0d31195b2"},"vehicle_type_id":"4","last_reported":1769437148,"current_range_meters":7200,"station_id":"","pricing_plan_id":"cebpf4jnsgd1na2vs0mg"},{"bike_id":"6e67136c-4dce-425a-ac6d-5fe9b29ba39d","system_id":"levelo_inurba_marseille","lat":43.30548,"lon":5.36537,"is_reserved":false,"is_disabled":false,"rental_uris":{"android":"levelo://app?vid=6e67136c-4dce-425a-ac6d-5fe9b29ba39d","ios":"levelo://app?vid=6e67136c-4dce-425a-ac6d-5fe9b29ba39d"},"vehicle_type_id":"4","last_reported":1769437148,"current_range_meters":7200,"station_id":"ce4bgs12rcd13ifvqcag","pricing_plan_id":"cebpf4jnsgd1na2vs0mg"},{"bike_id":"2ea93c3a-0d0a-472b-b231-85dc213d24b7","system_id":"levelo_inurba_marseille","lat":43.250026,"lon":5.389257,"is_reserved":false,"is_disabled":false,"rental_uris":{"android":"levelo://app?vid=2ea93c3a-0d0a-472b-b231-85dc213d24b7","ios":"levelo://app?vid=2ea93c3a-0d0a-472b-b231-85dc213d24b7"},"vehicle_type_id":"4","last_reported":1769437148,"current_range_meters":7200,"station_id":"ce4bhgp2rcd13ifvqfd0","pricing_plan_id":"cebpf4jnsgd1na2vs0mg"},{"bike_id":"824e48f9-4323-4fb0-bb91-58a5b75b7c5f","system_id":"levelo_inurba_marseille","lat":43.28261,"lon":5.37237,"is_reserved":false,"is_disabled":false,"rental_uris":{"android":"levelo://app?vid=824e48f9-4323-4fb0-bb91-58a5b75b7c5f","ios":"levelo://app?vid=824e48f9-4323-4fb0-bb91-58a5b75b7c5f"},"vehicle_type_id":"4","last_reported":1769437148,"current_range_meters":7200,"station_id":"","pricing_plan_id":"cebpf4jnsgd1na2vs0mg"},{"bike_id":"b76bc299-e2c7-4434-b0e5-25e2339db632","system_id":"levelo_inurba_marseille","lat":43.25101,"lon":5.39466,"is_reserved":false,"is_disabled":false,"rental_uris":{"android":"levelo://app?vid=b76bc299-e2c7-4434-b0e5-25e2339db632","ios":"levelo://app?vid=b76bc299-e2c7-4434-b0e5-25e2339db632"},"vehicle_type_id":"4","last_reported":1769437148,"current_range_meters":7200,"station_id":"ce4bhm12rcd13ifvqgkg","pricing_plan_id":"cebpf4jnsgd1na2vs0mg"},{"bike_id":"79b6158d-49ea-4914-8da1-643529c2d44f","system_id":"levelo_inurba_marseille","lat":43.24649,"lon":5.38919,"is_reserved":false,"is_disabled":false,"rental_uris":{"android":"levelo://app?vid=79b6158d-49ea-4914-8da1-643529c2d44f","ios":"levelo://app?vid=79b6158d-49ea-4914-8da1-643529c2d44f"},"vehicle_type_id":"4","last_reported":1769437148,"current_range_meters":8000,"station_id":"ce4bhg12rcd13ifvqf60","pricing_plan_id":"cebpf4jnsgd1na2vs0mg"},{"bike_id":"a31c88fe-eab3-4a9e-bb85-de943818a780","system_id":"levelo_inurba_marseille","lat":43.2379,"lon":5.36633,"is_reserved":false,"is_disabled":false,"rental_uris":{"android":"levelo://app?vid=a31c88fe-eab3-4a9e-bb85-de943818a780","ios":"levelo://app?vid=a31c88fe-eab3-4a9e-bb85-de943818a780"},"vehicle_type_id":"4","last_reported":1769437148,"current_range_meters":8000,"station_id":"st_d3nk18o9ro0c73en2l3g","pricing_plan_id":"cebpf4jnsgd1na2vs0mg"},{"bike_id":"99af975f-c198-42de-9b93-5312fd6ca92b","system_id":"levelo_inurba_marseille","lat":43.28481,"lon":5.38557,"is_reserved":false,"is_disabled":false,"rental_uris":{"android":"levelo://app?vid=99af975f-c198-42de-9b93-5312fd6ca92b","ios":"levelo://app?vid=99af975f-c198-42de-9b93-5312fd6ca92b"},"vehicle_type_id":"4","last_reported":1769437148,"current_range_meters":8000,"station_id":"ce4bh8p2rcd13ifvqeb0","pricing_plan_id":"cebpf4jnsgd1na2vs0mg"},{"bike_id":"88677096-446e-4b56-9c6b-da883d1ff266","system_id":"levelo_inurba_marseille","lat":43.23134,"lon":5.43705,"is_reserved":false,"is_disabled":false,"rental_uris":{"android":"levelo://app?vid=88677096-446e-4b56-9c6b-da883d1ff266","ios":"levelo://app?vid=88677096-446e-4b56-9c6b-da883d1ff266"},"vehicle_type_id":"4","last_reported":1769437148,"current_range_meters":8000,"station_id":"ce4bhmp2rcd13ifvqgog","pricing_plan_id":"cebpf4jnsgd1na2vs0mg"},{"bike_id":"860d4648-96bb-41c6-990b-e19b394bde4c","system_id":"levelo_inurba_marseille","lat":43.2949,"lon":5.43304,"is_reserved":false,"is_disabled":false,"rental_uris":{"android":"levelo://app?vid=860d4648-96bb-41c6-990b-e19b394bde4c","ios":"levelo://app?vid=860d4648-96bb-41c6-990b-e19b394bde4c"},"vehicle_type_id":"4","last_reported":1769437148,"current_range_meters":8000,"station_id":"st_d3j5ugp08ojc73fj9d10","pricing_plan_id":"cebpf4jnsgd1na2vs0mg"},{"bike_id":"aeb4cc61-129c-4f69-a2a4-8c1cdbb3353c","system_id":"levelo_inurba_marseille","lat":43.240708,"lon":5.377616,"is_reserved":false,"is_disabled":false,"rental_uris":{"android":"levelo://app?vid=aeb4cc61-129c-4f69-a2a4-8c1cdbb3353c","ios":"levelo://app?vid=aeb4cc61-129c-4f69-a2a4-8c1cdbb3353c"},"vehicle_type_id":"4","last_reported":1769437148,"current_range_meters":8000,"station_id":"ce4bhnp2rcd13ifvqgvg","pricing_plan_id":"cebpf4jnsgd1na2vs0mg"},{"bike_id":"5b91b93d-b3ae-4751-8498-b1dabc506a1f","system_id":"levelo_inurba_marseille","lat":43.24468,"lon":5.42537,"is_reserved":false,"is_disabled":false,"rental_uris":{"android":"levelo://app?vid=5b91b93d-b3ae-4751-8498-b1dabc506a1f","ios":"levelo://app?vid=5b91b93d-b3ae-4751-8498-b1dabc506a1f"},"vehicle_type_id":"4","last_reported":1769437148,"current_range_meters":8000,"station_id":"st_d4a3vfp97mjs738cd8kg","pricing_plan_id":"cebpf4jnsgd1na2vs0mg"},{"bike_id":"fefe4d30-1974-4c06-9b66-899aa1dd538f","system_id":"levelo_inurba_marseille","lat":43.33009,"lon":5.39041,"is_reserved":false,"is_disabled":false,"rental_uris":{"android":"levelo://app?vid=fefe4d30-1974-4c06-9b66-899aa1dd538f","ios":"levelo://app?vid=fefe4d30-1974-4c06-9b66-899aa1dd538f"},"vehicle_type_id":"4","last_reported":1769437148,"current_range_meters":8000,"station_id":"ce4bhr92rcd13ifvqhrg","pricing_plan_id":"cebpf4jnsgd1na2vs0mg"},{"bike_id":"bda8d170-c411-43f2-99e3-22f10d72b0e6","system_id":"levelo_inurba_marseille","lat":43.23151,"lon":5.43716,"is_reserved":false,"is_disabled":false,"rental_uris":{"android":"levelo://app?vid=bda8d170-c411-43f2-99e3-22f10d72b0e6","ios":"levelo://app?vid=bda8d170-c411-43f2-99e3-22f10d72b0e6"},"vehicle_type_id":"4","last_reported":1769437148,"current_range_meters":8000,"station_id":"ce4bhmp2rcd13ifvqgog","pricing_plan_id":"cebpf4jnsgd1na2vs0mg"},{"bike_id":"03628ce2-f90f-4215-9e8f-4d1a2c153b49","system_id":"levelo_inurba_marseille","lat":43.24552,"lon":5.37331,"is_reserved":false,"is_disabled":false,"rental_uris":{"android":"levelo://app?vid=03628ce2-f90f-4215-9e8f-4d1a2c153b49","ios":"levelo://app?vid=03628ce2-f90f-4215-9e8f-4d1a2c153b49"},"vehicle_type_id":"4","last_reported":1769437148,"current_range_meters":8000,"station_id":"","pricing_plan_id":"cebpf4jnsgd1na2vs0mg"},{"bike_id":"4241e7c1-162d-4ace-a947-4a0587651fef","system_id":"levelo_inurba_marseille","lat":43.31229,"lon":5.36869,"is_reserved":false,"is_disabled":false,"rental_uris":{"android":"levelo://app?vid=4241e7c1-162d-4ace-a947-4a0587651fef","ios":"levelo://app?vid=4241e7c1-162d-4ace-a947-4a0587651fef"},"vehicle_type_id":"4","last_reported":1769437148,"current_range_meters":8000,"station_id":"ce4bgl92rcd13ifvqbq0","pricing_plan_id":"cebpf4jnsgd1na2vs0mg"},{"bike_id":"61f9b512-dfe2-4c6f-b9eb-0a539aacc6ab","system_id":"levelo_inurba_marseille","lat":43.29896,"lon":5.4367,"is_reserved":false,"is_disabled":false,"rental_uris":{"android":"levelo://app?vid=61f9b512-dfe2-4c6f-b9eb-0a539aacc6ab","ios":"levelo://app?vid=61f9b512-dfe2-4c6f-b9eb-0a539aacc6ab"},"vehicle_type_id":"4","last_reported":1769437148,"current_range_meters":8000,"station_id":"ce4bhpp2rcd13ifvqhfg","pricing_plan_id":"cebpf4jnsgd1na2vs0mg"},{"bike_id":"cd0e58a9-e511-405e-86ea-d5717a4005ce","system_id":"levelo_inurba_marseille","lat":43.30552,"lon":5.36528,"is_reserved":false,"is_disabled":false,"rental_uris":{"android":"levelo://app?vid=cd0e58a9-e511-405e-86ea-d5717a4005ce","ios":"levelo://app?vid=cd0e58a9-e511-405e-86ea-d5717a4005ce"},"vehicle_type_id":"4","last_reported":1769437148,"current_range_meters":8000,"station_id":"ce4bgs12rcd13ifvqcag","pricing_plan_id":"cebpf4jnsgd1na2vs0mg"},{"bike_id":"f88d705c-fd5d-47fd-9cec-4cc11d33b889","system_id":"levelo_inurba_marseille","lat":43.28409,"lon":5.34983,"is_reserved":false,"is_disabled":false,"rental_uris":{"android":"levelo://app?vid=f88d705c-fd5d-47fd-9cec-4cc11d33b889","ios":"levelo://app?vid=f88d705c-fd5d-47fd-9cec-4cc11d33b889"},"vehicle_type_id":"4","last_reported":1769437148,"current_range_meters":8000,"station_id":"ce4bhbh2rcd13ifvqepg","pricing_plan_id":"cebpf4jnsgd1na2vs0mg"},{"bike_id":"c060f6fe-9c22-4601-a3d6-b324dc7e883d","system_id":"levelo_inurba_marseille","lat":43.22933,"lon":5.35368,"is_reserved":false,"is_disabled":false,"rental_uris":{"android":"levelo://app?vid=c060f6fe-9c22-4601-a3d6-b324dc7e883d","ios":"levelo://app?vid=c060f6fe-9c22-4601-a3d6-b324dc7e883d"},"vehicle_type_id":"4","last_reported":1769437148,"current_range_meters":8000,"station_id":"cpo3532slgdg3j2ikp40","pricing_plan_id":"cebpf4jnsgd1na2vs0mg"},{"bike_id":"a4de131e-b343-4f42-aa80-1258feaeeab6","system_id":"levelo_inurba_marseille","lat":43.29806,"lon":5.38079,"is_reserved":false,"is_disabled":false,"rental_uris":{"android":"levelo://app?vid=a4de131e-b343-4f42-aa80-1258feaeeab6","ios":"levelo://app?vid=a4de131e-b343-4f42-aa80-1258feaeeab6"},"vehicle_type_id":"4","last_reported":1769437148,"current_range_meters":8000,"station_id":"ce4bgip2rcd13ifvqbb0","pricing_plan_id":"cebpf4jnsgd1na2vs0mg"},{"bike_id":"280a13b4-0510-4b91-ba26-ba42712332a8","system_id":"levelo_inurba_marseille","lat":43.29917,"lon":5.37465,"is_reserved":false,"is_disabled":false,"rental_uris":{"android":"levelo://app?vid=280a13b4-0510-4b91-ba26-ba42712332a8","ios":"levelo://app?vid=280a13b4-0510-4b91-ba26-ba42712332a8"},"vehicle_type_id":"4","last_reported":1769437148,"current_range_meters":8000,"station_id":"ce4bgjh2rcd13ifvqbg0","pricing_plan_id":"cebpf4jnsgd1na2vs0mg"},{"bike_id":"f09c06aa-a05d-4b00-b228-d8bee2b62b4f","system_id":"levelo_inurba_marseille","lat":43.32367,"lon":5.3677,"is_reserved":false,"is_disabled":false,"rental_uris":{"android":"levelo://app?vid=f09c06aa-a05d-4b00-b228-d8bee2b62b4f","ios":"levelo://app?vid=f09c06aa-a05d-4b00-b228-d8bee2b62b4f"},"vehicle_type_id":"4","last_reported":1769437148,"current_range_meters":8400,"station_id":"ce4bhsh2rcd13ifvqi2g","pricing_plan_id":"cebpf4jnsgd1na2vs0mg"},{"bike_id":"69e8ab72-b60f-42ef-a1ee-ece4ac39b592","system_id":"levelo_inurba_marseille","lat":43.25921,"lon":5.40887,"is_reserved":false,"is_disabled":false,"rental_uris":{"android":"levelo://app?vid=69e8ab72-b60f-42ef-a1ee-ece4ac39b592","ios":"levelo://app?vid=69e8ab72-b60f-42ef-a1ee-ece4ac39b592"},"vehicle_type_id":"4","last_reported":1769437148,"current_range_meters":8400,"station_id":"ce4bhm92rcd13ifvqglg","pricing_plan_id":"cebpf4jnsgd1na2vs0mg"},{"bike_id":"908b886e-cc4b-4226-b372-446a0d3f1b77","system_id":"levelo_inurba_marseille","lat":43.23193,"lon":5.35553,"is_reserved":false,"is_disabled":false,"rental_uris":{"android":"levelo://app?vid=908b886e-cc4b-4226-b372-446a0d3f1b77","ios":"levelo://app?vid=908b886e-cc4b-4226-b372-446a0d3f1b77"},"vehicle_type_id":"4","last_reported":1769437148,"current_range_meters":8400,"station_id":"ce4bhu92rcd13ifvqi70","pricing_plan_id":"cebpf4jnsgd1na2vs0mg"},{"bike_id":"0bd3fd33-ca42-4b1b-b0cd-6ec4b1ecd569","system_id":"levelo_inurba_marseille","lat":43.32595,"lon":5.37881,"is_reserved":false,"is_disabled":false,"rental_uris":{"android":"levelo://app?vid=0bd3fd33-ca42-4b1b-b0cd-6ec4b1ecd569","ios":"levelo://app?vid=0bd3fd33-ca42-4b1b-b0cd-6ec4b1ecd569"},"vehicle_type_id":"4","last_reported":1769437148,"current_range_meters":8400,"station_id":"","pricing_plan_id":"cebpf4jnsgd1na2vs0mg"},{"bike_id":"28820609-d4f9-4f12-ae32-2cb1905ac29b","system_id":"levelo_inurba_marseille","lat":43.24388,"lon":5.37055,"is_reserved":false,"is_disabled":false,"rental_uris":{"android":"levelo://app?vid=28820609-d4f9-4f12-ae32-2cb1905ac29b","ios":"levelo://app?vid=28820609-d4f9-4f12-ae32-2cb1905ac29b"},"vehicle_type_id":"4","last_reported":1769437148,"current_range_meters":8400,"station_id":"ce4bhhh2rcd13ifvqfk0","pricing_plan_id":"cebpf4jnsgd1na2vs0mg"},{"bike_id":"a57ac1b9-36db-4721-8a5f-8013a4daf2e4","system_id":"levelo_inurba_marseille","lat":43.285282,"lon":5.441017,"is_reserved":false,"is_disabled":false,"rental_uris":{"android":"levelo://app?vid=a57ac1b9-36db-4721-8a5f-8013a4daf2e4","ios":"levelo://app?vid=a57ac1b9-36db-4721-8a5f-8013a4daf2e4"},"vehicle_type_id":"4","last_reported":1769437148,"current_range_meters":8400,"station_id":"st_d3j3df2ikq2c7380ej80","pricing_plan_id":"cebpf4jnsgd1na2vs0mg"},{"bike_id":"4c5e84a3-878b-4e80-a848-d4891b4199bc","system_id":"levelo_inurba_marseille","lat":43.32354,"lon":5.36756,"is_reserved":false,"is_disabled":false,"rental_uris":{"android":"levelo://app?vid=4c5e84a3-878b-4e80-a848-d4891b4199bc","ios":"levelo://app?vid=4c5e84a3-878b-4e80-a848-d4891b4199bc"},"vehicle_type_id":"4","last_reported":1769437148,"current_range_meters":8400,"station_id":"ce4bhsh2rcd13ifvqi2g","pricing_plan_id":"cebpf4jnsgd1na2vs0mg"},{"bike_id":"d0d3dda1-eafb-40d7-b14b-46599c7ec30d","system_id":"levelo_inurba_marseille","lat":43.30917,"lon":5.36823,"is_reserved":false,"is_disabled":false,"rental_uris":{"android":"levelo://app?vid=d0d3dda1-eafb-40d7-b14b-46599c7ec30d","ios":"levelo://app?vid=d0d3dda1-eafb-40d7-b14b-46599c7ec30d"},"vehicle_type_id":"4","last_reported":1769437148,"current_range_meters":8400,"station_id":"ce4bgn92rcd13ifvqbvg","pricing_plan_id":"cebpf4jnsgd1na2vs0mg"},{"bike_id":"02e962fa-b79e-4b30-88b7-45067594eef3","system_id":"levelo_inurba_marseille","lat":43.29911,"lon":5.37466,"is_reserved":false,"is_disabled":false,"rental_uris":{"android":"levelo://app?vid=02e962fa-b79e-4b30-88b7-45067594eef3","ios":"levelo://app?vid=02e962fa-b79e-4b30-88b7-45067594eef3"},"vehicle_type_id":"4","last_reported":1769437148,"current_range_meters":8400,"station_id":"ce4bgjh2rcd13ifvqbg0","pricing_plan_id":"cebpf4jnsgd1na2vs0mg"},{"bike_id":"d71141cf-6b2b-4705-95de-e5efad96fdab","system_id":"levelo_inurba_marseille","lat":43.24637,"lon":5.43144,"is_reserved":false,"is_disabled":false,"rental_uris":{"android":"levelo://app?vid=d71141cf-6b2b-4705-95de-e5efad96fdab","ios":"levelo://app?vid=d71141cf-6b2b-4705-95de-e5efad96fdab"},"vehicle_type_id":"4","last_reported":1769437148,"current_range_meters":8400,"station_id":"st_d2m6c4gdas8pm72e190g","pricing_plan_id":"cebpf4jnsgd1na2vs0mg"},{"bike_id":"46d2cb54-3229-4350-a468-d87c2ae22e65","system_id":"levelo_inurba_marseille","lat":43.27498,"lon":5.42442,"is_reserved":false,"is_disabled":false,"rental_uris":{"android":"levelo://app?vid=46d2cb54-3229-4350-a468-d87c2ae22e65","ios":"levelo://app?vid=46d2cb54-3229-4350-a468-d87c2ae22e65"},"vehicle_type_id":"4","last_reported":1769437148,"current_range_meters":8400,"station_id":"ce4bhn92rcd13ifvqgrg","pricing_plan_id":"cebpf4jnsgd1na2vs0mg"},{"bike_id":"9115fe3e-3eaa-485c-af61-52e3d2f59f70","system_id":"levelo_inurba_marseille","lat":43.30494,"lon":5.36496,"is_reserved":false,"is_disabled":false,"rental_uris":{"android":"levelo://app?vid=9115fe3e-3eaa-485c-af61-52e3d2f59f70","ios":"levelo://app?vid=9115fe3e-3eaa-485c-af61-52e3d2f59f70"},"vehicle_type_id":"4","last_reported":1769437148,"current_range_meters":8400,"station_id":"","pricing_plan_id":"cebpf4jnsgd1na2vs0mg"},{"bike_id":"c53d9179-46c9-4c66-a510-384ab5c90120","system_id":"levelo_inurba_marseille","lat":43.29788,"lon":5.39363,"is_reserved":false,"is_disabled":false,"rental_uris":{"android":"levelo://app?vid=c53d9179-46c9-4c66-a510-384ab5c90120","ios":"levelo://app?vid=c53d9179-46c9-4c66-a510-384ab5c90120"},"vehicle_type_id":"4","last_reported":1769437148,"current_range_meters":8400,"station_id":"chh1huq6cuj3fo74tm60","pricing_plan_id":"cebpf4jnsgd1na2vs0mg"},{"bike_id":"5be68105-477a-4926-9923-7b5ffbb88956","system_id":"levelo_inurba_marseille","lat":43.285335,"lon":5.441051,"is_reserved":false,"is_disabled":false,"rental_uris":{"android":"levelo://app?vid=5be68105-477a-4926-9923-7b5ffbb88956","ios":"levelo://app?vid=5be68105-477a-4926-9923-7b5ffbb88956"},"vehicle_type_id":"4","last_reported":1769437148,"current_range_meters":8400,"station_id":"st_d3j3df2ikq2c7380ej80","pricing_plan_id":"cebpf4jnsgd1na2vs0mg"},{"bike_id":"942cf772-799e-4446-93c7-7868c7549133","system_id":"levelo_inurba_marseille","lat":43.29628,"lon":5.377,"is_reserved":false,"is_disabled":false,"rental_uris":{"android":"levelo://app?vid=942cf772-799e-4446-93c7-7868c7549133","ios":"levelo://app?vid=942cf772-799e-4446-93c7-7868c7549133"},"vehicle_type_id":"4","last_reported":1769437148,"current_range_meters":8400,"station_id":"ce4bgi92rcd13ifvqb90","pricing_plan_id":"cebpf4jnsgd1na2vs0mg"},{"bike_id":"5c18bca9-46cd-42a4-bd07-ba7493ce75f5","system_id":"levelo_inurba_marseille","lat":43.246415,"lon":5.431422,"is_reserved":false,"is_disabled":false,"rental_uris":{"android":"levelo://app?vid=5c18bca9-46cd-42a4-bd07-ba7493ce75f5","ios":"levelo://app?vid=5c18bca9-46cd-42a4-bd07-ba7493ce75f5"},"vehicle_type_id":"4","last_reported":1769437148,"current_range_meters":8400,"station_id":"st_d2m6c4gdas8pm72e190g","pricing_plan_id":"cebpf4jnsgd1na2vs0mg"},{"bike_id":"c7feeacb-d7a3-42b8-8e9d-937193994208","system_id":"levelo_inurba_marseille","lat":43.30147,"lon":5.37418,"is_reserved":false,"is_disabled":false,"rental_uris":{"android":"levelo://app?vid=c7feeacb-d7a3-42b8-8e9d-937193994208","ios":"levelo://app?vid=c7feeacb-d7a3-42b8-8e9d-937193994208"},"vehicle_type_id":"4","last_reported":1769437148,"current_range_meters":8400,"station_id":"ce4bgs92rcd13ifvqcc0","pricing_plan_id":"cebpf4jnsgd1na2vs0mg"},{"bike_id":"97d1eda0-a9af-4c4a-9c8b-3b1301d74ec8","system_id":"levelo_inurba_marseille","lat":43.2293,"lon":5.35387,"is_reserved":false,"is_disabled":false,"rental_uris":{"android":"levelo://app?vid=97d1eda0-a9af-4c4a-9c8b-3b1301d74ec8","ios":"levelo://app?vid=97d1eda0-a9af-4c4a-9c8b-3b1301d74ec8"},"vehicle_type_id":"4","last_reported":1769437148,"current_range_meters":8800,"station_id":"cpo3532slgdg3j2ikp40","pricing_plan_id":"cebpf4jnsgd1na2vs0mg"},{"bike_id":"aaf68de7-a8ba-4f2c-b543-643a8694a695","system_id":"levelo_inurba_marseille","lat":43.248185,"lon":5.374518,"is_reserved":false,"is_disabled":false,"rental_uris":{"android":"levelo://app?vid=aaf68de7-a8ba-4f2c-b543-643a8694a695","ios":"levelo://app?vid=aaf68de7-a8ba-4f2c-b543-643a8694a695"},"vehicle_type_id":"4","last_reported":1769437148,"current_range_meters":8800,"station_id":"ce4bhgh2rcd13ifvqfb0","pricing_plan_id":"cebpf4jnsgd1na2vs0mg"},{"bike_id":"628d1d29-948b-4815-bc3f-a0ef2ac1c781","system_id":"levelo_inurba_marseille","lat":43.24167,"lon":5.36391,"is_reserved":false,"is_disabled":false,"rental_uris":{"android":"levelo://app?vid=628d1d29-948b-4815-bc3f-a0ef2ac1c781","ios":"levelo://app?vid=628d1d29-948b-4815-bc3f-a0ef2ac1c781"},"vehicle_type_id":"4","last_reported":1769437148,"current_range_meters":8800,"station_id":"cpo36qri1sfpv3e86is0","pricing_plan_id":"cebpf4jnsgd1na2vs0mg"},{"bike_id":"7bd6d805-b68f-46a2-8696-18247a4b8c1e","system_id":"levelo_inurba_marseille","lat":43.32356,"lon":5.36747,"is_reserved":false,"is_disabled":false,"rental_uris":{"android":"levelo://app?vid=7bd6d805-b68f-46a2-8696-18247a4b8c1e","ios":"levelo://app?vid=7bd6d805-b68f-46a2-8696-18247a4b8c1e"},"vehicle_type_id":"4","last_reported":1769437148,"current_range_meters":8800,"station_id":"ce4bhsh2rcd13ifvqi2g","pricing_plan_id":"cebpf4jnsgd1na2vs0mg"},{"bike_id":"8e971605-af61-4d48-85f8-3e4a70e20a4f","system_id":"levelo_inurba_marseille","lat":43.25,"lon":5.38917,"is_reserved":false,"is_disabled":false,"rental_uris":{"android":"levelo://app?vid=8e971605-af61-4d48-85f8-3e4a70e20a4f","ios":"levelo://app?vid=8e971605-af61-4d48-85f8-3e4a70e20a4f"},"vehicle_type_id":"4","last_reported":1769437148,"current_range_meters":8800,"station_id":"ce4bhgp2rcd13ifvqfd0","pricing_plan_id":"cebpf4jnsgd1na2vs0mg"},{"bike_id":"62689e11-30b2-4cf7-a0a0-b39283952b26","system_id":"levelo_inurba_marseille","lat":43.244678,"lon":5.425355,"is_reserved":false,"is_disabled":false,"rental_uris":{"android":"levelo://app?vid=62689e11-30b2-4cf7-a0a0-b39283952b26","ios":"levelo://app?vid=62689e11-30b2-4cf7-a0a0-b39283952b26"},"vehicle_type_id":"4","last_reported":1769437148,"current_range_meters":8800,"station_id":"st_d4a3vfp97mjs738cd8kg","pricing_plan_id":"cebpf4jnsgd1na2vs0mg"},{"bike_id":"2abdbc45-a66e-4faf-971c-b57d8f806d8d","system_id":"levelo_inurba_marseille","lat":43.28486,"lon":5.48373,"is_reserved":false,"is_disabled":false,"rental_uris":{"android":"levelo://app?vid=2abdbc45-a66e-4faf-971c-b57d8f806d8d","ios":"levelo://app?vid=2abdbc45-a66e-4faf-971c-b57d8f806d8d"},"vehicle_type_id":"4","last_reported":1769437148,"current_range_meters":8800,"station_id":"st_d3svhcjqgbts73a3dn0g","pricing_plan_id":"cebpf4jnsgd1na2vs0mg"},{"bike_id":"9ab8ecac-aeb3-4a0c-a494-377ef9a5914e","system_id":"levelo_inurba_marseille","lat":43.28424,"lon":5.34995,"is_reserved":false,"is_disabled":false,"rental_uris":{"android":"levelo://app?vid=9ab8ecac-aeb3-4a0c-a494-377ef9a5914e","ios":"levelo://app?vid=9ab8ecac-aeb3-4a0c-a494-377ef9a5914e"},"vehicle_type_id":"4","last_reported":1769437148,"current_range_meters":8800,"station_id":"ce4bhbh2rcd13ifvqepg","pricing_plan_id":"cebpf4jnsgd1na2vs0mg"},{"bike_id":"87b293e5-58a4-49e9-94f1-7e73bf5e1554","system_id":"levelo_inurba_marseille","lat":43.28861,"lon":5.42509,"is_reserved":false,"is_disabled":false,"rental_uris":{"android":"levelo://app?vid=87b293e5-58a4-49e9-94f1-7e73bf5e1554","ios":"levelo://app?vid=87b293e5-58a4-49e9-94f1-7e73bf5e1554"},"vehicle_type_id":"4","last_reported":1769437148,"current_range_meters":8800,"station_id":"st_d3b462108ojc7389ooeg","pricing_plan_id":"cebpf4jnsgd1na2vs0mg"},{"bike_id":"1e992140-ccb5-4632-a6eb-fc04b79a01ae","system_id":"levelo_inurba_marseille","lat":43.28862,"lon":5.4252,"is_reserved":false,"is_disabled":false,"rental_uris":{"android":"levelo://app?vid=1e992140-ccb5-4632-a6eb-fc04b79a01ae","ios":"levelo://app?vid=1e992140-ccb5-4632-a6eb-fc04b79a01ae"},"vehicle_type_id":"4","last_reported":1769437148,"current_range_meters":8800,"station_id":"st_d3b462108ojc7389ooeg","pricing_plan_id":"cebpf4jnsgd1na2vs0mg"},{"bike_id":"aaa758ce-d723-4708-87c2-17607d392ee3","system_id":"levelo_inurba_marseille","lat":43.23155,"lon":5.43721,"is_reserved":false,"is_disabled":false,"rental_uris":{"android":"levelo://app?vid=aaa758ce-d723-4708-87c2-17607d392ee3","ios":"levelo://app?vid=aaa758ce-d723-4708-87c2-17607d392ee3"},"vehicle_type_id":"4","last_reported":1769437148,"current_range_meters":8800,"station_id":"ce4bhmp2rcd13ifvqgog","pricing_plan_id":"cebpf4jnsgd1na2vs0mg"},{"bike_id":"32de39a9-2b97-4a13-a598-91a142f40d8d","system_id":"levelo_inurba_marseille","lat":43.27357,"lon":5.42404,"is_reserved":false,"is_disabled":false,"rental_uris":{"android":"levelo://app?vid=32de39a9-2b97-4a13-a598-91a142f40d8d","ios":"levelo://app?vid=32de39a9-2b97-4a13-a598-91a142f40d8d"},"vehicle_type_id":"4","last_reported":1769437148,"current_range_meters":8800,"station_id":"","pricing_plan_id":"cebpf4jnsgd1na2vs0mg"},{"bike_id":"539af392-7350-492a-86ff-031e626096d7","system_id":"levelo_inurba_marseille","lat":43.32354,"lon":5.36744,"is_reserved":false,"is_disabled":false,"rental_uris":{"android":"levelo://app?vid=539af392-7350-492a-86ff-031e626096d7","ios":"levelo://app?vid=539af392-7350-492a-86ff-031e626096d7"},"vehicle_type_id":"4","last_reported":1769437148,"current_range_meters":9200,"station_id":"ce4bhsh2rcd13ifvqi2g","pricing_plan_id":"cebpf4jnsgd1na2vs0mg"},{"bike_id":"22b57ffe-6432-4cb1-bb4b-adaef906b37f","system_id":"levelo_inurba_marseille","lat":43.32457,"lon":5.36569,"is_reserved":false,"is_disabled":false,"rental_uris":{"android":"levelo://app?vid=22b57ffe-6432-4cb1-bb4b-adaef906b37f","ios":"levelo://app?vid=22b57ffe-6432-4cb1-bb4b-adaef906b37f"},"vehicle_type_id":"4","last_reported":1769437148,"current_range_meters":9200,"station_id":"ce4bhs12rcd13ifvqhvg","pricing_plan_id":"cebpf4jnsgd1na2vs0mg"},{"bike_id":"1b230ff8-b8ce-4bdf-992f-0105a513bf26","system_id":"levelo_inurba_marseille","lat":43.31331,"lon":5.39684,"is_reserved":false,"is_disabled":false,"rental_uris":{"android":"levelo://app?vid=1b230ff8-b8ce-4bdf-992f-0105a513bf26","ios":"levelo://app?vid=1b230ff8-b8ce-4bdf-992f-0105a513bf26"},"vehicle_type_id":"4","last_reported":1769437148,"current_range_meters":9200,"station_id":"ce4bgvp2rcd13ifvqcu0","pricing_plan_id":"cebpf4jnsgd1na2vs0mg"},{"bike_id":"f56dbba4-eb14-4f32-82e7-e0f0bb235e4f","system_id":"levelo_inurba_marseille","lat":43.30117,"lon":5.387786,"is_reserved":false,"is_disabled":false,"rental_uris":{"android":"levelo://app?vid=f56dbba4-eb14-4f32-82e7-e0f0bb235e4f","ios":"levelo://app?vid=f56dbba4-eb14-4f32-82e7-e0f0bb235e4f"},"vehicle_type_id":"4","last_reported":1769437148,"current_range_meters":9200,"station_id":"ce4bghh2rcd13ifvqb60","pricing_plan_id":"cebpf4jnsgd1na2vs0mg"},{"bike_id":"4f438dad-01fc-4a34-afef-9521fac04b4f","system_id":"levelo_inurba_marseille","lat":43.32326,"lon":5.36717,"is_reserved":false,"is_disabled":false,"rental_uris":{"android":"levelo://app?vid=4f438dad-01fc-4a34-afef-9521fac04b4f","ios":"levelo://app?vid=4f438dad-01fc-4a34-afef-9521fac04b4f"},"vehicle_type_id":"4","last_reported":1769437148,"current_range_meters":9200,"station_id":"ce4bhsh2rcd13ifvqi2g","pricing_plan_id":"cebpf4jnsgd1na2vs0mg"},{"bike_id":"fe57d41e-e475-4d4e-a5b5-9dd1b4cb757a","system_id":"levelo_inurba_marseille","lat":43.2792,"lon":5.39584,"is_reserved":false,"is_disabled":false,"rental_uris":{"android":"levelo://app?vid=fe57d41e-e475-4d4e-a5b5-9dd1b4cb757a","ios":"levelo://app?vid=fe57d41e-e475-4d4e-a5b5-9dd1b4cb757a"},"vehicle_type_id":"4","last_reported":1769437148,"current_range_meters":9200,"station_id":"ce4bhf92rcd13ifvqf40","pricing_plan_id":"cebpf4jnsgd1na2vs0mg"},{"bike_id":"b84d5890-67f6-4a76-aa98-adaaa430be1f","system_id":"levelo_inurba_marseille","lat":43.31757,"lon":5.39015,"is_reserved":false,"is_disabled":false,"rental_uris":{"android":"levelo://app?vid=b84d5890-67f6-4a76-aa98-adaaa430be1f","ios":"levelo://app?vid=b84d5890-67f6-4a76-aa98-adaaa430be1f"},"vehicle_type_id":"4","last_reported":1769437148,"current_range_meters":9200,"station_id":"ce4bhqp2rcd13ifvqhng","pricing_plan_id":"cebpf4jnsgd1na2vs0mg"},{"bike_id":"f90a7cba-5743-45de-a991-86993c3511a7","system_id":"levelo_inurba_marseille","lat":43.32358,"lon":5.36741,"is_reserved":false,"is_disabled":false,"rental_uris":{"android":"levelo://app?vid=f90a7cba-5743-45de-a991-86993c3511a7","ios":"levelo://app?vid=f90a7cba-5743-45de-a991-86993c3511a7"},"vehicle_type_id":"4","last_reported":1769437148,"current_range_meters":9200,"station_id":"","pricing_plan_id":"cebpf4jnsgd1na2vs0mg"},{"bike_id":"0f0c85ff-5cab-4b8e-bbdb-c79698d74b23","system_id":"levelo_inurba_marseille","lat":43.27508,"lon":5.42454,"is_reserved":false,"is_disabled":false,"rental_uris":{"android":"levelo://app?vid=0f0c85ff-5cab-4b8e-bbdb-c79698d74b23","ios":"levelo://app?vid=0f0c85ff-5cab-4b8e-bbdb-c79698d74b23"},"vehicle_type_id":"4","last_reported":1769437148,"current_range_meters":9200,"station_id":"ce4bhn92rcd13ifvqgrg","pricing_plan_id":"cebpf4jnsgd1na2vs0mg"},{"bike_id":"90880ec8-f6d2-4cf5-bf6e-ef3e55097fe8","system_id":"levelo_inurba_marseille","lat":43.29801,"lon":5.38074,"is_reserved":false,"is_disabled":false,"rental_uris":{"android":"levelo://app?vid=90880ec8-f6d2-4cf5-bf6e-ef3e55097fe8","ios":"levelo://app?vid=90880ec8-f6d2-4cf5-bf6e-ef3e55097fe8"},"vehicle_type_id":"4","last_reported":1769437148,"current_range_meters":9200,"station_id":"ce4bgip2rcd13ifvqbb0","pricing_plan_id":"cebpf4jnsgd1na2vs0mg"},{"bike_id":"15ffb544-9cf9-4c83-98f5-22f43ecc1d4c","system_id":"levelo_inurba_marseille","lat":43.30807,"lon":5.40483,"is_reserved":false,"is_disabled":false,"rental_uris":{"android":"levelo://app?vid=15ffb544-9cf9-4c83-98f5-22f43ecc1d4c","ios":"levelo://app?vid=15ffb544-9cf9-4c83-98f5-22f43ecc1d4c"},"vehicle_type_id":"4","last_reported":1769437148,"current_range_meters":9200,"station_id":"","pricing_plan_id":"cebpf4jnsgd1na2vs0mg"},{"bike_id":"74975ee5-cc21-4f8d-8ef0-3c4b42557576","system_id":"levelo_inurba_marseille","lat":43.3209,"lon":5.36792,"is_reserved":false,"is_disabled":false,"rental_uris":{"android":"levelo://app?vid=74975ee5-cc21-4f8d-8ef0-3c4b42557576","ios":"levelo://app?vid=74975ee5-cc21-4f8d-8ef0-3c4b42557576"},"vehicle_type_id":"4","last_reported":1769437148,"current_range_meters":9200,"station_id":"ce4bhrh2rcd13ifvqhug","pricing_plan_id":"cebpf4jnsgd1na2vs0mg"},{"bike_id":"8d44fa9f-abea-4043-bcef-d17417c9f4ed","system_id":"levelo_inurba_marseille","lat":43.25818,"lon":5.39425,"is_reserved":false,"is_disabled":false,"rental_uris":{"android":"levelo://app?vid=8d44fa9f-abea-4043-bcef-d17417c9f4ed","ios":"levelo://app?vid=8d44fa9f-abea-4043-bcef-d17417c9f4ed"},"vehicle_type_id":"4","last_reported":1769437148,"current_range_meters":9200,"station_id":"ce4bhip2rcd13ifvqft0","pricing_plan_id":"cebpf4jnsgd1na2vs0mg"},{"bike_id":"68afdc0e-e37c-47ec-bb85-a4e86baa3639","system_id":"levelo_inurba_marseille","lat":43.32496,"lon":5.36588,"is_reserved":false,"is_disabled":false,"rental_uris":{"android":"levelo://app?vid=68afdc0e-e37c-47ec-bb85-a4e86baa3639","ios":"levelo://app?vid=68afdc0e-e37c-47ec-bb85-a4e86baa3639"},"vehicle_type_id":"4","last_reported":1769437148,"current_range_meters":9200,"station_id":"ce4bhs12rcd13ifvqhvg","pricing_plan_id":"cebpf4jnsgd1na2vs0mg"},{"bike_id":"1e6ae573-7b0d-4ca7-8d21-23950df7df4a","system_id":"levelo_inurba_marseille","lat":43.28518,"lon":5.44122,"is_reserved":false,"is_disabled":false,"rental_uris":{"android":"levelo://app?vid=1e6ae573-7b0d-4ca7-8d21-23950df7df4a","ios":"levelo://app?vid=1e6ae573-7b0d-4ca7-8d21-23950df7df4a"},"vehicle_type_id":"4","last_reported":1769437148,"current_range_meters":9200,"station_id":"st_d3j3df2ikq2c7380ej80","pricing_plan_id":"cebpf4jnsgd1na2vs0mg"},{"bike_id":"d50cf647-4bd7-4007-8776-7572d3cb0094","system_id":"levelo_inurba_marseille","lat":43.28596,"lon":5.37947,"is_reserved":false,"is_disabled":false,"rental_uris":{"android":"levelo://app?vid=d50cf647-4bd7-4007-8776-7572d3cb0094","ios":"levelo://app?vid=d50cf647-4bd7-4007-8776-7572d3cb0094"},"vehicle_type_id":"4","last_reported":1769437148,"current_range_meters":9200,"station_id":"","pricing_plan_id":"cebpf4jnsgd1na2vs0mg"},{"bike_id":"f80dbe37-99cf-4116-b5f1-05758a5b944f","system_id":"levelo_inurba_marseille","lat":43.26549,"lon":5.3729,"is_reserved":false,"is_disabled":false,"rental_uris":{"android":"levelo://app?vid=f80dbe37-99cf-4116-b5f1-05758a5b944f","ios":"levelo://app?vid=f80dbe37-99cf-4116-b5f1-05758a5b944f"},"vehicle_type_id":"4","last_reported":1769437148,"current_range_meters":9200,"station_id":"ce4bhg12rcd13ifvqf70","pricing_plan_id":"cebpf4jnsgd1na2vs0mg"},{"bike_id":"58ef26b0-6429-45df-bf5b-8e3d266d5df0","system_id":"levelo_inurba_marseille","lat":43.23794,"lon":5.3663,"is_reserved":false,"is_disabled":false,"rental_uris":{"android":"levelo://app?vid=58ef26b0-6429-45df-bf5b-8e3d266d5df0","ios":"levelo://app?vid=58ef26b0-6429-45df-bf5b-8e3d266d5df0"},"vehicle_type_id":"4","last_reported":1769437148,"current_range_meters":9600,"station_id":"st_d3nk18o9ro0c73en2l3g","pricing_plan_id":"cebpf4jnsgd1na2vs0mg"},{"bike_id":"ea522609-0ed7-4984-8790-8a7ed4d9009b","system_id":"levelo_inurba_marseille","lat":43.22561,"lon":5.41624,"is_reserved":false,"is_disabled":false,"rental_uris":{"android":"levelo://app?vid=ea522609-0ed7-4984-8790-8a7ed4d9009b","ios":"levelo://app?vid=ea522609-0ed7-4984-8790-8a7ed4d9009b"},"vehicle_type_id":"4","last_reported":1769437148,"current_range_meters":9600,"station_id":"st_d2o4gvlbi1j2169b742g","pricing_plan_id":"cebpf4jnsgd1na2vs0mg"},{"bike_id":"bebcb785-8cc4-4878-8427-bae131cd30ad","system_id":"levelo_inurba_marseille","lat":43.28851,"lon":5.39312,"is_reserved":false,"is_disabled":false,"rental_uris":{"android":"levelo://app?vid=bebcb785-8cc4-4878-8427-bae131cd30ad","ios":"levelo://app?vid=bebcb785-8cc4-4878-8427-bae131cd30ad"},"vehicle_type_id":"4","last_reported":1769437148,"current_range_meters":9600,"station_id":"ce4bh2p2rcd13ifvqdi0","pricing_plan_id":"cebpf4jnsgd1na2vs0mg"},{"bike_id":"d2c9233f-bd5b-4a9a-a6bd-603293121620","system_id":"levelo_inurba_marseille","lat":43.23052,"lon":5.35496,"is_reserved":false,"is_disabled":false,"rental_uris":{"android":"levelo://app?vid=d2c9233f-bd5b-4a9a-a6bd-603293121620","ios":"levelo://app?vid=d2c9233f-bd5b-4a9a-a6bd-603293121620"},"vehicle_type_id":"4","last_reported":1769437148,"current_range_meters":9600,"station_id":"cpo3342slgdg3j2ifvpg","pricing_plan_id":"cebpf4jnsgd1na2vs0mg"},{"bike_id":"56076317-b66a-45ba-b3b6-c261c650aa84","system_id":"levelo_inurba_marseille","lat":43.29648,"lon":5.37821,"is_reserved":false,"is_disabled":false,"rental_uris":{"android":"levelo://app?vid=56076317-b66a-45ba-b3b6-c261c650aa84","ios":"levelo://app?vid=56076317-b66a-45ba-b3b6-c261c650aa84"},"vehicle_type_id":"4","last_reported":1769437148,"current_range_meters":9600,"station_id":"","pricing_plan_id":"cebpf4jnsgd1na2vs0mg"},