{"last_updated":1781517715,"ttl":60,"version":"2.2","data":{"bikes":[{"bike_id":"ec12d144-24c8-4071-abf6-197e520eae96","system_id":"levelo_inurba_marseille","lat":43.337444,"lon":5.374475,"is_reserved":false,"is_disabled":false,"rental_uris":{"android":"levelo://app?vid=ec12d144-24c8-4071-abf6-197e520eae96","ios":"levelo://app?vid=ec12d144-24c8-4071-abf6-197e520eae96"},"vehicle_type_id":"4","last_reported":1781517715,"current_range_meters":0,"station_id":"","pricing_plan_id":"cebpf4jnsgd1na2vs0mg"},{"bike_id":"8c35e00d-f145-4990-9075-f1452b27a592","system_id":"levelo_inurba_marseille","lat":43.26608,"lon":5.39007,"is_reserved":false,"is_disabled":false,"rental_uris":{"android":"levelo://app?vid=8c35e00d-f145-4990-9075-f1452b27a592","ios":"levelo://app?vid=8c35e00d-f145-4990-9075-f1452b27a592"},"vehicle_type_id":"4","last_reported":1781517715,"current_range_meters":2800,"station_id":"ce4bhe12rcd13ifvqf30","pricing_plan_id":"cebpf4jnsgd1na2vs0mg"},{"bike_id":"18d3753c-9feb-4a72-9030-d19f09b8a97b","system_id":"levelo_inurba_marseille","lat":43.29867,"lon":5.37872,"is_reserved":false,"is_disabled":false,"rental_uris":{"android":"levelo://app?vid=18d3753c-9feb-4a72-9030-d19f09b8a97b","ios":"levelo://app?vid=18d3753c-9feb-4a72-9030-d19f09b8a97b"},"vehicle_type_id":"4","last_reported":1781517715,"current_range_meters":2800,"station_id":"","pricing_plan_id":"cebpf4jnsgd1na2vs0mg"},{"bike_id":"04502770-9d1b-4666-9850-3a4dbf819f2f","system_id":"levelo_inurba_marseille","lat":43.28641,"lon":5.38514,"is_reserved":false,"is_disabled":false,"rental_uris":{"android":"levelo://app?vid=04502770-9d1b-4666-9850-3a4dbf819f2f","ios":"levelo://app?vid=04502770-9d1b-4666-9850-3a4dbf819f2f"},"vehicle_type_id":"4","last_reported":1781517715,"current_range_meters":2800,"station_id":"","pricing_plan_id":"cebpf4jnsgd1na2vs0mg"},{"bike_id":"38ae4489-56a4-456c-8aba-e452dd14c882","system_id":"levelo_inurba_marseille","lat":43.28251,"lon":5.38562,"is_reserved":false,"is_disabled":false,"rental_uris":{"android":"levelo://app?vid=38ae4489-56a4-456c-8aba-e452dd14c882","ios":"levelo://app?vid=38ae4489-56a4-456c-8aba-e452dd14c882"},"vehicle_type_id":"4","last_reported":1781517715,"current_range_meters":2800,"station_id":"","pricing_plan_id":"cebpf4jnsgd1na2vs0mg"},{"bike_id":"9d5e43bc-0bf1-41b6-b34f-7bce4be45a87","system_id":"levelo_inurba_marseille","lat":43.27564,"lon":5.38422,"is_reserved":false,"is_disabled":false,"rental_uris":{"android":"levelo://app?vid=9d5e43bc-0bf1-41b6-b34f-7bce4be45a87","ios":"levelo://app?vid=9d5e43bc-0bf1-41b6-b34f-7bce4be45a87"},"vehicle_type_id":"4","last_reported":1781517715,"current_range_meters":2800,"station_id":"ce4bhh92rcd13ifvqfi0","pricing_plan_id":"cebpf4jnsgd1na2vs0mg"},{"bike_id":"c738a475-5094-48aa-af21-bd16aacd51e1","system_id":"levelo_inurba_marseille","lat":43.24251,"lon":5.3746,"is_reserved":false,"is_disabled":false,"rental_uris":{"android":"levelo://app?vid=c738a475-5094-48aa-af21-bd16aacd51e1","ios":"levelo://app?vid=c738a475-5094-48aa-af21-bd16aacd51e1"},"vehicle_type_id":"4","last_reported":1781517715,"current_range_meters":2800,"station_id":"","pricing_plan_id":"cebpf4jnsgd1na2vs0mg"},{"bike_id":"10a7e707-491a-4960-8596-d39b7a7178ed","system_id":"levelo_inurba_marseille","lat":43.26375,"lon":5.41079,"is_reserved":false,"is_disabled":false,"rental_uris":{"android":"levelo://app?vid=10a7e707-491a-4960-8596-d39b7a7178ed","ios":"levelo://app?vid=10a7e707-491a-4960-8596-d39b7a7178ed"},"vehicle_type_id":"4","last_reported":1781517715,"current_range_meters":2800,"station_id":"st_d4e5ca6na9uc73bfl5fg","pricing_plan_id":"cebpf4jnsgd1na2vs0mg"},{"bike_id":"2515fa9d-4a37-436e-9eac-dbc69051e463","system_id":"levelo_inurba_marseille","lat":43.22568,"lon":5.4162,"is_reserved":false,"is_disabled":false,"rental_uris":{"android":"levelo://app?vid=2515fa9d-4a37-436e-9eac-dbc69051e463","ios":"levelo://app?vid=2515fa9d-4a37-436e-9eac-dbc69051e463"},"vehicle_type_id":"4","last_reported":1781517715,"current_range_meters":2800,"station_id":"st_d2o4gvlbi1j2169b742g","pricing_plan_id":"cebpf4jnsgd1na2vs0mg"},{"bike_id":"fb52fec9-b90e-42ff-a522-de50539cb369","system_id":"levelo_inurba_marseille","lat":43.2621,"lon":5.37941,"is_reserved":false,"is_disabled":false,"rental_uris":{"android":"levelo://app?vid=fb52fec9-b90e-42ff-a522-de50539cb369","ios":"levelo://app?vid=fb52fec9-b90e-42ff-a522-de50539cb369"},"vehicle_type_id":"4","last_reported":1781517715,"current_range_meters":2800,"station_id":"ce4bhjp2rcd13ifvqg90","pricing_plan_id":"cebpf4jnsgd1na2vs0mg"},{"bike_id":"8a28fb25-40c5-4537-b32f-d4a137b37100","system_id":"levelo_inurba_marseille","lat":43.33546,"lon":5.37457,"is_reserved":false,"is_disabled":false,"rental_uris":{"android":"levelo://app?vid=8a28fb25-40c5-4537-b32f-d4a137b37100","ios":"levelo://app?vid=8a28fb25-40c5-4537-b32f-d4a137b37100"},"vehicle_type_id":"4","last_reported":1781517715,"current_range_meters":2800,"station_id":"st_d46tts09ee8s73dlu43g","pricing_plan_id":"cebpf4jnsgd1na2vs0mg"},{"bike_id":"fcbdd51f-fa24-4cc6-b92f-f3288e2d1c12","system_id":"levelo_inurba_marseille","lat":43.28694,"lon":5.46685,"is_reserved":false,"is_disabled":false,"rental_uris":{"android":"levelo://app?vid=fcbdd51f-fa24-4cc6-b92f-f3288e2d1c12","ios":"levelo://app?vid=fcbdd51f-fa24-4cc6-b92f-f3288e2d1c12"},"vehicle_type_id":"4","last_reported":1781517715,"current_range_meters":2800,"station_id":"st_d6tc3vkotcvc738tfjhg","pricing_plan_id":"cebpf4jnsgd1na2vs0mg"},{"bike_id":"5b1ce08a-ce1e-45db-b1f3-286eca93d7e2","system_id":"levelo_inurba_marseille","lat":43.28683,"lon":5.39999,"is_reserved":false,"is_disabled":false,"rental_uris":{"android":"levelo://app?vid=5b1ce08a-ce1e-45db-b1f3-286eca93d7e2","ios":"levelo://app?vid=5b1ce08a-ce1e-45db-b1f3-286eca93d7e2"},"vehicle_type_id":"4","last_reported":1781517715,"current_range_meters":2800,"station_id":"ce4bho92rcd13ifvqh3g","pricing_plan_id":"cebpf4jnsgd1na2vs0mg"},{"bike_id":"7272f913-724d-4b58-b6a6-688b3e04b242","system_id":"levelo_inurba_marseille","lat":43.24701,"lon":5.4126,"is_reserved":false,"is_disabled":false,"rental_uris":{"android":"levelo://app?vid=7272f913-724d-4b58-b6a6-688b3e04b242","ios":"levelo://app?vid=7272f913-724d-4b58-b6a6-688b3e04b242"},"vehicle_type_id":"4","last_reported":1781517715,"current_range_meters":2800,"station_id":"","pricing_plan_id":"cebpf4jnsgd1na2vs0mg"},{"bike_id":"54e482a5-c534-4992-ad75-060a9850516b","system_id":"levelo_inurba_marseille","lat":43.32378,"lon":5.36722,"is_reserved":false,"is_disabled":false,"rental_uris":{"android":"levelo://app?vid=54e482a5-c534-4992-ad75-060a9850516b","ios":"levelo://app?vid=54e482a5-c534-4992-ad75-060a9850516b"},"vehicle_type_id":"4","last_reported":1781517715,"current_range_meters":3200,"station_id":"ce4bhsh2rcd13ifvqi2g","pricing_plan_id":"cebpf4jnsgd1na2vs0mg"},{"bike_id":"bf44b715-ae50-4f67-a852-53dd45edbeea","system_id":"levelo_inurba_marseille","lat":43.23155,"lon":5.43712,"is_reserved":false,"is_disabled":false,"rental_uris":{"android":"levelo://app?vid=bf44b715-ae50-4f67-a852-53dd45edbeea","ios":"levelo://app?vid=bf44b715-ae50-4f67-a852-53dd45edbeea"},"vehicle_type_id":"4","last_reported":1781517715,"current_range_meters":3200,"station_id":"ce4bhmp2rcd13ifvqgog","pricing_plan_id":"cebpf4jnsgd1na2vs0mg"},{"bike_id":"a3dce523-25c0-4577-ae56-7c77f087e49a","system_id":"levelo_inurba_marseille","lat":43.28869,"lon":5.42526,"is_reserved":false,"is_disabled":false,"rental_uris":{"android":"levelo://app?vid=a3dce523-25c0-4577-ae56-7c77f087e49a","ios":"levelo://app?vid=a3dce523-25c0-4577-ae56-7c77f087e49a"},"vehicle_type_id":"4","last_reported":1781517715,"current_range_meters":3200,"station_id":"st_d3b462108ojc7389ooeg","pricing_plan_id":"cebpf4jnsgd1na2vs0mg"},{"bike_id":"f8cad1ac-280a-4ecf-8406-52438c843066","system_id":"levelo_inurba_marseille","lat":43.27814,"lon":5.3547,"is_reserved":false,"is_disabled":false,"rental_uris":{"android":"levelo://app?vid=f8cad1ac-280a-4ecf-8406-52438c843066","ios":"levelo://app?vid=f8cad1ac-280a-4ecf-8406-52438c843066"},"vehicle_type_id":"4","last_reported":1781517715,"current_range_meters":3200,"station_id":"","pricing_plan_id":"cebpf4jnsgd1na2vs0mg"},{"bike_id":"b12e8485-ed28-4a8f-90a1-52538f8c996f","system_id":"levelo_inurba_marseille","lat":43.2952,"lon":5.39012,"is_reserved":false,"is_disabled":true,"rental_uris":{"android":"levelo://app?vid=b12e8485-ed28-4a8f-90a1-52538f8c996f","ios":"levelo://app?vid=b12e8485-ed28-4a8f-90a1-52538f8c996f"},"vehicle_type_id":"4","last_reported":1781517715,"current_range_meters":3200,"station_id":"ce4bh3p2rcd13ifvqdp0","pricing_plan_id":"cebpf4jnsgd1na2vs0mg"},{"bike_id":"d1800741-fac1-4624-b995-5a057797ea03","system_id":"levelo_inurba_marseille","lat":43.27228,"lon":5.4234,"is_reserved":false,"is_disabled":false,"rental_uris":{"android":"levelo://app?vid=d1800741-fac1-4624-b995-5a057797ea03","ios":"levelo://app?vid=d1800741-fac1-4624-b995-5a057797ea03"},"vehicle_type_id":"4","last_reported":1781517715,"current_range_meters":3200,"station_id":"","pricing_plan_id":"cebpf4jnsgd1na2vs0mg"},{"bike_id":"72a68596-e19c-4a52-ba10-9bdae69e8aa7","system_id":"levelo_inurba_marseille","lat":43.2649,"lon":5.39546,"is_reserved":false,"is_disabled":true,"rental_uris":{"android":"levelo://app?vid=72a68596-e19c-4a52-ba10-9bdae69e8aa7","ios":"levelo://app?vid=72a68596-e19c-4a52-ba10-9bdae69e8aa7"},"vehicle_type_id":"4","last_reported":1781517715,"current_range_meters":3200,"station_id":"ce4bhi12rcd13ifvqfq0","pricing_plan_id":"cebpf4jnsgd1na2vs0mg"},{"bike_id":"857763c1-9026-40b1-9529-fdb7ca822e57","system_id":"levelo_inurba_marseille","lat":43.29269,"lon":5.40144,"is_reserved":false,"is_disabled":false,"rental_uris":{"android":"levelo://app?vid=857763c1-9026-40b1-9529-fdb7ca822e57","ios":"levelo://app?vid=857763c1-9026-40b1-9529-fdb7ca822e57"},"vehicle_type_id":"4","last_reported":1781517715,"current_range_meters":3200,"station_id":"ce4bh312rcd13ifvqdk0","pricing_plan_id":"cebpf4jnsgd1na2vs0mg"},{"bike_id":"333f976b-8b94-4e77-8fe8-133d43f32e35","system_id":"levelo_inurba_marseille","lat":43.29033,"lon":5.39171,"is_reserved":false,"is_disabled":false,"rental_uris":{"android":"levelo://app?vid=333f976b-8b94-4e77-8fe8-133d43f32e35","ios":"levelo://app?vid=333f976b-8b94-4e77-8fe8-133d43f32e35"},"vehicle_type_id":"4","last_reported":1781517715,"current_range_meters":3200,"station_id":"","pricing_plan_id":"cebpf4jnsgd1na2vs0mg"},{"bike_id":"ce059822-03c1-4578-b9e3-bb0b69a47db9","system_id":"levelo_inurba_marseille","lat":43.25014,"lon":5.38937,"is_reserved":false,"is_disabled":false,"rental_uris":{"android":"levelo://app?vid=ce059822-03c1-4578-b9e3-bb0b69a47db9","ios":"levelo://app?vid=ce059822-03c1-4578-b9e3-bb0b69a47db9"},"vehicle_type_id":"4","last_reported":1781517715,"current_range_meters":3200,"station_id":"ce4bhgp2rcd13ifvqfd0","pricing_plan_id":"cebpf4jnsgd1na2vs0mg"},{"bike_id":"8a50485e-cb47-455f-b466-cdf8797cddcd","system_id":"levelo_inurba_marseille","lat":43.30544,"lon":5.36523,"is_reserved":false,"is_disabled":false,"rental_uris":{"android":"levelo://app?vid=8a50485e-cb47-455f-b466-cdf8797cddcd","ios":"levelo://app?vid=8a50485e-cb47-455f-b466-cdf8797cddcd"},"vehicle_type_id":"4","last_reported":1781517715,"current_range_meters":3200,"station_id":"ce4bgs12rcd13ifvqcag","pricing_plan_id":"cebpf4jnsgd1na2vs0mg"},{"bike_id":"8dc7d146-6b6b-4ff1-99bd-ae3bddb3b1b9","system_id":"levelo_inurba_marseille","lat":43.21188,"lon":5.35086,"is_reserved":false,"is_disabled":false,"rental_uris":{"android":"levelo://app?vid=8dc7d146-6b6b-4ff1-99bd-ae3bddb3b1b9","ios":"levelo://app?vid=8dc7d146-6b6b-4ff1-99bd-ae3bddb3b1b9"},"vehicle_type_id":"4","last_reported":1781517715,"current_range_meters":3200,"station_id":"st_cvj6sg6p6f1abm77japg","pricing_plan_id":"cebpf4jnsgd1na2vs0mg"},{"bike_id":"f9d4d4c9-515a-4814-b837-f6e088dcafcb","system_id":"levelo_inurba_marseille","lat":43.33546,"lon":5.37469,"is_reserved":false,"is_disabled":false,"rental_uris":{"android":"levelo://app?vid=f9d4d4c9-515a-4814-b837-f6e088dcafcb","ios":"levelo://app?vid=f9d4d4c9-515a-4814-b837-f6e088dcafcb"},"vehicle_type_id":"4","last_reported":1781517715,"current_range_meters":3200,"station_id":"st_d46tts09ee8s73dlu43g","pricing_plan_id":"cebpf4jnsgd1na2vs0mg"},{"bike_id":"19e9f708-4324-41cd-bfb3-c4d8226f09ad","system_id":"levelo_inurba_marseille","lat":43.27575,"lon":5.38421,"is_reserved":false,"is_disabled":false,"rental_uris":{"android":"levelo://app?vid=19e9f708-4324-41cd-bfb3-c4d8226f09ad","ios":"levelo://app?vid=19e9f708-4324-41cd-bfb3-c4d8226f09ad"},"vehicle_type_id":"4","last_reported":1781517715,"current_range_meters":3200,"station_id":"ce4bhh92rcd13ifvqfi0","pricing_plan_id":"cebpf4jnsgd1na2vs0mg"},{"bike_id":"96b2ab90-d8d2-49df-9035-0467b0e6c086","system_id":"levelo_inurba_marseille","lat":43.29852,"lon":5.44059,"is_reserved":false,"is_disabled":false,"rental_uris":{"android":"levelo://app?vid=96b2ab90-d8d2-49df-9035-0467b0e6c086","ios":"levelo://app?vid=96b2ab90-d8d2-49df-9035-0467b0e6c086"},"vehicle_type_id":"4","last_reported":1781517715,"current_range_meters":3200,"station_id":"st_d3jp68qikq2c7381ktn0","pricing_plan_id":"cebpf4jnsgd1na2vs0mg"},{"bike_id":"f672f465-d8d1-4b4c-9076-157383923c31","system_id":"levelo_inurba_marseille","lat":43.235073,"lon":5.411143,"is_reserved":false,"is_disabled":false,"rental_uris":{"android":"levelo://app?vid=f672f465-d8d1-4b4c-9076-157383923c31","ios":"levelo://app?vid=f672f465-d8d1-4b4c-9076-157383923c31"},"vehicle_type_id":"4","last_reported":1781517715,"current_range_meters":3200,"station_id":"","pricing_plan_id":"cebpf4jnsgd1na2vs0mg"},{"bike_id":"0b3de9c1-5e8e-456d-a768-a4c1aa5a44f6","system_id":"levelo_inurba_marseille","lat":43.28487,"lon":5.3856,"is_reserved":false,"is_disabled":false,"rental_uris":{"android":"levelo://app?vid=0b3de9c1-5e8e-456d-a768-a4c1aa5a44f6","ios":"levelo://app?vid=0b3de9c1-5e8e-456d-a768-a4c1aa5a44f6"},"vehicle_type_id":"4","last_reported":1781517715,"current_range_meters":3200,"station_id":"ce4bh8p2rcd13ifvqeb0","pricing_plan_id":"cebpf4jnsgd1na2vs0mg"},{"bike_id":"d729573f-a86b-41d2-bc51-bd23c133868d","system_id":"levelo_inurba_marseille","lat":43.31499,"lon":5.38367,"is_reserved":false,"is_disabled":false,"rental_uris":{"android":"levelo://app?vid=d729573f-a86b-41d2-bc51-bd23c133868d","ios":"levelo://app?vid=d729573f-a86b-41d2-bc51-bd23c133868d"},"vehicle_type_id":"4","last_reported":1781517715,"current_range_meters":3200,"station_id":"","pricing_plan_id":"cebpf4jnsgd1na2vs0mg"},{"bike_id":"b15d8199-c3e8-454b-b79c-dceebaa5b442","system_id":"levelo_inurba_marseille","lat":43.25862,"lon":5.3986,"is_reserved":false,"is_disabled":false,"rental_uris":{"android":"levelo://app?vid=b15d8199-c3e8-454b-b79c-dceebaa5b442","ios":"levelo://app?vid=b15d8199-c3e8-454b-b79c-dceebaa5b442"},"vehicle_type_id":"4","last_reported":1781517715,"current_range_meters":3600,"station_id":"ce4bhl92rcd13ifvqghg","pricing_plan_id":"cebpf4jnsgd1na2vs0mg"},{"bike_id":"a4c67dde-0cda-4b45-a3f9-a96f3aebcdb2","system_id":"levelo_inurba_marseille","lat":43.24554,"lon":5.41158,"is_reserved":false,"is_disabled":true,"rental_uris":{"android":"levelo://app?vid=a4c67dde-0cda-4b45-a3f9-a96f3aebcdb2","ios":"levelo://app?vid=a4c67dde-0cda-4b45-a3f9-a96f3aebcdb2"},"vehicle_type_id":"4","last_reported":1781517715,"current_range_meters":3600,"station_id":"","pricing_plan_id":"cebpf4jnsgd1na2vs0mg"},{"bike_id":"8fea25ca-fb48-4384-9778-a8089f84f9ac","system_id":"levelo_inurba_marseille","lat":43.29711,"lon":5.38085,"is_reserved":false,"is_disabled":false,"rental_uris":{"android":"levelo://app?vid=8fea25ca-fb48-4384-9778-a8089f84f9ac","ios":"levelo://app?vid=8fea25ca-fb48-4384-9778-a8089f84f9ac"},"vehicle_type_id":"4","last_reported":1781517715,"current_range_meters":3600,"station_id":"","pricing_plan_id":"cebpf4jnsgd1na2vs0mg"},{"bike_id":"9d9b67ea-781c-4765-8554-3612cb11b306","system_id":"levelo_inurba_marseille","lat":43.32656,"lon":5.40985,"is_reserved":false,"is_disabled":false,"rental_uris":{"android":"levelo://app?vid=9d9b67ea-781c-4765-8554-3612cb11b306","ios":"levelo://app?vid=9d9b67ea-781c-4765-8554-3612cb11b306"},"vehicle_type_id":"4","last_reported":1781517715,"current_range_meters":3600,"station_id":"ce4bhpp2rcd13ifvqhgg","pricing_plan_id":"cebpf4jnsgd1na2vs0mg"},{"bike_id":"c800199a-5474-40e1-bb50-c25e031e8be6","system_id":"levelo_inurba_marseille","lat":43.27145,"lon":5.40865,"is_reserved":false,"is_disabled":false,"rental_uris":{"android":"levelo://app?vid=c800199a-5474-40e1-bb50-c25e031e8be6","ios":"levelo://app?vid=c800199a-5474-40e1-bb50-c25e031e8be6"},"vehicle_type_id":"4","last_reported":1781517715,"current_range_meters":3600,"station_id":"ce4bhl12rcd13ifvqgf0","pricing_plan_id":"cebpf4jnsgd1na2vs0mg"},{"bike_id":"f10274f0-d5a3-4847-854d-5e53c5520946","system_id":"levelo_inurba_marseille","lat":43.32349,"lon":5.36742,"is_reserved":false,"is_disabled":false,"rental_uris":{"android":"levelo://app?vid=f10274f0-d5a3-4847-854d-5e53c5520946","ios":"levelo://app?vid=f10274f0-d5a3-4847-854d-5e53c5520946"},"vehicle_type_id":"4","last_reported":1781517715,"current_range_meters":3600,"station_id":"ce4bhsh2rcd13ifvqi2g","pricing_plan_id":"cebpf4jnsgd1na2vs0mg"},{"bike_id":"64d1def8-2a5b-48eb-8ec4-f02e72a31395","system_id":"levelo_inurba_marseille","lat":43.287,"lon":5.4667,"is_reserved":false,"is_disabled":false,"rental_uris":{"android":"levelo://app?vid=64d1def8-2a5b-48eb-8ec4-f02e72a31395","ios":"levelo://app?vid=64d1def8-2a5b-48eb-8ec4-f02e72a31395"},"vehicle_type_id":"4","last_reported":1781517715,"current_range_meters":3600,"station_id":"st_d6tc3vkotcvc738tfjhg","pricing_plan_id":"cebpf4jnsgd1na2vs0mg"},{"bike_id":"31a5c23d-40d4-417f-98b3-4241d25cf95b","system_id":"levelo_inurba_marseille","lat":43.33372,"lon":5.39301,"is_reserved":false,"is_disabled":false,"rental_uris":{"android":"levelo://app?vid=31a5c23d-40d4-417f-98b3-4241d25cf95b","ios":"levelo://app?vid=31a5c23d-40d4-417f-98b3-4241d25cf95b"},"vehicle_type_id":"4","last_reported":1781517715,"current_range_meters":3600,"station_id":"","pricing_plan_id":"cebpf4jnsgd1na2vs0mg"},{"bike_id":"4eddbf76-b07f-46e8-b211-1d3338759cac","system_id":"levelo_inurba_marseille","lat":43.31009,"lon":5.37171,"is_reserved":false,"is_disabled":false,"rental_uris":{"android":"levelo://app?vid=4eddbf76-b07f-46e8-b211-1d3338759cac","ios":"levelo://app?vid=4eddbf76-b07f-46e8-b211-1d3338759cac"},"vehicle_type_id":"4","last_reported":1781517715,"current_range_meters":3600,"station_id":"st_d4kl2rp97mjs73e7tdfg","pricing_plan_id":"cebpf4jnsgd1na2vs0mg"},{"bike_id":"e6eda01b-4746-4a1b-b8bd-bc2e29bf1778","system_id":"levelo_inurba_marseille","lat":43.28477,"lon":5.484,"is_reserved":false,"is_disabled":false,"rental_uris":{"android":"levelo://app?vid=e6eda01b-4746-4a1b-b8bd-bc2e29bf1778","ios":"levelo://app?vid=e6eda01b-4746-4a1b-b8bd-bc2e29bf1778"},"vehicle_type_id":"4","last_reported":1781517715,"current_range_meters":3600,"station_id":"st_d3svhcjqgbts73a3dn0g","pricing_plan_id":"cebpf4jnsgd1na2vs0mg"},{"bike_id":"5319139f-9e11-4965-9497-12514ecf39aa","system_id":"levelo_inurba_marseille","lat":43.28417,"lon":5.34983,"is_reserved":false,"is_disabled":false,"rental_uris":{"android":"levelo://app?vid=5319139f-9e11-4965-9497-12514ecf39aa","ios":"levelo://app?vid=5319139f-9e11-4965-9497-12514ecf39aa"},"vehicle_type_id":"4","last_reported":1781517715,"current_range_meters":3600,"station_id":"ce4bhbh2rcd13ifvqepg","pricing_plan_id":"cebpf4jnsgd1na2vs0mg"},{"bike_id":"56b376d5-9b28-4e92-ac45-b76b482244af","system_id":"levelo_inurba_marseille","lat":43.31899,"lon":5.36813,"is_reserved":false,"is_disabled":false,"rental_uris":{"android":"levelo://app?vid=56b376d5-9b28-4e92-ac45-b76b482244af","ios":"levelo://app?vid=56b376d5-9b28-4e92-ac45-b76b482244af"},"vehicle_type_id":"4","last_reported":1781517715,"current_range_meters":3600,"station_id":"st_d6o2h0d0559c73evc1b0","pricing_plan_id":"cebpf4jnsgd1na2vs0mg"},{"bike_id":"eb0c1c7f-47b8-4a10-8001-0064309e6c74","system_id":"levelo_inurba_marseille","lat":43.22535,"lon":5.34828,"is_reserved":false,"is_disabled":false,"rental_uris":{"android":"levelo://app?vid=eb0c1c7f-47b8-4a10-8001-0064309e6c74","ios":"levelo://app?vid=eb0c1c7f-47b8-4a10-8001-0064309e6c74"},"vehicle_type_id":"4","last_reported":1781517715,"current_range_meters":3600,"station_id":"st_cvj5dfep6f1abm77gieg","pricing_plan_id":"cebpf4jnsgd1na2vs0mg"},{"bike_id":"c01f6dec-89dd-472c-9d53-44f20e2f469d","system_id":"levelo_inurba_marseille","lat":43.28052,"lon":5.34827,"is_reserved":false,"is_disabled":false,"rental_uris":{"android":"levelo://app?vid=c01f6dec-89dd-472c-9d53-44f20e2f469d","ios":"levelo://app?vid=c01f6dec-89dd-472c-9d53-44f20e2f469d"},"vehicle_type_id":"4","last_reported":1781517715,"current_range_meters":3600,"station_id":"","pricing_plan_id":"cebpf4jnsgd1na2vs0mg"},{"bike_id":"8716f0e5-dc5e-4773-b9fb-ff42d0a1e556","system_id":"levelo_inurba_marseille","lat":43.22559,"lon":5.41623,"is_reserved":false,"is_disabled":false,"rental_uris":{"android":"levelo://app?vid=8716f0e5-dc5e-4773-b9fb-ff42d0a1e556","ios":"levelo://app?vid=8716f0e5-dc5e-4773-b9fb-ff42d0a1e556"},"vehicle_type_id":"4","last_reported":1781517715,"current_range_meters":3600,"station_id":"st_d2o4gvlbi1j2169b742g","pricing_plan_id":"cebpf4jnsgd1na2vs0mg"},{"bike_id":"3218e180-a757-407d-8b1a-71cc1f6752de","system_id":"levelo_inurba_marseille","lat":43.29089,"lon":5.36564,"is_reserved":false,"is_disabled":false,"rental_uris":{"android":"levelo://app?vid=3218e180-a757-407d-8b1a-71cc1f6752de","ios":"levelo://app?vid=3218e180-a757-407d-8b1a-71cc1f6752de"},"vehicle_type_id":"4","last_reported":1781517715,"current_range_meters":4000,"station_id":"","pricing_plan_id":"cebpf4jnsgd1na2vs0mg"},{"bike_id":"a006ba18-ae27-43cc-9b76-a5b0e53bb334","system_id":"levelo_inurba_marseille","lat":43.26373,"lon":5.41073,"is_reserved":false,"is_disabled":false,"rental_uris":{"android":"levelo://app?vid=a006ba18-ae27-43cc-9b76-a5b0e53bb334","ios":"levelo://app?vid=a006ba18-ae27-43cc-9b76-a5b0e53bb334"},"vehicle_type_id":"4","last_reported":1781517715,"current_range_meters":4000,"station_id":"st_d4e5ca6na9uc73bfl5fg","pricing_plan_id":"cebpf4jnsgd1na2vs0mg"},{"bike_id":"ae6159e2-717b-4eec-809f-8a49dfecee5e","system_id":"levelo_inurba_marseille","lat":43.31225,"lon":5.36875,"is_reserved":false,"is_disabled":false,"rental_uris":{"android":"levelo://app?vid=ae6159e2-717b-4eec-809f-8a49dfecee5e","ios":"levelo://app?vid=ae6159e2-717b-4eec-809f-8a49dfecee5e"},"vehicle_type_id":"4","last_reported":1781517715,"current_range_meters":4000,"station_id":"ce4bgl92rcd13ifvqbq0","pricing_plan_id":"cebpf4jnsgd1na2vs0mg"},{"bike_id":"54410e0e-88fe-44cb-9cd3-c20ab067986a","system_id":"levelo_inurba_marseille","lat":43.28236,"lon":5.34844,"is_reserved":false,"is_disabled":false,"rental_uris":{"android":"levelo://app?vid=54410e0e-88fe-44cb-9cd3-c20ab067986a","ios":"levelo://app?vid=54410e0e-88fe-44cb-9cd3-c20ab067986a"},"vehicle_type_id":"4","last_reported":1781517715,"current_range_meters":4000,"station_id":"","pricing_plan_id":"cebpf4jnsgd1na2vs0mg"},{"bike_id":"bba25e8b-2650-459b-a33e-96fa21fa3520","system_id":"levelo_inurba_marseille","lat":43.28206,"lon":5.39036,"is_reserved":false,"is_disabled":false,"rental_uris":{"android":"levelo://app?vid=bba25e8b-2650-459b-a33e-96fa21fa3520","ios":"levelo://app?vid=bba25e8b-2650-459b-a33e-96fa21fa3520"},"vehicle_type_id":"4","last_reported":1781517715,"current_range_meters":4000,"station_id":"ce4bhn92rcd13ifvqgsg","pricing_plan_id":"cebpf4jnsgd1na2vs0mg"},{"bike_id":"5e28ac20-e09b-4d66-b728-523877a48875","system_id":"levelo_inurba_marseille","lat":43.25864,"lon":5.39906,"is_reserved":false,"is_disabled":true,"rental_uris":{"android":"levelo://app?vid=5e28ac20-e09b-4d66-b728-523877a48875","ios":"levelo://app?vid=5e28ac20-e09b-4d66-b728-523877a48875"},"vehicle_type_id":"4","last_reported":1781517715,"current_range_meters":4000,"station_id":"ce4bhl92rcd13ifvqghg","pricing_plan_id":"cebpf4jnsgd1na2vs0mg"},{"bike_id":"261f09ba-9b6a-4fea-8aef-dff94f408488","system_id":"levelo_inurba_marseille","lat":43.24723,"lon":5.39284,"is_reserved":false,"is_disabled":false,"rental_uris":{"android":"levelo://app?vid=261f09ba-9b6a-4fea-8aef-dff94f408488","ios":"levelo://app?vid=261f09ba-9b6a-4fea-8aef-dff94f408488"},"vehicle_type_id":"4","last_reported":1781517715,"current_range_meters":4000,"station_id":"","pricing_plan_id":"cebpf4jnsgd1na2vs0mg"},{"bike_id":"e8e38fb7-1e84-4c58-bdbd-136687d98263","system_id":"levelo_inurba_marseille","lat":43.28283,"lon":5.35083,"is_reserved":false,"is_disabled":false,"rental_uris":{"android":"levelo://app?vid=e8e38fb7-1e84-4c58-bdbd-136687d98263","ios":"levelo://app?vid=e8e38fb7-1e84-4c58-bdbd-136687d98263"},"vehicle_type_id":"4","last_reported":1781517715,"current_range_meters":4000,"station_id":"ce4bhbp2rcd13ifvqerg","pricing_plan_id":"cebpf4jnsgd1na2vs0mg"},{"bike_id":"91e461e4-eb15-4853-92af-4d17c4e311d9","system_id":"levelo_inurba_marseille","lat":43.31987,"lon":5.38148,"is_reserved":false,"is_disabled":false,"rental_uris":{"android":"levelo://app?vid=91e461e4-eb15-4853-92af-4d17c4e311d9","ios":"levelo://app?vid=91e461e4-eb15-4853-92af-4d17c4e311d9"},"vehicle_type_id":"4","last_reported":1781517715,"current_range_meters":4000,"station_id":"ce4bhr12rcd13ifvqhpg","pricing_plan_id":"cebpf4jnsgd1na2vs0mg"},{"bike_id":"8a01116d-ff03-4c95-9fb6-ae1544ed03d6","system_id":"levelo_inurba_marseille","lat":43.27484,"lon":5.43971,"is_reserved":false,"is_disabled":false,"rental_uris":{"android":"levelo://app?vid=8a01116d-ff03-4c95-9fb6-ae1544ed03d6","ios":"levelo://app?vid=8a01116d-ff03-4c95-9fb6-ae1544ed03d6"},"vehicle_type_id":"4","last_reported":1781517715,"current_range_meters":4000,"station_id":"","pricing_plan_id":"cebpf4jnsgd1na2vs0mg"},{"bike_id":"128fda94-2d77-4e51-bf8d-75cd0be4c377","system_id":"levelo_inurba_marseille","lat":43.29794,"lon":5.38099,"is_reserved":false,"is_disabled":false,"rental_uris":{"android":"levelo://app?vid=128fda94-2d77-4e51-bf8d-75cd0be4c377","ios":"levelo://app?vid=128fda94-2d77-4e51-bf8d-75cd0be4c377"},"vehicle_type_id":"4","last_reported":1781517715,"current_range_meters":4000,"station_id":"ce4bgip2rcd13ifvqbb0","pricing_plan_id":"cebpf4jnsgd1na2vs0mg"},{"bike_id":"4fa00d2c-58a1-4a5d-9f90-000207140b2e","system_id":"levelo_inurba_marseille","lat":43.2736,"lon":5.39022,"is_reserved":false,"is_disabled":false,"rental_uris":{"android":"levelo://app?vid=4fa00d2c-58a1-4a5d-9f90-000207140b2e","ios":"levelo://app?vid=4fa00d2c-58a1-4a5d-9f90-000207140b2e"},"vehicle_type_id":"4","last_reported":1781517715,"current_range_meters":4000,"station_id":"","pricing_plan_id":"cebpf4jnsgd1na2vs0mg"},{"bike_id":"4e6d713d-5d98-4f27-9e30-016f10070add","system_id":"levelo_inurba_marseille","lat":43.2447,"lon":5.42533,"is_reserved":false,"is_disabled":false,"rental_uris":{"android":"levelo://app?vid=4e6d713d-5d98-4f27-9e30-016f10070add","ios":"levelo://app?vid=4e6d713d-5d98-4f27-9e30-016f10070add"},"vehicle_type_id":"4","last_reported":1781517715,"current_range_meters":4000,"station_id":"st_d4a3vfp97mjs738cd8kg","pricing_plan_id":"cebpf4jnsgd1na2vs0mg"},{"bike_id":"a0967682-704e-4097-9142-482a1f2d36c9","system_id":"levelo_inurba_marseille","lat":43.27177,"lon":5.40987,"is_reserved":false,"is_disabled":true,"rental_uris":{"android":"levelo://app?vid=a0967682-704e-4097-9142-482a1f2d36c9","ios":"levelo://app?vid=a0967682-704e-4097-9142-482a1f2d36c9"},"vehicle_type_id":"4","last_reported":1781517715,"current_range_meters":4000,"station_id":"ce4bhl12rcd13ifvqgf0","pricing_plan_id":"cebpf4jnsgd1na2vs0mg"},{"bike_id":"79784559-9f7b-422b-bd1a-784e46b44f54","system_id":"levelo_inurba_marseille","lat":43.26226,"lon":5.38998,"is_reserved":false,"is_disabled":false,"rental_uris":{"android":"levelo://app?vid=79784559-9f7b-422b-bd1a-784e46b44f54","ios":"levelo://app?vid=79784559-9f7b-422b-bd1a-784e46b44f54"},"vehicle_type_id":"4","last_reported":1781517715,"current_range_meters":4400,"station_id":"","pricing_plan_id":"cebpf4jnsgd1na2vs0mg"},{"bike_id":"3a178be9-377a-4a25-b16e-746e76e3b7b2","system_id":"levelo_inurba_marseille","lat":43.2622,"lon":5.38839,"is_reserved":false,"is_disabled":false,"rental_uris":{"android":"levelo://app?vid=3a178be9-377a-4a25-b16e-746e76e3b7b2","ios":"levelo://app?vid=3a178be9-377a-4a25-b16e-746e76e3b7b2"},"vehicle_type_id":"4","last_reported":1781517715,"current_range_meters":4400,"station_id":"","pricing_plan_id":"cebpf4jnsgd1na2vs0mg"},{"bike_id":"e2631be6-4151-4a05-9783-2a11f2b5cffc","system_id":"levelo_inurba_marseille","lat":43.30178,"lon":5.36618,"is_reserved":false,"is_disabled":false,"rental_uris":{"android":"levelo://app?vid=e2631be6-4151-4a05-9783-2a11f2b5cffc","ios":"levelo://app?vid=e2631be6-4151-4a05-9783-2a11f2b5cffc"},"vehicle_type_id":"4","last_reported":1781517715,"current_range_meters":4400,"station_id":"ce4bgrh2rcd13ifvqc8g","pricing_plan_id":"cebpf4jnsgd1na2vs0mg"},{"bike_id":"7142d5c8-5d9a-4262-9275-62a797fe665f","system_id":"levelo_inurba_marseille","lat":43.26983,"lon":5.39281,"is_reserved":false,"is_disabled":false,"rental_uris":{"android":"levelo://app?vid=7142d5c8-5d9a-4262-9275-62a797fe665f","ios":"levelo://app?vid=7142d5c8-5d9a-4262-9275-62a797fe665f"},"vehicle_type_id":"4","last_reported":1781517715,"current_range_meters":4400,"station_id":"","pricing_plan_id":"cebpf4jnsgd1na2vs0mg"},{"bike_id":"fa94a5f7-dfea-489a-8ae1-774ccc2fcc0e","system_id":"levelo_inurba_marseille","lat":43.25095,"lon":5.39531,"is_reserved":false,"is_disabled":true,"rental_uris":{"android":"levelo://app?vid=fa94a5f7-dfea-489a-8ae1-774ccc2fcc0e","ios":"levelo://app?vid=fa94a5f7-dfea-489a-8ae1-774ccc2fcc0e"},"vehicle_type_id":"4","last_reported":1781517715,"current_range_meters":4400,"station_id":"ce4bhm12rcd13ifvqgkg","pricing_plan_id":"cebpf4jnsgd1na2vs0mg"},{"bike_id":"65d9dd6a-f996-46b8-ace0-77611327209b","system_id":"levelo_inurba_marseille","lat":43.22543,"lon":5.34825,"is_reserved":false,"is_disabled":false,"rental_uris":{"android":"levelo://app?vid=65d9dd6a-f996-46b8-ace0-77611327209b","ios":"levelo://app?vid=65d9dd6a-f996-46b8-ace0-77611327209b"},"vehicle_type_id":"4","last_reported":1781517715,"current_range_meters":4400,"station_id":"st_cvj5dfep6f1abm77gieg","pricing_plan_id":"cebpf4jnsgd1na2vs0mg"},{"bike_id":"29d24c14-4210-41d6-8f11-e1e7bb655652","system_id":"levelo_inurba_marseille","lat":43.26685,"lon":5.3827,"is_reserved":false,"is_disabled":true,"rental_uris":{"android":"levelo://app?vid=29d24c14-4210-41d6-8f11-e1e7bb655652","ios":"levelo://app?vid=29d24c14-4210-41d6-8f11-e1e7bb655652"},"vehicle_type_id":"4","last_reported":1781517715,"current_range_meters":4400,"station_id":"ce4bhg92rcd13ifvqf90","pricing_plan_id":"cebpf4jnsgd1na2vs0mg"},{"bike_id":"a4b21364-68ea-4d98-b970-8d5fa6003cd4","system_id":"levelo_inurba_marseille","lat":43.2927,"lon":5.37622,"is_reserved":false,"is_disabled":false,"rental_uris":{"android":"levelo://app?vid=a4b21364-68ea-4d98-b970-8d5fa6003cd4","ios":"levelo://app?vid=a4b21364-68ea-4d98-b970-8d5fa6003cd4"},"vehicle_type_id":"4","last_reported":1781517715,"current_range_meters":4400,"station_id":"ce4bgi12rcd13ifvqb80","pricing_plan_id":"cebpf4jnsgd1na2vs0mg"},{"bike_id":"bc9bb278-9a3f-444c-9ee4-086e46a06286","system_id":"levelo_inurba_marseille","lat":43.22273,"lon":5.4049,"is_reserved":false,"is_disabled":false,"rental_uris":{"android":"levelo://app?vid=bc9bb278-9a3f-444c-9ee4-086e46a06286","ios":"levelo://app?vid=bc9bb278-9a3f-444c-9ee4-086e46a06286"},"vehicle_type_id":"4","last_reported":1781517715,"current_range_meters":4400,"station_id":"","pricing_plan_id":"cebpf4jnsgd1na2vs0mg"},{"bike_id":"d47c4971-b020-492d-aea5-7b9ba8ac777a","system_id":"levelo_inurba_marseille","lat":43.319125,"lon":5.368236,"is_reserved":false,"is_disabled":false,"rental_uris":{"android":"levelo://app?vid=d47c4971-b020-492d-aea5-7b9ba8ac777a","ios":"levelo://app?vid=d47c4971-b020-492d-aea5-7b9ba8ac777a"},"vehicle_type_id":"4","last_reported":1781517715,"current_range_meters":4400,"station_id":"st_d6o2h0d0559c73evc1b0","pricing_plan_id":"cebpf4jnsgd1na2vs0mg"},{"bike_id":"e73d602a-663a-4e79-bb4f-072bfe50035e","system_id":"levelo_inurba_marseille","lat":43.31894,"lon":5.36802,"is_reserved":false,"is_disabled":false,"rental_uris":{"android":"levelo://app?vid=e73d602a-663a-4e79-bb4f-072bfe50035e","ios":"levelo://app?vid=e73d602a-663a-4e79-bb4f-072bfe50035e"},"vehicle_type_id":"4","last_reported":1781517715,"current_range_meters":4400,"station_id":"st_d6o2h0d0559c73evc1b0","pricing_plan_id":"cebpf4jnsgd1na2vs0mg"},{"bike_id":"a88b29eb-306e-48f7-9eec-a3658ccccaf8","system_id":"levelo_inurba_marseille","lat":43.32143,"lon":5.3677,"is_reserved":false,"is_disabled":false,"rental_uris":{"android":"levelo://app?vid=a88b29eb-306e-48f7-9eec-a3658ccccaf8","ios":"levelo://app?vid=a88b29eb-306e-48f7-9eec-a3658ccccaf8"},"vehicle_type_id":"4","last_reported":1781517715,"current_range_meters":4400,"station_id":"","pricing_plan_id":"cebpf4jnsgd1na2vs0mg"},{"bike_id":"33025414-c4ab-47a9-8aa5-6f842cf88a8c","system_id":"levelo_inurba_marseille","lat":43.23171,"lon":5.40478,"is_reserved":false,"is_disabled":false,"rental_uris":{"android":"levelo://app?vid=33025414-c4ab-47a9-8aa5-6f842cf88a8c","ios":"levelo://app?vid=33025414-c4ab-47a9-8aa5-6f842cf88a8c"},"vehicle_type_id":"4","last_reported":1781517715,"current_range_meters":4400,"station_id":"","pricing_plan_id":"cebpf4jnsgd1na2vs0mg"},{"bike_id":"774f50b0-57e3-4044-a1da-b9e5634b0b79","system_id":"levelo_inurba_marseille","lat":43.28497,"lon":5.38574,"is_reserved":false,"is_disabled":false,"rental_uris":{"android":"levelo://app?vid=774f50b0-57e3-4044-a1da-b9e5634b0b79","ios":"levelo://app?vid=774f50b0-57e3-4044-a1da-b9e5634b0b79"},"vehicle_type_id":"4","last_reported":1781517715,"current_range_meters":4400,"station_id":"ce4bh8p2rcd13ifvqeb0","pricing_plan_id":"cebpf4jnsgd1na2vs0mg"},{"bike_id":"fcf4d312-9968-4443-82f2-b045268fd358","system_id":"levelo_inurba_marseille","lat":43.29918,"lon":5.41044,"is_reserved":false,"is_disabled":false,"rental_uris":{"android":"levelo://app?vid=fcf4d312-9968-4443-82f2-b045268fd358","ios":"levelo://app?vid=fcf4d312-9968-4443-82f2-b045268fd358"},"vehicle_type_id":"4","last_reported":1781517715,"current_range_meters":4400,"station_id":"","pricing_plan_id":"cebpf4jnsgd1na2vs0mg"},{"bike_id":"78aee41d-6082-4b0e-a2ff-6ebd9b384d58","system_id":"levelo_inurba_marseille","lat":43.23182,"lon":5.39984,"is_reserved":false,"is_disabled":false,"rental_uris":{"android":"levelo://app?vid=78aee41d-6082-4b0e-a2ff-6ebd9b384d58","ios":"levelo://app?vid=78aee41d-6082-4b0e-a2ff-6ebd9b384d58"},"vehicle_type_id":"4","last_reported":1781517715,"current_range_meters":4400,"station_id":"ce4bhn12rcd13ifvqgqg","pricing_plan_id":"cebpf4jnsgd1na2vs0mg"},{"bike_id":"beb16f86-a91e-49fd-b131-2bcbc7a76bdd","system_id":"levelo_inurba_marseille","lat":43.28484,"lon":5.38533,"is_reserved":false,"is_disabled":false,"rental_uris":{"android":"levelo://app?vid=beb16f86-a91e-49fd-b131-2bcbc7a76bdd","ios":"levelo://app?vid=beb16f86-a91e-49fd-b131-2bcbc7a76bdd"},"vehicle_type_id":"4","last_reported":1781517715,"current_range_meters":4800,"station_id":"ce4bh8p2rcd13ifvqeb0","pricing_plan_id":"cebpf4jnsgd1na2vs0mg"},{"bike_id":"78f0ab8e-e903-4a47-90fa-31dcb6593978","system_id":"levelo_inurba_marseille","lat":43.3056,"lon":5.36549,"is_reserved":false,"is_disabled":false,"rental_uris":{"android":"levelo://app?vid=78f0ab8e-e903-4a47-90fa-31dcb6593978","ios":"levelo://app?vid=78f0ab8e-e903-4a47-90fa-31dcb6593978"},"vehicle_type_id":"4","last_reported":1781517715,"current_range_meters":4800,"station_id":"ce4bgs12rcd13ifvqcag","pricing_plan_id":"cebpf4jnsgd1na2vs0mg"},{"bike_id":"7eeaf6d7-2f5a-4a87-9b67-3e6261d765cb","system_id":"levelo_inurba_marseille","lat":43.29021,"lon":5.38146,"is_reserved":false,"is_disabled":false,"rental_uris":{"android":"levelo://app?vid=7eeaf6d7-2f5a-4a87-9b67-3e6261d765cb","ios":"levelo://app?vid=7eeaf6d7-2f5a-4a87-9b67-3e6261d765cb"},"vehicle_type_id":"4","last_reported":1781517715,"current_range_meters":4800,"station_id":"ce4bh4p2rcd13ifvqe1g","pricing_plan_id":"cebpf4jnsgd1na2vs0mg"},{"bike_id":"6e787f44-0de2-444e-bedf-60804042a8f4","system_id":"levelo_inurba_marseille","lat":43.31245,"lon":5.3688,"is_reserved":false,"is_disabled":true,"rental_uris":{"android":"levelo://app?vid=6e787f44-0de2-444e-bedf-60804042a8f4","ios":"levelo://app?vid=6e787f44-0de2-444e-bedf-60804042a8f4"},"vehicle_type_id":"4","last_reported":1781517715,"current_range_meters":4800,"station_id":"ce4bgl92rcd13ifvqbq0","pricing_plan_id":"cebpf4jnsgd1na2vs0mg"},{"bike_id":"5e8e5076-7f7b-43c9-bc7a-b329ceb4cbae","system_id":"levelo_inurba_marseille","lat":43.28932,"lon":5.39636,"is_reserved":false,"is_disabled":false,"rental_uris":{"android":"levelo://app?vid=5e8e5076-7f7b-43c9-bc7a-b329ceb4cbae","ios":"levelo://app?vid=5e8e5076-7f7b-43c9-bc7a-b329ceb4cbae"},"vehicle_type_id":"4","last_reported":1781517715,"current_range_meters":4800,"station_id":"ce4bh3h2rcd13ifvqdn0","pricing_plan_id":"cebpf4jnsgd1na2vs0mg"},{"bike_id":"520e7007-685d-436d-8d38-db025ae27a9c","system_id":"levelo_inurba_marseille","lat":43.33733,"lon":5.39188,"is_reserved":false,"is_disabled":false,"rental_uris":{"android":"levelo://app?vid=520e7007-685d-436d-8d38-db025ae27a9c","ios":"levelo://app?vid=520e7007-685d-436d-8d38-db025ae27a9c"},"vehicle_type_id":"4","last_reported":1781517715,"current_range_meters":4800,"station_id":"ce4bhr92rcd13ifvqhsg","pricing_plan_id":"cebpf4jnsgd1na2vs0mg"},{"bike_id":"f29500c8-52f1-4bf5-8b15-0e0b0ef877d3","system_id":"levelo_inurba_marseille","lat":43.29172,"lon":5.37151,"is_reserved":false,"is_disabled":false,"rental_uris":{"android":"levelo://app?vid=f29500c8-52f1-4bf5-8b15-0e0b0ef877d3","ios":"levelo://app?vid=f29500c8-52f1-4bf5-8b15-0e0b0ef877d3"},"vehicle_type_id":"4","last_reported":1781517715,"current_range_meters":4800,"station_id":"ce4bha92rcd13ifvqeh0","pricing_plan_id":"cebpf4jnsgd1na2vs0mg"},{"bike_id":"9292243b-0e6e-43af-a00f-e2b3cb8862f5","system_id":"levelo_inurba_marseille","lat":43.32361,"lon":5.36723,"is_reserved":false,"is_disabled":false,"rental_uris":{"android":"levelo://app?vid=9292243b-0e6e-43af-a00f-e2b3cb8862f5","ios":"levelo://app?vid=9292243b-0e6e-43af-a00f-e2b3cb8862f5"},"vehicle_type_id":"4","last_reported":1781517715,"current_range_meters":4800,"station_id":"ce4bhsh2rcd13ifvqi2g","pricing_plan_id":"cebpf4jnsgd1na2vs0mg"},{"bike_id":"8b3ccc27-371e-4897-b5d7-7688acb22644","system_id":"levelo_inurba_marseille","lat":43.25343,"lon":5.4216,"is_reserved":false,"is_disabled":false,"rental_uris":{"android":"levelo://app?vid=8b3ccc27-371e-4897-b5d7-7688acb22644","ios":"levelo://app?vid=8b3ccc27-371e-4897-b5d7-7688acb22644"},"vehicle_type_id":"4","last_reported":1781517715,"current_range_meters":4800,"station_id":"st_d2m65c5bi1j21697t3ng","pricing_plan_id":"cebpf4jnsgd1na2vs0mg"},{"bike_id":"6252fef1-2058-4866-b22c-302bde690392","system_id":"levelo_inurba_marseille","lat":43.28624,"lon":5.35102,"is_reserved":false,"is_disabled":false,"rental_uris":{"android":"levelo://app?vid=6252fef1-2058-4866-b22c-302bde690392","ios":"levelo://app?vid=6252fef1-2058-4866-b22c-302bde690392"},"vehicle_type_id":"4","last_reported":1781517715,"current_range_meters":4800,"station_id":"ce4bhch2rcd13ifvqeug","pricing_plan_id":"cebpf4jnsgd1na2vs0mg"},{"bike_id":"6114ec06-c14c-41e3-baea-5392a14037a4","system_id":"levelo_inurba_marseille","lat":43.29039,"lon":5.3753,"is_reserved":false,"is_disabled":false,"rental_uris":{"android":"levelo://app?vid=6114ec06-c14c-41e3-baea-5392a14037a4","ios":"levelo://app?vid=6114ec06-c14c-41e3-baea-5392a14037a4"},"vehicle_type_id":"4","last_reported":1781517715,"current_range_meters":4800,"station_id":"ce4bh692rcd13ifvqe90","pricing_plan_id":"cebpf4jnsgd1na2vs0mg"},{"bike_id":"60c3fcb0-f0ca-4407-9932-95dce0c88bf7","system_id":"levelo_inurba_marseille","lat":43.28576,"lon":5.39498,"is_reserved":false,"is_disabled":false,"rental_uris":{"android":"levelo://app?vid=60c3fcb0-f0ca-4407-9932-95dce0c88bf7","ios":"levelo://app?vid=60c3fcb0-f0ca-4407-9932-95dce0c88bf7"},"vehicle_type_id":"4","last_reported":1781517715,"current_range_meters":4800,"station_id":"ce4bh292rcd13ifvqdg0","pricing_plan_id":"cebpf4jnsgd1na2vs0mg"},{"bike_id":"9200b1b3-6186-40be-913c-29907c5c6e5c","system_id":"levelo_inurba_marseille","lat":43.25117,"lon":5.40324,"is_reserved":false,"is_disabled":false,"rental_uris":{"android":"levelo://app?vid=9200b1b3-6186-40be-913c-29907c5c6e5c","ios":"levelo://app?vid=9200b1b3-6186-40be-913c-29907c5c6e5c"},"vehicle_type_id":"4","last_reported":1781517715,"current_range_meters":5600,"station_id":"ce4bhlh2rcd13ifvqgig","pricing_plan_id":"cebpf4jnsgd1na2vs0mg"},{"bike_id":"bb2b8605-01de-4068-976a-c32a5cbafae1","system_id":"levelo_inurba_marseille","lat":43.28483,"lon":5.48388,"is_reserved":false,"is_disabled":false,"rental_uris":{"android":"levelo://app?vid=bb2b8605-01de-4068-976a-c32a5cbafae1","ios":"levelo://app?vid=bb2b8605-01de-4068-976a-c32a5cbafae1"},"vehicle_type_id":"4","last_reported":1781517715,"current_range_meters":5600,"station_id":"st_d3svhcjqgbts73a3dn0g","pricing_plan_id":"cebpf4jnsgd1na2vs0mg"},{"bike_id":"f6c72108-4979-470a-a2ce-4239a7b0b041","system_id":"levelo_inurba_marseille","lat":43.31228,"lon":5.36853,"is_reserved":false,"is_disabled":false,"rental_uris":{"android":"levelo://app?vid=f6c72108-4979-470a-a2ce-4239a7b0b041","ios":"levelo://app?vid=f6c72108-4979-470a-a2ce-4239a7b0b041"},"vehicle_type_id":"4","last_reported":1781517715,"current_range_meters":5600,"station_id":"ce4bgl92rcd13ifvqbq0","pricing_plan_id":"cebpf4jnsgd1na2vs0mg"},{"bike_id":"83da615f-1562-4a35-a0af-fd9fc9c800b5","system_id":"levelo_inurba_marseille","lat":43.29985,"lon":5.37569,"is_reserved":false,"is_disabled":false,"rental_uris":{"android":"levelo://app?vid=83da615f-1562-4a35-a0af-fd9fc9c800b5","ios":"levelo://app?vid=83da615f-1562-4a35-a0af-fd9fc9c800b5"},"vehicle_type_id":"4","last_reported":1781517715,"current_range_meters":5600,"station_id":"","pricing_plan_id":"cebpf4jnsgd1na2vs0mg"},{"bike_id":"3f79f6bd-6890-498c-9016-7fee5e242811","system_id":"levelo_inurba_marseille","lat":43.232,"lon":5.35545,"is_reserved":false,"is_disabled":false,"rental_uris":{"android":"levelo://app?vid=3f79f6bd-6890-498c-9016-7fee5e242811","ios":"levelo://app?vid=3f79f6bd-6890-498c-9016-7fee5e242811"},"vehicle_type_id":"4","last_reported":1781517715,"current_range_meters":5600,"station_id":"ce4bhu92rcd13ifvqi70","pricing_plan_id":"cebpf4jnsgd1na2vs0mg"},{"bike_id":"21adc2d5-b0f2-4a40-bb03-cf3eb484e314","system_id":"levelo_inurba_marseille","lat":43.32457,"lon":5.36541,"is_reserved":false,"is_disabled":false,"rental_uris":{"android":"levelo://app?vid=21adc2d5-b0f2-4a40-bb03-cf3eb484e314","ios":"levelo://app?vid=21adc2d5-b0f2-4a40-bb03-cf3eb484e314"},"vehicle_type_id":"4","last_reported":1781517715,"current_range_meters":5600,"station_id":"ce4bhs12rcd13ifvqhvg","pricing_plan_id":"cebpf4jnsgd1na2vs0mg"},{"bike_id":"a4b18ceb-81ee-4b7e-b354-f53e0ef00b9f","system_id":"levelo_inurba_marseille","lat":43.27417,"lon":5.38709,"is_reserved":false,"is_disabled":false,"rental_uris":{"android":"levelo://app?vid=a4b18ceb-81ee-4b7e-b354-f53e0ef00b9f","ios":"levelo://app?vid=a4b18ceb-81ee-4b7e-b354-f53e0ef00b9f"},"vehicle_type_id":"4","last_reported":1781517715,"current_range_meters":5600,"station_id":"","pricing_plan_id":"cebpf4jnsgd1na2vs0mg"},{"bike_id":"a04fcf34-c29d-4e73-8f0f-34af65586646","system_id":"levelo_inurba_marseille","lat":43.29903,"lon":5.38216,"is_reserved":false,"is_disabled":false,"rental_uris":{"android":"levelo://app?vid=a04fcf34-c29d-4e73-8f0f-34af65586646","ios":"levelo://app?vid=a04fcf34-c29d-4e73-8f0f-34af65586646"},"vehicle_type_id":"4","last_reported":1781517715,"current_range_meters":5600,"station_id":"","pricing_plan_id":"cebpf4jnsgd1na2vs0mg"},{"bike_id":"617b4109-ac17-4aab-aa21-1961a3d15ef8","system_id":"levelo_inurba_marseille","lat":43.29713,"lon":5.36611,"is_reserved":false,"is_disabled":true,"rental_uris":{"android":"levelo://app?vid=617b4109-ac17-4aab-aa21-1961a3d15ef8","ios":"levelo://app?vid=617b4109-ac17-4aab-aa21-1961a3d15ef8"},"vehicle_type_id":"4","last_reported":1781517715,"current_range_meters":5600,"station_id":"ce4bgn12rcd13ifvqbt0","pricing_plan_id":"cebpf4jnsgd1na2vs0mg"},{"bike_id":"df1a7ed8-f748-4952-9b56-bbb409d5a1a2","system_id":"levelo_inurba_marseille","lat":43.29034,"lon":5.38638,"is_reserved":false,"is_disabled":false,"rental_uris":{"android":"levelo://app?vid=df1a7ed8-f748-4952-9b56-bbb409d5a1a2","ios":"levelo://app?vid=df1a7ed8-f748-4952-9b56-bbb409d5a1a2"},"vehicle_type_id":"4","last_reported":1781517715,"current_range_meters":5600,"station_id":"ce4bh4p2rcd13ifvqe0g","pricing_plan_id":"cebpf4jnsgd1na2vs0mg"},{"bike_id":"423f6182-a443-4c34-a818-81a8277ac3c4","system_id":"levelo_inurba_marseille","lat":43.2253,"lon":5.34838,"is_reserved":false,"is_disabled":false,"rental_uris":{"android":"levelo://app?vid=423f6182-a443-4c34-a818-81a8277ac3c4","ios":"levelo://app?vid=423f6182-a443-4c34-a818-81a8277ac3c4"},"vehicle_type_id":"4","last_reported":1781517715,"current_range_meters":5600,"station_id":"st_cvj5dfep6f1abm77gieg","pricing_plan_id":"cebpf4jnsgd1na2vs0mg"},{"bike_id":"40f9fd1b-628e-484e-8a21-e0687f6fd82d","system_id":"levelo_inurba_marseille","lat":43.25187,"lon":5.37436,"is_reserved":false,"is_disabled":false,"rental_uris":{"android":"levelo://app?vid=40f9fd1b-628e-484e-8a21-e0687f6fd82d","ios":"levelo://app?vid=40f9fd1b-628e-484e-8a21-e0687f6fd82d"},"vehicle_type_id":"4","last_reported":1781517715,"current_range_meters":5600,"station_id":"","pricing_plan_id":"cebpf4jnsgd1na2vs0mg"},{"bike_id":"b9c9efd6-0149-44c4-873d-4706c46b1e48","system_id":"levelo_inurba_marseille","lat":43.26567,"lon":5.40322,"is_reserved":false,"is_disabled":false,"rental_uris":{"android":"levelo://app?vid=b9c9efd6-0149-44c4-873d-4706c46b1e48","ios":"levelo://app?vid=b9c9efd6-0149-44c4-873d-4706c46b1e48"},"vehicle_type_id":"4","last_reported":1781517715,"current_range_meters":5600,"station_id":"ce4bhmp2rcd13ifvqgng","pricing_plan_id":"cebpf4jnsgd1na2vs0mg"},{"bike_id":"106f0fdb-a564-4efc-ac17-872f8836227c","system_id":"levelo_inurba_marseille","lat":43.26059,"lon":5.39383,"is_reserved":false,"is_disabled":true,"rental_uris":{"android":"levelo://app?vid=106f0fdb-a564-4efc-ac17-872f8836227c","ios":"levelo://app?vid=106f0fdb-a564-4efc-ac17-872f8836227c"},"vehicle_type_id":"4","last_reported":1781517715,"current_range_meters":6000,"station_id":"ce4bhh92rcd13ifvqfj0","pricing_plan_id":"cebpf4jnsgd1na2vs0mg"},{"bike_id":"136e1bc7-203c-4dc9-a9d1-84b538e9c802","system_id":"levelo_inurba_marseille","lat":43.28265,"lon":5.35077,"is_reserved":false,"is_disabled":false,"rental_uris":{"android":"levelo://app?vid=136e1bc7-203c-4dc9-a9d1-84b538e9c802","ios":"levelo://app?vid=136e1bc7-203c-4dc9-a9d1-84b538e9c802"},"vehicle_type_id":"4","last_reported":1781517715,"current_range_meters":6000,"station_id":"ce4bhbp2rcd13ifvqerg","pricing_plan_id":"cebpf4jnsgd1na2vs0mg"},{"bike_id":"5fa92038-4875-46b1-89b5-495b105985a6","system_id":"levelo_inurba_marseille","lat":43.30954,"lon":5.39033,"is_reserved":false,"is_disabled":false,"rental_uris":{"android":"levelo://app?vid=5fa92038-4875-46b1-89b5-495b105985a6","ios":"levelo://app?vid=5fa92038-4875-46b1-89b5-495b105985a6"},"vehicle_type_id":"4","last_reported":1781517715,"current_range_meters":6000,"station_id":"","pricing_plan_id":"cebpf4jnsgd1na2vs0mg"},{"bike_id":"d02e5f84-94fe-4c7a-901b-47c3f5f28fe9","system_id":"levelo_inurba_marseille","lat":43.3191,"lon":5.36806,"is_reserved":false,"is_disabled":false,"rental_uris":{"android":"levelo://app?vid=d02e5f84-94fe-4c7a-901b-47c3f5f28fe9","ios":"levelo://app?vid=d02e5f84-94fe-4c7a-901b-47c3f5f28fe9"},"vehicle_type_id":"4","last_reported":1781517715,"current_range_meters":6000,"station_id":"st_d6o2h0d0559c73evc1b0","pricing_plan_id":"cebpf4jnsgd1na2vs0mg"},{"bike_id":"c1b158b5-fdc9-4eb0-8418-c97cbe8616d7","system_id":"levelo_inurba_marseille","lat":43.3144,"lon":5.3739,"is_reserved":false,"is_disabled":false,"rental_uris":{"android":"levelo://app?vid=c1b158b5-fdc9-4eb0-8418-c97cbe8616d7","ios":"levelo://app?vid=c1b158b5-fdc9-4eb0-8418-c97cbe8616d7"},"vehicle_type_id":"4","last_reported":1781517715,"current_range_meters":6000,"station_id":"","pricing_plan_id":"cebpf4jnsgd1na2vs0mg"},{"bike_id":"b20e0fec-3dc7-44a5-ac78-81163034ab50","system_id":"levelo_inurba_marseille","lat":43.2693,"lon":5.38914,"is_reserved":false,"is_disabled":false,"rental_uris":{"android":"levelo://app?vid=b20e0fec-3dc7-44a5-ac78-81163034ab50","ios":"levelo://app?vid=b20e0fec-3dc7-44a5-ac78-81163034ab50"},"vehicle_type_id":"4","last_reported":1781517715,"current_range_meters":6000,"station_id":"ce4bhhh2rcd13ifvqfl0","pricing_plan_id":"cebpf4jnsgd1na2vs0mg"},{"bike_id":"4b8e5a0e-b1b2-4739-9822-3d8b456d36eb","system_id":"levelo_inurba_marseille","lat":43.3135,"lon":5.36716,"is_reserved":false,"is_disabled":false,"rental_uris":{"android":"levelo://app?vid=4b8e5a0e-b1b2-4739-9822-3d8b456d36eb","ios":"levelo://app?vid=4b8e5a0e-b1b2-4739-9822-3d8b456d36eb"},"vehicle_type_id":"4","last_reported":1781517715,"current_range_meters":6000,"station_id":"ce4bgr92rcd13ifvqc6g","pricing_plan_id":"cebpf4jnsgd1na2vs0mg"},{"bike_id":"b9a631f6-31d5-4d27-bafd-e878670d1674","system_id":"levelo_inurba_marseille","lat":43.24173,"lon":5.36398,"is_reserved":false,"is_disabled":false,"rental_uris":{"android":"levelo://app?vid=b9a631f6-31d5-4d27-bafd-e878670d1674","ios":"levelo://app?vid=b9a631f6-31d5-4d27-bafd-e878670d1674"},"vehicle_type_id":"4","last_reported":1781517715,"current_range_meters":6000,"station_id":"cpo36qri1sfpv3e86is0","pricing_plan_id":"cebpf4jnsgd1na2vs0mg"},{"bike_id":"66452ead-17a9-482a-a714-8ecc7c10256a","system_id":"levelo_inurba_marseille","lat":43.31764,"lon":5.39031,"is_reserved":false,"is_disabled":false,"rental_uris":{"android":"levelo://app?vid=66452ead-17a9-482a-a714-8ecc7c10256a","ios":"levelo://app?vid=66452ead-17a9-482a-a714-8ecc7c10256a"},"vehicle_type_id":"4","last_reported":1781517715,"current_range_meters":6000,"station_id":"ce4bhqp2rcd13ifvqhng","pricing_plan_id":"cebpf4jnsgd1na2vs0mg"},{"bike_id":"a3d18a89-e830-406c-9dc5-a06f71a6c569","system_id":"levelo_inurba_marseille","lat":43.26587,"lon":5.38976,"is_reserved":false,"is_disabled":false,"rental_uris":{"android":"levelo://app?vid=a3d18a89-e830-406c-9dc5-a06f71a6c569","ios":"levelo://app?vid=a3d18a89-e830-406c-9dc5-a06f71a6c569"},"vehicle_type_id":"4","last_reported":1781517715,"current_range_meters":6000,"station_id":"ce4bhe12rcd13ifvqf30","pricing_plan_id":"cebpf4jnsgd1na2vs0mg"},{"bike_id":"9dd4f3a8-39d5-43f7-9f51-1797629b3584","system_id":"levelo_inurba_marseille","lat":43.22536,"lon":5.34833,"is_reserved":false,"is_disabled":false,"rental_uris":{"android":"levelo://app?vid=9dd4f3a8-39d5-43f7-9f51-1797629b3584","ios":"levelo://app?vid=9dd4f3a8-39d5-43f7-9f51-1797629b3584"},"vehicle_type_id":"4","last_reported":1781517715,"current_range_meters":6000,"station_id":"st_cvj5dfep6f1abm77gieg","pricing_plan_id":"cebpf4jnsgd1na2vs0mg"},{"bike_id":"25692fdd-8735-4ac1-befa-97e9aba2ff71","system_id":"levelo_inurba_marseille","lat":43.22536,"lon":5.3482,"is_reserved":false,"is_disabled":false,"rental_uris":{"android":"levelo://app?vid=25692fdd-8735-4ac1-befa-97e9aba2ff71","ios":"levelo://app?vid=25692fdd-8735-4ac1-befa-97e9aba2ff71"},"vehicle_type_id":"4","last_reported":1781517715,"current_range_meters":6000,"station_id":"st_cvj5dfep6f1abm77gieg","pricing_plan_id":"cebpf4jnsgd1na2vs0mg"},{"bike_id":"3aaf6031-2f7f-4653-9253-19b9bb834948","system_id":"levelo_inurba_marseille","lat":43.28985,"lon":5.35582,"is_reserved":false,"is_disabled":false,"rental_uris":{"android":"levelo://app?vid=3aaf6031-2f7f-4653-9253-19b9bb834948","ios":"levelo://app?vid=3aaf6031-2f7f-4653-9253-19b9bb834948"},"vehicle_type_id":"4","last_reported":1781517715,"current_range_meters":6000,"station_id":"ce4bhb92rcd13ifvqen0","pricing_plan_id":"cebpf4jnsgd1na2vs0mg"},{"bike_id":"182d1bf5-086e-469e-a37a-df64c4d0603f","system_id":"levelo_inurba_marseille","lat":43.31446,"lon":5.38598,"is_reserved":false,"is_disabled":false,"rental_uris":{"android":"levelo://app?vid=182d1bf5-086e-469e-a37a-df64c4d0603f","ios":"levelo://app?vid=182d1bf5-086e-469e-a37a-df64c4d0603f"},"vehicle_type_id":"4","last_reported":1781517715,"current_range_meters":6400,"station_id":"","pricing_plan_id":"cebpf4jnsgd1na2vs0mg"},{"bike_id":"2d5036af-f9df-45c6-97e4-648868345309","system_id":"levelo_inurba_marseille","lat":43.32534,"lon":5.38748,"is_reserved":false,"is_disabled":false,"rental_uris":{"android":"levelo://app?vid=2d5036af-f9df-45c6-97e4-648868345309","ios":"levelo://app?vid=2d5036af-f9df-45c6-97e4-648868345309"},"vehicle_type_id":"4","last_reported":1781517715,"current_range_meters":6400,"station_id":"","pricing_plan_id":"cebpf4jnsgd1na2vs0mg"},{"bike_id":"d8c7b01f-b800-4aad-abc0-82e31b1f3cf0","system_id":"levelo_inurba_marseille","lat":43.26687,"lon":5.38279,"is_reserved":false,"is_disabled":false,"rental_uris":{"android":"levelo://app?vid=d8c7b01f-b800-4aad-abc0-82e31b1f3cf0","ios":"levelo://app?vid=d8c7b01f-b800-4aad-abc0-82e31b1f3cf0"},"vehicle_type_id":"4","last_reported":1781517715,"current_range_meters":6400,"station_id":"ce4bhg92rcd13ifvqf90","pricing_plan_id":"cebpf4jnsgd1na2vs0mg"},{"bike_id":"b8604cce-7d37-4161-9fa8-974b96b13dca","system_id":"levelo_inurba_marseille","lat":43.26227,"lon":5.38767,"is_reserved":false,"is_disabled":false,"rental_uris":{"android":"levelo://app?vid=b8604cce-7d37-4161-9fa8-974b96b13dca","ios":"levelo://app?vid=b8604cce-7d37-4161-9fa8-974b96b13dca"},"vehicle_type_id":"4","last_reported":1781517715,"current_range_meters":6400,"station_id":"st_d8gjfg747rts73coq3b0","pricing_plan_id":"cebpf4jnsgd1na2vs0mg"},{"bike_id":"33256d2c-5c01-45fe-af55-4a654f52e42a","system_id":"levelo_inurba_marseille","lat":43.23874,"lon":5.36495,"is_reserved":false,"is_disabled":false,"rental_uris":{"android":"levelo://app?vid=33256d2c-5c01-45fe-af55-4a654f52e42a","ios":"levelo://app?vid=33256d2c-5c01-45fe-af55-4a654f52e42a"},"vehicle_type_id":"4","last_reported":1781517715,"current_range_meters":6400,"station_id":"","pricing_plan_id":"cebpf4jnsgd1na2vs0mg"},{"bike_id":"f8cb73ac-3d9d-44c2-a350-75fbcb9e7e8a","system_id":"levelo_inurba_marseille","lat":43.2622,"lon":5.38753,"is_reserved":false,"is_disabled":false,"rental_uris":{"android":"levelo://app?vid=f8cb73ac-3d9d-44c2-a350-75fbcb9e7e8a","ios":"levelo://app?vid=f8cb73ac-3d9d-44c2-a350-75fbcb9e7e8a"},"vehicle_type_id":"4","last_reported":1781517715,"current_range_meters":6400,"station_id":"st_d8gjfg747rts73coq3b0","pricing_plan_id":"cebpf4jnsgd1na2vs0mg"},{"bike_id":"abc01caa-7e82-486b-ad5a-e31151d2d0fc","system_id":"levelo_inurba_marseille","lat":43.27728,"lon":5.3957,"is_reserved":false,"is_disabled":false,"rental_uris":{"android":"levelo://app?vid=abc01caa-7e82-486b-ad5a-e31151d2d0fc","ios":"levelo://app?vid=abc01caa-7e82-486b-ad5a-e31151d2d0fc"},"vehicle_type_id":"4","last_reported":1781517715,"current_range_meters":6400,"station_id":"","pricing_plan_id":"cebpf4jnsgd1na2vs0mg"},{"bike_id":"01c0f3ae-eb19-4037-a015-7e650e1786b6","system_id":"levelo_inurba_marseille","lat":43.336061,"lon":5.410352,"is_reserved":false,"is_disabled":false,"rental_uris":{"android":"levelo://app?vid=01c0f3ae-eb19-4037-a015-7e650e1786b6","ios":"levelo://app?vid=01c0f3ae-eb19-4037-a015-7e650e1786b6"},"vehicle_type_id":"4","last_reported":1781517715,"current_range_meters":6400,"station_id":"ce4bhqh2rcd13ifvqhmg","pricing_plan_id":"cebpf4jnsgd1na2vs0mg"},{"bike_id":"f85852d2-adc8-4b70-a85d-9aefe12827fb","system_id":"levelo_inurba_marseille","lat":43.29524,"lon":5.38028,"is_reserved":false,"is_disabled":false,"rental_uris":{"android":"levelo://app?vid=f85852d2-adc8-4b70-a85d-9aefe12827fb","ios":"levelo://app?vid=f85852d2-adc8-4b70-a85d-9aefe12827fb"},"vehicle_type_id":"4","last_reported":1781517715,"current_range_meters":6400,"station_id":"","pricing_plan_id":"cebpf4jnsgd1na2vs0mg"},{"bike_id":"b4b85ace-3117-48c3-bdef-3dd6ed7ef981","system_id":"levelo_inurba_marseille","lat":43.28271,"lon":5.35063,"is_reserved":false,"is_disabled":false,"rental_uris":{"android":"levelo://app?vid=b4b85ace-3117-48c3-bdef-3dd6ed7ef981","ios":"levelo://app?vid=b4b85ace-3117-48c3-bdef-3dd6ed7ef981"},"vehicle_type_id":"4","last_reported":1781517715,"current_range_meters":6400,"station_id":"ce4bhbp2rcd13ifvqerg","pricing_plan_id":"cebpf4jnsgd1na2vs0mg"},{"bike_id":"42d97131-d120-4ec3-9bfe-e950090be9f5","system_id":"levelo_inurba_marseille","lat":43.24868,"lon":5.37479,"is_reserved":false,"is_disabled":false,"rental_uris":{"android":"levelo://app?vid=42d97131-d120-4ec3-9bfe-e950090be9f5","ios":"levelo://app?vid=42d97131-d120-4ec3-9bfe-e950090be9f5"},"vehicle_type_id":"4","last_reported":1781517715,"current_range_meters":6400,"station_id":"","pricing_plan_id":"cebpf4jnsgd1na2vs0mg"},{"bike_id":"dceea7d1-f004-40e7-a1f8-876a15f2f7b6","system_id":"levelo_inurba_marseille","lat":43.28412,"lon":5.37516,"is_reserved":false,"is_disabled":false,"rental_uris":{"android":"levelo://app?vid=dceea7d1-f004-40e7-a1f8-876a15f2f7b6","ios":"levelo://app?vid=dceea7d1-f004-40e7-a1f8-876a15f2f7b6"},"vehicle_type_id":"4","last_reported":1781517715,"current_range_meters":6400,"station_id":"ce4bh412rcd13ifvqds0","pricing_plan_id":"cebpf4jnsgd1na2vs0mg"},{"bike_id":"cd3c32d8-c396-4750-af84-f7673f6b6e95","system_id":"levelo_inurba_marseille","lat":43.303128,"lon":5.369038,"is_reserved":false,"is_disabled":true,"rental_uris":{"android":"levelo://app?vid=cd3c32d8-c396-4750-af84-f7673f6b6e95","ios":"levelo://app?vid=cd3c32d8-c396-4750-af84-f7673f6b6e95"},"vehicle_type_id":"4","last_reported":1781517715,"current_range_meters":6400,"station_id":"ce4bhgh2rcd13ifvqfb0","pricing_plan_id":"cebpf4jnsgd1na2vs0mg"},{"bike_id":"119ee3e3-8912-41dc-9351-0ade13455b09","system_id":"levelo_inurba_marseille","lat":43.29557,"lon":5.42296,"is_reserved":false,"is_disabled":false,"rental_uris":{"android":"levelo://app?vid=119ee3e3-8912-41dc-9351-0ade13455b09","ios":"levelo://app?vid=119ee3e3-8912-41dc-9351-0ade13455b09"},"vehicle_type_id":"4","last_reported":1781517715,"current_range_meters":6400,"station_id":"ce4bhph2rcd13ifvqhdg","pricing_plan_id":"cebpf4jnsgd1na2vs0mg"},{"bike_id":"ea474565-b68a-4127-86ad-a5d8fb1fe408","system_id":"levelo_inurba_marseille","lat":43.29796,"lon":5.40392,"is_reserved":false,"is_disabled":false,"rental_uris":{"android":"levelo://app?vid=ea474565-b68a-4127-86ad-a5d8fb1fe408","ios":"levelo://app?vid=ea474565-b68a-4127-86ad-a5d8fb1fe408"},"vehicle_type_id":"4","last_reported":1781517715,"current_range_meters":6400,"station_id":"ce4bh112rcd13ifvqd90","pricing_plan_id":"cebpf4jnsgd1na2vs0mg"},{"bike_id":"dc4680c2-1ea2-481b-a68a-507adb9e5b07","system_id":"levelo_inurba_marseille","lat":43.26512,"lon":5.3695,"is_reserved":false,"is_disabled":false,"rental_uris":{"android":"levelo://app?vid=dc4680c2-1ea2-481b-a68a-507adb9e5b07","ios":"levelo://app?vid=dc4680c2-1ea2-481b-a68a-507adb9e5b07"},"vehicle_type_id":"4","last_reported":1781517715,"current_range_meters":6400,"station_id":"","pricing_plan_id":"cebpf4jnsgd1na2vs0mg"},{"bike_id":"cad16962-63f9-450f-8e08-e826d1ea7193","system_id":"levelo_inurba_marseille","lat":43.32047,"lon":5.41582,"is_reserved":false,"is_disabled":false,"rental_uris":{"android":"levelo://app?vid=cad16962-63f9-450f-8e08-e826d1ea7193","ios":"levelo://app?vid=cad16962-63f9-450f-8e08-e826d1ea7193"},"vehicle_type_id":"4","last_reported":1781517715,"current_range_meters":6400,"station_id":"ce4bhq92rcd13ifvqhkg","pricing_plan_id":"cebpf4jnsgd1na2vs0mg"},{"bike_id":"afee4f44-fee6-4f92-bbb7-28008366c67d","system_id":"levelo_inurba_marseille","lat":43.33601,"lon":5.40967,"is_reserved":false,"is_disabled":false,"rental_uris":{"android":"levelo://app?vid=afee4f44-fee6-4f92-bbb7-28008366c67d","ios":"levelo://app?vid=afee4f44-fee6-4f92-bbb7-28008366c67d"},"vehicle_type_id":"4","last_reported":1781517715,"current_range_meters":6400,"station_id":"ce4bhqh2rcd13ifvqhmg","pricing_plan_id":"cebpf4jnsgd1na2vs0mg"},{"bike_id":"eecbdf4a-1256-4cd3-894b-717ff2614a24","system_id":"levelo_inurba_marseille","lat":43.23753,"lon":5.37788,"is_reserved":false,"is_disabled":false,"rental_uris":{"android":"levelo://app?vid=eecbdf4a-1256-4cd3-894b-717ff2614a24","ios":"levelo://app?vid=eecbdf4a-1256-4cd3-894b-717ff2614a24"},"vehicle_type_id":"4","last_reported":1781517715,"current_range_meters":6800,"station_id":"","pricing_plan_id":"cebpf4jnsgd1na2vs0mg"},{"bike_id":"4d2bcfd8-ccb0-45c3-9856-778e0ad12846","system_id":"levelo_inurba_marseille","lat":43.24676,"lon":5.38168,"is_reserved":false,"is_disabled":false,"rental_uris":{"android":"levelo://app?vid=4d2bcfd8-ccb0-45c3-9856-778e0ad12846","ios":"levelo://app?vid=4d2bcfd8-ccb0-45c3-9856-778e0ad12846"},"vehicle_type_id":"4","last_reported":1781517715,"current_range_meters":6800,"station_id":"ce4bhih2rcd13ifvqfr0","pricing_plan_id":"cebpf4jnsgd1na2vs0mg"},{"bike_id":"c37d397e-b2f6-442e-acb6-1796657e2ba6","system_id":"levelo_inurba_marseille","lat":43.22562,"lon":5.41639,"is_reserved":false,"is_disabled":false,"rental_uris":{"android":"levelo://app?vid=c37d397e-b2f6-442e-acb6-1796657e2ba6","ios":"levelo://app?vid=c37d397e-b2f6-442e-acb6-1796657e2ba6"},"vehicle_type_id":"4","last_reported":1781517715,"current_range_meters":6800,"station_id":"st_d2o4gvlbi1j2169b742g","pricing_plan_id":"cebpf4jnsgd1na2vs0mg"},{"bike_id":"309c3b62-4f84-413f-9afb-a3f15862223f","system_id":"levelo_inurba_marseille","lat":43.28489,"lon":5.38415,"is_reserved":false,"is_disabled":false,"rental_uris":{"android":"levelo://app?vid=309c3b62-4f84-413f-9afb-a3f15862223f","ios":"levelo://app?vid=309c3b62-4f84-413f-9afb-a3f15862223f"},"vehicle_type_id":"4","last_reported":1781517715,"current_range_meters":6800,"station_id":"ce4bh512rcd13ifvqe3g","pricing_plan_id":"cebpf4jnsgd1na2vs0mg"},{"bike_id":"1fed5617-a0ec-423a-9a18-b9dca8c1221b","system_id":"levelo_inurba_marseille","lat":43.2321,"lon":5.35545,"is_reserved":false,"is_disabled":false,"rental_uris":{"android":"levelo://app?vid=1fed5617-a0ec-423a-9a18-b9dca8c1221b","ios":"levelo://app?vid=1fed5617-a0ec-423a-9a18-b9dca8c1221b"},"vehicle_type_id":"4","last_reported":1781517715,"current_range_meters":6800,"station_id":"ce4bhu92rcd13ifvqi70","pricing_plan_id":"cebpf4jnsgd1na2vs0mg"},{"bike_id":"79af4283-c1d5-4033-a3a7-48e50ad05d77","system_id":"levelo_inurba_marseille","lat":43.296177,"lon":5.380267,"is_reserved":false,"is_disabled":false,"rental_uris":{"android":"levelo://app?vid=79af4283-c1d5-4033-a3a7-48e50ad05d77","ios":"levelo://app?vid=79af4283-c1d5-4033-a3a7-48e50ad05d77"},"vehicle_type_id":"4","last_reported":1781517715,"current_range_meters":6800,"station_id":"","pricing_plan_id":"cebpf4jnsgd1na2vs0mg"},{"bike_id":"16eff849-602a-4847-9edd-579240b08c01","system_id":"levelo_inurba_marseille","lat":43.25001,"lon":5.3892,"is_reserved":false,"is_disabled":false,"rental_uris":{"android":"levelo://app?vid=16eff849-602a-4847-9edd-579240b08c01","ios":"levelo://app?vid=16eff849-602a-4847-9edd-579240b08c01"},"vehicle_type_id":"4","last_reported":1781517715,"current_range_meters":6800,"station_id":"ce4bhgp2rcd13ifvqfd0","pricing_plan_id":"cebpf4jnsgd1na2vs0mg"},{"bike_id":"6d353a02-c0ef-47b6-887d-eae21d4b5810","system_id":"levelo_inurba_marseille","lat":43.25022,"lon":5.38946,"is_reserved":false,"is_disabled":true,"rental_uris":{"android":"levelo://app?vid=6d353a02-c0ef-47b6-887d-eae21d4b5810","ios":"levelo://app?vid=6d353a02-c0ef-47b6-887d-eae21d4b5810"},"vehicle_type_id":"4","last_reported":1781517715,"current_range_meters":6800,"station_id":"ce4bhgp2rcd13ifvqfd0","pricing_plan_id":"cebpf4jnsgd1na2vs0mg"},{"bike_id":"e03f8be0-aa84-48c2-81d3-f605fe095391","system_id":"levelo_inurba_marseille","lat":43.30263,"lon":5.37706,"is_reserved":false,"is_disabled":false,"rental_uris":{"android":"levelo://app?vid=e03f8be0-aa84-48c2-81d3-f605fe095391","ios":"levelo://app?vid=e03f8be0-aa84-48c2-81d3-f605fe095391"},"vehicle_type_id":"4","last_reported":1781517715,"current_range_meters":6800,"station_id":"ce4bguh2rcd13ifvqcj0","pricing_plan_id":"cebpf4jnsgd1na2vs0mg"},{"bike_id":"b6999bb1-ca94-47a0-8ce4-256459128cc2","system_id":"levelo_inurba_marseille","lat":43.2903,"lon":5.37572,"is_reserved":false,"is_disabled":false,"rental_uris":{"android":"levelo://app?vid=b6999bb1-ca94-47a0-8ce4-256459128cc2","ios":"levelo://app?vid=b6999bb1-ca94-47a0-8ce4-256459128cc2"},"vehicle_type_id":"4","last_reported":1781517715,"current_range_meters":6800,"station_id":"ce4bh692rcd13ifvqe90","pricing_plan_id":"cebpf4jnsgd1na2vs0mg"},{"bike_id":"433f67eb-9d3b-4400-8ae2-4404313e6552","system_id":"levelo_inurba_marseille","lat":43.25498,"lon":5.37645,"is_reserved":false,"is_disabled":false,"rental_uris":{"android":"levelo://app?vid=433f67eb-9d3b-4400-8ae2-4404313e6552","ios":"levelo://app?vid=433f67eb-9d3b-4400-8ae2-4404313e6552"},"vehicle_type_id":"4","last_reported":1781517715,"current_range_meters":6800,"station_id":"ce4bhh12rcd13ifvqff0","pricing_plan_id":"cebpf4jnsgd1na2vs0mg"},{"bike_id":"1f8b513f-39f7-4564-bd35-c94b6aa193a8","system_id":"levelo_inurba_marseille","lat":43.31167,"lon":5.39358,"is_reserved":false,"is_disabled":false,"rental_uris":{"android":"levelo://app?vid=1f8b513f-39f7-4564-bd35-c94b6aa193a8","ios":"levelo://app?vid=1f8b513f-39f7-4564-bd35-c94b6aa193a8"},"vehicle_type_id":"4","last_reported":1781517715,"current_range_meters":6800,"station_id":"","pricing_plan_id":"cebpf4jnsgd1na2vs0mg"},{"bike_id":"bd3727eb-7c12-4366-9972-be7b68a65c0d","system_id":"levelo_inurba_marseille","lat":43.29381,"lon":5.37853,"is_reserved":false,"is_disabled":true,"rental_uris":{"android":"levelo://app?vid=bd3727eb-7c12-4366-9972-be7b68a65c0d","ios":"levelo://app?vid=bd3727eb-7c12-4366-9972-be7b68a65c0d"},"vehicle_type_id":"4","last_reported":1781517715,"current_range_meters":6800,"station_id":"ce4bgjh2rcd13ifvqbf0","pricing_plan_id":"cebpf4jnsgd1na2vs0mg"},{"bike_id":"aed3b1ba-56b6-4901-b6d0-9906cdc9d732","system_id":"levelo_inurba_marseille","lat":43.29537,"lon":5.38545,"is_reserved":false,"is_disabled":false,"rental_uris":{"android":"levelo://app?vid=aed3b1ba-56b6-4901-b6d0-9906cdc9d732","ios":"levelo://app?vid=aed3b1ba-56b6-4901-b6d0-9906cdc9d732"},"vehicle_type_id":"4","last_reported":1781517715,"current_range_meters":6800,"station_id":"ce4bgih2rcd13ifvqba0","pricing_plan_id":"cebpf4jnsgd1na2vs0mg"},{"bike_id":"8c6ae628-cbf8-4b8d-b9a3-f20839d2a500","system_id":"levelo_inurba_marseille","lat":43.29021,"lon":5.39978,"is_reserved":false,"is_disabled":false,"rental_uris":{"android":"levelo://app?vid=8c6ae628-cbf8-4b8d-b9a3-f20839d2a500","ios":"levelo://app?vid=8c6ae628-cbf8-4b8d-b9a3-f20839d2a500"},"vehicle_type_id":"4","last_reported":1781517715,"current_range_meters":6800,"station_id":"","pricing_plan_id":"cebpf4jnsgd1na2vs0mg"},{"bike_id":"7bd5aaf9-56b6-48f6-8197-e33e2bf67f68","system_id":"levelo_inurba_marseille","lat":43.2254,"lon":5.3484,"is_reserved":false,"is_disabled":false,"rental_uris":{"android":"levelo://app?vid=7bd5aaf9-56b6-48f6-8197-e33e2bf67f68","ios":"levelo://app?vid=7bd5aaf9-56b6-48f6-8197-e33e2bf67f68"},"vehicle_type_id":"4","last_reported":1781517715,"current_range_meters":6800,"station_id":"st_cvj5dfep6f1abm77gieg","pricing_plan_id":"cebpf4jnsgd1na2vs0mg"},{"bike_id":"d13781fd-bf3b-4afd-8dde-d01cb5a8e3a0","system_id":"levelo_inurba_marseille","lat":43.29244,"lon":5.3801,"is_reserved":false,"is_disabled":false,"rental_uris":{"android":"levelo://app?vid=d13781fd-bf3b-4afd-8dde-d01cb5a8e3a0","ios":"levelo://app?vid=d13781fd-bf3b-4afd-8dde-d01cb5a8e3a0"},"vehicle_type_id":"4","last_reported":1781517715,"current_range_meters":6800,"station_id":"","pricing_plan_id":"cebpf4jnsgd1na2vs0mg"},{"bike_id":"edc369f1-b5e9-4a1d-8d28-9bc902276a49","system_id":"levelo_inurba_marseille","lat":43.24795,"lon":5.37451,"is_reserved":false,"is_disabled":true,"rental_uris":{"android":"levelo://app?vid=edc369f1-b5e9-4a1d-8d28-9bc902276a49","ios":"levelo://app?vid=edc369f1-b5e9-4a1d-8d28-9bc902276a49"},"vehicle_type_id":"4","last_reported":1781517715,"current_range_meters":7200,"station_id":"ce4bhgh2rcd13ifvqfb0","pricing_plan_id":"cebpf4jnsgd1na2vs0mg"},{"bike_id":"6581a4f1-b276-461d-89c0-e798400b7e9a","system_id":"levelo_inurba_marseille","lat":43.30446,"lon":5.38905,"is_reserved":false,"is_disabled":true,"rental_uris":{"android":"levelo://app?vid=6581a4f1-b276-461d-89c0-e798400b7e9a","ios":"levelo://app?vid=6581a4f1-b276-461d-89c0-e798400b7e9a"},"vehicle_type_id":"4","last_reported":1781517715,"current_range_meters":7200,"station_id":"ce4bgk12rcd13ifvqbi0","pricing_plan_id":"cebpf4jnsgd1na2vs0mg"},{"bike_id":"ca3c430a-c3ae-4878-b52f-8dd5fbed1646","system_id":"levelo_inurba_marseille","lat":43.32363,"lon":5.36741,"is_reserved":false,"is_disabled":false,"rental_uris":{"android":"levelo://app?vid=ca3c430a-c3ae-4878-b52f-8dd5fbed1646","ios":"levelo://app?vid=ca3c430a-c3ae-4878-b52f-8dd5fbed1646"},"vehicle_type_id":"4","last_reported":1781517715,"current_range_meters":7200,"station_id":"ce4bhsh2rcd13ifvqi2g","pricing_plan_id":"cebpf4jnsgd1na2vs0mg"},{"bike_id":"39dfa545-12db-4745-82c2-2724c73b5c4a","system_id":"levelo_inurba_marseille","lat":43.26017,"lon":5.37569,"is_reserved":false,"is_disabled":true,"rental_uris":{"android":"levelo://app?vid=39dfa545-12db-4745-82c2-2724c73b5c4a","ios":"levelo://app?vid=39dfa545-12db-4745-82c2-2724c73b5c4a"},"vehicle_type_id":"4","last_reported":1781517715,"current_range_meters":7200,"station_id":"ce4bhgh2rcd13ifvqfa0","pricing_plan_id":"cebpf4jnsgd1na2vs0mg"},{"bike_id":"035cd80f-c63b-44c7-9fa7-211fc8e2fbd5","system_id":"levelo_inurba_marseille","lat":43.30197,"lon":5.41769,"is_reserved":false,"is_disabled":false,"rental_uris":{"android":"levelo://app?vid=035cd80f-c63b-44c7-9fa7-211fc8e2fbd5","ios":"levelo://app?vid=035cd80f-c63b-44c7-9fa7-211fc8e2fbd5"},"vehicle_type_id":"4","last_reported":1781517715,"current_range_meters":7200,"station_id":"","pricing_plan_id":"cebpf4jnsgd1na2vs0mg"},{"bike_id":"add0454f-e404-4bef-9edb-aef688484935","system_id":"levelo_inurba_marseille","lat":43.25588,"lon":5.3824,"is_reserved":false,"is_disabled":false,"rental_uris":{"android":"levelo://app?vid=add0454f-e404-4bef-9edb-aef688484935","ios":"levelo://app?vid=add0454f-e404-4bef-9edb-aef688484935"},"vehicle_type_id":"4","last_reported":1781517715,"current_range_meters":7200,"station_id":"ce4bhih2rcd13ifvqfs0","pricing_plan_id":"cebpf4jnsgd1na2vs0mg"},{"bike_id":"52f53646-a8c6-467b-a085-982495434fda","system_id":"levelo_inurba_marseille","lat":43.24462,"lon":5.42531,"is_reserved":false,"is_disabled":true,"rental_uris":{"android":"levelo://app?vid=52f53646-a8c6-467b-a085-982495434fda","ios":"levelo://app?vid=52f53646-a8c6-467b-a085-982495434fda"},"vehicle_type_id":"4","last_reported":1781517715,"current_range_meters":7200,"station_id":"st_d4a3vfp97mjs738cd8kg","pricing_plan_id":"cebpf4jnsgd1na2vs0mg"},{"bike_id":"c9aabddb-8b5c-4663-930f-1f9cf614b6ce","system_id":"levelo_inurba_marseille","lat":43.21774,"lon":5.3459,"is_reserved":false,"is_disabled":true,"rental_uris":{"android":"levelo://app?vid=c9aabddb-8b5c-4663-930f-1f9cf614b6ce","ios":"levelo://app?vid=c9aabddb-8b5c-4663-930f-1f9cf614b6ce"},"vehicle_type_id":"4","last_reported":1781517715,"current_range_meters":7200,"station_id":"st_cvj6r9ubvosntc0bgbag","pricing_plan_id":"cebpf4jnsgd1na2vs0mg"},{"bike_id":"ef162e13-318a-46a0-9e0a-701ac0e8a678","system_id":"levelo_inurba_marseille","lat":43.29794,"lon":5.38114,"is_reserved":false,"is_disabled":false,"rental_uris":{"android":"levelo://app?vid=ef162e13-318a-46a0-9e0a-701ac0e8a678","ios":"levelo://app?vid=ef162e13-318a-46a0-9e0a-701ac0e8a678"},"vehicle_type_id":"4","last_reported":1781517715,"current_range_meters":7200,"station_id":"ce4bgip2rcd13ifvqbb0","pricing_plan_id":"cebpf4jnsgd1na2vs0mg"},{"bike_id":"a5cf2c1c-04b4-47f7-9978-0ad956934cfb","system_id":"levelo_inurba_marseille","lat":43.29715,"lon":5.36615,"is_reserved":false,"is_disabled":true,"rental_uris":{"android":"levelo://app?vid=a5cf2c1c-04b4-47f7-9978-0ad956934cfb","ios":"levelo://app?vid=a5cf2c1c-04b4-47f7-9978-0ad956934cfb"},"vehicle_type_id":"4","last_reported":1781517715,"current_range_meters":7200,"station_id":"ce4bgn12rcd13ifvqbt0","pricing_plan_id":"cebpf4jnsgd1na2vs0mg"},{"bike_id":"b7885c49-a951-4599-944c-dd474f30131b","system_id":"levelo_inurba_marseille","lat":43.29581,"lon":5.39983,"is_reserved":false,"is_disabled":false,"rental_uris":{"android":"levelo://app?vid=b7885c49-a951-4599-944c-dd474f30131b","ios":"levelo://app?vid=b7885c49-a951-4599-944c-dd474f30131b"},"vehicle_type_id":"4","last_reported":1781517715,"current_range_meters":7200,"station_id":"ce4bh312rcd13ifvqdj0","pricing_plan_id":"cebpf4jnsgd1na2vs0mg"},{"bike_id":"752186fd-5eac-4e0c-bf14-a9de49fcf982","system_id":"levelo_inurba_marseille","lat":43.28629,"lon":5.39901,"is_reserved":false,"is_disabled":true,"rental_uris":{"android":"levelo://app?vid=752186fd-5eac-4e0c-bf14-a9de49fcf982","ios":"levelo://app?vid=752186fd-5eac-4e0c-bf14-a9de49fcf982"},"vehicle_type_id":"4","last_reported":1781517715,"current_range_meters":7200,"station_id":"ce4bho92rcd13ifvqh3g","pricing_plan_id":"cebpf4jnsgd1na2vs0mg"},{"bike_id":"9990f1f1-17f2-4ca8-9888-62cb20f5b6c3","system_id":"levelo_inurba_marseille","lat":43.331,"lon":5.36859,"is_reserved":false,"is_disabled":false,"rental_uris":{"android":"levelo://app?vid=9990f1f1-17f2-4ca8-9888-62cb20f5b6c3","ios":"levelo://app?vid=9990f1f1-17f2-4ca8-9888-62cb20f5b6c3"},"vehicle_type_id":"4","last_reported":1781517715,"current_range_meters":7200,"station_id":"","pricing_plan_id":"cebpf4jnsgd1na2vs0mg"},{"bike_id":"0284034b-da83-44a5-89e8-3385e95d5194","system_id":"levelo_inurba_marseille","lat":43.3219,"lon":5.44,"is_reserved":false,"is_disabled":false,"rental_uris":{"android":"levelo://app?vid=0284034b-da83-44a5-89e8-3385e95d5194","ios":"levelo://app?vid=0284034b-da83-44a5-89e8-3385e95d5194"},"vehicle_type_id":"4","last_reported":1781517715,"current_range_meters":7200,"station_id":"","pricing_plan_id":"cebpf4jnsgd1na2vs0mg"},{"bike_id":"bc7ff3f0-9f43-4dc4-9640-bf048c6c4517","system_id":"levelo_inurba_marseille","lat":43.30566,"lon":5.36707,"is_reserved":false,"is_disabled":false,"rental_uris":{"android":"levelo://app?vid=bc7ff3f0-9f43-4dc4-9640-bf048c6c4517","ios":"levelo://app?vid=bc7ff3f0-9f43-4dc4-9640-bf048c6c4517"},"vehicle_type_id":"4","last_reported":1781517715,"current_range_meters":7200,"station_id":"ce4bgrp2rcd13ifvqc9g","pricing_plan_id":"cebpf4jnsgd1na2vs0mg"},{"bike_id":"aa9ba65e-6c41-472c-9b2d-49507544dbb3","system_id":"levelo_inurba_marseille","lat":43.30944,"lon":5.39028,"is_reserved":false,"is_disabled":false,"rental_uris":{"android":"levelo://app?vid=aa9ba65e-6c41-472c-9b2d-49507544dbb3","ios":"levelo://app?vid=aa9ba65e-6c41-472c-9b2d-49507544dbb3"},"vehicle_type_id":"4","last_reported":1781517715,"current_range_meters":7200,"station_id":"ce4bgup2rcd13ifvqco0","pricing_plan_id":"cebpf4jnsgd1na2vs0mg"},{"bike_id":"ebe5e08f-87d6-46f3-85dc-b77a5bb53d29","system_id":"levelo_inurba_marseille","lat":43.24466,"lon":5.42532,"is_reserved":false,"is_disabled":false,"rental_uris":{"android":"levelo://app?vid=ebe5e08f-87d6-46f3-85dc-b77a5bb53d29","ios":"levelo://app?vid=ebe5e08f-87d6-46f3-85dc-b77a5bb53d29"},"vehicle_type_id":"4","last_reported":1781517715,"current_range_meters":7200,"station_id":"st_d4a3vfp97mjs738cd8kg","pricing_plan_id":"cebpf4jnsgd1na2vs0mg"},{"bike_id":"487add9d-06fb-43e0-8176-38973d0343de","system_id":"levelo_inurba_marseille","lat":43.28285,"lon":5.35273,"is_reserved":false,"is_disabled":false,"rental_uris":{"android":"levelo://app?vid=487add9d-06fb-43e0-8176-38973d0343de","ios":"levelo://app?vid=487add9d-06fb-43e0-8176-38973d0343de"},"vehicle_type_id":"4","last_reported":1781517715,"current_range_meters":7200,"station_id":"","pricing_plan_id":"cebpf4jnsgd1na2vs0mg"},{"bike_id":"aea32488-dbd7-4def-801e-04620c97a0fe","system_id":"levelo_inurba_marseille","lat":43.26596,"lon":5.38952,"is_reserved":false,"is_disabled":false,"rental_uris":{"android":"levelo://app?vid=aea32488-dbd7-4def-801e-04620c97a0fe","ios":"levelo://app?vid=aea32488-dbd7-4def-801e-04620c97a0fe"},"vehicle_type_id":"4","last_reported":1781517715,"current_range_meters":8000,"station_id":"","pricing_plan_id":"cebpf4jnsgd1na2vs0mg"},{"bike_id":"429db7a1-f3aa-4785-94c5-5bf97e571cbf","system_id":"levelo_inurba_marseille","lat":43.2463,"lon":5.43131,"is_reserved":false,"is_disabled":false,"rental_uris":{"android":"levelo://app?vid=429db7a1-f3aa-4785-94c5-5bf97e571cbf","ios":"levelo://app?vid=429db7a1-f3aa-4785-94c5-5bf97e571cbf"},"vehicle_type_id":"4","last_reported":1781517715,"current_range_meters":8000,"station_id":"st_d2m6c4gdas8pm72e190g","pricing_plan_id":"cebpf4jnsgd1na2vs0mg"},{"bike_id":"907029a1-4653-4ed0-9adb-fb8fe93c713e","system_id":"levelo_inurba_marseille","lat":43.32039,"lon":5.4156,"is_reserved":false,"is_disabled":false,"rental_uris":{"android":"levelo://app?vid=907029a1-4653-4ed0-9adb-fb8fe93c713e","ios":"levelo://app?vid=907029a1-4653-4ed0-9adb-fb8fe93c713e"},"vehicle_type_id":"4","last_reported":1781517715,"current_range_meters":8000,"station_id":"ce4bhq92rcd13ifvqhkg","pricing_plan_id":"cebpf4jnsgd1na2vs0mg"},{"bike_id":"8707b913-0728-4d01-9d47-588e7fd474f2","system_id":"levelo_inurba_marseille","lat":43.33152,"lon":5.37707,"is_reserved":false,"is_disabled":false,"rental_uris":{"android":"levelo://app?vid=8707b913-0728-4d01-9d47-588e7fd474f2","ios":"levelo://app?vid=8707b913-0728-4d01-9d47-588e7fd474f2"},"vehicle_type_id":"4","last_reported":1781517715,"current_range_meters":8000,"station_id":"st_d46cu089ee8s73dldbu0","pricing_plan_id":"cebpf4jnsgd1na2vs0mg"},{"bike_id":"0d3ee69d-3dda-40fb-9e91-1a515c1050cc","system_id":"levelo_inurba_marseille","lat":43.2848,"lon":5.48391,"is_reserved":false,"is_disabled":false,"rental_uris":{"android":"levelo://app?vid=0d3ee69d-3dda-40fb-9e91-1a515c1050cc","ios":"levelo://app?vid=0d3ee69d-3dda-40fb-9e91-1a515c1050cc"},"vehicle_type_id":"4","last_reported":1781517715,"current_range_meters":8000,"station_id":"st_d3svhcjqgbts73a3dn0g","pricing_plan_id":"cebpf4jnsgd1na2vs0mg"},{"bike_id":"53551954-a377-4364-8146-88cc22452dba","system_id":"levelo_inurba_marseille","lat":43.27996,"lon":5.41664,"is_reserved":false,"is_disabled":false,"rental_uris":{"android":"levelo://app?vid=53551954-a377-4364-8146-88cc22452dba","ios":"levelo://app?vid=53551954-a377-4364-8146-88cc22452dba"},"vehicle_type_id":"4","last_reported":1781517715,"current_range_meters":8000,"station_id":"ce4bho12rcd13ifvqh1g","pricing_plan_id":"cebpf4jnsgd1na2vs0mg"},{"bike_id":"aca9c076-6e9d-43c6-816f-089fb80f260b","system_id":"levelo_inurba_marseille","lat":43.29566,"lon":5.3751,"is_reserved":false,"is_disabled":false,"rental_uris":{"android":"levelo://app?vid=aca9c076-6e9d-43c6-816f-089fb80f260b","ios":"levelo://app?vid=aca9c076-6e9d-43c6-816f-089fb80f260b"},"vehicle_type_id":"4","last_reported":1781517715,"current_range_meters":8000,"station_id":"ce4bgh92rcd13ifvqb50","pricing_plan_id":"cebpf4jnsgd1na2vs0mg"},{"bike_id":"134d418c-53a9-4a0a-ae62-045839241cef","system_id":"levelo_inurba_marseille","lat":43.292303,"lon":5.360685,"is_reserved":false,"is_disabled":false,"rental_uris":{"android":"levelo://app?vid=134d418c-53a9-4a0a-ae62-045839241cef","ios":"levelo://app?vid=134d418c-53a9-4a0a-ae62-045839241cef"},"vehicle_type_id":"4","last_reported":1781517715,"current_range_meters":8000,"station_id":"ce4bhbh2rcd13ifvqeqg","pricing_plan_id":"cebpf4jnsgd1na2vs0mg"},{"bike_id":"c874ea4d-2fb2-4c7f-bca9-d82bd6523ad5","system_id":"levelo_inurba_marseille","lat":43.29253,"lon":5.38235,"is_reserved":false,"is_disabled":false,"rental_uris":{"android":"levelo://app?vid=c874ea4d-2fb2-4c7f-bca9-d82bd6523ad5","ios":"levelo://app?vid=c874ea4d-2fb2-4c7f-bca9-d82bd6523ad5"},"vehicle_type_id":"4","last_reported":1781517715,"current_range_meters":8000,"station_id":"","pricing_plan_id":"cebpf4jnsgd1na2vs0mg"},{"bike_id":"025ae3e9-1183-4ffc-95ca-b8ce6f7c95d7","system_id":"levelo_inurba_marseille","lat":43.27953,"lon":5.38684,"is_reserved":false,"is_disabled":true,"rental_uris":{"android":"levelo://app?vid=025ae3e9-1183-4ffc-95ca-b8ce6f7c95d7","ios":"levelo://app?vid=025ae3e9-1183-4ffc-95ca-b8ce6f7c95d7"},"vehicle_type_id":"4","last_reported":1781517715,"current_range_meters":8000,"station_id":"","pricing_plan_id":"cebpf4jnsgd1na2vs0mg"},{"bike_id":"1f2d1b7b-7fdf-4b71-90f8-83d9585c1d76","system_id":"levelo_inurba_marseille","lat":43.26216,"lon":5.37921,"is_reserved":false,"is_disabled":false,"rental_uris":{"android":"levelo://app?vid=1f2d1b7b-7fdf-4b71-90f8-83d9585c1d76","ios":"levelo://app?vid=1f2d1b7b-7fdf-4b71-90f8-83d9585c1d76"},"vehicle_type_id":"4","last_reported":1781517715,"current_range_meters":8000,"station_id":"ce4bhjp2rcd13ifvqg90","pricing_plan_id":"cebpf4jnsgd1na2vs0mg"},{"bike_id":"2110c946-a6f9-4fb7-9f84-4f886dc3a318","system_id":"levelo_inurba_marseille","lat":43.28734,"lon":5.46915,"is_reserved":false,"is_disabled":false,"rental_uris":{"android":"levelo://app?vid=2110c946-a6f9-4fb7-9f84-4f886dc3a318","ios":"levelo://app?vid=2110c946-a6f9-4fb7-9f84-4f886dc3a318"},"vehicle_type_id":"4","last_reported":1781517715,"current_range_meters":8000,"station_id":"","pricing_plan_id":"cebpf4jnsgd1na2vs0mg"},{"bike_id":"dd293bc6-b379-4dd5-9aa3-0b618446b7d3","system_id":"levelo_inurba_marseille","lat":43.22536,"lon":5.34828,"is_reserved":false,"is_disabled":false,"rental_uris":{"android":"levelo://app?vid=dd293bc6-b379-4dd5-9aa3-0b618446b7d3","ios":"levelo://app?vid=dd293bc6-b379-4dd5-9aa3-0b618446b7d3"},"vehicle_type_id":"4","last_reported":1781517715,"current_range_meters":8000,"station_id":"st_cvj5dfep6f1abm77gieg","pricing_plan_id":"cebpf4jnsgd1na2vs0mg"},{"bike_id":"0956daa5-681a-4326-929a-0e7393b328e2","system_id":"levelo_inurba_marseille","lat":43.23014,"lon":5.35465,"is_reserved":false,"is_disabled":false,"rental_uris":{"android":"levelo://app?vid=0956daa5-681a-4326-929a-0e7393b328e2","ios":"levelo://app?vid=0956daa5-681a-4326-929a-0e7393b328e2"},"vehicle_type_id":"4","last_reported":1781517715,"current_range_meters":8000,"station_id":"cpo3342slgdg3j2ifvpg","pricing_plan_id":"cebpf4jnsgd1na2vs0mg"},{"bike_id":"0903e8df-8e3f-463e-95cc-c2e49bce1a7e","system_id":"levelo_inurba_marseille","lat":43.29617,"lon":5.38078,"is_reserved":false,"is_disabled":true,"rental_uris":{"android":"levelo://app?vid=0903e8df-8e3f-463e-95cc-c2e49bce1a7e","ios":"levelo://app?vid=0903e8df-8e3f-463e-95cc-c2e49bce1a7e"},"vehicle_type_id":"4","last_reported":1781517715,"current_range_meters":8000,"station_id":"ce4bgl12rcd13ifvqbo0","pricing_plan_id":"cebpf4jnsgd1na2vs0mg"},{"bike_id":"e386d0c8-e4b4-44d0-b548-8a70c615d57c","system_id":"levelo_inurba_marseille","lat":43.27036,"lon":5.40275,"is_reserved":false,"is_disabled":false,"rental_uris":{"android":"levelo://app?vid=e386d0c8-e4b4-44d0-b548-8a70c615d57c","ios":"levelo://app?vid=e386d0c8-e4b4-44d0-b548-8a70c615d57c"},"vehicle_type_id":"4","last_reported":1781517715,"current_range_meters":8400,"station_id":"ce4bhk92rcd13ifvqgc0","pricing_plan_id":"cebpf4jnsgd1na2vs0mg"},{"bike_id":"471f8b05-e6ae-4918-a8bf-ee0baeadf97c","system_id":"levelo_inurba_marseille","lat":43.27426,"lon":5.39405,"is_reserved":false,"is_disabled":true,"rental_uris":{"android":"levelo://app?vid=471f8b05-e6ae-4918-a8bf-ee0baeadf97c","ios":"levelo://app?vid=471f8b05-e6ae-4918-a8bf-ee0baeadf97c"},"vehicle_type_id":"4","last_reported":1781517715,"current_range_meters":8400,"station_id":"ce4bhdp2rcd13ifvqf20","pricing_plan_id":"cebpf4jnsgd1na2vs0mg"},{"bike_id":"05fc3046-b7f9-4af2-bc83-1527a457d700","system_id":"levelo_inurba_marseille","lat":43.2849,"lon":5.40163,"is_reserved":false,"is_disabled":false,"rental_uris":{"android":"levelo://app?vid=05fc3046-b7f9-4af2-bc83-1527a457d700","ios":"levelo://app?vid=05fc3046-b7f9-4af2-bc83-1527a457d700"},"vehicle_type_id":"4","last_reported":1781517715,"current_range_meters":8400,"station_id":"","pricing_plan_id":"cebpf4jnsgd1na2vs0mg"},{"bike_id":"1780f092-1c98-415b-90d5-879b29a4c086","system_id":"levelo_inurba_marseille","lat":43.298671,"lon":5.397275,"is_reserved":false,"is_disabled":false,"rental_uris":{"android":"levelo://app?vid=1780f092-1c98-415b-90d5-879b29a4c086","ios":"levelo://app?vid=1780f092-1c98-415b-90d5-879b29a4c086"},"vehicle_type_id":"4","last_reported":1781517715,"current_range_meters":8400,"station_id":"ce4bh0h2rcd13ifvqd50","pricing_plan_id":"cebpf4jnsgd1na2vs0mg"},{"bike_id":"e6c8401a-2466-4f0f-b9c5-adfbd497ec46","system_id":"levelo_inurba_marseille","lat":43.2441,"lon":5.37862,"is_reserved":false,"is_disabled":false,"rental_uris":{"android":"levelo://app?vid=e6c8401a-2466-4f0f-b9c5-adfbd497ec46","ios":"levelo://app?vid=e6c8401a-2466-4f0f-b9c5-adfbd497ec46"},"vehicle_type_id":"4","last_reported":1781517715,"current_range_meters":8400,"station_id":"","pricing_plan_id":"cebpf4jnsgd1na2vs0mg"},{"bike_id":"cf69bffe-2e45-4f42-8160-df5739db363b","system_id":"levelo_inurba_marseille","lat":43.337533,"lon":5.374474,"is_reserved":false,"is_disabled":false,"rental_uris":{"android":"levelo://app?vid=cf69bffe-2e45-4f42-8160-df5739db363b","ios":"levelo://app?vid=cf69bffe-2e45-4f42-8160-df5739db363b"},"vehicle_type_id":"4","last_reported":1781517715,"current_range_meters":8400,"station_id":"","pricing_plan_id":"cebpf4jnsgd1na2vs0mg"},{"bike_id":"42f6a2a5-5d39-483e-bb74-72d4a2fe1217","system_id":"levelo_inurba_marseille","lat":43.30111,"lon":5.38076,"is_reserved":false,"is_disabled":false,"rental_uris":{"android":"levelo://app?vid=42f6a2a5-5d39-483e-bb74-72d4a2fe1217","ios":"levelo://app?vid=42f6a2a5-5d39-483e-bb74-72d4a2fe1217"},"vehicle_type_id":"4","last_reported":1781517715,"current_range_meters":8400,"station_id":"ce4bgjp2rcd13ifvqbh0","pricing_plan_id":"cebpf4jnsgd1na2vs0mg"},{"bike_id":"60dfa685-eb14-4e52-b0ed-8695211583ce","system_id":"levelo_inurba_marseille","lat":43.24627,"lon":5.43156,"is_reserved":false,"is_disabled":false,"rental_uris":{"android":"levelo://app?vid=60dfa685-eb14-4e52-b0ed-8695211583ce","ios":"levelo://app?vid=60dfa685-eb14-4e52-b0ed-8695211583ce"},"vehicle_type_id":"4","last_reported":1781517715,"current_range_meters":8400,"station_id":"st_d2m6c4gdas8pm72e190g","pricing_plan_id":"cebpf4jnsgd1na2vs0mg"},{"bike_id":"519d75f6-34c9-4a2b-83ff-d4ba272d5a62","system_id":"levelo_inurba_marseille","lat":43.25818,"lon":5.39421,"is_reserved":false,"is_disabled":false,"rental_uris":{"android":"levelo://app?vid=519d75f6-34c9-4a2b-83ff-d4ba272d5a62","ios":"levelo://app?vid=519d75f6-34c9-4a2b-83ff-d4ba272d5a62"},"vehicle_type_id":"4","last_reported":1781517715,"current_range_meters":8400,"station_id":"ce4bhip2rcd13ifvqft0","pricing_plan_id":"cebpf4jnsgd1na2vs0mg"},{"bike_id":"c773a28c-7f59-40bf-89bc-8cfd9237d156","system_id":"levelo_inurba_marseille","lat":43.24725,"lon":5.39502,"is_reserved":false,"is_disabled":false,"rental_uris":{"android":"levelo://app?vid=c773a28c-7f59-40bf-89bc-8cfd9237d156","ios":"levelo://app?vid=c773a28c-7f59-40bf-89bc-8cfd9237d156"},"vehicle_type_id":"4","last_reported":1781517715,"current_range_meters":8400,"station_id":"","pricing_plan_id":"cebpf4jnsgd1na2vs0mg"},{"bike_id":"fa2e5c04-d6c1-4cfb-892a-52d44006f288","system_id":"levelo_inurba_marseille","lat":43.27203,"lon":5.3919,"is_reserved":false,"is_disabled":true,"rental_uris":{"android":"levelo://app?vid=fa2e5c04-d6c1-4cfb-892a-52d44006f288","ios":"levelo://app?vid=fa2e5c04-d6c1-4cfb-892a-52d44006f288"},"vehicle_type_id":"4","last_reported":1781517715,"current_range_meters":8400,"station_id":"ce4bhhp2rcd13ifvqfm0","pricing_plan_id":"cebpf4jnsgd1na2vs0mg"},{"bike_id":"523b824f-7e45-4002-adee-cac9a0faafa3","system_id":"levelo_inurba_marseille","lat":43.33157,"lon":5.37704,"is_reserved":false,"is_disabled":false,"rental_uris":{"android":"levelo://app?vid=523b824f-7e45-4002-adee-cac9a0faafa3","ios":"levelo://app?vid=523b824f-7e45-4002-adee-cac9a0faafa3"},"vehicle_type_id":"4","last_reported":1781517715,"current_range_meters":8400,"station_id":"st_d46cu089ee8s73dldbu0","pricing_plan_id":"cebpf4jnsgd1na2vs0mg"},{"bike_id":"872471a4-180b-41ee-ae2f-9d962867884a","system_id":"levelo_inurba_marseille","lat":43.2418,"lon":5.39739,"is_reserved":false,"is_disabled":false,"rental_uris":{"android":"levelo://app?vid=872471a4-180b-41ee-ae2f-9d962867884a","ios":"levelo://app?vid=872471a4-180b-41ee-ae2f-9d962867884a"},"vehicle_type_id":"4","last_reported":1781517715,"current_range_meters":8400,"station_id":"ce4bhn12rcd13ifvqgpg","pricing_plan_id":"cebpf4jnsgd1na2vs0mg"},{"bike_id":"3a46db05-b0c2-4f97-a67f-99de5d51e18c","system_id":"levelo_inurba_marseille","lat":43.33202,"lon":5.37671,"is_reserved":false,"is_disabled":false,"rental_uris":{"android":"levelo://app?vid=3a46db05-b0c2-4f97-a67f-99de5d51e18c","ios":"levelo://app?vid=3a46db05-b0c2-4f97-a67f-99de5d51e18c"},"vehicle_type_id":"4","last_reported":1781517715,"current_range_meters":8400,"station_id":"st_d46cu089ee8s73dldbu0","pricing_plan_id":"cebpf4jnsgd1na2vs0mg"},{"bike_id":"bb652022-4b4e-479b-9495-eb6995925f5d","system_id":"levelo_inurba_marseille","lat":43.29262,"lon":5.38416,"is_reserved":false,"is_disabled":true,"rental_uris":{"android":"levelo://app?vid=bb652022-4b4e-479b-9495-eb6995925f5d","ios":"levelo://app?vid=bb652022-4b4e-479b-9495-eb6995925f5d"},"vehicle_type_id":"4","last_reported":1781517715,"current_range_meters":8400,"station_id":"ce4bh692rcd13ifvqea0","pricing_plan_id":"cebpf4jnsgd1na2vs0mg"},{"bike_id":"ed7b4654-a1b9-4c4a-8961-64f280e53064","system_id":"levelo_inurba_marseille","lat":43.29584,"lon":5.36744,"is_reserved":false,"is_disabled":false,"rental_uris":{"android":"levelo://app?vid=ed7b4654-a1b9-4c4a-8961-64f280e53064","ios":"levelo://app?vid=ed7b4654-a1b9-4c4a-8961-64f280e53064"},"vehicle_type_id":"4","last_reported":1781517715,"current_range_meters":8400,"station_id":"ce4bgph2rcd13ifvqc2g","pricing_plan_id":"cebpf4jnsgd1na2vs0mg"},{"bike_id":"c295b4e3-3d55-4f51-a7be-6c3ca387f3ad","system_id":"levelo_inurba_marseille","lat":43.27591,"lon":5.43387,"is_reserved":false,"is_disabled":false,"rental_uris":{"android":"levelo://app?vid=c295b4e3-3d55-4f51-a7be-6c3ca387f3ad","ios":"levelo://app?vid=c295b4e3-3d55-4f51-a7be-6c3ca387f3ad"},"vehicle_type_id":"4","last_reported":1781517715,"current_range_meters":8400,"station_id":"","pricing_plan_id":"cebpf4jnsgd1na2vs0mg"},{"bike_id":"78e44fe7-5222-45cd-966d-0d6ef32c1f96","system_id":"levelo_inurba_marseille","lat":43.32475,"lon":5.3655,"is_reserved":false,"is_disabled":false,"rental_uris":{"android":"levelo://app?vid=78e44fe7-5222-45cd-966d-0d6ef32c1f96","ios":"levelo://app?vid=78e44fe7-5222-45cd-966d-0d6ef32c1f96"},"vehicle_type_id":"4","last_reported":1781517715,"current_range_meters":8400,"station_id":"ce4bhs12rcd13ifvqhvg","pricing_plan_id":"cebpf4jnsgd1na2vs0mg"},{"bike_id":"ac2684a6-d8e2-439a-98f0-e69176d2a613","system_id":"levelo_inurba_marseille","lat":43.26696,"lon":5.38282,"is_reserved":false,"is_disabled":true,"rental_uris":{"android":"levelo://app?vid=ac2684a6-d8e2-439a-98f0-e69176d2a613","ios":"levelo://app?vid=ac2684a6-d8e2-439a-98f0-e69176d2a613"},"vehicle_type_id":"4","last_reported":1781517715,"current_range_meters":8400,"station_id":"ce4bhg92rcd13ifvqf90","pricing_plan_id":"cebpf4jnsgd1na2vs0mg"},{"bike_id":"53282265-7064-4951-963b-2430970568c4","system_id":"levelo_inurba_marseille","lat":43.29726,"lon":5.3768,"is_reserved":false,"is_disabled":true,"rental_uris":{"android":"levelo://app?vid=53282265-7064-4951-963b-2430970568c4","ios":"levelo://app?vid=53282265-7064-4951-963b-2430970568c4"},"vehicle_type_id":"4","last_reported":1781517715,"current_range_meters":8400,"station_id":"ce4bgkh2rcd13ifvqbl0","pricing_plan_id":"cebpf4jnsgd1na2vs0mg"},{"bike_id":"6fba197f-9491-487a-b677-bbf09fd91e2a","system_id":"levelo_inurba_marseille","lat":43.28402,"lon":5.46006,"is_reserved":false,"is_disabled":false,"rental_uris":{"android":"levelo://app?vid=6fba197f-9491-487a-b677-bbf09fd91e2a","ios":"levelo://app?vid=6fba197f-9491-487a-b677-bbf09fd91e2a"},"vehicle_type_id":"4","last_reported":1781517715,"current_range_meters":8400,"station_id":"","pricing_plan_id":"cebpf4jnsgd1na2vs0mg"},{"bike_id":"61a84bf8-16ce-4994-91d2-ff92432ea41b","system_id":"levelo_inurba_marseille","lat":43.28218,"lon":5.40587,"is_reserved":false,"is_disabled":false,"rental_uris":{"android":"levelo://app?vid=61a84bf8-16ce-4994-91d2-ff92432ea41b","ios":"levelo://app?vid=61a84bf8-16ce-4994-91d2-ff92432ea41b"},"vehicle_type_id":"4","last_reported":1781517715,"current_range_meters":8400,"station_id":"","pricing_plan_id":"cebpf4jnsgd1na2vs0mg"},{"bike_id":"81077423-2fb9-4221-89cb-946eefe94a56","system_id":"levelo_inurba_marseille","lat":43.276697,"lon":5.388733,"is_reserved":false,"is_disabled":false,"rental_uris":{"android":"levelo://app?vid=81077423-2fb9-4221-89cb-946eefe94a56","ios":"levelo://app?vid=81077423-2fb9-4221-89cb-946eefe94a56"},"vehicle_type_id":"4","last_reported":1781517715,"current_range_meters":8400,"station_id":"ce4bhi12rcd13ifvqfo0","pricing_plan_id":"cebpf4jnsgd1na2vs0mg"},{"bike_id":"f60e22f7-f607-453f-85d3-0a93c80803fe","system_id":"levelo_inurba_marseille","lat":43.30907,"lon":5.36841,"is_reserved":false,"is_disabled":false,"rental_uris":{"android":"levelo://app?vid=f60e22f7-f607-453f-85d3-0a93c80803fe","ios":"levelo://app?vid=f60e22f7-f607-453f-85d3-0a93c80803fe"},"vehicle_type_id":"4","last_reported":1781517715,"current_range_meters":8400,"station_id":"ce4bgn92rcd13ifvqbvg","pricing_plan_id":"cebpf4jnsgd1na2vs0mg"},{"bike_id":"82e0334c-08a2-4409-a0de-5ccc34e48e9a","system_id":"levelo_inurba_marseille","lat":43.31219,"lon":5.36867,"is_reserved":false,"is_disabled":true,"rental_uris":{"android":"levelo://app?vid=82e0334c-08a2-4409-a0de-5ccc34e48e9a","ios":"levelo://app?vid=82e0334c-08a2-4409-a0de-5ccc34e48e9a"},"vehicle_type_id":"4","last_reported":1781517715,"current_range_meters":8400,"station_id":"ce4bgl92rcd13ifvqbq0","pricing_plan_id":"cebpf4jnsgd1na2vs0mg"},{"bike_id":"b8dc7b41-abbd-47a1-8ef6-6364ff9756e0","system_id":"levelo_inurba_marseille","lat":43.30514,"lon":5.36704,"is_reserved":false,"is_disabled":false,"rental_uris":{"android":"levelo://app?vid=b8dc7b41-abbd-47a1-8ef6-6364ff9756e0","ios":"levelo://app?vid=b8dc7b41-abbd-47a1-8ef6-6364ff9756e0"},"vehicle_type_id":"4","last_reported":1781517715,"current_range_meters":8800,"station_id":"ce4bgrp2rcd13ifvqc9g","pricing_plan_id":"cebpf4jnsgd1na2vs0mg"},{"bike_id":"bec617a1-94fb-4226-bc38-497c5d0b3387","system_id":"levelo_inurba_marseille","lat":43.23898,"lon":5.37453,"is_reserved":false,"is_disabled":false,"rental_uris":{"android":"levelo://app?vid=bec617a1-94fb-4226-bc38-497c5d0b3387","ios":"levelo://app?vid=bec617a1-94fb-4226-bc38-497c5d0b3387"},"vehicle_type_id":"4","last_reported":1781517715,"current_range_meters":8800,"station_id":"st_d6sm7csbq4hs73f8fpjg","pricing_plan_id":"cebpf4jnsgd1na2vs0mg"},{"bike_id":"ee54a747-e42f-496f-a7b7-58c82fb5b689","system_id":"levelo_inurba_marseille","lat":43.31238,"lon":5.36862,"is_reserved":false,"is_disabled":false,"rental_uris":{"android":"levelo://app?vid=ee54a747-e42f-496f-a7b7-58c82fb5b689","ios":"levelo://app?vid=ee54a747-e42f-496f-a7b7-58c82fb5b689"},"vehicle_type_id":"4","last_reported":1781517715,"current_range_meters":8800,"station_id":"ce4bgl92rcd13ifvqbq0","pricing_plan_id":"cebpf4jnsgd1na2vs0mg"},{"bike_id":"2f78fa63-a177-4b29-84a5-f83a63ce1535","system_id":"levelo_inurba_marseille","lat":43.30308,"lon":5.36897,"is_reserved":false,"is_disabled":false,"rental_uris":{"android":"levelo://app?vid=2f78fa63-a177-4b29-84a5-f83a63ce1535","ios":"levelo://app?vid=2f78fa63-a177-4b29-84a5-f83a63ce1535"},"vehicle_type_id":"4","last_reported":1781517715,"current_range_meters":8800,"station_id":"ce4bgqh2rcd13ifvqc5g","pricing_plan_id":"cebpf4jnsgd1na2vs0mg"},{"bike_id":"31179630-f483-4227-8b89-1765f7b4232e","system_id":"levelo_inurba_marseille","lat":43.28448,"lon":5.37189,"is_reserved":false,"is_disabled":true,"rental_uris":{"android":"levelo://app?vid=31179630-f483-4227-8b89-1765f7b4232e","ios":"levelo://app?vid=31179630-f483-4227-8b89-1765f7b4232e"},"vehicle_type_id":"4","last_reported":1781517715,"current_range_meters":8800,"station_id":"","pricing_plan_id":"cebpf4jnsgd1na2vs0mg"},{"bike_id":"8e8d4ce9-0438-4fa0-b1b3-ddbb5c24049e","system_id":"levelo_inurba_marseille","lat":43.33096,"lon":5.43754,"is_reserved":false,"is_disabled":false,"rental_uris":{"android":"levelo://app?vid=8e8d4ce9-0438-4fa0-b1b3-ddbb5c24049e","ios":"levelo://app?vid=8e8d4ce9-0438-4fa0-b1b3-ddbb5c24049e"},"vehicle_type_id":"4","last_reported":1781517715,"current_range_meters":8800,"station_id":"","pricing_plan_id":"cebpf4jnsgd1na2vs0mg"},{"bike_id":"e63d5e95-1b9f-4e39-b6cf-96343fa191ab","system_id":"levelo_inurba_marseille","lat":43.22577,"lon":5.41617,"is_reserved":false,"is_disabled":false,"rental_uris":{"android":"levelo://app?vid=e63d5e95-1b9f-4e39-b6cf-96343fa191ab","ios":"levelo://app?vid=e63d5e95-1b9f-4e39-b6cf-96343fa191ab"},"vehicle_type_id":"4","last_reported":1781517715,"current_range_meters":8800,"station_id":"st_d2o4gvlbi1j2169b742g","pricing_plan_id":"cebpf4jnsgd1na2vs0mg"},{"bike_id":"ac34f488-e416-417d-aa93-5b73aaed88cb","system_id":"levelo_inurba_marseille","lat":43.29282,"lon":5.36833,"is_reserved":false,"is_disabled":false,"rental_uris":{"android":"levelo://app?vid=ac34f488-e416-417d-aa93-5b73aaed88cb","ios":"levelo://app?vid=ac34f488-e416-417d-aa93-5b73aaed88cb"},"vehicle_type_id":"4","last_reported":1781517715,"current_range_meters":8800,"station_id":"ce4bhbp2rcd13ifvqesg","pricing_plan_id":"cebpf4jnsgd1na2vs0mg"},{"bike_id":"21e9b6dc-5983-4010-8701-8f21410b46ab","system_id":"levelo_inurba_marseille","lat":43.28034,"lon":5.35311,"is_reserved":false,"is_disabled":true,"rental_uris":{"android":"levelo://app?vid=21e9b6dc-5983-4010-8701-8f21410b46ab","ios":"levelo://app?vid=21e9b6dc-5983-4010-8701-8f21410b46ab"},"vehicle_type_id":"4","last_reported":1781517715,"current_range_meters":8800,"station_id":"","pricing_plan_id":"cebpf4jnsgd1na2vs0mg"},{"bike_id":"f639ad02-a6dd-4b32-b641-1ded2d8703ac","system_id":"levelo_inurba_marseille","lat":43.28924,"lon":5.36389,"is_reserved":false,"is_disabled":false,"rental_uris":{"android":"levelo://app?vid=f639ad02-a6dd-4b32-b641-1ded2d8703ac","ios":"levelo://app?vid=f639ad02-a6dd-4b32-b641-1ded2d8703ac"},"vehicle_type_id":"4","last_reported":1781517715,"current_range_meters":8800,"station_id":"ce4bhc92rcd13ifvqetg","pricing_plan_id":"cebpf4jnsgd1na2vs0mg"},{"bike_id":"6921070b-bb89-4366-8ecf-691634e931f8","system_id":"levelo_inurba_marseille","lat":43.31988,"lon":5.38123,"is_reserved":false,"is_disabled":false,"rental_uris":{"android":"levelo://app?vid=6921070b-bb89-4366-8ecf-691634e931f8","ios":"levelo://app?vid=6921070b-bb89-4366-8ecf-691634e931f8"},"vehicle_type_id":"4","last_reported":1781517715,"current_range_meters":8800,"station_id":"ce4bhr12rcd13ifvqhpg","pricing_plan_id":"cebpf4jnsgd1na2vs0mg"},{"bike_id":"8d8ad495-f619-425b-be91-766cc46150ac","system_id":"levelo_inurba_marseille","lat":43.287018,"lon":5.399945,"is_reserved":false,"is_disabled":false,"rental_uris":{"android":"levelo://app?vid=8d8ad495-f619-425b-be91-766cc46150ac","ios":"levelo://app?vid=8d8ad495-f619-425b-be91-766cc46150ac"},"vehicle_type_id":"4","last_reported":1781517715,"current_range_meters":8800,"station_id":"ce4bho92rcd13ifvqh3g","pricing_plan_id":"cebpf4jnsgd1na2vs0mg"},{"bike_id":"9eb3bafc-6e81-4d57-8816-cba280c2e3b2","system_id":"levelo_inurba_marseille","lat":43.29623,"lon":5.3965,"is_reserved":false,"is_disabled":false,"rental_uris":{"android":"levelo://app?vid=9eb3bafc-6e81-4d57-8816-cba280c2e3b2","ios":"levelo://app?vid=9eb3bafc-6e81-4d57-8816-cba280c2e3b2"},"vehicle_type_id":"4","last_reported":1781517715,"current_range_meters":8800,"station_id":"","pricing_plan_id":"cebpf4jnsgd1na2vs0mg"},{"bike_id":"d1b2a1bb-5f3e-4dd9-b748-607e05d4203e","system_id":"levelo_inurba_marseille","lat":43.29537,"lon":5.39055,"is_reserved":false,"is_disabled":false,"rental_uris":{"android":"levelo://app?vid=d1b2a1bb-5f3e-4dd9-b748-607e05d4203e","ios":"levelo://app?vid=d1b2a1bb-5f3e-4dd9-b748-607e05d4203e"},