{"last_updated":1731679760,"ttl":60,"version":"2.2","data":{"bikes":[{"bike_id":"b749e4a1-c7b7-45e9-8637-04c88050686c","system_id":"levelo_inurba_marseille","lat":43.29779,"lon":5.37105,"is_reserved":false,"is_disabled":false,"rental_uris":{"android":"levelo://app?vid=b749e4a1-c7b7-45e9-8637-04c88050686c","ios":"levelo://app?vid=b749e4a1-c7b7-45e9-8637-04c88050686c"},"vehicle_type_id":"4","last_reported":1731679760,"current_range_meters":12000,"station_id":"ce4bgop2rcd13ifvqc1g","pricing_plan_id":"cebpf4jnsgd1na2vs0mg"},{"bike_id":"f4f6009c-51e1-4e68-9c5b-c68acf40286a","system_id":"levelo_inurba_marseille","lat":43.289394,"lon":5.366442,"is_reserved":false,"is_disabled":false,"rental_uris":{"android":"levelo://app?vid=f4f6009c-51e1-4e68-9c5b-c68acf40286a","ios":"levelo://app?vid=f4f6009c-51e1-4e68-9c5b-c68acf40286a"},"vehicle_type_id":"4","last_reported":1731679760,"current_range_meters":38800,"station_id":"ce4bhap2rcd13ifvqek0","pricing_plan_id":"cebpf4jnsgd1na2vs0mg"},{"bike_id":"7fbae472-31b7-4b05-84d4-5c1e60942366","system_id":"levelo_inurba_marseille","lat":43.29028,"lon":5.39967,"is_reserved":false,"is_disabled":false,"rental_uris":{"android":"levelo://app?vid=7fbae472-31b7-4b05-84d4-5c1e60942366","ios":"levelo://app?vid=7fbae472-31b7-4b05-84d4-5c1e60942366"},"vehicle_type_id":"4","last_reported":1731679760,"current_range_meters":1200,"station_id":"ce4bh392rcd13ifvqdm0","pricing_plan_id":"cebpf4jnsgd1na2vs0mg"},{"bike_id":"5856ad94-bc0e-4f57-993d-864d7234767f","system_id":"levelo_inurba_marseille","lat":43.33763,"lon":5.37483,"is_reserved":false,"is_disabled":false,"rental_uris":{"android":"levelo://app?vid=5856ad94-bc0e-4f57-993d-864d7234767f","ios":"levelo://app?vid=5856ad94-bc0e-4f57-993d-864d7234767f"},"vehicle_type_id":"4","last_reported":1731679760,"current_range_meters":37600,"station_id":"","pricing_plan_id":"cebpf4jnsgd1na2vs0mg"},{"bike_id":"aa1a5ada-34e5-4ee8-8d26-1c510285f33e","system_id":"levelo_inurba_marseille","lat":43.26211,"lon":5.37441,"is_reserved":false,"is_disabled":false,"rental_uris":{"android":"levelo://app?vid=aa1a5ada-34e5-4ee8-8d26-1c510285f33e","ios":"levelo://app?vid=aa1a5ada-34e5-4ee8-8d26-1c510285f33e"},"vehicle_type_id":"4","last_reported":1731679760,"current_range_meters":34000,"station_id":"ce4bhgp2rcd13ifvqfc0","pricing_plan_id":"cebpf4jnsgd1na2vs0mg"},{"bike_id":"bba30ccd-2b4f-42d8-b68d-f3f8cfd6f6dd","system_id":"levelo_inurba_marseille","lat":43.31231,"lon":5.3685,"is_reserved":false,"is_disabled":false,"rental_uris":{"android":"levelo://app?vid=bba30ccd-2b4f-42d8-b68d-f3f8cfd6f6dd","ios":"levelo://app?vid=bba30ccd-2b4f-42d8-b68d-f3f8cfd6f6dd"},"vehicle_type_id":"4","last_reported":1731679760,"current_range_meters":35600,"station_id":"ce4bgl92rcd13ifvqbq0","pricing_plan_id":"cebpf4jnsgd1na2vs0mg"},{"bike_id":"2afee23d-60ec-4c71-8062-c08dc0432401","system_id":"levelo_inurba_marseille","lat":43.264322,"lon":5.3789,"is_reserved":false,"is_disabled":false,"rental_uris":{"android":"levelo://app?vid=2afee23d-60ec-4c71-8062-c08dc0432401","ios":"levelo://app?vid=2afee23d-60ec-4c71-8062-c08dc0432401"},"vehicle_type_id":"4","last_reported":1731679760,"current_range_meters":35600,"station_id":"ce4bhnh2rcd13ifvqgtg","pricing_plan_id":"cebpf4jnsgd1na2vs0mg"},{"bike_id":"7e0c73d0-43b5-4018-8c64-1a20755ac697","system_id":"levelo_inurba_marseille","lat":43.29021,"lon":5.38652,"is_reserved":false,"is_disabled":false,"rental_uris":{"android":"levelo://app?vid=7e0c73d0-43b5-4018-8c64-1a20755ac697","ios":"levelo://app?vid=7e0c73d0-43b5-4018-8c64-1a20755ac697"},"vehicle_type_id":"4","last_reported":1731679760,"current_range_meters":16000,"station_id":"ce4bh4p2rcd13ifvqe0g","pricing_plan_id":"cebpf4jnsgd1na2vs0mg"},{"bike_id":"89a04468-50e1-4c1a-ac98-9cdfdc504e64","system_id":"levelo_inurba_marseille","lat":43.33023,"lon":5.3904,"is_reserved":false,"is_disabled":false,"rental_uris":{"android":"levelo://app?vid=89a04468-50e1-4c1a-ac98-9cdfdc504e64","ios":"levelo://app?vid=89a04468-50e1-4c1a-ac98-9cdfdc504e64"},"vehicle_type_id":"4","last_reported":1731679760,"current_range_meters":30800,"station_id":"ce4bhr92rcd13ifvqhrg","pricing_plan_id":"cebpf4jnsgd1na2vs0mg"},{"bike_id":"d1f7e48e-93df-47e1-b739-f221b5679274","system_id":"levelo_inurba_marseille","lat":43.25582,"lon":5.38238,"is_reserved":false,"is_disabled":false,"rental_uris":{"android":"levelo://app?vid=d1f7e48e-93df-47e1-b739-f221b5679274","ios":"levelo://app?vid=d1f7e48e-93df-47e1-b739-f221b5679274"},"vehicle_type_id":"4","last_reported":1731679760,"current_range_meters":16800,"station_id":"ce4bhih2rcd13ifvqfs0","pricing_plan_id":"cebpf4jnsgd1na2vs0mg"},{"bike_id":"172edf55-10e2-460d-9711-1b8be63e812b","system_id":"levelo_inurba_marseille","lat":43.29963,"lon":5.38496,"is_reserved":false,"is_disabled":false,"rental_uris":{"android":"levelo://app?vid=172edf55-10e2-460d-9711-1b8be63e812b","ios":"levelo://app?vid=172edf55-10e2-460d-9711-1b8be63e812b"},"vehicle_type_id":"4","last_reported":1731679760,"current_range_meters":6400,"station_id":"ce4bgj92rcd13ifvqbd0","pricing_plan_id":"cebpf4jnsgd1na2vs0mg"},{"bike_id":"ff5bab08-28d8-4b5d-869d-bb3744992c91","system_id":"levelo_inurba_marseille","lat":43.27672,"lon":5.38884,"is_reserved":false,"is_disabled":false,"rental_uris":{"android":"levelo://app?vid=ff5bab08-28d8-4b5d-869d-bb3744992c91","ios":"levelo://app?vid=ff5bab08-28d8-4b5d-869d-bb3744992c91"},"vehicle_type_id":"4","last_reported":1731679760,"current_range_meters":25600,"station_id":"ce4bhi12rcd13ifvqfo0","pricing_plan_id":"cebpf4jnsgd1na2vs0mg"},{"bike_id":"2f9eac48-32de-4955-b99b-3d1028bd04cb","system_id":"levelo_inurba_marseille","lat":43.28036,"lon":5.36939,"is_reserved":false,"is_disabled":false,"rental_uris":{"android":"levelo://app?vid=2f9eac48-32de-4955-b99b-3d1028bd04cb","ios":"levelo://app?vid=2f9eac48-32de-4955-b99b-3d1028bd04cb"},"vehicle_type_id":"4","last_reported":1731679760,"current_range_meters":31200,"station_id":"ce4bha12rcd13ifvqef0","pricing_plan_id":"cebpf4jnsgd1na2vs0mg"},{"bike_id":"57ba65f1-355a-478e-a5df-832a0180f911","system_id":"levelo_inurba_marseille","lat":43.24387,"lon":5.37062,"is_reserved":false,"is_disabled":false,"rental_uris":{"android":"levelo://app?vid=57ba65f1-355a-478e-a5df-832a0180f911","ios":"levelo://app?vid=57ba65f1-355a-478e-a5df-832a0180f911"},"vehicle_type_id":"4","last_reported":1731679760,"current_range_meters":30000,"station_id":"ce4bhhh2rcd13ifvqfk0","pricing_plan_id":"cebpf4jnsgd1na2vs0mg"},{"bike_id":"22ef052e-6907-4630-9588-a93982502237","system_id":"levelo_inurba_marseille","lat":43.289215,"lon":5.383916,"is_reserved":false,"is_disabled":false,"rental_uris":{"android":"levelo://app?vid=22ef052e-6907-4630-9588-a93982502237","ios":"levelo://app?vid=22ef052e-6907-4630-9588-a93982502237"},"vehicle_type_id":"4","last_reported":1731679760,"current_range_meters":6400,"station_id":"ce4bh612rcd13ifvqe6g","pricing_plan_id":"cebpf4jnsgd1na2vs0mg"},{"bike_id":"7a662aab-1e9a-4423-90fc-af939fd156df","system_id":"levelo_inurba_marseille","lat":43.28265,"lon":5.35063,"is_reserved":false,"is_disabled":false,"rental_uris":{"android":"levelo://app?vid=7a662aab-1e9a-4423-90fc-af939fd156df","ios":"levelo://app?vid=7a662aab-1e9a-4423-90fc-af939fd156df"},"vehicle_type_id":"4","last_reported":1731679760,"current_range_meters":38800,"station_id":"ce4bhbp2rcd13ifvqerg","pricing_plan_id":"cebpf4jnsgd1na2vs0mg"},{"bike_id":"2b5b4574-5d43-4c03-98f1-a97ed0d2f818","system_id":"levelo_inurba_marseille","lat":43.27363,"lon":5.36259,"is_reserved":false,"is_disabled":false,"rental_uris":{"android":"levelo://app?vid=2b5b4574-5d43-4c03-98f1-a97ed0d2f818","ios":"levelo://app?vid=2b5b4574-5d43-4c03-98f1-a97ed0d2f818"},"vehicle_type_id":"4","last_reported":1731679760,"current_range_meters":36800,"station_id":"ce4bhbh2rcd13ifvqeo0","pricing_plan_id":"cebpf4jnsgd1na2vs0mg"},{"bike_id":"a0721954-1a3f-425b-87d5-e4463e7bd4d1","system_id":"levelo_inurba_marseille","lat":43.31329,"lon":5.39698,"is_reserved":false,"is_disabled":false,"rental_uris":{"android":"levelo://app?vid=a0721954-1a3f-425b-87d5-e4463e7bd4d1","ios":"levelo://app?vid=a0721954-1a3f-425b-87d5-e4463e7bd4d1"},"vehicle_type_id":"4","last_reported":1731679760,"current_range_meters":38800,"station_id":"ce4bgvp2rcd13ifvqcu0","pricing_plan_id":"cebpf4jnsgd1na2vs0mg"},{"bike_id":"bf456e7e-3318-43eb-b5b6-172756a69b96","system_id":"levelo_inurba_marseille","lat":43.33768,"lon":5.37438,"is_reserved":false,"is_disabled":false,"rental_uris":{"android":"levelo://app?vid=bf456e7e-3318-43eb-b5b6-172756a69b96","ios":"levelo://app?vid=bf456e7e-3318-43eb-b5b6-172756a69b96"},"vehicle_type_id":"4","last_reported":1731679760,"current_range_meters":38800,"station_id":"","pricing_plan_id":"cebpf4jnsgd1na2vs0mg"},{"bike_id":"197bae48-e242-4a5a-8bb8-e0a0683b4983","system_id":"levelo_inurba_marseille","lat":43.29967,"lon":5.38497,"is_reserved":false,"is_disabled":false,"rental_uris":{"android":"levelo://app?vid=197bae48-e242-4a5a-8bb8-e0a0683b4983","ios":"levelo://app?vid=197bae48-e242-4a5a-8bb8-e0a0683b4983"},"vehicle_type_id":"4","last_reported":1731679760,"current_range_meters":38800,"station_id":"ce4bgj92rcd13ifvqbd0","pricing_plan_id":"cebpf4jnsgd1na2vs0mg"},{"bike_id":"6a6a808d-455b-4f24-bf9d-46c87d214f6b","system_id":"levelo_inurba_marseille","lat":43.26493,"lon":5.39546,"is_reserved":false,"is_disabled":false,"rental_uris":{"android":"levelo://app?vid=6a6a808d-455b-4f24-bf9d-46c87d214f6b","ios":"levelo://app?vid=6a6a808d-455b-4f24-bf9d-46c87d214f6b"},"vehicle_type_id":"4","last_reported":1731679760,"current_range_meters":35600,"station_id":"ce4bhi12rcd13ifvqfq0","pricing_plan_id":"cebpf4jnsgd1na2vs0mg"},{"bike_id":"6b0ea79e-cb12-4a50-9845-e4686b3cacc8","system_id":"levelo_inurba_marseille","lat":43.295751,"lon":5.399791,"is_reserved":false,"is_disabled":false,"rental_uris":{"android":"levelo://app?vid=6b0ea79e-cb12-4a50-9845-e4686b3cacc8","ios":"levelo://app?vid=6b0ea79e-cb12-4a50-9845-e4686b3cacc8"},"vehicle_type_id":"4","last_reported":1731679760,"current_range_meters":18800,"station_id":"","pricing_plan_id":"cebpf4jnsgd1na2vs0mg"},{"bike_id":"e4904f32-f21d-4759-b02f-f368b05fe38b","system_id":"levelo_inurba_marseille","lat":43.29007,"lon":5.35617,"is_reserved":false,"is_disabled":false,"rental_uris":{"android":"levelo://app?vid=e4904f32-f21d-4759-b02f-f368b05fe38b","ios":"levelo://app?vid=e4904f32-f21d-4759-b02f-f368b05fe38b"},"vehicle_type_id":"4","last_reported":1731679760,"current_range_meters":38800,"station_id":"ce4bhb92rcd13ifvqen0","pricing_plan_id":"cebpf4jnsgd1na2vs0mg"},{"bike_id":"0a57fa9f-2e55-46e8-867f-1fda3c624d9e","system_id":"levelo_inurba_marseille","lat":43.29619,"lon":5.37155,"is_reserved":false,"is_disabled":false,"rental_uris":{"android":"levelo://app?vid=0a57fa9f-2e55-46e8-867f-1fda3c624d9e","ios":"levelo://app?vid=0a57fa9f-2e55-46e8-867f-1fda3c624d9e"},"vehicle_type_id":"4","last_reported":1731679760,"current_range_meters":38800,"station_id":"ce4bgnh2rcd13ifvqc0g","pricing_plan_id":"cebpf4jnsgd1na2vs0mg"},{"bike_id":"4a74f469-1d99-48ee-a8ca-9199898c00a4","system_id":"levelo_inurba_marseille","lat":43.23197,"lon":5.35547,"is_reserved":false,"is_disabled":false,"rental_uris":{"android":"levelo://app?vid=4a74f469-1d99-48ee-a8ca-9199898c00a4","ios":"levelo://app?vid=4a74f469-1d99-48ee-a8ca-9199898c00a4"},"vehicle_type_id":"4","last_reported":1731679760,"current_range_meters":14800,"station_id":"ce4bhu92rcd13ifvqi70","pricing_plan_id":"cebpf4jnsgd1na2vs0mg"},{"bike_id":"20101b81-9713-4d4e-a436-1ddf3101e86f","system_id":"levelo_inurba_marseille","lat":43.25819,"lon":5.39447,"is_reserved":false,"is_disabled":false,"rental_uris":{"android":"levelo://app?vid=20101b81-9713-4d4e-a436-1ddf3101e86f","ios":"levelo://app?vid=20101b81-9713-4d4e-a436-1ddf3101e86f"},"vehicle_type_id":"4","last_reported":1731679760,"current_range_meters":25600,"station_id":"ce4bhip2rcd13ifvqft0","pricing_plan_id":"cebpf4jnsgd1na2vs0mg"},{"bike_id":"6ad5eaf7-6b74-4fa2-b913-01cc0933151c","system_id":"levelo_inurba_marseille","lat":43.28568,"lon":5.39509,"is_reserved":false,"is_disabled":false,"rental_uris":{"android":"levelo://app?vid=6ad5eaf7-6b74-4fa2-b913-01cc0933151c","ios":"levelo://app?vid=6ad5eaf7-6b74-4fa2-b913-01cc0933151c"},"vehicle_type_id":"4","last_reported":1731679760,"current_range_meters":38800,"station_id":"ce4bh292rcd13ifvqdg0","pricing_plan_id":"cebpf4jnsgd1na2vs0mg"},{"bike_id":"c2217320-ed63-4b7c-a5ea-5e33f864dc05","system_id":"levelo_inurba_marseille","lat":43.29713,"lon":5.37694,"is_reserved":false,"is_disabled":false,"rental_uris":{"android":"levelo://app?vid=c2217320-ed63-4b7c-a5ea-5e33f864dc05","ios":"levelo://app?vid=c2217320-ed63-4b7c-a5ea-5e33f864dc05"},"vehicle_type_id":"4","last_reported":1731679760,"current_range_meters":4800,"station_id":"ce4bgkh2rcd13ifvqbl0","pricing_plan_id":"cebpf4jnsgd1na2vs0mg"},{"bike_id":"ad90e739-0a27-4799-866e-18492760e810","system_id":"levelo_inurba_marseille","lat":43.24388,"lon":5.3706,"is_reserved":false,"is_disabled":false,"rental_uris":{"android":"levelo://app?vid=ad90e739-0a27-4799-866e-18492760e810","ios":"levelo://app?vid=ad90e739-0a27-4799-866e-18492760e810"},"vehicle_type_id":"4","last_reported":1731679760,"current_range_meters":25200,"station_id":"ce4bhhh2rcd13ifvqfk0","pricing_plan_id":"cebpf4jnsgd1na2vs0mg"},{"bike_id":"6babf76a-ba79-4056-910f-7a5af004d4ea","system_id":"levelo_inurba_marseille","lat":43.29008,"lon":5.35609,"is_reserved":false,"is_disabled":false,"rental_uris":{"android":"levelo://app?vid=6babf76a-ba79-4056-910f-7a5af004d4ea","ios":"levelo://app?vid=6babf76a-ba79-4056-910f-7a5af004d4ea"},"vehicle_type_id":"4","last_reported":1731679760,"current_range_meters":28800,"station_id":"ce4bhb92rcd13ifvqen0","pricing_plan_id":"cebpf4jnsgd1na2vs0mg"},{"bike_id":"e297c16a-5b5b-42b0-a5e7-4340b3af961d","system_id":"levelo_inurba_marseille","lat":43.248,"lon":5.37454,"is_reserved":false,"is_disabled":false,"rental_uris":{"android":"levelo://app?vid=e297c16a-5b5b-42b0-a5e7-4340b3af961d","ios":"levelo://app?vid=e297c16a-5b5b-42b0-a5e7-4340b3af961d"},"vehicle_type_id":"4","last_reported":1731679760,"current_range_meters":38800,"station_id":"ce4bhgh2rcd13ifvqfb0","pricing_plan_id":"cebpf4jnsgd1na2vs0mg"},{"bike_id":"15ee821e-07c5-4f35-a080-505cdb6668c8","system_id":"levelo_inurba_marseille","lat":43.25825,"lon":5.39454,"is_reserved":false,"is_disabled":false,"rental_uris":{"android":"levelo://app?vid=15ee821e-07c5-4f35-a080-505cdb6668c8","ios":"levelo://app?vid=15ee821e-07c5-4f35-a080-505cdb6668c8"},"vehicle_type_id":"4","last_reported":1731679760,"current_range_meters":16800,"station_id":"ce4bhip2rcd13ifvqft0","pricing_plan_id":"cebpf4jnsgd1na2vs0mg"},{"bike_id":"34894f31-0d58-4b99-bedf-fbccfa834d04","system_id":"levelo_inurba_marseille","lat":43.24076,"lon":5.37739,"is_reserved":false,"is_disabled":false,"rental_uris":{"android":"levelo://app?vid=34894f31-0d58-4b99-bedf-fbccfa834d04","ios":"levelo://app?vid=34894f31-0d58-4b99-bedf-fbccfa834d04"},"vehicle_type_id":"4","last_reported":1731679760,"current_range_meters":35600,"station_id":"ce4bhnp2rcd13ifvqgvg","pricing_plan_id":"cebpf4jnsgd1na2vs0mg"},{"bike_id":"0c21a761-f7b3-4c63-b4aa-6b71e7a913e6","system_id":"levelo_inurba_marseille","lat":43.27377,"lon":5.3627,"is_reserved":false,"is_disabled":false,"rental_uris":{"android":"levelo://app?vid=0c21a761-f7b3-4c63-b4aa-6b71e7a913e6","ios":"levelo://app?vid=0c21a761-f7b3-4c63-b4aa-6b71e7a913e6"},"vehicle_type_id":"4","last_reported":1731679760,"current_range_meters":5600,"station_id":"ce4bhbh2rcd13ifvqeo0","pricing_plan_id":"cebpf4jnsgd1na2vs0mg"},{"bike_id":"49bbe587-e1dc-487c-afb2-8cb647b5059e","system_id":"levelo_inurba_marseille","lat":43.304566,"lon":5.397585,"is_reserved":false,"is_disabled":false,"rental_uris":{"android":"levelo://app?vid=49bbe587-e1dc-487c-afb2-8cb647b5059e","ios":"levelo://app?vid=49bbe587-e1dc-487c-afb2-8cb647b5059e"},"vehicle_type_id":"4","last_reported":1731679760,"current_range_meters":34000,"station_id":"ce4bh092rcd13ifvqd20","pricing_plan_id":"cebpf4jnsgd1na2vs0mg"},{"bike_id":"d3fc1cee-e409-42d9-a184-4f732370bc8d","system_id":"levelo_inurba_marseille","lat":43.305304,"lon":5.384338,"is_reserved":false,"is_disabled":false,"rental_uris":{"android":"levelo://app?vid=d3fc1cee-e409-42d9-a184-4f732370bc8d","ios":"levelo://app?vid=d3fc1cee-e409-42d9-a184-4f732370bc8d"},"vehicle_type_id":"4","last_reported":1731679760,"current_range_meters":33600,"station_id":"ce4bgjh2rcd13ifvqbg0","pricing_plan_id":"cebpf4jnsgd1na2vs0mg"},{"bike_id":"7811c85e-ace6-4809-bc0b-7e8e9cefd74c","system_id":"levelo_inurba_marseille","lat":43.27376,"lon":5.3627,"is_reserved":false,"is_disabled":false,"rental_uris":{"android":"levelo://app?vid=7811c85e-ace6-4809-bc0b-7e8e9cefd74c","ios":"levelo://app?vid=7811c85e-ace6-4809-bc0b-7e8e9cefd74c"},"vehicle_type_id":"4","last_reported":1731679760,"current_range_meters":24800,"station_id":"ce4bhbh2rcd13ifvqeo0","pricing_plan_id":"cebpf4jnsgd1na2vs0mg"},{"bike_id":"dca415e1-3cc2-444c-bcc1-7ce6aedb9739","system_id":"levelo_inurba_marseille","lat":43.24163,"lon":5.36397,"is_reserved":false,"is_disabled":false,"rental_uris":{"android":"levelo://app?vid=dca415e1-3cc2-444c-bcc1-7ce6aedb9739","ios":"levelo://app?vid=dca415e1-3cc2-444c-bcc1-7ce6aedb9739"},"vehicle_type_id":"4","last_reported":1731679760,"current_range_meters":16800,"station_id":"cpo36qri1sfpv3e86is0","pricing_plan_id":"cebpf4jnsgd1na2vs0mg"},{"bike_id":"954015a0-299a-4e1d-90c1-a75faf597368","system_id":"levelo_inurba_marseille","lat":43.31226,"lon":5.36877,"is_reserved":false,"is_disabled":false,"rental_uris":{"android":"levelo://app?vid=954015a0-299a-4e1d-90c1-a75faf597368","ios":"levelo://app?vid=954015a0-299a-4e1d-90c1-a75faf597368"},"vehicle_type_id":"4","last_reported":1731679760,"current_range_meters":33600,"station_id":"ce4bgl92rcd13ifvqbq0","pricing_plan_id":"cebpf4jnsgd1na2vs0mg"},{"bike_id":"9c9e1bea-fd18-46b2-9df8-aa22a51f5f0c","system_id":"levelo_inurba_marseille","lat":43.32044,"lon":5.41548,"is_reserved":false,"is_disabled":false,"rental_uris":{"android":"levelo://app?vid=9c9e1bea-fd18-46b2-9df8-aa22a51f5f0c","ios":"levelo://app?vid=9c9e1bea-fd18-46b2-9df8-aa22a51f5f0c"},"vehicle_type_id":"4","last_reported":1731679760,"current_range_meters":30000,"station_id":"ce4bhq92rcd13ifvqhkg","pricing_plan_id":"cebpf4jnsgd1na2vs0mg"},{"bike_id":"0dd5c336-8bf7-409f-a046-4f44d557e694","system_id":"levelo_inurba_marseille","lat":43.337229,"lon":5.391802,"is_reserved":false,"is_disabled":false,"rental_uris":{"android":"levelo://app?vid=0dd5c336-8bf7-409f-a046-4f44d557e694","ios":"levelo://app?vid=0dd5c336-8bf7-409f-a046-4f44d557e694"},"vehicle_type_id":"4","last_reported":1731679760,"current_range_meters":39200,"station_id":"ce4bhr92rcd13ifvqhsg","pricing_plan_id":"cebpf4jnsgd1na2vs0mg"},{"bike_id":"b36ce367-ddaa-417a-8d68-1bc1f9b41180","system_id":"levelo_inurba_marseille","lat":43.25719,"lon":5.41114,"is_reserved":false,"is_disabled":false,"rental_uris":{"android":"levelo://app?vid=b36ce367-ddaa-417a-8d68-1bc1f9b41180","ios":"levelo://app?vid=b36ce367-ddaa-417a-8d68-1bc1f9b41180"},"vehicle_type_id":"4","last_reported":1731679760,"current_range_meters":4000,"station_id":"ce4bhkp2rcd13ifvqgd0","pricing_plan_id":"cebpf4jnsgd1na2vs0mg"},{"bike_id":"92d08bf8-1ff0-4fe9-a903-de23c72ea602","system_id":"levelo_inurba_marseille","lat":43.31708,"lon":5.37825,"is_reserved":false,"is_disabled":false,"rental_uris":{"android":"levelo://app?vid=92d08bf8-1ff0-4fe9-a903-de23c72ea602","ios":"levelo://app?vid=92d08bf8-1ff0-4fe9-a903-de23c72ea602"},"vehicle_type_id":"4","last_reported":1731679760,"current_range_meters":25600,"station_id":"ce4bgth2rcd13ifvqch0","pricing_plan_id":"cebpf4jnsgd1na2vs0mg"},{"bike_id":"93503fa9-c56a-4f74-880b-17e8634a5a0f","system_id":"levelo_inurba_marseille","lat":43.24388,"lon":5.37066,"is_reserved":false,"is_disabled":false,"rental_uris":{"android":"levelo://app?vid=93503fa9-c56a-4f74-880b-17e8634a5a0f","ios":"levelo://app?vid=93503fa9-c56a-4f74-880b-17e8634a5a0f"},"vehicle_type_id":"4","last_reported":1731679760,"current_range_meters":30000,"station_id":"ce4bhhh2rcd13ifvqfk0","pricing_plan_id":"cebpf4jnsgd1na2vs0mg"},{"bike_id":"145c09e4-50b8-4d44-8a5e-674da230215e","system_id":"levelo_inurba_marseille","lat":43.27049,"lon":5.40266,"is_reserved":false,"is_disabled":false,"rental_uris":{"android":"levelo://app?vid=145c09e4-50b8-4d44-8a5e-674da230215e","ios":"levelo://app?vid=145c09e4-50b8-4d44-8a5e-674da230215e"},"vehicle_type_id":"4","last_reported":1731679760,"current_range_meters":35200,"station_id":"ce4bhk92rcd13ifvqgc0","pricing_plan_id":"cebpf4jnsgd1na2vs0mg"},{"bike_id":"631284bc-ca79-4566-a19e-c81968ea3fef","system_id":"levelo_inurba_marseille","lat":43.26682,"lon":5.38273,"is_reserved":false,"is_disabled":false,"rental_uris":{"android":"levelo://app?vid=631284bc-ca79-4566-a19e-c81968ea3fef","ios":"levelo://app?vid=631284bc-ca79-4566-a19e-c81968ea3fef"},"vehicle_type_id":"4","last_reported":1731679760,"current_range_meters":29600,"station_id":"ce4bhg92rcd13ifvqf90","pricing_plan_id":"cebpf4jnsgd1na2vs0mg"},{"bike_id":"7857af21-8d4b-431a-a0af-a6cbd0cfd56f","system_id":"levelo_inurba_marseille","lat":43.31232,"lon":5.36873,"is_reserved":false,"is_disabled":false,"rental_uris":{"android":"levelo://app?vid=7857af21-8d4b-431a-a0af-a6cbd0cfd56f","ios":"levelo://app?vid=7857af21-8d4b-431a-a0af-a6cbd0cfd56f"},"vehicle_type_id":"4","last_reported":1731679760,"current_range_meters":39200,"station_id":"ce4bgl92rcd13ifvqbq0","pricing_plan_id":"cebpf4jnsgd1na2vs0mg"},{"bike_id":"fd9efbe4-c792-466e-a52c-40849e9aee9d","system_id":"levelo_inurba_marseille","lat":43.29965,"lon":5.38485,"is_reserved":false,"is_disabled":false,"rental_uris":{"android":"levelo://app?vid=fd9efbe4-c792-466e-a52c-40849e9aee9d","ios":"levelo://app?vid=fd9efbe4-c792-466e-a52c-40849e9aee9d"},"vehicle_type_id":"4","last_reported":1731679760,"current_range_meters":37600,"station_id":"ce4bgj92rcd13ifvqbd0","pricing_plan_id":"cebpf4jnsgd1na2vs0mg"},{"bike_id":"d8a33cb4-113f-41d7-a78c-0846d835da3e","system_id":"levelo_inurba_marseille","lat":43.29035,"lon":5.37569,"is_reserved":false,"is_disabled":false,"rental_uris":{"android":"levelo://app?vid=d8a33cb4-113f-41d7-a78c-0846d835da3e","ios":"levelo://app?vid=d8a33cb4-113f-41d7-a78c-0846d835da3e"},"vehicle_type_id":"4","last_reported":1731679760,"current_range_meters":20400,"station_id":"ce4bh692rcd13ifvqe90","pricing_plan_id":"cebpf4jnsgd1na2vs0mg"},{"bike_id":"ac6358ba-2919-45de-8d36-3a65f522d99d","system_id":"levelo_inurba_marseille","lat":43.28038,"lon":5.36954,"is_reserved":false,"is_disabled":false,"rental_uris":{"android":"levelo://app?vid=ac6358ba-2919-45de-8d36-3a65f522d99d","ios":"levelo://app?vid=ac6358ba-2919-45de-8d36-3a65f522d99d"},"vehicle_type_id":"4","last_reported":1731679760,"current_range_meters":10000,"station_id":"ce4bha12rcd13ifvqef0","pricing_plan_id":"cebpf4jnsgd1na2vs0mg"},{"bike_id":"b779ee5b-b49c-4376-b81a-1df4bb350cc1","system_id":"levelo_inurba_marseille","lat":43.24545,"lon":5.39524,"is_reserved":false,"is_disabled":false,"rental_uris":{"android":"levelo://app?vid=b779ee5b-b49c-4376-b81a-1df4bb350cc1","ios":"levelo://app?vid=b779ee5b-b49c-4376-b81a-1df4bb350cc1"},"vehicle_type_id":"4","last_reported":1731679760,"current_range_meters":27200,"station_id":"ce4bhlp2rcd13ifvqgjg","pricing_plan_id":"cebpf4jnsgd1na2vs0mg"},{"bike_id":"df00b515-6f4d-40eb-adde-888d85bd0f6b","system_id":"levelo_inurba_marseille","lat":43.27069,"lon":5.42282,"is_reserved":false,"is_disabled":false,"rental_uris":{"android":"levelo://app?vid=df00b515-6f4d-40eb-adde-888d85bd0f6b","ios":"levelo://app?vid=df00b515-6f4d-40eb-adde-888d85bd0f6b"},"vehicle_type_id":"4","last_reported":1731679760,"current_range_meters":10000,"station_id":"ce4bhk92rcd13ifvqgb0","pricing_plan_id":"cebpf4jnsgd1na2vs0mg"},{"bike_id":"44aba617-3574-4308-8e69-031838617271","system_id":"levelo_inurba_marseille","lat":43.26032,"lon":5.37549,"is_reserved":false,"is_disabled":false,"rental_uris":{"android":"levelo://app?vid=44aba617-3574-4308-8e69-031838617271","ios":"levelo://app?vid=44aba617-3574-4308-8e69-031838617271"},"vehicle_type_id":"4","last_reported":1731679760,"current_range_meters":30000,"station_id":"ce4bhgh2rcd13ifvqfa0","pricing_plan_id":"cebpf4jnsgd1na2vs0mg"},{"bike_id":"78ffe1d3-a37f-4854-9f44-4cf86f87bdfc","system_id":"levelo_inurba_marseille","lat":43.29301,"lon":5.3718,"is_reserved":false,"is_disabled":false,"rental_uris":{"android":"levelo://app?vid=78ffe1d3-a37f-4854-9f44-4cf86f87bdfc","ios":"levelo://app?vid=78ffe1d3-a37f-4854-9f44-4cf86f87bdfc"},"vehicle_type_id":"4","last_reported":1731679760,"current_range_meters":19200,"station_id":"ce4bgh92rcd13ifvqb40","pricing_plan_id":"cebpf4jnsgd1na2vs0mg"},{"bike_id":"e229226f-5c35-4352-8909-818c0580333b","system_id":"levelo_inurba_marseille","lat":43.26061,"lon":5.39399,"is_reserved":false,"is_disabled":false,"rental_uris":{"android":"levelo://app?vid=e229226f-5c35-4352-8909-818c0580333b","ios":"levelo://app?vid=e229226f-5c35-4352-8909-818c0580333b"},"vehicle_type_id":"4","last_reported":1731679760,"current_range_meters":37600,"station_id":"ce4bhh92rcd13ifvqfj0","pricing_plan_id":"cebpf4jnsgd1na2vs0mg"},{"bike_id":"c6004910-0375-4b4e-afa3-1d5f1f5b4002","system_id":"levelo_inurba_marseille","lat":43.28405,"lon":5.34989,"is_reserved":false,"is_disabled":false,"rental_uris":{"android":"levelo://app?vid=c6004910-0375-4b4e-afa3-1d5f1f5b4002","ios":"levelo://app?vid=c6004910-0375-4b4e-afa3-1d5f1f5b4002"},"vehicle_type_id":"4","last_reported":1731679760,"current_range_meters":10000,"station_id":"ce4bhbh2rcd13ifvqepg","pricing_plan_id":"cebpf4jnsgd1na2vs0mg"},{"bike_id":"10e31298-7ef0-4047-a905-d4452af3264e","system_id":"levelo_inurba_marseille","lat":43.24994,"lon":5.38935,"is_reserved":false,"is_disabled":false,"rental_uris":{"android":"levelo://app?vid=10e31298-7ef0-4047-a905-d4452af3264e","ios":"levelo://app?vid=10e31298-7ef0-4047-a905-d4452af3264e"},"vehicle_type_id":"4","last_reported":1731679760,"current_range_meters":32400,"station_id":"ce4bhgp2rcd13ifvqfd0","pricing_plan_id":"cebpf4jnsgd1na2vs0mg"},{"bike_id":"ffa2c3f5-2bd6-40cd-a73b-165f89f3db8d","system_id":"levelo_inurba_marseille","lat":43.29597,"lon":5.3811,"is_reserved":false,"is_disabled":false,"rental_uris":{"android":"levelo://app?vid=ffa2c3f5-2bd6-40cd-a73b-165f89f3db8d","ios":"levelo://app?vid=ffa2c3f5-2bd6-40cd-a73b-165f89f3db8d"},"vehicle_type_id":"4","last_reported":1731679760,"current_range_meters":8800,"station_id":"ce4bgl12rcd13ifvqbo0","pricing_plan_id":"cebpf4jnsgd1na2vs0mg"},{"bike_id":"6b8eba9e-251e-401f-9b82-4a96d08ef40f","system_id":"levelo_inurba_marseille","lat":43.33017,"lon":5.39049,"is_reserved":false,"is_disabled":false,"rental_uris":{"android":"levelo://app?vid=6b8eba9e-251e-401f-9b82-4a96d08ef40f","ios":"levelo://app?vid=6b8eba9e-251e-401f-9b82-4a96d08ef40f"},"vehicle_type_id":"4","last_reported":1731679760,"current_range_meters":23200,"station_id":"ce4bhr92rcd13ifvqhrg","pricing_plan_id":"cebpf4jnsgd1na2vs0mg"},{"bike_id":"096ace2b-e505-453d-8b01-e6db072e6b64","system_id":"levelo_inurba_marseille","lat":43.27074,"lon":5.42287,"is_reserved":false,"is_disabled":false,"rental_uris":{"android":"levelo://app?vid=096ace2b-e505-453d-8b01-e6db072e6b64","ios":"levelo://app?vid=096ace2b-e505-453d-8b01-e6db072e6b64"},"vehicle_type_id":"4","last_reported":1731679760,"current_range_meters":4400,"station_id":"ce4bhk92rcd13ifvqgb0","pricing_plan_id":"cebpf4jnsgd1na2vs0mg"},{"bike_id":"0171ef7d-fb0d-47c1-87c0-c9702427d369","system_id":"levelo_inurba_marseille","lat":43.28612,"lon":5.35106,"is_reserved":false,"is_disabled":false,"rental_uris":{"android":"levelo://app?vid=0171ef7d-fb0d-47c1-87c0-c9702427d369","ios":"levelo://app?vid=0171ef7d-fb0d-47c1-87c0-c9702427d369"},"vehicle_type_id":"4","last_reported":1731679760,"current_range_meters":23200,"station_id":"ce4bhch2rcd13ifvqeug","pricing_plan_id":"cebpf4jnsgd1na2vs0mg"},{"bike_id":"c974cc8b-299b-4d52-81c8-4e50a91b9225","system_id":"levelo_inurba_marseille","lat":43.33745,"lon":5.37487,"is_reserved":false,"is_disabled":false,"rental_uris":{"android":"levelo://app?vid=c974cc8b-299b-4d52-81c8-4e50a91b9225","ios":"levelo://app?vid=c974cc8b-299b-4d52-81c8-4e50a91b9225"},"vehicle_type_id":"4","last_reported":1731679760,"current_range_meters":38800,"station_id":"","pricing_plan_id":"cebpf4jnsgd1na2vs0mg"},{"bike_id":"f86a601e-26e3-440e-a7e5-894f75bad9f4","system_id":"levelo_inurba_marseille","lat":43.337444,"lon":5.374475,"is_reserved":false,"is_disabled":false,"rental_uris":{"android":"levelo://app?vid=f86a601e-26e3-440e-a7e5-894f75bad9f4","ios":"levelo://app?vid=f86a601e-26e3-440e-a7e5-894f75bad9f4"},"vehicle_type_id":"4","last_reported":1731679760,"current_range_meters":23200,"station_id":"","pricing_plan_id":"cebpf4jnsgd1na2vs0mg"},{"bike_id":"81846f47-3abd-4555-ad2e-a0b4bbc3d46e","system_id":"levelo_inurba_marseille","lat":43.27566,"lon":5.38426,"is_reserved":false,"is_disabled":false,"rental_uris":{"android":"levelo://app?vid=81846f47-3abd-4555-ad2e-a0b4bbc3d46e","ios":"levelo://app?vid=81846f47-3abd-4555-ad2e-a0b4bbc3d46e"},"vehicle_type_id":"4","last_reported":1731679760,"current_range_meters":25600,"station_id":"ce4bhh92rcd13ifvqfi0","pricing_plan_id":"cebpf4jnsgd1na2vs0mg"},{"bike_id":"1eb97dbf-5446-4ab0-b07f-9456d20ddc92","system_id":"levelo_inurba_marseille","lat":43.28406,"lon":5.34993,"is_reserved":false,"is_disabled":false,"rental_uris":{"android":"levelo://app?vid=1eb97dbf-5446-4ab0-b07f-9456d20ddc92","ios":"levelo://app?vid=1eb97dbf-5446-4ab0-b07f-9456d20ddc92"},"vehicle_type_id":"4","last_reported":1731679760,"current_range_meters":28400,"station_id":"ce4bhbh2rcd13ifvqepg","pricing_plan_id":"cebpf4jnsgd1na2vs0mg"},{"bike_id":"b2a2d94f-736c-466c-8c56-d1af380a6a7f","system_id":"levelo_inurba_marseille","lat":43.26555,"lon":5.37299,"is_reserved":false,"is_disabled":false,"rental_uris":{"android":"levelo://app?vid=b2a2d94f-736c-466c-8c56-d1af380a6a7f","ios":"levelo://app?vid=b2a2d94f-736c-466c-8c56-d1af380a6a7f"},"vehicle_type_id":"4","last_reported":1731679760,"current_range_meters":32400,"station_id":"ce4bhg12rcd13ifvqf70","pricing_plan_id":"cebpf4jnsgd1na2vs0mg"},{"bike_id":"1636156c-cecd-4e4c-86d9-d0c9f055e76e","system_id":"levelo_inurba_marseille","lat":43.2981,"lon":5.38092,"is_reserved":false,"is_disabled":false,"rental_uris":{"android":"levelo://app?vid=1636156c-cecd-4e4c-86d9-d0c9f055e76e","ios":"levelo://app?vid=1636156c-cecd-4e4c-86d9-d0c9f055e76e"},"vehicle_type_id":"4","last_reported":1731679760,"current_range_meters":28800,"station_id":"ce4bgip2rcd13ifvqbb0","pricing_plan_id":"cebpf4jnsgd1na2vs0mg"},{"bike_id":"f891d33c-7bdf-4346-ae45-18fb1b5899f5","system_id":"levelo_inurba_marseille","lat":43.29798,"lon":5.38111,"is_reserved":false,"is_disabled":false,"rental_uris":{"android":"levelo://app?vid=f891d33c-7bdf-4346-ae45-18fb1b5899f5","ios":"levelo://app?vid=f891d33c-7bdf-4346-ae45-18fb1b5899f5"},"vehicle_type_id":"4","last_reported":1731679760,"current_range_meters":33600,"station_id":"ce4bgip2rcd13ifvqbb0","pricing_plan_id":"cebpf4jnsgd1na2vs0mg"},{"bike_id":"c7606a79-6927-46a8-93a6-cfeccedb514a","system_id":"levelo_inurba_marseille","lat":43.25863,"lon":5.39904,"is_reserved":false,"is_disabled":false,"rental_uris":{"android":"levelo://app?vid=c7606a79-6927-46a8-93a6-cfeccedb514a","ios":"levelo://app?vid=c7606a79-6927-46a8-93a6-cfeccedb514a"},"vehicle_type_id":"4","last_reported":1731679760,"current_range_meters":24000,"station_id":"ce4bhl92rcd13ifvqghg","pricing_plan_id":"cebpf4jnsgd1na2vs0mg"},{"bike_id":"beba84cd-a5b5-41ab-bcae-36dc23dca579","system_id":"levelo_inurba_marseille","lat":43.25869,"lon":5.39896,"is_reserved":false,"is_disabled":false,"rental_uris":{"android":"levelo://app?vid=beba84cd-a5b5-41ab-bcae-36dc23dca579","ios":"levelo://app?vid=beba84cd-a5b5-41ab-bcae-36dc23dca579"},"vehicle_type_id":"4","last_reported":1731679760,"current_range_meters":4400,"station_id":"ce4bhl92rcd13ifvqghg","pricing_plan_id":"cebpf4jnsgd1na2vs0mg"},{"bike_id":"210b0a6f-e2fe-4027-b4c9-751a647fca5d","system_id":"levelo_inurba_marseille","lat":43.30134,"lon":5.37423,"is_reserved":false,"is_disabled":false,"rental_uris":{"android":"levelo://app?vid=210b0a6f-e2fe-4027-b4c9-751a647fca5d","ios":"levelo://app?vid=210b0a6f-e2fe-4027-b4c9-751a647fca5d"},"vehicle_type_id":"4","last_reported":1731679760,"current_range_meters":38400,"station_id":"ce4bgs92rcd13ifvqcc0","pricing_plan_id":"cebpf4jnsgd1na2vs0mg"},{"bike_id":"0e9cab2c-02c4-4e13-96fc-ca8ffd2bce04","system_id":"levelo_inurba_marseille","lat":43.30142,"lon":5.37417,"is_reserved":false,"is_disabled":false,"rental_uris":{"android":"levelo://app?vid=0e9cab2c-02c4-4e13-96fc-ca8ffd2bce04","ios":"levelo://app?vid=0e9cab2c-02c4-4e13-96fc-ca8ffd2bce04"},"vehicle_type_id":"4","last_reported":1731679760,"current_range_meters":12000,"station_id":"ce4bgs92rcd13ifvqcc0","pricing_plan_id":"cebpf4jnsgd1na2vs0mg"},{"bike_id":"b0b76e5c-b704-4328-bd3b-69fd2b68fc25","system_id":"levelo_inurba_marseille","lat":43.32542,"lon":5.41431,"is_reserved":false,"is_disabled":false,"rental_uris":{"android":"levelo://app?vid=b0b76e5c-b704-4328-bd3b-69fd2b68fc25","ios":"levelo://app?vid=b0b76e5c-b704-4328-bd3b-69fd2b68fc25"},"vehicle_type_id":"4","last_reported":1731679760,"current_range_meters":12800,"station_id":"ce4bhq12rcd13ifvqhhg","pricing_plan_id":"cebpf4jnsgd1na2vs0mg"},{"bike_id":"6a6e4760-0b16-465a-b6b2-bad3c0a41468","system_id":"levelo_inurba_marseille","lat":43.31484,"lon":5.37292,"is_reserved":false,"is_disabled":false,"rental_uris":{"android":"levelo://app?vid=6a6e4760-0b16-465a-b6b2-bad3c0a41468","ios":"levelo://app?vid=6a6e4760-0b16-465a-b6b2-bad3c0a41468"},"vehicle_type_id":"4","last_reported":1731679760,"current_range_meters":38800,"station_id":"ce4bgt12rcd13ifvqcd0","pricing_plan_id":"cebpf4jnsgd1na2vs0mg"},{"bike_id":"ba4e27ae-54af-4d9d-8bf0-4e525dd34b96","system_id":"levelo_inurba_marseille","lat":43.24072,"lon":5.3776,"is_reserved":false,"is_disabled":false,"rental_uris":{"android":"levelo://app?vid=ba4e27ae-54af-4d9d-8bf0-4e525dd34b96","ios":"levelo://app?vid=ba4e27ae-54af-4d9d-8bf0-4e525dd34b96"},"vehicle_type_id":"4","last_reported":1731679760,"current_range_meters":35200,"station_id":"ce4bhnp2rcd13ifvqgvg","pricing_plan_id":"cebpf4jnsgd1na2vs0mg"},{"bike_id":"421461ed-5761-40b0-adf6-57c3be6e8140","system_id":"levelo_inurba_marseille","lat":43.30883,"lon":5.39647,"is_reserved":false,"is_disabled":false,"rental_uris":{"android":"levelo://app?vid=421461ed-5761-40b0-adf6-57c3be6e8140","ios":"levelo://app?vid=421461ed-5761-40b0-adf6-57c3be6e8140"},"vehicle_type_id":"4","last_reported":1731679760,"current_range_meters":13600,"station_id":"ce4bh012rcd13ifvqcv0","pricing_plan_id":"cebpf4jnsgd1na2vs0mg"},{"bike_id":"d7c6ef7f-6c48-4af2-8f6c-7899f1120de4","system_id":"levelo_inurba_marseille","lat":43.28268,"lon":5.35063,"is_reserved":false,"is_disabled":false,"rental_uris":{"android":"levelo://app?vid=d7c6ef7f-6c48-4af2-8f6c-7899f1120de4","ios":"levelo://app?vid=d7c6ef7f-6c48-4af2-8f6c-7899f1120de4"},"vehicle_type_id":"4","last_reported":1731679760,"current_range_meters":27600,"station_id":"ce4bhbp2rcd13ifvqerg","pricing_plan_id":"cebpf4jnsgd1na2vs0mg"},{"bike_id":"8883056a-a87c-4e5e-ac65-12ce42225ec4","system_id":"levelo_inurba_marseille","lat":43.30426,"lon":5.39755,"is_reserved":false,"is_disabled":false,"rental_uris":{"android":"levelo://app?vid=8883056a-a87c-4e5e-ac65-12ce42225ec4","ios":"levelo://app?vid=8883056a-a87c-4e5e-ac65-12ce42225ec4"},"vehicle_type_id":"4","last_reported":1731679760,"current_range_meters":24000,"station_id":"ce4bh092rcd13ifvqd20","pricing_plan_id":"cebpf4jnsgd1na2vs0mg"},{"bike_id":"60346686-846e-43e0-b1f0-095f872d71c2","system_id":"levelo_inurba_marseille","lat":43.337444,"lon":5.374475,"is_reserved":false,"is_disabled":false,"rental_uris":{"android":"levelo://app?vid=60346686-846e-43e0-b1f0-095f872d71c2","ios":"levelo://app?vid=60346686-846e-43e0-b1f0-095f872d71c2"},"vehicle_type_id":"4","last_reported":1731679760,"current_range_meters":38800,"station_id":"","pricing_plan_id":"cebpf4jnsgd1na2vs0mg"},{"bike_id":"98d248a2-65e9-45e6-a0e5-ded316c191c1","system_id":"levelo_inurba_marseille","lat":43.2439,"lon":5.37061,"is_reserved":false,"is_disabled":false,"rental_uris":{"android":"levelo://app?vid=98d248a2-65e9-45e6-a0e5-ded316c191c1","ios":"levelo://app?vid=98d248a2-65e9-45e6-a0e5-ded316c191c1"},"vehicle_type_id":"4","last_reported":1731679760,"current_range_meters":39200,"station_id":"ce4bhhh2rcd13ifvqfk0","pricing_plan_id":"cebpf4jnsgd1na2vs0mg"},{"bike_id":"92e3ad17-17c9-4714-a148-ef9436ad6113","system_id":"levelo_inurba_marseille","lat":43.22934,"lon":5.35388,"is_reserved":false,"is_disabled":false,"rental_uris":{"android":"levelo://app?vid=92e3ad17-17c9-4714-a148-ef9436ad6113","ios":"levelo://app?vid=92e3ad17-17c9-4714-a148-ef9436ad6113"},"vehicle_type_id":"4","last_reported":1731679760,"current_range_meters":38800,"station_id":"cpo3532slgdg3j2ikp40","pricing_plan_id":"cebpf4jnsgd1na2vs0mg"},{"bike_id":"965b3a46-4f76-4aa9-b5ba-b1a6e45b1bb3","system_id":"levelo_inurba_marseille","lat":43.31758,"lon":5.39027,"is_reserved":false,"is_disabled":false,"rental_uris":{"android":"levelo://app?vid=965b3a46-4f76-4aa9-b5ba-b1a6e45b1bb3","ios":"levelo://app?vid=965b3a46-4f76-4aa9-b5ba-b1a6e45b1bb3"},"vehicle_type_id":"4","last_reported":1731679760,"current_range_meters":9200,"station_id":"ce4bhqp2rcd13ifvqhng","pricing_plan_id":"cebpf4jnsgd1na2vs0mg"},{"bike_id":"0ae58578-c2ab-4c85-8029-15a265b56315","system_id":"levelo_inurba_marseille","lat":43.28273,"lon":5.35056,"is_reserved":false,"is_disabled":false,"rental_uris":{"android":"levelo://app?vid=0ae58578-c2ab-4c85-8029-15a265b56315","ios":"levelo://app?vid=0ae58578-c2ab-4c85-8029-15a265b56315"},"vehicle_type_id":"4","last_reported":1731679760,"current_range_meters":6400,"station_id":"ce4bhbp2rcd13ifvqerg","pricing_plan_id":"cebpf4jnsgd1na2vs0mg"},{"bike_id":"5326c5f8-bba7-40e6-bfc7-8e986a3bddf3","system_id":"levelo_inurba_marseille","lat":43.31042,"lon":5.37454,"is_reserved":false,"is_disabled":false,"rental_uris":{"android":"levelo://app?vid=5326c5f8-bba7-40e6-bfc7-8e986a3bddf3","ios":"levelo://app?vid=5326c5f8-bba7-40e6-bfc7-8e986a3bddf3"},"vehicle_type_id":"4","last_reported":1731679760,"current_range_meters":22800,"station_id":"ce4bgt12rcd13ifvqcd0","pricing_plan_id":"cebpf4jnsgd1na2vs0mg"},{"bike_id":"f612ab3c-c51d-4a06-8c74-8cba9c1f51de","system_id":"levelo_inurba_marseille","lat":43.29972,"lon":5.37179,"is_reserved":false,"is_disabled":false,"rental_uris":{"android":"levelo://app?vid=f612ab3c-c51d-4a06-8c74-8cba9c1f51de","ios":"levelo://app?vid=f612ab3c-c51d-4a06-8c74-8cba9c1f51de"},"vehicle_type_id":"4","last_reported":1731679760,"current_range_meters":39200,"station_id":"ce4bgr92rcd13ifvqc7g","pricing_plan_id":"cebpf4jnsgd1na2vs0mg"},{"bike_id":"ba0f8a3a-206a-4321-a10c-9f857fbbf60f","system_id":"levelo_inurba_marseille","lat":43.23148,"lon":5.43722,"is_reserved":false,"is_disabled":false,"rental_uris":{"android":"levelo://app?vid=ba0f8a3a-206a-4321-a10c-9f857fbbf60f","ios":"levelo://app?vid=ba0f8a3a-206a-4321-a10c-9f857fbbf60f"},"vehicle_type_id":"4","last_reported":1731679760,"current_range_meters":38800,"station_id":"ce4bhmp2rcd13ifvqgog","pricing_plan_id":"cebpf4jnsgd1na2vs0mg"},{"bike_id":"53d7bcd3-9b91-45ae-a329-82890c3251d9","system_id":"levelo_inurba_marseille","lat":43.26678,"lon":5.38267,"is_reserved":false,"is_disabled":false,"rental_uris":{"android":"levelo://app?vid=53d7bcd3-9b91-45ae-a329-82890c3251d9","ios":"levelo://app?vid=53d7bcd3-9b91-45ae-a329-82890c3251d9"},"vehicle_type_id":"4","last_reported":1731679760,"current_range_meters":10000,"station_id":"ce4bhg92rcd13ifvqf90","pricing_plan_id":"cebpf4jnsgd1na2vs0mg"},{"bike_id":"eeac3b06-fb1d-4a05-bc34-5770017c2201","system_id":"levelo_inurba_marseille","lat":43.29007,"lon":5.35621,"is_reserved":false,"is_disabled":false,"rental_uris":{"android":"levelo://app?vid=eeac3b06-fb1d-4a05-bc34-5770017c2201","ios":"levelo://app?vid=eeac3b06-fb1d-4a05-bc34-5770017c2201"},"vehicle_type_id":"4","last_reported":1731679760,"current_range_meters":38800,"station_id":"ce4bhb92rcd13ifvqen0","pricing_plan_id":"cebpf4jnsgd1na2vs0mg"},{"bike_id":"73e0cdd4-dbed-44e9-8f18-f00dd137c24e","system_id":"levelo_inurba_marseille","lat":43.24159,"lon":5.36405,"is_reserved":false,"is_disabled":false,"rental_uris":{"android":"levelo://app?vid=73e0cdd4-dbed-44e9-8f18-f00dd137c24e","ios":"levelo://app?vid=73e0cdd4-dbed-44e9-8f18-f00dd137c24e"},"vehicle_type_id":"4","last_reported":1731679760,"current_range_meters":8000,"station_id":"cpo36qri1sfpv3e86is0","pricing_plan_id":"cebpf4jnsgd1na2vs0mg"},{"bike_id":"59f99004-36c9-458c-8439-95641b14ae36","system_id":"levelo_inurba_marseille","lat":43.31684,"lon":5.40473,"is_reserved":false,"is_disabled":false,"rental_uris":{"android":"levelo://app?vid=59f99004-36c9-458c-8439-95641b14ae36","ios":"levelo://app?vid=59f99004-36c9-458c-8439-95641b14ae36"},"vehicle_type_id":"4","last_reported":1731679760,"current_range_meters":4000,"station_id":"ce4bh012rcd13ifvqd00","pricing_plan_id":"cebpf4jnsgd1na2vs0mg"},{"bike_id":"881eacb7-0ffc-4171-9405-9084fa6720be","system_id":"levelo_inurba_marseille","lat":43.3055,"lon":5.36538,"is_reserved":false,"is_disabled":false,"rental_uris":{"android":"levelo://app?vid=881eacb7-0ffc-4171-9405-9084fa6720be","ios":"levelo://app?vid=881eacb7-0ffc-4171-9405-9084fa6720be"},"vehicle_type_id":"4","last_reported":1731679760,"current_range_meters":30000,"station_id":"ce4bgs12rcd13ifvqcag","pricing_plan_id":"cebpf4jnsgd1na2vs0mg"},{"bike_id":"7946c576-3cb6-4409-a0c0-d2f9b2c2fa76","system_id":"levelo_inurba_marseille","lat":43.30139,"lon":5.38091,"is_reserved":false,"is_disabled":false,"rental_uris":{"android":"levelo://app?vid=7946c576-3cb6-4409-a0c0-d2f9b2c2fa76","ios":"levelo://app?vid=7946c576-3cb6-4409-a0c0-d2f9b2c2fa76"},"vehicle_type_id":"4","last_reported":1731679760,"current_range_meters":34800,"station_id":"ce4bgjp2rcd13ifvqbh0","pricing_plan_id":"cebpf4jnsgd1na2vs0mg"},{"bike_id":"919ea64b-c3eb-4b30-a78f-15d3f708e154","system_id":"levelo_inurba_marseille","lat":43.24382,"lon":5.37063,"is_reserved":false,"is_disabled":false,"rental_uris":{"android":"levelo://app?vid=919ea64b-c3eb-4b30-a78f-15d3f708e154","ios":"levelo://app?vid=919ea64b-c3eb-4b30-a78f-15d3f708e154"},"vehicle_type_id":"4","last_reported":1731679760,"current_range_meters":24400,"station_id":"ce4bhhh2rcd13ifvqfk0","pricing_plan_id":"cebpf4jnsgd1na2vs0mg"},{"bike_id":"193ef4a0-958b-4f93-b34e-5c05737917f0","system_id":"levelo_inurba_marseille","lat":43.23192,"lon":5.35554,"is_reserved":false,"is_disabled":false,"rental_uris":{"android":"levelo://app?vid=193ef4a0-958b-4f93-b34e-5c05737917f0","ios":"levelo://app?vid=193ef4a0-958b-4f93-b34e-5c05737917f0"},"vehicle_type_id":"4","last_reported":1731679760,"current_range_meters":21600,"station_id":"ce4bhu92rcd13ifvqi70","pricing_plan_id":"cebpf4jnsgd1na2vs0mg"},{"bike_id":"f958f471-cf92-436a-bc8d-8e57613d3090","system_id":"levelo_inurba_marseille","lat":43.28465,"lon":5.35882,"is_reserved":false,"is_disabled":false,"rental_uris":{"android":"levelo://app?vid=f958f471-cf92-436a-bc8d-8e57613d3090","ios":"levelo://app?vid=f958f471-cf92-436a-bc8d-8e57613d3090"},"vehicle_type_id":"4","last_reported":1731679760,"current_range_meters":38800,"station_id":"ce4bhah2rcd13ifvqei0","pricing_plan_id":"cebpf4jnsgd1na2vs0mg"},{"bike_id":"9580ce4d-2bf8-4c45-b896-f6faffc1ccef","system_id":"levelo_inurba_marseille","lat":43.29712,"lon":5.37688,"is_reserved":false,"is_disabled":false,"rental_uris":{"android":"levelo://app?vid=9580ce4d-2bf8-4c45-b896-f6faffc1ccef","ios":"levelo://app?vid=9580ce4d-2bf8-4c45-b896-f6faffc1ccef"},"vehicle_type_id":"4","last_reported":1731679760,"current_range_meters":2800,"station_id":"ce4bgkh2rcd13ifvqbl0","pricing_plan_id":"cebpf4jnsgd1na2vs0mg"},{"bike_id":"53043055-cdb5-43f3-bbc1-444652add9c6","system_id":"levelo_inurba_marseille","lat":43.2606,"lon":5.39396,"is_reserved":false,"is_disabled":false,"rental_uris":{"android":"levelo://app?vid=53043055-cdb5-43f3-bbc1-444652add9c6","ios":"levelo://app?vid=53043055-cdb5-43f3-bbc1-444652add9c6"},"vehicle_type_id":"4","last_reported":1731679760,"current_range_meters":18000,"station_id":"ce4bhh92rcd13ifvqfj0","pricing_plan_id":"cebpf4jnsgd1na2vs0mg"},{"bike_id":"bb6e4153-aa1a-40c9-bcd4-df111dd9b4b7","system_id":"levelo_inurba_marseille","lat":43.28451,"lon":5.35882,"is_reserved":false,"is_disabled":false,"rental_uris":{"android":"levelo://app?vid=bb6e4153-aa1a-40c9-bcd4-df111dd9b4b7","ios":"levelo://app?vid=bb6e4153-aa1a-40c9-bcd4-df111dd9b4b7"},"vehicle_type_id":"4","last_reported":1731679760,"current_range_meters":33200,"station_id":"ce4bhah2rcd13ifvqei0","pricing_plan_id":"cebpf4jnsgd1na2vs0mg"},{"bike_id":"e714ad1d-4e91-488a-ba9b-f1fb121b2b82","system_id":"levelo_inurba_marseille","lat":43.30545,"lon":5.36546,"is_reserved":false,"is_disabled":false,"rental_uris":{"android":"levelo://app?vid=e714ad1d-4e91-488a-ba9b-f1fb121b2b82","ios":"levelo://app?vid=e714ad1d-4e91-488a-ba9b-f1fb121b2b82"},"vehicle_type_id":"4","last_reported":1731679760,"current_range_meters":16000,"station_id":"ce4bgs12rcd13ifvqcag","pricing_plan_id":"cebpf4jnsgd1na2vs0mg"},{"bike_id":"9d15a50c-8c1e-4489-bea1-bd5c4beae83c","system_id":"levelo_inurba_marseille","lat":43.30321,"lon":5.40437,"is_reserved":false,"is_disabled":false,"rental_uris":{"android":"levelo://app?vid=9d15a50c-8c1e-4489-bea1-bd5c4beae83c","ios":"levelo://app?vid=9d15a50c-8c1e-4489-bea1-bd5c4beae83c"},"vehicle_type_id":"4","last_reported":1731679760,"current_range_meters":26800,"station_id":"ce4bh012rcd13ifvqd10","pricing_plan_id":"cebpf4jnsgd1na2vs0mg"},{"bike_id":"cbba8c3c-446b-4047-a4bc-688ef590ffa2","system_id":"levelo_inurba_marseille","lat":43.285669,"lon":5.394934,"is_reserved":false,"is_disabled":false,"rental_uris":{"android":"levelo://app?vid=cbba8c3c-446b-4047-a4bc-688ef590ffa2","ios":"levelo://app?vid=cbba8c3c-446b-4047-a4bc-688ef590ffa2"},"vehicle_type_id":"4","last_reported":1731679760,"current_range_meters":38800,"station_id":"ce4bh292rcd13ifvqdg0","pricing_plan_id":"cebpf4jnsgd1na2vs0mg"},{"bike_id":"3954dd37-8389-4e48-b138-27e1c188a614","system_id":"levelo_inurba_marseille","lat":43.31235,"lon":5.36855,"is_reserved":false,"is_disabled":false,"rental_uris":{"android":"levelo://app?vid=3954dd37-8389-4e48-b138-27e1c188a614","ios":"levelo://app?vid=3954dd37-8389-4e48-b138-27e1c188a614"},"vehicle_type_id":"4","last_reported":1731679760,"current_range_meters":35200,"station_id":"ce4bgl92rcd13ifvqbq0","pricing_plan_id":"cebpf4jnsgd1na2vs0mg"},{"bike_id":"c660f1a9-8a91-478f-b3b9-c0a6402e7011","system_id":"levelo_inurba_marseille","lat":43.29617,"lon":5.37708,"is_reserved":false,"is_disabled":false,"rental_uris":{"android":"levelo://app?vid=c660f1a9-8a91-478f-b3b9-c0a6402e7011","ios":"levelo://app?vid=c660f1a9-8a91-478f-b3b9-c0a6402e7011"},"vehicle_type_id":"4","last_reported":1731679760,"current_range_meters":38000,"station_id":"ce4bgi92rcd13ifvqb90","pricing_plan_id":"cebpf4jnsgd1na2vs0mg"},{"bike_id":"83ddea1f-92ed-4c0e-8439-48e8f426275e","system_id":"levelo_inurba_marseille","lat":43.29627,"lon":5.40598,"is_reserved":false,"is_disabled":false,"rental_uris":{"android":"levelo://app?vid=83ddea1f-92ed-4c0e-8439-48e8f426275e","ios":"levelo://app?vid=83ddea1f-92ed-4c0e-8439-48e8f426275e"},"vehicle_type_id":"4","last_reported":1731679760,"current_range_meters":14800,"station_id":"ce4bh0h2rcd13ifvqd60","pricing_plan_id":"cebpf4jnsgd1na2vs0mg"},{"bike_id":"df077bde-1595-45f9-84e3-1fbeb4f8ca1a","system_id":"levelo_inurba_marseille","lat":43.2998,"lon":5.37189,"is_reserved":false,"is_disabled":false,"rental_uris":{"android":"levelo://app?vid=df077bde-1595-45f9-84e3-1fbeb4f8ca1a","ios":"levelo://app?vid=df077bde-1595-45f9-84e3-1fbeb4f8ca1a"},"vehicle_type_id":"4","last_reported":1731679760,"current_range_meters":19200,"station_id":"ce4bgr92rcd13ifvqc7g","pricing_plan_id":"cebpf4jnsgd1na2vs0mg"},{"bike_id":"201ab4e5-91a5-480b-bb0e-3c69c655de3b","system_id":"levelo_inurba_marseille","lat":43.2993,"lon":5.37483,"is_reserved":false,"is_disabled":false,"rental_uris":{"android":"levelo://app?vid=201ab4e5-91a5-480b-bb0e-3c69c655de3b","ios":"levelo://app?vid=201ab4e5-91a5-480b-bb0e-3c69c655de3b"},"vehicle_type_id":"4","last_reported":1731679760,"current_range_meters":36800,"station_id":"ce4bhbh2rcd13ifvqepg","pricing_plan_id":"cebpf4jnsgd1na2vs0mg"},{"bike_id":"b47cb991-57c8-4ef2-ba6f-88a50e1a1219","system_id":"levelo_inurba_marseille","lat":43.22935,"lon":5.35378,"is_reserved":false,"is_disabled":false,"rental_uris":{"android":"levelo://app?vid=b47cb991-57c8-4ef2-ba6f-88a50e1a1219","ios":"levelo://app?vid=b47cb991-57c8-4ef2-ba6f-88a50e1a1219"},"vehicle_type_id":"4","last_reported":1731679760,"current_range_meters":36800,"station_id":"cpo3532slgdg3j2ikp40","pricing_plan_id":"cebpf4jnsgd1na2vs0mg"},{"bike_id":"2a54e76e-cd76-4a10-940f-30917d8bcf09","system_id":"levelo_inurba_marseille","lat":43.22922,"lon":5.35387,"is_reserved":false,"is_disabled":false,"rental_uris":{"android":"levelo://app?vid=2a54e76e-cd76-4a10-940f-30917d8bcf09","ios":"levelo://app?vid=2a54e76e-cd76-4a10-940f-30917d8bcf09"},"vehicle_type_id":"4","last_reported":1731679760,"current_range_meters":9200,"station_id":"cpo3532slgdg3j2ikp40","pricing_plan_id":"cebpf4jnsgd1na2vs0mg"},{"bike_id":"ae514e1b-2a9b-4f79-86ba-46576db14f4e","system_id":"levelo_inurba_marseille","lat":43.32111,"lon":5.36772,"is_reserved":false,"is_disabled":false,"rental_uris":{"android":"levelo://app?vid=ae514e1b-2a9b-4f79-86ba-46576db14f4e","ios":"levelo://app?vid=ae514e1b-2a9b-4f79-86ba-46576db14f4e"},"vehicle_type_id":"4","last_reported":1731679760,"current_range_meters":37600,"station_id":"ce4bhr92rcd13ifvqhrg","pricing_plan_id":"cebpf4jnsgd1na2vs0mg"},{"bike_id":"cd280b72-4b1c-469e-80c0-581e97995a4e","system_id":"levelo_inurba_marseille","lat":43.28345,"lon":5.3811,"is_reserved":false,"is_disabled":false,"rental_uris":{"android":"levelo://app?vid=cd280b72-4b1c-469e-80c0-581e97995a4e","ios":"levelo://app?vid=cd280b72-4b1c-469e-80c0-581e97995a4e"},"vehicle_type_id":"4","last_reported":1731679760,"current_range_meters":32000,"station_id":"ce4bh412rcd13ifvqdr0","pricing_plan_id":"cebpf4jnsgd1na2vs0mg"},{"bike_id":"f8493f69-fbdb-4886-b610-53d42796d4a7","system_id":"levelo_inurba_marseille","lat":43.31081,"lon":5.4243,"is_reserved":false,"is_disabled":false,"rental_uris":{"android":"levelo://app?vid=f8493f69-fbdb-4886-b610-53d42796d4a7","ios":"levelo://app?vid=f8493f69-fbdb-4886-b610-53d42796d4a7"},"vehicle_type_id":"4","last_reported":1731679760,"current_range_meters":22800,"station_id":"ce4bhp92rcd13ifvqhag","pricing_plan_id":"cebpf4jnsgd1na2vs0mg"},{"bike_id":"ab3e9974-73b8-450f-9978-1a657412acab","system_id":"levelo_inurba_marseille","lat":43.28461,"lon":5.35893,"is_reserved":false,"is_disabled":false,"rental_uris":{"android":"levelo://app?vid=ab3e9974-73b8-450f-9978-1a657412acab","ios":"levelo://app?vid=ab3e9974-73b8-450f-9978-1a657412acab"},"vehicle_type_id":"4","last_reported":1731679760,"current_range_meters":38000,"station_id":"ce4bhah2rcd13ifvqei0","pricing_plan_id":"cebpf4jnsgd1na2vs0mg"},{"bike_id":"76fda271-4bcd-4529-8397-8074a1eff7fe","system_id":"levelo_inurba_marseille","lat":43.337444,"lon":5.374475,"is_reserved":false,"is_disabled":false,"rental_uris":{"android":"levelo://app?vid=76fda271-4bcd-4529-8397-8074a1eff7fe","ios":"levelo://app?vid=76fda271-4bcd-4529-8397-8074a1eff7fe"},"vehicle_type_id":"4","last_reported":1731679760,"current_range_meters":37600,"station_id":"","pricing_plan_id":"cebpf4jnsgd1na2vs0mg"},{"bike_id":"bef7ca68-0ccd-456c-a245-4471193ed987","system_id":"levelo_inurba_marseille","lat":43.26059,"lon":5.39393,"is_reserved":false,"is_disabled":false,"rental_uris":{"android":"levelo://app?vid=bef7ca68-0ccd-456c-a245-4471193ed987","ios":"levelo://app?vid=bef7ca68-0ccd-456c-a245-4471193ed987"},"vehicle_type_id":"4","last_reported":1731679760,"current_range_meters":38800,"station_id":"ce4bhh92rcd13ifvqfj0","pricing_plan_id":"cebpf4jnsgd1na2vs0mg"},{"bike_id":"7125cda5-6cac-4f0d-b24c-2d801b2955b5","system_id":"levelo_inurba_marseille","lat":43.23186,"lon":5.39988,"is_reserved":false,"is_disabled":false,"rental_uris":{"android":"levelo://app?vid=7125cda5-6cac-4f0d-b24c-2d801b2955b5","ios":"levelo://app?vid=7125cda5-6cac-4f0d-b24c-2d801b2955b5"},"vehicle_type_id":"4","last_reported":1731679760,"current_range_meters":39200,"station_id":"ce4bhn12rcd13ifvqgqg","pricing_plan_id":"cebpf4jnsgd1na2vs0mg"},{"bike_id":"c426093b-76d0-4e1c-96ce-2be4609800b4","system_id":"levelo_inurba_marseille","lat":43.29007,"lon":5.35614,"is_reserved":false,"is_disabled":false,"rental_uris":{"android":"levelo://app?vid=c426093b-76d0-4e1c-96ce-2be4609800b4","ios":"levelo://app?vid=c426093b-76d0-4e1c-96ce-2be4609800b4"},"vehicle_type_id":"4","last_reported":1731679760,"current_range_meters":32400,"station_id":"ce4bhb92rcd13ifvqen0","pricing_plan_id":"cebpf4jnsgd1na2vs0mg"},{"bike_id":"c8d81543-1c13-4766-ae5e-e51a93286c7c","system_id":"levelo_inurba_marseille","lat":43.29026,"lon":5.3814,"is_reserved":false,"is_disabled":false,"rental_uris":{"android":"levelo://app?vid=c8d81543-1c13-4766-ae5e-e51a93286c7c","ios":"levelo://app?vid=c8d81543-1c13-4766-ae5e-e51a93286c7c"},"vehicle_type_id":"4","last_reported":1731679760,"current_range_meters":8400,"station_id":"ce4bh4p2rcd13ifvqe1g","pricing_plan_id":"cebpf4jnsgd1na2vs0mg"},{"bike_id":"f710546f-2098-4f83-8e7a-6cc06384a317","system_id":"levelo_inurba_marseille","lat":43.23149,"lon":5.4372,"is_reserved":false,"is_disabled":false,"rental_uris":{"android":"levelo://app?vid=f710546f-2098-4f83-8e7a-6cc06384a317","ios":"levelo://app?vid=f710546f-2098-4f83-8e7a-6cc06384a317"},"vehicle_type_id":"4","last_reported":1731679760,"current_range_meters":33200,"station_id":"ce4bhmp2rcd13ifvqgog","pricing_plan_id":"cebpf4jnsgd1na2vs0mg"},{"bike_id":"6d757fef-4f26-43f9-ac2c-ffab39bf7dae","system_id":"levelo_inurba_marseille","lat":43.32249,"lon":5.36901,"is_reserved":false,"is_disabled":false,"rental_uris":{"android":"levelo://app?vid=6d757fef-4f26-43f9-ac2c-ffab39bf7dae","ios":"levelo://app?vid=6d757fef-4f26-43f9-ac2c-ffab39bf7dae"},"vehicle_type_id":"4","last_reported":1731679760,"current_range_meters":24000,"station_id":"","pricing_plan_id":"cebpf4jnsgd1na2vs0mg"},{"bike_id":"e6e2f63a-fab7-4cf8-8316-0417b217a4e4","system_id":"levelo_inurba_marseille","lat":43.27048,"lon":5.40264,"is_reserved":false,"is_disabled":false,"rental_uris":{"android":"levelo://app?vid=e6e2f63a-fab7-4cf8-8316-0417b217a4e4","ios":"levelo://app?vid=e6e2f63a-fab7-4cf8-8316-0417b217a4e4"},"vehicle_type_id":"4","last_reported":1731679760,"current_range_meters":27600,"station_id":"ce4bhk92rcd13ifvqgc0","pricing_plan_id":"cebpf4jnsgd1na2vs0mg"},{"bike_id":"fdc40bf7-dd1f-442a-b10e-f1ae0546c484","system_id":"levelo_inurba_marseille","lat":43.26023,"lon":5.37555,"is_reserved":false,"is_disabled":false,"rental_uris":{"android":"levelo://app?vid=fdc40bf7-dd1f-442a-b10e-f1ae0546c484","ios":"levelo://app?vid=fdc40bf7-dd1f-442a-b10e-f1ae0546c484"},"vehicle_type_id":"4","last_reported":1731679760,"current_range_meters":24800,"station_id":"ce4bhgh2rcd13ifvqfa0","pricing_plan_id":"cebpf4jnsgd1na2vs0mg"},{"bike_id":"f3975e9a-c0f8-472c-a99d-658eaabc3976","system_id":"levelo_inurba_marseille","lat":43.26551,"lon":5.3729,"is_reserved":false,"is_disabled":false,"rental_uris":{"android":"levelo://app?vid=f3975e9a-c0f8-472c-a99d-658eaabc3976","ios":"levelo://app?vid=f3975e9a-c0f8-472c-a99d-658eaabc3976"},"vehicle_type_id":"4","last_reported":1731679760,"current_range_meters":33600,"station_id":"ce4bhg12rcd13ifvqf70","pricing_plan_id":"cebpf4jnsgd1na2vs0mg"},{"bike_id":"2ebc919b-91fa-451d-aa51-bfed6b644219","system_id":"levelo_inurba_marseille","lat":43.23146,"lon":5.43732,"is_reserved":false,"is_disabled":false,"rental_uris":{"android":"levelo://app?vid=2ebc919b-91fa-451d-aa51-bfed6b644219","ios":"levelo://app?vid=2ebc919b-91fa-451d-aa51-bfed6b644219"},"vehicle_type_id":"4","last_reported":1731679760,"current_range_meters":38800,"station_id":"ce4bhmp2rcd13ifvqgog","pricing_plan_id":"cebpf4jnsgd1na2vs0mg"},{"bike_id":"de82eb66-07c7-4c0e-9713-81c083a0fcb8","system_id":"levelo_inurba_marseille","lat":43.28721,"lon":5.36089,"is_reserved":false,"is_disabled":false,"rental_uris":{"android":"levelo://app?vid=de82eb66-07c7-4c0e-9713-81c083a0fcb8","ios":"levelo://app?vid=de82eb66-07c7-4c0e-9713-81c083a0fcb8"},"vehicle_type_id":"4","last_reported":1731679760,"current_range_meters":26000,"station_id":"cki0cbj6b192h4jlfktg","pricing_plan_id":"cebpf4jnsgd1na2vs0mg"},{"bike_id":"d71bf661-b919-4efe-8037-8e65f2ba8745","system_id":"levelo_inurba_marseille","lat":43.29887,"lon":5.38899,"is_reserved":false,"is_disabled":false,"rental_uris":{"android":"levelo://app?vid=d71bf661-b919-4efe-8037-8e65f2ba8745","ios":"levelo://app?vid=d71bf661-b919-4efe-8037-8e65f2ba8745"},"vehicle_type_id":"4","last_reported":1731679760,"current_range_meters":38400,"station_id":"ce4bh392rcd13ifvqdl0","pricing_plan_id":"cebpf4jnsgd1na2vs0mg"},{"bike_id":"aa6dc477-f689-4f54-a32c-590a92ca76b2","system_id":"levelo_inurba_marseille","lat":43.23183,"lon":5.39991,"is_reserved":false,"is_disabled":false,"rental_uris":{"android":"levelo://app?vid=aa6dc477-f689-4f54-a32c-590a92ca76b2","ios":"levelo://app?vid=aa6dc477-f689-4f54-a32c-590a92ca76b2"},"vehicle_type_id":"4","last_reported":1731679760,"current_range_meters":6000,"station_id":"ce4bhn12rcd13ifvqgqg","pricing_plan_id":"cebpf4jnsgd1na2vs0mg"},{"bike_id":"858c964c-9286-411e-b21e-219d3e432e38","system_id":"levelo_inurba_marseille","lat":43.29822,"lon":5.36327,"is_reserved":false,"is_disabled":false,"rental_uris":{"android":"levelo://app?vid=858c964c-9286-411e-b21e-219d3e432e38","ios":"levelo://app?vid=858c964c-9286-411e-b21e-219d3e432e38"},"vehicle_type_id":"4","last_reported":1731679760,"current_range_meters":35600,"station_id":"ce4bgn92rcd13ifvqbvg","pricing_plan_id":"cebpf4jnsgd1na2vs0mg"},{"bike_id":"b38e639e-d12e-457c-9da2-11763fd88d86","system_id":"levelo_inurba_marseille","lat":43.24663,"lon":5.38166,"is_reserved":false,"is_disabled":false,"rental_uris":{"android":"levelo://app?vid=b38e639e-d12e-457c-9da2-11763fd88d86","ios":"levelo://app?vid=b38e639e-d12e-457c-9da2-11763fd88d86"},"vehicle_type_id":"4","last_reported":1731679760,"current_range_meters":30800,"station_id":"ce4bhih2rcd13ifvqfr0","pricing_plan_id":"cebpf4jnsgd1na2vs0mg"},{"bike_id":"22457814-38c8-4163-a0db-4cc6e2f3ba9b","system_id":"levelo_inurba_marseille","lat":43.23152,"lon":5.43719,"is_reserved":false,"is_disabled":false,"rental_uris":{"android":"levelo://app?vid=22457814-38c8-4163-a0db-4cc6e2f3ba9b","ios":"levelo://app?vid=22457814-38c8-4163-a0db-4cc6e2f3ba9b"},"vehicle_type_id":"4","last_reported":1731679760,"current_range_meters":6400,"station_id":"ce4bhmp2rcd13ifvqgog","pricing_plan_id":"cebpf4jnsgd1na2vs0mg"},{"bike_id":"37a22fc0-d25c-4606-a88d-953e5d774d37","system_id":"levelo_inurba_marseille","lat":43.24386,"lon":5.37065,"is_reserved":false,"is_disabled":false,"rental_uris":{"android":"levelo://app?vid=37a22fc0-d25c-4606-a88d-953e5d774d37","ios":"levelo://app?vid=37a22fc0-d25c-4606-a88d-953e5d774d37"},"vehicle_type_id":"4","last_reported":1731679760,"current_range_meters":14800,"station_id":"ce4bhhh2rcd13ifvqfk0","pricing_plan_id":"cebpf4jnsgd1na2vs0mg"},{"bike_id":"f8116ae0-69b4-4329-a9e1-83882f19e84e","system_id":"levelo_inurba_marseille","lat":43.30174,"lon":5.36621,"is_reserved":false,"is_disabled":false,"rental_uris":{"android":"levelo://app?vid=f8116ae0-69b4-4329-a9e1-83882f19e84e","ios":"levelo://app?vid=f8116ae0-69b4-4329-a9e1-83882f19e84e"},"vehicle_type_id":"4","last_reported":1731679760,"current_range_meters":38800,"station_id":"ce4bgrh2rcd13ifvqc8g","pricing_plan_id":"cebpf4jnsgd1na2vs0mg"},{"bike_id":"ed30e341-f2e3-4939-bee3-090b3706f497","system_id":"levelo_inurba_marseille","lat":43.25828,"lon":5.39434,"is_reserved":false,"is_disabled":false,"rental_uris":{"android":"levelo://app?vid=ed30e341-f2e3-4939-bee3-090b3706f497","ios":"levelo://app?vid=ed30e341-f2e3-4939-bee3-090b3706f497"},"vehicle_type_id":"4","last_reported":1731679760,"current_range_meters":30800,"station_id":"ce4bhip2rcd13ifvqft0","pricing_plan_id":"cebpf4jnsgd1na2vs0mg"},{"bike_id":"a5ce8633-489f-43d5-902e-127d66923462","system_id":"levelo_inurba_marseille","lat":43.30607,"lon":5.37236,"is_reserved":false,"is_disabled":false,"rental_uris":{"android":"levelo://app?vid=a5ce8633-489f-43d5-902e-127d66923462","ios":"levelo://app?vid=a5ce8633-489f-43d5-902e-127d66923462"},"vehicle_type_id":"4","last_reported":1731679760,"current_range_meters":10000,"station_id":"ce4bgqh2rcd13ifvqc4g","pricing_plan_id":"cebpf4jnsgd1na2vs0mg"},{"bike_id":"db9eb11d-1019-4a46-b3a1-995a3a298f26","system_id":"levelo_inurba_marseille","lat":43.27497,"lon":5.42458,"is_reserved":false,"is_disabled":false,"rental_uris":{"android":"levelo://app?vid=db9eb11d-1019-4a46-b3a1-995a3a298f26","ios":"levelo://app?vid=db9eb11d-1019-4a46-b3a1-995a3a298f26"},"vehicle_type_id":"4","last_reported":1731679760,"current_range_meters":18000,"station_id":"ce4bhn92rcd13ifvqgrg","pricing_plan_id":"cebpf4jnsgd1na2vs0mg"},{"bike_id":"4ff2c2f8-168f-42b2-a6db-12b3049b8ead","system_id":"levelo_inurba_marseille","lat":43.30906,"lon":5.36852,"is_reserved":false,"is_disabled":false,"rental_uris":{"android":"levelo://app?vid=4ff2c2f8-168f-42b2-a6db-12b3049b8ead","ios":"levelo://app?vid=4ff2c2f8-168f-42b2-a6db-12b3049b8ead"},"vehicle_type_id":"4","last_reported":1731679760,"current_range_meters":31200,"station_id":"ce4bgn92rcd13ifvqbvg","pricing_plan_id":"cebpf4jnsgd1na2vs0mg"},{"bike_id":"e6c29295-4d0e-4876-9a08-236a47a342b4","system_id":"levelo_inurba_marseille","lat":43.29789,"lon":5.38117,"is_reserved":false,"is_disabled":false,"rental_uris":{"android":"levelo://app?vid=e6c29295-4d0e-4876-9a08-236a47a342b4","ios":"levelo://app?vid=e6c29295-4d0e-4876-9a08-236a47a342b4"},"vehicle_type_id":"4","last_reported":1731679760,"current_range_meters":33200,"station_id":"ce4bgip2rcd13ifvqbb0","pricing_plan_id":"cebpf4jnsgd1na2vs0mg"},{"bike_id":"2e96577f-b529-4091-aa00-390383ff9cb6","system_id":"levelo_inurba_marseille","lat":43.304546,"lon":5.389445,"is_reserved":false,"is_disabled":false,"rental_uris":{"android":"levelo://app?vid=2e96577f-b529-4091-aa00-390383ff9cb6","ios":"levelo://app?vid=2e96577f-b529-4091-aa00-390383ff9cb6"},"vehicle_type_id":"4","last_reported":1731679760,"current_range_meters":39200,"station_id":"ce4bgk12rcd13ifvqbi0","pricing_plan_id":"cebpf4jnsgd1na2vs0mg"},{"bike_id":"32b2b641-dd34-4128-b2e7-6cc7f329c5e7","system_id":"levelo_inurba_marseille","lat":43.32538,"lon":5.41437,"is_reserved":false,"is_disabled":false,"rental_uris":{"android":"levelo://app?vid=32b2b641-dd34-4128-b2e7-6cc7f329c5e7","ios":"levelo://app?vid=32b2b641-dd34-4128-b2e7-6cc7f329c5e7"},"vehicle_type_id":"4","last_reported":1731679760,"current_range_meters":36800,"station_id":"ce4bhq12rcd13ifvqhhg","pricing_plan_id":"cebpf4jnsgd1na2vs0mg"},{"bike_id":"cb70bb28-2565-468e-b40e-deeab4180c2c","system_id":"levelo_inurba_marseille","lat":43.27493,"lon":5.42452,"is_reserved":false,"is_disabled":false,"rental_uris":{"android":"levelo://app?vid=cb70bb28-2565-468e-b40e-deeab4180c2c","ios":"levelo://app?vid=cb70bb28-2565-468e-b40e-deeab4180c2c"},"vehicle_type_id":"4","last_reported":1731679760,"current_range_meters":8800,"station_id":"ce4bhn92rcd13ifvqgrg","pricing_plan_id":"cebpf4jnsgd1na2vs0mg"},{"bike_id":"aaf8e28d-92c1-4478-ab7f-07a664f2a4c9","system_id":"levelo_inurba_marseille","lat":43.3014,"lon":5.37423,"is_reserved":false,"is_disabled":false,"rental_uris":{"android":"levelo://app?vid=aaf8e28d-92c1-4478-ab7f-07a664f2a4c9","ios":"levelo://app?vid=aaf8e28d-92c1-4478-ab7f-07a664f2a4c9"},"vehicle_type_id":"4","last_reported":1731679760,"current_range_meters":14400,"station_id":"ce4bgs92rcd13ifvqcc0","pricing_plan_id":"cebpf4jnsgd1na2vs0mg"},{"bike_id":"a7e16231-7dea-4a71-a0eb-64fe5ab1f818","system_id":"levelo_inurba_marseille","lat":43.2979,"lon":5.38109,"is_reserved":false,"is_disabled":false,"rental_uris":{"android":"levelo://app?vid=a7e16231-7dea-4a71-a0eb-64fe5ab1f818","ios":"levelo://app?vid=a7e16231-7dea-4a71-a0eb-64fe5ab1f818"},"vehicle_type_id":"4","last_reported":1731679760,"current_range_meters":8000,"station_id":"ce4bgip2rcd13ifvqbb0","pricing_plan_id":"cebpf4jnsgd1na2vs0mg"},{"bike_id":"b767641b-0e1c-4dfc-b4b4-892cb4304882","system_id":"levelo_inurba_marseille","lat":43.27068,"lon":5.42281,"is_reserved":false,"is_disabled":false,"rental_uris":{"android":"levelo://app?vid=b767641b-0e1c-4dfc-b4b4-892cb4304882","ios":"levelo://app?vid=b767641b-0e1c-4dfc-b4b4-892cb4304882"},"vehicle_type_id":"4","last_reported":1731679760,"current_range_meters":4400,"station_id":"ce4bhk92rcd13ifvqgb0","pricing_plan_id":"cebpf4jnsgd1na2vs0mg"},{"bike_id":"69e2feae-b5d5-4c3b-9360-f00c54565ece","system_id":"levelo_inurba_marseille","lat":43.29722,"lon":5.37684,"is_reserved":false,"is_disabled":false,"rental_uris":{"android":"levelo://app?vid=69e2feae-b5d5-4c3b-9360-f00c54565ece","ios":"levelo://app?vid=69e2feae-b5d5-4c3b-9360-f00c54565ece"},"vehicle_type_id":"4","last_reported":1731679760,"current_range_meters":25200,"station_id":"ce4bgkh2rcd13ifvqbl0","pricing_plan_id":"cebpf4jnsgd1na2vs0mg"},{"bike_id":"e14339e0-1837-4fa9-a858-86dc78e5d1a5","system_id":"levelo_inurba_marseille","lat":43.28042,"lon":5.36967,"is_reserved":false,"is_disabled":false,"rental_uris":{"android":"levelo://app?vid=e14339e0-1837-4fa9-a858-86dc78e5d1a5","ios":"levelo://app?vid=e14339e0-1837-4fa9-a858-86dc78e5d1a5"},"vehicle_type_id":"4","last_reported":1731679760,"current_range_meters":22400,"station_id":"ce4bha12rcd13ifvqef0","pricing_plan_id":"cebpf4jnsgd1na2vs0mg"},{"bike_id":"f78ded1a-4916-4a83-bfb0-a60feffb0725","system_id":"levelo_inurba_marseille","lat":43.29576,"lon":5.37519,"is_reserved":false,"is_disabled":false,"rental_uris":{"android":"levelo://app?vid=f78ded1a-4916-4a83-bfb0-a60feffb0725","ios":"levelo://app?vid=f78ded1a-4916-4a83-bfb0-a60feffb0725"},"vehicle_type_id":"4","last_reported":1731679760,"current_range_meters":31200,"station_id":"ce4bgh92rcd13ifvqb50","pricing_plan_id":"cebpf4jnsgd1na2vs0mg"},{"bike_id":"5e2699ee-8ebe-4d6e-8a33-746b5174c372","system_id":"levelo_inurba_marseille","lat":43.29798,"lon":5.38111,"is_reserved":false,"is_disabled":false,"rental_uris":{"android":"levelo://app?vid=5e2699ee-8ebe-4d6e-8a33-746b5174c372","ios":"levelo://app?vid=5e2699ee-8ebe-4d6e-8a33-746b5174c372"},"vehicle_type_id":"4","last_reported":1731679760,"current_range_meters":25200,"station_id":"ce4bgip2rcd13ifvqbb0","pricing_plan_id":"cebpf4jnsgd1na2vs0mg"},{"bike_id":"cf696df1-d972-4370-bc9b-52d865a65c73","system_id":"levelo_inurba_marseille","lat":43.3122,"lon":5.36852,"is_reserved":false,"is_disabled":false,"rental_uris":{"android":"levelo://app?vid=cf696df1-d972-4370-bc9b-52d865a65c73","ios":"levelo://app?vid=cf696df1-d972-4370-bc9b-52d865a65c73"},"vehicle_type_id":"4","last_reported":1731679760,"current_range_meters":38000,"station_id":"ce4bgl92rcd13ifvqbq0","pricing_plan_id":"cebpf4jnsgd1na2vs0mg"},{"bike_id":"b54f4471-f146-477a-ade3-58e1dea1b85e","system_id":"levelo_inurba_marseille","lat":43.337444,"lon":5.374475,"is_reserved":false,"is_disabled":false,"rental_uris":{"android":"levelo://app?vid=b54f4471-f146-477a-ade3-58e1dea1b85e","ios":"levelo://app?vid=b54f4471-f146-477a-ade3-58e1dea1b85e"},"vehicle_type_id":"4","last_reported":1731679760,"current_range_meters":36800,"station_id":"","pricing_plan_id":"cebpf4jnsgd1na2vs0mg"},{"bike_id":"9d57872f-7cb7-4569-9577-5b93503698c0","system_id":"levelo_inurba_marseille","lat":43.24166,"lon":5.36408,"is_reserved":false,"is_disabled":false,"rental_uris":{"android":"levelo://app?vid=9d57872f-7cb7-4569-9577-5b93503698c0","ios":"levelo://app?vid=9d57872f-7cb7-4569-9577-5b93503698c0"},"vehicle_type_id":"4","last_reported":1731679760,"current_range_meters":6000,"station_id":"cpo36qri1sfpv3e86is0","pricing_plan_id":"cebpf4jnsgd1na2vs0mg"},{"bike_id":"bd0fdb91-96ca-4ecb-a63b-75eaa52470fe","system_id":"levelo_inurba_marseille","lat":43.27992,"lon":5.40015,"is_reserved":false,"is_disabled":false,"rental_uris":{"android":"levelo://app?vid=bd0fdb91-96ca-4ecb-a63b-75eaa52470fe","ios":"levelo://app?vid=bd0fdb91-96ca-4ecb-a63b-75eaa52470fe"},"vehicle_type_id":"4","last_reported":1731679760,"current_range_meters":19200,"station_id":"ce4bho92rcd13ifvqh4g","pricing_plan_id":"cebpf4jnsgd1na2vs0mg"},{"bike_id":"3801d79e-aba9-453c-9e83-33f3550a7c41","system_id":"levelo_inurba_marseille","lat":43.24389,"lon":5.37053,"is_reserved":false,"is_disabled":false,"rental_uris":{"android":"levelo://app?vid=3801d79e-aba9-453c-9e83-33f3550a7c41","ios":"levelo://app?vid=3801d79e-aba9-453c-9e83-33f3550a7c41"},"vehicle_type_id":"4","last_reported":1731679760,"current_range_meters":37600,"station_id":"ce4bhhh2rcd13ifvqfk0","pricing_plan_id":"cebpf4jnsgd1na2vs0mg"},{"bike_id":"792531a3-4da6-4082-bd0a-16451cbb2558","system_id":"levelo_inurba_marseille","lat":43.26026,"lon":5.3755,"is_reserved":false,"is_disabled":false,"rental_uris":{"android":"levelo://app?vid=792531a3-4da6-4082-bd0a-16451cbb2558","ios":"levelo://app?vid=792531a3-4da6-4082-bd0a-16451cbb2558"},"vehicle_type_id":"4","last_reported":1731679760,"current_range_meters":21600,"station_id":"ce4bhgh2rcd13ifvqfa0","pricing_plan_id":"cebpf4jnsgd1na2vs0mg"},{"bike_id":"805cfe6b-be44-4949-bab5-57b1ce8478a4","system_id":"levelo_inurba_marseille","lat":43.33752,"lon":5.37459,"is_reserved":false,"is_disabled":false,"rental_uris":{"android":"levelo://app?vid=805cfe6b-be44-4949-bab5-57b1ce8478a4","ios":"levelo://app?vid=805cfe6b-be44-4949-bab5-57b1ce8478a4"},"vehicle_type_id":"4","last_reported":1731679760,"current_range_meters":33200,"station_id":"","pricing_plan_id":"cebpf4jnsgd1na2vs0mg"},{"bike_id":"acacdfc4-d24f-4466-8d6c-b7acbaa3c062","system_id":"levelo_inurba_marseille","lat":43.32041,"lon":5.41534,"is_reserved":false,"is_disabled":false,"rental_uris":{"android":"levelo://app?vid=acacdfc4-d24f-4466-8d6c-b7acbaa3c062","ios":"levelo://app?vid=acacdfc4-d24f-4466-8d6c-b7acbaa3c062"},"vehicle_type_id":"4","last_reported":1731679760,"current_range_meters":36800,"station_id":"ce4bhq92rcd13ifvqhkg","pricing_plan_id":"cebpf4jnsgd1na2vs0mg"},{"bike_id":"4b0cd02b-710e-4206-bb23-694dd52e493b","system_id":"levelo_inurba_marseille","lat":43.26032,"lon":5.37549,"is_reserved":false,"is_disabled":false,"rental_uris":{"android":"levelo://app?vid=4b0cd02b-710e-4206-bb23-694dd52e493b","ios":"levelo://app?vid=4b0cd02b-710e-4206-bb23-694dd52e493b"},"vehicle_type_id":"4","last_reported":1731679760,"current_range_meters":38800,"station_id":"ce4bhgh2rcd13ifvqfa0","pricing_plan_id":"cebpf4jnsgd1na2vs0mg"},{"bike_id":"5a427756-8a2a-4c85-83d0-551885eff5bf","system_id":"levelo_inurba_marseille","lat":43.30543,"lon":5.36549,"is_reserved":false,"is_disabled":false,"rental_uris":{"android":"levelo://app?vid=5a427756-8a2a-4c85-83d0-551885eff5bf","ios":"levelo://app?vid=5a427756-8a2a-4c85-83d0-551885eff5bf"},"vehicle_type_id":"4","last_reported":1731679760,"current_range_meters":38800,"station_id":"ce4bgs12rcd13ifvqcag","pricing_plan_id":"cebpf4jnsgd1na2vs0mg"},{"bike_id":"7530e9a7-c210-4d3b-8c3f-a401719009e5","system_id":"levelo_inurba_marseille","lat":43.31885,"lon":5.40742,"is_reserved":false,"is_disabled":false,"rental_uris":{"android":"levelo://app?vid=7530e9a7-c210-4d3b-8c3f-a401719009e5","ios":"levelo://app?vid=7530e9a7-c210-4d3b-8c3f-a401719009e5"},"vehicle_type_id":"4","last_reported":1731679760,"current_range_meters":28000,"station_id":"ce4bhq12rcd13ifvqhig","pricing_plan_id":"cebpf4jnsgd1na2vs0mg"},{"bike_id":"b4909505-da69-4076-80cf-827214fa5118","system_id":"levelo_inurba_marseille","lat":43.32658,"lon":5.40992,"is_reserved":false,"is_disabled":false,"rental_uris":{"android":"levelo://app?vid=b4909505-da69-4076-80cf-827214fa5118","ios":"levelo://app?vid=b4909505-da69-4076-80cf-827214fa5118"},"vehicle_type_id":"4","last_reported":1731679760,"current_range_meters":27600,"station_id":"ce4bhpp2rcd13ifvqhgg","pricing_plan_id":"cebpf4jnsgd1na2vs0mg"},{"bike_id":"b3eacabc-95a5-468a-a772-6fc78d568667","system_id":"levelo_inurba_marseille","lat":43.30541,"lon":5.36551,"is_reserved":false,"is_disabled":false,"rental_uris":{"android":"levelo://app?vid=b3eacabc-95a5-468a-a772-6fc78d568667","ios":"levelo://app?vid=b3eacabc-95a5-468a-a772-6fc78d568667"},"vehicle_type_id":"4","last_reported":1731679760,"current_range_meters":29600,"station_id":"ce4bgs12rcd13ifvqcag","pricing_plan_id":"cebpf4jnsgd1na2vs0mg"},{"bike_id":"debaec47-0b0a-41b6-9254-b9a23971ae87","system_id":"levelo_inurba_marseille","lat":43.3133,"lon":5.39699,"is_reserved":false,"is_disabled":false,"rental_uris":{"android":"levelo://app?vid=debaec47-0b0a-41b6-9254-b9a23971ae87","ios":"levelo://app?vid=debaec47-0b0a-41b6-9254-b9a23971ae87"},"vehicle_type_id":"4","last_reported":1731679760,"current_range_meters":35600,"station_id":"ce4bgvp2rcd13ifvqcu0","pricing_plan_id":"cebpf4jnsgd1na2vs0mg"},{"bike_id":"2aa3f76b-ef53-46a2-a673-a6691ad7bb32","system_id":"levelo_inurba_marseille","lat":43.31082,"lon":5.42431,"is_reserved":false,"is_disabled":false,"rental_uris":{"android":"levelo://app?vid=2aa3f76b-ef53-46a2-a673-a6691ad7bb32","ios":"levelo://app?vid=2aa3f76b-ef53-46a2-a673-a6691ad7bb32"},"vehicle_type_id":"4","last_reported":1731679760,"current_range_meters":27200,"station_id":"ce4bhp92rcd13ifvqhag","pricing_plan_id":"cebpf4jnsgd1na2vs0mg"},{"bike_id":"2cabdc2f-a853-4bc6-a4c8-f5fb689347bd","system_id":"levelo_inurba_marseille","lat":43.29302,"lon":5.37471,"is_reserved":false,"is_disabled":false,"rental_uris":{"android":"levelo://app?vid=2cabdc2f-a853-4bc6-a4c8-f5fb689347bd","ios":"levelo://app?vid=2cabdc2f-a853-4bc6-a4c8-f5fb689347bd"},"vehicle_type_id":"4","last_reported":1731679760,"current_range_meters":28000,"station_id":"ce4bgi12rcd13ifvqb70","pricing_plan_id":"cebpf4jnsgd1na2vs0mg"},{"bike_id":"ca655f3b-8380-4045-b3f8-8acaa0e83ede","system_id":"levelo_inurba_marseille","lat":43.33737,"lon":5.37465,"is_reserved":false,"is_disabled":false,"rental_uris":{"android":"levelo://app?vid=ca655f3b-8380-4045-b3f8-8acaa0e83ede","ios":"levelo://app?vid=ca655f3b-8380-4045-b3f8-8acaa0e83ede"},"vehicle_type_id":"4","last_reported":1731679760,"current_range_meters":36000,"station_id":"","pricing_plan_id":"cebpf4jnsgd1na2vs0mg"},{"bike_id":"9dbca982-f0bf-4dde-851d-b0447750c1b6","system_id":"levelo_inurba_marseille","lat":43.309298,"lon":5.401384,"is_reserved":false,"is_disabled":false,"rental_uris":{"android":"levelo://app?vid=9dbca982-f0bf-4dde-851d-b0447750c1b6","ios":"levelo://app?vid=9dbca982-f0bf-4dde-851d-b0447750c1b6"},"vehicle_type_id":"4","last_reported":1731679760,"current_range_meters":20000,"station_id":"ce4bgvp2rcd13ifvqct0","pricing_plan_id":"cebpf4jnsgd1na2vs0mg"},{"bike_id":"a6b8c285-acc9-4039-9531-1aae39136a33","system_id":"levelo_inurba_marseille","lat":43.312042,"lon":5.367348,"is_reserved":false,"is_disabled":false,"rental_uris":{"android":"levelo://app?vid=a6b8c285-acc9-4039-9531-1aae39136a33","ios":"levelo://app?vid=a6b8c285-acc9-4039-9531-1aae39136a33"},"vehicle_type_id":"4","last_reported":1731679760,"current_range_meters":19200,"station_id":"","pricing_plan_id":"cebpf4jnsgd1na2vs0mg"},{"bike_id":"420ee1f5-00a3-412c-8970-90ada70dc741","system_id":"levelo_inurba_marseille","lat":43.25122,"lon":5.40331,"is_reserved":false,"is_disabled":false,"rental_uris":{"android":"levelo://app?vid=420ee1f5-00a3-412c-8970-90ada70dc741","ios":"levelo://app?vid=420ee1f5-00a3-412c-8970-90ada70dc741"},"vehicle_type_id":"4","last_reported":1731679760,"current_range_meters":19200,"station_id":"ce4bhlh2rcd13ifvqgig","pricing_plan_id":"cebpf4jnsgd1na2vs0mg"},{"bike_id":"43a74946-80ad-4604-b753-c4e098de4814","system_id":"levelo_inurba_marseille","lat":43.337211,"lon":5.391796,"is_reserved":false,"is_disabled":false,"rental_uris":{"android":"levelo://app?vid=43a74946-80ad-4604-b753-c4e098de4814","ios":"levelo://app?vid=43a74946-80ad-4604-b753-c4e098de4814"},"vehicle_type_id":"4","last_reported":1731679760,"current_range_meters":22800,"station_id":"ce4bhr92rcd13ifvqhsg","pricing_plan_id":"cebpf4jnsgd1na2vs0mg"},{"bike_id":"5c254126-8805-4ed8-9520-9f63561143b3","system_id":"levelo_inurba_marseille","lat":43.24168,"lon":5.36399,"is_reserved":false,"is_disabled":false,"rental_uris":{"android":"levelo://app?vid=5c254126-8805-4ed8-9520-9f63561143b3","ios":"levelo://app?vid=5c254126-8805-4ed8-9520-9f63561143b3"},"vehicle_type_id":"4","last_reported":1731679760,"current_range_meters":26800,"station_id":"cpo36qri1sfpv3e86is0","pricing_plan_id":"cebpf4jnsgd1na2vs0mg"},{"bike_id":"265a998c-096d-4a07-974e-41be37e184a7","system_id":"levelo_inurba_marseille","lat":43.30537,"lon":5.36552,"is_reserved":false,"is_disabled":false,"rental_uris":{"android":"levelo://app?vid=265a998c-096d-4a07-974e-41be37e184a7","ios":"levelo://app?vid=265a998c-096d-4a07-974e-41be37e184a7"},"vehicle_type_id":"4","last_reported":1731679760,"current_range_meters":38800,"station_id":"ce4bgs12rcd13ifvqcag","pricing_plan_id":"cebpf4jnsgd1na2vs0mg"},{"bike_id":"9a6f4f9d-1c72-4430-8020-ba5bbc826984","system_id":"levelo_inurba_marseille","lat":43.29584,"lon":5.36743,"is_reserved":false,"is_disabled":false,"rental_uris":{"android":"levelo://app?vid=9a6f4f9d-1c72-4430-8020-ba5bbc826984","ios":"levelo://app?vid=9a6f4f9d-1c72-4430-8020-ba5bbc826984"},"vehicle_type_id":"4","last_reported":1731679760,"current_range_meters":38800,"station_id":"ce4bgph2rcd13ifvqc2g","pricing_plan_id":"cebpf4jnsgd1na2vs0mg"},{"bike_id":"fb99fb82-1c03-4526-b862-280bcf8ac70c","system_id":"levelo_inurba_marseille","lat":43.239726,"lon":5.366247,"is_reserved":false,"is_disabled":false,"rental_uris":{"android":"levelo://app?vid=fb99fb82-1c03-4526-b862-280bcf8ac70c","ios":"levelo://app?vid=fb99fb82-1c03-4526-b862-280bcf8ac70c"},"vehicle_type_id":"4","last_reported":1731679760,"current_range_meters":28400,"station_id":"ce4bhi12rcd13ifvqfp0","pricing_plan_id":"cebpf4jnsgd1na2vs0mg"},{"bike_id":"251aebea-9ebd-49fe-964c-1ec2b40aee70","system_id":"levelo_inurba_marseille","lat":43.32487,"lon":5.36581,"is_reserved":false,"is_disabled":false,"rental_uris":{"android":"levelo://app?vid=251aebea-9ebd-49fe-964c-1ec2b40aee70","ios":"levelo://app?vid=251aebea-9ebd-49fe-964c-1ec2b40aee70"},"vehicle_type_id":"4","last_reported":1731679760,"current_range_meters":32400,"station_id":"ce4bhs12rcd13ifvqhvg","pricing_plan_id":"cebpf4jnsgd1na2vs0mg"},{"bike_id":"1ae8fe75-00ad-479b-a755-74d45d76bfbe","system_id":"levelo_inurba_marseille","lat":43.24169,"lon":5.36404,"is_reserved":false,"is_disabled":false,"rental_uris":{"android":"levelo://app?vid=1ae8fe75-00ad-479b-a755-74d45d76bfbe","ios":"levelo://app?vid=1ae8fe75-00ad-479b-a755-74d45d76bfbe"},"vehicle_type_id":"4","last_reported":1731679760,"current_range_meters":11200,"station_id":"cpo36qri1sfpv3e86is0","pricing_plan_id":"cebpf4jnsgd1na2vs0mg"},{"bike_id":"4b226822-080c-4688-9634-9503b4032b95","system_id":"levelo_inurba_marseille","lat":43.23961,"lon":5.36639,"is_reserved":false,"is_disabled":false,"rental_uris":{"android":"levelo://app?vid=4b226822-080c-4688-9634-9503b4032b95","ios":"levelo://app?vid=4b226822-080c-4688-9634-9503b4032b95"},"vehicle_type_id":"4","last_reported":1731679760,"current_range_meters":14800,"station_id":"ce4bhi12rcd13ifvqfp0","pricing_plan_id":"cebpf4jnsgd1na2vs0mg"},{"bike_id":"92ac4858-87d6-4ceb-8f6e-004635a816a8","system_id":"levelo_inurba_marseille","lat":43.27785,"lon":5.40741,"is_reserved":false,"is_disabled":false,"rental_uris":{"android":"levelo://app?vid=92ac4858-87d6-4ceb-8f6e-004635a816a8","ios":"levelo://app?vid=92ac4858-87d6-4ceb-8f6e-004635a816a8"},"vehicle_type_id":"4","last_reported":1731679760,"current_range_meters":36800,"station_id":"ce4bhnh2rcd13ifvqgtg","pricing_plan_id":"cebpf4jnsgd1na2vs0mg"},{"bike_id":"f77515f8-9de6-411f-8276-52aa2192889a","system_id":"levelo_inurba_marseille","lat":43.25117,"lon":5.4032,"is_reserved":false,"is_disabled":false,"rental_uris":{"android":"levelo://app?vid=f77515f8-9de6-411f-8276-52aa2192889a","ios":"levelo://app?vid=f77515f8-9de6-411f-8276-52aa2192889a"},"vehicle_type_id":"4","last_reported":1731679760,"current_range_meters":19200,"station_id":"ce4bhlh2rcd13ifvqgig","pricing_plan_id":"cebpf4jnsgd1na2vs0mg"},{"bike_id":"16c431de-b128-4380-a727-8a0a0eba5b1b","system_id":"levelo_inurba_marseille","lat":43.24385,"lon":5.37059,"is_reserved":false,"is_disabled":false,"rental_uris":{"android":"levelo://app?vid=16c431de-b128-4380-a727-8a0a0eba5b1b","ios":"levelo://app?vid=16c431de-b128-4380-a727-8a0a0eba5b1b"},"vehicle_type_id":"4","last_reported":1731679760,"current_range_meters":38800,"station_id":"ce4bhhh2rcd13ifvqfk0","pricing_plan_id":"cebpf4jnsgd1na2vs0mg"},{"bike_id":"d37a5777-a5f5-4b7f-b7f5-a1dae307da91","system_id":"levelo_inurba_marseille","lat":43.23192,"lon":5.35554,"is_reserved":false,"is_disabled":false,"rental_uris":{"android":"levelo://app?vid=d37a5777-a5f5-4b7f-b7f5-a1dae307da91","ios":"levelo://app?vid=d37a5777-a5f5-4b7f-b7f5-a1dae307da91"},"vehicle_type_id":"4","last_reported":1731679760,"current_range_meters":36800,"station_id":"ce4bhu92rcd13ifvqi70","pricing_plan_id":"cebpf4jnsgd1na2vs0mg"},{"bike_id":"f724ed92-42a3-4898-9f61-e75e2b2d72f1","system_id":"levelo_inurba_marseille","lat":43.30149,"lon":5.38078,"is_reserved":false,"is_disabled":false,"rental_uris":{"android":"levelo://app?vid=f724ed92-42a3-4898-9f61-e75e2b2d72f1","ios":"levelo://app?vid=f724ed92-42a3-4898-9f61-e75e2b2d72f1"},"vehicle_type_id":"4","last_reported":1731679760,"current_range_meters":38800,"station_id":"ce4bgjp2rcd13ifvqbh0","pricing_plan_id":"cebpf4jnsgd1na2vs0mg"},{"bike_id":"5e9d60f3-52ef-4593-b66f-9b24267225bf","system_id":"levelo_inurba_marseille","lat":43.30426,"lon":5.39754,"is_reserved":false,"is_disabled":false,"rental_uris":{"android":"levelo://app?vid=5e9d60f3-52ef-4593-b66f-9b24267225bf","ios":"levelo://app?vid=5e9d60f3-52ef-4593-b66f-9b24267225bf"},"vehicle_type_id":"4","last_reported":1731679760,"current_range_meters":27600,"station_id":"ce4bh092rcd13ifvqd20","pricing_plan_id":"cebpf4jnsgd1na2vs0mg"},{"bike_id":"ad0f69b0-0cfc-432d-ac4a-88566f748935","system_id":"levelo_inurba_marseille","lat":43.30148,"lon":5.38086,"is_reserved":false,"is_disabled":false,"rental_uris":{"android":"levelo://app?vid=ad0f69b0-0cfc-432d-ac4a-88566f748935","ios":"levelo://app?vid=ad0f69b0-0cfc-432d-ac4a-88566f748935"},"vehicle_type_id":"4","last_reported":1731679760,"current_range_meters":37600,"station_id":"ce4bgjp2rcd13ifvqbh0","pricing_plan_id":"cebpf4jnsgd1na2vs0mg"},{"bike_id":"674b0e8f-8c9e-4c11-a204-160fb5dcf762","system_id":"levelo_inurba_marseille","lat":43.24388,"lon":5.37054,"is_reserved":false,"is_disabled":false,"rental_uris":{"android":"levelo://app?vid=674b0e8f-8c9e-4c11-a204-160fb5dcf762","ios":"levelo://app?vid=674b0e8f-8c9e-4c11-a204-160fb5dcf762"},"vehicle_type_id":"4","last_reported":1731679760,"current_range_meters":38800,"station_id":"ce4bhhh2rcd13ifvqfk0","pricing_plan_id":"cebpf4jnsgd1na2vs0mg"},{"bike_id":"139d00fc-e67b-449a-9fd4-0db893561dc2","system_id":"levelo_inurba_marseille","lat":43.33756,"lon":5.37418,"is_reserved":false,"is_disabled":false,"rental_uris":{"android":"levelo://app?vid=139d00fc-e67b-449a-9fd4-0db893561dc2","ios":"levelo://app?vid=139d00fc-e67b-449a-9fd4-0db893561dc2"},"vehicle_type_id":"4","last_reported":1731679760,"current_range_meters":9600,"station_id":"","pricing_plan_id":"cebpf4jnsgd1na2vs0mg"},{"bike_id":"bdda4347-118f-4304-b506-09b4b5e15b39","system_id":"levelo_inurba_marseille","lat":43.33723,"lon":5.39186,"is_reserved":false,"is_disabled":false,"rental_uris":{"android":"levelo://app?vid=bdda4347-118f-4304-b506-09b4b5e15b39","ios":"levelo://app?vid=bdda4347-118f-4304-b506-09b4b5e15b39"},"vehicle_type_id":"4","last_reported":1731679760,"current_range_meters":19600,"station_id":"ce4bhr92rcd13ifvqhsg","pricing_plan_id":"cebpf4jnsgd1na2vs0mg"},{"bike_id":"ceaec17e-5d44-461f-a3bd-19f55e0cd199","system_id":"levelo_inurba_marseille","lat":43.30784,"lon":5.3765,"is_reserved":false,"is_disabled":false,"rental_uris":{"android":"levelo://app?vid=ceaec17e-5d44-461f-a3bd-19f55e0cd199","ios":"levelo://app?vid=ceaec17e-5d44-461f-a3bd-19f55e0cd199"},"vehicle_type_id":"4","last_reported":1731679760,"current_range_meters":4000,"station_id":"ce4bgv92rcd13ifvqcq0","pricing_plan_id":"cebpf4jnsgd1na2vs0mg"},{"bike_id":"ecbf4464-bbdd-416a-87d2-839c60e87a84","system_id":"levelo_inurba_marseille","lat":43.28264,"lon":5.35065,"is_reserved":false,"is_disabled":false,"rental_uris":{"android":"levelo://app?vid=ecbf4464-bbdd-416a-87d2-839c60e87a84","ios":"levelo://app?vid=ecbf4464-bbdd-416a-87d2-839c60e87a84"},"vehicle_type_id":"4","last_reported":1731679760,"current_range_meters":8000,"station_id":"ce4bhbp2rcd13ifvqerg","pricing_plan_id":"cebpf4jnsgd1na2vs0mg"},{"bike_id":"9d2e78ea-93c0-4f54-8d36-50985cde445c","system_id":"levelo_inurba_marseille","lat":43.28268,"lon":5.35075,"is_reserved":false,"is_disabled":false,"rental_uris":{"android":"levelo://app?vid=9d2e78ea-93c0-4f54-8d36-50985cde445c","ios":"levelo://app?vid=9d2e78ea-93c0-4f54-8d36-50985cde445c"},"vehicle_type_id":"4","last_reported":1731679760,"current_range_meters":38800,"station_id":"ce4bhbp2rcd13ifvqerg","pricing_plan_id":"cebpf4jnsgd1na2vs0mg"},{"bike_id":"a133bc59-6f30-4efc-a929-d5b66262dac9","system_id":"levelo_inurba_marseille","lat":43.29712,"lon":5.37699,"is_reserved":false,"is_disabled":false,"rental_uris":{"android":"levelo://app?vid=a133bc59-6f30-4efc-a929-d5b66262dac9","ios":"levelo://app?vid=a133bc59-6f30-4efc-a929-d5b66262dac9"},"vehicle_type_id":"4","last_reported":1731679760,"current_range_meters":19200,"station_id":"ce4bgkh2rcd13ifvqbl0","pricing_plan_id":"cebpf4jnsgd1na2vs0mg"},{"bike_id":"98121d5f-01e5-45e8-a04a-1b8c07d4a29c","system_id":"levelo_inurba_marseille","lat":43.23956,"lon":5.36638,"is_reserved":false,"is_disabled":false,"rental_uris":{"android":"levelo://app?vid=98121d5f-01e5-45e8-a04a-1b8c07d4a29c","ios":"levelo://app?vid=98121d5f-01e5-45e8-a04a-1b8c07d4a29c"},"vehicle_type_id":"4","last_reported":1731679760,"current_range_meters":12800,"station_id":"ce4bhi12rcd13ifvqfp0","pricing_plan_id":"cebpf4jnsgd1na2vs0mg"},{"bike_id":"a2093831-6093-4959-a0f7-dab6a243ed02","system_id":"levelo_inurba_marseille","lat":43.31239,"lon":5.36844,"is_reserved":false,"is_disabled":false,"rental_uris":{"android":"levelo://app?vid=a2093831-6093-4959-a0f7-dab6a243ed02","ios":"levelo://app?vid=a2093831-6093-4959-a0f7-dab6a243ed02"},"vehicle_type_id":"4","last_reported":1731679760,"current_range_meters":38800,"station_id":"ce4bgl92rcd13ifvqbq0","pricing_plan_id":"cebpf4jnsgd1na2vs0mg"},{"bike_id":"1251cdec-4e0b-4865-8190-36fd90191faa","system_id":"levelo_inurba_marseille","lat":43.30886,"lon":5.37208,"is_reserved":false,"is_disabled":false,"rental_uris":{"android":"levelo://app?vid=1251cdec-4e0b-4865-8190-36fd90191faa","ios":"levelo://app?vid=1251cdec-4e0b-4865-8190-36fd90191faa"},"vehicle_type_id":"4","last_reported":1731679760,"current_range_meters":37600,"station_id":"ce4bguh2rcd13ifvqckg","pricing_plan_id":"cebpf4jnsgd1na2vs0mg"},{"bike_id":"2f1efe36-41b2-4a6f-aa98-b326b5712fe6","system_id":"levelo_inurba_marseille","lat":43.299,"lon":5.4366,"is_reserved":false,"is_disabled":false,"rental_uris":{"android":"levelo://app?vid=2f1efe36-41b2-4a6f-aa98-b326b5712fe6","ios":"levelo://app?vid=2f1efe36-41b2-4a6f-aa98-b326b5712fe6"},"vehicle_type_id":"4","last_reported":1731679760,"current_range_meters":24400,"station_id":"ce4bhpp2rcd13ifvqhfg","pricing_plan_id":"cebpf4jnsgd1na2vs0mg"},{"bike_id":"5a64e164-d94f-41f1-8880-21e8ebafbb9a","system_id":"levelo_inurba_marseille","lat":43.28418,"lon":5.3498,"is_reserved":false,"is_disabled":false,"rental_uris":{"android":"levelo://app?vid=5a64e164-d94f-41f1-8880-21e8ebafbb9a","ios":"levelo://app?vid=5a64e164-d94f-41f1-8880-21e8ebafbb9a"},"vehicle_type_id":"4","last_reported":1731679760,"current_range_meters":7200,"station_id":"ce4bhbh2rcd13ifvqepg","pricing_plan_id":"cebpf4jnsgd1na2vs0mg"},{"bike_id":"f765df4a-0462-477c-989d-67c0bff36300","system_id":"levelo_inurba_marseille","lat":43.26685,"lon":5.38267,"is_reserved":false,"is_disabled":false,"rental_uris":{"android":"levelo://app?vid=f765df4a-0462-477c-989d-67c0bff36300","ios":"levelo://app?vid=f765df4a-0462-477c-989d-67c0bff36300"},"vehicle_type_id":"4","last_reported":1731679760,"current_range_meters":38800,"station_id":"ce4bhg92rcd13ifvqf90","pricing_plan_id":"cebpf4jnsgd1na2vs0mg"},{"bike_id":"72323bc7-0fd1-43c9-bdb6-a4250b098721","system_id":"levelo_inurba_marseille","lat":43.2466,"lon":5.38167,"is_reserved":false,"is_disabled":false,"rental_uris":{"android":"levelo://app?vid=72323bc7-0fd1-43c9-bdb6-a4250b098721","ios":"levelo://app?vid=72323bc7-0fd1-43c9-bdb6-a4250b098721"},"vehicle_type_id":"4","last_reported":1731679760,"current_range_meters":21600,"station_id":"ce4bhih2rcd13ifvqfr0","pricing_plan_id":"cebpf4jnsgd1na2vs0mg"},{"bike_id":"849b7965-97aa-4846-b722-a56e1e398136","system_id":"levelo_inurba_marseille","lat":43.29807,"lon":5.38092,"is_reserved":false,"is_disabled":false,"rental_uris":{"android":"levelo://app?vid=849b7965-97aa-4846-b722-a56e1e398136","ios":"levelo://app?vid=849b7965-97aa-4846-b722-a56e1e398136"},"vehicle_type_id":"4","last_reported":1731679760,"current_range_meters":20800,"station_id":"ce4bgip2rcd13ifvqbb0","pricing_plan_id":"cebpf4jnsgd1na2vs0mg"},{"bike_id":"9bafab45-cb8e-4c27-803a-82d257c6d546","system_id":"levelo_inurba_marseille","lat":43.29839,"lon":5.36271,"is_reserved":false,"is_disabled":false,"rental_uris":{"android":"levelo://app?vid=9bafab45-cb8e-4c27-803a-82d257c6d546","ios":"levelo://app?vid=9bafab45-cb8e-4c27-803a-82d257c6d546"},"vehicle_type_id":"4","last_reported":1731679760,"current_range_meters":39200,"station_id":"ce4bgpp2rcd13ifvqc3g","pricing_plan_id":"cebpf4jnsgd1na2vs0mg"},{"bike_id":"6d6992bf-ade3-4a22-a168-306dafdc4544","system_id":"levelo_inurba_marseille","lat":43.24158,"lon":5.36406,"is_reserved":false,"is_disabled":false,"rental_uris":{"android":"levelo://app?vid=6d6992bf-ade3-4a22-a168-306dafdc4544","ios":"levelo://app?vid=6d6992bf-ade3-4a22-a168-306dafdc4544"},"vehicle_type_id":"4","last_reported":1731679760,"current_range_meters":38000,"station_id":"cpo36qri1sfpv3e86is0","pricing_plan_id":"cebpf4jnsgd1na2vs0mg"},{"bike_id":"723d1851-243a-45a0-b611-276b9e40945b","system_id":"levelo_inurba_marseille","lat":43.30549,"lon":5.36538,"is_reserved":false,"is_disabled":false,"rental_uris":{"android":"levelo://app?vid=723d1851-243a-45a0-b611-276b9e40945b","ios":"levelo://app?vid=723d1851-243a-45a0-b611-276b9e40945b"},"vehicle_type_id":"4","last_reported":1731679760,"current_range_meters":22000,"station_id":"ce4bgs12rcd13ifvqcag","pricing_plan_id":"cebpf4jnsgd1na2vs0mg"},{"bike_id":"c3ffbe2b-dde4-4cd1-b955-197d227ae840","system_id":"levelo_inurba_marseille","lat":43.26481,"lon":5.39532,"is_reserved":false,"is_disabled":false,"rental_uris":{"android":"levelo://app?vid=c3ffbe2b-dde4-4cd1-b955-197d227ae840","ios":"levelo://app?vid=c3ffbe2b-dde4-4cd1-b955-197d227ae840"},"vehicle_type_id":"4","last_reported":1731679760,"current_range_meters":38400,"station_id":"ce4bhi12rcd13ifvqfq0","pricing_plan_id":"cebpf4jnsgd1na2vs0mg"},{"bike_id":"d0afa28b-1c9f-4e92-920f-03466807fd8e","system_id":"levelo_inurba_marseille","lat":43.28567,"lon":5.395,"is_reserved":false,"is_disabled":false,"rental_uris":{"android":"levelo://app?vid=d0afa28b-1c9f-4e92-920f-03466807fd8e","ios":"levelo://app?vid=d0afa28b-1c9f-4e92-920f-03466807fd8e"},"vehicle_type_id":"4","last_reported":1731679760,"current_range_meters":38800,"station_id":"ce4bh292rcd13ifvqdg0","pricing_plan_id":"cebpf4jnsgd1na2vs0mg"},{"bike_id":"bbd81c38-414d-434f-a9ae-9c40020ac50d","system_id":"levelo_inurba_marseille","lat":43.29011,"lon":5.3561,"is_reserved":false,"is_disabled":false,"rental_uris":{"android":"levelo://app?vid=bbd81c38-414d-434f-a9ae-9c40020ac50d","ios":"levelo://app?vid=bbd81c38-414d-434f-a9ae-9c40020ac50d"},"vehicle_type_id":"4","last_reported":1731679760,"current_range_meters":36400,"station_id":"ce4bhb92rcd13ifvqen0","pricing_plan_id":"cebpf4jnsgd1na2vs0mg"},{"bike_id":"eef5d37c-5bfd-4c76-81bd-46afa511c5a9","system_id":"levelo_inurba_marseille","lat":43.33025,"lon":5.39039,"is_reserved":false,"is_disabled":false,"rental_uris":{"android":"levelo://app?vid=eef5d37c-5bfd-4c76-81bd-46afa511c5a9","ios":"levelo://app?vid=eef5d37c-5bfd-4c76-81bd-46afa511c5a9"},"vehicle_type_id":"4","last_reported":1731679760,"current_range_meters":38800,"station_id":"ce4bhr92rcd13ifvqhrg","pricing_plan_id":"cebpf4jnsgd1na2vs0mg"},{"bike_id":"1707cb1e-404f-449a-8ec1-810d24d3f970","system_id":"levelo_inurba_marseille","lat":43.23183,"lon":5.39982,"is_reserved":false,"is_disabled":false,"rental_uris":{"android":"levelo://app?vid=1707cb1e-404f-449a-8ec1-810d24d3f970","ios":"levelo://app?vid=1707cb1e-404f-449a-8ec1-810d24d3f970"},"vehicle_type_id":"4","last_reported":1731679760,"current_range_meters":30000,"station_id":"ce4bhn12rcd13ifvqgqg","pricing_plan_id":"cebpf4jnsgd1na2vs0mg"},{"bike_id":"b5018252-9a31-4103-8ef9-7a0d549ed8b7","system_id":"levelo_inurba_marseille","lat":43.26063,"lon":5.39395,"is_reserved":false,"is_disabled":false,"rental_uris":{"android":"levelo://app?vid=b5018252-9a31-4103-8ef9-7a0d549ed8b7","ios":"levelo://app?vid=b5018252-9a31-4103-8ef9-7a0d549ed8b7"},"vehicle_type_id":"4","last_reported":1731679760,"current_range_meters":28000,"station_id":"ce4bhh92rcd13ifvqfj0","pricing_plan_id":"cebpf4jnsgd1na2vs0mg"},{"bike_id":"762da85a-00e3-4ec2-92a7-b6d9e2a1bdd9","system_id":"levelo_inurba_marseille","lat":43.32042,"lon":5.41562,"is_reserved":false,"is_disabled":false,"rental_uris":{"android":"levelo://app?vid=762da85a-00e3-4ec2-92a7-b6d9e2a1bdd9","ios":"levelo://app?vid=762da85a-00e3-4ec2-92a7-b6d9e2a1bdd9"},"vehicle_type_id":"4","last_reported":1731679760,"current_range_meters":37600,"station_id":"ce4bhq92rcd13ifvqhkg","pricing_plan_id":"cebpf4jnsgd1na2vs0mg"},{"bike_id":"ff273380-c91d-4de0-97f4-4e62bfd1e6c1","system_id":"levelo_inurba_marseille","lat":43.29649,"lon":5.37648,"is_reserved":false,"is_disabled":false,"rental_uris":{"android":"levelo://app?vid=ff273380-c91d-4de0-97f4-4e62bfd1e6c1","ios":"levelo://app?vid=ff273380-c91d-4de0-97f4-4e62bfd1e6c1"},"vehicle_type_id":"4","last_reported":1731679760,"current_range_meters":16800,"station_id":"","pricing_plan_id":"cebpf4jnsgd1na2vs0mg"},{"bike_id":"cb3095ed-188a-40f9-9a74-e608f1334364","system_id":"levelo_inurba_marseille","lat":43.30547,"lon":5.36536,"is_reserved":false,"is_disabled":false,"rental_uris":{"android":"levelo://app?vid=cb3095ed-188a-40f9-9a74-e608f1334364","ios":"levelo://app?vid=cb3095ed-188a-40f9-9a74-e608f1334364"},"vehicle_type_id":"4","last_reported":1731679760,"current_range_meters":11200,"station_id":"ce4bgs12rcd13ifvqcag","pricing_plan_id":"cebpf4jnsgd1na2vs0mg"},{"bike_id":"c4c51bbd-689e-45a9-83d2-4a07bbd575ac","system_id":"levelo_inurba_marseille","lat":43.28725,"lon":5.36101,"is_reserved":false,"is_disabled":false,"rental_uris":{"android":"levelo://app?vid=c4c51bbd-689e-45a9-83d2-4a07bbd575ac","ios":"levelo://app?vid=c4c51bbd-689e-45a9-83d2-4a07bbd575ac"},"vehicle_type_id":"4","last_reported":1731679760,"current_range_meters":33200,"station_id":"cki0cbj6b192h4jlfktg","pricing_plan_id":"cebpf4jnsgd1na2vs0mg"},{"bike_id":"40576e48-aaec-456b-8e7d-96af34db0e32","system_id":"levelo_inurba_marseille","lat":43.28266,"lon":5.35069,"is_reserved":false,"is_disabled":false,"rental_uris":{"android":"levelo://app?vid=40576e48-aaec-456b-8e7d-96af34db0e32","ios":"levelo://app?vid=40576e48-aaec-456b-8e7d-96af34db0e32"},"vehicle_type_id":"4","last_reported":1731679760,"current_range_meters":8000,"station_id":"ce4bhbp2rcd13ifvqerg","pricing_plan_id":"cebpf4jnsgd1na2vs0mg"},{"bike_id":"a1908de2-9663-4a5d-be24-66cbe23681ab","system_id":"levelo_inurba_marseille","lat":43.2466,"lon":5.38167,"is_reserved":false,"is_disabled":false,"rental_uris":{"android":"levelo://app?vid=a1908de2-9663-4a5d-be24-66cbe23681ab","ios":"levelo://app?vid=a1908de2-9663-4a5d-be24-66cbe23681ab"},"vehicle_type_id":"4","last_reported":1731679760,"current_range_meters":18800,"station_id":"ce4bhih2rcd13ifvqfr0","pricing_plan_id":"cebpf4jnsgd1na2vs0mg"},{"bike_id":"b5bddd84-dfc0-49f4-8cb9-b28f5e4492ae","system_id":"levelo_inurba_marseille","lat":43.28462,"lon":5.35893,"is_reserved":false,"is_disabled":false,"rental_uris":{"android":"levelo://app?vid=b5bddd84-dfc0-49f4-8cb9-b28f5e4492ae","ios":"levelo://app?vid=b5bddd84-dfc0-49f4-8cb9-b28f5e4492ae"},"vehicle_type_id":"4","last_reported":1731679760,"current_range_meters":39200,"station_id":"ce4bhah2rcd13ifvqei0","pricing_plan_id":"cebpf4jnsgd1na2vs0mg"},{"bike_id":"dc134e62-e4a0-4c6c-a242-82e2cd0ec370","system_id":"levelo_inurba_marseille","lat":43.31178,"lon":5.3872,"is_reserved":false,"is_disabled":false,"rental_uris":{"android":"levelo://app?vid=dc134e62-e4a0-4c6c-a242-82e2cd0ec370","ios":"levelo://app?vid=dc134e62-e4a0-4c6c-a242-82e2cd0ec370"},"vehicle_type_id":"4","last_reported":1731679760,"current_range_meters":20800,"station_id":"ce4bgv12rcd13ifvqcp0","pricing_plan_id":"cebpf4jnsgd1na2vs0mg"},{"bike_id":"a2c391c9-0e46-42d6-a551-ed36e793cd7c","system_id":"levelo_inurba_marseille","lat":43.28076,"lon":5.39659,"is_reserved":false,"is_disabled":false,"rental_uris":{"android":"levelo://app?vid=a2c391c9-0e46-42d6-a551-ed36e793cd7c","ios":"levelo://app?vid=a2c391c9-0e46-42d6-a551-ed36e793cd7c"},"vehicle_type_id":"4","last_reported":1731679760,"current_range_meters":16800,"station_id":"ce4bho12rcd13ifvqh2g","pricing_plan_id":"cebpf4jnsgd1na2vs0mg"},{"bike_id":"9e60ec82-0d97-4ce9-b22e-751432ab4967","system_id":"levelo_inurba_marseille","lat":43.24389,"lon":5.37053,"is_reserved":false,"is_disabled":false,"rental_uris":{"android":"levelo://app?vid=9e60ec82-0d97-4ce9-b22e-751432ab4967","ios":"levelo://app?vid=9e60ec82-0d97-4ce9-b22e-751432ab4967"},"vehicle_type_id":"4","last_reported":1731679760,"current_range_meters":23200,"station_id":"ce4bhhh2rcd13ifvqfk0","pricing_plan_id":"cebpf4jnsgd1na2vs0mg"},{"bike_id":"584b9d18-f52b-43c4-8972-9151e495f890","system_id":"levelo_inurba_marseille","lat":43.28414,"lon":5.34984,"is_reserved":false,"is_disabled":false,"rental_uris":{"android":"levelo://app?vid=584b9d18-f52b-43c4-8972-9151e495f890","ios":"levelo://app?vid=584b9d18-f52b-43c4-8972-9151e495f890"},"vehicle_type_id":"4","last_reported":1731679760,"current_range_meters":12800,"station_id":"ce4bhbh2rcd13ifvqepg","pricing_plan_id":"cebpf4jnsgd1na2vs0mg"},{"bike_id":"7037a7a9-89be-4835-99e0-d202607efc23","system_id":"levelo_inurba_marseille","lat":43.28413,"lon":5.34982,"is_reserved":false,"is_disabled":false,"rental_uris":{"android":"levelo://app?vid=7037a7a9-89be-4835-99e0-d202607efc23","ios":"levelo://app?vid=7037a7a9-89be-4835-99e0-d202607efc23"},"vehicle_type_id":"4","last_reported":1731679760,"current_range_meters":38800,"station_id":"ce4bhbh2rcd13ifvqepg","pricing_plan_id":"cebpf4jnsgd1na2vs0mg"},{"bike_id":"56da5026-c304-48dc-b202-4f0df7f7a7c9","system_id":"levelo_inurba_marseille","lat":43.26484,"lon":5.39551,"is_reserved":false,"is_disabled":false,"rental_uris":{"android":"levelo://app?vid=56da5026-c304-48dc-b202-4f0df7f7a7c9","ios":"levelo://app?vid=56da5026-c304-48dc-b202-4f0df7f7a7c9"},"vehicle_type_id":"4","last_reported":1731679760,"current_range_meters":22800,"station_id":"ce4bhi12rcd13ifvqfq0","pricing_plan_id":"cebpf4jnsgd1na2vs0mg"},{"bike_id":"fe000e22-5fe5-4500-b8c3-29bd4fee6b9e","system_id":"levelo_inurba_marseille","lat":43.311145,"lon":5.378226,"is_reserved":false,"is_disabled":false,"rental_uris":{"android":"levelo://app?vid=fe000e22-5fe5-4500-b8c3-29bd4fee6b9e","ios":"levelo://app?vid=fe000e22-5fe5-4500-b8c3-29bd4fee6b9e"},"vehicle_type_id":"4","last_reported":1731679760,"current_range_meters":38800,"station_id":"ce4bgt92rcd13ifvqcg0","pricing_plan_id":"cebpf4jnsgd1na2vs0mg"},