{"last_updated":1736255854,"ttl":60,"version":"2.2","data":{"bikes":[{"bike_id":"093f69f9-727d-48b5-968f-404ba57b766a","system_id":"levelo_inurba_marseille","lat":43.26082,"lon":5.39403,"is_reserved":false,"is_disabled":false,"rental_uris":{"android":"levelo://app?vid=093f69f9-727d-48b5-968f-404ba57b766a","ios":"levelo://app?vid=093f69f9-727d-48b5-968f-404ba57b766a"},"vehicle_type_id":"4","last_reported":1736255855,"current_range_meters":38000,"station_id":"ce4bhh92rcd13ifvqfj0","pricing_plan_id":"cebpf4jnsgd1na2vs0mg"},{"bike_id":"e5028c33-9f8e-4ac3-a14c-e67e8c232bdb","system_id":"levelo_inurba_marseille","lat":43.27815,"lon":5.40708,"is_reserved":false,"is_disabled":false,"rental_uris":{"android":"levelo://app?vid=e5028c33-9f8e-4ac3-a14c-e67e8c232bdb","ios":"levelo://app?vid=e5028c33-9f8e-4ac3-a14c-e67e8c232bdb"},"vehicle_type_id":"4","last_reported":1736255855,"current_range_meters":30400,"station_id":"ce4bhnh2rcd13ifvqgtg","pricing_plan_id":"cebpf4jnsgd1na2vs0mg"},{"bike_id":"a54c7a6b-adea-4c66-afdf-77396a447c7a","system_id":"levelo_inurba_marseille","lat":43.28432,"lon":5.35009,"is_reserved":false,"is_disabled":false,"rental_uris":{"android":"levelo://app?vid=a54c7a6b-adea-4c66-afdf-77396a447c7a","ios":"levelo://app?vid=a54c7a6b-adea-4c66-afdf-77396a447c7a"},"vehicle_type_id":"4","last_reported":1736255855,"current_range_meters":38800,"station_id":"ce4bhbh2rcd13ifvqepg","pricing_plan_id":"cebpf4jnsgd1na2vs0mg"},{"bike_id":"227043cc-bfa6-4bcc-9cdd-dc8da43aee25","system_id":"levelo_inurba_marseille","lat":43.2737,"lon":5.36262,"is_reserved":false,"is_disabled":false,"rental_uris":{"android":"levelo://app?vid=227043cc-bfa6-4bcc-9cdd-dc8da43aee25","ios":"levelo://app?vid=227043cc-bfa6-4bcc-9cdd-dc8da43aee25"},"vehicle_type_id":"4","last_reported":1736255855,"current_range_meters":30400,"station_id":"ce4bhbh2rcd13ifvqeo0","pricing_plan_id":"cebpf4jnsgd1na2vs0mg"},{"bike_id":"1c2c3464-8b3a-4eab-9fdd-fd6c6e2d5657","system_id":"levelo_inurba_marseille","lat":43.2869,"lon":5.38659,"is_reserved":false,"is_disabled":true,"rental_uris":{"android":"levelo://app?vid=1c2c3464-8b3a-4eab-9fdd-fd6c6e2d5657","ios":"levelo://app?vid=1c2c3464-8b3a-4eab-9fdd-fd6c6e2d5657"},"vehicle_type_id":"4","last_reported":1736255855,"current_range_meters":0,"station_id":"ce4bh492rcd13ifvqdug","pricing_plan_id":"cebpf4jnsgd1na2vs0mg"},{"bike_id":"2d6928f8-4b5e-4102-9da8-4203b801ad10","system_id":"levelo_inurba_marseille","lat":43.30164,"lon":5.3808,"is_reserved":false,"is_disabled":false,"rental_uris":{"android":"levelo://app?vid=2d6928f8-4b5e-4102-9da8-4203b801ad10","ios":"levelo://app?vid=2d6928f8-4b5e-4102-9da8-4203b801ad10"},"vehicle_type_id":"4","last_reported":1736255855,"current_range_meters":38800,"station_id":"ce4bgjp2rcd13ifvqbh0","pricing_plan_id":"cebpf4jnsgd1na2vs0mg"},{"bike_id":"e8f7458c-cf19-43d7-a972-43547ad9fe30","system_id":"levelo_inurba_marseille","lat":43.2719,"lon":5.40988,"is_reserved":false,"is_disabled":false,"rental_uris":{"android":"levelo://app?vid=e8f7458c-cf19-43d7-a972-43547ad9fe30","ios":"levelo://app?vid=e8f7458c-cf19-43d7-a972-43547ad9fe30"},"vehicle_type_id":"4","last_reported":1736255855,"current_range_meters":3600,"station_id":"ce4bhl12rcd13ifvqgf0","pricing_plan_id":"cebpf4jnsgd1na2vs0mg"},{"bike_id":"05a2c15a-fb68-455c-8082-fdf747a62fe7","system_id":"levelo_inurba_marseille","lat":43.27803,"lon":5.40718,"is_reserved":false,"is_disabled":false,"rental_uris":{"android":"levelo://app?vid=05a2c15a-fb68-455c-8082-fdf747a62fe7","ios":"levelo://app?vid=05a2c15a-fb68-455c-8082-fdf747a62fe7"},"vehicle_type_id":"4","last_reported":1736255855,"current_range_meters":38800,"station_id":"ce4bhnh2rcd13ifvqgtg","pricing_plan_id":"cebpf4jnsgd1na2vs0mg"},{"bike_id":"68ed12ce-19b0-4151-b855-11515b9fdf32","system_id":"levelo_inurba_marseille","lat":43.29332,"lon":5.37168,"is_reserved":false,"is_disabled":false,"rental_uris":{"android":"levelo://app?vid=68ed12ce-19b0-4151-b855-11515b9fdf32","ios":"levelo://app?vid=68ed12ce-19b0-4151-b855-11515b9fdf32"},"vehicle_type_id":"4","last_reported":1736255855,"current_range_meters":39200,"station_id":"ce4bgh92rcd13ifvqb40","pricing_plan_id":"cebpf4jnsgd1na2vs0mg"},{"bike_id":"324f37e2-3de2-438a-925a-541c96feee84","system_id":"levelo_inurba_marseille","lat":43.33607,"lon":5.41029,"is_reserved":false,"is_disabled":false,"rental_uris":{"android":"levelo://app?vid=324f37e2-3de2-438a-925a-541c96feee84","ios":"levelo://app?vid=324f37e2-3de2-438a-925a-541c96feee84"},"vehicle_type_id":"4","last_reported":1736255855,"current_range_meters":22000,"station_id":"ce4bhqh2rcd13ifvqhmg","pricing_plan_id":"cebpf4jnsgd1na2vs0mg"},{"bike_id":"2e3020fc-739e-484f-aff1-968aa18f2ac1","system_id":"levelo_inurba_marseille","lat":43.2797,"lon":5.41643,"is_reserved":false,"is_disabled":true,"rental_uris":{"android":"levelo://app?vid=2e3020fc-739e-484f-aff1-968aa18f2ac1","ios":"levelo://app?vid=2e3020fc-739e-484f-aff1-968aa18f2ac1"},"vehicle_type_id":"4","last_reported":1736255855,"current_range_meters":36000,"station_id":"ce4bho12rcd13ifvqh1g","pricing_plan_id":"cebpf4jnsgd1na2vs0mg"},{"bike_id":"25eada10-1de1-4fd2-9f49-86dd4ee2d477","system_id":"levelo_inurba_marseille","lat":43.26615,"lon":5.38223,"is_reserved":false,"is_disabled":false,"rental_uris":{"android":"levelo://app?vid=25eada10-1de1-4fd2-9f49-86dd4ee2d477","ios":"levelo://app?vid=25eada10-1de1-4fd2-9f49-86dd4ee2d477"},"vehicle_type_id":"4","last_reported":1736255855,"current_range_meters":38800,"station_id":"ce4bhg92rcd13ifvqf90","pricing_plan_id":"cebpf4jnsgd1na2vs0mg"},{"bike_id":"9bc564bb-6773-485d-ac7c-33edf80314fe","system_id":"levelo_inurba_marseille","lat":43.25,"lon":5.38921,"is_reserved":false,"is_disabled":false,"rental_uris":{"android":"levelo://app?vid=9bc564bb-6773-485d-ac7c-33edf80314fe","ios":"levelo://app?vid=9bc564bb-6773-485d-ac7c-33edf80314fe"},"vehicle_type_id":"4","last_reported":1736255855,"current_range_meters":38800,"station_id":"ce4bhgp2rcd13ifvqfd0","pricing_plan_id":"cebpf4jnsgd1na2vs0mg"},{"bike_id":"dbde5b63-823f-4216-aaa9-6f26c2fd55ec","system_id":"levelo_inurba_marseille","lat":43.28487,"lon":5.3516,"is_reserved":false,"is_disabled":false,"rental_uris":{"android":"levelo://app?vid=dbde5b63-823f-4216-aaa9-6f26c2fd55ec","ios":"levelo://app?vid=dbde5b63-823f-4216-aaa9-6f26c2fd55ec"},"vehicle_type_id":"4","last_reported":1736255855,"current_range_meters":26000,"station_id":"","pricing_plan_id":"cebpf4jnsgd1na2vs0mg"},{"bike_id":"5f21cdc1-e56d-4c94-b8ac-7c72599c490f","system_id":"levelo_inurba_marseille","lat":43.30502,"lon":5.36513,"is_reserved":false,"is_disabled":false,"rental_uris":{"android":"levelo://app?vid=5f21cdc1-e56d-4c94-b8ac-7c72599c490f","ios":"levelo://app?vid=5f21cdc1-e56d-4c94-b8ac-7c72599c490f"},"vehicle_type_id":"4","last_reported":1736255855,"current_range_meters":38800,"station_id":"ce4bgs12rcd13ifvqcag","pricing_plan_id":"cebpf4jnsgd1na2vs0mg"},{"bike_id":"954aa06e-89dc-41a2-b8ed-f2bc14bde573","system_id":"levelo_inurba_marseille","lat":43.29808,"lon":5.38094,"is_reserved":false,"is_disabled":false,"rental_uris":{"android":"levelo://app?vid=954aa06e-89dc-41a2-b8ed-f2bc14bde573","ios":"levelo://app?vid=954aa06e-89dc-41a2-b8ed-f2bc14bde573"},"vehicle_type_id":"4","last_reported":1736255855,"current_range_meters":39200,"station_id":"ce4bgip2rcd13ifvqbb0","pricing_plan_id":"cebpf4jnsgd1na2vs0mg"},{"bike_id":"4eeaeffa-480f-4a94-8286-42f1bcb601fc","system_id":"levelo_inurba_marseille","lat":43.29245,"lon":5.4014,"is_reserved":false,"is_disabled":true,"rental_uris":{"android":"levelo://app?vid=4eeaeffa-480f-4a94-8286-42f1bcb601fc","ios":"levelo://app?vid=4eeaeffa-480f-4a94-8286-42f1bcb601fc"},"vehicle_type_id":"4","last_reported":1736255855,"current_range_meters":17600,"station_id":"ce4bh312rcd13ifvqdk0","pricing_plan_id":"cebpf4jnsgd1na2vs0mg"},{"bike_id":"3dcc1c8e-6db9-4000-a7ee-f1b5b658ee7a","system_id":"levelo_inurba_marseille","lat":43.27206,"lon":5.40999,"is_reserved":false,"is_disabled":false,"rental_uris":{"android":"levelo://app?vid=3dcc1c8e-6db9-4000-a7ee-f1b5b658ee7a","ios":"levelo://app?vid=3dcc1c8e-6db9-4000-a7ee-f1b5b658ee7a"},"vehicle_type_id":"4","last_reported":1736255855,"current_range_meters":38800,"station_id":"ce4bhl12rcd13ifvqgf0","pricing_plan_id":"cebpf4jnsgd1na2vs0mg"},{"bike_id":"9c546351-1a34-4e0c-b043-749e3ab6f40e","system_id":"levelo_inurba_marseille","lat":43.25072,"lon":5.39507,"is_reserved":false,"is_disabled":false,"rental_uris":{"android":"levelo://app?vid=9c546351-1a34-4e0c-b043-749e3ab6f40e","ios":"levelo://app?vid=9c546351-1a34-4e0c-b043-749e3ab6f40e"},"vehicle_type_id":"4","last_reported":1736255855,"current_range_meters":30800,"station_id":"ce4bhm12rcd13ifvqgkg","pricing_plan_id":"cebpf4jnsgd1na2vs0mg"},{"bike_id":"6a128d93-9d39-4543-9b3f-5b0e24939d38","system_id":"levelo_inurba_marseille","lat":43.305368,"lon":5.365518,"is_reserved":false,"is_disabled":false,"rental_uris":{"android":"levelo://app?vid=6a128d93-9d39-4543-9b3f-5b0e24939d38","ios":"levelo://app?vid=6a128d93-9d39-4543-9b3f-5b0e24939d38"},"vehicle_type_id":"4","last_reported":1736255855,"current_range_meters":38800,"station_id":"ce4bgs12rcd13ifvqcag","pricing_plan_id":"cebpf4jnsgd1na2vs0mg"},{"bike_id":"791627df-7292-49e5-a18d-ea9baf1b04d0","system_id":"levelo_inurba_marseille","lat":43.23129,"lon":5.43722,"is_reserved":false,"is_disabled":false,"rental_uris":{"android":"levelo://app?vid=791627df-7292-49e5-a18d-ea9baf1b04d0","ios":"levelo://app?vid=791627df-7292-49e5-a18d-ea9baf1b04d0"},"vehicle_type_id":"4","last_reported":1736255855,"current_range_meters":8400,"station_id":"ce4bhmp2rcd13ifvqgog","pricing_plan_id":"cebpf4jnsgd1na2vs0mg"},{"bike_id":"b3f95373-246a-4f64-959e-629709f400bf","system_id":"levelo_inurba_marseille","lat":43.28921,"lon":5.38405,"is_reserved":false,"is_disabled":true,"rental_uris":{"android":"levelo://app?vid=b3f95373-246a-4f64-959e-629709f400bf","ios":"levelo://app?vid=b3f95373-246a-4f64-959e-629709f400bf"},"vehicle_type_id":"4","last_reported":1736255855,"current_range_meters":2000,"station_id":"ce4bh612rcd13ifvqe6g","pricing_plan_id":"cebpf4jnsgd1na2vs0mg"},{"bike_id":"ee2c527c-915c-492a-9794-723f51ea547d","system_id":"levelo_inurba_marseille","lat":43.31331,"lon":5.36704,"is_reserved":false,"is_disabled":false,"rental_uris":{"android":"levelo://app?vid=ee2c527c-915c-492a-9794-723f51ea547d","ios":"levelo://app?vid=ee2c527c-915c-492a-9794-723f51ea547d"},"vehicle_type_id":"4","last_reported":1736255855,"current_range_meters":26800,"station_id":"ce4bgr92rcd13ifvqc6g","pricing_plan_id":"cebpf4jnsgd1na2vs0mg"},{"bike_id":"7ed01b9d-e17d-44b7-923c-501cf964c57e","system_id":"levelo_inurba_marseille","lat":43.23185,"lon":5.39989,"is_reserved":false,"is_disabled":false,"rental_uris":{"android":"levelo://app?vid=7ed01b9d-e17d-44b7-923c-501cf964c57e","ios":"levelo://app?vid=7ed01b9d-e17d-44b7-923c-501cf964c57e"},"vehicle_type_id":"4","last_reported":1736255855,"current_range_meters":38800,"station_id":"ce4bhn12rcd13ifvqgqg","pricing_plan_id":"cebpf4jnsgd1na2vs0mg"},{"bike_id":"c023aed8-c4af-47de-bf55-7ec6cfb1c879","system_id":"levelo_inurba_marseille","lat":43.26187,"lon":5.37463,"is_reserved":false,"is_disabled":true,"rental_uris":{"android":"levelo://app?vid=c023aed8-c4af-47de-bf55-7ec6cfb1c879","ios":"levelo://app?vid=c023aed8-c4af-47de-bf55-7ec6cfb1c879"},"vehicle_type_id":"4","last_reported":1736255855,"current_range_meters":27600,"station_id":"ce4bhgp2rcd13ifvqfc0","pricing_plan_id":"cebpf4jnsgd1na2vs0mg"},{"bike_id":"f19daaa6-2eda-42e2-984c-661452eb3acb","system_id":"levelo_inurba_marseille","lat":43.28625,"lon":5.38196,"is_reserved":false,"is_disabled":false,"rental_uris":{"android":"levelo://app?vid=f19daaa6-2eda-42e2-984c-661452eb3acb","ios":"levelo://app?vid=f19daaa6-2eda-42e2-984c-661452eb3acb"},"vehicle_type_id":"4","last_reported":1736255855,"current_range_meters":31200,"station_id":"","pricing_plan_id":"cebpf4jnsgd1na2vs0mg"},{"bike_id":"f5477bd9-ae2b-4f4a-90d2-43e1d2905a20","system_id":"levelo_inurba_marseille","lat":43.2843,"lon":5.35002,"is_reserved":false,"is_disabled":false,"rental_uris":{"android":"levelo://app?vid=f5477bd9-ae2b-4f4a-90d2-43e1d2905a20","ios":"levelo://app?vid=f5477bd9-ae2b-4f4a-90d2-43e1d2905a20"},"vehicle_type_id":"4","last_reported":1736255855,"current_range_meters":18800,"station_id":"ce4bhbh2rcd13ifvqepg","pricing_plan_id":"cebpf4jnsgd1na2vs0mg"},{"bike_id":"ad036647-e9f4-4246-953d-37ee6601db50","system_id":"levelo_inurba_marseille","lat":43.24662,"lon":5.38175,"is_reserved":false,"is_disabled":false,"rental_uris":{"android":"levelo://app?vid=ad036647-e9f4-4246-953d-37ee6601db50","ios":"levelo://app?vid=ad036647-e9f4-4246-953d-37ee6601db50"},"vehicle_type_id":"4","last_reported":1736255855,"current_range_meters":16400,"station_id":"ce4bhih2rcd13ifvqfr0","pricing_plan_id":"cebpf4jnsgd1na2vs0mg"},{"bike_id":"b73fb344-5c04-423c-be93-e8864d801e18","system_id":"levelo_inurba_marseille","lat":43.28935,"lon":5.36629,"is_reserved":false,"is_disabled":false,"rental_uris":{"android":"levelo://app?vid=b73fb344-5c04-423c-be93-e8864d801e18","ios":"levelo://app?vid=b73fb344-5c04-423c-be93-e8864d801e18"},"vehicle_type_id":"4","last_reported":1736255855,"current_range_meters":28000,"station_id":"ce4bhap2rcd13ifvqek0","pricing_plan_id":"cebpf4jnsgd1na2vs0mg"},{"bike_id":"ee7f5816-483f-4372-8ce1-bc546e1bdb5f","system_id":"levelo_inurba_marseille","lat":43.24992,"lon":5.38929,"is_reserved":false,"is_disabled":false,"rental_uris":{"android":"levelo://app?vid=ee7f5816-483f-4372-8ce1-bc546e1bdb5f","ios":"levelo://app?vid=ee7f5816-483f-4372-8ce1-bc546e1bdb5f"},"vehicle_type_id":"4","last_reported":1736255855,"current_range_meters":23200,"station_id":"ce4bhgp2rcd13ifvqfd0","pricing_plan_id":"cebpf4jnsgd1na2vs0mg"},{"bike_id":"5daf80c0-426f-4d7b-a866-384f04ac0b0c","system_id":"levelo_inurba_marseille","lat":43.33474,"lon":5.35698,"is_reserved":false,"is_disabled":false,"rental_uris":{"android":"levelo://app?vid=5daf80c0-426f-4d7b-a866-384f04ac0b0c","ios":"levelo://app?vid=5daf80c0-426f-4d7b-a866-384f04ac0b0c"},"vehicle_type_id":"4","last_reported":1736255855,"current_range_meters":24800,"station_id":"","pricing_plan_id":"cebpf4jnsgd1na2vs0mg"},{"bike_id":"075516a2-a951-4f20-a504-d5d59731e37b","system_id":"levelo_inurba_marseille","lat":43.31118,"lon":5.37762,"is_reserved":false,"is_disabled":false,"rental_uris":{"android":"levelo://app?vid=075516a2-a951-4f20-a504-d5d59731e37b","ios":"levelo://app?vid=075516a2-a951-4f20-a504-d5d59731e37b"},"vehicle_type_id":"4","last_reported":1736255855,"current_range_meters":27200,"station_id":"ce4bgt92rcd13ifvqcg0","pricing_plan_id":"cebpf4jnsgd1na2vs0mg"},{"bike_id":"ec73e695-e5fb-4525-87fb-fe2caaa24126","system_id":"levelo_inurba_marseille","lat":43.26784,"lon":5.39417,"is_reserved":false,"is_disabled":false,"rental_uris":{"android":"levelo://app?vid=ec73e695-e5fb-4525-87fb-fe2caaa24126","ios":"levelo://app?vid=ec73e695-e5fb-4525-87fb-fe2caaa24126"},"vehicle_type_id":"4","last_reported":1736255855,"current_range_meters":23200,"station_id":"ce4bhh12rcd13ifvqfg0","pricing_plan_id":"cebpf4jnsgd1na2vs0mg"},{"bike_id":"4d1aab64-dbd9-4cf6-bdcd-52970277e42a","system_id":"levelo_inurba_marseille","lat":43.28937,"lon":5.3665,"is_reserved":false,"is_disabled":false,"rental_uris":{"android":"levelo://app?vid=4d1aab64-dbd9-4cf6-bdcd-52970277e42a","ios":"levelo://app?vid=4d1aab64-dbd9-4cf6-bdcd-52970277e42a"},"vehicle_type_id":"4","last_reported":1736255855,"current_range_meters":24800,"station_id":"ce4bhap2rcd13ifvqek0","pricing_plan_id":"cebpf4jnsgd1na2vs0mg"},{"bike_id":"98e4abe9-268b-4ebe-b8a0-9d17e1060cf4","system_id":"levelo_inurba_marseille","lat":43.32098,"lon":5.36777,"is_reserved":false,"is_disabled":false,"rental_uris":{"android":"levelo://app?vid=98e4abe9-268b-4ebe-b8a0-9d17e1060cf4","ios":"levelo://app?vid=98e4abe9-268b-4ebe-b8a0-9d17e1060cf4"},"vehicle_type_id":"4","last_reported":1736255855,"current_range_meters":36800,"station_id":"ce4bhrh2rcd13ifvqhug","pricing_plan_id":"cebpf4jnsgd1na2vs0mg"},{"bike_id":"90cc549c-0caa-4120-a382-164d27980f0d","system_id":"levelo_inurba_marseille","lat":43.25924,"lon":5.40908,"is_reserved":false,"is_disabled":false,"rental_uris":{"android":"levelo://app?vid=90cc549c-0caa-4120-a382-164d27980f0d","ios":"levelo://app?vid=90cc549c-0caa-4120-a382-164d27980f0d"},"vehicle_type_id":"4","last_reported":1736255855,"current_range_meters":26800,"station_id":"ce4bhm92rcd13ifvqglg","pricing_plan_id":"cebpf4jnsgd1na2vs0mg"},{"bike_id":"0d869571-702b-474e-9734-e51fa36b8db2","system_id":"levelo_inurba_marseille","lat":43.2914,"lon":5.393,"is_reserved":false,"is_disabled":true,"rental_uris":{"android":"levelo://app?vid=0d869571-702b-474e-9734-e51fa36b8db2","ios":"levelo://app?vid=0d869571-702b-474e-9734-e51fa36b8db2"},"vehicle_type_id":"4","last_reported":1736255855,"current_range_meters":8000,"station_id":"ce4bh192rcd13ifvqdd0","pricing_plan_id":"cebpf4jnsgd1na2vs0mg"},{"bike_id":"d529a0f8-b6c1-44cc-8f2f-bc8da6e8ca6f","system_id":"levelo_inurba_marseille","lat":43.28277,"lon":5.35065,"is_reserved":false,"is_disabled":false,"rental_uris":{"android":"levelo://app?vid=d529a0f8-b6c1-44cc-8f2f-bc8da6e8ca6f","ios":"levelo://app?vid=d529a0f8-b6c1-44cc-8f2f-bc8da6e8ca6f"},"vehicle_type_id":"4","last_reported":1736255855,"current_range_meters":32000,"station_id":"ce4bhbp2rcd13ifvqerg","pricing_plan_id":"cebpf4jnsgd1na2vs0mg"},{"bike_id":"eb4bccc8-c8b8-4271-bb49-985ede2a6b19","system_id":"levelo_inurba_marseille","lat":43.28937,"lon":5.36637,"is_reserved":false,"is_disabled":false,"rental_uris":{"android":"levelo://app?vid=eb4bccc8-c8b8-4271-bb49-985ede2a6b19","ios":"levelo://app?vid=eb4bccc8-c8b8-4271-bb49-985ede2a6b19"},"vehicle_type_id":"4","last_reported":1736255855,"current_range_meters":34800,"station_id":"ce4bhap2rcd13ifvqek0","pricing_plan_id":"cebpf4jnsgd1na2vs0mg"},{"bike_id":"634f6533-1a25-40ca-9a18-12a912b70bc8","system_id":"levelo_inurba_marseille","lat":43.25894,"lon":5.40917,"is_reserved":false,"is_disabled":false,"rental_uris":{"android":"levelo://app?vid=634f6533-1a25-40ca-9a18-12a912b70bc8","ios":"levelo://app?vid=634f6533-1a25-40ca-9a18-12a912b70bc8"},"vehicle_type_id":"4","last_reported":1736255855,"current_range_meters":30000,"station_id":"ce4bhm92rcd13ifvqglg","pricing_plan_id":"cebpf4jnsgd1na2vs0mg"},{"bike_id":"84da895f-8644-471d-8d78-3799d533c31e","system_id":"levelo_inurba_marseille","lat":43.26051,"lon":5.39393,"is_reserved":false,"is_disabled":false,"rental_uris":{"android":"levelo://app?vid=84da895f-8644-471d-8d78-3799d533c31e","ios":"levelo://app?vid=84da895f-8644-471d-8d78-3799d533c31e"},"vehicle_type_id":"4","last_reported":1736255855,"current_range_meters":11600,"station_id":"ce4bhh92rcd13ifvqfj0","pricing_plan_id":"cebpf4jnsgd1na2vs0mg"},{"bike_id":"da19e859-6e7d-4e28-bc7f-faab7b0d4274","system_id":"levelo_inurba_marseille","lat":43.32701,"lon":5.40993,"is_reserved":false,"is_disabled":false,"rental_uris":{"android":"levelo://app?vid=da19e859-6e7d-4e28-bc7f-faab7b0d4274","ios":"levelo://app?vid=da19e859-6e7d-4e28-bc7f-faab7b0d4274"},"vehicle_type_id":"4","last_reported":1736255855,"current_range_meters":24800,"station_id":"ce4bhpp2rcd13ifvqhgg","pricing_plan_id":"cebpf4jnsgd1na2vs0mg"},{"bike_id":"6ebaba3b-a1f7-47a9-8a13-a47e91f8a3d0","system_id":"levelo_inurba_marseille","lat":43.26034,"lon":5.37552,"is_reserved":false,"is_disabled":false,"rental_uris":{"android":"levelo://app?vid=6ebaba3b-a1f7-47a9-8a13-a47e91f8a3d0","ios":"levelo://app?vid=6ebaba3b-a1f7-47a9-8a13-a47e91f8a3d0"},"vehicle_type_id":"4","last_reported":1736255855,"current_range_meters":38800,"station_id":"ce4bhgh2rcd13ifvqfa0","pricing_plan_id":"cebpf4jnsgd1na2vs0mg"},{"bike_id":"66e3f884-2832-41f6-a6b1-3bdad41c2efa","system_id":"levelo_inurba_marseille","lat":43.30875,"lon":5.39652,"is_reserved":false,"is_disabled":false,"rental_uris":{"android":"levelo://app?vid=66e3f884-2832-41f6-a6b1-3bdad41c2efa","ios":"levelo://app?vid=66e3f884-2832-41f6-a6b1-3bdad41c2efa"},"vehicle_type_id":"4","last_reported":1736255855,"current_range_meters":39200,"station_id":"ce4bh012rcd13ifvqcv0","pricing_plan_id":"cebpf4jnsgd1na2vs0mg"},{"bike_id":"a23e7dd5-84cc-4eca-9236-90b42c7ed41b","system_id":"levelo_inurba_marseille","lat":43.32348,"lon":5.40621,"is_reserved":false,"is_disabled":true,"rental_uris":{"android":"levelo://app?vid=a23e7dd5-84cc-4eca-9236-90b42c7ed41b","ios":"levelo://app?vid=a23e7dd5-84cc-4eca-9236-90b42c7ed41b"},"vehicle_type_id":"4","last_reported":1736255855,"current_range_meters":12400,"station_id":"ce4bhq92rcd13ifvqhjg","pricing_plan_id":"cebpf4jnsgd1na2vs0mg"},{"bike_id":"1b6a9daa-e594-4067-a45a-776eeee436ff","system_id":"levelo_inurba_marseille","lat":43.24063,"lon":5.3775,"is_reserved":false,"is_disabled":true,"rental_uris":{"android":"levelo://app?vid=1b6a9daa-e594-4067-a45a-776eeee436ff","ios":"levelo://app?vid=1b6a9daa-e594-4067-a45a-776eeee436ff"},"vehicle_type_id":"4","last_reported":1736255855,"current_range_meters":0,"station_id":"ce4bhnp2rcd13ifvqgvg","pricing_plan_id":"cebpf4jnsgd1na2vs0mg"},{"bike_id":"bcfcdd76-be36-45b6-88f2-c3189a920404","system_id":"levelo_inurba_marseille","lat":43.30286,"lon":5.37693,"is_reserved":false,"is_disabled":false,"rental_uris":{"android":"levelo://app?vid=bcfcdd76-be36-45b6-88f2-c3189a920404","ios":"levelo://app?vid=bcfcdd76-be36-45b6-88f2-c3189a920404"},"vehicle_type_id":"4","last_reported":1736255855,"current_range_meters":38800,"station_id":"ce4bguh2rcd13ifvqcj0","pricing_plan_id":"cebpf4jnsgd1na2vs0mg"},{"bike_id":"f11f56c5-47e5-43f6-bbfb-e36c082db081","system_id":"levelo_inurba_marseille","lat":43.31375,"lon":5.36763,"is_reserved":false,"is_disabled":false,"rental_uris":{"android":"levelo://app?vid=f11f56c5-47e5-43f6-bbfb-e36c082db081","ios":"levelo://app?vid=f11f56c5-47e5-43f6-bbfb-e36c082db081"},"vehicle_type_id":"4","last_reported":1736255855,"current_range_meters":38400,"station_id":"ce4bgr92rcd13ifvqc6g","pricing_plan_id":"cebpf4jnsgd1na2vs0mg"},{"bike_id":"9ee108f3-02b8-4220-a6f2-406a18ff2625","system_id":"levelo_inurba_marseille","lat":43.31708,"lon":5.37743,"is_reserved":false,"is_disabled":false,"rental_uris":{"android":"levelo://app?vid=9ee108f3-02b8-4220-a6f2-406a18ff2625","ios":"levelo://app?vid=9ee108f3-02b8-4220-a6f2-406a18ff2625"},"vehicle_type_id":"4","last_reported":1736255855,"current_range_meters":28000,"station_id":"ce4bgth2rcd13ifvqch0","pricing_plan_id":"cebpf4jnsgd1na2vs0mg"},{"bike_id":"b56a39d9-19bd-4dd9-8b10-35a829abb030","system_id":"levelo_inurba_marseille","lat":43.28936,"lon":5.36642,"is_reserved":false,"is_disabled":false,"rental_uris":{"android":"levelo://app?vid=b56a39d9-19bd-4dd9-8b10-35a829abb030","ios":"levelo://app?vid=b56a39d9-19bd-4dd9-8b10-35a829abb030"},"vehicle_type_id":"4","last_reported":1736255855,"current_range_meters":20000,"station_id":"ce4bhap2rcd13ifvqek0","pricing_plan_id":"cebpf4jnsgd1na2vs0mg"},{"bike_id":"db973fb0-a7a7-419f-905d-9711a91dd280","system_id":"levelo_inurba_marseille","lat":43.25723,"lon":5.41108,"is_reserved":false,"is_disabled":true,"rental_uris":{"android":"levelo://app?vid=db973fb0-a7a7-419f-905d-9711a91dd280","ios":"levelo://app?vid=db973fb0-a7a7-419f-905d-9711a91dd280"},"vehicle_type_id":"4","last_reported":1736255855,"current_range_meters":35600,"station_id":"ce4bhkp2rcd13ifvqgd0","pricing_plan_id":"cebpf4jnsgd1na2vs0mg"},{"bike_id":"a0b57a50-67bc-4d12-bffe-4176748f2bc4","system_id":"levelo_inurba_marseille","lat":43.30309,"lon":5.369094,"is_reserved":false,"is_disabled":false,"rental_uris":{"android":"levelo://app?vid=a0b57a50-67bc-4d12-bffe-4176748f2bc4","ios":"levelo://app?vid=a0b57a50-67bc-4d12-bffe-4176748f2bc4"},"vehicle_type_id":"4","last_reported":1736255855,"current_range_meters":15200,"station_id":"ce4bgqh2rcd13ifvqc5g","pricing_plan_id":"cebpf4jnsgd1na2vs0mg"},{"bike_id":"92468610-4619-4028-811e-242ed2a589b0","system_id":"levelo_inurba_marseille","lat":43.23198,"lon":5.39992,"is_reserved":false,"is_disabled":false,"rental_uris":{"android":"levelo://app?vid=92468610-4619-4028-811e-242ed2a589b0","ios":"levelo://app?vid=92468610-4619-4028-811e-242ed2a589b0"},"vehicle_type_id":"4","last_reported":1736255855,"current_range_meters":12800,"station_id":"ce4bhn12rcd13ifvqgqg","pricing_plan_id":"cebpf4jnsgd1na2vs0mg"},{"bike_id":"60e5398e-c1c8-4b38-bf14-d28284832e7d","system_id":"levelo_inurba_marseille","lat":43.29874,"lon":5.39734,"is_reserved":false,"is_disabled":false,"rental_uris":{"android":"levelo://app?vid=60e5398e-c1c8-4b38-bf14-d28284832e7d","ios":"levelo://app?vid=60e5398e-c1c8-4b38-bf14-d28284832e7d"},"vehicle_type_id":"4","last_reported":1736255855,"current_range_meters":3600,"station_id":"ce4bh0h2rcd13ifvqd50","pricing_plan_id":"cebpf4jnsgd1na2vs0mg"},{"bike_id":"ad92df60-f3d5-495a-8326-c79bafcf1594","system_id":"levelo_inurba_marseille","lat":43.32286,"lon":5.38269,"is_reserved":false,"is_disabled":false,"rental_uris":{"android":"levelo://app?vid=ad92df60-f3d5-495a-8326-c79bafcf1594","ios":"levelo://app?vid=ad92df60-f3d5-495a-8326-c79bafcf1594"},"vehicle_type_id":"4","last_reported":1736255855,"current_range_meters":38800,"station_id":"ce4bhr12rcd13ifvqhqg","pricing_plan_id":"cebpf4jnsgd1na2vs0mg"},{"bike_id":"c0582d81-71b0-4eea-ba50-4da054cc145f","system_id":"levelo_inurba_marseille","lat":43.28159,"lon":5.42653,"is_reserved":false,"is_disabled":false,"rental_uris":{"android":"levelo://app?vid=c0582d81-71b0-4eea-ba50-4da054cc145f","ios":"levelo://app?vid=c0582d81-71b0-4eea-ba50-4da054cc145f"},"vehicle_type_id":"4","last_reported":1736255855,"current_range_meters":5600,"station_id":"ce4bhnh2rcd13ifvqgug","pricing_plan_id":"cebpf4jnsgd1na2vs0mg"},{"bike_id":"0aa10dfe-cc5f-4fc7-90b8-fc6a5ef6e9bf","system_id":"levelo_inurba_marseille","lat":43.255851,"lon":5.382333,"is_reserved":false,"is_disabled":false,"rental_uris":{"android":"levelo://app?vid=0aa10dfe-cc5f-4fc7-90b8-fc6a5ef6e9bf","ios":"levelo://app?vid=0aa10dfe-cc5f-4fc7-90b8-fc6a5ef6e9bf"},"vehicle_type_id":"4","last_reported":1736255855,"current_range_meters":16400,"station_id":"ce4bhih2rcd13ifvqfs0","pricing_plan_id":"cebpf4jnsgd1na2vs0mg"},{"bike_id":"bc9bb4d7-2fdc-4d34-b0a0-ed77a3035abd","system_id":"levelo_inurba_marseille","lat":43.31697,"lon":5.37756,"is_reserved":false,"is_disabled":false,"rental_uris":{"android":"levelo://app?vid=bc9bb4d7-2fdc-4d34-b0a0-ed77a3035abd","ios":"levelo://app?vid=bc9bb4d7-2fdc-4d34-b0a0-ed77a3035abd"},"vehicle_type_id":"4","last_reported":1736255855,"current_range_meters":26800,"station_id":"ce4bgth2rcd13ifvqch0","pricing_plan_id":"cebpf4jnsgd1na2vs0mg"},{"bike_id":"ffd0db72-8e0a-4419-80e4-01dbcc733e0d","system_id":"levelo_inurba_marseille","lat":43.27506,"lon":5.42456,"is_reserved":false,"is_disabled":false,"rental_uris":{"android":"levelo://app?vid=ffd0db72-8e0a-4419-80e4-01dbcc733e0d","ios":"levelo://app?vid=ffd0db72-8e0a-4419-80e4-01dbcc733e0d"},"vehicle_type_id":"4","last_reported":1736255855,"current_range_meters":22800,"station_id":"ce4bhn92rcd13ifvqgrg","pricing_plan_id":"cebpf4jnsgd1na2vs0mg"},{"bike_id":"49cc2a76-479d-444c-bd5a-568e445cdfb6","system_id":"levelo_inurba_marseille","lat":43.30373,"lon":5.39363,"is_reserved":false,"is_disabled":false,"rental_uris":{"android":"levelo://app?vid=49cc2a76-479d-444c-bd5a-568e445cdfb6","ios":"levelo://app?vid=49cc2a76-479d-444c-bd5a-568e445cdfb6"},"vehicle_type_id":"4","last_reported":1736255855,"current_range_meters":32400,"station_id":"","pricing_plan_id":"cebpf4jnsgd1na2vs0mg"},{"bike_id":"7b78d5e2-5142-402d-a4f8-0f3037a6c533","system_id":"levelo_inurba_marseille","lat":43.26977,"lon":5.38656,"is_reserved":false,"is_disabled":true,"rental_uris":{"android":"levelo://app?vid=7b78d5e2-5142-402d-a4f8-0f3037a6c533","ios":"levelo://app?vid=7b78d5e2-5142-402d-a4f8-0f3037a6c533"},"vehicle_type_id":"4","last_reported":1736255855,"current_range_meters":33200,"station_id":"ce4bhh92rcd13ifvqfh0","pricing_plan_id":"cebpf4jnsgd1na2vs0mg"},{"bike_id":"9ddb05c1-b66e-4800-9c6c-e40178061a64","system_id":"levelo_inurba_marseille","lat":43.2516,"lon":5.40331,"is_reserved":false,"is_disabled":false,"rental_uris":{"android":"levelo://app?vid=9ddb05c1-b66e-4800-9c6c-e40178061a64","ios":"levelo://app?vid=9ddb05c1-b66e-4800-9c6c-e40178061a64"},"vehicle_type_id":"4","last_reported":1736255855,"current_range_meters":31200,"station_id":"","pricing_plan_id":"cebpf4jnsgd1na2vs0mg"},{"bike_id":"cbc59a7f-e1a8-43ac-ae6d-a93a64d28f1a","system_id":"levelo_inurba_marseille","lat":43.26942,"lon":5.38649,"is_reserved":false,"is_disabled":false,"rental_uris":{"android":"levelo://app?vid=cbc59a7f-e1a8-43ac-ae6d-a93a64d28f1a","ios":"levelo://app?vid=cbc59a7f-e1a8-43ac-ae6d-a93a64d28f1a"},"vehicle_type_id":"4","last_reported":1736255855,"current_range_meters":38400,"station_id":"ce4bhh92rcd13ifvqfh0","pricing_plan_id":"cebpf4jnsgd1na2vs0mg"},{"bike_id":"ccefbdf4-df27-4947-9b01-eba3707af800","system_id":"levelo_inurba_marseille","lat":43.29548,"lon":5.38549,"is_reserved":false,"is_disabled":true,"rental_uris":{"android":"levelo://app?vid=ccefbdf4-df27-4947-9b01-eba3707af800","ios":"levelo://app?vid=ccefbdf4-df27-4947-9b01-eba3707af800"},"vehicle_type_id":"4","last_reported":1736255855,"current_range_meters":20400,"station_id":"ce4bgih2rcd13ifvqba0","pricing_plan_id":"cebpf4jnsgd1na2vs0mg"},{"bike_id":"15c6a4a4-22a2-45b6-a26f-20172a12246a","system_id":"levelo_inurba_marseille","lat":43.2509,"lon":5.39514,"is_reserved":false,"is_disabled":false,"rental_uris":{"android":"levelo://app?vid=15c6a4a4-22a2-45b6-a26f-20172a12246a","ios":"levelo://app?vid=15c6a4a4-22a2-45b6-a26f-20172a12246a"},"vehicle_type_id":"4","last_reported":1736255855,"current_range_meters":36800,"station_id":"ce4bhm12rcd13ifvqgkg","pricing_plan_id":"cebpf4jnsgd1na2vs0mg"},{"bike_id":"1df82232-a0be-459c-bcf6-1054c5b1bfef","system_id":"levelo_inurba_marseille","lat":43.30478,"lon":5.37915,"is_reserved":false,"is_disabled":false,"rental_uris":{"android":"levelo://app?vid=1df82232-a0be-459c-bcf6-1054c5b1bfef","ios":"levelo://app?vid=1df82232-a0be-459c-bcf6-1054c5b1bfef"},"vehicle_type_id":"4","last_reported":1736255855,"current_range_meters":38800,"station_id":"ce4bgup2rcd13ifvqcn0","pricing_plan_id":"cebpf4jnsgd1na2vs0mg"},{"bike_id":"76cd352e-a8d9-42f0-bb47-cbf0cb3d076a","system_id":"levelo_inurba_marseille","lat":43.26684,"lon":5.38286,"is_reserved":false,"is_disabled":false,"rental_uris":{"android":"levelo://app?vid=76cd352e-a8d9-42f0-bb47-cbf0cb3d076a","ios":"levelo://app?vid=76cd352e-a8d9-42f0-bb47-cbf0cb3d076a"},"vehicle_type_id":"4","last_reported":1736255855,"current_range_meters":31200,"station_id":"ce4bhg92rcd13ifvqf90","pricing_plan_id":"cebpf4jnsgd1na2vs0mg"},{"bike_id":"0d955591-bc64-4481-8850-952c36cb5946","system_id":"levelo_inurba_marseille","lat":43.29013,"lon":5.3865,"is_reserved":false,"is_disabled":false,"rental_uris":{"android":"levelo://app?vid=0d955591-bc64-4481-8850-952c36cb5946","ios":"levelo://app?vid=0d955591-bc64-4481-8850-952c36cb5946"},"vehicle_type_id":"4","last_reported":1736255855,"current_range_meters":32000,"station_id":"ce4bh4p2rcd13ifvqe0g","pricing_plan_id":"cebpf4jnsgd1na2vs0mg"},{"bike_id":"d1b07fa2-a282-4b22-a3e0-707b6102753f","system_id":"levelo_inurba_marseille","lat":43.29787,"lon":5.39346,"is_reserved":false,"is_disabled":false,"rental_uris":{"android":"levelo://app?vid=d1b07fa2-a282-4b22-a3e0-707b6102753f","ios":"levelo://app?vid=d1b07fa2-a282-4b22-a3e0-707b6102753f"},"vehicle_type_id":"4","last_reported":1736255855,"current_range_meters":35600,"station_id":"chh1huq6cuj3fo74tm60","pricing_plan_id":"cebpf4jnsgd1na2vs0mg"},{"bike_id":"24b5122d-d1fa-485d-8bde-070b2afdf29f","system_id":"levelo_inurba_marseille","lat":43.28093,"lon":5.37837,"is_reserved":false,"is_disabled":false,"rental_uris":{"android":"levelo://app?vid=24b5122d-d1fa-485d-8bde-070b2afdf29f","ios":"levelo://app?vid=24b5122d-d1fa-485d-8bde-070b2afdf29f"},"vehicle_type_id":"4","last_reported":1736255855,"current_range_meters":28800,"station_id":"ce4bha12rcd13ifvqee0","pricing_plan_id":"cebpf4jnsgd1na2vs0mg"},{"bike_id":"1e5cc040-d727-4920-a14f-c066164a6b0f","system_id":"levelo_inurba_marseille","lat":43.29633,"lon":5.40588,"is_reserved":false,"is_disabled":false,"rental_uris":{"android":"levelo://app?vid=1e5cc040-d727-4920-a14f-c066164a6b0f","ios":"levelo://app?vid=1e5cc040-d727-4920-a14f-c066164a6b0f"},"vehicle_type_id":"4","last_reported":1736255855,"current_range_meters":19600,"station_id":"ce4bh0h2rcd13ifvqd60","pricing_plan_id":"cebpf4jnsgd1na2vs0mg"},{"bike_id":"f8ae6fa2-9568-4f23-bda7-a92dbb665e84","system_id":"levelo_inurba_marseille","lat":43.26677,"lon":5.38259,"is_reserved":false,"is_disabled":false,"rental_uris":{"android":"levelo://app?vid=f8ae6fa2-9568-4f23-bda7-a92dbb665e84","ios":"levelo://app?vid=f8ae6fa2-9568-4f23-bda7-a92dbb665e84"},"vehicle_type_id":"4","last_reported":1736255855,"current_range_meters":29600,"station_id":"ce4bhg92rcd13ifvqf90","pricing_plan_id":"cebpf4jnsgd1na2vs0mg"},{"bike_id":"15ec15a3-0175-406e-adf7-839e515f1e2e","system_id":"levelo_inurba_marseille","lat":43.2997,"lon":5.38491,"is_reserved":false,"is_disabled":false,"rental_uris":{"android":"levelo://app?vid=15ec15a3-0175-406e-adf7-839e515f1e2e","ios":"levelo://app?vid=15ec15a3-0175-406e-adf7-839e515f1e2e"},"vehicle_type_id":"4","last_reported":1736255855,"current_range_meters":19600,"station_id":"ce4bgj92rcd13ifvqbd0","pricing_plan_id":"cebpf4jnsgd1na2vs0mg"},{"bike_id":"637c9e25-6ec5-4d5c-9ec9-ed6c73dcb821","system_id":"levelo_inurba_marseille","lat":43.31718,"lon":5.3784,"is_reserved":false,"is_disabled":false,"rental_uris":{"android":"levelo://app?vid=637c9e25-6ec5-4d5c-9ec9-ed6c73dcb821","ios":"levelo://app?vid=637c9e25-6ec5-4d5c-9ec9-ed6c73dcb821"},"vehicle_type_id":"4","last_reported":1736255855,"current_range_meters":36000,"station_id":"","pricing_plan_id":"cebpf4jnsgd1na2vs0mg"},{"bike_id":"24420642-744d-461d-a6fb-a5c096a0ad1c","system_id":"levelo_inurba_marseille","lat":43.303257,"lon":5.404348,"is_reserved":false,"is_disabled":false,"rental_uris":{"android":"levelo://app?vid=24420642-744d-461d-a6fb-a5c096a0ad1c","ios":"levelo://app?vid=24420642-744d-461d-a6fb-a5c096a0ad1c"},"vehicle_type_id":"4","last_reported":1736255855,"current_range_meters":37600,"station_id":"ce4bh012rcd13ifvqd10","pricing_plan_id":"cebpf4jnsgd1na2vs0mg"},{"bike_id":"79a7e2d3-c3a6-448c-ac5e-6d8a7a655783","system_id":"levelo_inurba_marseille","lat":43.3021,"lon":5.39464,"is_reserved":false,"is_disabled":false,"rental_uris":{"android":"levelo://app?vid=79a7e2d3-c3a6-448c-ac5e-6d8a7a655783","ios":"levelo://app?vid=79a7e2d3-c3a6-448c-ac5e-6d8a7a655783"},"vehicle_type_id":"4","last_reported":1736255855,"current_range_meters":20800,"station_id":"ce4bh0p2rcd13ifvqd70","pricing_plan_id":"cebpf4jnsgd1na2vs0mg"},{"bike_id":"f4d89a0a-2551-4f65-a39a-2779380e4d0d","system_id":"levelo_inurba_marseille","lat":43.292236,"lon":5.36053,"is_reserved":false,"is_disabled":false,"rental_uris":{"android":"levelo://app?vid=f4d89a0a-2551-4f65-a39a-2779380e4d0d","ios":"levelo://app?vid=f4d89a0a-2551-4f65-a39a-2779380e4d0d"},"vehicle_type_id":"4","last_reported":1736255855,"current_range_meters":22000,"station_id":"ce4bhbh2rcd13ifvqeqg","pricing_plan_id":"cebpf4jnsgd1na2vs0mg"},{"bike_id":"5671a7cc-1094-4b46-906d-b97f733ad9e2","system_id":"levelo_inurba_marseille","lat":43.3031,"lon":5.40451,"is_reserved":false,"is_disabled":true,"rental_uris":{"android":"levelo://app?vid=5671a7cc-1094-4b46-906d-b97f733ad9e2","ios":"levelo://app?vid=5671a7cc-1094-4b46-906d-b97f733ad9e2"},"vehicle_type_id":"4","last_reported":1736255855,"current_range_meters":37600,"station_id":"ce4bh012rcd13ifvqd10","pricing_plan_id":"cebpf4jnsgd1na2vs0mg"},{"bike_id":"87214e56-26a8-4924-b39b-0d8eef493d3c","system_id":"levelo_inurba_marseille","lat":43.27999,"lon":5.36941,"is_reserved":false,"is_disabled":true,"rental_uris":{"android":"levelo://app?vid=87214e56-26a8-4924-b39b-0d8eef493d3c","ios":"levelo://app?vid=87214e56-26a8-4924-b39b-0d8eef493d3c"},"vehicle_type_id":"4","last_reported":1736255855,"current_range_meters":400,"station_id":"ce4bha12rcd13ifvqef0","pricing_plan_id":"cebpf4jnsgd1na2vs0mg"},{"bike_id":"002cce3f-9cee-431a-a280-2bf32cc03b16","system_id":"levelo_inurba_marseille","lat":43.30889,"lon":5.37206,"is_reserved":false,"is_disabled":false,"rental_uris":{"android":"levelo://app?vid=002cce3f-9cee-431a-a280-2bf32cc03b16","ios":"levelo://app?vid=002cce3f-9cee-431a-a280-2bf32cc03b16"},"vehicle_type_id":"4","last_reported":1736255855,"current_range_meters":36400,"station_id":"ce4bguh2rcd13ifvqckg","pricing_plan_id":"cebpf4jnsgd1na2vs0mg"},{"bike_id":"005c2044-0c78-410b-b1cd-e1e9feaa0e05","system_id":"levelo_inurba_marseille","lat":43.2397,"lon":5.36634,"is_reserved":false,"is_disabled":false,"rental_uris":{"android":"levelo://app?vid=005c2044-0c78-410b-b1cd-e1e9feaa0e05","ios":"levelo://app?vid=005c2044-0c78-410b-b1cd-e1e9feaa0e05"},"vehicle_type_id":"4","last_reported":1736255855,"current_range_meters":18800,"station_id":"ce4bhi12rcd13ifvqfp0","pricing_plan_id":"cebpf4jnsgd1na2vs0mg"},{"bike_id":"aeb0d51e-c880-4a72-880d-69368e7d2228","system_id":"levelo_inurba_marseille","lat":43.24073,"lon":5.37748,"is_reserved":false,"is_disabled":false,"rental_uris":{"android":"levelo://app?vid=aeb0d51e-c880-4a72-880d-69368e7d2228","ios":"levelo://app?vid=aeb0d51e-c880-4a72-880d-69368e7d2228"},"vehicle_type_id":"4","last_reported":1736255855,"current_range_meters":34000,"station_id":"ce4bhnp2rcd13ifvqgvg","pricing_plan_id":"cebpf4jnsgd1na2vs0mg"},{"bike_id":"16b89ae8-f67b-4693-8596-6a2fd3b1b7f9","system_id":"levelo_inurba_marseille","lat":43.30547,"lon":5.3654,"is_reserved":false,"is_disabled":false,"rental_uris":{"android":"levelo://app?vid=16b89ae8-f67b-4693-8596-6a2fd3b1b7f9","ios":"levelo://app?vid=16b89ae8-f67b-4693-8596-6a2fd3b1b7f9"},"vehicle_type_id":"4","last_reported":1736255855,"current_range_meters":23200,"station_id":"ce4bgs12rcd13ifvqcag","pricing_plan_id":"cebpf4jnsgd1na2vs0mg"},{"bike_id":"adcaf6b4-088b-4e6c-8077-d88886bc7b5e","system_id":"levelo_inurba_marseille","lat":43.30453,"lon":5.37912,"is_reserved":false,"is_disabled":false,"rental_uris":{"android":"levelo://app?vid=adcaf6b4-088b-4e6c-8077-d88886bc7b5e","ios":"levelo://app?vid=adcaf6b4-088b-4e6c-8077-d88886bc7b5e"},"vehicle_type_id":"4","last_reported":1736255855,"current_range_meters":10800,"station_id":"ce4bgup2rcd13ifvqcn0","pricing_plan_id":"cebpf4jnsgd1na2vs0mg"},{"bike_id":"95e5cb8a-94c1-4734-b68c-d5e982be7034","system_id":"levelo_inurba_marseille","lat":43.25819,"lon":5.39442,"is_reserved":false,"is_disabled":true,"rental_uris":{"android":"levelo://app?vid=95e5cb8a-94c1-4734-b68c-d5e982be7034","ios":"levelo://app?vid=95e5cb8a-94c1-4734-b68c-d5e982be7034"},"vehicle_type_id":"4","last_reported":1736255855,"current_range_meters":34800,"station_id":"ce4bhip2rcd13ifvqft0","pricing_plan_id":"cebpf4jnsgd1na2vs0mg"},{"bike_id":"94ae9d8d-339e-41f5-bf14-1e9df4322647","system_id":"levelo_inurba_marseille","lat":43.27494,"lon":5.4246,"is_reserved":false,"is_disabled":true,"rental_uris":{"android":"levelo://app?vid=94ae9d8d-339e-41f5-bf14-1e9df4322647","ios":"levelo://app?vid=94ae9d8d-339e-41f5-bf14-1e9df4322647"},"vehicle_type_id":"4","last_reported":1736255855,"current_range_meters":36400,"station_id":"ce4bhn92rcd13ifvqgrg","pricing_plan_id":"cebpf4jnsgd1na2vs0mg"},{"bike_id":"6a595de3-0911-46a9-bdbf-4cca5437105e","system_id":"levelo_inurba_marseille","lat":43.232003,"lon":5.355541,"is_reserved":false,"is_disabled":false,"rental_uris":{"android":"levelo://app?vid=6a595de3-0911-46a9-bdbf-4cca5437105e","ios":"levelo://app?vid=6a595de3-0911-46a9-bdbf-4cca5437105e"},"vehicle_type_id":"4","last_reported":1736255855,"current_range_meters":16000,"station_id":"ce4bhu92rcd13ifvqi70","pricing_plan_id":"cebpf4jnsgd1na2vs0mg"},{"bike_id":"641d8acc-50b2-4173-ab23-c70f2a11d28e","system_id":"levelo_inurba_marseille","lat":43.28153,"lon":5.42616,"is_reserved":false,"is_disabled":true,"rental_uris":{"android":"levelo://app?vid=641d8acc-50b2-4173-ab23-c70f2a11d28e","ios":"levelo://app?vid=641d8acc-50b2-4173-ab23-c70f2a11d28e"},"vehicle_type_id":"4","last_reported":1736255855,"current_range_meters":24000,"station_id":"ce4bhnh2rcd13ifvqgug","pricing_plan_id":"cebpf4jnsgd1na2vs0mg"},{"bike_id":"432b887d-591c-42df-87e8-fee1f72df8a4","system_id":"levelo_inurba_marseille","lat":43.30126,"lon":5.387733,"is_reserved":false,"is_disabled":false,"rental_uris":{"android":"levelo://app?vid=432b887d-591c-42df-87e8-fee1f72df8a4","ios":"levelo://app?vid=432b887d-591c-42df-87e8-fee1f72df8a4"},"vehicle_type_id":"4","last_reported":1736255855,"current_range_meters":12000,"station_id":"ce4bghh2rcd13ifvqb60","pricing_plan_id":"cebpf4jnsgd1na2vs0mg"},{"bike_id":"15e503f5-1d52-42d6-a98f-33a61fd8b554","system_id":"levelo_inurba_marseille","lat":43.28477,"lon":5.3589,"is_reserved":false,"is_disabled":true,"rental_uris":{"android":"levelo://app?vid=15e503f5-1d52-42d6-a98f-33a61fd8b554","ios":"levelo://app?vid=15e503f5-1d52-42d6-a98f-33a61fd8b554"},"vehicle_type_id":"4","last_reported":1736255855,"current_range_meters":16400,"station_id":"ce4bhah2rcd13ifvqei0","pricing_plan_id":"cebpf4jnsgd1na2vs0mg"},{"bike_id":"fc4f4fbe-0b2c-431b-a14f-b432ec7eed3b","system_id":"levelo_inurba_marseille","lat":43.30955,"lon":5.39044,"is_reserved":false,"is_disabled":false,"rental_uris":{"android":"levelo://app?vid=fc4f4fbe-0b2c-431b-a14f-b432ec7eed3b","ios":"levelo://app?vid=fc4f4fbe-0b2c-431b-a14f-b432ec7eed3b"},"vehicle_type_id":"4","last_reported":1736255855,"current_range_meters":6400,"station_id":"ce4bgup2rcd13ifvqco0","pricing_plan_id":"cebpf4jnsgd1na2vs0mg"},{"bike_id":"b431fb1b-91ef-49ea-bfde-e98d930522d6","system_id":"levelo_inurba_marseille","lat":43.25012,"lon":5.38933,"is_reserved":false,"is_disabled":false,"rental_uris":{"android":"levelo://app?vid=b431fb1b-91ef-49ea-bfde-e98d930522d6","ios":"levelo://app?vid=b431fb1b-91ef-49ea-bfde-e98d930522d6"},"vehicle_type_id":"4","last_reported":1736255855,"current_range_meters":38400,"station_id":"ce4bhgp2rcd13ifvqfd0","pricing_plan_id":"cebpf4jnsgd1na2vs0mg"},{"bike_id":"efc1f82b-7c45-485b-88c1-5e129790dd0a","system_id":"levelo_inurba_marseille","lat":43.28935,"lon":5.3638,"is_reserved":false,"is_disabled":false,"rental_uris":{"android":"levelo://app?vid=efc1f82b-7c45-485b-88c1-5e129790dd0a","ios":"levelo://app?vid=efc1f82b-7c45-485b-88c1-5e129790dd0a"},"vehicle_type_id":"4","last_reported":1736255855,"current_range_meters":29600,"station_id":"ce4bhc92rcd13ifvqetg","pricing_plan_id":"cebpf4jnsgd1na2vs0mg"},{"bike_id":"d00102bd-c1fd-4b8f-a07c-425ddfb9b914","system_id":"levelo_inurba_marseille","lat":43.27056,"lon":5.40261,"is_reserved":false,"is_disabled":false,"rental_uris":{"android":"levelo://app?vid=d00102bd-c1fd-4b8f-a07c-425ddfb9b914","ios":"levelo://app?vid=d00102bd-c1fd-4b8f-a07c-425ddfb9b914"},"vehicle_type_id":"4","last_reported":1736255855,"current_range_meters":6000,"station_id":"ce4bhk92rcd13ifvqgc0","pricing_plan_id":"cebpf4jnsgd1na2vs0mg"},{"bike_id":"97db5fba-863c-4fa0-a4ed-153fce28887a","system_id":"levelo_inurba_marseille","lat":43.2907,"lon":5.37159,"is_reserved":false,"is_disabled":false,"rental_uris":{"android":"levelo://app?vid=97db5fba-863c-4fa0-a4ed-153fce28887a","ios":"levelo://app?vid=97db5fba-863c-4fa0-a4ed-153fce28887a"},"vehicle_type_id":"4","last_reported":1736255855,"current_range_meters":35200,"station_id":"ce4bh5p2rcd13ifvqe4g","pricing_plan_id":"cebpf4jnsgd1na2vs0mg"},{"bike_id":"6d88bbf0-f428-4bd4-ab8a-2ee8d5e7c74e","system_id":"levelo_inurba_marseille","lat":43.230601,"lon":5.354952,"is_reserved":false,"is_disabled":false,"rental_uris":{"android":"levelo://app?vid=6d88bbf0-f428-4bd4-ab8a-2ee8d5e7c74e","ios":"levelo://app?vid=6d88bbf0-f428-4bd4-ab8a-2ee8d5e7c74e"},"vehicle_type_id":"4","last_reported":1736255855,"current_range_meters":38000,"station_id":"cpo3342slgdg3j2ifvpg","pricing_plan_id":"cebpf4jnsgd1na2vs0mg"},{"bike_id":"e3da8b13-5808-469f-b500-a29ff932627a","system_id":"levelo_inurba_marseille","lat":43.29787,"lon":5.39345,"is_reserved":false,"is_disabled":false,"rental_uris":{"android":"levelo://app?vid=e3da8b13-5808-469f-b500-a29ff932627a","ios":"levelo://app?vid=e3da8b13-5808-469f-b500-a29ff932627a"},"vehicle_type_id":"4","last_reported":1736255855,"current_range_meters":33200,"station_id":"chh1huq6cuj3fo74tm60","pricing_plan_id":"cebpf4jnsgd1na2vs0mg"},{"bike_id":"fc28be46-23fe-4f09-821c-8a3bd21ca77c","system_id":"levelo_inurba_marseille","lat":43.25573,"lon":5.38242,"is_reserved":false,"is_disabled":true,"rental_uris":{"android":"levelo://app?vid=fc28be46-23fe-4f09-821c-8a3bd21ca77c","ios":"levelo://app?vid=fc28be46-23fe-4f09-821c-8a3bd21ca77c"},"vehicle_type_id":"4","last_reported":1736255855,"current_range_meters":800,"station_id":"ce4bhih2rcd13ifvqfs0","pricing_plan_id":"cebpf4jnsgd1na2vs0mg"},{"bike_id":"97198f3e-fcb9-40de-ae26-e22e21936593","system_id":"levelo_inurba_marseille","lat":43.25813,"lon":5.39432,"is_reserved":false,"is_disabled":false,"rental_uris":{"android":"levelo://app?vid=97198f3e-fcb9-40de-ae26-e22e21936593","ios":"levelo://app?vid=97198f3e-fcb9-40de-ae26-e22e21936593"},"vehicle_type_id":"4","last_reported":1736255855,"current_range_meters":36400,"station_id":"ce4bhip2rcd13ifvqft0","pricing_plan_id":"cebpf4jnsgd1na2vs0mg"},{"bike_id":"29ce432b-74aa-44ff-9f03-dbd8eeab94e5","system_id":"levelo_inurba_marseille","lat":43.29444,"lon":5.39746,"is_reserved":false,"is_disabled":false,"rental_uris":{"android":"levelo://app?vid=29ce432b-74aa-44ff-9f03-dbd8eeab94e5","ios":"levelo://app?vid=29ce432b-74aa-44ff-9f03-dbd8eeab94e5"},"vehicle_type_id":"4","last_reported":1736255855,"current_range_meters":30400,"station_id":"ce4bh3h2rcd13ifvqdo0","pricing_plan_id":"cebpf4jnsgd1na2vs0mg"},{"bike_id":"05bd0f7d-2e1d-4674-8e4e-7a85c8b489af","system_id":"levelo_inurba_marseille","lat":43.27074,"lon":5.40285,"is_reserved":false,"is_disabled":false,"rental_uris":{"android":"levelo://app?vid=05bd0f7d-2e1d-4674-8e4e-7a85c8b489af","ios":"levelo://app?vid=05bd0f7d-2e1d-4674-8e4e-7a85c8b489af"},"vehicle_type_id":"4","last_reported":1736255855,"current_range_meters":19600,"station_id":"ce4bhk92rcd13ifvqgc0","pricing_plan_id":"cebpf4jnsgd1na2vs0mg"},{"bike_id":"a5336a02-802a-4813-95ad-dc48c24ca3da","system_id":"levelo_inurba_marseille","lat":43.28148,"lon":5.42645,"is_reserved":false,"is_disabled":false,"rental_uris":{"android":"levelo://app?vid=a5336a02-802a-4813-95ad-dc48c24ca3da","ios":"levelo://app?vid=a5336a02-802a-4813-95ad-dc48c24ca3da"},"vehicle_type_id":"4","last_reported":1736255855,"current_range_meters":25600,"station_id":"ce4bhnh2rcd13ifvqgug","pricing_plan_id":"cebpf4jnsgd1na2vs0mg"},{"bike_id":"86cfe359-1d07-4226-a8aa-b9731bd056a4","system_id":"levelo_inurba_marseille","lat":43.30163,"lon":5.37423,"is_reserved":false,"is_disabled":false,"rental_uris":{"android":"levelo://app?vid=86cfe359-1d07-4226-a8aa-b9731bd056a4","ios":"levelo://app?vid=86cfe359-1d07-4226-a8aa-b9731bd056a4"},"vehicle_type_id":"4","last_reported":1736255855,"current_range_meters":38800,"station_id":"ce4bgs92rcd13ifvqcc0","pricing_plan_id":"cebpf4jnsgd1na2vs0mg"},{"bike_id":"26039251-63f2-4501-aea6-382144f0e643","system_id":"levelo_inurba_marseille","lat":43.24076,"lon":5.37757,"is_reserved":false,"is_disabled":false,"rental_uris":{"android":"levelo://app?vid=26039251-63f2-4501-aea6-382144f0e643","ios":"levelo://app?vid=26039251-63f2-4501-aea6-382144f0e643"},"vehicle_type_id":"4","last_reported":1736255855,"current_range_meters":28400,"station_id":"ce4bhnp2rcd13ifvqgvg","pricing_plan_id":"cebpf4jnsgd1na2vs0mg"},{"bike_id":"02a258fb-5ce8-4de7-af46-e18ee66364d9","system_id":"levelo_inurba_marseille","lat":43.29193,"lon":5.35796,"is_reserved":false,"is_disabled":false,"rental_uris":{"android":"levelo://app?vid=02a258fb-5ce8-4de7-af46-e18ee66364d9","ios":"levelo://app?vid=02a258fb-5ce8-4de7-af46-e18ee66364d9"},"vehicle_type_id":"4","last_reported":1736255855,"current_range_meters":37600,"station_id":"ce4bhb12rcd13ifvqel0","pricing_plan_id":"cebpf4jnsgd1na2vs0mg"},{"bike_id":"94b94df2-7302-46ff-a283-edcc723a0120","system_id":"levelo_inurba_marseille","lat":43.30532,"lon":5.36555,"is_reserved":false,"is_disabled":false,"rental_uris":{"android":"levelo://app?vid=94b94df2-7302-46ff-a283-edcc723a0120","ios":"levelo://app?vid=94b94df2-7302-46ff-a283-edcc723a0120"},"vehicle_type_id":"4","last_reported":1736255855,"current_range_meters":28000,"station_id":"ce4bgs12rcd13ifvqcag","pricing_plan_id":"cebpf4jnsgd1na2vs0mg"},{"bike_id":"a6b1fa15-0d95-44cb-8be4-c3e55514c811","system_id":"levelo_inurba_marseille","lat":43.27303,"lon":5.39095,"is_reserved":false,"is_disabled":false,"rental_uris":{"android":"levelo://app?vid=a6b1fa15-0d95-44cb-8be4-c3e55514c811","ios":"levelo://app?vid=a6b1fa15-0d95-44cb-8be4-c3e55514c811"},"vehicle_type_id":"4","last_reported":1736255855,"current_range_meters":8000,"station_id":"ce4bhgp2rcd13ifvqfe0","pricing_plan_id":"cebpf4jnsgd1na2vs0mg"},{"bike_id":"ba781db6-34da-423c-903c-0aaec8e3d855","system_id":"levelo_inurba_marseille","lat":43.29797,"lon":5.38112,"is_reserved":false,"is_disabled":false,"rental_uris":{"android":"levelo://app?vid=ba781db6-34da-423c-903c-0aaec8e3d855","ios":"levelo://app?vid=ba781db6-34da-423c-903c-0aaec8e3d855"},"vehicle_type_id":"4","last_reported":1736255855,"current_range_meters":17600,"station_id":"ce4bgip2rcd13ifvqbb0","pricing_plan_id":"cebpf4jnsgd1na2vs0mg"},{"bike_id":"29be7462-9155-450d-bff5-c22297d36807","system_id":"levelo_inurba_marseille","lat":43.29363,"lon":5.37851,"is_reserved":false,"is_disabled":false,"rental_uris":{"android":"levelo://app?vid=29be7462-9155-450d-bff5-c22297d36807","ios":"levelo://app?vid=29be7462-9155-450d-bff5-c22297d36807"},"vehicle_type_id":"4","last_reported":1736255855,"current_range_meters":38800,"station_id":"ce4bgjh2rcd13ifvqbf0","pricing_plan_id":"cebpf4jnsgd1na2vs0mg"},{"bike_id":"e7d3ecfd-2ef8-4c9b-98fd-1bbd5ac29109","system_id":"levelo_inurba_marseille","lat":43.31357,"lon":5.3672,"is_reserved":false,"is_disabled":false,"rental_uris":{"android":"levelo://app?vid=e7d3ecfd-2ef8-4c9b-98fd-1bbd5ac29109","ios":"levelo://app?vid=e7d3ecfd-2ef8-4c9b-98fd-1bbd5ac29109"},"vehicle_type_id":"4","last_reported":1736255855,"current_range_meters":19600,"station_id":"ce4bgr92rcd13ifvqc6g","pricing_plan_id":"cebpf4jnsgd1na2vs0mg"},{"bike_id":"b6414433-b905-4dc3-8388-83b79fbc566d","system_id":"levelo_inurba_marseille","lat":43.28602,"lon":5.35104,"is_reserved":false,"is_disabled":false,"rental_uris":{"android":"levelo://app?vid=b6414433-b905-4dc3-8388-83b79fbc566d","ios":"levelo://app?vid=b6414433-b905-4dc3-8388-83b79fbc566d"},"vehicle_type_id":"4","last_reported":1736255855,"current_range_meters":30400,"station_id":"ce4bhch2rcd13ifvqeug","pricing_plan_id":"cebpf4jnsgd1na2vs0mg"},{"bike_id":"73f16b5d-7aaf-4142-881f-0c71d79f7813","system_id":"levelo_inurba_marseille","lat":43.28269,"lon":5.35069,"is_reserved":false,"is_disabled":false,"rental_uris":{"android":"levelo://app?vid=73f16b5d-7aaf-4142-881f-0c71d79f7813","ios":"levelo://app?vid=73f16b5d-7aaf-4142-881f-0c71d79f7813"},"vehicle_type_id":"4","last_reported":1736255855,"current_range_meters":34000,"station_id":"ce4bhbp2rcd13ifvqerg","pricing_plan_id":"cebpf4jnsgd1na2vs0mg"},{"bike_id":"cca2f7c7-45e7-4f8a-80d9-cffca2b70c93","system_id":"levelo_inurba_marseille","lat":43.26685,"lon":5.38274,"is_reserved":false,"is_disabled":false,"rental_uris":{"android":"levelo://app?vid=cca2f7c7-45e7-4f8a-80d9-cffca2b70c93","ios":"levelo://app?vid=cca2f7c7-45e7-4f8a-80d9-cffca2b70c93"},"vehicle_type_id":"4","last_reported":1736255855,"current_range_meters":32000,"station_id":"ce4bhg92rcd13ifvqf90","pricing_plan_id":"cebpf4jnsgd1na2vs0mg"},{"bike_id":"6f8a166a-9182-4cbc-8130-ee9beef80f31","system_id":"levelo_inurba_marseille","lat":43.27318,"lon":5.3908,"is_reserved":false,"is_disabled":false,"rental_uris":{"android":"levelo://app?vid=6f8a166a-9182-4cbc-8130-ee9beef80f31","ios":"levelo://app?vid=6f8a166a-9182-4cbc-8130-ee9beef80f31"},"vehicle_type_id":"4","last_reported":1736255855,"current_range_meters":36800,"station_id":"ce4bhgp2rcd13ifvqfe0","pricing_plan_id":"cebpf4jnsgd1na2vs0mg"},{"bike_id":"edf135d7-fe46-453d-a20f-2c11dcbf0da8","system_id":"levelo_inurba_marseille","lat":43.26941,"lon":5.3866,"is_reserved":false,"is_disabled":false,"rental_uris":{"android":"levelo://app?vid=edf135d7-fe46-453d-a20f-2c11dcbf0da8","ios":"levelo://app?vid=edf135d7-fe46-453d-a20f-2c11dcbf0da8"},"vehicle_type_id":"4","last_reported":1736255855,"current_range_meters":29600,"station_id":"ce4bhh92rcd13ifvqfh0","pricing_plan_id":"cebpf4jnsgd1na2vs0mg"},{"bike_id":"ea302fee-f12b-4c9a-afb5-81b4b0899ffe","system_id":"levelo_inurba_marseille","lat":43.29895,"lon":5.38134,"is_reserved":false,"is_disabled":false,"rental_uris":{"android":"levelo://app?vid=ea302fee-f12b-4c9a-afb5-81b4b0899ffe","ios":"levelo://app?vid=ea302fee-f12b-4c9a-afb5-81b4b0899ffe"},"vehicle_type_id":"4","last_reported":1736255855,"current_range_meters":32800,"station_id":"ce4bgj12rcd13ifvqbc0","pricing_plan_id":"cebpf4jnsgd1na2vs0mg"},{"bike_id":"0a967f6d-fd0e-4773-80c2-1aa9d073824b","system_id":"levelo_inurba_marseille","lat":43.25096,"lon":5.39559,"is_reserved":false,"is_disabled":false,"rental_uris":{"android":"levelo://app?vid=0a967f6d-fd0e-4773-80c2-1aa9d073824b","ios":"levelo://app?vid=0a967f6d-fd0e-4773-80c2-1aa9d073824b"},"vehicle_type_id":"4","last_reported":1736255855,"current_range_meters":28800,"station_id":"ce4bhm12rcd13ifvqgkg","pricing_plan_id":"cebpf4jnsgd1na2vs0mg"},{"bike_id":"52b140ba-2fe3-4502-8e58-6b7390824e6d","system_id":"levelo_inurba_marseille","lat":43.29218,"lon":5.36059,"is_reserved":false,"is_disabled":false,"rental_uris":{"android":"levelo://app?vid=52b140ba-2fe3-4502-8e58-6b7390824e6d","ios":"levelo://app?vid=52b140ba-2fe3-4502-8e58-6b7390824e6d"},"vehicle_type_id":"4","last_reported":1736255855,"current_range_meters":30000,"station_id":"ce4bhbh2rcd13ifvqeqg","pricing_plan_id":"cebpf4jnsgd1na2vs0mg"},{"bike_id":"a7b6a724-b627-427f-a203-c936f30961bc","system_id":"levelo_inurba_marseille","lat":43.29332,"lon":5.37168,"is_reserved":false,"is_disabled":false,"rental_uris":{"android":"levelo://app?vid=a7b6a724-b627-427f-a203-c936f30961bc","ios":"levelo://app?vid=a7b6a724-b627-427f-a203-c936f30961bc"},"vehicle_type_id":"4","last_reported":1736255855,"current_range_meters":27600,"station_id":"ce4bgh92rcd13ifvqb40","pricing_plan_id":"cebpf4jnsgd1na2vs0mg"},{"bike_id":"59cb51db-ba8b-48d5-9d46-7d88a7f4b7e6","system_id":"levelo_inurba_marseille","lat":43.30331,"lon":5.39282,"is_reserved":false,"is_disabled":false,"rental_uris":{"android":"levelo://app?vid=59cb51db-ba8b-48d5-9d46-7d88a7f4b7e6","ios":"levelo://app?vid=59cb51db-ba8b-48d5-9d46-7d88a7f4b7e6"},"vehicle_type_id":"4","last_reported":1736255855,"current_range_meters":38400,"station_id":"ce4bgkh2rcd13ifvqbk0","pricing_plan_id":"cebpf4jnsgd1na2vs0mg"},{"bike_id":"5a72bf4b-4c62-4cad-a39c-b4b267b75123","system_id":"levelo_inurba_marseille","lat":43.34141,"lon":5.40909,"is_reserved":false,"is_disabled":false,"rental_uris":{"android":"levelo://app?vid=5a72bf4b-4c62-4cad-a39c-b4b267b75123","ios":"levelo://app?vid=5a72bf4b-4c62-4cad-a39c-b4b267b75123"},"vehicle_type_id":"4","last_reported":1736255855,"current_range_meters":19600,"station_id":"ce4bhqh2rcd13ifvqhlg","pricing_plan_id":"cebpf4jnsgd1na2vs0mg"},{"bike_id":"0ed9821e-3c57-4dcf-9274-906710607d1f","system_id":"levelo_inurba_marseille","lat":43.24396,"lon":5.37072,"is_reserved":false,"is_disabled":false,"rental_uris":{"android":"levelo://app?vid=0ed9821e-3c57-4dcf-9274-906710607d1f","ios":"levelo://app?vid=0ed9821e-3c57-4dcf-9274-906710607d1f"},"vehicle_type_id":"4","last_reported":1736255855,"current_range_meters":8400,"station_id":"ce4bhhh2rcd13ifvqfk0","pricing_plan_id":"cebpf4jnsgd1na2vs0mg"},{"bike_id":"a654bcd9-87ff-4423-9dec-90165872ac51","system_id":"levelo_inurba_marseille","lat":43.254921,"lon":5.376579,"is_reserved":false,"is_disabled":false,"rental_uris":{"android":"levelo://app?vid=a654bcd9-87ff-4423-9dec-90165872ac51","ios":"levelo://app?vid=a654bcd9-87ff-4423-9dec-90165872ac51"},"vehicle_type_id":"4","last_reported":1736255855,"current_range_meters":38000,"station_id":"ce4bhh12rcd13ifvqff0","pricing_plan_id":"cebpf4jnsgd1na2vs0mg"},{"bike_id":"70dbf813-6460-40ef-98e3-ddc83bf21c33","system_id":"levelo_inurba_marseille","lat":43.24389,"lon":5.37061,"is_reserved":false,"is_disabled":true,"rental_uris":{"android":"levelo://app?vid=70dbf813-6460-40ef-98e3-ddc83bf21c33","ios":"levelo://app?vid=70dbf813-6460-40ef-98e3-ddc83bf21c33"},"vehicle_type_id":"4","last_reported":1736255855,"current_range_meters":400,"station_id":"ce4bhhh2rcd13ifvqfk0","pricing_plan_id":"cebpf4jnsgd1na2vs0mg"},{"bike_id":"c1b804e7-595b-45d6-97d4-9f4af513dff3","system_id":"levelo_inurba_marseille","lat":43.30467,"lon":5.37905,"is_reserved":false,"is_disabled":false,"rental_uris":{"android":"levelo://app?vid=c1b804e7-595b-45d6-97d4-9f4af513dff3","ios":"levelo://app?vid=c1b804e7-595b-45d6-97d4-9f4af513dff3"},"vehicle_type_id":"4","last_reported":1736255855,"current_range_meters":38800,"station_id":"ce4bgup2rcd13ifvqcn0","pricing_plan_id":"cebpf4jnsgd1na2vs0mg"},{"bike_id":"5a201824-7071-40af-a8f3-bb137910ac16","system_id":"levelo_inurba_marseille","lat":43.26947,"lon":5.38643,"is_reserved":false,"is_disabled":false,"rental_uris":{"android":"levelo://app?vid=5a201824-7071-40af-a8f3-bb137910ac16","ios":"levelo://app?vid=5a201824-7071-40af-a8f3-bb137910ac16"},"vehicle_type_id":"4","last_reported":1736255855,"current_range_meters":23200,"station_id":"ce4bhh92rcd13ifvqfh0","pricing_plan_id":"cebpf4jnsgd1na2vs0mg"},{"bike_id":"1c91e94a-d32d-4506-b8b8-b791431e401e","system_id":"levelo_inurba_marseille","lat":43.28916,"lon":5.38395,"is_reserved":false,"is_disabled":false,"rental_uris":{"android":"levelo://app?vid=1c91e94a-d32d-4506-b8b8-b791431e401e","ios":"levelo://app?vid=1c91e94a-d32d-4506-b8b8-b791431e401e"},"vehicle_type_id":"4","last_reported":1736255855,"current_range_meters":36000,"station_id":"ce4bh612rcd13ifvqe6g","pricing_plan_id":"cebpf4jnsgd1na2vs0mg"},{"bike_id":"7082a147-72ba-427b-b7d0-01f4c79523c2","system_id":"levelo_inurba_marseille","lat":43.33245,"lon":5.35908,"is_reserved":false,"is_disabled":false,"rental_uris":{"android":"levelo://app?vid=7082a147-72ba-427b-b7d0-01f4c79523c2","ios":"levelo://app?vid=7082a147-72ba-427b-b7d0-01f4c79523c2"},"vehicle_type_id":"4","last_reported":1736255855,"current_range_meters":16000,"station_id":"","pricing_plan_id":"cebpf4jnsgd1na2vs0mg"},{"bike_id":"21a8f294-25b6-45bc-8d2f-65d025a56203","system_id":"levelo_inurba_marseille","lat":43.23194,"lon":5.35545,"is_reserved":false,"is_disabled":false,"rental_uris":{"android":"levelo://app?vid=21a8f294-25b6-45bc-8d2f-65d025a56203","ios":"levelo://app?vid=21a8f294-25b6-45bc-8d2f-65d025a56203"},"vehicle_type_id":"4","last_reported":1736255855,"current_range_meters":30400,"station_id":"ce4bhu92rcd13ifvqi70","pricing_plan_id":"cebpf4jnsgd1na2vs0mg"},{"bike_id":"6a7f8618-286d-40bc-9b7d-baac0aaf24c3","system_id":"levelo_inurba_marseille","lat":43.29231,"lon":5.36066,"is_reserved":false,"is_disabled":false,"rental_uris":{"android":"levelo://app?vid=6a7f8618-286d-40bc-9b7d-baac0aaf24c3","ios":"levelo://app?vid=6a7f8618-286d-40bc-9b7d-baac0aaf24c3"},"vehicle_type_id":"4","last_reported":1736255855,"current_range_meters":28000,"station_id":"ce4bhbh2rcd13ifvqeqg","pricing_plan_id":"cebpf4jnsgd1na2vs0mg"},{"bike_id":"81423317-f8be-4e4e-af1f-ef36efefd640","system_id":"levelo_inurba_marseille","lat":43.27495,"lon":5.42454,"is_reserved":false,"is_disabled":false,"rental_uris":{"android":"levelo://app?vid=81423317-f8be-4e4e-af1f-ef36efefd640","ios":"levelo://app?vid=81423317-f8be-4e4e-af1f-ef36efefd640"},"vehicle_type_id":"4","last_reported":1736255855,"current_range_meters":29600,"station_id":"ce4bhn92rcd13ifvqgrg","pricing_plan_id":"cebpf4jnsgd1na2vs0mg"},{"bike_id":"d45d0089-5e8c-41ac-a04c-9866c8dc94cc","system_id":"levelo_inurba_marseille","lat":43.23196,"lon":5.35549,"is_reserved":false,"is_disabled":false,"rental_uris":{"android":"levelo://app?vid=d45d0089-5e8c-41ac-a04c-9866c8dc94cc","ios":"levelo://app?vid=d45d0089-5e8c-41ac-a04c-9866c8dc94cc"},"vehicle_type_id":"4","last_reported":1736255855,"current_range_meters":4400,"station_id":"ce4bhu92rcd13ifvqi70","pricing_plan_id":"cebpf4jnsgd1na2vs0mg"},{"bike_id":"318f78a8-0263-4834-ac39-be164f4831d1","system_id":"levelo_inurba_marseille","lat":43.2621,"lon":5.37442,"is_reserved":false,"is_disabled":false,"rental_uris":{"android":"levelo://app?vid=318f78a8-0263-4834-ac39-be164f4831d1","ios":"levelo://app?vid=318f78a8-0263-4834-ac39-be164f4831d1"},"vehicle_type_id":"4","last_reported":1736255855,"current_range_meters":14800,"station_id":"ce4bhgp2rcd13ifvqfc0","pricing_plan_id":"cebpf4jnsgd1na2vs0mg"},{"bike_id":"3afb8a8b-84c0-472a-8edd-63c4e1bcb7c6","system_id":"levelo_inurba_marseille","lat":43.29262,"lon":5.36859,"is_reserved":false,"is_disabled":false,"rental_uris":{"android":"levelo://app?vid=3afb8a8b-84c0-472a-8edd-63c4e1bcb7c6","ios":"levelo://app?vid=3afb8a8b-84c0-472a-8edd-63c4e1bcb7c6"},"vehicle_type_id":"4","last_reported":1736255855,"current_range_meters":38800,"station_id":"ce4bhbp2rcd13ifvqesg","pricing_plan_id":"cebpf4jnsgd1na2vs0mg"},{"bike_id":"aa33a53e-f806-43a8-ad7e-8e2bd9644426","system_id":"levelo_inurba_marseille","lat":43.32345,"lon":5.40629,"is_reserved":false,"is_disabled":true,"rental_uris":{"android":"levelo://app?vid=aa33a53e-f806-43a8-ad7e-8e2bd9644426","ios":"levelo://app?vid=aa33a53e-f806-43a8-ad7e-8e2bd9644426"},"vehicle_type_id":"4","last_reported":1736255855,"current_range_meters":0,"station_id":"ce4bhq92rcd13ifvqhjg","pricing_plan_id":"cebpf4jnsgd1na2vs0mg"},{"bike_id":"47e4e733-ddae-489d-8488-ea0c12e2344c","system_id":"levelo_inurba_marseille","lat":43.30166,"lon":5.38082,"is_reserved":false,"is_disabled":false,"rental_uris":{"android":"levelo://app?vid=47e4e733-ddae-489d-8488-ea0c12e2344c","ios":"levelo://app?vid=47e4e733-ddae-489d-8488-ea0c12e2344c"},"vehicle_type_id":"4","last_reported":1736255855,"current_range_meters":32400,"station_id":"ce4bgjp2rcd13ifvqbh0","pricing_plan_id":"cebpf4jnsgd1na2vs0mg"},{"bike_id":"a160799a-a8a6-4ef2-a0a8-ae6022a78244","system_id":"levelo_inurba_marseille","lat":43.31124,"lon":5.3777,"is_reserved":false,"is_disabled":false,"rental_uris":{"android":"levelo://app?vid=a160799a-a8a6-4ef2-a0a8-ae6022a78244","ios":"levelo://app?vid=a160799a-a8a6-4ef2-a0a8-ae6022a78244"},"vehicle_type_id":"4","last_reported":1736255855,"current_range_meters":38000,"station_id":"ce4bgt92rcd13ifvqcg0","pricing_plan_id":"cebpf4jnsgd1na2vs0mg"},{"bike_id":"1113cb5a-5322-457a-91ea-a7262df3ce0e","system_id":"levelo_inurba_marseille","lat":43.31224,"lon":5.3686,"is_reserved":false,"is_disabled":false,"rental_uris":{"android":"levelo://app?vid=1113cb5a-5322-457a-91ea-a7262df3ce0e","ios":"levelo://app?vid=1113cb5a-5322-457a-91ea-a7262df3ce0e"},"vehicle_type_id":"4","last_reported":1736255855,"current_range_meters":32000,"station_id":"ce4bgl92rcd13ifvqbq0","pricing_plan_id":"cebpf4jnsgd1na2vs0mg"},{"bike_id":"184ebaba-bf18-489d-8947-aa0b180dec35","system_id":"levelo_inurba_marseille","lat":43.306094,"lon":5.372414,"is_reserved":false,"is_disabled":false,"rental_uris":{"android":"levelo://app?vid=184ebaba-bf18-489d-8947-aa0b180dec35","ios":"levelo://app?vid=184ebaba-bf18-489d-8947-aa0b180dec35"},"vehicle_type_id":"4","last_reported":1736255855,"current_range_meters":34000,"station_id":"ce4bgqh2rcd13ifvqc4g","pricing_plan_id":"cebpf4jnsgd1na2vs0mg"},{"bike_id":"9f067e76-a631-4de3-8b36-6688d4c426e4","system_id":"levelo_inurba_marseille","lat":43.31744,"lon":5.40433,"is_reserved":false,"is_disabled":false,"rental_uris":{"android":"levelo://app?vid=9f067e76-a631-4de3-8b36-6688d4c426e4","ios":"levelo://app?vid=9f067e76-a631-4de3-8b36-6688d4c426e4"},"vehicle_type_id":"4","last_reported":1736255855,"current_range_meters":24800,"station_id":"","pricing_plan_id":"cebpf4jnsgd1na2vs0mg"},{"bike_id":"6ab5aeb5-b25c-4ed8-9bba-2118a5607cf6","system_id":"levelo_inurba_marseille","lat":43.29842,"lon":5.36264,"is_reserved":false,"is_disabled":false,"rental_uris":{"android":"levelo://app?vid=6ab5aeb5-b25c-4ed8-9bba-2118a5607cf6","ios":"levelo://app?vid=6ab5aeb5-b25c-4ed8-9bba-2118a5607cf6"},"vehicle_type_id":"4","last_reported":1736255855,"current_range_meters":36800,"station_id":"ce4bgpp2rcd13ifvqc3g","pricing_plan_id":"cebpf4jnsgd1na2vs0mg"},{"bike_id":"3003fea4-ac51-4037-9682-0c191e93559e","system_id":"levelo_inurba_marseille","lat":43.31258,"lon":5.40169,"is_reserved":false,"is_disabled":false,"rental_uris":{"android":"levelo://app?vid=3003fea4-ac51-4037-9682-0c191e93559e","ios":"levelo://app?vid=3003fea4-ac51-4037-9682-0c191e93559e"},"vehicle_type_id":"4","last_reported":1736255855,"current_range_meters":5600,"station_id":"ce4bh092rcd13ifvqd30","pricing_plan_id":"cebpf4jnsgd1na2vs0mg"},{"bike_id":"f433159a-3628-4cef-8b61-6d2e2f22ce6b","system_id":"levelo_inurba_marseille","lat":43.24074,"lon":5.3775,"is_reserved":false,"is_disabled":false,"rental_uris":{"android":"levelo://app?vid=f433159a-3628-4cef-8b61-6d2e2f22ce6b","ios":"levelo://app?vid=f433159a-3628-4cef-8b61-6d2e2f22ce6b"},"vehicle_type_id":"4","last_reported":1736255855,"current_range_meters":27200,"station_id":"ce4bhnp2rcd13ifvqgvg","pricing_plan_id":"cebpf4jnsgd1na2vs0mg"},{"bike_id":"bbc58ba2-66d4-417a-a386-fe0bb02b0043","system_id":"levelo_inurba_marseille","lat":43.3176,"lon":5.39017,"is_reserved":false,"is_disabled":false,"rental_uris":{"android":"levelo://app?vid=bbc58ba2-66d4-417a-a386-fe0bb02b0043","ios":"levelo://app?vid=bbc58ba2-66d4-417a-a386-fe0bb02b0043"},"vehicle_type_id":"4","last_reported":1736255855,"current_range_meters":29600,"station_id":"ce4bhqp2rcd13ifvqhng","pricing_plan_id":"cebpf4jnsgd1na2vs0mg"},{"bike_id":"a81f0dac-b594-48b8-b2f2-26e21503c95a","system_id":"levelo_inurba_marseille","lat":43.31701,"lon":5.43705,"is_reserved":false,"is_disabled":false,"rental_uris":{"android":"levelo://app?vid=a81f0dac-b594-48b8-b2f2-26e21503c95a","ios":"levelo://app?vid=a81f0dac-b594-48b8-b2f2-26e21503c95a"},"vehicle_type_id":"4","last_reported":1736255855,"current_range_meters":12800,"station_id":"ce4bhp92rcd13ifvqhcg","pricing_plan_id":"cebpf4jnsgd1na2vs0mg"},{"bike_id":"502087b1-18db-427e-9ac7-3d1aa22f63c7","system_id":"levelo_inurba_marseille","lat":43.29854,"lon":5.36272,"is_reserved":false,"is_disabled":false,"rental_uris":{"android":"levelo://app?vid=502087b1-18db-427e-9ac7-3d1aa22f63c7","ios":"levelo://app?vid=502087b1-18db-427e-9ac7-3d1aa22f63c7"},"vehicle_type_id":"4","last_reported":1736255855,"current_range_meters":38800,"station_id":"ce4bgpp2rcd13ifvqc3g","pricing_plan_id":"cebpf4jnsgd1na2vs0mg"},{"bike_id":"96a999e3-70dd-464e-9f52-0b69c395294f","system_id":"levelo_inurba_marseille","lat":43.30136,"lon":5.38777,"is_reserved":false,"is_disabled":false,"rental_uris":{"android":"levelo://app?vid=96a999e3-70dd-464e-9f52-0b69c395294f","ios":"levelo://app?vid=96a999e3-70dd-464e-9f52-0b69c395294f"},"vehicle_type_id":"4","last_reported":1736255855,"current_range_meters":27600,"station_id":"ce4bghh2rcd13ifvqb60","pricing_plan_id":"cebpf4jnsgd1na2vs0mg"},{"bike_id":"53a7f12e-fdd4-4b71-b7db-6410746926a6","system_id":"levelo_inurba_marseille","lat":43.2558,"lon":5.3823,"is_reserved":false,"is_disabled":false,"rental_uris":{"android":"levelo://app?vid=53a7f12e-fdd4-4b71-b7db-6410746926a6","ios":"levelo://app?vid=53a7f12e-fdd4-4b71-b7db-6410746926a6"},"vehicle_type_id":"4","last_reported":1736255855,"current_range_meters":28000,"station_id":"ce4bhih2rcd13ifvqfs0","pricing_plan_id":"cebpf4jnsgd1na2vs0mg"},{"bike_id":"7a92d907-ce7d-4776-b9fe-0b8ebe9491a1","system_id":"levelo_inurba_marseille","lat":43.27629,"lon":5.36123,"is_reserved":false,"is_disabled":false,"rental_uris":{"android":"levelo://app?vid=7a92d907-ce7d-4776-b9fe-0b8ebe9491a1","ios":"levelo://app?vid=7a92d907-ce7d-4776-b9fe-0b8ebe9491a1"},"vehicle_type_id":"4","last_reported":1736255855,"current_range_meters":38800,"station_id":"ce4bgj92rcd13ifvqbe0","pricing_plan_id":"cebpf4jnsgd1na2vs0mg"},{"bike_id":"4853d6c9-d959-4282-a7ee-08c597a1454b","system_id":"levelo_inurba_marseille","lat":43.2767,"lon":5.38884,"is_reserved":false,"is_disabled":false,"rental_uris":{"android":"levelo://app?vid=4853d6c9-d959-4282-a7ee-08c597a1454b","ios":"levelo://app?vid=4853d6c9-d959-4282-a7ee-08c597a1454b"},"vehicle_type_id":"4","last_reported":1736255855,"current_range_meters":23200,"station_id":"ce4bhi12rcd13ifvqfo0","pricing_plan_id":"cebpf4jnsgd1na2vs0mg"},{"bike_id":"10096a32-0c87-4bb9-bec7-dc320419b5a2","system_id":"levelo_inurba_marseille","lat":43.28268,"lon":5.38573,"is_reserved":false,"is_disabled":false,"rental_uris":{"android":"levelo://app?vid=10096a32-0c87-4bb9-bec7-dc320419b5a2","ios":"levelo://app?vid=10096a32-0c87-4bb9-bec7-dc320419b5a2"},"vehicle_type_id":"4","last_reported":1736255855,"current_range_meters":26000,"station_id":"","pricing_plan_id":"cebpf4jnsgd1na2vs0mg"},{"bike_id":"1f6f5fed-baf1-4edc-a47f-4f294af77fb8","system_id":"levelo_inurba_marseille","lat":43.25006,"lon":5.38945,"is_reserved":false,"is_disabled":false,"rental_uris":{"android":"levelo://app?vid=1f6f5fed-baf1-4edc-a47f-4f294af77fb8","ios":"levelo://app?vid=1f6f5fed-baf1-4edc-a47f-4f294af77fb8"},"vehicle_type_id":"4","last_reported":1736255855,"current_range_meters":11200,"station_id":"ce4bhgp2rcd13ifvqfd0","pricing_plan_id":"cebpf4jnsgd1na2vs0mg"},{"bike_id":"3c330cc2-2928-4e34-8bc8-5a2857f68364","system_id":"levelo_inurba_marseille","lat":43.28363,"lon":5.3865,"is_reserved":false,"is_disabled":false,"rental_uris":{"android":"levelo://app?vid=3c330cc2-2928-4e34-8bc8-5a2857f68364","ios":"levelo://app?vid=3c330cc2-2928-4e34-8bc8-5a2857f68364"},"vehicle_type_id":"4","last_reported":1736255855,"current_range_meters":38000,"station_id":"ce4bh492rcd13ifvqdvg","pricing_plan_id":"cebpf4jnsgd1na2vs0mg"},{"bike_id":"8a474426-cd46-4cf8-9edc-ef843a0ca02e","system_id":"levelo_inurba_marseille","lat":43.26564,"lon":5.39002,"is_reserved":false,"is_disabled":true,"rental_uris":{"android":"levelo://app?vid=8a474426-cd46-4cf8-9edc-ef843a0ca02e","ios":"levelo://app?vid=8a474426-cd46-4cf8-9edc-ef843a0ca02e"},"vehicle_type_id":"4","last_reported":1736255855,"current_range_meters":36400,"station_id":"ce4bhe12rcd13ifvqf30","pricing_plan_id":"cebpf4jnsgd1na2vs0mg"},{"bike_id":"b8e8befc-076e-4a84-a746-24b09895b81b","system_id":"levelo_inurba_marseille","lat":43.25576,"lon":5.38222,"is_reserved":false,"is_disabled":false,"rental_uris":{"android":"levelo://app?vid=b8e8befc-076e-4a84-a746-24b09895b81b","ios":"levelo://app?vid=b8e8befc-076e-4a84-a746-24b09895b81b"},"vehicle_type_id":"4","last_reported":1736255855,"current_range_meters":33600,"station_id":"ce4bhih2rcd13ifvqfs0","pricing_plan_id":"cebpf4jnsgd1na2vs0mg"},{"bike_id":"bbf998ea-d252-4590-8711-16d78ff4b07c","system_id":"levelo_inurba_marseille","lat":43.24646,"lon":5.38887,"is_reserved":false,"is_disabled":false,"rental_uris":{"android":"levelo://app?vid=bbf998ea-d252-4590-8711-16d78ff4b07c","ios":"levelo://app?vid=bbf998ea-d252-4590-8711-16d78ff4b07c"},"vehicle_type_id":"4","last_reported":1736255855,"current_range_meters":26800,"station_id":"ce4bhg12rcd13ifvqf60","pricing_plan_id":"cebpf4jnsgd1na2vs0mg"},{"bike_id":"e9dcdd34-b189-4d62-a46f-8838f8d5e652","system_id":"levelo_inurba_marseille","lat":43.24674,"lon":5.38159,"is_reserved":false,"is_disabled":false,"rental_uris":{"android":"levelo://app?vid=e9dcdd34-b189-4d62-a46f-8838f8d5e652","ios":"levelo://app?vid=e9dcdd34-b189-4d62-a46f-8838f8d5e652"},"vehicle_type_id":"4","last_reported":1736255855,"current_range_meters":16400,"station_id":"ce4bhih2rcd13ifvqfr0","pricing_plan_id":"cebpf4jnsgd1na2vs0mg"},{"bike_id":"02cc71e9-f7c8-4075-a9cc-51ff7fc65534","system_id":"levelo_inurba_marseille","lat":43.24662,"lon":5.38167,"is_reserved":false,"is_disabled":false,"rental_uris":{"android":"levelo://app?vid=02cc71e9-f7c8-4075-a9cc-51ff7fc65534","ios":"levelo://app?vid=02cc71e9-f7c8-4075-a9cc-51ff7fc65534"},"vehicle_type_id":"4","last_reported":1736255855,"current_range_meters":27200,"station_id":"ce4bhih2rcd13ifvqfr0","pricing_plan_id":"cebpf4jnsgd1na2vs0mg"},{"bike_id":"216094f6-dd69-408f-afcc-8de0795c1736","system_id":"levelo_inurba_marseille","lat":43.23152,"lon":5.43719,"is_reserved":false,"is_disabled":false,"rental_uris":{"android":"levelo://app?vid=216094f6-dd69-408f-afcc-8de0795c1736","ios":"levelo://app?vid=216094f6-dd69-408f-afcc-8de0795c1736"},"vehicle_type_id":"4","last_reported":1736255855,"current_range_meters":38000,"station_id":"ce4bhmp2rcd13ifvqgog","pricing_plan_id":"cebpf4jnsgd1na2vs0mg"},{"bike_id":"ff78d977-97b2-4f84-bc22-78608d306c04","system_id":"levelo_inurba_marseille","lat":43.31527,"lon":5.36712,"is_reserved":false,"is_disabled":false,"rental_uris":{"android":"levelo://app?vid=ff78d977-97b2-4f84-bc22-78608d306c04","ios":"levelo://app?vid=ff78d977-97b2-4f84-bc22-78608d306c04"},"vehicle_type_id":"4","last_reported":1736255855,"current_range_meters":34000,"station_id":"","pricing_plan_id":"cebpf4jnsgd1na2vs0mg"},{"bike_id":"664044e6-e824-440a-a874-8e818a3a1b1b","system_id":"levelo_inurba_marseille","lat":43.28554,"lon":5.39502,"is_reserved":false,"is_disabled":true,"rental_uris":{"android":"levelo://app?vid=664044e6-e824-440a-a874-8e818a3a1b1b","ios":"levelo://app?vid=664044e6-e824-440a-a874-8e818a3a1b1b"},"vehicle_type_id":"4","last_reported":1736255855,"current_range_meters":34800,"station_id":"ce4bh292rcd13ifvqdg0","pricing_plan_id":"cebpf4jnsgd1na2vs0mg"},{"bike_id":"40fe38f9-6949-48bb-b8ed-cc166d18c984","system_id":"levelo_inurba_marseille","lat":43.30893,"lon":5.36849,"is_reserved":false,"is_disabled":false,"rental_uris":{"android":"levelo://app?vid=40fe38f9-6949-48bb-b8ed-cc166d18c984","ios":"levelo://app?vid=40fe38f9-6949-48bb-b8ed-cc166d18c984"},"vehicle_type_id":"4","last_reported":1736255855,"current_range_meters":27200,"station_id":"ce4bgn92rcd13ifvqbvg","pricing_plan_id":"cebpf4jnsgd1na2vs0mg"},{"bike_id":"af0fb06a-2b33-40f9-80c6-1f82983ce3af","system_id":"levelo_inurba_marseille","lat":43.32048,"lon":5.41533,"is_reserved":false,"is_disabled":false,"rental_uris":{"android":"levelo://app?vid=af0fb06a-2b33-40f9-80c6-1f82983ce3af","ios":"levelo://app?vid=af0fb06a-2b33-40f9-80c6-1f82983ce3af"},"vehicle_type_id":"4","last_reported":1736255855,"current_range_meters":37600,"station_id":"ce4bhq92rcd13ifvqhkg","pricing_plan_id":"cebpf4jnsgd1na2vs0mg"},{"bike_id":"3d5215c2-1845-4ea9-95c3-66c603d13955","system_id":"levelo_inurba_marseille","lat":43.30564,"lon":5.36533,"is_reserved":false,"is_disabled":false,"rental_uris":{"android":"levelo://app?vid=3d5215c2-1845-4ea9-95c3-66c603d13955","ios":"levelo://app?vid=3d5215c2-1845-4ea9-95c3-66c603d13955"},"vehicle_type_id":"4","last_reported":1736255855,"current_range_meters":30000,"station_id":"ce4bgs12rcd13ifvqcag","pricing_plan_id":"cebpf4jnsgd1na2vs0mg"},{"bike_id":"6e2d590b-13dc-4d39-8257-e699f8ea4c2f","system_id":"levelo_inurba_marseille","lat":43.259325,"lon":5.40918,"is_reserved":false,"is_disabled":false,"rental_uris":{"android":"levelo://app?vid=6e2d590b-13dc-4d39-8257-e699f8ea4c2f","ios":"levelo://app?vid=6e2d590b-13dc-4d39-8257-e699f8ea4c2f"},"vehicle_type_id":"4","last_reported":1736255855,"current_range_meters":19200,"station_id":"ce4bhm92rcd13ifvqglg","pricing_plan_id":"cebpf4jnsgd1na2vs0mg"},{"bike_id":"0bcfea18-61ca-412d-bded-b63f59943884","system_id":"levelo_inurba_marseille","lat":43.28613,"lon":5.35102,"is_reserved":false,"is_disabled":true,"rental_uris":{"android":"levelo://app?vid=0bcfea18-61ca-412d-bded-b63f59943884","ios":"levelo://app?vid=0bcfea18-61ca-412d-bded-b63f59943884"},"vehicle_type_id":"4","last_reported":1736255855,"current_range_meters":28400,"station_id":"ce4bhch2rcd13ifvqeug","pricing_plan_id":"cebpf4jnsgd1na2vs0mg"},{"bike_id":"8a415dcc-5516-42b2-885e-241551095e6e","system_id":"levelo_inurba_marseille","lat":43.28725,"lon":5.37943,"is_reserved":false,"is_disabled":false,"rental_uris":{"android":"levelo://app?vid=8a415dcc-5516-42b2-885e-241551095e6e","ios":"levelo://app?vid=8a415dcc-5516-42b2-885e-241551095e6e"},"vehicle_type_id":"4","last_reported":1736255855,"current_range_meters":30800,"station_id":"ce4bh9p2rcd13ifvqec0","pricing_plan_id":"cebpf4jnsgd1na2vs0mg"},{"bike_id":"0b9521b2-4a4a-4b15-a356-31ebe979341d","system_id":"levelo_inurba_marseille","lat":43.29895,"lon":5.43661,"is_reserved":false,"is_disabled":false,"rental_uris":{"android":"levelo://app?vid=0b9521b2-4a4a-4b15-a356-31ebe979341d","ios":"levelo://app?vid=0b9521b2-4a4a-4b15-a356-31ebe979341d"},"vehicle_type_id":"4","last_reported":1736255855,"current_range_meters":8800,"station_id":"ce4bhpp2rcd13ifvqhfg","pricing_plan_id":"cebpf4jnsgd1na2vs0mg"},{"bike_id":"7d40b0f9-71e7-40dd-805f-5d881b98522f","system_id":"levelo_inurba_marseille","lat":43.28993,"lon":5.35609,"is_reserved":false,"is_disabled":false,"rental_uris":{"android":"levelo://app?vid=7d40b0f9-71e7-40dd-805f-5d881b98522f","ios":"levelo://app?vid=7d40b0f9-71e7-40dd-805f-5d881b98522f"},"vehicle_type_id":"4","last_reported":1736255855,"current_range_meters":12000,"station_id":"ce4bhb92rcd13ifvqen0","pricing_plan_id":"cebpf4jnsgd1na2vs0mg"},{"bike_id":"bd508a61-6245-48d4-acef-723ee903a97b","system_id":"levelo_inurba_marseille","lat":43.28698,"lon":5.39994,"is_reserved":false,"is_disabled":false,"rental_uris":{"android":"levelo://app?vid=bd508a61-6245-48d4-acef-723ee903a97b","ios":"levelo://app?vid=bd508a61-6245-48d4-acef-723ee903a97b"},"vehicle_type_id":"4","last_reported":1736255855,"current_range_meters":28800,"station_id":"ce4bho92rcd13ifvqh3g","pricing_plan_id":"cebpf4jnsgd1na2vs0mg"},{"bike_id":"03630410-cff2-41ca-8ab4-df6ebc45a627","system_id":"levelo_inurba_marseille","lat":43.30165,"lon":5.38106,"is_reserved":false,"is_disabled":true,"rental_uris":{"android":"levelo://app?vid=03630410-cff2-41ca-8ab4-df6ebc45a627","ios":"levelo://app?vid=03630410-cff2-41ca-8ab4-df6ebc45a627"},"vehicle_type_id":"4","last_reported":1736255855,"current_range_meters":33200,"station_id":"ce4bgjp2rcd13ifvqbh0","pricing_plan_id":"cebpf4jnsgd1na2vs0mg"},{"bike_id":"f3068faf-6ea3-45c0-943e-8f5eb9fecb3c","system_id":"levelo_inurba_marseille","lat":43.23973,"lon":5.36619,"is_reserved":false,"is_disabled":false,"rental_uris":{"android":"levelo://app?vid=f3068faf-6ea3-45c0-943e-8f5eb9fecb3c","ios":"levelo://app?vid=f3068faf-6ea3-45c0-943e-8f5eb9fecb3c"},"vehicle_type_id":"4","last_reported":1736255855,"current_range_meters":37600,"station_id":"ce4bhi12rcd13ifvqfp0","pricing_plan_id":"cebpf4jnsgd1na2vs0mg"},{"bike_id":"cbed9112-8e23-4560-a485-b1ca32f40cc0","system_id":"levelo_inurba_marseille","lat":43.24075,"lon":5.37753,"is_reserved":false,"is_disabled":false,"rental_uris":{"android":"levelo://app?vid=cbed9112-8e23-4560-a485-b1ca32f40cc0","ios":"levelo://app?vid=cbed9112-8e23-4560-a485-b1ca32f40cc0"},"vehicle_type_id":"4","last_reported":1736255855,"current_range_meters":29600,"station_id":"ce4bhnp2rcd13ifvqgvg","pricing_plan_id":"cebpf4jnsgd1na2vs0mg"},{"bike_id":"9206d9db-6a1d-4495-9bc2-7d4e1ef0f397","system_id":"levelo_inurba_marseille","lat":43.28917,"lon":5.38389,"is_reserved":false,"is_disabled":false,"rental_uris":{"android":"levelo://app?vid=9206d9db-6a1d-4495-9bc2-7d4e1ef0f397","ios":"levelo://app?vid=9206d9db-6a1d-4495-9bc2-7d4e1ef0f397"},"vehicle_type_id":"4","last_reported":1736255855,"current_range_meters":35600,"station_id":"ce4bh612rcd13ifvqe6g","pricing_plan_id":"cebpf4jnsgd1na2vs0mg"},{"bike_id":"2937c8f0-6f06-4c7f-8240-41ad44bc55fa","system_id":"levelo_inurba_marseille","lat":43.23189,"lon":5.40012,"is_reserved":false,"is_disabled":false,"rental_uris":{"android":"levelo://app?vid=2937c8f0-6f06-4c7f-8240-41ad44bc55fa","ios":"levelo://app?vid=2937c8f0-6f06-4c7f-8240-41ad44bc55fa"},"vehicle_type_id":"4","last_reported":1736255855,"current_range_meters":10000,"station_id":"ce4bhn12rcd13ifvqgqg","pricing_plan_id":"cebpf4jnsgd1na2vs0mg"},{"bike_id":"a953f883-6c4a-4100-b5ce-63967bb0fc51","system_id":"levelo_inurba_marseille","lat":43.276812,"lon":5.389437,"is_reserved":false,"is_disabled":false,"rental_uris":{"android":"levelo://app?vid=a953f883-6c4a-4100-b5ce-63967bb0fc51","ios":"levelo://app?vid=a953f883-6c4a-4100-b5ce-63967bb0fc51"},"vehicle_type_id":"4","last_reported":1736255855,"current_range_meters":16000,"station_id":"ce4bhi12rcd13ifvqfo0","pricing_plan_id":"cebpf4jnsgd1na2vs0mg"},{"bike_id":"3d2095a1-6e43-4fe2-8880-997e1d8b7da4","system_id":"levelo_inurba_marseille","lat":43.30477,"lon":5.37907,"is_reserved":false,"is_disabled":false,"rental_uris":{"android":"levelo://app?vid=3d2095a1-6e43-4fe2-8880-997e1d8b7da4","ios":"levelo://app?vid=3d2095a1-6e43-4fe2-8880-997e1d8b7da4"},"vehicle_type_id":"4","last_reported":1736255855,"current_range_meters":27200,"station_id":"ce4bgup2rcd13ifvqcn0","pricing_plan_id":"cebpf4jnsgd1na2vs0mg"},{"bike_id":"3b750d68-4280-4100-a3dd-fb566a772ee5","system_id":"levelo_inurba_marseille","lat":43.30457,"lon":5.37902,"is_reserved":false,"is_disabled":true,"rental_uris":{"android":"levelo://app?vid=3b750d68-4280-4100-a3dd-fb566a772ee5","ios":"levelo://app?vid=3b750d68-4280-4100-a3dd-fb566a772ee5"},"vehicle_type_id":"4","last_reported":1736255855,"current_range_meters":32800,"station_id":"ce4bgup2rcd13ifvqcn0","pricing_plan_id":"cebpf4jnsgd1na2vs0mg"},{"bike_id":"d9729c6e-4711-4898-9631-0b03f4e562ab","system_id":"levelo_inurba_marseille","lat":43.30209,"lon":5.39464,"is_reserved":false,"is_disabled":false,"rental_uris":{"android":"levelo://app?vid=d9729c6e-4711-4898-9631-0b03f4e562ab","ios":"levelo://app?vid=d9729c6e-4711-4898-9631-0b03f4e562ab"},"vehicle_type_id":"4","last_reported":1736255855,"current_range_meters":6000,"station_id":"ce4bh0p2rcd13ifvqd70","pricing_plan_id":"cebpf4jnsgd1na2vs0mg"},{"bike_id":"2be5c012-0767-4ef2-a3f7-735f77675172","system_id":"levelo_inurba_marseille","lat":43.30148,"lon":5.37416,"is_reserved":false,"is_disabled":false,"rental_uris":{"android":"levelo://app?vid=2be5c012-0767-4ef2-a3f7-735f77675172","ios":"levelo://app?vid=2be5c012-0767-4ef2-a3f7-735f77675172"},"vehicle_type_id":"4","last_reported":1736255855,"current_range_meters":36000,"station_id":"ce4bgs92rcd13ifvqcc0","pricing_plan_id":"cebpf4jnsgd1na2vs0mg"},{"bike_id":"d014f699-d84d-436b-b3bf-8c059d18ea89","system_id":"levelo_inurba_marseille","lat":43.229251,"lon":5.353735,"is_reserved":false,"is_disabled":false,"rental_uris":{"android":"levelo://app?vid=d014f699-d84d-436b-b3bf-8c059d18ea89","ios":"levelo://app?vid=d014f699-d84d-436b-b3bf-8c059d18ea89"},"vehicle_type_id":"4","last_reported":1736255855,"current_range_meters":8000,"station_id":"cpo3532slgdg3j2ikp40","pricing_plan_id":"cebpf4jnsgd1na2vs0mg"},{"bike_id":"12da244d-7ede-4504-b03d-9c77fe158f00","system_id":"levelo_inurba_marseille","lat":43.27579,"lon":5.36077,"is_reserved":false,"is_disabled":false,"rental_uris":{"android":"levelo://app?vid=12da244d-7ede-4504-b03d-9c77fe158f00","ios":"levelo://app?vid=12da244d-7ede-4504-b03d-9c77fe158f00"},"vehicle_type_id":"4","last_reported":1736255855,"current_range_meters":35200,"station_id":"ce4bgj92rcd13ifvqbe0","pricing_plan_id":"cebpf4jnsgd1na2vs0mg"},{"bike_id":"e4de967d-97f2-4cb2-b430-1d8cf9cc77ea","system_id":"levelo_inurba_marseille","lat":43.28709,"lon":5.37385,"is_reserved":false,"is_disabled":false,"rental_uris":{"android":"levelo://app?vid=e4de967d-97f2-4cb2-b430-1d8cf9cc77ea","ios":"levelo://app?vid=e4de967d-97f2-4cb2-b430-1d8cf9cc77ea"},"vehicle_type_id":"4","last_reported":1736255855,"current_range_meters":23200,"station_id":"ce4bh3p2rcd13ifvqdq0","pricing_plan_id":"cebpf4jnsgd1na2vs0mg"},{"bike_id":"8fa8b7f9-1a9a-4b12-8f46-a00de1a280d3","system_id":"levelo_inurba_marseille","lat":43.28405,"lon":5.34978,"is_reserved":false,"is_disabled":false,"rental_uris":{"android":"levelo://app?vid=8fa8b7f9-1a9a-4b12-8f46-a00de1a280d3","ios":"levelo://app?vid=8fa8b7f9-1a9a-4b12-8f46-a00de1a280d3"},"vehicle_type_id":"4","last_reported":1736255855,"current_range_meters":27600,"station_id":"ce4bhbh2rcd13ifvqepg","pricing_plan_id":"cebpf4jnsgd1na2vs0mg"},{"bike_id":"955387a8-4a47-4691-946f-78754c88504b","system_id":"levelo_inurba_marseille","lat":43.23222,"lon":5.35564,"is_reserved":false,"is_disabled":false,"rental_uris":{"android":"levelo://app?vid=955387a8-4a47-4691-946f-78754c88504b","ios":"levelo://app?vid=955387a8-4a47-4691-946f-78754c88504b"},"vehicle_type_id":"4","last_reported":1736255855,"current_range_meters":36800,"station_id":"ce4bhu92rcd13ifvqi70","pricing_plan_id":"cebpf4jnsgd1na2vs0mg"},{"bike_id":"ef72cdb4-465d-4178-b952-49906f159c48","system_id":"levelo_inurba_marseille","lat":43.2815,"lon":5.42651,"is_reserved":false,"is_disabled":false,"rental_uris":{"android":"levelo://app?vid=ef72cdb4-465d-4178-b952-49906f159c48","ios":"levelo://app?vid=ef72cdb4-465d-4178-b952-49906f159c48"},"vehicle_type_id":"4","last_reported":1736255855,"current_range_meters":36400,"station_id":"ce4bhnh2rcd13ifvqgug","pricing_plan_id":"cebpf4jnsgd1na2vs0mg"},{"bike_id":"94df642c-7b40-4421-9ecb-14dea7ab90ae","system_id":"levelo_inurba_marseille","lat":43.31715,"lon":5.37742,"is_reserved":false,"is_disabled":false,"rental_uris":{"android":"levelo://app?vid=94df642c-7b40-4421-9ecb-14dea7ab90ae","ios":"levelo://app?vid=94df642c-7b40-4421-9ecb-14dea7ab90ae"},"vehicle_type_id":"4","last_reported":1736255855,"current_range_meters":14800,"station_id":"ce4bgth2rcd13ifvqch0","pricing_plan_id":"cebpf4jnsgd1na2vs0mg"},{"bike_id":"f949af9a-2683-4ec9-b4bf-168b31b3bcb2","system_id":"levelo_inurba_marseille","lat":43.2466,"lon":5.38924,"is_reserved":false,"is_disabled":false,"rental_uris":{"android":"levelo://app?vid=f949af9a-2683-4ec9-b4bf-168b31b3bcb2","ios":"levelo://app?vid=f949af9a-2683-4ec9-b4bf-168b31b3bcb2"},"vehicle_type_id":"4","last_reported":1736255855,"current_range_meters":18800,"station_id":"ce4bhg12rcd13ifvqf60","pricing_plan_id":"cebpf4jnsgd1na2vs0mg"},{"bike_id":"35366d3e-9927-4914-80da-37300e9998f0","system_id":"levelo_inurba_marseille","lat":43.28712,"lon":5.37394,"is_reserved":false,"is_disabled":false,"rental_uris":{"android":"levelo://app?vid=35366d3e-9927-4914-80da-37300e9998f0","ios":"levelo://app?vid=35366d3e-9927-4914-80da-37300e9998f0"},"vehicle_type_id":"4","last_reported":1736255855,"current_range_meters":28800,"station_id":"ce4bh3p2rcd13ifvqdq0","pricing_plan_id":"cebpf4jnsgd1na2vs0mg"},{"bike_id":"49a58075-360f-493d-a66e-87bce6e29700","system_id":"levelo_inurba_marseille","lat":43.33019,"lon":5.39036,"is_reserved":false,"is_disabled":false,"rental_uris":{"android":"levelo://app?vid=49a58075-360f-493d-a66e-87bce6e29700","ios":"levelo://app?vid=49a58075-360f-493d-a66e-87bce6e29700"},"vehicle_type_id":"4","last_reported":1736255855,"current_range_meters":27200,"station_id":"ce4bhr92rcd13ifvqhrg","pricing_plan_id":"cebpf4jnsgd1na2vs0mg"},{"bike_id":"191330c3-9245-4b41-9873-7ec2fb070ca0","system_id":"levelo_inurba_marseille","lat":43.28718,"lon":5.37943,"is_reserved":false,"is_disabled":true,"rental_uris":{"android":"levelo://app?vid=191330c3-9245-4b41-9873-7ec2fb070ca0","ios":"levelo://app?vid=191330c3-9245-4b41-9873-7ec2fb070ca0"},"vehicle_type_id":"4","last_reported":1736255855,"current_range_meters":2000,"station_id":"ce4bh9p2rcd13ifvqec0","pricing_plan_id":"cebpf4jnsgd1na2vs0mg"},{"bike_id":"981ad63c-5bc8-483d-b24e-bbf0c1477664","system_id":"levelo_inurba_marseille","lat":43.29703,"lon":5.37701,"is_reserved":false,"is_disabled":false,"rental_uris":{"android":"levelo://app?vid=981ad63c-5bc8-483d-b24e-bbf0c1477664","ios":"levelo://app?vid=981ad63c-5bc8-483d-b24e-bbf0c1477664"},"vehicle_type_id":"4","last_reported":1736255855,"current_range_meters":38000,"station_id":"ce4bgkh2rcd13ifvqbl0","pricing_plan_id":"cebpf4jnsgd1na2vs0mg"},{"bike_id":"2cbe44e8-5153-4f16-96d5-c672956deddb","system_id":"levelo_inurba_marseille","lat":43.29373,"lon":5.37864,"is_reserved":false,"is_disabled":false,"rental_uris":{"android":"levelo://app?vid=2cbe44e8-5153-4f16-96d5-c672956deddb","ios":"levelo://app?vid=2cbe44e8-5153-4f16-96d5-c672956deddb"},"vehicle_type_id":"4","last_reported":1736255855,"current_range_meters":14400,"station_id":"ce4bgjh2rcd13ifvqbf0","pricing_plan_id":"cebpf4jnsgd1na2vs0mg"},{"bike_id":"75321dea-10a3-400f-8783-48b2ff90b60c","system_id":"levelo_inurba_marseille","lat":43.24643,"lon":5.38888,"is_reserved":false,"is_disabled":false,"rental_uris":{"android":"levelo://app?vid=75321dea-10a3-400f-8783-48b2ff90b60c","ios":"levelo://app?vid=75321dea-10a3-400f-8783-48b2ff90b60c"},"vehicle_type_id":"4","last_reported":1736255855,"current_range_meters":38800,"station_id":"ce4bhg12rcd13ifvqf60","pricing_plan_id":"cebpf4jnsgd1na2vs0mg"},{"bike_id":"e9770833-92eb-499a-83c1-9cdd6f6c00c9","system_id":"levelo_inurba_marseille","lat":43.26689,"lon":5.3827,"is_reserved":false,"is_disabled":false,"rental_uris":{"android":"levelo://app?vid=e9770833-92eb-499a-83c1-9cdd6f6c00c9","ios":"levelo://app?vid=e9770833-92eb-499a-83c1-9cdd6f6c00c9"},"vehicle_type_id":"4","last_reported":1736255855,"current_range_meters":38400,"station_id":"ce4bhg92rcd13ifvqf90","pricing_plan_id":"cebpf4jnsgd1na2vs0mg"},{"bike_id":"f7957fa5-fa62-42a8-bedc-7f41b93df1a0","system_id":"levelo_inurba_marseille","lat":43.32536,"lon":5.41452,"is_reserved":false,"is_disabled":false,"rental_uris":{"android":"levelo://app?vid=f7957fa5-fa62-42a8-bedc-7f41b93df1a0","ios":"levelo://app?vid=f7957fa5-fa62-42a8-bedc-7f41b93df1a0"},"vehicle_type_id":"4","last_reported":1736255855,"current_range_meters":33200,"station_id":"ce4bhq12rcd13ifvqhhg","pricing_plan_id":"cebpf4jnsgd1na2vs0mg"},{"bike_id":"71d582ac-e6fe-4aab-8128-ab6df056a243","system_id":"levelo_inurba_marseille","lat":43.32491,"lon":5.36542,"is_reserved":false,"is_disabled":false,"rental_uris":{"android":"levelo://app?vid=71d582ac-e6fe-4aab-8128-ab6df056a243","ios":"levelo://app?vid=71d582ac-e6fe-4aab-8128-ab6df056a243"},"vehicle_type_id":"4","last_reported":1736255855,"current_range_meters":31200,"station_id":"ce4bhs12rcd13ifvqhvg","pricing_plan_id":"cebpf4jnsgd1na2vs0mg"},{"bike_id":"25b6f245-cadc-4cad-812c-53e062c1ef53","system_id":"levelo_inurba_marseille","lat":43.23141,"lon":5.4371,"is_reserved":false,"is_disabled":false,"rental_uris":{"android":"levelo://app?vid=25b6f245-cadc-4cad-812c-53e062c1ef53","ios":"levelo://app?vid=25b6f245-cadc-4cad-812c-53e062c1ef53"},"vehicle_type_id":"4","last_reported":1736255855,"current_range_meters":38800,"station_id":"ce4bhmp2rcd13ifvqgog","pricing_plan_id":"cebpf4jnsgd1na2vs0mg"},{"bike_id":"316234de-f3f3-45d4-99fd-0ba43ec7488a","system_id":"levelo_inurba_marseille","lat":43.29648,"lon":5.40614,"is_reserved":false,"is_disabled":false,"rental_uris":{"android":"levelo://app?vid=316234de-f3f3-45d4-99fd-0ba43ec7488a","ios":"levelo://app?vid=316234de-f3f3-45d4-99fd-0ba43ec7488a"},"vehicle_type_id":"4","last_reported":1736255855,"current_range_meters":14000,"station_id":"ce4bh0h2rcd13ifvqd60","pricing_plan_id":"cebpf4jnsgd1na2vs0mg"},{"bike_id":"f53fca27-aa28-4dbc-93c8-2faccac7df74","system_id":"levelo_inurba_marseille","lat":43.28344,"lon":5.38118,"is_reserved":false,"is_disabled":false,"rental_uris":{"android":"levelo://app?vid=f53fca27-aa28-4dbc-93c8-2faccac7df74","ios":"levelo://app?vid=f53fca27-aa28-4dbc-93c8-2faccac7df74"},"vehicle_type_id":"4","last_reported":1736255855,"current_range_meters":27200,"station_id":"ce4bh412rcd13ifvqdr0","pricing_plan_id":"cebpf4jnsgd1na2vs0mg"},{"bike_id":"373e004e-e69f-46c2-aaa7-3fdc9518e939","system_id":"levelo_inurba_marseille","lat":43.28354,"lon":5.3811,"is_reserved":false,"is_disabled":false,"rental_uris":{"android":"levelo://app?vid=373e004e-e69f-46c2-aaa7-3fdc9518e939","ios":"levelo://app?vid=373e004e-e69f-46c2-aaa7-3fdc9518e939"},"vehicle_type_id":"4","last_reported":1736255855,"current_range_meters":30000,"station_id":"ce4bh412rcd13ifvqdr0","pricing_plan_id":"cebpf4jnsgd1na2vs0mg"},{"bike_id":"aca4affb-335f-48a0-98e9-c8af96a91741","system_id":"levelo_inurba_marseille","lat":43.26794,"lon":5.39414,"is_reserved":false,"is_disabled":false,"rental_uris":{"android":"levelo://app?vid=aca4affb-335f-48a0-98e9-c8af96a91741","ios":"levelo://app?vid=aca4affb-335f-48a0-98e9-c8af96a91741"},"vehicle_type_id":"4","last_reported":1736255855,"current_range_meters":10800,"station_id":"ce4bhh12rcd13ifvqfg0","pricing_plan_id":"cebpf4jnsgd1na2vs0mg"},{"bike_id":"f0d144fe-1692-4510-b41a-0ec89617079b","system_id":"levelo_inurba_marseille","lat":43.33002,"lon":5.39065,"is_reserved":false,"is_disabled":false,"rental_uris":{"android":"levelo://app?vid=f0d144fe-1692-4510-b41a-0ec89617079b","ios":"levelo://app?vid=f0d144fe-1692-4510-b41a-0ec89617079b"},"vehicle_type_id":"4","last_reported":1736255855,"current_range_meters":38000,"station_id":"ce4bhr92rcd13ifvqhrg","pricing_plan_id":"cebpf4jnsgd1na2vs0mg"},{"bike_id":"6875ad82-69f2-428d-abfc-ffc91cd18004","system_id":"levelo_inurba_marseille","lat":43.31882,"lon":5.40743,"is_reserved":false,"is_disabled":false,"rental_uris":{"android":"levelo://app?vid=6875ad82-69f2-428d-abfc-ffc91cd18004","ios":"levelo://app?vid=6875ad82-69f2-428d-abfc-ffc91cd18004"},"vehicle_type_id":"4","last_reported":1736255855,"current_range_meters":27600,"station_id":"ce4bhq12rcd13ifvqhig","pricing_plan_id":"cebpf4jnsgd1na2vs0mg"},{"bike_id":"c1533c17-e6b2-4510-aaea-5a6024f34c19","system_id":"levelo_inurba_marseille","lat":43.31724,"lon":5.4362,"is_reserved":false,"is_disabled":false,"rental_uris":{"android":"levelo://app?vid=c1533c17-e6b2-4510-aaea-5a6024f34c19","ios":"levelo://app?vid=c1533c17-e6b2-4510-aaea-5a6024f34c19"},"vehicle_type_id":"4","last_reported":1736255855,"current_range_meters":24800,"station_id":"","pricing_plan_id":"cebpf4jnsgd1na2vs0mg"},{"bike_id":"ea7bebe3-4aff-4a01-b28d-c9b866182ae3","system_id":"levelo_inurba_marseille","lat":43.3416,"lon":5.37526,"is_reserved":false,"is_disabled":false,"rental_uris":{"android":"levelo://app?vid=ea7bebe3-4aff-4a01-b28d-c9b866182ae3","ios":"levelo://app?vid=ea7bebe3-4aff-4a01-b28d-c9b866182ae3"},"vehicle_type_id":"4","last_reported":1736255855,"current_range_meters":28000,"station_id":"","pricing_plan_id":"cebpf4jnsgd1na2vs0mg"},{"bike_id":"4349e322-e54f-4a7c-8de9-2ce06a16918d","system_id":"levelo_inurba_marseille","lat":43.2795,"lon":5.41044,"is_reserved":false,"is_disabled":false,"rental_uris":{"android":"levelo://app?vid=4349e322-e54f-4a7c-8de9-2ce06a16918d","ios":"levelo://app?vid=4349e322-e54f-4a7c-8de9-2ce06a16918d"},"vehicle_type_id":"4","last_reported":1736255855,"current_range_meters":38800,"station_id":"ce4bhnp2rcd13ifvqh0g","pricing_plan_id":"cebpf4jnsgd1na2vs0mg"},{"bike_id":"031ebb29-b773-4a0e-86cf-28baeeeb711e","system_id":"levelo_inurba_marseille","lat":43.29596,"lon":5.381,"is_reserved":false,"is_disabled":false,"rental_uris":{"android":"levelo://app?vid=031ebb29-b773-4a0e-86cf-28baeeeb711e","ios":"levelo://app?vid=031ebb29-b773-4a0e-86cf-28baeeeb711e"},"vehicle_type_id":"4","last_reported":1736255855,"current_range_meters":26000,"station_id":"ce4bgl12rcd13ifvqbo0","pricing_plan_id":"cebpf4jnsgd1na2vs0mg"},{"bike_id":"69cbe7de-59c5-4075-95f1-61c59a9b614e","system_id":"levelo_inurba_marseille","lat":43.32531,"lon":5.4147,"is_reserved":false,"is_disabled":false,"rental_uris":{"android":"levelo://app?vid=69cbe7de-59c5-4075-95f1-61c59a9b614e","ios":"levelo://app?vid=69cbe7de-59c5-4075-95f1-61c59a9b614e"},"vehicle_type_id":"4","last_reported":1736255855,"current_range_meters":31200,"station_id":"ce4bhq12rcd13ifvqhhg","pricing_plan_id":"cebpf4jnsgd1na2vs0mg"},{"bike_id":"1ecbf214-5d35-4cf0-b38a-77f20fe9e9d3","system_id":"levelo_inurba_marseille","lat":43.26679,"lon":5.38261,"is_reserved":false,"is_disabled":false,"rental_uris":{"android":"levelo://app?vid=1ecbf214-5d35-4cf0-b38a-77f20fe9e9d3","ios":"levelo://app?vid=1ecbf214-5d35-4cf0-b38a-77f20fe9e9d3"},"vehicle_type_id":"4","last_reported":1736255855,"current_range_meters":38800,"station_id":"ce4bhg92rcd13ifvqf90","pricing_plan_id":"cebpf4jnsgd1na2vs0mg"},{"bike_id":"380ac25f-ddad-469c-8de6-f4bbe4522ccc","system_id":"levelo_inurba_marseille","lat":43.29836,"lon":5.3627,"is_reserved":false,"is_disabled":false,"rental_uris":{"android":"levelo://app?vid=380ac25f-ddad-469c-8de6-f4bbe4522ccc","ios":"levelo://app?vid=380ac25f-ddad-469c-8de6-f4bbe4522ccc"},"vehicle_type_id":"4","last_reported":1736255855,"current_range_meters":38800,"station_id":"ce4bgpp2rcd13ifvqc3g","pricing_plan_id":"cebpf4jnsgd1na2vs0mg"},{"bike_id":"08061fa0-f0cf-455c-b40a-b2e894dc622e","system_id":"levelo_inurba_marseille","lat":43.31214,"lon":5.36855,"is_reserved":false,"is_disabled":false,"rental_uris":{"android":"levelo://app?vid=08061fa0-f0cf-455c-b40a-b2e894dc622e","ios":"levelo://app?vid=08061fa0-f0cf-455c-b40a-b2e894dc622e"},"vehicle_type_id":"4","last_reported":1736255855,"current_range_meters":17600,"station_id":"ce4bgl92rcd13ifvqbq0","pricing_plan_id":"cebpf4jnsgd1na2vs0mg"},{"bike_id":"ff7429a5-f4cc-4709-a586-0c355ae4fc76","system_id":"levelo_inurba_marseille","lat":43.31753,"lon":5.39018,"is_reserved":false,"is_disabled":false,"rental_uris":{"android":"levelo://app?vid=ff7429a5-f4cc-4709-a586-0c355ae4fc76","ios":"levelo://app?vid=ff7429a5-f4cc-4709-a586-0c355ae4fc76"},"vehicle_type_id":"4","last_reported":1736255855,"current_range_meters":37600,"station_id":"ce4bhqp2rcd13ifvqhng","pricing_plan_id":"cebpf4jnsgd1na2vs0mg"},{"bike_id":"96eaff2f-b541-4fed-a756-a159d664d1f2","system_id":"levelo_inurba_marseille","lat":43.31331,"lon":5.36722,"is_reserved":false,"is_disabled":false,"rental_uris":{"android":"levelo://app?vid=96eaff2f-b541-4fed-a756-a159d664d1f2","ios":"levelo://app?vid=96eaff2f-b541-4fed-a756-a159d664d1f2"},"vehicle_type_id":"4","last_reported":1736255855,"current_range_meters":12000,"station_id":"ce4bgr92rcd13ifvqc6g","pricing_plan_id":"cebpf4jnsgd1na2vs0mg"},{"bike_id":"2fd344b0-b1d6-4f43-99f1-7a18ee45875a","system_id":"levelo_inurba_marseille","lat":43.31762,"lon":5.3901,"is_reserved":false,"is_disabled":false,"rental_uris":{"android":"levelo://app?vid=2fd344b0-b1d6-4f43-99f1-7a18ee45875a","ios":"levelo://app?vid=2fd344b0-b1d6-4f43-99f1-7a18ee45875a"},"vehicle_type_id":"4","last_reported":1736255855,"current_range_meters":32800,"station_id":"ce4bhqp2rcd13ifvqhng","pricing_plan_id":"cebpf4jnsgd1na2vs0mg"},{"bike_id":"7a9813b1-4146-4458-9cb1-b490c5a9e407","system_id":"levelo_inurba_marseille","lat":43.29321,"lon":5.37167,"is_reserved":false,"is_disabled":false,"rental_uris":{"android":"levelo://app?vid=7a9813b1-4146-4458-9cb1-b490c5a9e407","ios":"levelo://app?vid=7a9813b1-4146-4458-9cb1-b490c5a9e407"},"vehicle_type_id":"4","last_reported":1736255855,"current_range_meters":20800,"station_id":"ce4bgh92rcd13ifvqb40","pricing_plan_id":"cebpf4jnsgd1na2vs0mg"},{"bike_id":"b262c4f7-3959-43f5-b3ff-697e55724aef","system_id":"levelo_inurba_marseille","lat":43.24069,"lon":5.37764,"is_reserved":false,"is_disabled":false,"rental_uris":{"android":"levelo://app?vid=b262c4f7-3959-43f5-b3ff-697e55724aef","ios":"levelo://app?vid=b262c4f7-3959-43f5-b3ff-697e55724aef"},"vehicle_type_id":"4","last_reported":1736255855,"current_range_meters":27200,"station_id":"ce4bhnp2rcd13ifvqgvg","pricing_plan_id":"cebpf4jnsgd1na2vs0mg"},{"bike_id":"5955b271-885f-4396-98e9-a0e2ab08e23b","system_id":"levelo_inurba_marseille","lat":43.29589,"lon":5.36736,"is_reserved":false,"is_disabled":false,"rental_uris":{"android":"levelo://app?vid=5955b271-885f-4396-98e9-a0e2ab08e23b","ios":"levelo://app?vid=5955b271-885f-4396-98e9-a0e2ab08e23b"},"vehicle_type_id":"4","last_reported":1736255855,"current_range_meters":38800,"station_id":"ce4bgph2rcd13ifvqc2g","pricing_plan_id":"cebpf4jnsgd1na2vs0mg"},{"bike_id":"aad4a535-b699-4598-8dc1-ecd244317ca1","system_id":"levelo_inurba_marseille","lat":43.23156,"lon":5.39976,"is_reserved":false,"is_disabled":false,"rental_uris":{"android":"levelo://app?vid=aad4a535-b699-4598-8dc1-ecd244317ca1","ios":"levelo://app?vid=aad4a535-b699-4598-8dc1-ecd244317ca1"},"vehicle_type_id":"4","last_reported":1736255855,"current_range_meters":8800,"station_id":"ce4bhn12rcd13ifvqgqg","pricing_plan_id":"cebpf4jnsgd1na2vs0mg"},