{"last_updated":1689883620,"ttl":30,"version":"2.2","data":{"bikes":[{"bike_id":"d4ff9b31-4557-44d9-af86-cf4b51485507","system_id":"levelo_inurba_marseille","lat":43.313391,"lon":5.36706,"is_reserved":false,"is_disabled":false,"rental_uris":{"android":"levelo://app?vid=d4ff9b31-4557-44d9-af86-cf4b51485507","ios":"levelo://app?vid=d4ff9b31-4557-44d9-af86-cf4b51485507"},"vehicle_type_id":"4","last_reported":1689883620,"current_range_meters":0,"station_id":"ce4bgr92rcd13ifvqc6g","pricing_plan_id":"free"},{"bike_id":"acde0b7a-34a7-4619-89e7-40ce8312e0f3","system_id":"levelo_inurba_marseille","lat":43.312239,"lon":5.368562,"is_reserved":false,"is_disabled":false,"rental_uris":{"android":"levelo://app?vid=acde0b7a-34a7-4619-89e7-40ce8312e0f3","ios":"levelo://app?vid=acde0b7a-34a7-4619-89e7-40ce8312e0f3"},"vehicle_type_id":"4","last_reported":1689883620,"current_range_meters":20800,"station_id":"ce4bgl92rcd13ifvqbq0","pricing_plan_id":"free"},{"bike_id":"3db217ae-88a8-4062-b9c0-f897fc146775","system_id":"levelo_inurba_marseille","lat":43.314811,"lon":5.373103,"is_reserved":false,"is_disabled":false,"rental_uris":{"android":"levelo://app?vid=3db217ae-88a8-4062-b9c0-f897fc146775","ios":"levelo://app?vid=3db217ae-88a8-4062-b9c0-f897fc146775"},"vehicle_type_id":"4","last_reported":1689883620,"current_range_meters":12800,"station_id":"ce4bgt12rcd13ifvqcd0","pricing_plan_id":"free"},{"bike_id":"e922a4c1-98e6-46f7-9e67-e23dd51f9aba","system_id":"levelo_inurba_marseille","lat":43.314811,"lon":5.373103,"is_reserved":false,"is_disabled":false,"rental_uris":{"android":"levelo://app?vid=e922a4c1-98e6-46f7-9e67-e23dd51f9aba","ios":"levelo://app?vid=e922a4c1-98e6-46f7-9e67-e23dd51f9aba"},"vehicle_type_id":"4","last_reported":1689883620,"current_range_meters":23600,"station_id":"ce4bgt12rcd13ifvqcd0","pricing_plan_id":"free"},{"bike_id":"264002f1-096d-4684-9dce-f46c29a969a9","system_id":"levelo_inurba_marseille","lat":43.314811,"lon":5.373103,"is_reserved":false,"is_disabled":false,"rental_uris":{"android":"levelo://app?vid=264002f1-096d-4684-9dce-f46c29a969a9","ios":"levelo://app?vid=264002f1-096d-4684-9dce-f46c29a969a9"},"vehicle_type_id":"4","last_reported":1689883620,"current_range_meters":7600,"station_id":"ce4bgt12rcd13ifvqcd0","pricing_plan_id":"free"},{"bike_id":"caf03d25-0bed-4a23-bd6e-03550056f509","system_id":"levelo_inurba_marseille","lat":43.314811,"lon":5.373104,"is_reserved":false,"is_disabled":false,"rental_uris":{"android":"levelo://app?vid=caf03d25-0bed-4a23-bd6e-03550056f509","ios":"levelo://app?vid=caf03d25-0bed-4a23-bd6e-03550056f509"},"vehicle_type_id":"4","last_reported":1689883620,"current_range_meters":30000,"station_id":"ce4bgt12rcd13ifvqcd0","pricing_plan_id":"free"},{"bike_id":"5a0a0ce0-87ac-445e-9beb-9ab064548c1a","system_id":"levelo_inurba_marseille","lat":43.309039,"lon":5.371797,"is_reserved":false,"is_disabled":false,"rental_uris":{"android":"levelo://app?vid=5a0a0ce0-87ac-445e-9beb-9ab064548c1a","ios":"levelo://app?vid=5a0a0ce0-87ac-445e-9beb-9ab064548c1a"},"vehicle_type_id":"4","last_reported":1689883620,"current_range_meters":4400,"station_id":"ce4bguh2rcd13ifvqckg","pricing_plan_id":"free"},{"bike_id":"e01fe0e3-5719-4c86-b24a-9a466b3a62ae","system_id":"levelo_inurba_marseille","lat":43.309039,"lon":5.371797,"is_reserved":false,"is_disabled":false,"rental_uris":{"android":"levelo://app?vid=e01fe0e3-5719-4c86-b24a-9a466b3a62ae","ios":"levelo://app?vid=e01fe0e3-5719-4c86-b24a-9a466b3a62ae"},"vehicle_type_id":"4","last_reported":1689883620,"current_range_meters":14000,"station_id":"ce4bguh2rcd13ifvqckg","pricing_plan_id":"free"},{"bike_id":"8dab606f-2c1b-4486-94b1-66ef570c57d5","system_id":"levelo_inurba_marseille","lat":43.30891,"lon":5.37272,"is_reserved":false,"is_disabled":false,"rental_uris":{"android":"levelo://app?vid=8dab606f-2c1b-4486-94b1-66ef570c57d5","ios":"levelo://app?vid=8dab606f-2c1b-4486-94b1-66ef570c57d5"},"vehicle_type_id":"4","last_reported":1689883620,"current_range_meters":7600,"station_id":"","pricing_plan_id":"free"},{"bike_id":"09568fb4-3302-40ca-adf6-c58361f340ed","system_id":"levelo_inurba_marseille","lat":43.305368,"lon":5.367343,"is_reserved":false,"is_disabled":false,"rental_uris":{"android":"levelo://app?vid=09568fb4-3302-40ca-adf6-c58361f340ed","ios":"levelo://app?vid=09568fb4-3302-40ca-adf6-c58361f340ed"},"vehicle_type_id":"4","last_reported":1689883620,"current_range_meters":20000,"station_id":"ce4bgrp2rcd13ifvqc9g","pricing_plan_id":"free"},{"bike_id":"d5452eac-45ec-41ca-8734-58f25f4b1789","system_id":"levelo_inurba_marseille","lat":43.31329,"lon":5.37695,"is_reserved":false,"is_disabled":false,"rental_uris":{"android":"levelo://app?vid=d5452eac-45ec-41ca-8734-58f25f4b1789","ios":"levelo://app?vid=d5452eac-45ec-41ca-8734-58f25f4b1789"},"vehicle_type_id":"4","last_reported":1689883620,"current_range_meters":21600,"station_id":"","pricing_plan_id":"free"},{"bike_id":"9dc3bd61-63bf-409c-b58d-bc023b0b37d7","system_id":"levelo_inurba_marseille","lat":43.30549,"lon":5.36522,"is_reserved":false,"is_disabled":false,"rental_uris":{"android":"levelo://app?vid=9dc3bd61-63bf-409c-b58d-bc023b0b37d7","ios":"levelo://app?vid=9dc3bd61-63bf-409c-b58d-bc023b0b37d7"},"vehicle_type_id":"4","last_reported":1689883620,"current_range_meters":0,"station_id":"ce4bgs12rcd13ifvqcag","pricing_plan_id":"free"},{"bike_id":"3f2abb94-14d7-48c3-83da-f1b5ed0a43db","system_id":"levelo_inurba_marseille","lat":43.305368,"lon":5.367343,"is_reserved":false,"is_disabled":false,"rental_uris":{"android":"levelo://app?vid=3f2abb94-14d7-48c3-83da-f1b5ed0a43db","ios":"levelo://app?vid=3f2abb94-14d7-48c3-83da-f1b5ed0a43db"},"vehicle_type_id":"4","last_reported":1689883620,"current_range_meters":12400,"station_id":"ce4bgrp2rcd13ifvqc9g","pricing_plan_id":"free"},{"bike_id":"5baf82ff-be92-4c37-81e3-2ffd4f512274","system_id":"levelo_inurba_marseille","lat":43.305368,"lon":5.367343,"is_reserved":false,"is_disabled":false,"rental_uris":{"android":"levelo://app?vid=5baf82ff-be92-4c37-81e3-2ffd4f512274","ios":"levelo://app?vid=5baf82ff-be92-4c37-81e3-2ffd4f512274"},"vehicle_type_id":"4","last_reported":1689883620,"current_range_meters":27600,"station_id":"ce4bgrp2rcd13ifvqc9g","pricing_plan_id":"free"},{"bike_id":"9ebfdadf-eebb-4934-973d-55963c25c762","system_id":"levelo_inurba_marseille","lat":43.305989,"lon":5.37225,"is_reserved":false,"is_disabled":false,"rental_uris":{"android":"levelo://app?vid=9ebfdadf-eebb-4934-973d-55963c25c762","ios":"levelo://app?vid=9ebfdadf-eebb-4934-973d-55963c25c762"},"vehicle_type_id":"4","last_reported":1689883620,"current_range_meters":30800,"station_id":"ce4bgqh2rcd13ifvqc4g","pricing_plan_id":"free"},{"bike_id":"1a9efa78-e323-489c-965d-4a5325b9729b","system_id":"levelo_inurba_marseille","lat":43.305989,"lon":5.37225,"is_reserved":false,"is_disabled":false,"rental_uris":{"android":"levelo://app?vid=1a9efa78-e323-489c-965d-4a5325b9729b","ios":"levelo://app?vid=1a9efa78-e323-489c-965d-4a5325b9729b"},"vehicle_type_id":"4","last_reported":1689883620,"current_range_meters":23600,"station_id":"ce4bgqh2rcd13ifvqc4g","pricing_plan_id":"free"},{"bike_id":"a91d35ed-a6bf-4286-a04a-46742cd57327","system_id":"levelo_inurba_marseille","lat":43.305989,"lon":5.37225,"is_reserved":false,"is_disabled":false,"rental_uris":{"android":"levelo://app?vid=a91d35ed-a6bf-4286-a04a-46742cd57327","ios":"levelo://app?vid=a91d35ed-a6bf-4286-a04a-46742cd57327"},"vehicle_type_id":"4","last_reported":1689883620,"current_range_meters":8800,"station_id":"ce4bgqh2rcd13ifvqc4g","pricing_plan_id":"free"},{"bike_id":"0278d48d-b860-4e67-8f9e-724839e5f29a","system_id":"levelo_inurba_marseille","lat":43.305989,"lon":5.37225,"is_reserved":false,"is_disabled":false,"rental_uris":{"android":"levelo://app?vid=0278d48d-b860-4e67-8f9e-724839e5f29a","ios":"levelo://app?vid=0278d48d-b860-4e67-8f9e-724839e5f29a"},"vehicle_type_id":"4","last_reported":1689883620,"current_range_meters":0,"station_id":"ce4bgqh2rcd13ifvqc4g","pricing_plan_id":"free"},{"bike_id":"9d9ee745-4e09-4a4b-97c4-ca8de0e0983c","system_id":"levelo_inurba_marseille","lat":43.311131,"lon":5.377651,"is_reserved":false,"is_disabled":false,"rental_uris":{"android":"levelo://app?vid=9d9ee745-4e09-4a4b-97c4-ca8de0e0983c","ios":"levelo://app?vid=9d9ee745-4e09-4a4b-97c4-ca8de0e0983c"},"vehicle_type_id":"4","last_reported":1689883620,"current_range_meters":18400,"station_id":"ce4bgt92rcd13ifvqcg0","pricing_plan_id":"free"},{"bike_id":"e1b54f07-18fc-4b10-a9f3-bcb5499b413c","system_id":"levelo_inurba_marseille","lat":43.31125,"lon":5.37768,"is_reserved":false,"is_disabled":false,"rental_uris":{"android":"levelo://app?vid=e1b54f07-18fc-4b10-a9f3-bcb5499b413c","ios":"levelo://app?vid=e1b54f07-18fc-4b10-a9f3-bcb5499b413c"},"vehicle_type_id":"4","last_reported":1689883620,"current_range_meters":25600,"station_id":"ce4bgt92rcd13ifvqcg0","pricing_plan_id":"free"},{"bike_id":"b53fba96-5a98-43d7-a469-593701b7dc77","system_id":"levelo_inurba_marseille","lat":43.311131,"lon":5.377651,"is_reserved":false,"is_disabled":false,"rental_uris":{"android":"levelo://app?vid=b53fba96-5a98-43d7-a469-593701b7dc77","ios":"levelo://app?vid=b53fba96-5a98-43d7-a469-593701b7dc77"},"vehicle_type_id":"4","last_reported":1689883620,"current_range_meters":19200,"station_id":"ce4bgt92rcd13ifvqcg0","pricing_plan_id":"free"},{"bike_id":"eec0cd8f-71e2-405c-920c-b26cce0a3505","system_id":"levelo_inurba_marseille","lat":43.307945,"lon":5.376487,"is_reserved":false,"is_disabled":false,"rental_uris":{"android":"levelo://app?vid=eec0cd8f-71e2-405c-920c-b26cce0a3505","ios":"levelo://app?vid=eec0cd8f-71e2-405c-920c-b26cce0a3505"},"vehicle_type_id":"4","last_reported":1689883620,"current_range_meters":14800,"station_id":"ce4bgv92rcd13ifvqcq0","pricing_plan_id":"free"},{"bike_id":"07a3d1cc-a031-4d92-af1f-19e5cc0028e2","system_id":"levelo_inurba_marseille","lat":43.317075,"lon":5.377367,"is_reserved":false,"is_disabled":false,"rental_uris":{"android":"levelo://app?vid=07a3d1cc-a031-4d92-af1f-19e5cc0028e2","ios":"levelo://app?vid=07a3d1cc-a031-4d92-af1f-19e5cc0028e2"},"vehicle_type_id":"4","last_reported":1689883620,"current_range_meters":30400,"station_id":"ce4bgth2rcd13ifvqch0","pricing_plan_id":"free"},{"bike_id":"d2f28115-ce73-4e05-817b-c57888f17678","system_id":"levelo_inurba_marseille","lat":43.317075,"lon":5.377367,"is_reserved":false,"is_disabled":false,"rental_uris":{"android":"levelo://app?vid=d2f28115-ce73-4e05-817b-c57888f17678","ios":"levelo://app?vid=d2f28115-ce73-4e05-817b-c57888f17678"},"vehicle_type_id":"4","last_reported":1689883620,"current_range_meters":27600,"station_id":"ce4bgth2rcd13ifvqch0","pricing_plan_id":"free"},{"bike_id":"735f386f-7db9-435a-93c7-b04fca6e6c61","system_id":"levelo_inurba_marseille","lat":43.317075,"lon":5.377367,"is_reserved":false,"is_disabled":false,"rental_uris":{"android":"levelo://app?vid=735f386f-7db9-435a-93c7-b04fca6e6c61","ios":"levelo://app?vid=735f386f-7db9-435a-93c7-b04fca6e6c61"},"vehicle_type_id":"4","last_reported":1689883620,"current_range_meters":30000,"station_id":"ce4bgth2rcd13ifvqch0","pricing_plan_id":"free"},{"bike_id":"9c48ab55-8485-48aa-b898-1271c1e21270","system_id":"levelo_inurba_marseille","lat":43.317075,"lon":5.377367,"is_reserved":false,"is_disabled":false,"rental_uris":{"android":"levelo://app?vid=9c48ab55-8485-48aa-b898-1271c1e21270","ios":"levelo://app?vid=9c48ab55-8485-48aa-b898-1271c1e21270"},"vehicle_type_id":"4","last_reported":1689883620,"current_range_meters":14400,"station_id":"ce4bgth2rcd13ifvqch0","pricing_plan_id":"free"},{"bike_id":"2f01c58d-3358-4b2b-858c-9f597cb6aec7","system_id":"levelo_inurba_marseille","lat":43.303046,"lon":5.368981,"is_reserved":false,"is_disabled":false,"rental_uris":{"android":"levelo://app?vid=2f01c58d-3358-4b2b-858c-9f597cb6aec7","ios":"levelo://app?vid=2f01c58d-3358-4b2b-858c-9f597cb6aec7"},"vehicle_type_id":"4","last_reported":1689883620,"current_range_meters":10800,"station_id":"ce4bgqh2rcd13ifvqc5g","pricing_plan_id":"free"},{"bike_id":"a2e136f1-c728-4018-88c2-a46aa30aa3c2","system_id":"levelo_inurba_marseille","lat":43.303046,"lon":5.368981,"is_reserved":false,"is_disabled":false,"rental_uris":{"android":"levelo://app?vid=a2e136f1-c728-4018-88c2-a46aa30aa3c2","ios":"levelo://app?vid=a2e136f1-c728-4018-88c2-a46aa30aa3c2"},"vehicle_type_id":"4","last_reported":1689883620,"current_range_meters":28000,"station_id":"ce4bgqh2rcd13ifvqc5g","pricing_plan_id":"free"},{"bike_id":"d88bdce1-a931-4c34-9e24-eef92c1bffb7","system_id":"levelo_inurba_marseille","lat":43.30304,"lon":5.36904,"is_reserved":false,"is_disabled":false,"rental_uris":{"android":"levelo://app?vid=d88bdce1-a931-4c34-9e24-eef92c1bffb7","ios":"levelo://app?vid=d88bdce1-a931-4c34-9e24-eef92c1bffb7"},"vehicle_type_id":"4","last_reported":1689883620,"current_range_meters":4400,"station_id":"ce4bgqh2rcd13ifvqc5g","pricing_plan_id":"free"},{"bike_id":"42cb00a9-8a79-423f-acac-f6204a122367","system_id":"levelo_inurba_marseille","lat":43.315293,"lon":5.380349,"is_reserved":false,"is_disabled":false,"rental_uris":{"android":"levelo://app?vid=42cb00a9-8a79-423f-acac-f6204a122367","ios":"levelo://app?vid=42cb00a9-8a79-423f-acac-f6204a122367"},"vehicle_type_id":"4","last_reported":1689883620,"current_range_meters":14000,"station_id":"ce4bhsp2rcd13ifvqi50","pricing_plan_id":"free"},{"bike_id":"4436477a-d00c-4d95-8691-3d3c895c7928","system_id":"levelo_inurba_marseille","lat":43.315293,"lon":5.380349,"is_reserved":false,"is_disabled":false,"rental_uris":{"android":"levelo://app?vid=4436477a-d00c-4d95-8691-3d3c895c7928","ios":"levelo://app?vid=4436477a-d00c-4d95-8691-3d3c895c7928"},"vehicle_type_id":"4","last_reported":1689883620,"current_range_meters":10000,"station_id":"ce4bhsp2rcd13ifvqi50","pricing_plan_id":"free"},{"bike_id":"f021bcb9-e917-45c1-aedf-92f9fce5cb8a","system_id":"levelo_inurba_marseille","lat":43.315293,"lon":5.380349,"is_reserved":false,"is_disabled":false,"rental_uris":{"android":"levelo://app?vid=f021bcb9-e917-45c1-aedf-92f9fce5cb8a","ios":"levelo://app?vid=f021bcb9-e917-45c1-aedf-92f9fce5cb8a"},"vehicle_type_id":"4","last_reported":1689883620,"current_range_meters":2400,"station_id":"ce4bhsp2rcd13ifvqi50","pricing_plan_id":"free"},{"bike_id":"5469a797-6080-4da2-8e88-36db2a08c51f","system_id":"levelo_inurba_marseille","lat":43.315293,"lon":5.380349,"is_reserved":false,"is_disabled":false,"rental_uris":{"android":"levelo://app?vid=5469a797-6080-4da2-8e88-36db2a08c51f","ios":"levelo://app?vid=5469a797-6080-4da2-8e88-36db2a08c51f"},"vehicle_type_id":"4","last_reported":1689883620,"current_range_meters":31200,"station_id":"ce4bhsp2rcd13ifvqi50","pricing_plan_id":"free"},{"bike_id":"5e2ea3e2-8061-48b7-b65c-a6bfc91e7829","system_id":"levelo_inurba_marseille","lat":43.3153,"lon":5.38028,"is_reserved":false,"is_disabled":false,"rental_uris":{"android":"levelo://app?vid=5e2ea3e2-8061-48b7-b65c-a6bfc91e7829","ios":"levelo://app?vid=5e2ea3e2-8061-48b7-b65c-a6bfc91e7829"},"vehicle_type_id":"4","last_reported":1689883620,"current_range_meters":16400,"station_id":"ce4bhsp2rcd13ifvqi50","pricing_plan_id":"free"},{"bike_id":"4a34aa67-c9fd-49b3-9546-dcc8e3fa0491","system_id":"levelo_inurba_marseille","lat":43.315293,"lon":5.380349,"is_reserved":false,"is_disabled":false,"rental_uris":{"android":"levelo://app?vid=4a34aa67-c9fd-49b3-9546-dcc8e3fa0491","ios":"levelo://app?vid=4a34aa67-c9fd-49b3-9546-dcc8e3fa0491"},"vehicle_type_id":"4","last_reported":1689883620,"current_range_meters":18400,"station_id":"ce4bhsp2rcd13ifvqi50","pricing_plan_id":"free"},{"bike_id":"53ecf049-6578-488b-b36c-de34ce8713e6","system_id":"levelo_inurba_marseille","lat":43.3153,"lon":5.3804,"is_reserved":false,"is_disabled":false,"rental_uris":{"android":"levelo://app?vid=53ecf049-6578-488b-b36c-de34ce8713e6","ios":"levelo://app?vid=53ecf049-6578-488b-b36c-de34ce8713e6"},"vehicle_type_id":"4","last_reported":1689883620,"current_range_meters":22000,"station_id":"ce4bhsp2rcd13ifvqi50","pricing_plan_id":"free"},{"bike_id":"9771eac3-6ccd-4c8c-a428-3313075f99c3","system_id":"levelo_inurba_marseille","lat":43.301939,"lon":5.366286,"is_reserved":false,"is_disabled":false,"rental_uris":{"android":"levelo://app?vid=9771eac3-6ccd-4c8c-a428-3313075f99c3","ios":"levelo://app?vid=9771eac3-6ccd-4c8c-a428-3313075f99c3"},"vehicle_type_id":"4","last_reported":1689883620,"current_range_meters":22000,"station_id":"ce4bgrh2rcd13ifvqc8g","pricing_plan_id":"free"},{"bike_id":"367192c1-d05e-491d-a4e9-db36a64bc418","system_id":"levelo_inurba_marseille","lat":43.30799,"lon":5.38133,"is_reserved":false,"is_disabled":false,"rental_uris":{"android":"levelo://app?vid=367192c1-d05e-491d-a4e9-db36a64bc418","ios":"levelo://app?vid=367192c1-d05e-491d-a4e9-db36a64bc418"},"vehicle_type_id":"4","last_reported":1689883620,"current_range_meters":12000,"station_id":"ce4bgt12rcd13ifvqce0","pricing_plan_id":"free"},{"bike_id":"c942f83d-e653-4532-8bed-2ea006731308","system_id":"levelo_inurba_marseille","lat":43.30802,"lon":5.38144,"is_reserved":false,"is_disabled":false,"rental_uris":{"android":"levelo://app?vid=c942f83d-e653-4532-8bed-2ea006731308","ios":"levelo://app?vid=c942f83d-e653-4532-8bed-2ea006731308"},"vehicle_type_id":"4","last_reported":1689883620,"current_range_meters":27200,"station_id":"ce4bgt12rcd13ifvqce0","pricing_plan_id":"free"},{"bike_id":"3ab16899-a8e5-4c4c-8a03-2700cdd1b83f","system_id":"levelo_inurba_marseille","lat":43.30803,"lon":5.38148,"is_reserved":false,"is_disabled":false,"rental_uris":{"android":"levelo://app?vid=3ab16899-a8e5-4c4c-8a03-2700cdd1b83f","ios":"levelo://app?vid=3ab16899-a8e5-4c4c-8a03-2700cdd1b83f"},"vehicle_type_id":"4","last_reported":1689883620,"current_range_meters":4800,"station_id":"ce4bgt12rcd13ifvqce0","pricing_plan_id":"free"},{"bike_id":"8bacdb74-a80a-48c0-9804-2b13d539c97c","system_id":"levelo_inurba_marseille","lat":43.30807,"lon":5.38157,"is_reserved":false,"is_disabled":false,"rental_uris":{"android":"levelo://app?vid=8bacdb74-a80a-48c0-9804-2b13d539c97c","ios":"levelo://app?vid=8bacdb74-a80a-48c0-9804-2b13d539c97c"},"vehicle_type_id":"4","last_reported":1689883620,"current_range_meters":11600,"station_id":"ce4bgt12rcd13ifvqce0","pricing_plan_id":"free"},{"bike_id":"7a429bee-d3dd-4135-b2fd-f0774ad1f9cb","system_id":"levelo_inurba_marseille","lat":43.302784,"lon":5.377158,"is_reserved":false,"is_disabled":false,"rental_uris":{"android":"levelo://app?vid=7a429bee-d3dd-4135-b2fd-f0774ad1f9cb","ios":"levelo://app?vid=7a429bee-d3dd-4135-b2fd-f0774ad1f9cb"},"vehicle_type_id":"4","last_reported":1689883620,"current_range_meters":400,"station_id":"ce4bguh2rcd13ifvqcj0","pricing_plan_id":"free"},{"bike_id":"e037b703-cdf0-427e-b1ba-e31d897b3a0f","system_id":"levelo_inurba_marseille","lat":43.302784,"lon":5.377158,"is_reserved":false,"is_disabled":false,"rental_uris":{"android":"levelo://app?vid=e037b703-cdf0-427e-b1ba-e31d897b3a0f","ios":"levelo://app?vid=e037b703-cdf0-427e-b1ba-e31d897b3a0f"},"vehicle_type_id":"4","last_reported":1689883620,"current_range_meters":13600,"station_id":"ce4bguh2rcd13ifvqcj0","pricing_plan_id":"free"},{"bike_id":"5862f5ae-2393-4f80-8deb-6c9c77ecbdfa","system_id":"levelo_inurba_marseille","lat":43.313571,"lon":5.384829,"is_reserved":false,"is_disabled":false,"rental_uris":{"android":"levelo://app?vid=5862f5ae-2393-4f80-8deb-6c9c77ecbdfa","ios":"levelo://app?vid=5862f5ae-2393-4f80-8deb-6c9c77ecbdfa"},"vehicle_type_id":"4","last_reported":1689883620,"current_range_meters":30400,"station_id":"ce4bgt92rcd13ifvqcf0","pricing_plan_id":"free"},{"bike_id":"abe7af27-09fa-4153-aec0-348e42bc2e00","system_id":"levelo_inurba_marseille","lat":43.313571,"lon":5.384829,"is_reserved":false,"is_disabled":false,"rental_uris":{"android":"levelo://app?vid=abe7af27-09fa-4153-aec0-348e42bc2e00","ios":"levelo://app?vid=abe7af27-09fa-4153-aec0-348e42bc2e00"},"vehicle_type_id":"4","last_reported":1689883620,"current_range_meters":5600,"station_id":"ce4bgt92rcd13ifvqcf0","pricing_plan_id":"free"},{"bike_id":"940392dc-f0da-4c53-9cac-9301a8f0a639","system_id":"levelo_inurba_marseille","lat":43.313571,"lon":5.384829,"is_reserved":false,"is_disabled":false,"rental_uris":{"android":"levelo://app?vid=940392dc-f0da-4c53-9cac-9301a8f0a639","ios":"levelo://app?vid=940392dc-f0da-4c53-9cac-9301a8f0a639"},"vehicle_type_id":"4","last_reported":1689883620,"current_range_meters":16800,"station_id":"ce4bgt92rcd13ifvqcf0","pricing_plan_id":"free"},{"bike_id":"f49c3620-d9cf-4816-a176-563a17f5d33f","system_id":"levelo_inurba_marseille","lat":43.313571,"lon":5.384829,"is_reserved":false,"is_disabled":false,"rental_uris":{"android":"levelo://app?vid=f49c3620-d9cf-4816-a176-563a17f5d33f","ios":"levelo://app?vid=f49c3620-d9cf-4816-a176-563a17f5d33f"},"vehicle_type_id":"4","last_reported":1689883620,"current_range_meters":23600,"station_id":"ce4bgt92rcd13ifvqcf0","pricing_plan_id":"free"},{"bike_id":"4f6da042-20ba-498c-9b01-56e2db571a3b","system_id":"levelo_inurba_marseille","lat":43.313571,"lon":5.384829,"is_reserved":false,"is_disabled":false,"rental_uris":{"android":"levelo://app?vid=4f6da042-20ba-498c-9b01-56e2db571a3b","ios":"levelo://app?vid=4f6da042-20ba-498c-9b01-56e2db571a3b"},"vehicle_type_id":"4","last_reported":1689883620,"current_range_meters":25200,"station_id":"ce4bgt92rcd13ifvqcf0","pricing_plan_id":"free"},{"bike_id":"f11a268f-30a1-4c97-a3b7-2618442684cb","system_id":"levelo_inurba_marseille","lat":43.313571,"lon":5.384829,"is_reserved":false,"is_disabled":false,"rental_uris":{"android":"levelo://app?vid=f11a268f-30a1-4c97-a3b7-2618442684cb","ios":"levelo://app?vid=f11a268f-30a1-4c97-a3b7-2618442684cb"},"vehicle_type_id":"4","last_reported":1689883620,"current_range_meters":31200,"station_id":"ce4bgt92rcd13ifvqcf0","pricing_plan_id":"free"},{"bike_id":"f38cfc81-1ab4-4a45-a08c-ff297532ec91","system_id":"levelo_inurba_marseille","lat":43.31362,"lon":5.38515,"is_reserved":false,"is_disabled":false,"rental_uris":{"android":"levelo://app?vid=f38cfc81-1ab4-4a45-a08c-ff297532ec91","ios":"levelo://app?vid=f38cfc81-1ab4-4a45-a08c-ff297532ec91"},"vehicle_type_id":"4","last_reported":1689883620,"current_range_meters":19200,"station_id":"ce4bgt92rcd13ifvqcf0","pricing_plan_id":"free"},{"bike_id":"abcd80e0-37ff-4442-a7b9-13e86bb2b907","system_id":"levelo_inurba_marseille","lat":43.30023,"lon":5.37618,"is_reserved":false,"is_disabled":false,"rental_uris":{"android":"levelo://app?vid=abcd80e0-37ff-4442-a7b9-13e86bb2b907","ios":"levelo://app?vid=abcd80e0-37ff-4442-a7b9-13e86bb2b907"},"vehicle_type_id":"4","last_reported":1689883620,"current_range_meters":1200,"station_id":"","pricing_plan_id":"free"},{"bike_id":"d42f874d-817c-4dd8-bf9d-1557a747a5f9","system_id":"levelo_inurba_marseille","lat":43.298433,"lon":5.362774,"is_reserved":false,"is_disabled":false,"rental_uris":{"android":"levelo://app?vid=d42f874d-817c-4dd8-bf9d-1557a747a5f9","ios":"levelo://app?vid=d42f874d-817c-4dd8-bf9d-1557a747a5f9"},"vehicle_type_id":"4","last_reported":1689883620,"current_range_meters":12400,"station_id":"ce4bgpp2rcd13ifvqc3g","pricing_plan_id":"free"},{"bike_id":"ed0677ac-8379-487f-b07c-411a9ba4bed7","system_id":"levelo_inurba_marseille","lat":43.298433,"lon":5.362774,"is_reserved":false,"is_disabled":false,"rental_uris":{"android":"levelo://app?vid=ed0677ac-8379-487f-b07c-411a9ba4bed7","ios":"levelo://app?vid=ed0677ac-8379-487f-b07c-411a9ba4bed7"},"vehicle_type_id":"4","last_reported":1689883620,"current_range_meters":14400,"station_id":"ce4bgpp2rcd13ifvqc3g","pricing_plan_id":"free"},{"bike_id":"86b162d3-e1cc-47b6-baa4-6e1696833ab2","system_id":"levelo_inurba_marseille","lat":43.298433,"lon":5.362774,"is_reserved":false,"is_disabled":false,"rental_uris":{"android":"levelo://app?vid=86b162d3-e1cc-47b6-baa4-6e1696833ab2","ios":"levelo://app?vid=86b162d3-e1cc-47b6-baa4-6e1696833ab2"},"vehicle_type_id":"4","last_reported":1689883620,"current_range_meters":18800,"station_id":"ce4bgpp2rcd13ifvqc3g","pricing_plan_id":"free"},{"bike_id":"37ade09c-8a99-425d-9f23-048fbff9f3ea","system_id":"levelo_inurba_marseille","lat":43.298433,"lon":5.362774,"is_reserved":false,"is_disabled":false,"rental_uris":{"android":"levelo://app?vid=37ade09c-8a99-425d-9f23-048fbff9f3ea","ios":"levelo://app?vid=37ade09c-8a99-425d-9f23-048fbff9f3ea"},"vehicle_type_id":"4","last_reported":1689883620,"current_range_meters":0,"station_id":"ce4bgpp2rcd13ifvqc3g","pricing_plan_id":"free"},{"bike_id":"28a619fd-b298-4591-ad55-4207ac0ae28b","system_id":"levelo_inurba_marseille","lat":43.311722,"lon":5.387247,"is_reserved":false,"is_disabled":false,"rental_uris":{"android":"levelo://app?vid=28a619fd-b298-4591-ad55-4207ac0ae28b","ios":"levelo://app?vid=28a619fd-b298-4591-ad55-4207ac0ae28b"},"vehicle_type_id":"4","last_reported":1689883620,"current_range_meters":9600,"station_id":"ce4bgv12rcd13ifvqcp0","pricing_plan_id":"free"},{"bike_id":"56200a3a-a04e-42c8-aaa5-6ea5b86cb697","system_id":"levelo_inurba_marseille","lat":43.311722,"lon":5.387247,"is_reserved":false,"is_disabled":false,"rental_uris":{"android":"levelo://app?vid=56200a3a-a04e-42c8-aaa5-6ea5b86cb697","ios":"levelo://app?vid=56200a3a-a04e-42c8-aaa5-6ea5b86cb697"},"vehicle_type_id":"4","last_reported":1689883620,"current_range_meters":14400,"station_id":"ce4bgv12rcd13ifvqcp0","pricing_plan_id":"free"},{"bike_id":"adbdca54-5671-488f-889f-02d98ce9962c","system_id":"levelo_inurba_marseille","lat":43.29913,"lon":5.37454,"is_reserved":false,"is_disabled":false,"rental_uris":{"android":"levelo://app?vid=adbdca54-5671-488f-889f-02d98ce9962c","ios":"levelo://app?vid=adbdca54-5671-488f-889f-02d98ce9962c"},"vehicle_type_id":"4","last_reported":1689883620,"current_range_meters":8000,"station_id":"ce4bgjh2rcd13ifvqbg0","pricing_plan_id":"free"},{"bike_id":"04efbfbe-993f-4147-80e1-50eba15af751","system_id":"levelo_inurba_marseille","lat":43.311722,"lon":5.387247,"is_reserved":false,"is_disabled":false,"rental_uris":{"android":"levelo://app?vid=04efbfbe-993f-4147-80e1-50eba15af751","ios":"levelo://app?vid=04efbfbe-993f-4147-80e1-50eba15af751"},"vehicle_type_id":"4","last_reported":1689883620,"current_range_meters":24400,"station_id":"ce4bgv12rcd13ifvqcp0","pricing_plan_id":"free"},{"bike_id":"4e7cee92-459a-4eae-a28a-c338ae4bbe75","system_id":"levelo_inurba_marseille","lat":43.29911,"lon":5.37469,"is_reserved":false,"is_disabled":false,"rental_uris":{"android":"levelo://app?vid=4e7cee92-459a-4eae-a28a-c338ae4bbe75","ios":"levelo://app?vid=4e7cee92-459a-4eae-a28a-c338ae4bbe75"},"vehicle_type_id":"4","last_reported":1689883620,"current_range_meters":16000,"station_id":"ce4bgjh2rcd13ifvqbg0","pricing_plan_id":"free"},{"bike_id":"8b26a719-69ee-465b-8d53-6e587fc48542","system_id":"levelo_inurba_marseille","lat":43.311722,"lon":5.387247,"is_reserved":false,"is_disabled":false,"rental_uris":{"android":"levelo://app?vid=8b26a719-69ee-465b-8d53-6e587fc48542","ios":"levelo://app?vid=8b26a719-69ee-465b-8d53-6e587fc48542"},"vehicle_type_id":"4","last_reported":1689883620,"current_range_meters":0,"station_id":"ce4bgv12rcd13ifvqcp0","pricing_plan_id":"free"},{"bike_id":"818a262c-8ab2-47ea-b60a-ae52f0d82709","system_id":"levelo_inurba_marseille","lat":43.322872,"lon":5.382756,"is_reserved":false,"is_disabled":false,"rental_uris":{"android":"levelo://app?vid=818a262c-8ab2-47ea-b60a-ae52f0d82709","ios":"levelo://app?vid=818a262c-8ab2-47ea-b60a-ae52f0d82709"},"vehicle_type_id":"4","last_reported":1689883620,"current_range_meters":15200,"station_id":"ce4bhr12rcd13ifvqhqg","pricing_plan_id":"free"},{"bike_id":"aa319697-ef5d-42e3-85fb-1ff3e58eb27e","system_id":"levelo_inurba_marseille","lat":43.322872,"lon":5.382756,"is_reserved":false,"is_disabled":false,"rental_uris":{"android":"levelo://app?vid=aa319697-ef5d-42e3-85fb-1ff3e58eb27e","ios":"levelo://app?vid=aa319697-ef5d-42e3-85fb-1ff3e58eb27e"},"vehicle_type_id":"4","last_reported":1689883620,"current_range_meters":23200,"station_id":"ce4bhr12rcd13ifvqhqg","pricing_plan_id":"free"},{"bike_id":"76e11bd8-1b05-4b0d-b406-203c10ce1696","system_id":"levelo_inurba_marseille","lat":43.322872,"lon":5.382756,"is_reserved":false,"is_disabled":false,"rental_uris":{"android":"levelo://app?vid=76e11bd8-1b05-4b0d-b406-203c10ce1696","ios":"levelo://app?vid=76e11bd8-1b05-4b0d-b406-203c10ce1696"},"vehicle_type_id":"4","last_reported":1689883620,"current_range_meters":18400,"station_id":"ce4bhr12rcd13ifvqhqg","pricing_plan_id":"free"},{"bike_id":"7c154cf1-be76-45ac-8f98-526cdbeb1a99","system_id":"levelo_inurba_marseille","lat":43.32288,"lon":5.38268,"is_reserved":false,"is_disabled":false,"rental_uris":{"android":"levelo://app?vid=7c154cf1-be76-45ac-8f98-526cdbeb1a99","ios":"levelo://app?vid=7c154cf1-be76-45ac-8f98-526cdbeb1a99"},"vehicle_type_id":"4","last_reported":1689883620,"current_range_meters":18400,"station_id":"ce4bhr12rcd13ifvqhqg","pricing_plan_id":"free"},{"bike_id":"34a14616-e4f3-4bd2-84e2-ac92741d9865","system_id":"levelo_inurba_marseille","lat":43.297774,"lon":5.370875,"is_reserved":false,"is_disabled":false,"rental_uris":{"android":"levelo://app?vid=34a14616-e4f3-4bd2-84e2-ac92741d9865","ios":"levelo://app?vid=34a14616-e4f3-4bd2-84e2-ac92741d9865"},"vehicle_type_id":"4","last_reported":1689883620,"current_range_meters":7600,"station_id":"ce4bgop2rcd13ifvqc1g","pricing_plan_id":"free"},{"bike_id":"e916ca30-98a4-4365-b6d6-d96cd71c267d","system_id":"levelo_inurba_marseille","lat":43.322872,"lon":5.382756,"is_reserved":false,"is_disabled":false,"rental_uris":{"android":"levelo://app?vid=e916ca30-98a4-4365-b6d6-d96cd71c267d","ios":"levelo://app?vid=e916ca30-98a4-4365-b6d6-d96cd71c267d"},"vehicle_type_id":"4","last_reported":1689883620,"current_range_meters":30800,"station_id":"ce4bhr12rcd13ifvqhqg","pricing_plan_id":"free"},{"bike_id":"645b798f-aef6-4c3a-9e9a-1e0bb841abf2","system_id":"levelo_inurba_marseille","lat":43.322872,"lon":5.382756,"is_reserved":false,"is_disabled":false,"rental_uris":{"android":"levelo://app?vid=645b798f-aef6-4c3a-9e9a-1e0bb841abf2","ios":"levelo://app?vid=645b798f-aef6-4c3a-9e9a-1e0bb841abf2"},"vehicle_type_id":"4","last_reported":1689883620,"current_range_meters":20000,"station_id":"ce4bhr12rcd13ifvqhqg","pricing_plan_id":"free"},{"bike_id":"2ed41945-cea8-4afa-87d0-4eb6bbef9c57","system_id":"levelo_inurba_marseille","lat":43.3229,"lon":5.38273,"is_reserved":false,"is_disabled":false,"rental_uris":{"android":"levelo://app?vid=2ed41945-cea8-4afa-87d0-4eb6bbef9c57","ios":"levelo://app?vid=2ed41945-cea8-4afa-87d0-4eb6bbef9c57"},"vehicle_type_id":"4","last_reported":1689883620,"current_range_meters":17600,"station_id":"ce4bhr12rcd13ifvqhqg","pricing_plan_id":"free"},{"bike_id":"e32228af-bf89-4918-9e06-96658a707ebf","system_id":"levelo_inurba_marseille","lat":43.322913,"lon":5.38272,"is_reserved":false,"is_disabled":false,"rental_uris":{"android":"levelo://app?vid=e32228af-bf89-4918-9e06-96658a707ebf","ios":"levelo://app?vid=e32228af-bf89-4918-9e06-96658a707ebf"},"vehicle_type_id":"4","last_reported":1689883620,"current_range_meters":16000,"station_id":"","pricing_plan_id":"free"},{"bike_id":"3296666b-4550-46e5-8780-de3f4f4bdb22","system_id":"levelo_inurba_marseille","lat":43.322872,"lon":5.382756,"is_reserved":false,"is_disabled":false,"rental_uris":{"android":"levelo://app?vid=3296666b-4550-46e5-8780-de3f4f4bdb22","ios":"levelo://app?vid=3296666b-4550-46e5-8780-de3f4f4bdb22"},"vehicle_type_id":"4","last_reported":1689883620,"current_range_meters":14800,"station_id":"ce4bhr12rcd13ifvqhqg","pricing_plan_id":"free"},{"bike_id":"68aff992-6a2f-4df7-84f1-5f129124d378","system_id":"levelo_inurba_marseille","lat":43.32825,"lon":5.36695,"is_reserved":false,"is_disabled":false,"rental_uris":{"android":"levelo://app?vid=68aff992-6a2f-4df7-84f1-5f129124d378","ios":"levelo://app?vid=68aff992-6a2f-4df7-84f1-5f129124d378"},"vehicle_type_id":"4","last_reported":1689883620,"current_range_meters":31200,"station_id":"ce4bhs92rcd13ifvqi0g","pricing_plan_id":"free"},{"bike_id":"bccd87f9-44fb-4c8c-b55e-836d1e79bd1d","system_id":"levelo_inurba_marseille","lat":43.32825,"lon":5.36682,"is_reserved":false,"is_disabled":false,"rental_uris":{"android":"levelo://app?vid=bccd87f9-44fb-4c8c-b55e-836d1e79bd1d","ios":"levelo://app?vid=bccd87f9-44fb-4c8c-b55e-836d1e79bd1d"},"vehicle_type_id":"4","last_reported":1689883620,"current_range_meters":16400,"station_id":"ce4bhs92rcd13ifvqi0g","pricing_plan_id":"free"},{"bike_id":"b302376c-6147-4444-9dd0-58db0e3f0bde","system_id":"levelo_inurba_marseille","lat":43.32826,"lon":5.36687,"is_reserved":false,"is_disabled":false,"rental_uris":{"android":"levelo://app?vid=b302376c-6147-4444-9dd0-58db0e3f0bde","ios":"levelo://app?vid=b302376c-6147-4444-9dd0-58db0e3f0bde"},"vehicle_type_id":"4","last_reported":1689883620,"current_range_meters":22800,"station_id":"ce4bhs92rcd13ifvqi0g","pricing_plan_id":"free"},{"bike_id":"c2dbc644-c7fb-4fb5-923b-703ff3d9c54f","system_id":"levelo_inurba_marseille","lat":43.32827,"lon":5.36696,"is_reserved":false,"is_disabled":false,"rental_uris":{"android":"levelo://app?vid=c2dbc644-c7fb-4fb5-923b-703ff3d9c54f","ios":"levelo://app?vid=c2dbc644-c7fb-4fb5-923b-703ff3d9c54f"},"vehicle_type_id":"4","last_reported":1689883620,"current_range_meters":24000,"station_id":"ce4bhs92rcd13ifvqi0g","pricing_plan_id":"free"},{"bike_id":"e2269176-6cb0-4f74-9aa3-00f0987eb8a7","system_id":"levelo_inurba_marseille","lat":43.32827,"lon":5.3668,"is_reserved":false,"is_disabled":false,"rental_uris":{"android":"levelo://app?vid=e2269176-6cb0-4f74-9aa3-00f0987eb8a7","ios":"levelo://app?vid=e2269176-6cb0-4f74-9aa3-00f0987eb8a7"},"vehicle_type_id":"4","last_reported":1689883620,"current_range_meters":20800,"station_id":"ce4bhs92rcd13ifvqi0g","pricing_plan_id":"free"},{"bike_id":"0010f06e-2a37-479a-a415-2084ed791c94","system_id":"levelo_inurba_marseille","lat":43.32827,"lon":5.36677,"is_reserved":false,"is_disabled":false,"rental_uris":{"android":"levelo://app?vid=0010f06e-2a37-479a-a415-2084ed791c94","ios":"levelo://app?vid=0010f06e-2a37-479a-a415-2084ed791c94"},"vehicle_type_id":"4","last_reported":1689883620,"current_range_meters":30000,"station_id":"ce4bhs92rcd13ifvqi0g","pricing_plan_id":"free"},{"bike_id":"06a43e71-e951-4854-82ed-2b3f203e7865","system_id":"levelo_inurba_marseille","lat":43.32828,"lon":5.36684,"is_reserved":false,"is_disabled":false,"rental_uris":{"android":"levelo://app?vid=06a43e71-e951-4854-82ed-2b3f203e7865","ios":"levelo://app?vid=06a43e71-e951-4854-82ed-2b3f203e7865"},"vehicle_type_id":"4","last_reported":1689883620,"current_range_meters":20800,"station_id":"ce4bhs92rcd13ifvqi0g","pricing_plan_id":"free"},{"bike_id":"8301fc62-03e5-4157-b5c8-6668c5d99125","system_id":"levelo_inurba_marseille","lat":43.32828,"lon":5.36684,"is_reserved":false,"is_disabled":false,"rental_uris":{"android":"levelo://app?vid=8301fc62-03e5-4157-b5c8-6668c5d99125","ios":"levelo://app?vid=8301fc62-03e5-4157-b5c8-6668c5d99125"},"vehicle_type_id":"4","last_reported":1689883620,"current_range_meters":30800,"station_id":"ce4bhs92rcd13ifvqi0g","pricing_plan_id":"free"},{"bike_id":"7895fe82-4b66-4cdc-ae95-906d4386ac69","system_id":"levelo_inurba_marseille","lat":43.32829,"lon":5.36688,"is_reserved":false,"is_disabled":false,"rental_uris":{"android":"levelo://app?vid=7895fe82-4b66-4cdc-ae95-906d4386ac69","ios":"levelo://app?vid=7895fe82-4b66-4cdc-ae95-906d4386ac69"},"vehicle_type_id":"4","last_reported":1689883620,"current_range_meters":31200,"station_id":"ce4bhs92rcd13ifvqi0g","pricing_plan_id":"free"},{"bike_id":"fa22a42c-19fd-4d4c-b13d-acfa470204e5","system_id":"levelo_inurba_marseille","lat":43.328371,"lon":5.366909,"is_reserved":false,"is_disabled":false,"rental_uris":{"android":"levelo://app?vid=fa22a42c-19fd-4d4c-b13d-acfa470204e5","ios":"levelo://app?vid=fa22a42c-19fd-4d4c-b13d-acfa470204e5"},"vehicle_type_id":"4","last_reported":1689883620,"current_range_meters":14000,"station_id":"ce4bhs92rcd13ifvqi0g","pricing_plan_id":"free"},{"bike_id":"f7235550-24ab-47d8-a30e-57a1cced1167","system_id":"levelo_inurba_marseille","lat":43.32831,"lon":5.36679,"is_reserved":false,"is_disabled":false,"rental_uris":{"android":"levelo://app?vid=f7235550-24ab-47d8-a30e-57a1cced1167","ios":"levelo://app?vid=f7235550-24ab-47d8-a30e-57a1cced1167"},"vehicle_type_id":"4","last_reported":1689883620,"current_range_meters":23600,"station_id":"ce4bhs92rcd13ifvqi0g","pricing_plan_id":"free"},{"bike_id":"13d003be-42f5-4e3b-9b1b-d7cf7e52da36","system_id":"levelo_inurba_marseille","lat":43.32836,"lon":5.36679,"is_reserved":false,"is_disabled":false,"rental_uris":{"android":"levelo://app?vid=13d003be-42f5-4e3b-9b1b-d7cf7e52da36","ios":"levelo://app?vid=13d003be-42f5-4e3b-9b1b-d7cf7e52da36"},"vehicle_type_id":"4","last_reported":1689883620,"current_range_meters":15200,"station_id":"ce4bhs92rcd13ifvqi0g","pricing_plan_id":"free"},{"bike_id":"3916e407-8c11-4a2b-8e00-1d25f7bfdca8","system_id":"levelo_inurba_marseille","lat":43.297163,"lon":5.365866,"is_reserved":false,"is_disabled":false,"rental_uris":{"android":"levelo://app?vid=3916e407-8c11-4a2b-8e00-1d25f7bfdca8","ios":"levelo://app?vid=3916e407-8c11-4a2b-8e00-1d25f7bfdca8"},"vehicle_type_id":"4","last_reported":1689883620,"current_range_meters":31200,"station_id":"ce4bgn12rcd13ifvqbt0","pricing_plan_id":"free"},{"bike_id":"44abb29a-ac73-4c95-a3cb-7771a32b7cd1","system_id":"levelo_inurba_marseille","lat":43.2961,"lon":5.36959,"is_reserved":false,"is_disabled":false,"rental_uris":{"android":"levelo://app?vid=44abb29a-ac73-4c95-a3cb-7771a32b7cd1","ios":"levelo://app?vid=44abb29a-ac73-4c95-a3cb-7771a32b7cd1"},"vehicle_type_id":"4","last_reported":1689883620,"current_range_meters":17200,"station_id":"","pricing_plan_id":"free"},{"bike_id":"ad4f83dd-f520-41bf-9379-c12470dbda19","system_id":"levelo_inurba_marseille","lat":43.299028,"lon":5.381509,"is_reserved":false,"is_disabled":false,"rental_uris":{"android":"levelo://app?vid=ad4f83dd-f520-41bf-9379-c12470dbda19","ios":"levelo://app?vid=ad4f83dd-f520-41bf-9379-c12470dbda19"},"vehicle_type_id":"4","last_reported":1689883620,"current_range_meters":18800,"station_id":"ce4bgj12rcd13ifvqbc0","pricing_plan_id":"free"},{"bike_id":"66eb29ff-b23a-4060-bb97-6eeff835e199","system_id":"levelo_inurba_marseille","lat":43.29909,"lon":5.38137,"is_reserved":false,"is_disabled":false,"rental_uris":{"android":"levelo://app?vid=66eb29ff-b23a-4060-bb97-6eeff835e199","ios":"levelo://app?vid=66eb29ff-b23a-4060-bb97-6eeff835e199"},"vehicle_type_id":"4","last_reported":1689883620,"current_range_meters":1200,"station_id":"ce4bgj12rcd13ifvqbc0","pricing_plan_id":"free"},{"bike_id":"f9d209b6-dc93-4a81-b83c-3c2bb6c98dd6","system_id":"levelo_inurba_marseille","lat":43.29613,"lon":5.36053,"is_reserved":false,"is_disabled":false,"rental_uris":{"android":"levelo://app?vid=f9d209b6-dc93-4a81-b83c-3c2bb6c98dd6","ios":"levelo://app?vid=f9d209b6-dc93-4a81-b83c-3c2bb6c98dd6"},"vehicle_type_id":"4","last_reported":1689883620,"current_range_meters":22000,"station_id":"","pricing_plan_id":"free"},{"bike_id":"e475754a-2712-4f0a-9d7d-d0d2be4eecbf","system_id":"levelo_inurba_marseille","lat":43.299028,"lon":5.381509,"is_reserved":false,"is_disabled":false,"rental_uris":{"android":"levelo://app?vid=e475754a-2712-4f0a-9d7d-d0d2be4eecbf","ios":"levelo://app?vid=e475754a-2712-4f0a-9d7d-d0d2be4eecbf"},"vehicle_type_id":"4","last_reported":1689883620,"current_range_meters":26800,"station_id":"ce4bgj12rcd13ifvqbc0","pricing_plan_id":"free"},{"bike_id":"24599eaa-2a2d-44f2-b28b-82eac6f9884e","system_id":"levelo_inurba_marseille","lat":43.309589,"lon":5.390258,"is_reserved":false,"is_disabled":false,"rental_uris":{"android":"levelo://app?vid=24599eaa-2a2d-44f2-b28b-82eac6f9884e","ios":"levelo://app?vid=24599eaa-2a2d-44f2-b28b-82eac6f9884e"},"vehicle_type_id":"4","last_reported":1689883620,"current_range_meters":26800,"station_id":"ce4bgup2rcd13ifvqco0","pricing_plan_id":"free"},{"bike_id":"d0cb3fe8-5610-4cac-84c6-dadf75ec66ed","system_id":"levelo_inurba_marseille","lat":43.317557,"lon":5.390173,"is_reserved":false,"is_disabled":false,"rental_uris":{"android":"levelo://app?vid=d0cb3fe8-5610-4cac-84c6-dadf75ec66ed","ios":"levelo://app?vid=d0cb3fe8-5610-4cac-84c6-dadf75ec66ed"},"vehicle_type_id":"4","last_reported":1689883620,"current_range_meters":30800,"station_id":"ce4bhqp2rcd13ifvqhng","pricing_plan_id":"free"},{"bike_id":"ed461161-f6cc-409c-bf8e-a8c69e6a0bc7","system_id":"levelo_inurba_marseille","lat":43.317557,"lon":5.390173,"is_reserved":false,"is_disabled":false,"rental_uris":{"android":"levelo://app?vid=ed461161-f6cc-409c-bf8e-a8c69e6a0bc7","ios":"levelo://app?vid=ed461161-f6cc-409c-bf8e-a8c69e6a0bc7"},"vehicle_type_id":"4","last_reported":1689883620,"current_range_meters":23600,"station_id":"ce4bhqp2rcd13ifvqhng","pricing_plan_id":"free"},{"bike_id":"ee6b386f-42d1-4037-93ae-2a6f3fab94d4","system_id":"levelo_inurba_marseille","lat":43.317557,"lon":5.390173,"is_reserved":false,"is_disabled":false,"rental_uris":{"android":"levelo://app?vid=ee6b386f-42d1-4037-93ae-2a6f3fab94d4","ios":"levelo://app?vid=ee6b386f-42d1-4037-93ae-2a6f3fab94d4"},"vehicle_type_id":"4","last_reported":1689883620,"current_range_meters":31200,"station_id":"ce4bhqp2rcd13ifvqhng","pricing_plan_id":"free"},{"bike_id":"ae61c089-51bc-4c58-b3be-d2d0b730921f","system_id":"levelo_inurba_marseille","lat":43.317557,"lon":5.390173,"is_reserved":false,"is_disabled":false,"rental_uris":{"android":"levelo://app?vid=ae61c089-51bc-4c58-b3be-d2d0b730921f","ios":"levelo://app?vid=ae61c089-51bc-4c58-b3be-d2d0b730921f"},"vehicle_type_id":"4","last_reported":1689883620,"current_range_meters":21600,"station_id":"ce4bhqp2rcd13ifvqhng","pricing_plan_id":"free"},{"bike_id":"22c044b1-7a61-410e-9d3f-5b8e0e722d2f","system_id":"levelo_inurba_marseille","lat":43.298037,"lon":5.381066,"is_reserved":false,"is_disabled":false,"rental_uris":{"android":"levelo://app?vid=22c044b1-7a61-410e-9d3f-5b8e0e722d2f","ios":"levelo://app?vid=22c044b1-7a61-410e-9d3f-5b8e0e722d2f"},"vehicle_type_id":"4","last_reported":1689883620,"current_range_meters":31200,"station_id":"ce4bgip2rcd13ifvqbb0","pricing_plan_id":"free"},{"bike_id":"cc77ab9b-aeb5-40b9-b6d0-f9d18a9b1ab9","system_id":"levelo_inurba_marseille","lat":43.298037,"lon":5.381066,"is_reserved":false,"is_disabled":false,"rental_uris":{"android":"levelo://app?vid=cc77ab9b-aeb5-40b9-b6d0-f9d18a9b1ab9","ios":"levelo://app?vid=cc77ab9b-aeb5-40b9-b6d0-f9d18a9b1ab9"},"vehicle_type_id":"4","last_reported":1689883620,"current_range_meters":13600,"station_id":"ce4bgip2rcd13ifvqbb0","pricing_plan_id":"free"},{"bike_id":"e400ffc1-6620-4104-a0d0-050dc2a1dd5c","system_id":"levelo_inurba_marseille","lat":43.295748,"lon":5.37522,"is_reserved":false,"is_disabled":false,"rental_uris":{"android":"levelo://app?vid=e400ffc1-6620-4104-a0d0-050dc2a1dd5c","ios":"levelo://app?vid=e400ffc1-6620-4104-a0d0-050dc2a1dd5c"},"vehicle_type_id":"4","last_reported":1689883620,"current_range_meters":1600,"station_id":"ce4bgh92rcd13ifvqb50","pricing_plan_id":"free"},{"bike_id":"6bd99a0d-127a-4ba0-939b-28063cd3996d","system_id":"levelo_inurba_marseille","lat":43.30426,"lon":5.3889,"is_reserved":false,"is_disabled":false,"rental_uris":{"android":"levelo://app?vid=6bd99a0d-127a-4ba0-939b-28063cd3996d","ios":"levelo://app?vid=6bd99a0d-127a-4ba0-939b-28063cd3996d"},"vehicle_type_id":"4","last_reported":1689883620,"current_range_meters":22800,"station_id":"","pricing_plan_id":"free"},{"bike_id":"e3a8832e-55e5-4abc-8c70-a51fe64f62fe","system_id":"levelo_inurba_marseille","lat":43.29618,"lon":5.37712,"is_reserved":false,"is_disabled":false,"rental_uris":{"android":"levelo://app?vid=e3a8832e-55e5-4abc-8c70-a51fe64f62fe","ios":"levelo://app?vid=e3a8832e-55e5-4abc-8c70-a51fe64f62fe"},"vehicle_type_id":"4","last_reported":1689883620,"current_range_meters":29200,"station_id":"ce4bgi92rcd13ifvqb90","pricing_plan_id":"free"},{"bike_id":"52a8147a-2417-4741-9586-a43b10416ebc","system_id":"levelo_inurba_marseille","lat":43.29612,"lon":5.37719,"is_reserved":false,"is_disabled":false,"rental_uris":{"android":"levelo://app?vid=52a8147a-2417-4741-9586-a43b10416ebc","ios":"levelo://app?vid=52a8147a-2417-4741-9586-a43b10416ebc"},"vehicle_type_id":"4","last_reported":1689883620,"current_range_meters":3200,"station_id":"ce4bgi92rcd13ifvqb90","pricing_plan_id":"free"},{"bike_id":"ecc43662-c4b1-4b46-bc21-5bf2141bc2a3","system_id":"levelo_inurba_marseille","lat":43.296263,"lon":5.377094,"is_reserved":false,"is_disabled":false,"rental_uris":{"android":"levelo://app?vid=ecc43662-c4b1-4b46-bc21-5bf2141bc2a3","ios":"levelo://app?vid=ecc43662-c4b1-4b46-bc21-5bf2141bc2a3"},"vehicle_type_id":"4","last_reported":1689883620,"current_range_meters":21200,"station_id":"ce4bgi92rcd13ifvqb90","pricing_plan_id":"free"},{"bike_id":"b45234bf-12f5-485d-acd8-e31418d6e647","system_id":"levelo_inurba_marseille","lat":43.299707,"lon":5.384859,"is_reserved":false,"is_disabled":false,"rental_uris":{"android":"levelo://app?vid=b45234bf-12f5-485d-acd8-e31418d6e647","ios":"levelo://app?vid=b45234bf-12f5-485d-acd8-e31418d6e647"},"vehicle_type_id":"4","last_reported":1689883620,"current_range_meters":19600,"station_id":"ce4bgj92rcd13ifvqbd0","pricing_plan_id":"free"},{"bike_id":"c26f6218-06f5-4cb9-8f55-b9e254d8cc91","system_id":"levelo_inurba_marseille","lat":43.299707,"lon":5.384859,"is_reserved":false,"is_disabled":false,"rental_uris":{"android":"levelo://app?vid=c26f6218-06f5-4cb9-8f55-b9e254d8cc91","ios":"levelo://app?vid=c26f6218-06f5-4cb9-8f55-b9e254d8cc91"},"vehicle_type_id":"4","last_reported":1689883620,"current_range_meters":20400,"station_id":"ce4bgj92rcd13ifvqbd0","pricing_plan_id":"free"},{"bike_id":"4e1d8317-6c56-4512-80c8-a71f804cf19a","system_id":"levelo_inurba_marseille","lat":43.299717,"lon":5.384845,"is_reserved":false,"is_disabled":false,"rental_uris":{"android":"levelo://app?vid=4e1d8317-6c56-4512-80c8-a71f804cf19a","ios":"levelo://app?vid=4e1d8317-6c56-4512-80c8-a71f804cf19a"},"vehicle_type_id":"4","last_reported":1689883620,"current_range_meters":2400,"station_id":"ce4bgj92rcd13ifvqbd0","pricing_plan_id":"free"},{"bike_id":"e0ac6157-977f-4ff9-b832-d9d895b066c6","system_id":"levelo_inurba_marseille","lat":43.299707,"lon":5.384859,"is_reserved":false,"is_disabled":false,"rental_uris":{"android":"levelo://app?vid=e0ac6157-977f-4ff9-b832-d9d895b066c6","ios":"levelo://app?vid=e0ac6157-977f-4ff9-b832-d9d895b066c6"},"vehicle_type_id":"4","last_reported":1689883620,"current_range_meters":22000,"station_id":"ce4bgj92rcd13ifvqbd0","pricing_plan_id":"free"},{"bike_id":"ae1ceffe-1f11-4b21-80f2-567da34447e2","system_id":"levelo_inurba_marseille","lat":43.299707,"lon":5.384859,"is_reserved":false,"is_disabled":false,"rental_uris":{"android":"levelo://app?vid=ae1ceffe-1f11-4b21-80f2-567da34447e2","ios":"levelo://app?vid=ae1ceffe-1f11-4b21-80f2-567da34447e2"},"vehicle_type_id":"4","last_reported":1689883620,"current_range_meters":26800,"station_id":"ce4bgj92rcd13ifvqbd0","pricing_plan_id":"free"},{"bike_id":"d2cb069c-5085-4fdf-af0c-752ab28e5a96","system_id":"levelo_inurba_marseille","lat":43.299707,"lon":5.384859,"is_reserved":false,"is_disabled":false,"rental_uris":{"android":"levelo://app?vid=d2cb069c-5085-4fdf-af0c-752ab28e5a96","ios":"levelo://app?vid=d2cb069c-5085-4fdf-af0c-752ab28e5a96"},"vehicle_type_id":"4","last_reported":1689883620,"current_range_meters":18800,"station_id":"ce4bgj92rcd13ifvqbd0","pricing_plan_id":"free"},{"bike_id":"1e78b562-91e6-4fc4-9935-c2f92e729e49","system_id":"levelo_inurba_marseille","lat":43.299707,"lon":5.384859,"is_reserved":false,"is_disabled":false,"rental_uris":{"android":"levelo://app?vid=1e78b562-91e6-4fc4-9935-c2f92e729e49","ios":"levelo://app?vid=1e78b562-91e6-4fc4-9935-c2f92e729e49"},"vehicle_type_id":"4","last_reported":1689883620,"current_range_meters":19600,"station_id":"ce4bgj92rcd13ifvqbd0","pricing_plan_id":"free"},{"bike_id":"df6b2aab-442e-42a2-b079-c66480e5f9bc","system_id":"levelo_inurba_marseille","lat":43.299707,"lon":5.384859,"is_reserved":false,"is_disabled":false,"rental_uris":{"android":"levelo://app?vid=df6b2aab-442e-42a2-b079-c66480e5f9bc","ios":"levelo://app?vid=df6b2aab-442e-42a2-b079-c66480e5f9bc"},"vehicle_type_id":"4","last_reported":1689883620,"current_range_meters":18400,"station_id":"ce4bgj92rcd13ifvqbd0","pricing_plan_id":"free"},{"bike_id":"3e653a32-38aa-4aae-bc88-8dbb6a9e5eb4","system_id":"levelo_inurba_marseille","lat":43.299717,"lon":5.384845,"is_reserved":false,"is_disabled":false,"rental_uris":{"android":"levelo://app?vid=3e653a32-38aa-4aae-bc88-8dbb6a9e5eb4","ios":"levelo://app?vid=3e653a32-38aa-4aae-bc88-8dbb6a9e5eb4"},"vehicle_type_id":"4","last_reported":1689883620,"current_range_meters":20000,"station_id":"ce4bgj92rcd13ifvqbd0","pricing_plan_id":"free"},{"bike_id":"73fdf27d-8e0d-4fa2-9b62-f31a8bc37513","system_id":"levelo_inurba_marseille","lat":43.299707,"lon":5.384859,"is_reserved":false,"is_disabled":false,"rental_uris":{"android":"levelo://app?vid=73fdf27d-8e0d-4fa2-9b62-f31a8bc37513","ios":"levelo://app?vid=73fdf27d-8e0d-4fa2-9b62-f31a8bc37513"},"vehicle_type_id":"4","last_reported":1689883620,"current_range_meters":17200,"station_id":"ce4bgj92rcd13ifvqbd0","pricing_plan_id":"free"},{"bike_id":"2b76b0c9-b6d5-4726-bb7b-e74f8469eb7a","system_id":"levelo_inurba_marseille","lat":43.29972,"lon":5.38494,"is_reserved":false,"is_disabled":false,"rental_uris":{"android":"levelo://app?vid=2b76b0c9-b6d5-4726-bb7b-e74f8469eb7a","ios":"levelo://app?vid=2b76b0c9-b6d5-4726-bb7b-e74f8469eb7a"},"vehicle_type_id":"4","last_reported":1689883620,"current_range_meters":13200,"station_id":"ce4bgj92rcd13ifvqbd0","pricing_plan_id":"free"},{"bike_id":"38f450ff-21c2-4af0-be93-0dc345d1365d","system_id":"levelo_inurba_marseille","lat":43.299717,"lon":5.384845,"is_reserved":false,"is_disabled":false,"rental_uris":{"android":"levelo://app?vid=38f450ff-21c2-4af0-be93-0dc345d1365d","ios":"levelo://app?vid=38f450ff-21c2-4af0-be93-0dc345d1365d"},"vehicle_type_id":"4","last_reported":1689883620,"current_range_meters":7200,"station_id":"ce4bgj92rcd13ifvqbd0","pricing_plan_id":"free"},{"bike_id":"9a6f0af0-2e38-4f65-9611-bd250441d4f8","system_id":"levelo_inurba_marseille","lat":43.295279,"lon":5.375048,"is_reserved":false,"is_disabled":false,"rental_uris":{"android":"levelo://app?vid=9a6f0af0-2e38-4f65-9611-bd250441d4f8","ios":"levelo://app?vid=9a6f0af0-2e38-4f65-9611-bd250441d4f8"},"vehicle_type_id":"4","last_reported":1689883620,"current_range_meters":26800,"station_id":"ce4bgkp2rcd13ifvqbmg","pricing_plan_id":"free"},{"bike_id":"8b66bac8-47c7-4a8b-9d8f-0ff147e5bef1","system_id":"levelo_inurba_marseille","lat":43.299717,"lon":5.384845,"is_reserved":false,"is_disabled":false,"rental_uris":{"android":"levelo://app?vid=8b66bac8-47c7-4a8b-9d8f-0ff147e5bef1","ios":"levelo://app?vid=8b66bac8-47c7-4a8b-9d8f-0ff147e5bef1"},"vehicle_type_id":"4","last_reported":1689883620,"current_range_meters":20000,"station_id":"ce4bgj92rcd13ifvqbd0","pricing_plan_id":"free"},{"bike_id":"d3799a26-0736-4296-995d-5ca4f9f7534c","system_id":"levelo_inurba_marseille","lat":43.29964,"lon":5.38495,"is_reserved":false,"is_disabled":false,"rental_uris":{"android":"levelo://app?vid=d3799a26-0736-4296-995d-5ca4f9f7534c","ios":"levelo://app?vid=d3799a26-0736-4296-995d-5ca4f9f7534c"},"vehicle_type_id":"4","last_reported":1689883620,"current_range_meters":28400,"station_id":"ce4bgj92rcd13ifvqbd0","pricing_plan_id":"free"},{"bike_id":"04f7eba1-429f-4e00-8a54-132e0bcd4fba","system_id":"levelo_inurba_marseille","lat":43.29963,"lon":5.38494,"is_reserved":false,"is_disabled":false,"rental_uris":{"android":"levelo://app?vid=04f7eba1-429f-4e00-8a54-132e0bcd4fba","ios":"levelo://app?vid=04f7eba1-429f-4e00-8a54-132e0bcd4fba"},"vehicle_type_id":"4","last_reported":1689883620,"current_range_meters":28000,"station_id":"ce4bgj92rcd13ifvqbd0","pricing_plan_id":"free"},{"bike_id":"1b84cd97-b7be-44c7-9379-4fb505b596cc","system_id":"levelo_inurba_marseille","lat":43.29962,"lon":5.38496,"is_reserved":false,"is_disabled":false,"rental_uris":{"android":"levelo://app?vid=1b84cd97-b7be-44c7-9379-4fb505b596cc","ios":"levelo://app?vid=1b84cd97-b7be-44c7-9379-4fb505b596cc"},"vehicle_type_id":"4","last_reported":1689883620,"current_range_meters":8000,"station_id":"ce4bgj92rcd13ifvqbd0","pricing_plan_id":"free"},{"bike_id":"5e8dba3b-8c32-4ca5-beaa-f3fe17dab6a4","system_id":"levelo_inurba_marseille","lat":43.32367,"lon":5.388836,"is_reserved":false,"is_disabled":false,"rental_uris":{"android":"levelo://app?vid=5e8dba3b-8c32-4ca5-beaa-f3fe17dab6a4","ios":"levelo://app?vid=5e8dba3b-8c32-4ca5-beaa-f3fe17dab6a4"},"vehicle_type_id":"4","last_reported":1689883620,"current_range_meters":16000,"station_id":"ce4bhqp2rcd13ifvqhog","pricing_plan_id":"free"},{"bike_id":"d6be7be1-7104-45fc-8e9f-0c0f073e8cba","system_id":"levelo_inurba_marseille","lat":43.32367,"lon":5.388836,"is_reserved":false,"is_disabled":false,"rental_uris":{"android":"levelo://app?vid=d6be7be1-7104-45fc-8e9f-0c0f073e8cba","ios":"levelo://app?vid=d6be7be1-7104-45fc-8e9f-0c0f073e8cba"},"vehicle_type_id":"4","last_reported":1689883620,"current_range_meters":28400,"station_id":"ce4bhqp2rcd13ifvqhog","pricing_plan_id":"free"},{"bike_id":"a99a5297-f37a-4cd1-bd26-f0eaafcdc982","system_id":"levelo_inurba_marseille","lat":43.32364,"lon":5.38883,"is_reserved":false,"is_disabled":false,"rental_uris":{"android":"levelo://app?vid=a99a5297-f37a-4cd1-bd26-f0eaafcdc982","ios":"levelo://app?vid=a99a5297-f37a-4cd1-bd26-f0eaafcdc982"},"vehicle_type_id":"4","last_reported":1689883620,"current_range_meters":400,"station_id":"ce4bhqp2rcd13ifvqhog","pricing_plan_id":"free"},{"bike_id":"82842938-d1ac-4826-8c39-a74b3b0809e1","system_id":"levelo_inurba_marseille","lat":43.32367,"lon":5.388836,"is_reserved":false,"is_disabled":false,"rental_uris":{"android":"levelo://app?vid=82842938-d1ac-4826-8c39-a74b3b0809e1","ios":"levelo://app?vid=82842938-d1ac-4826-8c39-a74b3b0809e1"},"vehicle_type_id":"4","last_reported":1689883620,"current_range_meters":24400,"station_id":"ce4bhqp2rcd13ifvqhog","pricing_plan_id":"free"},{"bike_id":"78ec5faa-c5aa-4495-ac0a-a28a25cd824f","system_id":"levelo_inurba_marseille","lat":43.32367,"lon":5.388836,"is_reserved":false,"is_disabled":false,"rental_uris":{"android":"levelo://app?vid=78ec5faa-c5aa-4495-ac0a-a28a25cd824f","ios":"levelo://app?vid=78ec5faa-c5aa-4495-ac0a-a28a25cd824f"},"vehicle_type_id":"4","last_reported":1689883620,"current_range_meters":21600,"station_id":"ce4bhqp2rcd13ifvqhog","pricing_plan_id":"free"},{"bike_id":"e0534b44-645a-4b54-b80d-245261e8e467","system_id":"levelo_inurba_marseille","lat":43.32367,"lon":5.388836,"is_reserved":false,"is_disabled":false,"rental_uris":{"android":"levelo://app?vid=e0534b44-645a-4b54-b80d-245261e8e467","ios":"levelo://app?vid=e0534b44-645a-4b54-b80d-245261e8e467"},"vehicle_type_id":"4","last_reported":1689883620,"current_range_meters":22800,"station_id":"ce4bhqp2rcd13ifvqhog","pricing_plan_id":"free"},{"bike_id":"4d8f9ae5-eabd-4aec-8492-732223fb5cdf","system_id":"levelo_inurba_marseille","lat":43.32369,"lon":5.38885,"is_reserved":false,"is_disabled":false,"rental_uris":{"android":"levelo://app?vid=4d8f9ae5-eabd-4aec-8492-732223fb5cdf","ios":"levelo://app?vid=4d8f9ae5-eabd-4aec-8492-732223fb5cdf"},"vehicle_type_id":"4","last_reported":1689883620,"current_range_meters":26800,"station_id":"ce4bhqp2rcd13ifvqhog","pricing_plan_id":"free"},{"bike_id":"4246e3bb-6985-4b46-80d7-f0d342a00470","system_id":"levelo_inurba_marseille","lat":43.29609,"lon":5.38079,"is_reserved":false,"is_disabled":false,"rental_uris":{"android":"levelo://app?vid=4246e3bb-6985-4b46-80d7-f0d342a00470","ios":"levelo://app?vid=4246e3bb-6985-4b46-80d7-f0d342a00470"},"vehicle_type_id":"4","last_reported":1689883620,"current_range_meters":10000,"station_id":"ce4bgl12rcd13ifvqbo0","pricing_plan_id":"free"},{"bike_id":"09b968cc-05f6-4d77-8e7f-10cff792ac16","system_id":"levelo_inurba_marseille","lat":43.29602,"lon":5.381084,"is_reserved":false,"is_disabled":false,"rental_uris":{"android":"levelo://app?vid=09b968cc-05f6-4d77-8e7f-10cff792ac16","ios":"levelo://app?vid=09b968cc-05f6-4d77-8e7f-10cff792ac16"},"vehicle_type_id":"4","last_reported":1689883620,"current_range_meters":31200,"station_id":"ce4bgl12rcd13ifvqbo0","pricing_plan_id":"free"},{"bike_id":"a0f5eb31-4178-45c6-8048-00206bcd1212","system_id":"levelo_inurba_marseille","lat":43.29598,"lon":5.38092,"is_reserved":false,"is_disabled":false,"rental_uris":{"android":"levelo://app?vid=a0f5eb31-4178-45c6-8048-00206bcd1212","ios":"levelo://app?vid=a0f5eb31-4178-45c6-8048-00206bcd1212"},"vehicle_type_id":"4","last_reported":1689883620,"current_range_meters":16000,"station_id":"ce4bgl12rcd13ifvqbo0","pricing_plan_id":"free"},{"bike_id":"487a5ddd-b28d-45b8-b9c4-c7f7d3d1a6d9","system_id":"levelo_inurba_marseille","lat":43.29602,"lon":5.381084,"is_reserved":false,"is_disabled":false,"rental_uris":{"android":"levelo://app?vid=487a5ddd-b28d-45b8-b9c4-c7f7d3d1a6d9","ios":"levelo://app?vid=487a5ddd-b28d-45b8-b9c4-c7f7d3d1a6d9"},"vehicle_type_id":"4","last_reported":1689883620,"current_range_meters":15600,"station_id":"ce4bgl12rcd13ifvqbo0","pricing_plan_id":"free"},{"bike_id":"58c8a7c7-1b5f-458d-8469-d7aa08827b04","system_id":"levelo_inurba_marseille","lat":43.29601,"lon":5.381084,"is_reserved":false,"is_disabled":false,"rental_uris":{"android":"levelo://app?vid=58c8a7c7-1b5f-458d-8469-d7aa08827b04","ios":"levelo://app?vid=58c8a7c7-1b5f-458d-8469-d7aa08827b04"},"vehicle_type_id":"4","last_reported":1689883620,"current_range_meters":17200,"station_id":"ce4bgl12rcd13ifvqbo0","pricing_plan_id":"free"},{"bike_id":"7a7298b2-c26c-4fda-8a76-e0b4d5a6e431","system_id":"levelo_inurba_marseille","lat":43.293249,"lon":5.371578,"is_reserved":false,"is_disabled":false,"rental_uris":{"android":"levelo://app?vid=7a7298b2-c26c-4fda-8a76-e0b4d5a6e431","ios":"levelo://app?vid=7a7298b2-c26c-4fda-8a76-e0b4d5a6e431"},"vehicle_type_id":"4","last_reported":1689883620,"current_range_meters":28400,"station_id":"ce4bgh92rcd13ifvqb40","pricing_plan_id":"free"},{"bike_id":"cd0b9cb2-c456-480c-81ae-ec5229632edf","system_id":"levelo_inurba_marseille","lat":43.293249,"lon":5.371578,"is_reserved":false,"is_disabled":false,"rental_uris":{"android":"levelo://app?vid=cd0b9cb2-c456-480c-81ae-ec5229632edf","ios":"levelo://app?vid=cd0b9cb2-c456-480c-81ae-ec5229632edf"},"vehicle_type_id":"4","last_reported":1689883620,"current_range_meters":10800,"station_id":"ce4bgh92rcd13ifvqb40","pricing_plan_id":"free"},{"bike_id":"d1912452-b3f8-45d8-86ec-956253c432b6","system_id":"levelo_inurba_marseille","lat":43.292749,"lon":5.368402,"is_reserved":false,"is_disabled":false,"rental_uris":{"android":"levelo://app?vid=d1912452-b3f8-45d8-86ec-956253c432b6","ios":"levelo://app?vid=d1912452-b3f8-45d8-86ec-956253c432b6"},"vehicle_type_id":"4","last_reported":1689883620,"current_range_meters":29200,"station_id":"ce4bhbp2rcd13ifvqesg","pricing_plan_id":"free"},{"bike_id":"283d7bb6-0c8a-44c7-9071-5f92837bf90a","system_id":"levelo_inurba_marseille","lat":43.292749,"lon":5.368398,"is_reserved":false,"is_disabled":false,"rental_uris":{"android":"levelo://app?vid=283d7bb6-0c8a-44c7-9071-5f92837bf90a","ios":"levelo://app?vid=283d7bb6-0c8a-44c7-9071-5f92837bf90a"},"vehicle_type_id":"4","last_reported":1689883620,"current_range_meters":17600,"station_id":"ce4bhbp2rcd13ifvqesg","pricing_plan_id":"free"},{"bike_id":"23bc69bf-7670-4270-b7f4-94267924f55d","system_id":"levelo_inurba_marseille","lat":43.293009,"lon":5.374584,"is_reserved":false,"is_disabled":false,"rental_uris":{"android":"levelo://app?vid=23bc69bf-7670-4270-b7f4-94267924f55d","ios":"levelo://app?vid=23bc69bf-7670-4270-b7f4-94267924f55d"},"vehicle_type_id":"4","last_reported":1689883620,"current_range_meters":2000,"station_id":"ce4bgi12rcd13ifvqb70","pricing_plan_id":"free"},{"bike_id":"0fa276c1-dfea-4744-9cd8-5638fff5ad1a","system_id":"levelo_inurba_marseille","lat":43.293009,"lon":5.374584,"is_reserved":false,"is_disabled":false,"rental_uris":{"android":"levelo://app?vid=0fa276c1-dfea-4744-9cd8-5638fff5ad1a","ios":"levelo://app?vid=0fa276c1-dfea-4744-9cd8-5638fff5ad1a"},"vehicle_type_id":"4","last_reported":1689883620,"current_range_meters":0,"station_id":"ce4bgi12rcd13ifvqb70","pricing_plan_id":"free"},{"bike_id":"4d1976c2-e26c-4394-bd06-93449c6bf463","system_id":"levelo_inurba_marseille","lat":43.293009,"lon":5.374584,"is_reserved":false,"is_disabled":false,"rental_uris":{"android":"levelo://app?vid=4d1976c2-e26c-4394-bd06-93449c6bf463","ios":"levelo://app?vid=4d1976c2-e26c-4394-bd06-93449c6bf463"},"vehicle_type_id":"4","last_reported":1689883620,"current_range_meters":4800,"station_id":"ce4bgi12rcd13ifvqb70","pricing_plan_id":"free"},{"bike_id":"922f16e0-ada6-46ee-be8b-d907196f4a63","system_id":"levelo_inurba_marseille","lat":43.293009,"lon":5.374584,"is_reserved":false,"is_disabled":false,"rental_uris":{"android":"levelo://app?vid=922f16e0-ada6-46ee-be8b-d907196f4a63","ios":"levelo://app?vid=922f16e0-ada6-46ee-be8b-d907196f4a63"},"vehicle_type_id":"4","last_reported":1689883620,"current_range_meters":800,"station_id":"ce4bgi12rcd13ifvqb70","pricing_plan_id":"free"},{"bike_id":"5038ac2c-9c39-4e30-bce0-163e3c2e7976","system_id":"levelo_inurba_marseille","lat":43.293009,"lon":5.374584,"is_reserved":false,"is_disabled":false,"rental_uris":{"android":"levelo://app?vid=5038ac2c-9c39-4e30-bce0-163e3c2e7976","ios":"levelo://app?vid=5038ac2c-9c39-4e30-bce0-163e3c2e7976"},"vehicle_type_id":"4","last_reported":1689883620,"current_range_meters":29200,"station_id":"ce4bgi12rcd13ifvqb70","pricing_plan_id":"free"},{"bike_id":"d6ea810e-4813-407e-889e-4fd503e56dd0","system_id":"levelo_inurba_marseille","lat":43.293009,"lon":5.374584,"is_reserved":false,"is_disabled":false,"rental_uris":{"android":"levelo://app?vid=d6ea810e-4813-407e-889e-4fd503e56dd0","ios":"levelo://app?vid=d6ea810e-4813-407e-889e-4fd503e56dd0"},"vehicle_type_id":"4","last_reported":1689883620,"current_range_meters":16800,"station_id":"ce4bgi12rcd13ifvqb70","pricing_plan_id":"free"},{"bike_id":"37389416-2955-4aa4-b73f-8de6a8dc99da","system_id":"levelo_inurba_marseille","lat":43.293009,"lon":5.374584,"is_reserved":false,"is_disabled":false,"rental_uris":{"android":"levelo://app?vid=37389416-2955-4aa4-b73f-8de6a8dc99da","ios":"levelo://app?vid=37389416-2955-4aa4-b73f-8de6a8dc99da"},"vehicle_type_id":"4","last_reported":1689883620,"current_range_meters":29200,"station_id":"ce4bgi12rcd13ifvqb70","pricing_plan_id":"free"},{"bike_id":"c494eb06-df10-4f43-b0c7-68045b838834","system_id":"levelo_inurba_marseille","lat":43.305994,"lon":5.393687,"is_reserved":false,"is_disabled":false,"rental_uris":{"android":"levelo://app?vid=c494eb06-df10-4f43-b0c7-68045b838834","ios":"levelo://app?vid=c494eb06-df10-4f43-b0c7-68045b838834"},"vehicle_type_id":"4","last_reported":1689883620,"current_range_meters":18800,"station_id":"ce4bh0p2rcd13ifvqd80","pricing_plan_id":"free"},{"bike_id":"f6baf168-c957-4bdd-923f-c3d85a62ab7b","system_id":"levelo_inurba_marseille","lat":43.305994,"lon":5.393687,"is_reserved":false,"is_disabled":false,"rental_uris":{"android":"levelo://app?vid=f6baf168-c957-4bdd-923f-c3d85a62ab7b","ios":"levelo://app?vid=f6baf168-c957-4bdd-923f-c3d85a62ab7b"},"vehicle_type_id":"4","last_reported":1689883620,"current_range_meters":30800,"station_id":"ce4bh0p2rcd13ifvqd80","pricing_plan_id":"free"},{"bike_id":"ae041b44-d4b7-420b-ba41-6438221be099","system_id":"levelo_inurba_marseille","lat":43.305994,"lon":5.393687,"is_reserved":false,"is_disabled":false,"rental_uris":{"android":"levelo://app?vid=ae041b44-d4b7-420b-ba41-6438221be099","ios":"levelo://app?vid=ae041b44-d4b7-420b-ba41-6438221be099"},"vehicle_type_id":"4","last_reported":1689883620,"current_range_meters":3200,"station_id":"ce4bh0p2rcd13ifvqd80","pricing_plan_id":"free"},{"bike_id":"395d38df-96a2-48ee-9416-7eb901b3d136","system_id":"levelo_inurba_marseille","lat":43.305994,"lon":5.393687,"is_reserved":false,"is_disabled":false,"rental_uris":{"android":"levelo://app?vid=395d38df-96a2-48ee-9416-7eb901b3d136","ios":"levelo://app?vid=395d38df-96a2-48ee-9416-7eb901b3d136"},"vehicle_type_id":"4","last_reported":1689883620,"current_range_meters":29600,"station_id":"ce4bh0p2rcd13ifvqd80","pricing_plan_id":"free"},{"bike_id":"47971e4c-1949-45af-a460-1d4e4a663fa4","system_id":"levelo_inurba_marseille","lat":43.293009,"lon":5.374584,"is_reserved":false,"is_disabled":false,"rental_uris":{"android":"levelo://app?vid=47971e4c-1949-45af-a460-1d4e4a663fa4","ios":"levelo://app?vid=47971e4c-1949-45af-a460-1d4e4a663fa4"},"vehicle_type_id":"4","last_reported":1689883620,"current_range_meters":5600,"station_id":"ce4bgi12rcd13ifvqb70","pricing_plan_id":"free"},{"bike_id":"35c33b0d-1434-4e9a-9366-150b3258a926","system_id":"levelo_inurba_marseille","lat":43.305994,"lon":5.393687,"is_reserved":false,"is_disabled":false,"rental_uris":{"android":"levelo://app?vid=35c33b0d-1434-4e9a-9366-150b3258a926","ios":"levelo://app?vid=35c33b0d-1434-4e9a-9366-150b3258a926"},"vehicle_type_id":"4","last_reported":1689883620,"current_range_meters":10400,"station_id":"ce4bh0p2rcd13ifvqd80","pricing_plan_id":"free"},{"bike_id":"e1f74523-e90b-401a-bbf6-1b3744b05fcc","system_id":"levelo_inurba_marseille","lat":43.302992,"lon":5.392136,"is_reserved":false,"is_disabled":false,"rental_uris":{"android":"levelo://app?vid=e1f74523-e90b-401a-bbf6-1b3744b05fcc","ios":"levelo://app?vid=e1f74523-e90b-401a-bbf6-1b3744b05fcc"},"vehicle_type_id":"4","last_reported":1689883620,"current_range_meters":1200,"station_id":"ce4bgkh2rcd13ifvqbk0","pricing_plan_id":"free"},{"bike_id":"72a99c3d-e5f0-4b19-a7d7-d0c736955af4","system_id":"levelo_inurba_marseille","lat":43.302992,"lon":5.392136,"is_reserved":false,"is_disabled":false,"rental_uris":{"android":"levelo://app?vid=72a99c3d-e5f0-4b19-a7d7-d0c736955af4","ios":"levelo://app?vid=72a99c3d-e5f0-4b19-a7d7-d0c736955af4"},"vehicle_type_id":"4","last_reported":1689883620,"current_range_meters":29600,"station_id":"ce4bgkh2rcd13ifvqbk0","pricing_plan_id":"free"},{"bike_id":"c540fd70-de80-496e-b2e0-b5648968253a","system_id":"levelo_inurba_marseille","lat":43.29264,"lon":5.35975,"is_reserved":false,"is_disabled":false,"rental_uris":{"android":"levelo://app?vid=c540fd70-de80-496e-b2e0-b5648968253a","ios":"levelo://app?vid=c540fd70-de80-496e-b2e0-b5648968253a"},"vehicle_type_id":"4","last_reported":1689883620,"current_range_meters":29600,"station_id":"","pricing_plan_id":"free"},{"bike_id":"6b5f17b5-195f-4d36-8549-445a28f58ed4","system_id":"levelo_inurba_marseille","lat":43.2936,"lon":5.37835,"is_reserved":false,"is_disabled":false,"rental_uris":{"android":"levelo://app?vid=6b5f17b5-195f-4d36-8549-445a28f58ed4","ios":"levelo://app?vid=6b5f17b5-195f-4d36-8549-445a28f58ed4"},"vehicle_type_id":"4","last_reported":1689883620,"current_range_meters":10800,"station_id":"ce4bgjh2rcd13ifvqbf0","pricing_plan_id":"free"},{"bike_id":"419f111f-29d1-4337-a688-67731b75d2f8","system_id":"levelo_inurba_marseille","lat":43.2936,"lon":5.37835,"is_reserved":false,"is_disabled":false,"rental_uris":{"android":"levelo://app?vid=419f111f-29d1-4337-a688-67731b75d2f8","ios":"levelo://app?vid=419f111f-29d1-4337-a688-67731b75d2f8"},"vehicle_type_id":"4","last_reported":1689883620,"current_range_meters":16000,"station_id":"ce4bgjh2rcd13ifvqbf0","pricing_plan_id":"free"},{"bike_id":"305fc683-9077-4bd9-971a-57e7f5511300","system_id":"levelo_inurba_marseille","lat":43.292311,"lon":5.360731,"is_reserved":false,"is_disabled":false,"rental_uris":{"android":"levelo://app?vid=305fc683-9077-4bd9-971a-57e7f5511300","ios":"levelo://app?vid=305fc683-9077-4bd9-971a-57e7f5511300"},"vehicle_type_id":"4","last_reported":1689883620,"current_range_meters":0,"station_id":"ce4bhbh2rcd13ifvqeqg","pricing_plan_id":"free"},{"bike_id":"b06f5c0c-5398-4d39-9428-afcb9083b68d","system_id":"levelo_inurba_marseille","lat":43.292663,"lon":5.376389,"is_reserved":false,"is_disabled":false,"rental_uris":{"android":"levelo://app?vid=b06f5c0c-5398-4d39-9428-afcb9083b68d","ios":"levelo://app?vid=b06f5c0c-5398-4d39-9428-afcb9083b68d"},"vehicle_type_id":"4","last_reported":1689883620,"current_range_meters":8400,"station_id":"ce4bgi12rcd13ifvqb80","pricing_plan_id":"free"},{"bike_id":"355b21fd-13cd-4943-bbf9-5aae46f6c37e","system_id":"levelo_inurba_marseille","lat":43.291675,"lon":5.371583,"is_reserved":false,"is_disabled":false,"rental_uris":{"android":"levelo://app?vid=355b21fd-13cd-4943-bbf9-5aae46f6c37e","ios":"levelo://app?vid=355b21fd-13cd-4943-bbf9-5aae46f6c37e"},"vehicle_type_id":"4","last_reported":1689883620,"current_range_meters":30800,"station_id":"ce4bha92rcd13ifvqeh0","pricing_plan_id":"free"},{"bike_id":"79723067-2bbd-45b2-8a15-347a4c7e4606","system_id":"levelo_inurba_marseille","lat":43.292663,"lon":5.376389,"is_reserved":false,"is_disabled":false,"rental_uris":{"android":"levelo://app?vid=79723067-2bbd-45b2-8a15-347a4c7e4606","ios":"levelo://app?vid=79723067-2bbd-45b2-8a15-347a4c7e4606"},"vehicle_type_id":"4","last_reported":1689883620,"current_range_meters":25600,"station_id":"ce4bgi12rcd13ifvqb80","pricing_plan_id":"free"},{"bike_id":"eabfb7a9-59a2-4b84-99a5-7c3cb61d7344","system_id":"levelo_inurba_marseille","lat":43.292663,"lon":5.376389,"is_reserved":false,"is_disabled":false,"rental_uris":{"android":"levelo://app?vid=eabfb7a9-59a2-4b84-99a5-7c3cb61d7344","ios":"levelo://app?vid=eabfb7a9-59a2-4b84-99a5-7c3cb61d7344"},"vehicle_type_id":"4","last_reported":1689883620,"current_range_meters":12800,"station_id":"ce4bgi12rcd13ifvqb80","pricing_plan_id":"free"},{"bike_id":"8ef6475f-7b4a-4963-9c73-2fe56a3c4ed7","system_id":"levelo_inurba_marseille","lat":43.31327,"lon":5.39687,"is_reserved":false,"is_disabled":false,"rental_uris":{"android":"levelo://app?vid=8ef6475f-7b4a-4963-9c73-2fe56a3c4ed7","ios":"levelo://app?vid=8ef6475f-7b4a-4963-9c73-2fe56a3c4ed7"},"vehicle_type_id":"4","last_reported":1689883620,"current_range_meters":8000,"station_id":"ce4bgvp2rcd13ifvqcu0","pricing_plan_id":"free"},{"bike_id":"588ad907-38fe-4df8-b82d-33f2d003a4d6","system_id":"levelo_inurba_marseille","lat":43.3133,"lon":5.39687,"is_reserved":false,"is_disabled":false,"rental_uris":{"android":"levelo://app?vid=588ad907-38fe-4df8-b82d-33f2d003a4d6","ios":"levelo://app?vid=588ad907-38fe-4df8-b82d-33f2d003a4d6"},"vehicle_type_id":"4","last_reported":1689883620,"current_range_meters":12800,"station_id":"ce4bgvp2rcd13ifvqcu0","pricing_plan_id":"free"},{"bike_id":"1bb4c05c-602a-4d70-bacb-491181546921","system_id":"levelo_inurba_marseille","lat":43.31326,"lon":5.39692,"is_reserved":false,"is_disabled":false,"rental_uris":{"android":"levelo://app?vid=1bb4c05c-602a-4d70-bacb-491181546921","ios":"levelo://app?vid=1bb4c05c-602a-4d70-bacb-491181546921"},"vehicle_type_id":"4","last_reported":1689883620,"current_range_meters":19200,"station_id":"ce4bgvp2rcd13ifvqcu0","pricing_plan_id":"free"},{"bike_id":"318115e4-bea1-4224-88bb-fd6ddbd8e58e","system_id":"levelo_inurba_marseille","lat":43.31319,"lon":5.39693,"is_reserved":false,"is_disabled":false,"rental_uris":{"android":"levelo://app?vid=318115e4-bea1-4224-88bb-fd6ddbd8e58e","ios":"levelo://app?vid=318115e4-bea1-4224-88bb-fd6ddbd8e58e"},"vehicle_type_id":"4","last_reported":1689883620,"current_range_meters":31200,"station_id":"ce4bgvp2rcd13ifvqcu0","pricing_plan_id":"free"},{"bike_id":"0518b126-b177-44dc-a86a-a5a193555d2b","system_id":"levelo_inurba_marseille","lat":43.313291,"lon":5.396838,"is_reserved":false,"is_disabled":false,"rental_uris":{"android":"levelo://app?vid=0518b126-b177-44dc-a86a-a5a193555d2b","ios":"levelo://app?vid=0518b126-b177-44dc-a86a-a5a193555d2b"},"vehicle_type_id":"4","last_reported":1689883620,"current_range_meters":29600,"station_id":"ce4bgvp2rcd13ifvqcu0","pricing_plan_id":"free"},{"bike_id":"ecc08320-48f8-43ac-85c5-6b24c7a88291","system_id":"levelo_inurba_marseille","lat":43.31331,"lon":5.39693,"is_reserved":false,"is_disabled":false,"rental_uris":{"android":"levelo://app?vid=ecc08320-48f8-43ac-85c5-6b24c7a88291","ios":"levelo://app?vid=ecc08320-48f8-43ac-85c5-6b24c7a88291"},"vehicle_type_id":"4","last_reported":1689883620,"current_range_meters":13600,"station_id":"ce4bgvp2rcd13ifvqcu0","pricing_plan_id":"free"},{"bike_id":"42a65468-a2fb-4b20-aa31-591ba176d7e1","system_id":"levelo_inurba_marseille","lat":43.313291,"lon":5.396838,"is_reserved":false,"is_disabled":false,"rental_uris":{"android":"levelo://app?vid=42a65468-a2fb-4b20-aa31-591ba176d7e1","ios":"levelo://app?vid=42a65468-a2fb-4b20-aa31-591ba176d7e1"},"vehicle_type_id":"4","last_reported":1689883620,"current_range_meters":18400,"station_id":"ce4bgvp2rcd13ifvqcu0","pricing_plan_id":"free"},{"bike_id":"00029266-281a-4874-86e6-2d258dd6b4b2","system_id":"levelo_inurba_marseille","lat":43.31332,"lon":5.39694,"is_reserved":false,"is_disabled":false,"rental_uris":{"android":"levelo://app?vid=00029266-281a-4874-86e6-2d258dd6b4b2","ios":"levelo://app?vid=00029266-281a-4874-86e6-2d258dd6b4b2"},"vehicle_type_id":"4","last_reported":1689883620,"current_range_meters":10800,"station_id":"ce4bgvp2rcd13ifvqcu0","pricing_plan_id":"free"},{"bike_id":"b606fdac-6e4e-4ba7-9827-73e044e5343e","system_id":"levelo_inurba_marseille","lat":43.31327,"lon":5.39697,"is_reserved":false,"is_disabled":false,"rental_uris":{"android":"levelo://app?vid=b606fdac-6e4e-4ba7-9827-73e044e5343e","ios":"levelo://app?vid=b606fdac-6e4e-4ba7-9827-73e044e5343e"},"vehicle_type_id":"4","last_reported":1689883620,"current_range_meters":18800,"station_id":"ce4bgvp2rcd13ifvqcu0","pricing_plan_id":"free"},{"bike_id":"a5e3779d-510b-4425-8836-cb0c223be6af","system_id":"levelo_inurba_marseille","lat":43.29529,"lon":5.385581,"is_reserved":false,"is_disabled":false,"rental_uris":{"android":"levelo://app?vid=a5e3779d-510b-4425-8836-cb0c223be6af","ios":"levelo://app?vid=a5e3779d-510b-4425-8836-cb0c223be6af"},"vehicle_type_id":"4","last_reported":1689883620,"current_range_meters":20000,"station_id":"ce4bgih2rcd13ifvqba0","pricing_plan_id":"free"},{"bike_id":"74520eb2-c733-4a7b-9b80-68a311b411d9","system_id":"levelo_inurba_marseille","lat":43.33399,"lon":5.37466,"is_reserved":false,"is_disabled":false,"rental_uris":{"android":"levelo://app?vid=74520eb2-c733-4a7b-9b80-68a311b411d9","ios":"levelo://app?vid=74520eb2-c733-4a7b-9b80-68a311b411d9"},"vehicle_type_id":"4","last_reported":1689883620,"current_range_meters":31200,"station_id":"","pricing_plan_id":"free"},{"bike_id":"d5d31fd1-1973-4c69-b5a5-93556300a8c2","system_id":"levelo_inurba_marseille","lat":43.29529,"lon":5.385581,"is_reserved":false,"is_disabled":false,"rental_uris":{"android":"levelo://app?vid=d5d31fd1-1973-4c69-b5a5-93556300a8c2","ios":"levelo://app?vid=d5d31fd1-1973-4c69-b5a5-93556300a8c2"},"vehicle_type_id":"4","last_reported":1689883620,"current_range_meters":19200,"station_id":"ce4bgih2rcd13ifvqba0","pricing_plan_id":"free"},{"bike_id":"d54e6558-040f-4b95-988c-5a2f4012b53a","system_id":"levelo_inurba_marseille","lat":43.29529,"lon":5.385581,"is_reserved":false,"is_disabled":false,"rental_uris":{"android":"levelo://app?vid=d54e6558-040f-4b95-988c-5a2f4012b53a","ios":"levelo://app?vid=d54e6558-040f-4b95-988c-5a2f4012b53a"},"vehicle_type_id":"4","last_reported":1689883620,"current_range_meters":12800,"station_id":"ce4bgih2rcd13ifvqba0","pricing_plan_id":"free"},{"bike_id":"f85b3652-8558-41c3-b443-596bb6e072f6","system_id":"levelo_inurba_marseille","lat":43.29526,"lon":5.38531,"is_reserved":false,"is_disabled":false,"rental_uris":{"android":"levelo://app?vid=f85b3652-8558-41c3-b443-596bb6e072f6","ios":"levelo://app?vid=f85b3652-8558-41c3-b443-596bb6e072f6"},"vehicle_type_id":"4","last_reported":1689883620,"current_range_meters":0,"station_id":"","pricing_plan_id":"free"},{"bike_id":"59d408b8-739a-4652-b605-7f1c3ef46436","system_id":"levelo_inurba_marseille","lat":43.29529,"lon":5.385581,"is_reserved":false,"is_disabled":false,"rental_uris":{"android":"levelo://app?vid=59d408b8-739a-4652-b605-7f1c3ef46436","ios":"levelo://app?vid=59d408b8-739a-4652-b605-7f1c3ef46436"},"vehicle_type_id":"4","last_reported":1689883620,"current_range_meters":14800,"station_id":"ce4bgih2rcd13ifvqba0","pricing_plan_id":"free"},{"bike_id":"6e4a2f42-3eee-4072-a6b7-1f4a4754cea3","system_id":"levelo_inurba_marseille","lat":43.29529,"lon":5.385581,"is_reserved":false,"is_disabled":false,"rental_uris":{"android":"levelo://app?vid=6e4a2f42-3eee-4072-a6b7-1f4a4754cea3","ios":"levelo://app?vid=6e4a2f42-3eee-4072-a6b7-1f4a4754cea3"},"vehicle_type_id":"4","last_reported":1689883620,"current_range_meters":15200,"station_id":"ce4bgih2rcd13ifvqba0","pricing_plan_id":"free"},{"bike_id":"74533f7b-fe48-4654-82f9-97a31dd73858","system_id":"levelo_inurba_marseille","lat":43.29529,"lon":5.385581,"is_reserved":false,"is_disabled":false,"rental_uris":{"android":"levelo://app?vid=74533f7b-fe48-4654-82f9-97a31dd73858","ios":"levelo://app?vid=74533f7b-fe48-4654-82f9-97a31dd73858"},"vehicle_type_id":"4","last_reported":1689883620,"current_range_meters":17200,"station_id":"ce4bgih2rcd13ifvqba0","pricing_plan_id":"free"},{"bike_id":"45466e19-f2a2-4a61-804c-ea2367c33ef1","system_id":"levelo_inurba_marseille","lat":43.30658,"lon":5.39598,"is_reserved":false,"is_disabled":false,"rental_uris":{"android":"levelo://app?vid=45466e19-f2a2-4a61-804c-ea2367c33ef1","ios":"levelo://app?vid=45466e19-f2a2-4a61-804c-ea2367c33ef1"},"vehicle_type_id":"4","last_reported":1689883620,"current_range_meters":2800,"station_id":"","pricing_plan_id":"free"},{"bike_id":"4432ce86-ee9a-4acc-87f9-bbb15d2ee70b","system_id":"levelo_inurba_marseille","lat":43.29529,"lon":5.385581,"is_reserved":false,"is_disabled":false,"rental_uris":{"android":"levelo://app?vid=4432ce86-ee9a-4acc-87f9-bbb15d2ee70b","ios":"levelo://app?vid=4432ce86-ee9a-4acc-87f9-bbb15d2ee70b"},"vehicle_type_id":"4","last_reported":1689883620,"current_range_meters":21600,"station_id":"ce4bgih2rcd13ifvqba0","pricing_plan_id":"free"},{"bike_id":"8e658f4d-1373-4b03-8e59-619ff76b6f3f","system_id":"levelo_inurba_marseille","lat":43.29529,"lon":5.385581,"is_reserved":false,"is_disabled":false,"rental_uris":{"android":"levelo://app?vid=8e658f4d-1373-4b03-8e59-619ff76b6f3f","ios":"levelo://app?vid=8e658f4d-1373-4b03-8e59-619ff76b6f3f"},"vehicle_type_id":"4","last_reported":1689883620,"current_range_meters":16800,"station_id":"ce4bgih2rcd13ifvqba0","pricing_plan_id":"free"},{"bike_id":"74625b59-8729-4782-bc7b-0c1d8cd6e3e4","system_id":"levelo_inurba_marseille","lat":43.29529,"lon":5.385581,"is_reserved":false,"is_disabled":false,"rental_uris":{"android":"levelo://app?vid=74625b59-8729-4782-bc7b-0c1d8cd6e3e4","ios":"levelo://app?vid=74625b59-8729-4782-bc7b-0c1d8cd6e3e4"},"vehicle_type_id":"4","last_reported":1689883620,"current_range_meters":2400,"station_id":"ce4bgih2rcd13ifvqba0","pricing_plan_id":"free"},{"bike_id":"aeb3fa86-c777-40c9-837c-968e9a5ec7b0","system_id":"levelo_inurba_marseille","lat":43.29529,"lon":5.385581,"is_reserved":false,"is_disabled":false,"rental_uris":{"android":"levelo://app?vid=aeb3fa86-c777-40c9-837c-968e9a5ec7b0","ios":"levelo://app?vid=aeb3fa86-c777-40c9-837c-968e9a5ec7b0"},"vehicle_type_id":"4","last_reported":1689883620,"current_range_meters":21600,"station_id":"ce4bgih2rcd13ifvqba0","pricing_plan_id":"free"},{"bike_id":"f8031a3b-d339-4847-b4ee-e5a7456dbb4c","system_id":"levelo_inurba_marseille","lat":43.290779,"lon":5.371482,"is_reserved":false,"is_disabled":false,"rental_uris":{"android":"levelo://app?vid=f8031a3b-d339-4847-b4ee-e5a7456dbb4c","ios":"levelo://app?vid=f8031a3b-d339-4847-b4ee-e5a7456dbb4c"},"vehicle_type_id":"4","last_reported":1689883620,"current_range_meters":8400,"station_id":"ce4bh5p2rcd13ifvqe4g","pricing_plan_id":"free"},{"bike_id":"ef90de28-d47f-48e6-add1-828d6b54e865","system_id":"levelo_inurba_marseille","lat":43.289184,"lon":5.366408,"is_reserved":false,"is_disabled":false,"rental_uris":{"android":"levelo://app?vid=ef90de28-d47f-48e6-add1-828d6b54e865","ios":"levelo://app?vid=ef90de28-d47f-48e6-add1-828d6b54e865"},"vehicle_type_id":"4","last_reported":1689883620,"current_range_meters":19200,"station_id":"ce4bhap2rcd13ifvqek0","pricing_plan_id":"free"},{"bike_id":"148d83ba-56bd-49fe-98a9-caa43b7de482","system_id":"levelo_inurba_marseille","lat":43.290779,"lon":5.371482,"is_reserved":false,"is_disabled":false,"rental_uris":{"android":"levelo://app?vid=148d83ba-56bd-49fe-98a9-caa43b7de482","ios":"levelo://app?vid=148d83ba-56bd-49fe-98a9-caa43b7de482"},"vehicle_type_id":"4","last_reported":1689883620,"current_range_meters":22400,"station_id":"ce4bh5p2rcd13ifvqe4g","pricing_plan_id":"free"},{"bike_id":"99e9cef1-42e5-4a52-80d2-029d49f8af7c","system_id":"levelo_inurba_marseille","lat":43.302008,"lon":5.394694,"is_reserved":false,"is_disabled":false,"rental_uris":{"android":"levelo://app?vid=99e9cef1-42e5-4a52-80d2-029d49f8af7c","ios":"levelo://app?vid=99e9cef1-42e5-4a52-80d2-029d49f8af7c"},"vehicle_type_id":"4","last_reported":1689883620,"current_range_meters":29600,"station_id":"ce4bh0p2rcd13ifvqd70","pricing_plan_id":"free"},{"bike_id":"46cace0b-7d53-48db-b498-0b5c0fa67a76","system_id":"levelo_inurba_marseille","lat":43.302008,"lon":5.394694,"is_reserved":false,"is_disabled":false,"rental_uris":{"android":"levelo://app?vid=46cace0b-7d53-48db-b498-0b5c0fa67a76","ios":"levelo://app?vid=46cace0b-7d53-48db-b498-0b5c0fa67a76"},"vehicle_type_id":"4","last_reported":1689883620,"current_range_meters":15200,"station_id":"ce4bh0p2rcd13ifvqd70","pricing_plan_id":"free"},{"bike_id":"f12c6caa-21b5-4081-9f2f-23b4060bca52","system_id":"levelo_inurba_marseille","lat":43.290631,"lon":5.359244,"is_reserved":false,"is_disabled":false,"rental_uris":{"android":"levelo://app?vid=f12c6caa-21b5-4081-9f2f-23b4060bca52","ios":"levelo://app?vid=f12c6caa-21b5-4081-9f2f-23b4060bca52"},"vehicle_type_id":"4","last_reported":1689883620,"current_range_meters":400,"station_id":"ce4bha92rcd13ifvqeg0","pricing_plan_id":"free"},{"bike_id":"2b3aa6c4-5cac-47a8-a5b6-91573be9a8e2","system_id":"levelo_inurba_marseille","lat":43.290327,"lon":5.375711,"is_reserved":false,"is_disabled":false,"rental_uris":{"android":"levelo://app?vid=2b3aa6c4-5cac-47a8-a5b6-91573be9a8e2","ios":"levelo://app?vid=2b3aa6c4-5cac-47a8-a5b6-91573be9a8e2"},"vehicle_type_id":"4","last_reported":1689883620,"current_range_meters":30400,"station_id":"ce4bh692rcd13ifvqe90","pricing_plan_id":"free"},{"bike_id":"f92ec977-81b6-4d78-bfde-e3eda4cc8067","system_id":"levelo_inurba_marseille","lat":43.2942,"lon":5.38617,"is_reserved":false,"is_disabled":false,"rental_uris":{"android":"levelo://app?vid=f92ec977-81b6-4d78-bfde-e3eda4cc8067","ios":"levelo://app?vid=f92ec977-81b6-4d78-bfde-e3eda4cc8067"},"vehicle_type_id":"4","last_reported":1689883620,"current_range_meters":13200,"station_id":"ce4bh2h2rcd13ifvqdh0","pricing_plan_id":"free"},{"bike_id":"eea39ea1-ad3f-4245-ac3d-494f96e597af","system_id":"levelo_inurba_marseille","lat":43.294153,"lon":5.386305,"is_reserved":false,"is_disabled":false,"rental_uris":{"android":"levelo://app?vid=eea39ea1-ad3f-4245-ac3d-494f96e597af","ios":"levelo://app?vid=eea39ea1-ad3f-4245-ac3d-494f96e597af"},"vehicle_type_id":"4","last_reported":1689883620,"current_range_meters":0,"station_id":"ce4bh2h2rcd13ifvqdh0","pricing_plan_id":"free"},{"bike_id":"d1a837c7-396b-43c1-a5c3-45162baf790c","system_id":"levelo_inurba_marseille","lat":43.294153,"lon":5.386305,"is_reserved":false,"is_disabled":false,"rental_uris":{"android":"levelo://app?vid=d1a837c7-396b-43c1-a5c3-45162baf790c","ios":"levelo://app?vid=d1a837c7-396b-43c1-a5c3-45162baf790c"},"vehicle_type_id":"4","last_reported":1689883620,"current_range_meters":28000,"station_id":"ce4bh2h2rcd13ifvqdh0","pricing_plan_id":"free"},{"bike_id":"303a15ac-f094-456e-8644-1d06d283baf2","system_id":"levelo_inurba_marseille","lat":43.29416,"lon":5.3862,"is_reserved":false,"is_disabled":false,"rental_uris":{"android":"levelo://app?vid=303a15ac-f094-456e-8644-1d06d283baf2","ios":"levelo://app?vid=303a15ac-f094-456e-8644-1d06d283baf2"},"vehicle_type_id":"4","last_reported":1689883620,"current_range_meters":8000,"station_id":"ce4bh2h2rcd13ifvqdh0","pricing_plan_id":"free"},{"bike_id":"0e281d75-6b0f-4605-8b64-e273fd08660c","system_id":"levelo_inurba_marseille","lat":43.29418,"lon":5.38626,"is_reserved":false,"is_disabled":false,"rental_uris":{"android":"levelo://app?vid=0e281d75-6b0f-4605-8b64-e273fd08660c","ios":"levelo://app?vid=0e281d75-6b0f-4605-8b64-e273fd08660c"},"vehicle_type_id":"4","last_reported":1689883620,"current_range_meters":23600,"station_id":"ce4bh2h2rcd13ifvqdh0","pricing_plan_id":"free"},{"bike_id":"20019cc3-88c2-4188-849b-df2aebaf0684","system_id":"levelo_inurba_marseille","lat":43.29417,"lon":5.38626,"is_reserved":false,"is_disabled":false,"rental_uris":{"android":"levelo://app?vid=20019cc3-88c2-4188-849b-df2aebaf0684","ios":"levelo://app?vid=20019cc3-88c2-4188-849b-df2aebaf0684"},"vehicle_type_id":"4","last_reported":1689883620,"current_range_meters":9200,"station_id":"ce4bh2h2rcd13ifvqdh0","pricing_plan_id":"free"},{"bike_id":"56f6d149-0231-49ea-93cb-05fb3c4a70b6","system_id":"levelo_inurba_marseille","lat":43.294168,"lon":5.386263,"is_reserved":false,"is_disabled":false,"rental_uris":{"android":"levelo://app?vid=56f6d149-0231-49ea-93cb-05fb3c4a70b6","ios":"levelo://app?vid=56f6d149-0231-49ea-93cb-05fb3c4a70b6"},"vehicle_type_id":"4","last_reported":1689883620,"current_range_meters":1200,"station_id":"ce4bh2h2rcd13ifvqdh0","pricing_plan_id":"free"},{"bike_id":"244a1a50-f611-44e4-98b7-75d74ddd9688","system_id":"levelo_inurba_marseille","lat":43.289184,"lon":5.366408,"is_reserved":false,"is_disabled":false,"rental_uris":{"android":"levelo://app?vid=244a1a50-f611-44e4-98b7-75d74ddd9688","ios":"levelo://app?vid=244a1a50-f611-44e4-98b7-75d74ddd9688"},"vehicle_type_id":"4","last_reported":1689883620,"current_range_meters":18000,"station_id":"ce4bhap2rcd13ifvqek0","pricing_plan_id":"free"},{"bike_id":"cd41a976-1fbc-4831-8502-13fef85c0271","system_id":"levelo_inurba_marseille","lat":43.289184,"lon":5.366408,"is_reserved":false,"is_disabled":false,"rental_uris":{"android":"levelo://app?vid=cd41a976-1fbc-4831-8502-13fef85c0271","ios":"levelo://app?vid=cd41a976-1fbc-4831-8502-13fef85c0271"},"vehicle_type_id":"4","last_reported":1689883620,"current_range_meters":13600,"station_id":"ce4bhap2rcd13ifvqek0","pricing_plan_id":"free"},{"bike_id":"e1658814-1b43-43d6-8305-5aec30a658fe","system_id":"levelo_inurba_marseille","lat":43.29416,"lon":5.38628,"is_reserved":false,"is_disabled":false,"rental_uris":{"android":"levelo://app?vid=e1658814-1b43-43d6-8305-5aec30a658fe","ios":"levelo://app?vid=e1658814-1b43-43d6-8305-5aec30a658fe"},"vehicle_type_id":"4","last_reported":1689883620,"current_range_meters":800,"station_id":"ce4bh2h2rcd13ifvqdh0","pricing_plan_id":"free"},{"bike_id":"846bdf3e-41db-4a33-a8fc-05513503dc64","system_id":"levelo_inurba_marseille","lat":43.29414,"lon":5.38625,"is_reserved":false,"is_disabled":false,"rental_uris":{"android":"levelo://app?vid=846bdf3e-41db-4a33-a8fc-05513503dc64","ios":"levelo://app?vid=846bdf3e-41db-4a33-a8fc-05513503dc64"},"vehicle_type_id":"4","last_reported":1689883620,"current_range_meters":11600,"station_id":"ce4bh2h2rcd13ifvqdh0","pricing_plan_id":"free"},{"bike_id":"570317ed-f82b-410a-9c80-be352db466b3","system_id":"levelo_inurba_marseille","lat":43.29415,"lon":5.38627,"is_reserved":false,"is_disabled":false,"rental_uris":{"android":"levelo://app?vid=570317ed-f82b-410a-9c80-be352db466b3","ios":"levelo://app?vid=570317ed-f82b-410a-9c80-be352db466b3"},"vehicle_type_id":"4","last_reported":1689883620,"current_range_meters":3600,"station_id":"ce4bh2h2rcd13ifvqdh0","pricing_plan_id":"free"},{"bike_id":"be1e7dc8-dad5-498a-a6e0-e0432e0c159d","system_id":"levelo_inurba_marseille","lat":43.29413,"lon":5.38625,"is_reserved":false,"is_disabled":false,"rental_uris":{"android":"levelo://app?vid=be1e7dc8-dad5-498a-a6e0-e0432e0c159d","ios":"levelo://app?vid=be1e7dc8-dad5-498a-a6e0-e0432e0c159d"},"vehicle_type_id":"4","last_reported":1689883620,"current_range_meters":6000,"station_id":"ce4bh2h2rcd13ifvqdh0","pricing_plan_id":"free"},{"bike_id":"9f025bfb-3632-4fbf-a371-0c955b63ab6f","system_id":"levelo_inurba_marseille","lat":43.28941,"lon":5.36627,"is_reserved":false,"is_disabled":false,"rental_uris":{"android":"levelo://app?vid=9f025bfb-3632-4fbf-a371-0c955b63ab6f","ios":"levelo://app?vid=9f025bfb-3632-4fbf-a371-0c955b63ab6f"},"vehicle_type_id":"4","last_reported":1689883620,"current_range_meters":27200,"station_id":"","pricing_plan_id":"free"},{"bike_id":"18a8218b-cbac-41a2-ac50-f8e349c7dab4","system_id":"levelo_inurba_marseille","lat":43.294116,"lon":5.386256,"is_reserved":false,"is_disabled":false,"rental_uris":{"android":"levelo://app?vid=18a8218b-cbac-41a2-ac50-f8e349c7dab4","ios":"levelo://app?vid=18a8218b-cbac-41a2-ac50-f8e349c7dab4"},"vehicle_type_id":"4","last_reported":1689883620,"current_range_meters":5600,"station_id":"ce4bh692rcd13ifvqea0","pricing_plan_id":"free"},{"bike_id":"a3e798ce-deb4-4a60-8943-978e56a6805a","system_id":"levelo_inurba_marseille","lat":43.29414,"lon":5.3863,"is_reserved":false,"is_disabled":false,"rental_uris":{"android":"levelo://app?vid=a3e798ce-deb4-4a60-8943-978e56a6805a","ios":"levelo://app?vid=a3e798ce-deb4-4a60-8943-978e56a6805a"},"vehicle_type_id":"4","last_reported":1689883620,"current_range_meters":21200,"station_id":"ce4bh2h2rcd13ifvqdh0","pricing_plan_id":"free"},{"bike_id":"87aa95d9-6fd3-4db4-8793-c7a3e41e8c07","system_id":"levelo_inurba_marseille","lat":43.289184,"lon":5.366408,"is_reserved":false,"is_disabled":false,"rental_uris":{"android":"levelo://app?vid=87aa95d9-6fd3-4db4-8793-c7a3e41e8c07","ios":"levelo://app?vid=87aa95d9-6fd3-4db4-8793-c7a3e41e8c07"},"vehicle_type_id":"4","last_reported":1689883620,"current_range_meters":7600,"station_id":"ce4bhap2rcd13ifvqek0","pricing_plan_id":"free"},{"bike_id":"e2f6fe2b-1853-4409-aa87-6763f4cb52c7","system_id":"levelo_inurba_marseille","lat":43.289184,"lon":5.366408,"is_reserved":false,"is_disabled":false,"rental_uris":{"android":"levelo://app?vid=e2f6fe2b-1853-4409-aa87-6763f4cb52c7","ios":"levelo://app?vid=e2f6fe2b-1853-4409-aa87-6763f4cb52c7"},"vehicle_type_id":"4","last_reported":1689883620,"current_range_meters":12400,"station_id":"ce4bhap2rcd13ifvqek0","pricing_plan_id":"free"},{"bike_id":"d8b5c25f-3db9-485b-a954-7ef5d621778e","system_id":"levelo_inurba_marseille","lat":43.292642,"lon":5.384254,"is_reserved":false,"is_disabled":false,"rental_uris":{"android":"levelo://app?vid=d8b5c25f-3db9-485b-a954-7ef5d621778e","ios":"levelo://app?vid=d8b5c25f-3db9-485b-a954-7ef5d621778e"},"vehicle_type_id":"4","last_reported":1689883620,"current_range_meters":26800,"station_id":"ce4bh692rcd13ifvqea0","pricing_plan_id":"free"},{"bike_id":"a144edae-396c-401e-8a01-9f70cbfdec71","system_id":"levelo_inurba_marseille","lat":43.30425,"lon":5.39738,"is_reserved":false,"is_disabled":false,"rental_uris":{"android":"levelo://app?vid=a144edae-396c-401e-8a01-9f70cbfdec71","ios":"levelo://app?vid=a144edae-396c-401e-8a01-9f70cbfdec71"},"vehicle_type_id":"4","last_reported":1689883620,"current_range_meters":3600,"station_id":"ce4bh092rcd13ifvqd20","pricing_plan_id":"free"},{"bike_id":"07710559-7483-448d-8d1e-dd5e4aeb23b6","system_id":"levelo_inurba_marseille","lat":43.292644,"lon":5.384257,"is_reserved":false,"is_disabled":false,"rental_uris":{"android":"levelo://app?vid=07710559-7483-448d-8d1e-dd5e4aeb23b6","ios":"levelo://app?vid=07710559-7483-448d-8d1e-dd5e4aeb23b6"},"vehicle_type_id":"4","last_reported":1689883620,"current_range_meters":4800,"station_id":"ce4bh692rcd13ifvqea0","pricing_plan_id":"free"},{"bike_id":"733edddc-4452-40f5-8da3-29f3b3bcccd0","system_id":"levelo_inurba_marseille","lat":43.292644,"lon":5.384257,"is_reserved":false,"is_disabled":false,"rental_uris":{"android":"levelo://app?vid=733edddc-4452-40f5-8da3-29f3b3bcccd0","ios":"levelo://app?vid=733edddc-4452-40f5-8da3-29f3b3bcccd0"},"vehicle_type_id":"4","last_reported":1689883620,"current_range_meters":20000,"station_id":"ce4bh692rcd13ifvqea0","pricing_plan_id":"free"},{"bike_id":"c585179f-b0c3-4002-a075-1036c0165741","system_id":"levelo_inurba_marseille","lat":43.292642,"lon":5.384254,"is_reserved":false,"is_disabled":false,"rental_uris":{"android":"levelo://app?vid=c585179f-b0c3-4002-a075-1036c0165741","ios":"levelo://app?vid=c585179f-b0c3-4002-a075-1036c0165741"},"vehicle_type_id":"4","last_reported":1689883620,"current_range_meters":13200,"station_id":"ce4bh692rcd13ifvqea0","pricing_plan_id":"free"},{"bike_id":"68a8be3c-c1eb-4597-bfa7-7bb57b8b373e","system_id":"levelo_inurba_marseille","lat":43.292644,"lon":5.384257,"is_reserved":false,"is_disabled":false,"rental_uris":{"android":"levelo://app?vid=68a8be3c-c1eb-4597-bfa7-7bb57b8b373e","ios":"levelo://app?vid=68a8be3c-c1eb-4597-bfa7-7bb57b8b373e"},"vehicle_type_id":"4","last_reported":1689883620,"current_range_meters":21200,"station_id":"ce4bh692rcd13ifvqea0","pricing_plan_id":"free"},{"bike_id":"9feb4519-d137-4c1e-ba2e-14d8595742ef","system_id":"levelo_inurba_marseille","lat":43.292642,"lon":5.384254,"is_reserved":false,"is_disabled":false,"rental_uris":{"android":"levelo://app?vid=9feb4519-d137-4c1e-ba2e-14d8595742ef","ios":"levelo://app?vid=9feb4519-d137-4c1e-ba2e-14d8595742ef"},"vehicle_type_id":"4","last_reported":1689883620,"current_range_meters":2800,"station_id":"ce4bh692rcd13ifvqea0","pricing_plan_id":"free"},{"bike_id":"05408277-540a-4ac6-a3ff-ec6dcd561072","system_id":"levelo_inurba_marseille","lat":43.292644,"lon":5.384257,"is_reserved":false,"is_disabled":false,"rental_uris":{"android":"levelo://app?vid=05408277-540a-4ac6-a3ff-ec6dcd561072","ios":"levelo://app?vid=05408277-540a-4ac6-a3ff-ec6dcd561072"},"vehicle_type_id":"4","last_reported":1689883620,"current_range_meters":12800,"station_id":"ce4bh692rcd13ifvqea0","pricing_plan_id":"free"},{"bike_id":"123b44e0-c997-4712-9836-f9d3e2a934db","system_id":"levelo_inurba_marseille","lat":43.292642,"lon":5.384254,"is_reserved":false,"is_disabled":false,"rental_uris":{"android":"levelo://app?vid=123b44e0-c997-4712-9836-f9d3e2a934db","ios":"levelo://app?vid=123b44e0-c997-4712-9836-f9d3e2a934db"},"vehicle_type_id":"4","last_reported":1689883620,"current_range_meters":16000,"station_id":"ce4bh692rcd13ifvqea0","pricing_plan_id":"free"},{"bike_id":"9870a5b1-0643-46f8-996c-e8bd6b04f2e9","system_id":"levelo_inurba_marseille","lat":43.292644,"lon":5.384257,"is_reserved":false,"is_disabled":false,"rental_uris":{"android":"levelo://app?vid=9870a5b1-0643-46f8-996c-e8bd6b04f2e9","ios":"levelo://app?vid=9870a5b1-0643-46f8-996c-e8bd6b04f2e9"},"vehicle_type_id":"4","last_reported":1689883620,"current_range_meters":7200,"station_id":"ce4bh692rcd13ifvqea0","pricing_plan_id":"free"},{"bike_id":"a790727d-b569-465e-9ef3-9fdac30eb26e","system_id":"levelo_inurba_marseille","lat":43.292644,"lon":5.384257,"is_reserved":false,"is_disabled":false,"rental_uris":{"android":"levelo://app?vid=a790727d-b569-465e-9ef3-9fdac30eb26e","ios":"levelo://app?vid=a790727d-b569-465e-9ef3-9fdac30eb26e"},"vehicle_type_id":"4","last_reported":1689883620,"current_range_meters":12400,"station_id":"ce4bh692rcd13ifvqea0","pricing_plan_id":"free"},{"bike_id":"77c7689c-b72e-4152-b6aa-c31cb2a5480e","system_id":"levelo_inurba_marseille","lat":43.292642,"lon":5.384254,"is_reserved":false,"is_disabled":false,"rental_uris":{"android":"levelo://app?vid=77c7689c-b72e-4152-b6aa-c31cb2a5480e","ios":"levelo://app?vid=77c7689c-b72e-4152-b6aa-c31cb2a5480e"},"vehicle_type_id":"4","last_reported":1689883620,"current_range_meters":18000,"station_id":"ce4bh692rcd13ifvqea0","pricing_plan_id":"free"},{"bike_id":"abafdefa-e40c-4f64-8283-580a7fb41385","system_id":"levelo_inurba_marseille","lat":43.292644,"lon":5.384257,"is_reserved":false,"is_disabled":false,"rental_uris":{"android":"levelo://app?vid=abafdefa-e40c-4f64-8283-580a7fb41385","ios":"levelo://app?vid=abafdefa-e40c-4f64-8283-580a7fb41385"},"vehicle_type_id":"4","last_reported":1689883620,"current_range_meters":6800,"station_id":"ce4bh692rcd13ifvqea0","pricing_plan_id":"free"},{"bike_id":"8645ac4c-a0b3-487c-ae8c-084f5c105611","system_id":"levelo_inurba_marseille","lat":43.292642,"lon":5.384254,"is_reserved":false,"is_disabled":false,"rental_uris":{"android":"levelo://app?vid=8645ac4c-a0b3-487c-ae8c-084f5c105611","ios":"levelo://app?vid=8645ac4c-a0b3-487c-ae8c-084f5c105611"},"vehicle_type_id":"4","last_reported":1689883620,"current_range_meters":0,"station_id":"ce4bh692rcd13ifvqea0","pricing_plan_id":"free"},{"bike_id":"0c7b149c-f2e2-4f2c-8a6b-7ec654d639f2","system_id":"levelo_inurba_marseille","lat":43.33036,"lon":5.38921,"is_reserved":false,"is_disabled":false,"rental_uris":{"android":"levelo://app?vid=0c7b149c-f2e2-4f2c-8a6b-7ec654d639f2","ios":"levelo://app?vid=0c7b149c-f2e2-4f2c-8a6b-7ec654d639f2"},"vehicle_type_id":"4","last_reported":1689883620,"current_range_meters":20800,"station_id":"ce4bhr92rcd13ifvqhrg","pricing_plan_id":"free"},{"bike_id":"97456bed-348c-437c-8992-d25959de45d8","system_id":"levelo_inurba_marseille","lat":43.33044,"lon":5.3891,"is_reserved":false,"is_disabled":false,"rental_uris":{"android":"levelo://app?vid=97456bed-348c-437c-8992-d25959de45d8","ios":"levelo://app?vid=97456bed-348c-437c-8992-d25959de45d8"},"vehicle_type_id":"4","last_reported":1689883620,"current_range_meters":30800,"station_id":"ce4bhr92rcd13ifvqhrg","pricing_plan_id":"free"},{"bike_id":"7a98406f-40c4-4674-b37f-9cc2b6d6533c","system_id":"levelo_inurba_marseille","lat":43.33045,"lon":5.38909,"is_reserved":false,"is_disabled":false,"rental_uris":{"android":"levelo://app?vid=7a98406f-40c4-4674-b37f-9cc2b6d6533c","ios":"levelo://app?vid=7a98406f-40c4-4674-b37f-9cc2b6d6533c"},"vehicle_type_id":"4","last_reported":1689883620,"current_range_meters":12800,"station_id":"ce4bhr92rcd13ifvqhrg","pricing_plan_id":"free"},{"bike_id":"880a8f86-a4bd-48bc-8039-b31b0f410a6b","system_id":"levelo_inurba_marseille","lat":43.33043,"lon":5.38914,"is_reserved":false,"is_disabled":false,"rental_uris":{"android":"levelo://app?vid=880a8f86-a4bd-48bc-8039-b31b0f410a6b","ios":"levelo://app?vid=880a8f86-a4bd-48bc-8039-b31b0f410a6b"},"vehicle_type_id":"4","last_reported":1689883620,"current_range_meters":31200,"station_id":"ce4bhr92rcd13ifvqhrg","pricing_plan_id":"free"},{"bike_id":"609d4ba4-180c-4d80-92b8-15d65d400a7f","system_id":"levelo_inurba_marseille","lat":43.33045,"lon":5.38913,"is_reserved":false,"is_disabled":false,"rental_uris":{"android":"levelo://app?vid=609d4ba4-180c-4d80-92b8-15d65d400a7f","ios":"levelo://app?vid=609d4ba4-180c-4d80-92b8-15d65d400a7f"},"vehicle_type_id":"4","last_reported":1689883620,"current_range_meters":28400,"station_id":"ce4bhr92rcd13ifvqhrg","pricing_plan_id":"free"},{"bike_id":"6cf33c74-75d0-4432-87b5-f7166b56a257","system_id":"levelo_inurba_marseille","lat":43.33044,"lon":5.38915,"is_reserved":false,"is_disabled":false,"rental_uris":{"android":"levelo://app?vid=6cf33c74-75d0-4432-87b5-f7166b56a257","ios":"levelo://app?vid=6cf33c74-75d0-4432-87b5-f7166b56a257"},"vehicle_type_id":"4","last_reported":1689883620,"current_range_meters":18400,"station_id":"ce4bhr92rcd13ifvqhrg","pricing_plan_id":"free"},{"bike_id":"8ea5cc72-b574-476e-9248-b5542cbbcc4b","system_id":"levelo_inurba_marseille","lat":43.3304,"lon":5.38922,"is_reserved":false,"is_disabled":false,"rental_uris":{"android":"levelo://app?vid=8ea5cc72-b574-476e-9248-b5542cbbcc4b","ios":"levelo://app?vid=8ea5cc72-b574-476e-9248-b5542cbbcc4b"},"vehicle_type_id":"4","last_reported":1689883620,"current_range_meters":30000,"station_id":"ce4bhr92rcd13ifvqhrg","pricing_plan_id":"free"},{"bike_id":"7c7aaa28-5a36-4167-a867-63e09edc98c2","system_id":"levelo_inurba_marseille","lat":43.33042,"lon":5.3892,"is_reserved":false,"is_disabled":false,"rental_uris":{"android":"levelo://app?vid=7c7aaa28-5a36-4167-a867-63e09edc98c2","ios":"levelo://app?vid=7c7aaa28-5a36-4167-a867-63e09edc98c2"},"vehicle_type_id":"4","last_reported":1689883620,"current_range_meters":30400,"station_id":"ce4bhr92rcd13ifvqhrg","pricing_plan_id":"free"},{"bike_id":"7fbf872d-c330-448a-9faf-3332d1f47742","system_id":"levelo_inurba_marseille","lat":43.33042,"lon":5.3892,"is_reserved":false,"is_disabled":false,"rental_uris":{"android":"levelo://app?vid=7fbf872d-c330-448a-9faf-3332d1f47742","ios":"levelo://app?vid=7fbf872d-c330-448a-9faf-3332d1f47742"},