{"last_updated":1769745535,"ttl":60,"version":"2.2","data":{"bikes":[{"bike_id":"60ebce89-9b49-41d8-b1d5-1fdb022bac99","system_id":"levelo_inurba_marseille","lat":43.33723,"lon":5.37484,"is_reserved":false,"is_disabled":false,"rental_uris":{"android":"levelo://app?vid=60ebce89-9b49-41d8-b1d5-1fdb022bac99","ios":"levelo://app?vid=60ebce89-9b49-41d8-b1d5-1fdb022bac99"},"vehicle_type_id":"4","last_reported":1769745535,"current_range_meters":2800,"station_id":"","pricing_plan_id":"cebpf4jnsgd1na2vs0mg"},{"bike_id":"5c329496-a302-4a24-b572-2d0f0057ae2e","system_id":"levelo_inurba_marseille","lat":43.3316,"lon":5.37695,"is_reserved":false,"is_disabled":false,"rental_uris":{"android":"levelo://app?vid=5c329496-a302-4a24-b572-2d0f0057ae2e","ios":"levelo://app?vid=5c329496-a302-4a24-b572-2d0f0057ae2e"},"vehicle_type_id":"4","last_reported":1769745535,"current_range_meters":2800,"station_id":"st_d46cu089ee8s73dldbu0","pricing_plan_id":"cebpf4jnsgd1na2vs0mg"},{"bike_id":"96ddcdc4-3d11-47dc-91b3-e1897ae67898","system_id":"levelo_inurba_marseille","lat":43.29552,"lon":5.42282,"is_reserved":false,"is_disabled":false,"rental_uris":{"android":"levelo://app?vid=96ddcdc4-3d11-47dc-91b3-e1897ae67898","ios":"levelo://app?vid=96ddcdc4-3d11-47dc-91b3-e1897ae67898"},"vehicle_type_id":"4","last_reported":1769745535,"current_range_meters":2800,"station_id":"ce4bhph2rcd13ifvqhdg","pricing_plan_id":"cebpf4jnsgd1na2vs0mg"},{"bike_id":"3ccee4a4-a5bc-4ac1-9bdc-3455c28961e8","system_id":"levelo_inurba_marseille","lat":43.24814,"lon":5.37447,"is_reserved":false,"is_disabled":false,"rental_uris":{"android":"levelo://app?vid=3ccee4a4-a5bc-4ac1-9bdc-3455c28961e8","ios":"levelo://app?vid=3ccee4a4-a5bc-4ac1-9bdc-3455c28961e8"},"vehicle_type_id":"4","last_reported":1769745535,"current_range_meters":2800,"station_id":"ce4bhgh2rcd13ifvqfb0","pricing_plan_id":"cebpf4jnsgd1na2vs0mg"},{"bike_id":"802f6e05-7249-407a-aac4-32d2041628b8","system_id":"levelo_inurba_marseille","lat":43.23066,"lon":5.35481,"is_reserved":false,"is_disabled":false,"rental_uris":{"android":"levelo://app?vid=802f6e05-7249-407a-aac4-32d2041628b8","ios":"levelo://app?vid=802f6e05-7249-407a-aac4-32d2041628b8"},"vehicle_type_id":"4","last_reported":1769745535,"current_range_meters":2800,"station_id":"cpo3342slgdg3j2ifvpg","pricing_plan_id":"cebpf4jnsgd1na2vs0mg"},{"bike_id":"7d67b8cf-3508-46b5-b284-ecc5ccff724a","system_id":"levelo_inurba_marseille","lat":43.24392,"lon":5.37051,"is_reserved":false,"is_disabled":false,"rental_uris":{"android":"levelo://app?vid=7d67b8cf-3508-46b5-b284-ecc5ccff724a","ios":"levelo://app?vid=7d67b8cf-3508-46b5-b284-ecc5ccff724a"},"vehicle_type_id":"4","last_reported":1769745535,"current_range_meters":2800,"station_id":"ce4bhhh2rcd13ifvqfk0","pricing_plan_id":"cebpf4jnsgd1na2vs0mg"},{"bike_id":"6a4ce787-3ab6-4ff8-ace6-1da1d70c1828","system_id":"levelo_inurba_marseille","lat":43.24805,"lon":5.37464,"is_reserved":false,"is_disabled":false,"rental_uris":{"android":"levelo://app?vid=6a4ce787-3ab6-4ff8-ace6-1da1d70c1828","ios":"levelo://app?vid=6a4ce787-3ab6-4ff8-ace6-1da1d70c1828"},"vehicle_type_id":"4","last_reported":1769745535,"current_range_meters":2800,"station_id":"ce4bhgh2rcd13ifvqfb0","pricing_plan_id":"cebpf4jnsgd1na2vs0mg"},{"bike_id":"4e0b1a0a-499a-45c3-88d5-cd2bd206a3e6","system_id":"levelo_inurba_marseille","lat":43.293682,"lon":5.37842,"is_reserved":false,"is_disabled":false,"rental_uris":{"android":"levelo://app?vid=4e0b1a0a-499a-45c3-88d5-cd2bd206a3e6","ios":"levelo://app?vid=4e0b1a0a-499a-45c3-88d5-cd2bd206a3e6"},"vehicle_type_id":"4","last_reported":1769745535,"current_range_meters":3200,"station_id":"ce4bgjh2rcd13ifvqbf0","pricing_plan_id":"cebpf4jnsgd1na2vs0mg"},{"bike_id":"19eb5982-0044-4d75-aaf7-9fb97c862c7e","system_id":"levelo_inurba_marseille","lat":43.26266,"lon":5.41275,"is_reserved":false,"is_disabled":false,"rental_uris":{"android":"levelo://app?vid=19eb5982-0044-4d75-aaf7-9fb97c862c7e","ios":"levelo://app?vid=19eb5982-0044-4d75-aaf7-9fb97c862c7e"},"vehicle_type_id":"4","last_reported":1769745535,"current_range_meters":3200,"station_id":"","pricing_plan_id":"cebpf4jnsgd1na2vs0mg"},{"bike_id":"2df2670b-f535-4e70-8cab-f36e740466dc","system_id":"levelo_inurba_marseille","lat":43.28873,"lon":5.42514,"is_reserved":false,"is_disabled":false,"rental_uris":{"android":"levelo://app?vid=2df2670b-f535-4e70-8cab-f36e740466dc","ios":"levelo://app?vid=2df2670b-f535-4e70-8cab-f36e740466dc"},"vehicle_type_id":"4","last_reported":1769745535,"current_range_meters":3200,"station_id":"st_d3b462108ojc7389ooeg","pricing_plan_id":"cebpf4jnsgd1na2vs0mg"},{"bike_id":"fa6d29a1-8150-4a5d-b442-3b75e88a3945","system_id":"levelo_inurba_marseille","lat":43.29705,"lon":5.36595,"is_reserved":false,"is_disabled":false,"rental_uris":{"android":"levelo://app?vid=fa6d29a1-8150-4a5d-b442-3b75e88a3945","ios":"levelo://app?vid=fa6d29a1-8150-4a5d-b442-3b75e88a3945"},"vehicle_type_id":"4","last_reported":1769745535,"current_range_meters":3200,"station_id":"ce4bgn12rcd13ifvqbt0","pricing_plan_id":"cebpf4jnsgd1na2vs0mg"},{"bike_id":"a1adbbcc-56be-41a6-a560-f4a5e4282b51","system_id":"levelo_inurba_marseille","lat":43.28411,"lon":5.3499,"is_reserved":false,"is_disabled":false,"rental_uris":{"android":"levelo://app?vid=a1adbbcc-56be-41a6-a560-f4a5e4282b51","ios":"levelo://app?vid=a1adbbcc-56be-41a6-a560-f4a5e4282b51"},"vehicle_type_id":"4","last_reported":1769745535,"current_range_meters":3200,"station_id":"ce4bhbh2rcd13ifvqepg","pricing_plan_id":"cebpf4jnsgd1na2vs0mg"},{"bike_id":"9cf332f9-41e8-44ae-aa15-1d9d379a94a2","system_id":"levelo_inurba_marseille","lat":43.28607,"lon":5.35125,"is_reserved":false,"is_disabled":false,"rental_uris":{"android":"levelo://app?vid=9cf332f9-41e8-44ae-aa15-1d9d379a94a2","ios":"levelo://app?vid=9cf332f9-41e8-44ae-aa15-1d9d379a94a2"},"vehicle_type_id":"4","last_reported":1769745535,"current_range_meters":3200,"station_id":"ce4bhch2rcd13ifvqeug","pricing_plan_id":"cebpf4jnsgd1na2vs0mg"},{"bike_id":"ac605ac9-20fd-41ab-b16b-356ba124b9b7","system_id":"levelo_inurba_marseille","lat":43.27221,"lon":5.42786,"is_reserved":false,"is_disabled":false,"rental_uris":{"android":"levelo://app?vid=ac605ac9-20fd-41ab-b16b-356ba124b9b7","ios":"levelo://app?vid=ac605ac9-20fd-41ab-b16b-356ba124b9b7"},"vehicle_type_id":"4","last_reported":1769745535,"current_range_meters":3200,"station_id":"","pricing_plan_id":"cebpf4jnsgd1na2vs0mg"},{"bike_id":"659c89a6-8d79-4721-8be9-94a911f835cc","system_id":"levelo_inurba_marseille","lat":43.31497,"lon":5.37312,"is_reserved":false,"is_disabled":false,"rental_uris":{"android":"levelo://app?vid=659c89a6-8d79-4721-8be9-94a911f835cc","ios":"levelo://app?vid=659c89a6-8d79-4721-8be9-94a911f835cc"},"vehicle_type_id":"4","last_reported":1769745535,"current_range_meters":3200,"station_id":"ce4bgt12rcd13ifvqcd0","pricing_plan_id":"cebpf4jnsgd1na2vs0mg"},{"bike_id":"f5252326-86c6-41fa-9654-a4796ef05ac0","system_id":"levelo_inurba_marseille","lat":43.25086,"lon":5.39524,"is_reserved":false,"is_disabled":false,"rental_uris":{"android":"levelo://app?vid=f5252326-86c6-41fa-9654-a4796ef05ac0","ios":"levelo://app?vid=f5252326-86c6-41fa-9654-a4796ef05ac0"},"vehicle_type_id":"4","last_reported":1769745535,"current_range_meters":3200,"station_id":"ce4bhm12rcd13ifvqgkg","pricing_plan_id":"cebpf4jnsgd1na2vs0mg"},{"bike_id":"dcd2095e-5032-4a30-bded-30bd778faeb9","system_id":"levelo_inurba_marseille","lat":43.25088,"lon":5.39518,"is_reserved":false,"is_disabled":false,"rental_uris":{"android":"levelo://app?vid=dcd2095e-5032-4a30-bded-30bd778faeb9","ios":"levelo://app?vid=dcd2095e-5032-4a30-bded-30bd778faeb9"},"vehicle_type_id":"4","last_reported":1769745535,"current_range_meters":3600,"station_id":"ce4bhm12rcd13ifvqgkg","pricing_plan_id":"cebpf4jnsgd1na2vs0mg"},{"bike_id":"13a42614-e0d9-4491-ac21-2d8ba47d99e1","system_id":"levelo_inurba_marseille","lat":43.28654,"lon":5.38581,"is_reserved":false,"is_disabled":false,"rental_uris":{"android":"levelo://app?vid=13a42614-e0d9-4491-ac21-2d8ba47d99e1","ios":"levelo://app?vid=13a42614-e0d9-4491-ac21-2d8ba47d99e1"},"vehicle_type_id":"4","last_reported":1769745535,"current_range_meters":3600,"station_id":"","pricing_plan_id":"cebpf4jnsgd1na2vs0mg"},{"bike_id":"b3069703-2999-4d6b-a6bf-56785356e416","system_id":"levelo_inurba_marseille","lat":43.2446,"lon":5.42525,"is_reserved":false,"is_disabled":false,"rental_uris":{"android":"levelo://app?vid=b3069703-2999-4d6b-a6bf-56785356e416","ios":"levelo://app?vid=b3069703-2999-4d6b-a6bf-56785356e416"},"vehicle_type_id":"4","last_reported":1769745535,"current_range_meters":3600,"station_id":"st_d4a3vfp97mjs738cd8kg","pricing_plan_id":"cebpf4jnsgd1na2vs0mg"},{"bike_id":"a27d8c50-96b7-43a5-b572-9779b9feeede","system_id":"levelo_inurba_marseille","lat":43.23064,"lon":5.35489,"is_reserved":false,"is_disabled":false,"rental_uris":{"android":"levelo://app?vid=a27d8c50-96b7-43a5-b572-9779b9feeede","ios":"levelo://app?vid=a27d8c50-96b7-43a5-b572-9779b9feeede"},"vehicle_type_id":"4","last_reported":1769745535,"current_range_meters":3600,"station_id":"cpo3342slgdg3j2ifvpg","pricing_plan_id":"cebpf4jnsgd1na2vs0mg"},{"bike_id":"2f9aa735-7748-4b7f-83ce-bbcdad20a423","system_id":"levelo_inurba_marseille","lat":43.3317,"lon":5.37678,"is_reserved":false,"is_disabled":false,"rental_uris":{"android":"levelo://app?vid=2f9aa735-7748-4b7f-83ce-bbcdad20a423","ios":"levelo://app?vid=2f9aa735-7748-4b7f-83ce-bbcdad20a423"},"vehicle_type_id":"4","last_reported":1769745535,"current_range_meters":3600,"station_id":"","pricing_plan_id":"cebpf4jnsgd1na2vs0mg"},{"bike_id":"353ef59e-79fd-4e27-87a5-d37a860789e8","system_id":"levelo_inurba_marseille","lat":43.31105,"lon":5.38463,"is_reserved":false,"is_disabled":false,"rental_uris":{"android":"levelo://app?vid=353ef59e-79fd-4e27-87a5-d37a860789e8","ios":"levelo://app?vid=353ef59e-79fd-4e27-87a5-d37a860789e8"},"vehicle_type_id":"4","last_reported":1769745535,"current_range_meters":3600,"station_id":"","pricing_plan_id":"cebpf4jnsgd1na2vs0mg"},{"bike_id":"b96775b7-8954-4f94-990f-968813344c58","system_id":"levelo_inurba_marseille","lat":43.31281,"lon":5.37781,"is_reserved":false,"is_disabled":false,"rental_uris":{"android":"levelo://app?vid=b96775b7-8954-4f94-990f-968813344c58","ios":"levelo://app?vid=b96775b7-8954-4f94-990f-968813344c58"},"vehicle_type_id":"4","last_reported":1769745535,"current_range_meters":3600,"station_id":"","pricing_plan_id":"cebpf4jnsgd1na2vs0mg"},{"bike_id":"b64a9fd2-222a-468e-a24c-4d5dcc8b1cdd","system_id":"levelo_inurba_marseille","lat":43.31279,"lon":5.40154,"is_reserved":false,"is_disabled":false,"rental_uris":{"android":"levelo://app?vid=b64a9fd2-222a-468e-a24c-4d5dcc8b1cdd","ios":"levelo://app?vid=b64a9fd2-222a-468e-a24c-4d5dcc8b1cdd"},"vehicle_type_id":"4","last_reported":1769745535,"current_range_meters":3600,"station_id":"ce4bh092rcd13ifvqd30","pricing_plan_id":"cebpf4jnsgd1na2vs0mg"},{"bike_id":"f6b18e2c-3108-49dd-a9f9-ba1b75d0cddc","system_id":"levelo_inurba_marseille","lat":43.2465,"lon":5.38907,"is_reserved":false,"is_disabled":false,"rental_uris":{"android":"levelo://app?vid=f6b18e2c-3108-49dd-a9f9-ba1b75d0cddc","ios":"levelo://app?vid=f6b18e2c-3108-49dd-a9f9-ba1b75d0cddc"},"vehicle_type_id":"4","last_reported":1769745535,"current_range_meters":3600,"station_id":"ce4bhg12rcd13ifvqf60","pricing_plan_id":"cebpf4jnsgd1na2vs0mg"},{"bike_id":"cef89498-fbf9-4ad5-afa6-46a5eea10249","system_id":"levelo_inurba_marseille","lat":43.27353,"lon":5.41018,"is_reserved":false,"is_disabled":false,"rental_uris":{"android":"levelo://app?vid=cef89498-fbf9-4ad5-afa6-46a5eea10249","ios":"levelo://app?vid=cef89498-fbf9-4ad5-afa6-46a5eea10249"},"vehicle_type_id":"4","last_reported":1769745535,"current_range_meters":3600,"station_id":"","pricing_plan_id":"cebpf4jnsgd1na2vs0mg"},{"bike_id":"11084332-6ba5-4043-b2a2-c3df1377d1fa","system_id":"levelo_inurba_marseille","lat":43.27925,"lon":5.3959,"is_reserved":false,"is_disabled":false,"rental_uris":{"android":"levelo://app?vid=11084332-6ba5-4043-b2a2-c3df1377d1fa","ios":"levelo://app?vid=11084332-6ba5-4043-b2a2-c3df1377d1fa"},"vehicle_type_id":"4","last_reported":1769745535,"current_range_meters":3600,"station_id":"ce4bhf92rcd13ifvqf40","pricing_plan_id":"cebpf4jnsgd1na2vs0mg"},{"bike_id":"20a84a36-cda8-4032-a192-bc5d320ef00d","system_id":"levelo_inurba_marseille","lat":43.28458,"lon":5.35884,"is_reserved":false,"is_disabled":false,"rental_uris":{"android":"levelo://app?vid=20a84a36-cda8-4032-a192-bc5d320ef00d","ios":"levelo://app?vid=20a84a36-cda8-4032-a192-bc5d320ef00d"},"vehicle_type_id":"4","last_reported":1769745535,"current_range_meters":3600,"station_id":"ce4bhah2rcd13ifvqei0","pricing_plan_id":"cebpf4jnsgd1na2vs0mg"},{"bike_id":"173ab4de-d4ca-4cdb-a11e-273ba50d301a","system_id":"levelo_inurba_marseille","lat":43.26854,"lon":5.42766,"is_reserved":false,"is_disabled":false,"rental_uris":{"android":"levelo://app?vid=173ab4de-d4ca-4cdb-a11e-273ba50d301a","ios":"levelo://app?vid=173ab4de-d4ca-4cdb-a11e-273ba50d301a"},"vehicle_type_id":"4","last_reported":1769745535,"current_range_meters":4000,"station_id":"","pricing_plan_id":"cebpf4jnsgd1na2vs0mg"},{"bike_id":"e44d6c0d-4cdc-487c-87b1-e5cf7cd1bdd8","system_id":"levelo_inurba_marseille","lat":43.27693,"lon":5.38868,"is_reserved":false,"is_disabled":false,"rental_uris":{"android":"levelo://app?vid=e44d6c0d-4cdc-487c-87b1-e5cf7cd1bdd8","ios":"levelo://app?vid=e44d6c0d-4cdc-487c-87b1-e5cf7cd1bdd8"},"vehicle_type_id":"4","last_reported":1769745535,"current_range_meters":4000,"station_id":"ce4bhi12rcd13ifvqfo0","pricing_plan_id":"cebpf4jnsgd1na2vs0mg"},{"bike_id":"64e8b7d6-3be9-4bc6-9c5d-ee1a985041b4","system_id":"levelo_inurba_marseille","lat":43.33163,"lon":5.37691,"is_reserved":false,"is_disabled":false,"rental_uris":{"android":"levelo://app?vid=64e8b7d6-3be9-4bc6-9c5d-ee1a985041b4","ios":"levelo://app?vid=64e8b7d6-3be9-4bc6-9c5d-ee1a985041b4"},"vehicle_type_id":"4","last_reported":1769745535,"current_range_meters":4000,"station_id":"","pricing_plan_id":"cebpf4jnsgd1na2vs0mg"},{"bike_id":"8252e483-8cd2-4e1f-8159-245c555c915e","system_id":"levelo_inurba_marseille","lat":43.22935,"lon":5.35384,"is_reserved":false,"is_disabled":false,"rental_uris":{"android":"levelo://app?vid=8252e483-8cd2-4e1f-8159-245c555c915e","ios":"levelo://app?vid=8252e483-8cd2-4e1f-8159-245c555c915e"},"vehicle_type_id":"4","last_reported":1769745535,"current_range_meters":4000,"station_id":"cpo3532slgdg3j2ikp40","pricing_plan_id":"cebpf4jnsgd1na2vs0mg"},{"bike_id":"ded22f29-5dd0-44d1-8ff7-37a64ce4c31f","system_id":"levelo_inurba_marseille","lat":43.31362,"lon":5.38496,"is_reserved":false,"is_disabled":false,"rental_uris":{"android":"levelo://app?vid=ded22f29-5dd0-44d1-8ff7-37a64ce4c31f","ios":"levelo://app?vid=ded22f29-5dd0-44d1-8ff7-37a64ce4c31f"},"vehicle_type_id":"4","last_reported":1769745535,"current_range_meters":4000,"station_id":"ce4bgt92rcd13ifvqcf0","pricing_plan_id":"cebpf4jnsgd1na2vs0mg"},{"bike_id":"3d405854-a3e9-4cc4-bcac-5ce2eff49e57","system_id":"levelo_inurba_marseille","lat":43.23169,"lon":5.39957,"is_reserved":false,"is_disabled":false,"rental_uris":{"android":"levelo://app?vid=3d405854-a3e9-4cc4-bcac-5ce2eff49e57","ios":"levelo://app?vid=3d405854-a3e9-4cc4-bcac-5ce2eff49e57"},"vehicle_type_id":"4","last_reported":1769745535,"current_range_meters":4000,"station_id":"ce4bhn12rcd13ifvqgqg","pricing_plan_id":"cebpf4jnsgd1na2vs0mg"},{"bike_id":"f7013bc3-1392-449d-8312-c31b9fd9f374","system_id":"levelo_inurba_marseille","lat":43.27065,"lon":5.38294,"is_reserved":false,"is_disabled":false,"rental_uris":{"android":"levelo://app?vid=f7013bc3-1392-449d-8312-c31b9fd9f374","ios":"levelo://app?vid=f7013bc3-1392-449d-8312-c31b9fd9f374"},"vehicle_type_id":"4","last_reported":1769745535,"current_range_meters":4000,"station_id":"st_d3n2fo6cfp8s73cte1j0","pricing_plan_id":"cebpf4jnsgd1na2vs0mg"},{"bike_id":"3d61244e-0dde-42a1-8efa-05e556593c38","system_id":"levelo_inurba_marseille","lat":43.22564,"lon":5.41634,"is_reserved":false,"is_disabled":false,"rental_uris":{"android":"levelo://app?vid=3d61244e-0dde-42a1-8efa-05e556593c38","ios":"levelo://app?vid=3d61244e-0dde-42a1-8efa-05e556593c38"},"vehicle_type_id":"4","last_reported":1769745535,"current_range_meters":4000,"station_id":"st_d2o4gvlbi1j2169b742g","pricing_plan_id":"cebpf4jnsgd1na2vs0mg"},{"bike_id":"d05f915c-32c1-43f7-af1b-40d8ac0742df","system_id":"levelo_inurba_marseille","lat":43.26584,"lon":5.39033,"is_reserved":false,"is_disabled":false,"rental_uris":{"android":"levelo://app?vid=d05f915c-32c1-43f7-af1b-40d8ac0742df","ios":"levelo://app?vid=d05f915c-32c1-43f7-af1b-40d8ac0742df"},"vehicle_type_id":"4","last_reported":1769745535,"current_range_meters":4000,"station_id":"ce4bhe12rcd13ifvqf30","pricing_plan_id":"cebpf4jnsgd1na2vs0mg"},{"bike_id":"f860ac89-610e-4c63-b472-b81a6b40817c","system_id":"levelo_inurba_marseille","lat":43.28846,"lon":5.39289,"is_reserved":false,"is_disabled":false,"rental_uris":{"android":"levelo://app?vid=f860ac89-610e-4c63-b472-b81a6b40817c","ios":"levelo://app?vid=f860ac89-610e-4c63-b472-b81a6b40817c"},"vehicle_type_id":"4","last_reported":1769745535,"current_range_meters":4000,"station_id":"ce4bh2p2rcd13ifvqdi0","pricing_plan_id":"cebpf4jnsgd1na2vs0mg"},{"bike_id":"31da9a8c-e76d-4122-b071-042d4c0b937b","system_id":"levelo_inurba_marseille","lat":43.28031,"lon":5.36937,"is_reserved":false,"is_disabled":false,"rental_uris":{"android":"levelo://app?vid=31da9a8c-e76d-4122-b071-042d4c0b937b","ios":"levelo://app?vid=31da9a8c-e76d-4122-b071-042d4c0b937b"},"vehicle_type_id":"4","last_reported":1769745535,"current_range_meters":4000,"station_id":"ce4bha12rcd13ifvqef0","pricing_plan_id":"cebpf4jnsgd1na2vs0mg"},{"bike_id":"cb99475d-5524-4322-8229-b95fd57c4dcd","system_id":"levelo_inurba_marseille","lat":43.25,"lon":5.38946,"is_reserved":false,"is_disabled":false,"rental_uris":{"android":"levelo://app?vid=cb99475d-5524-4322-8229-b95fd57c4dcd","ios":"levelo://app?vid=cb99475d-5524-4322-8229-b95fd57c4dcd"},"vehicle_type_id":"4","last_reported":1769745535,"current_range_meters":4000,"station_id":"ce4bhgp2rcd13ifvqfd0","pricing_plan_id":"cebpf4jnsgd1na2vs0mg"},{"bike_id":"556eb261-ab92-489f-80a0-25a0d7b5981a","system_id":"levelo_inurba_marseille","lat":43.3082,"lon":5.38146,"is_reserved":false,"is_disabled":false,"rental_uris":{"android":"levelo://app?vid=556eb261-ab92-489f-80a0-25a0d7b5981a","ios":"levelo://app?vid=556eb261-ab92-489f-80a0-25a0d7b5981a"},"vehicle_type_id":"4","last_reported":1769745535,"current_range_meters":4000,"station_id":"ce4bgt12rcd13ifvqce0","pricing_plan_id":"cebpf4jnsgd1na2vs0mg"},{"bike_id":"84afd68b-137d-4ebe-92f1-bf09e9f522df","system_id":"levelo_inurba_marseille","lat":43.2586,"lon":5.39898,"is_reserved":false,"is_disabled":false,"rental_uris":{"android":"levelo://app?vid=84afd68b-137d-4ebe-92f1-bf09e9f522df","ios":"levelo://app?vid=84afd68b-137d-4ebe-92f1-bf09e9f522df"},"vehicle_type_id":"4","last_reported":1769745535,"current_range_meters":4000,"station_id":"ce4bhl92rcd13ifvqghg","pricing_plan_id":"cebpf4jnsgd1na2vs0mg"},{"bike_id":"ec911151-785b-471f-816f-85abb26c2bab","system_id":"levelo_inurba_marseille","lat":43.3235,"lon":5.36721,"is_reserved":false,"is_disabled":false,"rental_uris":{"android":"levelo://app?vid=ec911151-785b-471f-816f-85abb26c2bab","ios":"levelo://app?vid=ec911151-785b-471f-816f-85abb26c2bab"},"vehicle_type_id":"4","last_reported":1769745535,"current_range_meters":4400,"station_id":"ce4bhsh2rcd13ifvqi2g","pricing_plan_id":"cebpf4jnsgd1na2vs0mg"},{"bike_id":"84293091-55ca-4620-9855-4d491eed5dcb","system_id":"levelo_inurba_marseille","lat":43.29926,"lon":5.36805,"is_reserved":false,"is_disabled":false,"rental_uris":{"android":"levelo://app?vid=84293091-55ca-4620-9855-4d491eed5dcb","ios":"levelo://app?vid=84293091-55ca-4620-9855-4d491eed5dcb"},"vehicle_type_id":"4","last_reported":1769745535,"current_range_meters":4400,"station_id":"","pricing_plan_id":"cebpf4jnsgd1na2vs0mg"},{"bike_id":"e236f0a6-2e87-48ed-94ce-e49f696f4842","system_id":"levelo_inurba_marseille","lat":43.26604,"lon":5.37495,"is_reserved":false,"is_disabled":false,"rental_uris":{"android":"levelo://app?vid=e236f0a6-2e87-48ed-94ce-e49f696f4842","ios":"levelo://app?vid=e236f0a6-2e87-48ed-94ce-e49f696f4842"},"vehicle_type_id":"4","last_reported":1769745535,"current_range_meters":4400,"station_id":"","pricing_plan_id":"cebpf4jnsgd1na2vs0mg"},{"bike_id":"8c50cc1b-6957-4db2-9b96-76d9d37bac03","system_id":"levelo_inurba_marseille","lat":43.22573,"lon":5.41627,"is_reserved":false,"is_disabled":false,"rental_uris":{"android":"levelo://app?vid=8c50cc1b-6957-4db2-9b96-76d9d37bac03","ios":"levelo://app?vid=8c50cc1b-6957-4db2-9b96-76d9d37bac03"},"vehicle_type_id":"4","last_reported":1769745535,"current_range_meters":4400,"station_id":"st_d2o4gvlbi1j2169b742g","pricing_plan_id":"cebpf4jnsgd1na2vs0mg"},{"bike_id":"51e33b43-0b63-43c6-8dbf-365699605da8","system_id":"levelo_inurba_marseille","lat":43.26999,"lon":5.39769,"is_reserved":false,"is_disabled":false,"rental_uris":{"android":"levelo://app?vid=51e33b43-0b63-43c6-8dbf-365699605da8","ios":"levelo://app?vid=51e33b43-0b63-43c6-8dbf-365699605da8"},"vehicle_type_id":"4","last_reported":1769745535,"current_range_meters":4400,"station_id":"","pricing_plan_id":"cebpf4jnsgd1na2vs0mg"},{"bike_id":"706fe81a-bdb2-42d8-b800-5c8160b7054c","system_id":"levelo_inurba_marseille","lat":43.25366,"lon":5.42154,"is_reserved":false,"is_disabled":false,"rental_uris":{"android":"levelo://app?vid=706fe81a-bdb2-42d8-b800-5c8160b7054c","ios":"levelo://app?vid=706fe81a-bdb2-42d8-b800-5c8160b7054c"},"vehicle_type_id":"4","last_reported":1769745535,"current_range_meters":4400,"station_id":"st_d2m65c5bi1j21697t3ng","pricing_plan_id":"cebpf4jnsgd1na2vs0mg"},{"bike_id":"626f2e49-da66-4aca-b419-36ccc5e515c3","system_id":"levelo_inurba_marseille","lat":43.24628,"lon":5.4315,"is_reserved":false,"is_disabled":false,"rental_uris":{"android":"levelo://app?vid=626f2e49-da66-4aca-b419-36ccc5e515c3","ios":"levelo://app?vid=626f2e49-da66-4aca-b419-36ccc5e515c3"},"vehicle_type_id":"4","last_reported":1769745535,"current_range_meters":4400,"station_id":"st_d2m6c4gdas8pm72e190g","pricing_plan_id":"cebpf4jnsgd1na2vs0mg"},{"bike_id":"932bb106-3c96-4dbf-947d-0b48571ad9e2","system_id":"levelo_inurba_marseille","lat":43.27378,"lon":5.36269,"is_reserved":false,"is_disabled":false,"rental_uris":{"android":"levelo://app?vid=932bb106-3c96-4dbf-947d-0b48571ad9e2","ios":"levelo://app?vid=932bb106-3c96-4dbf-947d-0b48571ad9e2"},"vehicle_type_id":"4","last_reported":1769745535,"current_range_meters":4800,"station_id":"ce4bhbh2rcd13ifvqeo0","pricing_plan_id":"cebpf4jnsgd1na2vs0mg"},{"bike_id":"1734350a-7db7-478e-8058-74793f2aa5c0","system_id":"levelo_inurba_marseille","lat":43.3241,"lon":5.384,"is_reserved":false,"is_disabled":false,"rental_uris":{"android":"levelo://app?vid=1734350a-7db7-478e-8058-74793f2aa5c0","ios":"levelo://app?vid=1734350a-7db7-478e-8058-74793f2aa5c0"},"vehicle_type_id":"4","last_reported":1769745535,"current_range_meters":4800,"station_id":"st_d45171o9ee8s73djdqug","pricing_plan_id":"cebpf4jnsgd1na2vs0mg"},{"bike_id":"cd01b72e-4900-40e6-83b8-affac6e4e1ab","system_id":"levelo_inurba_marseille","lat":43.28696,"lon":5.38695,"is_reserved":false,"is_disabled":false,"rental_uris":{"android":"levelo://app?vid=cd01b72e-4900-40e6-83b8-affac6e4e1ab","ios":"levelo://app?vid=cd01b72e-4900-40e6-83b8-affac6e4e1ab"},"vehicle_type_id":"4","last_reported":1769745535,"current_range_meters":4800,"station_id":"ce4bh492rcd13ifvqdug","pricing_plan_id":"cebpf4jnsgd1na2vs0mg"},{"bike_id":"59d7c568-6724-480d-b1e6-ba1e4cc63559","system_id":"levelo_inurba_marseille","lat":43.29276,"lon":5.37161,"is_reserved":false,"is_disabled":false,"rental_uris":{"android":"levelo://app?vid=59d7c568-6724-480d-b1e6-ba1e4cc63559","ios":"levelo://app?vid=59d7c568-6724-480d-b1e6-ba1e4cc63559"},"vehicle_type_id":"4","last_reported":1769745535,"current_range_meters":4800,"station_id":"ce4bgh92rcd13ifvqb40","pricing_plan_id":"cebpf4jnsgd1na2vs0mg"},{"bike_id":"b3afb300-3fdf-4c16-a3be-4013bcd643ba","system_id":"levelo_inurba_marseille","lat":43.24548,"lon":5.39527,"is_reserved":false,"is_disabled":false,"rental_uris":{"android":"levelo://app?vid=b3afb300-3fdf-4c16-a3be-4013bcd643ba","ios":"levelo://app?vid=b3afb300-3fdf-4c16-a3be-4013bcd643ba"},"vehicle_type_id":"4","last_reported":1769745535,"current_range_meters":4800,"station_id":"ce4bhlp2rcd13ifvqgjg","pricing_plan_id":"cebpf4jnsgd1na2vs0mg"},{"bike_id":"fed1302d-e6b3-4fff-83f6-59b9da166670","system_id":"levelo_inurba_marseille","lat":43.26701,"lon":5.3827,"is_reserved":false,"is_disabled":false,"rental_uris":{"android":"levelo://app?vid=fed1302d-e6b3-4fff-83f6-59b9da166670","ios":"levelo://app?vid=fed1302d-e6b3-4fff-83f6-59b9da166670"},"vehicle_type_id":"4","last_reported":1769745535,"current_range_meters":4800,"station_id":"ce4bhg92rcd13ifvqf90","pricing_plan_id":"cebpf4jnsgd1na2vs0mg"},{"bike_id":"f2e56fcd-53d1-4906-836f-9a276c836675","system_id":"levelo_inurba_marseille","lat":43.26064,"lon":5.394,"is_reserved":false,"is_disabled":false,"rental_uris":{"android":"levelo://app?vid=f2e56fcd-53d1-4906-836f-9a276c836675","ios":"levelo://app?vid=f2e56fcd-53d1-4906-836f-9a276c836675"},"vehicle_type_id":"4","last_reported":1769745535,"current_range_meters":4800,"station_id":"ce4bhh92rcd13ifvqfj0","pricing_plan_id":"cebpf4jnsgd1na2vs0mg"},{"bike_id":"5a5070bd-16de-4246-b119-9edc6b7db571","system_id":"levelo_inurba_marseille","lat":43.31165,"lon":5.38722,"is_reserved":false,"is_disabled":false,"rental_uris":{"android":"levelo://app?vid=5a5070bd-16de-4246-b119-9edc6b7db571","ios":"levelo://app?vid=5a5070bd-16de-4246-b119-9edc6b7db571"},"vehicle_type_id":"4","last_reported":1769745535,"current_range_meters":4800,"station_id":"ce4bgv12rcd13ifvqcp0","pricing_plan_id":"cebpf4jnsgd1na2vs0mg"},{"bike_id":"28bcb9d8-af7e-4e97-808c-cc7b21fe1431","system_id":"levelo_inurba_marseille","lat":43.22569,"lon":5.416206,"is_reserved":false,"is_disabled":false,"rental_uris":{"android":"levelo://app?vid=28bcb9d8-af7e-4e97-808c-cc7b21fe1431","ios":"levelo://app?vid=28bcb9d8-af7e-4e97-808c-cc7b21fe1431"},"vehicle_type_id":"4","last_reported":1769745535,"current_range_meters":4800,"station_id":"st_d2o4gvlbi1j2169b742g","pricing_plan_id":"cebpf4jnsgd1na2vs0mg"},{"bike_id":"3cb7804a-857c-4d32-a947-9e276c77c288","system_id":"levelo_inurba_marseille","lat":43.25497,"lon":5.37649,"is_reserved":false,"is_disabled":false,"rental_uris":{"android":"levelo://app?vid=3cb7804a-857c-4d32-a947-9e276c77c288","ios":"levelo://app?vid=3cb7804a-857c-4d32-a947-9e276c77c288"},"vehicle_type_id":"4","last_reported":1769745535,"current_range_meters":4800,"station_id":"ce4bhh12rcd13ifvqff0","pricing_plan_id":"cebpf4jnsgd1na2vs0mg"},{"bike_id":"517ff927-4e4c-45a3-9e2b-c23d77bb71ea","system_id":"levelo_inurba_marseille","lat":43.30443,"lon":5.38886,"is_reserved":false,"is_disabled":false,"rental_uris":{"android":"levelo://app?vid=517ff927-4e4c-45a3-9e2b-c23d77bb71ea","ios":"levelo://app?vid=517ff927-4e4c-45a3-9e2b-c23d77bb71ea"},"vehicle_type_id":"4","last_reported":1769745535,"current_range_meters":4800,"station_id":"ce4bgk12rcd13ifvqbi0","pricing_plan_id":"cebpf4jnsgd1na2vs0mg"},{"bike_id":"dc9ee814-7f33-4fbb-a1ce-2d30e8c57914","system_id":"levelo_inurba_marseille","lat":43.22544,"lon":5.41628,"is_reserved":false,"is_disabled":false,"rental_uris":{"android":"levelo://app?vid=dc9ee814-7f33-4fbb-a1ce-2d30e8c57914","ios":"levelo://app?vid=dc9ee814-7f33-4fbb-a1ce-2d30e8c57914"},"vehicle_type_id":"4","last_reported":1769745535,"current_range_meters":4800,"station_id":"st_d2o4gvlbi1j2169b742g","pricing_plan_id":"cebpf4jnsgd1na2vs0mg"},{"bike_id":"61050c33-cd05-49a3-8816-4402f222e818","system_id":"levelo_inurba_marseille","lat":43.25524,"lon":5.37622,"is_reserved":false,"is_disabled":false,"rental_uris":{"android":"levelo://app?vid=61050c33-cd05-49a3-8816-4402f222e818","ios":"levelo://app?vid=61050c33-cd05-49a3-8816-4402f222e818"},"vehicle_type_id":"4","last_reported":1769745535,"current_range_meters":5600,"station_id":"ce4bhh12rcd13ifvqff0","pricing_plan_id":"cebpf4jnsgd1na2vs0mg"},{"bike_id":"84c9922a-8ad7-4bd5-ab91-35f57f7c02fb","system_id":"levelo_inurba_marseille","lat":43.26215,"lon":5.37438,"is_reserved":false,"is_disabled":false,"rental_uris":{"android":"levelo://app?vid=84c9922a-8ad7-4bd5-ab91-35f57f7c02fb","ios":"levelo://app?vid=84c9922a-8ad7-4bd5-ab91-35f57f7c02fb"},"vehicle_type_id":"4","last_reported":1769745535,"current_range_meters":5600,"station_id":"ce4bhgp2rcd13ifvqfc0","pricing_plan_id":"cebpf4jnsgd1na2vs0mg"},{"bike_id":"c18f4293-66d6-4469-aa48-2c739777a255","system_id":"levelo_inurba_marseille","lat":43.29971,"lon":5.38523,"is_reserved":false,"is_disabled":true,"rental_uris":{"android":"levelo://app?vid=c18f4293-66d6-4469-aa48-2c739777a255","ios":"levelo://app?vid=c18f4293-66d6-4469-aa48-2c739777a255"},"vehicle_type_id":"4","last_reported":1769745535,"current_range_meters":5600,"station_id":"ce4bgj92rcd13ifvqbd0","pricing_plan_id":"cebpf4jnsgd1na2vs0mg"},{"bike_id":"947b3f41-400e-4a7b-9150-c4b106fc2b3b","system_id":"levelo_inurba_marseille","lat":43.25572,"lon":5.38227,"is_reserved":false,"is_disabled":false,"rental_uris":{"android":"levelo://app?vid=947b3f41-400e-4a7b-9150-c4b106fc2b3b","ios":"levelo://app?vid=947b3f41-400e-4a7b-9150-c4b106fc2b3b"},"vehicle_type_id":"4","last_reported":1769745535,"current_range_meters":5600,"station_id":"ce4bhih2rcd13ifvqfs0","pricing_plan_id":"cebpf4jnsgd1na2vs0mg"},{"bike_id":"130d2376-63fe-4851-b233-142c792d75f2","system_id":"levelo_inurba_marseille","lat":43.24555,"lon":5.39527,"is_reserved":false,"is_disabled":false,"rental_uris":{"android":"levelo://app?vid=130d2376-63fe-4851-b233-142c792d75f2","ios":"levelo://app?vid=130d2376-63fe-4851-b233-142c792d75f2"},"vehicle_type_id":"4","last_reported":1769745535,"current_range_meters":5600,"station_id":"ce4bhlp2rcd13ifvqgjg","pricing_plan_id":"cebpf4jnsgd1na2vs0mg"},{"bike_id":"abe7cc03-c298-497f-8503-33c7408838b9","system_id":"levelo_inurba_marseille","lat":43.27943,"lon":5.41036,"is_reserved":false,"is_disabled":false,"rental_uris":{"android":"levelo://app?vid=abe7cc03-c298-497f-8503-33c7408838b9","ios":"levelo://app?vid=abe7cc03-c298-497f-8503-33c7408838b9"},"vehicle_type_id":"4","last_reported":1769745535,"current_range_meters":5600,"station_id":"ce4bhnp2rcd13ifvqh0g","pricing_plan_id":"cebpf4jnsgd1na2vs0mg"},{"bike_id":"2d655a97-bd06-49e9-b2b4-efa072ca5fda","system_id":"levelo_inurba_marseille","lat":43.3212,"lon":5.36783,"is_reserved":false,"is_disabled":false,"rental_uris":{"android":"levelo://app?vid=2d655a97-bd06-49e9-b2b4-efa072ca5fda","ios":"levelo://app?vid=2d655a97-bd06-49e9-b2b4-efa072ca5fda"},"vehicle_type_id":"4","last_reported":1769745535,"current_range_meters":5600,"station_id":"ce4bhrh2rcd13ifvqhug","pricing_plan_id":"cebpf4jnsgd1na2vs0mg"},{"bike_id":"9b2471fc-2002-4d75-8e8c-b4771360ae6c","system_id":"levelo_inurba_marseille","lat":43.313281,"lon":5.396904,"is_reserved":false,"is_disabled":false,"rental_uris":{"android":"levelo://app?vid=9b2471fc-2002-4d75-8e8c-b4771360ae6c","ios":"levelo://app?vid=9b2471fc-2002-4d75-8e8c-b4771360ae6c"},"vehicle_type_id":"4","last_reported":1769745535,"current_range_meters":5600,"station_id":"ce4bgvp2rcd13ifvqcu0","pricing_plan_id":"cebpf4jnsgd1na2vs0mg"},{"bike_id":"ae2bd00b-86f2-42b9-8e4e-3fa74e019d82","system_id":"levelo_inurba_marseille","lat":43.23185,"lon":5.39975,"is_reserved":false,"is_disabled":false,"rental_uris":{"android":"levelo://app?vid=ae2bd00b-86f2-42b9-8e4e-3fa74e019d82","ios":"levelo://app?vid=ae2bd00b-86f2-42b9-8e4e-3fa74e019d82"},"vehicle_type_id":"4","last_reported":1769745535,"current_range_meters":5600,"station_id":"ce4bhn12rcd13ifvqgqg","pricing_plan_id":"cebpf4jnsgd1na2vs0mg"},{"bike_id":"a2920a45-72fb-4a3b-8912-148f25a2a013","system_id":"levelo_inurba_marseille","lat":43.31177,"lon":5.38718,"is_reserved":false,"is_disabled":false,"rental_uris":{"android":"levelo://app?vid=a2920a45-72fb-4a3b-8912-148f25a2a013","ios":"levelo://app?vid=a2920a45-72fb-4a3b-8912-148f25a2a013"},"vehicle_type_id":"4","last_reported":1769745535,"current_range_meters":5600,"station_id":"ce4bgv12rcd13ifvqcp0","pricing_plan_id":"cebpf4jnsgd1na2vs0mg"},{"bike_id":"2dbd219e-d121-42ae-9a81-54d58e6bfb20","system_id":"levelo_inurba_marseille","lat":43.24826,"lon":5.37458,"is_reserved":false,"is_disabled":false,"rental_uris":{"android":"levelo://app?vid=2dbd219e-d121-42ae-9a81-54d58e6bfb20","ios":"levelo://app?vid=2dbd219e-d121-42ae-9a81-54d58e6bfb20"},"vehicle_type_id":"4","last_reported":1769745535,"current_range_meters":5600,"station_id":"ce4bhgh2rcd13ifvqfb0","pricing_plan_id":"cebpf4jnsgd1na2vs0mg"},{"bike_id":"39753960-3c7e-4e4a-acb2-25c74c17dd07","system_id":"levelo_inurba_marseille","lat":43.22933,"lon":5.35377,"is_reserved":false,"is_disabled":false,"rental_uris":{"android":"levelo://app?vid=39753960-3c7e-4e4a-acb2-25c74c17dd07","ios":"levelo://app?vid=39753960-3c7e-4e4a-acb2-25c74c17dd07"},"vehicle_type_id":"4","last_reported":1769745535,"current_range_meters":5600,"station_id":"cpo3532slgdg3j2ikp40","pricing_plan_id":"cebpf4jnsgd1na2vs0mg"},{"bike_id":"4bd6cb39-f26e-431f-9c48-bc9838a79167","system_id":"levelo_inurba_marseille","lat":43.29809,"lon":5.44063,"is_reserved":false,"is_disabled":false,"rental_uris":{"android":"levelo://app?vid=4bd6cb39-f26e-431f-9c48-bc9838a79167","ios":"levelo://app?vid=4bd6cb39-f26e-431f-9c48-bc9838a79167"},"vehicle_type_id":"4","last_reported":1769745535,"current_range_meters":5600,"station_id":"st_d3jp68qikq2c7381ktn0","pricing_plan_id":"cebpf4jnsgd1na2vs0mg"},{"bike_id":"3c0a4f5b-f91e-4c02-ae6d-858f0316e6f4","system_id":"levelo_inurba_marseille","lat":43.276627,"lon":5.389291,"is_reserved":false,"is_disabled":false,"rental_uris":{"android":"levelo://app?vid=3c0a4f5b-f91e-4c02-ae6d-858f0316e6f4","ios":"levelo://app?vid=3c0a4f5b-f91e-4c02-ae6d-858f0316e6f4"},"vehicle_type_id":"4","last_reported":1769745535,"current_range_meters":6000,"station_id":"ce4bhi12rcd13ifvqfo0","pricing_plan_id":"cebpf4jnsgd1na2vs0mg"},{"bike_id":"9352a26f-52ae-4722-9964-1e4d58412b67","system_id":"levelo_inurba_marseille","lat":43.255754,"lon":5.382396,"is_reserved":false,"is_disabled":false,"rental_uris":{"android":"levelo://app?vid=9352a26f-52ae-4722-9964-1e4d58412b67","ios":"levelo://app?vid=9352a26f-52ae-4722-9964-1e4d58412b67"},"vehicle_type_id":"4","last_reported":1769745535,"current_range_meters":6000,"station_id":"ce4bhih2rcd13ifvqfs0","pricing_plan_id":"cebpf4jnsgd1na2vs0mg"},{"bike_id":"aa753bb7-bd6b-47c5-ab34-4be181563e55","system_id":"levelo_inurba_marseille","lat":43.31044,"lon":5.37186,"is_reserved":false,"is_disabled":false,"rental_uris":{"android":"levelo://app?vid=aa753bb7-bd6b-47c5-ab34-4be181563e55","ios":"levelo://app?vid=aa753bb7-bd6b-47c5-ab34-4be181563e55"},"vehicle_type_id":"4","last_reported":1769745535,"current_range_meters":6000,"station_id":"st_d4kl2rp97mjs73e7tdfg","pricing_plan_id":"cebpf4jnsgd1na2vs0mg"},{"bike_id":"23a98d8d-1317-4cd5-a3c3-43670104b107","system_id":"levelo_inurba_marseille","lat":43.29971,"lon":5.38496,"is_reserved":false,"is_disabled":true,"rental_uris":{"android":"levelo://app?vid=23a98d8d-1317-4cd5-a3c3-43670104b107","ios":"levelo://app?vid=23a98d8d-1317-4cd5-a3c3-43670104b107"},"vehicle_type_id":"4","last_reported":1769745535,"current_range_meters":6000,"station_id":"ce4bgj92rcd13ifvqbd0","pricing_plan_id":"cebpf4jnsgd1na2vs0mg"},{"bike_id":"d293ee60-603e-4927-87b9-8e9083743ce8","system_id":"levelo_inurba_marseille","lat":43.324789,"lon":5.365648,"is_reserved":false,"is_disabled":false,"rental_uris":{"android":"levelo://app?vid=d293ee60-603e-4927-87b9-8e9083743ce8","ios":"levelo://app?vid=d293ee60-603e-4927-87b9-8e9083743ce8"},"vehicle_type_id":"4","last_reported":1769745535,"current_range_meters":6000,"station_id":"ce4bhs12rcd13ifvqhvg","pricing_plan_id":"cebpf4jnsgd1na2vs0mg"},{"bike_id":"9aa2dd1d-01c2-4ec2-90e8-325aed1a45f8","system_id":"levelo_inurba_marseille","lat":43.31993,"lon":5.38133,"is_reserved":false,"is_disabled":false,"rental_uris":{"android":"levelo://app?vid=9aa2dd1d-01c2-4ec2-90e8-325aed1a45f8","ios":"levelo://app?vid=9aa2dd1d-01c2-4ec2-90e8-325aed1a45f8"},"vehicle_type_id":"4","last_reported":1769745535,"current_range_meters":6000,"station_id":"ce4bhr12rcd13ifvqhpg","pricing_plan_id":"cebpf4jnsgd1na2vs0mg"},{"bike_id":"5db094de-6a86-436e-8c6e-f8afae445efb","system_id":"levelo_inurba_marseille","lat":43.28543,"lon":5.44089,"is_reserved":false,"is_disabled":false,"rental_uris":{"android":"levelo://app?vid=5db094de-6a86-436e-8c6e-f8afae445efb","ios":"levelo://app?vid=5db094de-6a86-436e-8c6e-f8afae445efb"},"vehicle_type_id":"4","last_reported":1769745535,"current_range_meters":6000,"station_id":"st_d3j3df2ikq2c7380ej80","pricing_plan_id":"cebpf4jnsgd1na2vs0mg"},{"bike_id":"685fec42-8973-4b39-b9d6-6eb94a0e0c7a","system_id":"levelo_inurba_marseille","lat":43.25582,"lon":5.38251,"is_reserved":false,"is_disabled":false,"rental_uris":{"android":"levelo://app?vid=685fec42-8973-4b39-b9d6-6eb94a0e0c7a","ios":"levelo://app?vid=685fec42-8973-4b39-b9d6-6eb94a0e0c7a"},"vehicle_type_id":"4","last_reported":1769745535,"current_range_meters":6000,"station_id":"ce4bhih2rcd13ifvqfs0","pricing_plan_id":"cebpf4jnsgd1na2vs0mg"},{"bike_id":"599999c0-44e2-4e20-bbb6-92da8c472c7b","system_id":"levelo_inurba_marseille","lat":43.279,"lon":5.37992,"is_reserved":false,"is_disabled":false,"rental_uris":{"android":"levelo://app?vid=599999c0-44e2-4e20-bbb6-92da8c472c7b","ios":"levelo://app?vid=599999c0-44e2-4e20-bbb6-92da8c472c7b"},"vehicle_type_id":"4","last_reported":1769745535,"current_range_meters":6000,"station_id":"ce4bhf92rcd13ifvqf50","pricing_plan_id":"cebpf4jnsgd1na2vs0mg"},{"bike_id":"6b6a9436-b9c6-4ff1-b0b1-0ef3e6674882","system_id":"levelo_inurba_marseille","lat":43.292799,"lon":5.368405,"is_reserved":false,"is_disabled":false,"rental_uris":{"android":"levelo://app?vid=6b6a9436-b9c6-4ff1-b0b1-0ef3e6674882","ios":"levelo://app?vid=6b6a9436-b9c6-4ff1-b0b1-0ef3e6674882"},"vehicle_type_id":"4","last_reported":1769745535,"current_range_meters":6000,"station_id":"ce4bhbp2rcd13ifvqesg","pricing_plan_id":"cebpf4jnsgd1na2vs0mg"},{"bike_id":"4ad3a127-253b-4106-9655-ceeb51cd9831","system_id":"levelo_inurba_marseille","lat":43.23783,"lon":5.36634,"is_reserved":false,"is_disabled":false,"rental_uris":{"android":"levelo://app?vid=4ad3a127-253b-4106-9655-ceeb51cd9831","ios":"levelo://app?vid=4ad3a127-253b-4106-9655-ceeb51cd9831"},"vehicle_type_id":"4","last_reported":1769745535,"current_range_meters":6000,"station_id":"st_d3nk18o9ro0c73en2l3g","pricing_plan_id":"cebpf4jnsgd1na2vs0mg"},{"bike_id":"b41b4f1e-5e82-474d-88e0-8a753992949d","system_id":"levelo_inurba_marseille","lat":43.25929,"lon":5.409,"is_reserved":false,"is_disabled":false,"rental_uris":{"android":"levelo://app?vid=b41b4f1e-5e82-474d-88e0-8a753992949d","ios":"levelo://app?vid=b41b4f1e-5e82-474d-88e0-8a753992949d"},"vehicle_type_id":"4","last_reported":1769745535,"current_range_meters":6000,"station_id":"ce4bhm92rcd13ifvqglg","pricing_plan_id":"cebpf4jnsgd1na2vs0mg"},{"bike_id":"8124257b-86e4-4773-9928-40b9e517b1e7","system_id":"levelo_inurba_marseille","lat":43.24482,"lon":5.42529,"is_reserved":false,"is_disabled":false,"rental_uris":{"android":"levelo://app?vid=8124257b-86e4-4773-9928-40b9e517b1e7","ios":"levelo://app?vid=8124257b-86e4-4773-9928-40b9e517b1e7"},"vehicle_type_id":"4","last_reported":1769745535,"current_range_meters":6400,"station_id":"st_d4a3vfp97mjs738cd8kg","pricing_plan_id":"cebpf4jnsgd1na2vs0mg"},{"bike_id":"7b6d8a8b-d351-4282-bf84-c6e7865bd8af","system_id":"levelo_inurba_marseille","lat":43.24641,"lon":5.38904,"is_reserved":false,"is_disabled":false,"rental_uris":{"android":"levelo://app?vid=7b6d8a8b-d351-4282-bf84-c6e7865bd8af","ios":"levelo://app?vid=7b6d8a8b-d351-4282-bf84-c6e7865bd8af"},"vehicle_type_id":"4","last_reported":1769745535,"current_range_meters":6400,"station_id":"ce4bhg12rcd13ifvqf60","pricing_plan_id":"cebpf4jnsgd1na2vs0mg"},{"bike_id":"82693396-ff61-48ee-9772-fee51d6503d4","system_id":"levelo_inurba_marseille","lat":43.29552,"lon":5.42278,"is_reserved":false,"is_disabled":false,"rental_uris":{"android":"levelo://app?vid=82693396-ff61-48ee-9772-fee51d6503d4","ios":"levelo://app?vid=82693396-ff61-48ee-9772-fee51d6503d4"},"vehicle_type_id":"4","last_reported":1769745535,"current_range_meters":6400,"station_id":"ce4bhph2rcd13ifvqhdg","pricing_plan_id":"cebpf4jnsgd1na2vs0mg"},{"bike_id":"0113fde2-16ba-483c-9656-720494edd7bf","system_id":"levelo_inurba_marseille","lat":43.23154,"lon":5.43716,"is_reserved":false,"is_disabled":false,"rental_uris":{"android":"levelo://app?vid=0113fde2-16ba-483c-9656-720494edd7bf","ios":"levelo://app?vid=0113fde2-16ba-483c-9656-720494edd7bf"},"vehicle_type_id":"4","last_reported":1769745535,"current_range_meters":6400,"station_id":"ce4bhmp2rcd13ifvqgog","pricing_plan_id":"cebpf4jnsgd1na2vs0mg"},{"bike_id":"1f9629b9-b1e9-492f-9836-3e9637986099","system_id":"levelo_inurba_marseille","lat":43.29572,"lon":5.39971,"is_reserved":false,"is_disabled":false,"rental_uris":{"android":"levelo://app?vid=1f9629b9-b1e9-492f-9836-3e9637986099","ios":"levelo://app?vid=1f9629b9-b1e9-492f-9836-3e9637986099"},"vehicle_type_id":"4","last_reported":1769745535,"current_range_meters":6400,"station_id":"ce4bh312rcd13ifvqdj0","pricing_plan_id":"cebpf4jnsgd1na2vs0mg"},{"bike_id":"6a0e40e4-3258-4516-885d-71d0968e64ad","system_id":"levelo_inurba_marseille","lat":43.23061,"lon":5.35493,"is_reserved":false,"is_disabled":false,"rental_uris":{"android":"levelo://app?vid=6a0e40e4-3258-4516-885d-71d0968e64ad","ios":"levelo://app?vid=6a0e40e4-3258-4516-885d-71d0968e64ad"},"vehicle_type_id":"4","last_reported":1769745535,"current_range_meters":6400,"station_id":"cpo3342slgdg3j2ifvpg","pricing_plan_id":"cebpf4jnsgd1na2vs0mg"},{"bike_id":"0edb73c2-0d71-41ef-92a0-39c6197600e4","system_id":"levelo_inurba_marseille","lat":43.27049,"lon":5.38274,"is_reserved":false,"is_disabled":false,"rental_uris":{"android":"levelo://app?vid=0edb73c2-0d71-41ef-92a0-39c6197600e4","ios":"levelo://app?vid=0edb73c2-0d71-41ef-92a0-39c6197600e4"},"vehicle_type_id":"4","last_reported":1769745535,"current_range_meters":6400,"station_id":"st_d3n2fo6cfp8s73cte1j0","pricing_plan_id":"cebpf4jnsgd1na2vs0mg"},{"bike_id":"52c6363b-7413-4b9d-a19e-fd2102af5421","system_id":"levelo_inurba_marseille","lat":43.26566,"lon":5.40328,"is_reserved":false,"is_disabled":false,"rental_uris":{"android":"levelo://app?vid=52c6363b-7413-4b9d-a19e-fd2102af5421","ios":"levelo://app?vid=52c6363b-7413-4b9d-a19e-fd2102af5421"},"vehicle_type_id":"4","last_reported":1769745535,"current_range_meters":6400,"station_id":"ce4bhmp2rcd13ifvqgng","pricing_plan_id":"cebpf4jnsgd1na2vs0mg"},{"bike_id":"71ea06b7-46c1-4fc9-a594-153d92364656","system_id":"levelo_inurba_marseille","lat":43.30729,"lon":5.40961,"is_reserved":false,"is_disabled":false,"rental_uris":{"android":"levelo://app?vid=71ea06b7-46c1-4fc9-a594-153d92364656","ios":"levelo://app?vid=71ea06b7-46c1-4fc9-a594-153d92364656"},"vehicle_type_id":"4","last_reported":1769745535,"current_range_meters":6400,"station_id":"","pricing_plan_id":"cebpf4jnsgd1na2vs0mg"},{"bike_id":"d20f23b7-dbe0-465e-aae1-4805cccc851e","system_id":"levelo_inurba_marseille","lat":43.301464,"lon":5.380839,"is_reserved":false,"is_disabled":false,"rental_uris":{"android":"levelo://app?vid=d20f23b7-dbe0-465e-aae1-4805cccc851e","ios":"levelo://app?vid=d20f23b7-dbe0-465e-aae1-4805cccc851e"},"vehicle_type_id":"4","last_reported":1769745535,"current_range_meters":6400,"station_id":"ce4bgjp2rcd13ifvqbh0","pricing_plan_id":"cebpf4jnsgd1na2vs0mg"},{"bike_id":"25a9226a-9193-4bb4-8ad1-0a617754bee3","system_id":"levelo_inurba_marseille","lat":43.28533,"lon":5.44091,"is_reserved":false,"is_disabled":true,"rental_uris":{"android":"levelo://app?vid=25a9226a-9193-4bb4-8ad1-0a617754bee3","ios":"levelo://app?vid=25a9226a-9193-4bb4-8ad1-0a617754bee3"},"vehicle_type_id":"4","last_reported":1769745535,"current_range_meters":6400,"station_id":"","pricing_plan_id":"cebpf4jnsgd1na2vs0mg"},{"bike_id":"92cb781a-00de-4844-b5f8-df61aa7114a6","system_id":"levelo_inurba_marseille","lat":43.28105,"lon":5.37849,"is_reserved":false,"is_disabled":true,"rental_uris":{"android":"levelo://app?vid=92cb781a-00de-4844-b5f8-df61aa7114a6","ios":"levelo://app?vid=92cb781a-00de-4844-b5f8-df61aa7114a6"},"vehicle_type_id":"4","last_reported":1769745535,"current_range_meters":6400,"station_id":"ce4bha12rcd13ifvqee0","pricing_plan_id":"cebpf4jnsgd1na2vs0mg"},{"bike_id":"8bd2dedc-53b6-4a9b-b341-e8ab2dec2237","system_id":"levelo_inurba_marseille","lat":43.24631,"lon":5.43144,"is_reserved":false,"is_disabled":false,"rental_uris":{"android":"levelo://app?vid=8bd2dedc-53b6-4a9b-b341-e8ab2dec2237","ios":"levelo://app?vid=8bd2dedc-53b6-4a9b-b341-e8ab2dec2237"},"vehicle_type_id":"4","last_reported":1769745535,"current_range_meters":6400,"station_id":"st_d2m6c4gdas8pm72e190g","pricing_plan_id":"cebpf4jnsgd1na2vs0mg"},{"bike_id":"16eec0d8-2b78-4ef3-ba46-5e377e155cae","system_id":"levelo_inurba_marseille","lat":43.31172,"lon":5.38713,"is_reserved":false,"is_disabled":false,"rental_uris":{"android":"levelo://app?vid=16eec0d8-2b78-4ef3-ba46-5e377e155cae","ios":"levelo://app?vid=16eec0d8-2b78-4ef3-ba46-5e377e155cae"},"vehicle_type_id":"4","last_reported":1769745535,"current_range_meters":6800,"station_id":"ce4bgv12rcd13ifvqcp0","pricing_plan_id":"cebpf4jnsgd1na2vs0mg"},{"bike_id":"83fc5387-9bd8-4dec-804d-abfa877a86a6","system_id":"levelo_inurba_marseille","lat":43.29816,"lon":5.44071,"is_reserved":false,"is_disabled":false,"rental_uris":{"android":"levelo://app?vid=83fc5387-9bd8-4dec-804d-abfa877a86a6","ios":"levelo://app?vid=83fc5387-9bd8-4dec-804d-abfa877a86a6"},"vehicle_type_id":"4","last_reported":1769745535,"current_range_meters":6800,"station_id":"st_d3jp68qikq2c7381ktn0","pricing_plan_id":"cebpf4jnsgd1na2vs0mg"},{"bike_id":"433c2006-051f-4d4c-bf5b-37c8e55d8b97","system_id":"levelo_inurba_marseille","lat":43.31183,"lon":5.38713,"is_reserved":false,"is_disabled":false,"rental_uris":{"android":"levelo://app?vid=433c2006-051f-4d4c-bf5b-37c8e55d8b97","ios":"levelo://app?vid=433c2006-051f-4d4c-bf5b-37c8e55d8b97"},"vehicle_type_id":"4","last_reported":1769745535,"current_range_meters":6800,"station_id":"ce4bgv12rcd13ifvqcp0","pricing_plan_id":"cebpf4jnsgd1na2vs0mg"},{"bike_id":"d9b6343b-4e87-445f-8063-2fce9657168c","system_id":"levelo_inurba_marseille","lat":43.30364,"lon":5.37584,"is_reserved":false,"is_disabled":false,"rental_uris":{"android":"levelo://app?vid=d9b6343b-4e87-445f-8063-2fce9657168c","ios":"levelo://app?vid=d9b6343b-4e87-445f-8063-2fce9657168c"},"vehicle_type_id":"4","last_reported":1769745535,"current_range_meters":6800,"station_id":"","pricing_plan_id":"cebpf4jnsgd1na2vs0mg"},{"bike_id":"a3b12526-9548-4f69-9028-2c2743ebeb44","system_id":"levelo_inurba_marseille","lat":43.28613,"lon":5.3989,"is_reserved":false,"is_disabled":false,"rental_uris":{"android":"levelo://app?vid=a3b12526-9548-4f69-9028-2c2743ebeb44","ios":"levelo://app?vid=a3b12526-9548-4f69-9028-2c2743ebeb44"},"vehicle_type_id":"4","last_reported":1769745535,"current_range_meters":6800,"station_id":"st_d4a7ka997mjs738ck50g","pricing_plan_id":"cebpf4jnsgd1na2vs0mg"},{"bike_id":"a0074033-3d86-4c8d-9129-d78ccabc54da","system_id":"levelo_inurba_marseille","lat":43.31164,"lon":5.387162,"is_reserved":false,"is_disabled":false,"rental_uris":{"android":"levelo://app?vid=a0074033-3d86-4c8d-9129-d78ccabc54da","ios":"levelo://app?vid=a0074033-3d86-4c8d-9129-d78ccabc54da"},"vehicle_type_id":"4","last_reported":1769745535,"current_range_meters":6800,"station_id":"ce4bgv12rcd13ifvqcp0","pricing_plan_id":"cebpf4jnsgd1na2vs0mg"},{"bike_id":"1e1b2d31-1295-4191-9d05-650830a76117","system_id":"levelo_inurba_marseille","lat":43.30144,"lon":5.415102,"is_reserved":false,"is_disabled":false,"rental_uris":{"android":"levelo://app?vid=1e1b2d31-1295-4191-9d05-650830a76117","ios":"levelo://app?vid=1e1b2d31-1295-4191-9d05-650830a76117"},"vehicle_type_id":"4","last_reported":1769745535,"current_range_meters":6800,"station_id":"","pricing_plan_id":"cebpf4jnsgd1na2vs0mg"},{"bike_id":"d08ad747-e8dd-4a39-990c-56de807eb318","system_id":"levelo_inurba_marseille","lat":43.26557,"lon":5.40322,"is_reserved":false,"is_disabled":false,"rental_uris":{"android":"levelo://app?vid=d08ad747-e8dd-4a39-990c-56de807eb318","ios":"levelo://app?vid=d08ad747-e8dd-4a39-990c-56de807eb318"},"vehicle_type_id":"4","last_reported":1769745535,"current_range_meters":6800,"station_id":"ce4bhmp2rcd13ifvqgng","pricing_plan_id":"cebpf4jnsgd1na2vs0mg"},{"bike_id":"4621b5d8-b670-4894-919f-ef2603f0ee9e","system_id":"levelo_inurba_marseille","lat":43.24955,"lon":5.40492,"is_reserved":false,"is_disabled":false,"rental_uris":{"android":"levelo://app?vid=4621b5d8-b670-4894-919f-ef2603f0ee9e","ios":"levelo://app?vid=4621b5d8-b670-4894-919f-ef2603f0ee9e"},"vehicle_type_id":"4","last_reported":1769745535,"current_range_meters":6800,"station_id":"st_d2ngiaodas8pm72gd1h0","pricing_plan_id":"cebpf4jnsgd1na2vs0mg"},{"bike_id":"299d191a-d367-49a8-bf6a-88a970253a1c","system_id":"levelo_inurba_marseille","lat":43.24663,"lon":5.38142,"is_reserved":false,"is_disabled":false,"rental_uris":{"android":"levelo://app?vid=299d191a-d367-49a8-bf6a-88a970253a1c","ios":"levelo://app?vid=299d191a-d367-49a8-bf6a-88a970253a1c"},"vehicle_type_id":"4","last_reported":1769745535,"current_range_meters":6800,"station_id":"ce4bhih2rcd13ifvqfr0","pricing_plan_id":"cebpf4jnsgd1na2vs0mg"},{"bike_id":"8562c4a5-d0ea-42f6-9a8c-79a9393316a5","system_id":"levelo_inurba_marseille","lat":43.24666,"lon":5.38144,"is_reserved":false,"is_disabled":false,"rental_uris":{"android":"levelo://app?vid=8562c4a5-d0ea-42f6-9a8c-79a9393316a5","ios":"levelo://app?vid=8562c4a5-d0ea-42f6-9a8c-79a9393316a5"},"vehicle_type_id":"4","last_reported":1769745535,"current_range_meters":6800,"station_id":"ce4bhih2rcd13ifvqfr0","pricing_plan_id":"cebpf4jnsgd1na2vs0mg"},{"bike_id":"cfb3d226-45e5-4e73-97c6-1557047706dc","system_id":"levelo_inurba_marseille","lat":43.30421,"lon":5.39762,"is_reserved":false,"is_disabled":false,"rental_uris":{"android":"levelo://app?vid=cfb3d226-45e5-4e73-97c6-1557047706dc","ios":"levelo://app?vid=cfb3d226-45e5-4e73-97c6-1557047706dc"},"vehicle_type_id":"4","last_reported":1769745535,"current_range_meters":6800,"station_id":"ce4bh092rcd13ifvqd20","pricing_plan_id":"cebpf4jnsgd1na2vs0mg"},{"bike_id":"f479a039-8033-47b9-816f-8d6e23143401","system_id":"levelo_inurba_marseille","lat":43.2482,"lon":5.37429,"is_reserved":false,"is_disabled":false,"rental_uris":{"android":"levelo://app?vid=f479a039-8033-47b9-816f-8d6e23143401","ios":"levelo://app?vid=f479a039-8033-47b9-816f-8d6e23143401"},"vehicle_type_id":"4","last_reported":1769745535,"current_range_meters":6800,"station_id":"ce4bhgh2rcd13ifvqfb0","pricing_plan_id":"cebpf4jnsgd1na2vs0mg"},{"bike_id":"c4594e51-feb8-499c-8c8c-5864687750d8","system_id":"levelo_inurba_marseille","lat":43.27206,"lon":5.39184,"is_reserved":false,"is_disabled":false,"rental_uris":{"android":"levelo://app?vid=c4594e51-feb8-499c-8c8c-5864687750d8","ios":"levelo://app?vid=c4594e51-feb8-499c-8c8c-5864687750d8"},"vehicle_type_id":"4","last_reported":1769745535,"current_range_meters":6800,"station_id":"ce4bhhp2rcd13ifvqfm0","pricing_plan_id":"cebpf4jnsgd1na2vs0mg"},{"bike_id":"e04521ca-ce5b-4911-93eb-efa07b2cc503","system_id":"levelo_inurba_marseille","lat":43.29504,"lon":5.43332,"is_reserved":false,"is_disabled":false,"rental_uris":{"android":"levelo://app?vid=e04521ca-ce5b-4911-93eb-efa07b2cc503","ios":"levelo://app?vid=e04521ca-ce5b-4911-93eb-efa07b2cc503"},"vehicle_type_id":"4","last_reported":1769745535,"current_range_meters":6800,"station_id":"st_d3j5ugp08ojc73fj9d10","pricing_plan_id":"cebpf4jnsgd1na2vs0mg"},{"bike_id":"51a381d7-92b7-404a-b0f5-2fffa4e9a87f","system_id":"levelo_inurba_marseille","lat":43.30427,"lon":5.38881,"is_reserved":false,"is_disabled":false,"rental_uris":{"android":"levelo://app?vid=51a381d7-92b7-404a-b0f5-2fffa4e9a87f","ios":"levelo://app?vid=51a381d7-92b7-404a-b0f5-2fffa4e9a87f"},"vehicle_type_id":"4","last_reported":1769745535,"current_range_meters":6800,"station_id":"ce4bgk12rcd13ifvqbi0","pricing_plan_id":"cebpf4jnsgd1na2vs0mg"},{"bike_id":"1df32dff-5611-415d-8fae-817c467a81ff","system_id":"levelo_inurba_marseille","lat":43.23058,"lon":5.35501,"is_reserved":false,"is_disabled":false,"rental_uris":{"android":"levelo://app?vid=1df32dff-5611-415d-8fae-817c467a81ff","ios":"levelo://app?vid=1df32dff-5611-415d-8fae-817c467a81ff"},"vehicle_type_id":"4","last_reported":1769745535,"current_range_meters":6800,"station_id":"cpo3342slgdg3j2ifvpg","pricing_plan_id":"cebpf4jnsgd1na2vs0mg"},{"bike_id":"3205988f-0233-437d-854f-d66b3762658c","system_id":"levelo_inurba_marseille","lat":43.28607,"lon":5.35106,"is_reserved":false,"is_disabled":false,"rental_uris":{"android":"levelo://app?vid=3205988f-0233-437d-854f-d66b3762658c","ios":"levelo://app?vid=3205988f-0233-437d-854f-d66b3762658c"},"vehicle_type_id":"4","last_reported":1769745535,"current_range_meters":6800,"station_id":"ce4bhch2rcd13ifvqeug","pricing_plan_id":"cebpf4jnsgd1na2vs0mg"},{"bike_id":"6f2111dd-6b6a-402c-9729-62f7313dcc5e","system_id":"levelo_inurba_marseille","lat":43.323524,"lon":5.367517,"is_reserved":false,"is_disabled":false,"rental_uris":{"android":"levelo://app?vid=6f2111dd-6b6a-402c-9729-62f7313dcc5e","ios":"levelo://app?vid=6f2111dd-6b6a-402c-9729-62f7313dcc5e"},"vehicle_type_id":"4","last_reported":1769745535,"current_range_meters":7200,"station_id":"ce4bhsh2rcd13ifvqi2g","pricing_plan_id":"cebpf4jnsgd1na2vs0mg"},{"bike_id":"ef68bdf9-fa71-483b-bc99-7f9581830aca","system_id":"levelo_inurba_marseille","lat":43.30585,"lon":5.36737,"is_reserved":false,"is_disabled":false,"rental_uris":{"android":"levelo://app?vid=ef68bdf9-fa71-483b-bc99-7f9581830aca","ios":"levelo://app?vid=ef68bdf9-fa71-483b-bc99-7f9581830aca"},"vehicle_type_id":"4","last_reported":1769745535,"current_range_meters":7200,"station_id":"","pricing_plan_id":"cebpf4jnsgd1na2vs0mg"},{"bike_id":"d4b6a383-5137-4384-9366-0efd250f2656","system_id":"levelo_inurba_marseille","lat":43.268063,"lon":5.402646,"is_reserved":false,"is_disabled":false,"rental_uris":{"android":"levelo://app?vid=d4b6a383-5137-4384-9366-0efd250f2656","ios":"levelo://app?vid=d4b6a383-5137-4384-9366-0efd250f2656"},"vehicle_type_id":"4","last_reported":1769745535,"current_range_meters":7200,"station_id":"ce501612rcd8frsf0b60","pricing_plan_id":"cebpf4jnsgd1na2vs0mg"},{"bike_id":"bd889336-68ff-4f09-8c88-588306cf9fc6","system_id":"levelo_inurba_marseille","lat":43.27053,"lon":5.40308,"is_reserved":false,"is_disabled":false,"rental_uris":{"android":"levelo://app?vid=bd889336-68ff-4f09-8c88-588306cf9fc6","ios":"levelo://app?vid=bd889336-68ff-4f09-8c88-588306cf9fc6"},"vehicle_type_id":"4","last_reported":1769745535,"current_range_meters":7200,"station_id":"ce4bhk92rcd13ifvqgc0","pricing_plan_id":"cebpf4jnsgd1na2vs0mg"},{"bike_id":"1440a1fd-c02e-49b3-95e7-8bbcddadff1d","system_id":"levelo_inurba_marseille","lat":43.24394,"lon":5.37055,"is_reserved":false,"is_disabled":false,"rental_uris":{"android":"levelo://app?vid=1440a1fd-c02e-49b3-95e7-8bbcddadff1d","ios":"levelo://app?vid=1440a1fd-c02e-49b3-95e7-8bbcddadff1d"},"vehicle_type_id":"4","last_reported":1769745535,"current_range_meters":7200,"station_id":"ce4bhhh2rcd13ifvqfk0","pricing_plan_id":"cebpf4jnsgd1na2vs0mg"},{"bike_id":"f0c715db-ed77-40ba-b77e-d8f24e91b9c9","system_id":"levelo_inurba_marseille","lat":43.23964,"lon":5.36623,"is_reserved":false,"is_disabled":false,"rental_uris":{"android":"levelo://app?vid=f0c715db-ed77-40ba-b77e-d8f24e91b9c9","ios":"levelo://app?vid=f0c715db-ed77-40ba-b77e-d8f24e91b9c9"},"vehicle_type_id":"4","last_reported":1769745535,"current_range_meters":7200,"station_id":"ce4bhi12rcd13ifvqfp0","pricing_plan_id":"cebpf4jnsgd1na2vs0mg"},{"bike_id":"5417ecf1-5c28-449a-a086-27acd88e9f4e","system_id":"levelo_inurba_marseille","lat":43.21194,"lon":5.35078,"is_reserved":false,"is_disabled":false,"rental_uris":{"android":"levelo://app?vid=5417ecf1-5c28-449a-a086-27acd88e9f4e","ios":"levelo://app?vid=5417ecf1-5c28-449a-a086-27acd88e9f4e"},"vehicle_type_id":"4","last_reported":1769745535,"current_range_meters":7200,"station_id":"st_cvj6sg6p6f1abm77japg","pricing_plan_id":"cebpf4jnsgd1na2vs0mg"},{"bike_id":"7a4412cf-c498-4121-be46-049419c026d4","system_id":"levelo_inurba_marseille","lat":43.27947,"lon":5.41036,"is_reserved":false,"is_disabled":false,"rental_uris":{"android":"levelo://app?vid=7a4412cf-c498-4121-be46-049419c026d4","ios":"levelo://app?vid=7a4412cf-c498-4121-be46-049419c026d4"},"vehicle_type_id":"4","last_reported":1769745535,"current_range_meters":7200,"station_id":"ce4bhnp2rcd13ifvqh0g","pricing_plan_id":"cebpf4jnsgd1na2vs0mg"},{"bike_id":"83bbeac1-b4c2-4835-91cb-013728be84c8","system_id":"levelo_inurba_marseille","lat":43.29936,"lon":5.39088,"is_reserved":false,"is_disabled":true,"rental_uris":{"android":"levelo://app?vid=83bbeac1-b4c2-4835-91cb-013728be84c8","ios":"levelo://app?vid=83bbeac1-b4c2-4835-91cb-013728be84c8"},"vehicle_type_id":"4","last_reported":1769745535,"current_range_meters":7200,"station_id":"","pricing_plan_id":"cebpf4jnsgd1na2vs0mg"},{"bike_id":"972df753-a0e0-449a-8572-baee83590656","system_id":"levelo_inurba_marseille","lat":43.27676,"lon":5.38931,"is_reserved":false,"is_disabled":false,"rental_uris":{"android":"levelo://app?vid=972df753-a0e0-449a-8572-baee83590656","ios":"levelo://app?vid=972df753-a0e0-449a-8572-baee83590656"},"vehicle_type_id":"4","last_reported":1769745535,"current_range_meters":7200,"station_id":"ce4bhi12rcd13ifvqfo0","pricing_plan_id":"cebpf4jnsgd1na2vs0mg"},{"bike_id":"7008570a-4030-4a5c-bce0-6e90ab09f5fd","system_id":"levelo_inurba_marseille","lat":43.24677,"lon":5.38167,"is_reserved":false,"is_disabled":false,"rental_uris":{"android":"levelo://app?vid=7008570a-4030-4a5c-bce0-6e90ab09f5fd","ios":"levelo://app?vid=7008570a-4030-4a5c-bce0-6e90ab09f5fd"},"vehicle_type_id":"4","last_reported":1769745535,"current_range_meters":7200,"station_id":"ce4bhih2rcd13ifvqfr0","pricing_plan_id":"cebpf4jnsgd1na2vs0mg"},{"bike_id":"b93f36af-6012-4250-a69f-3de373ca3510","system_id":"levelo_inurba_marseille","lat":43.282739,"lon":5.350797,"is_reserved":false,"is_disabled":false,"rental_uris":{"android":"levelo://app?vid=b93f36af-6012-4250-a69f-3de373ca3510","ios":"levelo://app?vid=b93f36af-6012-4250-a69f-3de373ca3510"},"vehicle_type_id":"4","last_reported":1769745535,"current_range_meters":7200,"station_id":"ce4bhbp2rcd13ifvqerg","pricing_plan_id":"cebpf4jnsgd1na2vs0mg"},{"bike_id":"7714d863-1c60-4efa-a925-44984599d482","system_id":"levelo_inurba_marseille","lat":43.29758,"lon":5.42785,"is_reserved":false,"is_disabled":false,"rental_uris":{"android":"levelo://app?vid=7714d863-1c60-4efa-a925-44984599d482","ios":"levelo://app?vid=7714d863-1c60-4efa-a925-44984599d482"},"vehicle_type_id":"4","last_reported":1769745535,"current_range_meters":7200,"station_id":"st_d3md5207bmas73dh9klg","pricing_plan_id":"cebpf4jnsgd1na2vs0mg"},{"bike_id":"0760064b-5722-42a9-9948-586ac57aa647","system_id":"levelo_inurba_marseille","lat":43.24654,"lon":5.38891,"is_reserved":false,"is_disabled":false,"rental_uris":{"android":"levelo://app?vid=0760064b-5722-42a9-9948-586ac57aa647","ios":"levelo://app?vid=0760064b-5722-42a9-9948-586ac57aa647"},"vehicle_type_id":"4","last_reported":1769745535,"current_range_meters":7200,"station_id":"ce4bhg12rcd13ifvqf60","pricing_plan_id":"cebpf4jnsgd1na2vs0mg"},{"bike_id":"4ef5fc9c-c8d6-48d7-94a0-e86b57d76fb4","system_id":"levelo_inurba_marseille","lat":43.23155,"lon":5.4371,"is_reserved":false,"is_disabled":false,"rental_uris":{"android":"levelo://app?vid=4ef5fc9c-c8d6-48d7-94a0-e86b57d76fb4","ios":"levelo://app?vid=4ef5fc9c-c8d6-48d7-94a0-e86b57d76fb4"},"vehicle_type_id":"4","last_reported":1769745535,"current_range_meters":7200,"station_id":"ce4bhmp2rcd13ifvqgog","pricing_plan_id":"cebpf4jnsgd1na2vs0mg"},{"bike_id":"9d89f752-a814-49ba-97cf-0228f8aa1ae2","system_id":"levelo_inurba_marseille","lat":43.249489,"lon":5.404924,"is_reserved":false,"is_disabled":false,"rental_uris":{"android":"levelo://app?vid=9d89f752-a814-49ba-97cf-0228f8aa1ae2","ios":"levelo://app?vid=9d89f752-a814-49ba-97cf-0228f8aa1ae2"},"vehicle_type_id":"4","last_reported":1769745535,"current_range_meters":7200,"station_id":"st_d2ngiaodas8pm72gd1h0","pricing_plan_id":"cebpf4jnsgd1na2vs0mg"},{"bike_id":"5c1bebe8-43bf-476b-a01e-98bad8762f0c","system_id":"levelo_inurba_marseille","lat":43.24623,"lon":5.43162,"is_reserved":false,"is_disabled":false,"rental_uris":{"android":"levelo://app?vid=5c1bebe8-43bf-476b-a01e-98bad8762f0c","ios":"levelo://app?vid=5c1bebe8-43bf-476b-a01e-98bad8762f0c"},"vehicle_type_id":"4","last_reported":1769745535,"current_range_meters":7200,"station_id":"st_d2m6c4gdas8pm72e190g","pricing_plan_id":"cebpf4jnsgd1na2vs0mg"},{"bike_id":"73a6585c-b10e-4f79-a29b-c3e206c1ffc8","system_id":"levelo_inurba_marseille","lat":43.26943,"lon":5.40266,"is_reserved":false,"is_disabled":false,"rental_uris":{"android":"levelo://app?vid=73a6585c-b10e-4f79-a29b-c3e206c1ffc8","ios":"levelo://app?vid=73a6585c-b10e-4f79-a29b-c3e206c1ffc8"},"vehicle_type_id":"4","last_reported":1769745535,"current_range_meters":7200,"station_id":"cjm6bp8fraef2m0cb0m0","pricing_plan_id":"cebpf4jnsgd1na2vs0mg"},{"bike_id":"59ae0900-c855-4741-b5cf-c53827ed9733","system_id":"levelo_inurba_marseille","lat":43.24181,"lon":5.36372,"is_reserved":false,"is_disabled":false,"rental_uris":{"android":"levelo://app?vid=59ae0900-c855-4741-b5cf-c53827ed9733","ios":"levelo://app?vid=59ae0900-c855-4741-b5cf-c53827ed9733"},"vehicle_type_id":"4","last_reported":1769745535,"current_range_meters":7200,"station_id":"cpo36qri1sfpv3e86is0","pricing_plan_id":"cebpf4jnsgd1na2vs0mg"},{"bike_id":"51fee3c7-bed7-4dd4-b12f-0a709de27f27","system_id":"levelo_inurba_marseille","lat":43.28418,"lon":5.37526,"is_reserved":false,"is_disabled":false,"rental_uris":{"android":"levelo://app?vid=51fee3c7-bed7-4dd4-b12f-0a709de27f27","ios":"levelo://app?vid=51fee3c7-bed7-4dd4-b12f-0a709de27f27"},"vehicle_type_id":"4","last_reported":1769745535,"current_range_meters":7200,"station_id":"ce4bh412rcd13ifvqds0","pricing_plan_id":"cebpf4jnsgd1na2vs0mg"},{"bike_id":"af654c71-a67d-46af-bf40-a020e2f3bf53","system_id":"levelo_inurba_marseille","lat":43.25029,"lon":5.38885,"is_reserved":false,"is_disabled":false,"rental_uris":{"android":"levelo://app?vid=af654c71-a67d-46af-bf40-a020e2f3bf53","ios":"levelo://app?vid=af654c71-a67d-46af-bf40-a020e2f3bf53"},"vehicle_type_id":"4","last_reported":1769745535,"current_range_meters":7200,"station_id":"ce4bhgp2rcd13ifvqfd0","pricing_plan_id":"cebpf4jnsgd1na2vs0mg"},{"bike_id":"022d369a-95f4-48b4-b97e-fa7bf8af08d6","system_id":"levelo_inurba_marseille","lat":43.23966,"lon":5.36634,"is_reserved":false,"is_disabled":false,"rental_uris":{"android":"levelo://app?vid=022d369a-95f4-48b4-b97e-fa7bf8af08d6","ios":"levelo://app?vid=022d369a-95f4-48b4-b97e-fa7bf8af08d6"},"vehicle_type_id":"4","last_reported":1769745535,"current_range_meters":7200,"station_id":"ce4bhi12rcd13ifvqfp0","pricing_plan_id":"cebpf4jnsgd1na2vs0mg"},{"bike_id":"8ac472ee-078c-40fd-b2c8-bcad452ee17b","system_id":"levelo_inurba_marseille","lat":43.31485,"lon":5.373046,"is_reserved":false,"is_disabled":false,"rental_uris":{"android":"levelo://app?vid=8ac472ee-078c-40fd-b2c8-bcad452ee17b","ios":"levelo://app?vid=8ac472ee-078c-40fd-b2c8-bcad452ee17b"},"vehicle_type_id":"4","last_reported":1769745535,"current_range_meters":7200,"station_id":"ce4bgt12rcd13ifvqcd0","pricing_plan_id":"cebpf4jnsgd1na2vs0mg"},{"bike_id":"7ccb57b5-d8f1-406a-8962-100233cea2b4","system_id":"levelo_inurba_marseille","lat":43.3132,"lon":5.39686,"is_reserved":false,"is_disabled":false,"rental_uris":{"android":"levelo://app?vid=7ccb57b5-d8f1-406a-8962-100233cea2b4","ios":"levelo://app?vid=7ccb57b5-d8f1-406a-8962-100233cea2b4"},"vehicle_type_id":"4","last_reported":1769745535,"current_range_meters":7200,"station_id":"ce4bgvp2rcd13ifvqcu0","pricing_plan_id":"cebpf4jnsgd1na2vs0mg"},{"bike_id":"aa05ebaa-e220-4787-a857-5cfc0603cea1","system_id":"levelo_inurba_marseille","lat":43.29278,"lon":5.40132,"is_reserved":false,"is_disabled":false,"rental_uris":{"android":"levelo://app?vid=aa05ebaa-e220-4787-a857-5cfc0603cea1","ios":"levelo://app?vid=aa05ebaa-e220-4787-a857-5cfc0603cea1"},"vehicle_type_id":"4","last_reported":1769745535,"current_range_meters":7200,"station_id":"ce4bh312rcd13ifvqdk0","pricing_plan_id":"cebpf4jnsgd1na2vs0mg"},{"bike_id":"3dc504de-340a-4960-9295-e93227b46b5e","system_id":"levelo_inurba_marseille","lat":43.32114,"lon":5.36761,"is_reserved":false,"is_disabled":false,"rental_uris":{"android":"levelo://app?vid=3dc504de-340a-4960-9295-e93227b46b5e","ios":"levelo://app?vid=3dc504de-340a-4960-9295-e93227b46b5e"},"vehicle_type_id":"4","last_reported":1769745535,"current_range_meters":7200,"station_id":"ce4bhrh2rcd13ifvqhug","pricing_plan_id":"cebpf4jnsgd1na2vs0mg"},{"bike_id":"c78050fe-9342-4dbd-a50a-8aaa3d1727f2","system_id":"levelo_inurba_marseille","lat":43.29307,"lon":5.37165,"is_reserved":false,"is_disabled":false,"rental_uris":{"android":"levelo://app?vid=c78050fe-9342-4dbd-a50a-8aaa3d1727f2","ios":"levelo://app?vid=c78050fe-9342-4dbd-a50a-8aaa3d1727f2"},"vehicle_type_id":"4","last_reported":1769745535,"current_range_meters":7200,"station_id":"ce4bgh92rcd13ifvqb40","pricing_plan_id":"cebpf4jnsgd1na2vs0mg"},{"bike_id":"456727bd-baa8-41bf-ae9f-158a99ff9411","system_id":"levelo_inurba_marseille","lat":43.22563,"lon":5.41635,"is_reserved":false,"is_disabled":false,"rental_uris":{"android":"levelo://app?vid=456727bd-baa8-41bf-ae9f-158a99ff9411","ios":"levelo://app?vid=456727bd-baa8-41bf-ae9f-158a99ff9411"},"vehicle_type_id":"4","last_reported":1769745535,"current_range_meters":8000,"station_id":"st_d2o4gvlbi1j2169b742g","pricing_plan_id":"cebpf4jnsgd1na2vs0mg"},{"bike_id":"82a6b099-0577-4798-9a60-21fb38c2bbb7","system_id":"levelo_inurba_marseille","lat":43.29811,"lon":5.44063,"is_reserved":false,"is_disabled":false,"rental_uris":{"android":"levelo://app?vid=82a6b099-0577-4798-9a60-21fb38c2bbb7","ios":"levelo://app?vid=82a6b099-0577-4798-9a60-21fb38c2bbb7"},"vehicle_type_id":"4","last_reported":1769745535,"current_range_meters":8000,"station_id":"st_d3jp68qikq2c7381ktn0","pricing_plan_id":"cebpf4jnsgd1na2vs0mg"},{"bike_id":"805015d0-c12d-4724-9c74-0106ed455fd9","system_id":"levelo_inurba_marseille","lat":43.249585,"lon":5.404954,"is_reserved":false,"is_disabled":false,"rental_uris":{"android":"levelo://app?vid=805015d0-c12d-4724-9c74-0106ed455fd9","ios":"levelo://app?vid=805015d0-c12d-4724-9c74-0106ed455fd9"},"vehicle_type_id":"4","last_reported":1769745535,"current_range_meters":8000,"station_id":"st_d2ngiaodas8pm72gd1h0","pricing_plan_id":"cebpf4jnsgd1na2vs0mg"},{"bike_id":"f77f11ea-c57f-4a1e-b998-1859acb2e91b","system_id":"levelo_inurba_marseille","lat":43.28617,"lon":5.35109,"is_reserved":false,"is_disabled":false,"rental_uris":{"android":"levelo://app?vid=f77f11ea-c57f-4a1e-b998-1859acb2e91b","ios":"levelo://app?vid=f77f11ea-c57f-4a1e-b998-1859acb2e91b"},"vehicle_type_id":"4","last_reported":1769745535,"current_range_meters":8000,"station_id":"ce4bhch2rcd13ifvqeug","pricing_plan_id":"cebpf4jnsgd1na2vs0mg"},{"bike_id":"14ad4359-d217-40c8-bc15-7989600afabe","system_id":"levelo_inurba_marseille","lat":43.283913,"lon":5.407109,"is_reserved":false,"is_disabled":false,"rental_uris":{"android":"levelo://app?vid=14ad4359-d217-40c8-bc15-7989600afabe","ios":"levelo://app?vid=14ad4359-d217-40c8-bc15-7989600afabe"},"vehicle_type_id":"4","last_reported":1769745535,"current_range_meters":8000,"station_id":"","pricing_plan_id":"cebpf4jnsgd1na2vs0mg"},{"bike_id":"2626a307-09e6-4806-8747-64c64cf9b162","system_id":"levelo_inurba_marseille","lat":43.24467,"lon":5.42554,"is_reserved":false,"is_disabled":false,"rental_uris":{"android":"levelo://app?vid=2626a307-09e6-4806-8747-64c64cf9b162","ios":"levelo://app?vid=2626a307-09e6-4806-8747-64c64cf9b162"},"vehicle_type_id":"4","last_reported":1769745535,"current_range_meters":8000,"station_id":"st_d4a3vfp97mjs738cd8kg","pricing_plan_id":"cebpf4jnsgd1na2vs0mg"},{"bike_id":"e379aa8c-0a10-4822-a818-677466b8e909","system_id":"levelo_inurba_marseille","lat":43.26558,"lon":5.37295,"is_reserved":false,"is_disabled":false,"rental_uris":{"android":"levelo://app?vid=e379aa8c-0a10-4822-a818-677466b8e909","ios":"levelo://app?vid=e379aa8c-0a10-4822-a818-677466b8e909"},"vehicle_type_id":"4","last_reported":1769745535,"current_range_meters":8000,"station_id":"ce4bhg12rcd13ifvqf70","pricing_plan_id":"cebpf4jnsgd1na2vs0mg"},{"bike_id":"a224862a-232e-4eae-9e87-90ad084f94a7","system_id":"levelo_inurba_marseille","lat":43.24183,"lon":5.36389,"is_reserved":false,"is_disabled":false,"rental_uris":{"android":"levelo://app?vid=a224862a-232e-4eae-9e87-90ad084f94a7","ios":"levelo://app?vid=a224862a-232e-4eae-9e87-90ad084f94a7"},"vehicle_type_id":"4","last_reported":1769745535,"current_range_meters":8000,"station_id":"cpo36qri1sfpv3e86is0","pricing_plan_id":"cebpf4jnsgd1na2vs0mg"},{"bike_id":"ceed1653-0aff-4dc0-b159-f8529a6c28c1","system_id":"levelo_inurba_marseille","lat":43.23201,"lon":5.35551,"is_reserved":false,"is_disabled":false,"rental_uris":{"android":"levelo://app?vid=ceed1653-0aff-4dc0-b159-f8529a6c28c1","ios":"levelo://app?vid=ceed1653-0aff-4dc0-b159-f8529a6c28c1"},"vehicle_type_id":"4","last_reported":1769745535,"current_range_meters":8000,"station_id":"ce4bhu92rcd13ifvqi70","pricing_plan_id":"cebpf4jnsgd1na2vs0mg"},{"bike_id":"f3239b9e-e657-464c-a0ef-641807cec97c","system_id":"levelo_inurba_marseille","lat":43.313709,"lon":5.384934,"is_reserved":false,"is_disabled":false,"rental_uris":{"android":"levelo://app?vid=f3239b9e-e657-464c-a0ef-641807cec97c","ios":"levelo://app?vid=f3239b9e-e657-464c-a0ef-641807cec97c"},"vehicle_type_id":"4","last_reported":1769745535,"current_range_meters":8000,"station_id":"ce4bgt92rcd13ifvqcf0","pricing_plan_id":"cebpf4jnsgd1na2vs0mg"},{"bike_id":"51a645be-600d-4fba-84a5-57af644d483e","system_id":"levelo_inurba_marseille","lat":43.25589,"lon":5.38231,"is_reserved":false,"is_disabled":false,"rental_uris":{"android":"levelo://app?vid=51a645be-600d-4fba-84a5-57af644d483e","ios":"levelo://app?vid=51a645be-600d-4fba-84a5-57af644d483e"},"vehicle_type_id":"4","last_reported":1769745535,"current_range_meters":8000,"station_id":"ce4bhih2rcd13ifvqfs0","pricing_plan_id":"cebpf4jnsgd1na2vs0mg"},{"bike_id":"ec202791-c601-4e25-a0c3-69c3dbca2c2d","system_id":"levelo_inurba_marseille","lat":43.287268,"lon":5.360841,"is_reserved":false,"is_disabled":false,"rental_uris":{"android":"levelo://app?vid=ec202791-c601-4e25-a0c3-69c3dbca2c2d","ios":"levelo://app?vid=ec202791-c601-4e25-a0c3-69c3dbca2c2d"},"vehicle_type_id":"4","last_reported":1769745535,"current_range_meters":8000,"station_id":"cki0cbj6b192h4jlfktg","pricing_plan_id":"cebpf4jnsgd1na2vs0mg"},{"bike_id":"562bff5b-94fd-4c0b-96ee-f7bff2efbc1f","system_id":"levelo_inurba_marseille","lat":43.30803,"lon":5.3816,"is_reserved":false,"is_disabled":false,"rental_uris":{"android":"levelo://app?vid=562bff5b-94fd-4c0b-96ee-f7bff2efbc1f","ios":"levelo://app?vid=562bff5b-94fd-4c0b-96ee-f7bff2efbc1f"},"vehicle_type_id":"4","last_reported":1769745535,"current_range_meters":8000,"station_id":"ce4bgt12rcd13ifvqce0","pricing_plan_id":"cebpf4jnsgd1na2vs0mg"},{"bike_id":"aa07325c-7e94-40cb-99af-c9bebcc478cf","system_id":"levelo_inurba_marseille","lat":43.31061,"lon":5.38345,"is_reserved":false,"is_disabled":false,"rental_uris":{"android":"levelo://app?vid=aa07325c-7e94-40cb-99af-c9bebcc478cf","ios":"levelo://app?vid=aa07325c-7e94-40cb-99af-c9bebcc478cf"},"vehicle_type_id":"4","last_reported":1769745535,"current_range_meters":8000,"station_id":"ce4bgv92rcd13ifvqcr0","pricing_plan_id":"cebpf4jnsgd1na2vs0mg"},{"bike_id":"6b173c98-2a8b-464a-8079-e105081bde9e","system_id":"levelo_inurba_marseille","lat":43.31087,"lon":5.38349,"is_reserved":false,"is_disabled":false,"rental_uris":{"android":"levelo://app?vid=6b173c98-2a8b-464a-8079-e105081bde9e","ios":"levelo://app?vid=6b173c98-2a8b-464a-8079-e105081bde9e"},"vehicle_type_id":"4","last_reported":1769745535,"current_range_meters":8000,"station_id":"ce4bgv92rcd13ifvqcr0","pricing_plan_id":"cebpf4jnsgd1na2vs0mg"},{"bike_id":"1092286b-56a5-44dc-bb84-f3ca8bcea9e8","system_id":"levelo_inurba_marseille","lat":43.24673,"lon":5.38153,"is_reserved":false,"is_disabled":false,"rental_uris":{"android":"levelo://app?vid=1092286b-56a5-44dc-bb84-f3ca8bcea9e8","ios":"levelo://app?vid=1092286b-56a5-44dc-bb84-f3ca8bcea9e8"},"vehicle_type_id":"4","last_reported":1769745535,"current_range_meters":8000,"station_id":"ce4bhih2rcd13ifvqfr0","pricing_plan_id":"cebpf4jnsgd1na2vs0mg"},{"bike_id":"90264e01-eab1-4c64-b49c-0b83b4dd4621","system_id":"levelo_inurba_marseille","lat":43.24148,"lon":5.36406,"is_reserved":false,"is_disabled":false,"rental_uris":{"android":"levelo://app?vid=90264e01-eab1-4c64-b49c-0b83b4dd4621","ios":"levelo://app?vid=90264e01-eab1-4c64-b49c-0b83b4dd4621"},"vehicle_type_id":"4","last_reported":1769745535,"current_range_meters":8000,"station_id":"cpo36qri1sfpv3e86is0","pricing_plan_id":"cebpf4jnsgd1na2vs0mg"},{"bike_id":"47f4e8ad-a175-423f-b496-f17d2e26cae3","system_id":"levelo_inurba_marseille","lat":43.31301,"lon":5.40179,"is_reserved":false,"is_disabled":false,"rental_uris":{"android":"levelo://app?vid=47f4e8ad-a175-423f-b496-f17d2e26cae3","ios":"levelo://app?vid=47f4e8ad-a175-423f-b496-f17d2e26cae3"},"vehicle_type_id":"4","last_reported":1769745535,"current_range_meters":8000,"station_id":"ce4bh092rcd13ifvqd30","pricing_plan_id":"cebpf4jnsgd1na2vs0mg"},{"bike_id":"4e83842e-83b9-4133-aa10-c84727ca0337","system_id":"levelo_inurba_marseille","lat":43.24554,"lon":5.39524,"is_reserved":false,"is_disabled":false,"rental_uris":{"android":"levelo://app?vid=4e83842e-83b9-4133-aa10-c84727ca0337","ios":"levelo://app?vid=4e83842e-83b9-4133-aa10-c84727ca0337"},"vehicle_type_id":"4","last_reported":1769745535,"current_range_meters":8400,"station_id":"ce4bhlp2rcd13ifvqgjg","pricing_plan_id":"cebpf4jnsgd1na2vs0mg"},{"bike_id":"a9d5a55c-e6f8-4cac-aa21-2065b21c8b47","system_id":"levelo_inurba_marseille","lat":43.24955,"lon":5.40503,"is_reserved":false,"is_disabled":false,"rental_uris":{"android":"levelo://app?vid=a9d5a55c-e6f8-4cac-aa21-2065b21c8b47","ios":"levelo://app?vid=a9d5a55c-e6f8-4cac-aa21-2065b21c8b47"},"vehicle_type_id":"4","last_reported":1769745535,"current_range_meters":8400,"station_id":"st_d2ngiaodas8pm72gd1h0","pricing_plan_id":"cebpf4jnsgd1na2vs0mg"},{"bike_id":"eb3ddec8-6f8f-4c91-abfe-4cb11a120610","system_id":"levelo_inurba_marseille","lat":43.27805,"lon":5.40721,"is_reserved":false,"is_disabled":false,"rental_uris":{"android":"levelo://app?vid=eb3ddec8-6f8f-4c91-abfe-4cb11a120610","ios":"levelo://app?vid=eb3ddec8-6f8f-4c91-abfe-4cb11a120610"},"vehicle_type_id":"4","last_reported":1769745535,"current_range_meters":8400,"station_id":"ce4bhnh2rcd13ifvqgtg","pricing_plan_id":"cebpf4jnsgd1na2vs0mg"},{"bike_id":"e858244c-580e-4a5e-a86b-9fc7e954317c","system_id":"levelo_inurba_marseille","lat":43.31277,"lon":5.37878,"is_reserved":false,"is_disabled":true,"rental_uris":{"android":"levelo://app?vid=e858244c-580e-4a5e-a86b-9fc7e954317c","ios":"levelo://app?vid=e858244c-580e-4a5e-a86b-9fc7e954317c"},"vehicle_type_id":"4","last_reported":1769745535,"current_range_meters":8400,"station_id":"","pricing_plan_id":"cebpf4jnsgd1na2vs0mg"},{"bike_id":"7243427c-7e1e-4875-b4d3-b3a9df2c737a","system_id":"levelo_inurba_marseille","lat":43.302,"lon":5.38814,"is_reserved":false,"is_disabled":true,"rental_uris":{"android":"levelo://app?vid=7243427c-7e1e-4875-b4d3-b3a9df2c737a","ios":"levelo://app?vid=7243427c-7e1e-4875-b4d3-b3a9df2c737a"},"vehicle_type_id":"4","last_reported":1769745535,"current_range_meters":8400,"station_id":"","pricing_plan_id":"cebpf4jnsgd1na2vs0mg"},{"bike_id":"373cb557-ba27-44b4-ae77-5627bb7dd352","system_id":"levelo_inurba_marseille","lat":43.2122,"lon":5.35039,"is_reserved":false,"is_disabled":true,"rental_uris":{"android":"levelo://app?vid=373cb557-ba27-44b4-ae77-5627bb7dd352","ios":"levelo://app?vid=373cb557-ba27-44b4-ae77-5627bb7dd352"},"vehicle_type_id":"4","last_reported":1769745535,"current_range_meters":8400,"station_id":"st_cvj6sg6p6f1abm77japg","pricing_plan_id":"cebpf4jnsgd1na2vs0mg"},{"bike_id":"6d463587-3df4-4665-b124-967bacab8bbe","system_id":"levelo_inurba_marseille","lat":43.28617,"lon":5.35094,"is_reserved":false,"is_disabled":false,"rental_uris":{"android":"levelo://app?vid=6d463587-3df4-4665-b124-967bacab8bbe","ios":"levelo://app?vid=6d463587-3df4-4665-b124-967bacab8bbe"},"vehicle_type_id":"4","last_reported":1769745535,"current_range_meters":8400,"station_id":"ce4bhch2rcd13ifvqeug","pricing_plan_id":"cebpf4jnsgd1na2vs0mg"},{"bike_id":"f61376d1-bbda-4aa8-9f30-26f83b9d9d08","system_id":"levelo_inurba_marseille","lat":43.24073,"lon":5.37751,"is_reserved":false,"is_disabled":false,"rental_uris":{"android":"levelo://app?vid=f61376d1-bbda-4aa8-9f30-26f83b9d9d08","ios":"levelo://app?vid=f61376d1-bbda-4aa8-9f30-26f83b9d9d08"},"vehicle_type_id":"4","last_reported":1769745535,"current_range_meters":8400,"station_id":"ce4bhnp2rcd13ifvqgvg","pricing_plan_id":"cebpf4jnsgd1na2vs0mg"},{"bike_id":"bfbe6d55-a30d-484d-8a59-70e822a30755","system_id":"levelo_inurba_marseille","lat":43.27549,"lon":5.38416,"is_reserved":false,"is_disabled":true,"rental_uris":{"android":"levelo://app?vid=bfbe6d55-a30d-484d-8a59-70e822a30755","ios":"levelo://app?vid=bfbe6d55-a30d-484d-8a59-70e822a30755"},"vehicle_type_id":"4","last_reported":1769745535,"current_range_meters":8400,"station_id":"ce4bhh92rcd13ifvqfi0","pricing_plan_id":"cebpf4jnsgd1na2vs0mg"},{"bike_id":"1cc62919-e5df-4445-9bb2-bba1318911b3","system_id":"levelo_inurba_marseille","lat":43.30329,"lon":5.40412,"is_reserved":false,"is_disabled":false,"rental_uris":{"android":"levelo://app?vid=1cc62919-e5df-4445-9bb2-bba1318911b3","ios":"levelo://app?vid=1cc62919-e5df-4445-9bb2-bba1318911b3"},"vehicle_type_id":"4","last_reported":1769745535,"current_range_meters":8400,"station_id":"ce4bh012rcd13ifvqd10","pricing_plan_id":"cebpf4jnsgd1na2vs0mg"},{"bike_id":"f63d2d15-f1d9-4a97-b06f-c9cfd1206564","system_id":"levelo_inurba_marseille","lat":43.26569,"lon":5.40324,"is_reserved":false,"is_disabled":false,"rental_uris":{"android":"levelo://app?vid=f63d2d15-f1d9-4a97-b06f-c9cfd1206564","ios":"levelo://app?vid=f63d2d15-f1d9-4a97-b06f-c9cfd1206564"},"vehicle_type_id":"4","last_reported":1769745535,"current_range_meters":8400,"station_id":"ce4bhmp2rcd13ifvqgng","pricing_plan_id":"cebpf4jnsgd1na2vs0mg"},{"bike_id":"c15bf6ee-369d-4dc7-89fc-91442ce5cab3","system_id":"levelo_inurba_marseille","lat":43.29902,"lon":5.43679,"is_reserved":false,"is_disabled":false,"rental_uris":{"android":"levelo://app?vid=c15bf6ee-369d-4dc7-89fc-91442ce5cab3","ios":"levelo://app?vid=c15bf6ee-369d-4dc7-89fc-91442ce5cab3"},"vehicle_type_id":"4","last_reported":1769745535,"current_range_meters":8400,"station_id":"ce4bhpp2rcd13ifvqhfg","pricing_plan_id":"cebpf4jnsgd1na2vs0mg"},{"bike_id":"c1c45377-a918-49c8-885c-ad440a5ea89c","system_id":"levelo_inurba_marseille","lat":43.24963,"lon":5.40505,"is_reserved":false,"is_disabled":false,"rental_uris":{"android":"levelo://app?vid=c1c45377-a918-49c8-885c-ad440a5ea89c","ios":"levelo://app?vid=c1c45377-a918-49c8-885c-ad440a5ea89c"},"vehicle_type_id":"4","last_reported":1769745535,"current_range_meters":8400,"station_id":"st_d2ngiaodas8pm72gd1h0","pricing_plan_id":"cebpf4jnsgd1na2vs0mg"},{"bike_id":"d9e74e48-23e6-471a-b00e-c0252f599ae5","system_id":"levelo_inurba_marseille","lat":43.27056,"lon":5.38329,"is_reserved":false,"is_disabled":false,"rental_uris":{"android":"levelo://app?vid=d9e74e48-23e6-471a-b00e-c0252f599ae5","ios":"levelo://app?vid=d9e74e48-23e6-471a-b00e-c0252f599ae5"},"vehicle_type_id":"4","last_reported":1769745535,"current_range_meters":8400,"station_id":"st_d3n2fo6cfp8s73cte1j0","pricing_plan_id":"cebpf4jnsgd1na2vs0mg"},{"bike_id":"b3808154-86af-47d0-966c-f1cc0984587d","system_id":"levelo_inurba_marseille","lat":43.3377,"lon":5.37468,"is_reserved":false,"is_disabled":false,"rental_uris":{"android":"levelo://app?vid=b3808154-86af-47d0-966c-f1cc0984587d","ios":"levelo://app?vid=b3808154-86af-47d0-966c-f1cc0984587d"},"vehicle_type_id":"4","last_reported":1769745535,"current_range_meters":8400,"station_id":"","pricing_plan_id":"cebpf4jnsgd1na2vs0mg"},{"bike_id":"0f05e83f-77ca-4504-b9cf-cc69291ac8d4","system_id":"levelo_inurba_marseille","lat":43.27068,"lon":5.38318,"is_reserved":false,"is_disabled":false,"rental_uris":{"android":"levelo://app?vid=0f05e83f-77ca-4504-b9cf-cc69291ac8d4","ios":"levelo://app?vid=0f05e83f-77ca-4504-b9cf-cc69291ac8d4"},"vehicle_type_id":"4","last_reported":1769745535,"current_range_meters":8800,"station_id":"st_d3n2fo6cfp8s73cte1j0","pricing_plan_id":"cebpf4jnsgd1na2vs0mg"},{"bike_id":"97519bfc-e1da-4afb-9c68-d09639f95f5e","system_id":"levelo_inurba_marseille","lat":43.24976,"lon":5.40487,"is_reserved":false,"is_disabled":false,"rental_uris":{"android":"levelo://app?vid=97519bfc-e1da-4afb-9c68-d09639f95f5e","ios":"levelo://app?vid=97519bfc-e1da-4afb-9c68-d09639f95f5e"},"vehicle_type_id":"4","last_reported":1769745535,"current_range_meters":8800,"station_id":"st_d2ngiaodas8pm72gd1h0","pricing_plan_id":"cebpf4jnsgd1na2vs0mg"},{"bike_id":"d7b04403-7dfa-4d8a-bd81-cfc844f4e0b5","system_id":"levelo_inurba_marseille","lat":43.29821,"lon":5.44048,"is_reserved":false,"is_disabled":false,"rental_uris":{"android":"levelo://app?vid=d7b04403-7dfa-4d8a-bd81-cfc844f4e0b5","ios":"levelo://app?vid=d7b04403-7dfa-4d8a-bd81-cfc844f4e0b5"},"vehicle_type_id":"4","last_reported":1769745535,"current_range_meters":8800,"station_id":"st_d3jp68qikq2c7381ktn0","pricing_plan_id":"cebpf4jnsgd1na2vs0mg"},{"bike_id":"f27f3e87-a38b-48fe-999c-b85eb375c397","system_id":"levelo_inurba_marseille","lat":43.24163,"lon":5.36403,"is_reserved":false,"is_disabled":false,"rental_uris":{"android":"levelo://app?vid=f27f3e87-a38b-48fe-999c-b85eb375c397","ios":"levelo://app?vid=f27f3e87-a38b-48fe-999c-b85eb375c397"},"vehicle_type_id":"4","last_reported":1769745535,"current_range_meters":8800,"station_id":"cpo36qri1sfpv3e86is0","pricing_plan_id":"cebpf4jnsgd1na2vs0mg"},{"bike_id":"1db24507-d658-43fd-a9f7-b7e937916d2d","system_id":"levelo_inurba_marseille","lat":43.2439,"lon":5.37048,"is_reserved":false,"is_disabled":false,"rental_uris":{"android":"levelo://app?vid=1db24507-d658-43fd-a9f7-b7e937916d2d","ios":"levelo://app?vid=1db24507-d658-43fd-a9f7-b7e937916d2d"},"vehicle_type_id":"4","last_reported":1769745535,"current_range_meters":8800,"station_id":"ce4bhhh2rcd13ifvqfk0","pricing_plan_id":"cebpf4jnsgd1na2vs0mg"},{"bike_id":"019d9ca3-0c3a-4013-b057-5349dfa40020","system_id":"levelo_inurba_marseille","lat":43.30152,"lon":5.380763,"is_reserved":false,"is_disabled":false,"rental_uris":{"android":"levelo://app?vid=019d9ca3-0c3a-4013-b057-5349dfa40020","ios":"levelo://app?vid=019d9ca3-0c3a-4013-b057-5349dfa40020"},"vehicle_type_id":"4","last_reported":1769745535,"current_range_meters":8800,"station_id":"ce4bgjp2rcd13ifvqbh0","pricing_plan_id":"cebpf4jnsgd1na2vs0mg"},{"bike_id":"be405149-5ca4-4ebc-92a4-97894aaa4423","system_id":"levelo_inurba_marseille","lat":43.29685,"lon":5.36644,"is_reserved":false,"is_disabled":false,"rental_uris":{"android":"levelo://app?vid=be405149-5ca4-4ebc-92a4-97894aaa4423","ios":"levelo://app?vid=be405149-5ca4-4ebc-92a4-97894aaa4423"},"vehicle_type_id":"4","last_reported":1769745535,"current_range_meters":8800,"station_id":"ce4bgn12rcd13ifvqbt0","pricing_plan_id":"cebpf4jnsgd1na2vs0mg"},{"bike_id":"f19206fa-f60c-4f20-a354-cf0cbc043cf9","system_id":"levelo_inurba_marseille","lat":43.28458,"lon":5.35885,"is_reserved":false,"is_disabled":false,"rental_uris":{"android":"levelo://app?vid=f19206fa-f60c-4f20-a354-cf0cbc043cf9","ios":"levelo://app?vid=f19206fa-f60c-4f20-a354-cf0cbc043cf9"},"vehicle_type_id":"4","last_reported":1769745535,"current_range_meters":8800,"station_id":"ce4bhah2rcd13ifvqei0","pricing_plan_id":"cebpf4jnsgd1na2vs0mg"},{"bike_id":"43f7bbee-5d4d-4f7c-95f4-fc75d4bb08a6","system_id":"levelo_inurba_marseille","lat":43.292787,"lon":5.401234,"is_reserved":false,"is_disabled":false,"rental_uris":{"android":"levelo://app?vid=43f7bbee-5d4d-4f7c-95f4-fc75d4bb08a6","ios":"levelo://app?vid=43f7bbee-5d4d-4f7c-95f4-fc75d4bb08a6"},"vehicle_type_id":"4","last_reported":1769745535,"current_range_meters":8800,"station_id":"ce4bh312rcd13ifvqdk0","pricing_plan_id":"cebpf4jnsgd1na2vs0mg"},{"bike_id":"60601e53-e690-41e3-9640-0b5d8353d610","system_id":"levelo_inurba_marseille","lat":43.22937,"lon":5.35388,"is_reserved":false,"is_disabled":false,"rental_uris":{"android":"levelo://app?vid=60601e53-e690-41e3-9640-0b5d8353d610","ios":"levelo://app?vid=60601e53-e690-41e3-9640-0b5d8353d610"},"vehicle_type_id":"4","last_reported":1769745535,"current_range_meters":8800,"station_id":"cpo3532slgdg3j2ikp40","pricing_plan_id":"cebpf4jnsgd1na2vs0mg"},{"bike_id":"b68606c5-7c5e-44ce-8826-e6775696c337","system_id":"levelo_inurba_marseille","lat":43.30379,"lon":5.42475,"is_reserved":false,"is_disabled":false,"rental_uris":{"android":"levelo://app?vid=b68606c5-7c5e-44ce-8826-e6775696c337","ios":"levelo://app?vid=b68606c5-7c5e-44ce-8826-e6775696c337"},"vehicle_type_id":"4","last_reported":1769745535,"current_range_meters":8800,"station_id":"ce4bhoh2rcd13ifvqh6g","pricing_plan_id":"cebpf4jnsgd1na2vs0mg"},{"bike_id":"29e4ce79-df32-4a16-836e-cd957aa9a131","system_id":"levelo_inurba_marseille","lat":43.24637,"lon":5.43137,"is_reserved":false,"is_disabled":false,"rental_uris":{"android":"levelo://app?vid=29e4ce79-df32-4a16-836e-cd957aa9a131","ios":"levelo://app?vid=29e4ce79-df32-4a16-836e-cd957aa9a131"},"vehicle_type_id":"4","last_reported":1769745535,"current_range_meters":8800,"station_id":"st_d2m6c4gdas8pm72e190g","pricing_plan_id":"cebpf4jnsgd1na2vs0mg"},{"bike_id":"5f8af22f-9203-4ec9-816f-1618d1060df6","system_id":"levelo_inurba_marseille","lat":43.32499,"lon":5.38283,"is_reserved":false,"is_disabled":false,"rental_uris":{"android":"levelo://app?vid=5f8af22f-9203-4ec9-816f-1618d1060df6","ios":"levelo://app?vid=5f8af22f-9203-4ec9-816f-1618d1060df6"},"vehicle_type_id":"4","last_reported":1769745535,"current_range_meters":8800,"station_id":"st_d4asgbiv49dc73anf9m0","pricing_plan_id":"cebpf4jnsgd1na2vs0mg"},{"bike_id":"0e79c48d-cdc7-44eb-ad7d-d24757dd50e7","system_id":"levelo_inurba_marseille","lat":43.32354,"lon":5.36729,"is_reserved":false,"is_disabled":false,"rental_uris":{"android":"levelo://app?vid=0e79c48d-cdc7-44eb-ad7d-d24757dd50e7","ios":"levelo://app?vid=0e79c48d-cdc7-44eb-ad7d-d24757dd50e7"},"vehicle_type_id":"4","last_reported":1769745535,"current_range_meters":8800,"station_id":"ce4bhsh2rcd13ifvqi2g","pricing_plan_id":"cebpf4jnsgd1na2vs0mg"},{"bike_id":"3ee7a6de-8f62-4cb8-912d-49d8e3d01f12","system_id":"levelo_inurba_marseille","lat":43.31179,"lon":5.38706,"is_reserved":false,"is_disabled":false,"rental_uris":{"android":"levelo://app?vid=3ee7a6de-8f62-4cb8-912d-49d8e3d01f12","ios":"levelo://app?vid=3ee7a6de-8f62-4cb8-912d-49d8e3d01f12"},"vehicle_type_id":"4","last_reported":1769745535,"current_range_meters":8800,"station_id":"ce4bgv12rcd13ifvqcp0","pricing_plan_id":"cebpf4jnsgd1na2vs0mg"},{"bike_id":"da593093-ad62-477d-ac50-f295ce07feee","system_id":"levelo_inurba_marseille","lat":43.30323,"lon":5.40448,"is_reserved":false,"is_disabled":false,"rental_uris":{"android":"levelo://app?vid=da593093-ad62-477d-ac50-f295ce07feee","ios":"levelo://app?vid=da593093-ad62-477d-ac50-f295ce07feee"},"vehicle_type_id":"4","last_reported":1769745535,"current_range_meters":8800,"station_id":"ce4bh012rcd13ifvqd10","pricing_plan_id":"cebpf4jnsgd1na2vs0mg"},{"bike_id":"9c59ba21-0bbc-41c2-a99b-53e9947bdf47","system_id":"levelo_inurba_marseille","lat":43.30374,"lon":5.42484,"is_reserved":false,"is_disabled":false,"rental_uris":{"android":"levelo://app?vid=9c59ba21-0bbc-41c2-a99b-53e9947bdf47","ios":"levelo://app?vid=9c59ba21-0bbc-41c2-a99b-53e9947bdf47"},"vehicle_type_id":"4","last_reported":1769745535,"current_range_meters":8800,"station_id":"ce4bhoh2rcd13ifvqh6g","pricing_plan_id":"cebpf4jnsgd1na2vs0mg"},{"bike_id":"ad150f2a-29f5-456b-94c0-795879e342bd","system_id":"levelo_inurba_marseille","lat":43.32121,"lon":5.36771,"is_reserved":false,"is_disabled":false,"rental_uris":{"android":"levelo://app?vid=ad150f2a-29f5-456b-94c0-795879e342bd","ios":"levelo://app?vid=ad150f2a-29f5-456b-94c0-795879e342bd"},"vehicle_type_id":"4","last_reported":1769745535,"current_range_meters":8800,"station_id":"ce4bhrh2rcd13ifvqhug","pricing_plan_id":"cebpf4jnsgd1na2vs0mg"},{"bike_id":"f56ee39d-a6b7-4a7e-89de-b9d7f0478322","system_id":"levelo_inurba_marseille","lat":43.32296,"lon":5.36715,"is_reserved":false,"is_disabled":false,"rental_uris":{"android":"levelo://app?vid=f56ee39d-a6b7-4a7e-89de-b9d7f0478322","ios":"levelo://app?vid=f56ee39d-a6b7-4a7e-89de-b9d7f0478322"},"vehicle_type_id":"4","last_reported":1769745535,"current_range_meters":8800,"station_id":"","pricing_plan_id":"cebpf4jnsgd1na2vs0mg"},{"bike_id":"dd50cae2-caff-499c-9e2d-5c2af21c5076","system_id":"levelo_inurba_marseille","lat":43.28876,"lon":5.35823,"is_reserved":false,"is_disabled":false,"rental_uris":{"android":"levelo://app?vid=dd50cae2-caff-499c-9e2d-5c2af21c5076","ios":"levelo://app?vid=dd50cae2-caff-499c-9e2d-5c2af21c5076"},"vehicle_type_id":"4","last_reported":1769745535,"current_range_meters":8800,"station_id":"ce4bhb12rcd13ifvqem0","pricing_plan_id":"cebpf4jnsgd1na2vs0mg"},{"bike_id":"412abae9-d62d-4987-af01-9a17904a32fe","system_id":"levelo_inurba_marseille","lat":43.24627,"lon":5.43145,"is_reserved":false,"is_disabled":false,"rental_uris":{"android":"levelo://app?vid=412abae9-d62d-4987-af01-9a17904a32fe","ios":"levelo://app?vid=412abae9-d62d-4987-af01-9a17904a32fe"},"vehicle_type_id":"4","last_reported":1769745535,"current_range_meters":8800,"station_id":"st_d2m6c4gdas8pm72e190g","pricing_plan_id":"cebpf4jnsgd1na2vs0mg"},{"bike_id":"76baf766-279c-4d54-8cc8-d388bd84f801","system_id":"levelo_inurba_marseille","lat":43.28628,"lon":5.35098,"is_reserved":false,"is_disabled":false,"rental_uris":{"android":"levelo://app?vid=76baf766-279c-4d54-8cc8-d388bd84f801","ios":"levelo://app?vid=76baf766-279c-4d54-8cc8-d388bd84f801"},"vehicle_type_id":"4","last_reported":1769745535,"current_range_meters":8800,"station_id":"ce4bhch2rcd13ifvqeug","pricing_plan_id":"cebpf4jnsgd1na2vs0mg"},{"bike_id":"65b759d9-e66a-4cc0-915d-2e8ad0441e0c","system_id":"levelo_inurba_marseille","lat":43.31165,"lon":5.3865,"is_reserved":false,"is_disabled":false,"rental_uris":{"android":"levelo://app?vid=65b759d9-e66a-4cc0-915d-2e8ad0441e0c","ios":"levelo://app?vid=65b759d9-e66a-4cc0-915d-2e8ad0441e0c"},"vehicle_type_id":"4","last_reported":1769745535,"current_range_meters":8800,"station_id":"","pricing_plan_id":"cebpf4jnsgd1na2vs0mg"},{"bike_id":"81eceb7d-7d2f-4d72-b1a0-9243e3511b3e","system_id":"levelo_inurba_marseille","lat":43.278404,"lon":5.392104,"is_reserved":false,"is_disabled":false,"rental_uris":{"android":"levelo://app?vid=81eceb7d-7d2f-4d72-b1a0-9243e3511b3e","ios":"levelo://app?vid=81eceb7d-7d2f-4d72-b1a0-9243e3511b3e"},"vehicle_type_id":"4","last_reported":1769745535,"current_range_meters":9200,"station_id":"ce4bhjp2rcd13ifvqga0","pricing_plan_id":"cebpf4jnsgd1na2vs0mg"},{"bike_id":"c2029e8e-62e9-40bd-90c8-2d85b607b409","system_id":"levelo_inurba_marseille","lat":43.29744,"lon":5.42783,"is_reserved":false,"is_disabled":false,"rental_uris":{"android":"levelo://app?vid=c2029e8e-62e9-40bd-90c8-2d85b607b409","ios":"levelo://app?vid=c2029e8e-62e9-40bd-90c8-2d85b607b409"},"vehicle_type_id":"4","last_reported":1769745535,"current_range_meters":9200,"station_id":"st_d3md5207bmas73dh9klg","pricing_plan_id":"cebpf4jnsgd1na2vs0mg"},{"bike_id":"d1b28292-8ed3-45e2-ab5e-d2f59ce7bc2d","system_id":"levelo_inurba_marseille","lat":43.28725,"lon":5.36089,"is_reserved":false,"is_disabled":false,"rental_uris":{"android":"levelo://app?vid=d1b28292-8ed3-45e2-ab5e-d2f59ce7bc2d","ios":"levelo://app?vid=d1b28292-8ed3-45e2-ab5e-d2f59ce7bc2d"},"vehicle_type_id":"4","last_reported":1769745535,"current_range_meters":9200,"station_id":"cki0cbj6b192h4jlfktg","pricing_plan_id":"cebpf4jnsgd1na2vs0mg"},{"bike_id":"34042a3c-9df4-43e1-ae33-6fa8716be5c7","system_id":"levelo_inurba_marseille","lat":43.26952,"lon":5.38615,"is_reserved":false,"is_disabled":false,"rental_uris":{"android":"levelo://app?vid=34042a3c-9df4-43e1-ae33-6fa8716be5c7","ios":"levelo://app?vid=34042a3c-9df4-43e1-ae33-6fa8716be5c7"},"vehicle_type_id":"4","last_reported":1769745535,"current_range_meters":9200,"station_id":"ce4bhh92rcd13ifvqfh0","pricing_plan_id":"cebpf4jnsgd1na2vs0mg"},{"bike_id":"3dfd43a9-22e0-4a6b-b358-b96e1598c01a","system_id":"levelo_inurba_marseille","lat":43.286728,"lon":5.386724,"is_reserved":false,"is_disabled":false,"rental_uris":{"android":"levelo://app?vid=3dfd43a9-22e0-4a6b-b358-b96e1598c01a","ios":"levelo://app?vid=3dfd43a9-22e0-4a6b-b358-b96e1598c01a"},"vehicle_type_id":"4","last_reported":1769745535,"current_range_meters":9200,"station_id":"ce4bh492rcd13ifvqdug","pricing_plan_id":"cebpf4jnsgd1na2vs0mg"},{"bike_id":"4ed8b7c4-4959-4a76-8810-ca1bf04888b4","system_id":"levelo_inurba_marseille","lat":43.24467,"lon":5.42534,"is_reserved":false,"is_disabled":false,"rental_uris":{"android":"levelo://app?vid=4ed8b7c4-4959-4a76-8810-ca1bf04888b4","ios":"levelo://app?vid=4ed8b7c4-4959-4a76-8810-ca1bf04888b4"},"vehicle_type_id":"4","last_reported":1769745535,"current_range_meters":9200,"station_id":"st_d4a3vfp97mjs738cd8kg","pricing_plan_id":"cebpf4jnsgd1na2vs0mg"},{"bike_id":"94842764-1da0-47c3-981d-a8a494b1c082","system_id":"levelo_inurba_marseille","lat":43.246465,"lon":5.388954,"is_reserved":false,"is_disabled":false,"rental_uris":{"android":"levelo://app?vid=94842764-1da0-47c3-981d-a8a494b1c082","ios":"levelo://app?vid=94842764-1da0-47c3-981d-a8a494b1c082"},"vehicle_type_id":"4","last_reported":1769745535,"current_range_meters":9200,"station_id":"ce4bhg12rcd13ifvqf60","pricing_plan_id":"cebpf4jnsgd1na2vs0mg"},{"bike_id":"6db32354-39e2-41e8-80a5-e0f9b5a112e0","system_id":"levelo_inurba_marseille","lat":43.29704,"lon":5.36615,"is_reserved":false,"is_disabled":false,"rental_uris":{"android":"levelo://app?vid=6db32354-39e2-41e8-80a5-e0f9b5a112e0","ios":"levelo://app?vid=6db32354-39e2-41e8-80a5-e0f9b5a112e0"},"vehicle_type_id":"4","last_reported":1769745535,"current_range_meters":9200,"station_id":"ce4bgn12rcd13ifvqbt0","pricing_plan_id":"cebpf4jnsgd1na2vs0mg"},{"bike_id":"6f006526-2e34-462f-a4a0-8e0a4c4ceba5","system_id":"levelo_inurba_marseille","lat":43.24645,"lon":5.38884,"is_reserved":false,"is_disabled":false,"rental_uris":{"android":"levelo://app?vid=6f006526-2e34-462f-a4a0-8e0a4c4ceba5","ios":"levelo://app?vid=6f006526-2e34-462f-a4a0-8e0a4c4ceba5"},"vehicle_type_id":"4","last_reported":1769745535,"current_range_meters":9200,"station_id":"ce4bhg12rcd13ifvqf60","pricing_plan_id":"cebpf4jnsgd1na2vs0mg"},{"bike_id":"825b03b0-d3a7-4d87-9fdf-bfbee26483b0","system_id":"levelo_inurba_marseille","lat":43.25083,"lon":5.39509,"is_reserved":false,"is_disabled":false,"rental_uris":{"android":"levelo://app?vid=825b03b0-d3a7-4d87-9fdf-bfbee26483b0","ios":"levelo://app?vid=825b03b0-d3a7-4d87-9fdf-bfbee26483b0"},"vehicle_type_id":"4","last_reported":1769745535,"current_range_meters":9200,"station_id":"ce4bhm12rcd13ifvqgkg","pricing_plan_id":"cebpf4jnsgd1na2vs0mg"},{"bike_id":"da306985-5615-44bf-bba4-a23f01f476f5","system_id":"levelo_inurba_marseille","lat":43.28609,"lon":5.37066,"is_reserved":false,"is_disabled":false,"rental_uris":{"android":"levelo://app?vid=da306985-5615-44bf-bba4-a23f01f476f5","ios":"levelo://app?vid=da306985-5615-44bf-bba4-a23f01f476f5"},"vehicle_type_id":"4","last_reported":1769745535,"current_range_meters":9200,"station_id":"ce4bht12rcd13ifvqi60","pricing_plan_id":"cebpf4jnsgd1na2vs0mg"},{"bike_id":"674d0755-bda6-44bd-8dd4-47ceec1f93de","system_id":"levelo_inurba_marseille","lat":43.24468,"lon":5.42537,"is_reserved":false,"is_disabled":false,"rental_uris":{"android":"levelo://app?vid=674d0755-bda6-44bd-8dd4-47ceec1f93de","ios":"levelo://app?vid=674d0755-bda6-44bd-8dd4-47ceec1f93de"},"vehicle_type_id":"4","last_reported":1769745535,"current_range_meters":9600,"station_id":"st_d4a3vfp97mjs738cd8kg","pricing_plan_id":"cebpf4jnsgd1na2vs0mg"},{"bike_id":"a633dcb8-69cc-416a-ac75-271c195c29ed","system_id":"levelo_inurba_marseille","lat":43.25486,"lon":5.37636,"is_reserved":false,"is_disabled":false,"rental_uris":{"android":"levelo://app?vid=a633dcb8-69cc-416a-ac75-271c195c29ed","ios":"levelo://app?vid=a633dcb8-69cc-416a-ac75-271c195c29ed"},"vehicle_type_id":"4","last_reported":1769745535,"current_range_meters":9600,"station_id":"ce4bhh12rcd13ifvqff0","pricing_plan_id":"cebpf4jnsgd1na2vs0mg"},{"bike_id":"c067032f-0e81-4fc9-8442-8799da04fe4c","system_id":"levelo_inurba_marseille","lat":43.2175,"lon":5.34611,"is_reserved":false,"is_disabled":false,"rental_uris":{"android":"levelo://app?vid=c067032f-0e81-4fc9-8442-8799da04fe4c","ios":"levelo://app?vid=c067032f-0e81-4fc9-8442-8799da04fe4c"},"vehicle_type_id":"4","last_reported":1769745535,"current_range_meters":9600,"station_id":"st_cvj6r9ubvosntc0bgbag","pricing_plan_id":"cebpf4jnsgd1na2vs0mg"},{"bike_id":"550fbd4f-949e-4d68-805b-0d9cfbfc9a00","system_id":"levelo_inurba_marseille","lat":43.28266,"lon":5.35072,"is_reserved":false,"is_disabled":false,"rental_uris":{"android":"levelo://app?vid=550fbd4f-949e-4d68-805b-0d9cfbfc9a00","ios":"levelo://app?vid=550fbd4f-949e-4d68-805b-0d9cfbfc9a00"},"vehicle_type_id":"4","last_reported":1769745535,"current_range_meters":9600,"station_id":"ce4bhbp2rcd13ifvqerg","pricing_plan_id":"cebpf4jnsgd1na2vs0mg"},{"bike_id":"e902ef9f-7cd4-4fe6-a82c-948b6d2fcf15","system_id":"levelo_inurba_marseille","lat":43.299021,"lon":5.436582,"is_reserved":false,"is_disabled":false,"rental_uris":{"android":"levelo://app?vid=e902ef9f-7cd4-4fe6-a82c-948b6d2fcf15","ios":"levelo://app?vid=e902ef9f-7cd4-4fe6-a82c-948b6d2fcf15"},"vehicle_type_id":"4","last_reported":1769745535,"current_range_meters":9600,"station_id":"ce4bhpp2rcd13ifvqhfg","pricing_plan_id":"cebpf4jnsgd1na2vs0mg"},{"bike_id":"84b86919-3d1a-4ce7-b698-3b1b00767cfc","system_id":"levelo_inurba_marseille","lat":43.28475,"lon":5.48401,"is_reserved":false,"is_disabled":true,"rental_uris":{"android":"levelo://app?vid=84b86919-3d1a-4ce7-b698-3b1b00767cfc","ios":"levelo://app?vid=84b86919-3d1a-4ce7-b698-3b1b00767cfc"},"vehicle_type_id":"4","last_reported":1769745535,"current_range_meters":9600,"station_id":"","pricing_plan_id":"cebpf4jnsgd1na2vs0mg"},{"bike_id":"1447f4a9-ea41-4349-8f99-44470ded59a2","system_id":"levelo_inurba_marseille","lat":43.22935,"lon":5.35375,"is_reserved":false,"is_disabled":false,"rental_uris":{"android":"levelo://app?vid=1447f4a9-ea41-4349-8f99-44470ded59a2","ios":"levelo://app?vid=1447f4a9-ea41-4349-8f99-44470ded59a2"},"vehicle_type_id":"4","last_reported":1769745535,"current_range_meters":9600,"station_id":"cpo3532slgdg3j2ikp40","pricing_plan_id":"cebpf4jnsgd1na2vs0mg"},{"bike_id":"9e8ea578-2c3b-4d29-be3f-57c6aed2a6cc","system_id":"levelo_inurba_marseille","lat":43.30616,"lon":5.3721,"is_reserved":false,"is_disabled":false,"rental_uris":{"android":"levelo://app?vid=9e8ea578-2c3b-4d29-be3f-57c6aed2a6cc","ios":"levelo://app?vid=9e8ea578-2c3b-4d29-be3f-57c6aed2a6cc"},"vehicle_type_id":"4","last_reported":1769745535,"current_range_meters":9600,"station_id":"ce4bgqh2rcd13ifvqc4g","pricing_plan_id":"cebpf4jnsgd1na2vs0mg"},{"bike_id":"eedf6c4a-604c-448d-9cdd-2409a3e5332f","system_id":"levelo_inurba_marseille","lat":43.25589,"lon":5.38248,"is_reserved":false,"is_disabled":false,"rental_uris":{"android":"levelo://app?vid=eedf6c4a-604c-448d-9cdd-2409a3e5332f","ios":"levelo://app?vid=eedf6c4a-604c-448d-9cdd-2409a3e5332f"},"vehicle_type_id":"4","last_reported":1769745535,"current_range_meters":9600,"station_id":"ce4bhih2rcd13ifvqfs0","pricing_plan_id":"cebpf4jnsgd1na2vs0mg"},