{"last_updated":1781451046,"ttl":60,"version":"2.2","data":{"bikes":[{"bike_id":"ec12d144-24c8-4071-abf6-197e520eae96","system_id":"levelo_inurba_marseille","lat":43.337444,"lon":5.374475,"is_reserved":false,"is_disabled":false,"rental_uris":{"android":"levelo://app?vid=ec12d144-24c8-4071-abf6-197e520eae96","ios":"levelo://app?vid=ec12d144-24c8-4071-abf6-197e520eae96"},"vehicle_type_id":"4","last_reported":1781451046,"current_range_meters":0,"station_id":"","pricing_plan_id":"cebpf4jnsgd1na2vs0mg"},{"bike_id":"50958dce-4e1d-4404-87e6-7173aa67c6e9","system_id":"levelo_inurba_marseille","lat":43.26369,"lon":5.41089,"is_reserved":false,"is_disabled":true,"rental_uris":{"android":"levelo://app?vid=50958dce-4e1d-4404-87e6-7173aa67c6e9","ios":"levelo://app?vid=50958dce-4e1d-4404-87e6-7173aa67c6e9"},"vehicle_type_id":"4","last_reported":1781451046,"current_range_meters":2800,"station_id":"st_d4e5ca6na9uc73bfl5fg","pricing_plan_id":"cebpf4jnsgd1na2vs0mg"},{"bike_id":"ef7a227a-c028-487c-813f-a59a62d2a499","system_id":"levelo_inurba_marseille","lat":43.256064,"lon":5.382306,"is_reserved":false,"is_disabled":false,"rental_uris":{"android":"levelo://app?vid=ef7a227a-c028-487c-813f-a59a62d2a499","ios":"levelo://app?vid=ef7a227a-c028-487c-813f-a59a62d2a499"},"vehicle_type_id":"4","last_reported":1781451046,"current_range_meters":2800,"station_id":"ce4bhih2rcd13ifvqfs0","pricing_plan_id":"cebpf4jnsgd1na2vs0mg"},{"bike_id":"709a62bf-8432-4281-9288-af5845d1e70c","system_id":"levelo_inurba_marseille","lat":43.24951,"lon":5.40521,"is_reserved":false,"is_disabled":false,"rental_uris":{"android":"levelo://app?vid=709a62bf-8432-4281-9288-af5845d1e70c","ios":"levelo://app?vid=709a62bf-8432-4281-9288-af5845d1e70c"},"vehicle_type_id":"4","last_reported":1781451046,"current_range_meters":2800,"station_id":"st_d2ngiaodas8pm72gd1h0","pricing_plan_id":"cebpf4jnsgd1na2vs0mg"},{"bike_id":"07b3fa4a-4d9f-483b-8833-1425a918ee00","system_id":"levelo_inurba_marseille","lat":43.30092,"lon":5.39069,"is_reserved":false,"is_disabled":false,"rental_uris":{"android":"levelo://app?vid=07b3fa4a-4d9f-483b-8833-1425a918ee00","ios":"levelo://app?vid=07b3fa4a-4d9f-483b-8833-1425a918ee00"},"vehicle_type_id":"4","last_reported":1781451046,"current_range_meters":2800,"station_id":"ce4bh192rcd13ifvqdb0","pricing_plan_id":"cebpf4jnsgd1na2vs0mg"},{"bike_id":"d2673cd9-6c70-4d80-832c-9de4211b4cad","system_id":"levelo_inurba_marseille","lat":43.27382,"lon":5.3624,"is_reserved":false,"is_disabled":true,"rental_uris":{"android":"levelo://app?vid=d2673cd9-6c70-4d80-832c-9de4211b4cad","ios":"levelo://app?vid=d2673cd9-6c70-4d80-832c-9de4211b4cad"},"vehicle_type_id":"4","last_reported":1781451046,"current_range_meters":2800,"station_id":"ce4bhbh2rcd13ifvqeo0","pricing_plan_id":"cebpf4jnsgd1na2vs0mg"},{"bike_id":"12326527-aa04-43ed-8122-fab62005bcac","system_id":"levelo_inurba_marseille","lat":43.27357,"lon":5.36188,"is_reserved":false,"is_disabled":true,"rental_uris":{"android":"levelo://app?vid=12326527-aa04-43ed-8122-fab62005bcac","ios":"levelo://app?vid=12326527-aa04-43ed-8122-fab62005bcac"},"vehicle_type_id":"4","last_reported":1781451046,"current_range_meters":2800,"station_id":"","pricing_plan_id":"cebpf4jnsgd1na2vs0mg"},{"bike_id":"20b0f04c-b882-40c0-b849-52f7f91d6240","system_id":"levelo_inurba_marseille","lat":43.27479,"lon":5.41848,"is_reserved":false,"is_disabled":false,"rental_uris":{"android":"levelo://app?vid=20b0f04c-b882-40c0-b849-52f7f91d6240","ios":"levelo://app?vid=20b0f04c-b882-40c0-b849-52f7f91d6240"},"vehicle_type_id":"4","last_reported":1781451046,"current_range_meters":2800,"station_id":"","pricing_plan_id":"cebpf4jnsgd1na2vs0mg"},{"bike_id":"4b910ed8-62e8-40cd-93dc-35308cfde7be","system_id":"levelo_inurba_marseille","lat":43.26694,"lon":5.38272,"is_reserved":false,"is_disabled":true,"rental_uris":{"android":"levelo://app?vid=4b910ed8-62e8-40cd-93dc-35308cfde7be","ios":"levelo://app?vid=4b910ed8-62e8-40cd-93dc-35308cfde7be"},"vehicle_type_id":"4","last_reported":1781451046,"current_range_meters":2800,"station_id":"ce4bhg92rcd13ifvqf90","pricing_plan_id":"cebpf4jnsgd1na2vs0mg"},{"bike_id":"23e4f7f6-42a4-42d6-a3b3-18c354fbd676","system_id":"levelo_inurba_marseille","lat":43.26221,"lon":5.38772,"is_reserved":false,"is_disabled":false,"rental_uris":{"android":"levelo://app?vid=23e4f7f6-42a4-42d6-a3b3-18c354fbd676","ios":"levelo://app?vid=23e4f7f6-42a4-42d6-a3b3-18c354fbd676"},"vehicle_type_id":"4","last_reported":1781451046,"current_range_meters":2800,"station_id":"st_d8gjfg747rts73coq3b0","pricing_plan_id":"cebpf4jnsgd1na2vs0mg"},{"bike_id":"d89537aa-fbc0-4608-92f9-c315a30fed18","system_id":"levelo_inurba_marseille","lat":43.29175,"lon":5.37142,"is_reserved":false,"is_disabled":true,"rental_uris":{"android":"levelo://app?vid=d89537aa-fbc0-4608-92f9-c315a30fed18","ios":"levelo://app?vid=d89537aa-fbc0-4608-92f9-c315a30fed18"},"vehicle_type_id":"4","last_reported":1781451046,"current_range_meters":2800,"station_id":"ce4bha92rcd13ifvqeh0","pricing_plan_id":"cebpf4jnsgd1na2vs0mg"},{"bike_id":"52f26aa4-430a-4657-aa04-9edec5414fb6","system_id":"levelo_inurba_marseille","lat":43.25118,"lon":5.41006,"is_reserved":false,"is_disabled":false,"rental_uris":{"android":"levelo://app?vid=52f26aa4-430a-4657-aa04-9edec5414fb6","ios":"levelo://app?vid=52f26aa4-430a-4657-aa04-9edec5414fb6"},"vehicle_type_id":"4","last_reported":1781451046,"current_range_meters":2800,"station_id":"","pricing_plan_id":"cebpf4jnsgd1na2vs0mg"},{"bike_id":"c1af97a7-653d-48b0-93fa-b13719fffa61","system_id":"levelo_inurba_marseille","lat":43.239694,"lon":5.366297,"is_reserved":false,"is_disabled":false,"rental_uris":{"android":"levelo://app?vid=c1af97a7-653d-48b0-93fa-b13719fffa61","ios":"levelo://app?vid=c1af97a7-653d-48b0-93fa-b13719fffa61"},"vehicle_type_id":"4","last_reported":1781451046,"current_range_meters":2800,"station_id":"ce4bhi12rcd13ifvqfp0","pricing_plan_id":"cebpf4jnsgd1na2vs0mg"},{"bike_id":"db6cbd6a-8b9a-4c6f-8ebd-ed3977db2149","system_id":"levelo_inurba_marseille","lat":43.279989,"lon":5.400143,"is_reserved":false,"is_disabled":false,"rental_uris":{"android":"levelo://app?vid=db6cbd6a-8b9a-4c6f-8ebd-ed3977db2149","ios":"levelo://app?vid=db6cbd6a-8b9a-4c6f-8ebd-ed3977db2149"},"vehicle_type_id":"4","last_reported":1781451046,"current_range_meters":2800,"station_id":"ce4bho92rcd13ifvqh4g","pricing_plan_id":"cebpf4jnsgd1na2vs0mg"},{"bike_id":"1ee09c36-c3d7-429d-900c-73e2f1643a9e","system_id":"levelo_inurba_marseille","lat":43.27636,"lon":5.36106,"is_reserved":false,"is_disabled":true,"rental_uris":{"android":"levelo://app?vid=1ee09c36-c3d7-429d-900c-73e2f1643a9e","ios":"levelo://app?vid=1ee09c36-c3d7-429d-900c-73e2f1643a9e"},"vehicle_type_id":"4","last_reported":1781451046,"current_range_meters":2800,"station_id":"ce4bgj92rcd13ifvqbe0","pricing_plan_id":"cebpf4jnsgd1na2vs0mg"},{"bike_id":"743d7a49-ee48-4eef-bff9-1b426eaf0aaa","system_id":"levelo_inurba_marseille","lat":43.2338,"lon":5.41266,"is_reserved":false,"is_disabled":false,"rental_uris":{"android":"levelo://app?vid=743d7a49-ee48-4eef-bff9-1b426eaf0aaa","ios":"levelo://app?vid=743d7a49-ee48-4eef-bff9-1b426eaf0aaa"},"vehicle_type_id":"4","last_reported":1781451046,"current_range_meters":2800,"station_id":"st_d75pvndhf9lc73cqq3eg","pricing_plan_id":"cebpf4jnsgd1na2vs0mg"},{"bike_id":"7996859e-00db-45f6-8025-7017f3207df2","system_id":"levelo_inurba_marseille","lat":43.23776,"lon":5.36636,"is_reserved":false,"is_disabled":false,"rental_uris":{"android":"levelo://app?vid=7996859e-00db-45f6-8025-7017f3207df2","ios":"levelo://app?vid=7996859e-00db-45f6-8025-7017f3207df2"},"vehicle_type_id":"4","last_reported":1781451046,"current_range_meters":3200,"station_id":"st_d3nk18o9ro0c73en2l3g","pricing_plan_id":"cebpf4jnsgd1na2vs0mg"},{"bike_id":"4d5a5509-6e0f-4940-a752-9cd3b62fe513","system_id":"levelo_inurba_marseille","lat":43.28416,"lon":5.3499,"is_reserved":false,"is_disabled":false,"rental_uris":{"android":"levelo://app?vid=4d5a5509-6e0f-4940-a752-9cd3b62fe513","ios":"levelo://app?vid=4d5a5509-6e0f-4940-a752-9cd3b62fe513"},"vehicle_type_id":"4","last_reported":1781451046,"current_range_meters":3200,"station_id":"ce4bhbh2rcd13ifvqepg","pricing_plan_id":"cebpf4jnsgd1na2vs0mg"},{"bike_id":"fca4716d-363f-4061-9268-5fdf2b190705","system_id":"levelo_inurba_marseille","lat":43.281035,"lon":5.367145,"is_reserved":false,"is_disabled":true,"rental_uris":{"android":"levelo://app?vid=fca4716d-363f-4061-9268-5fdf2b190705","ios":"levelo://app?vid=fca4716d-363f-4061-9268-5fdf2b190705"},"vehicle_type_id":"4","last_reported":1781451046,"current_range_meters":3200,"station_id":"ce4bhgp2rcd13ifvqfc0","pricing_plan_id":"cebpf4jnsgd1na2vs0mg"},{"bike_id":"459952f5-55f8-43e7-b3ad-b9d83a8b249e","system_id":"levelo_inurba_marseille","lat":43.24633,"lon":5.41696,"is_reserved":false,"is_disabled":false,"rental_uris":{"android":"levelo://app?vid=459952f5-55f8-43e7-b3ad-b9d83a8b249e","ios":"levelo://app?vid=459952f5-55f8-43e7-b3ad-b9d83a8b249e"},"vehicle_type_id":"4","last_reported":1781451046,"current_range_meters":3200,"station_id":"","pricing_plan_id":"cebpf4jnsgd1na2vs0mg"},{"bike_id":"5b5ea2fb-3ba8-4c10-841c-ca34891a615c","system_id":"levelo_inurba_marseille","lat":43.29371,"lon":5.3637,"is_reserved":false,"is_disabled":false,"rental_uris":{"android":"levelo://app?vid=5b5ea2fb-3ba8-4c10-841c-ca34891a615c","ios":"levelo://app?vid=5b5ea2fb-3ba8-4c10-841c-ca34891a615c"},"vehicle_type_id":"4","last_reported":1781451046,"current_range_meters":3200,"station_id":"","pricing_plan_id":"cebpf4jnsgd1na2vs0mg"},{"bike_id":"6216e971-d99d-4e09-bc68-2b6a22b618d5","system_id":"levelo_inurba_marseille","lat":43.34199,"lon":5.36063,"is_reserved":false,"is_disabled":false,"rental_uris":{"android":"levelo://app?vid=6216e971-d99d-4e09-bc68-2b6a22b618d5","ios":"levelo://app?vid=6216e971-d99d-4e09-bc68-2b6a22b618d5"},"vehicle_type_id":"4","last_reported":1781451046,"current_range_meters":3200,"station_id":"","pricing_plan_id":"cebpf4jnsgd1na2vs0mg"},{"bike_id":"dc3e3e35-560a-41ac-8b92-c31e5b3f3434","system_id":"levelo_inurba_marseille","lat":43.26689,"lon":5.39294,"is_reserved":false,"is_disabled":false,"rental_uris":{"android":"levelo://app?vid=dc3e3e35-560a-41ac-8b92-c31e5b3f3434","ios":"levelo://app?vid=dc3e3e35-560a-41ac-8b92-c31e5b3f3434"},"vehicle_type_id":"4","last_reported":1781451046,"current_range_meters":3200,"station_id":"","pricing_plan_id":"cebpf4jnsgd1na2vs0mg"},{"bike_id":"6fb07b35-b88f-45ae-9e9e-ceed1b219374","system_id":"levelo_inurba_marseille","lat":43.32478,"lon":5.36566,"is_reserved":false,"is_disabled":true,"rental_uris":{"android":"levelo://app?vid=6fb07b35-b88f-45ae-9e9e-ceed1b219374","ios":"levelo://app?vid=6fb07b35-b88f-45ae-9e9e-ceed1b219374"},"vehicle_type_id":"4","last_reported":1781451046,"current_range_meters":3200,"station_id":"ce4bhs12rcd13ifvqhvg","pricing_plan_id":"cebpf4jnsgd1na2vs0mg"},{"bike_id":"61acdcff-76d7-4bb2-a256-e2ec611550e8","system_id":"levelo_inurba_marseille","lat":43.26562,"lon":5.39015,"is_reserved":false,"is_disabled":true,"rental_uris":{"android":"levelo://app?vid=61acdcff-76d7-4bb2-a256-e2ec611550e8","ios":"levelo://app?vid=61acdcff-76d7-4bb2-a256-e2ec611550e8"},"vehicle_type_id":"4","last_reported":1781451046,"current_range_meters":3200,"station_id":"ce4bhe12rcd13ifvqf30","pricing_plan_id":"cebpf4jnsgd1na2vs0mg"},{"bike_id":"3eb5cc9f-e4a7-4d94-96ae-02c0ff0e3793","system_id":"levelo_inurba_marseille","lat":43.29008,"lon":5.35605,"is_reserved":false,"is_disabled":false,"rental_uris":{"android":"levelo://app?vid=3eb5cc9f-e4a7-4d94-96ae-02c0ff0e3793","ios":"levelo://app?vid=3eb5cc9f-e4a7-4d94-96ae-02c0ff0e3793"},"vehicle_type_id":"4","last_reported":1781451046,"current_range_meters":3600,"station_id":"ce4bhb92rcd13ifvqen0","pricing_plan_id":"cebpf4jnsgd1na2vs0mg"},{"bike_id":"8f809aba-fb91-4274-9669-f9211fc8e411","system_id":"levelo_inurba_marseille","lat":43.23312,"lon":5.39942,"is_reserved":false,"is_disabled":false,"rental_uris":{"android":"levelo://app?vid=8f809aba-fb91-4274-9669-f9211fc8e411","ios":"levelo://app?vid=8f809aba-fb91-4274-9669-f9211fc8e411"},"vehicle_type_id":"4","last_reported":1781451046,"current_range_meters":3600,"station_id":"","pricing_plan_id":"cebpf4jnsgd1na2vs0mg"},{"bike_id":"a11b6a11-e911-46b7-8bf0-f1c8fa5e375a","system_id":"levelo_inurba_marseille","lat":43.23966,"lon":5.36622,"is_reserved":false,"is_disabled":false,"rental_uris":{"android":"levelo://app?vid=a11b6a11-e911-46b7-8bf0-f1c8fa5e375a","ios":"levelo://app?vid=a11b6a11-e911-46b7-8bf0-f1c8fa5e375a"},"vehicle_type_id":"4","last_reported":1781451046,"current_range_meters":3600,"station_id":"ce4bhi12rcd13ifvqfp0","pricing_plan_id":"cebpf4jnsgd1na2vs0mg"},{"bike_id":"cea27a5c-6e60-492a-810e-7acfd514f022","system_id":"levelo_inurba_marseille","lat":43.32436,"lon":5.36638,"is_reserved":false,"is_disabled":false,"rental_uris":{"android":"levelo://app?vid=cea27a5c-6e60-492a-810e-7acfd514f022","ios":"levelo://app?vid=cea27a5c-6e60-492a-810e-7acfd514f022"},"vehicle_type_id":"4","last_reported":1781451046,"current_range_meters":3600,"station_id":"","pricing_plan_id":"cebpf4jnsgd1na2vs0mg"},{"bike_id":"03504f75-3882-4162-ace9-10623462468c","system_id":"levelo_inurba_marseille","lat":43.22922,"lon":5.35377,"is_reserved":false,"is_disabled":false,"rental_uris":{"android":"levelo://app?vid=03504f75-3882-4162-ace9-10623462468c","ios":"levelo://app?vid=03504f75-3882-4162-ace9-10623462468c"},"vehicle_type_id":"4","last_reported":1781451046,"current_range_meters":3600,"station_id":"cpo3532slgdg3j2ikp40","pricing_plan_id":"cebpf4jnsgd1na2vs0mg"},{"bike_id":"8aa8ee92-8b60-4897-8c7a-a35aa2b392cd","system_id":"levelo_inurba_marseille","lat":43.27379,"lon":5.36261,"is_reserved":false,"is_disabled":false,"rental_uris":{"android":"levelo://app?vid=8aa8ee92-8b60-4897-8c7a-a35aa2b392cd","ios":"levelo://app?vid=8aa8ee92-8b60-4897-8c7a-a35aa2b392cd"},"vehicle_type_id":"4","last_reported":1781451046,"current_range_meters":3600,"station_id":"ce4bhbh2rcd13ifvqeo0","pricing_plan_id":"cebpf4jnsgd1na2vs0mg"},{"bike_id":"b6544458-dc78-49e9-9c67-04f6030fd736","system_id":"levelo_inurba_marseille","lat":43.24066,"lon":5.37767,"is_reserved":false,"is_disabled":false,"rental_uris":{"android":"levelo://app?vid=b6544458-dc78-49e9-9c67-04f6030fd736","ios":"levelo://app?vid=b6544458-dc78-49e9-9c67-04f6030fd736"},"vehicle_type_id":"4","last_reported":1781451046,"current_range_meters":3600,"station_id":"ce4bhnp2rcd13ifvqgvg","pricing_plan_id":"cebpf4jnsgd1na2vs0mg"},{"bike_id":"aacd3ef2-648d-4db7-aac1-750547b503fe","system_id":"levelo_inurba_marseille","lat":43.28407,"lon":5.34982,"is_reserved":false,"is_disabled":false,"rental_uris":{"android":"levelo://app?vid=aacd3ef2-648d-4db7-aac1-750547b503fe","ios":"levelo://app?vid=aacd3ef2-648d-4db7-aac1-750547b503fe"},"vehicle_type_id":"4","last_reported":1781451046,"current_range_meters":3600,"station_id":"ce4bhbh2rcd13ifvqepg","pricing_plan_id":"cebpf4jnsgd1na2vs0mg"},{"bike_id":"8ca536c9-549c-425a-8cc1-d7d8fc2c5bc3","system_id":"levelo_inurba_marseille","lat":43.23186,"lon":5.35559,"is_reserved":false,"is_disabled":false,"rental_uris":{"android":"levelo://app?vid=8ca536c9-549c-425a-8cc1-d7d8fc2c5bc3","ios":"levelo://app?vid=8ca536c9-549c-425a-8cc1-d7d8fc2c5bc3"},"vehicle_type_id":"4","last_reported":1781451046,"current_range_meters":3600,"station_id":"ce4bhu92rcd13ifvqi70","pricing_plan_id":"cebpf4jnsgd1na2vs0mg"},{"bike_id":"1dff84e9-55eb-490a-b8b9-0a5cc37cc95a","system_id":"levelo_inurba_marseille","lat":43.30801,"lon":5.37647,"is_reserved":false,"is_disabled":false,"rental_uris":{"android":"levelo://app?vid=1dff84e9-55eb-490a-b8b9-0a5cc37cc95a","ios":"levelo://app?vid=1dff84e9-55eb-490a-b8b9-0a5cc37cc95a"},"vehicle_type_id":"4","last_reported":1781451046,"current_range_meters":3600,"station_id":"ce4bgv92rcd13ifvqcq0","pricing_plan_id":"cebpf4jnsgd1na2vs0mg"},{"bike_id":"1c788ec5-566e-4d09-9344-44c449a1a9eb","system_id":"levelo_inurba_marseille","lat":43.30106,"lon":5.43073,"is_reserved":false,"is_disabled":false,"rental_uris":{"android":"levelo://app?vid=1c788ec5-566e-4d09-9344-44c449a1a9eb","ios":"levelo://app?vid=1c788ec5-566e-4d09-9344-44c449a1a9eb"},"vehicle_type_id":"4","last_reported":1781451046,"current_range_meters":3600,"station_id":"st_d3js3co5814s73ftftug","pricing_plan_id":"cebpf4jnsgd1na2vs0mg"},{"bike_id":"cf11dd40-b113-45d9-8d41-8d04b849c2c4","system_id":"levelo_inurba_marseille","lat":43.2911,"lon":5.42776,"is_reserved":false,"is_disabled":false,"rental_uris":{"android":"levelo://app?vid=cf11dd40-b113-45d9-8d41-8d04b849c2c4","ios":"levelo://app?vid=cf11dd40-b113-45d9-8d41-8d04b849c2c4"},"vehicle_type_id":"4","last_reported":1781451046,"current_range_meters":3600,"station_id":"","pricing_plan_id":"cebpf4jnsgd1na2vs0mg"},{"bike_id":"6abb9ed5-5eac-497e-9b28-08741b8304cc","system_id":"levelo_inurba_marseille","lat":43.28419,"lon":5.34977,"is_reserved":false,"is_disabled":false,"rental_uris":{"android":"levelo://app?vid=6abb9ed5-5eac-497e-9b28-08741b8304cc","ios":"levelo://app?vid=6abb9ed5-5eac-497e-9b28-08741b8304cc"},"vehicle_type_id":"4","last_reported":1781451046,"current_range_meters":3600,"station_id":"ce4bhbh2rcd13ifvqepg","pricing_plan_id":"cebpf4jnsgd1na2vs0mg"},{"bike_id":"41d61f3a-572c-4240-9f59-8b5b646be959","system_id":"levelo_inurba_marseille","lat":43.31815,"lon":5.36751,"is_reserved":false,"is_disabled":false,"rental_uris":{"android":"levelo://app?vid=41d61f3a-572c-4240-9f59-8b5b646be959","ios":"levelo://app?vid=41d61f3a-572c-4240-9f59-8b5b646be959"},"vehicle_type_id":"4","last_reported":1781451046,"current_range_meters":3600,"station_id":"","pricing_plan_id":"cebpf4jnsgd1na2vs0mg"},{"bike_id":"7717390a-9f55-4678-b2a5-ba0a73b8a548","system_id":"levelo_inurba_marseille","lat":43.31566,"lon":5.3692,"is_reserved":false,"is_disabled":false,"rental_uris":{"android":"levelo://app?vid=7717390a-9f55-4678-b2a5-ba0a73b8a548","ios":"levelo://app?vid=7717390a-9f55-4678-b2a5-ba0a73b8a548"},"vehicle_type_id":"4","last_reported":1781451046,"current_range_meters":3600,"station_id":"","pricing_plan_id":"cebpf4jnsgd1na2vs0mg"},{"bike_id":"c97fb99a-7c2e-4698-a401-a6886e4eb5f4","system_id":"levelo_inurba_marseille","lat":43.28713,"lon":5.42711,"is_reserved":false,"is_disabled":false,"rental_uris":{"android":"levelo://app?vid=c97fb99a-7c2e-4698-a401-a6886e4eb5f4","ios":"levelo://app?vid=c97fb99a-7c2e-4698-a401-a6886e4eb5f4"},"vehicle_type_id":"4","last_reported":1781451046,"current_range_meters":3600,"station_id":"","pricing_plan_id":"cebpf4jnsgd1na2vs0mg"},{"bike_id":"3f683387-f7ec-4b9f-9801-ff63896077b4","system_id":"levelo_inurba_marseille","lat":43.23955,"lon":5.36539,"is_reserved":false,"is_disabled":false,"rental_uris":{"android":"levelo://app?vid=3f683387-f7ec-4b9f-9801-ff63896077b4","ios":"levelo://app?vid=3f683387-f7ec-4b9f-9801-ff63896077b4"},"vehicle_type_id":"4","last_reported":1781451046,"current_range_meters":3600,"station_id":"","pricing_plan_id":"cebpf4jnsgd1na2vs0mg"},{"bike_id":"26b307ba-3c79-4110-957a-38220b0becb5","system_id":"levelo_inurba_marseille","lat":43.31491,"lon":5.37238,"is_reserved":false,"is_disabled":false,"rental_uris":{"android":"levelo://app?vid=26b307ba-3c79-4110-957a-38220b0becb5","ios":"levelo://app?vid=26b307ba-3c79-4110-957a-38220b0becb5"},"vehicle_type_id":"4","last_reported":1781451046,"current_range_meters":3600,"station_id":"","pricing_plan_id":"cebpf4jnsgd1na2vs0mg"},{"bike_id":"da49f8bf-ac47-4f75-a9fc-b5a0f8173bc6","system_id":"levelo_inurba_marseille","lat":43.28442,"lon":5.35894,"is_reserved":false,"is_disabled":true,"rental_uris":{"android":"levelo://app?vid=da49f8bf-ac47-4f75-a9fc-b5a0f8173bc6","ios":"levelo://app?vid=da49f8bf-ac47-4f75-a9fc-b5a0f8173bc6"},"vehicle_type_id":"4","last_reported":1781451046,"current_range_meters":4000,"station_id":"ce4bhah2rcd13ifvqei0","pricing_plan_id":"cebpf4jnsgd1na2vs0mg"},{"bike_id":"65656522-6967-4ec3-a9aa-c619425a119c","system_id":"levelo_inurba_marseille","lat":43.22539,"lon":5.3481,"is_reserved":false,"is_disabled":false,"rental_uris":{"android":"levelo://app?vid=65656522-6967-4ec3-a9aa-c619425a119c","ios":"levelo://app?vid=65656522-6967-4ec3-a9aa-c619425a119c"},"vehicle_type_id":"4","last_reported":1781451046,"current_range_meters":4000,"station_id":"st_cvj5dfep6f1abm77gieg","pricing_plan_id":"cebpf4jnsgd1na2vs0mg"},{"bike_id":"c82a33d7-d107-462f-b50d-45bd1b3f5d48","system_id":"levelo_inurba_marseille","lat":43.27814,"lon":5.4071,"is_reserved":false,"is_disabled":false,"rental_uris":{"android":"levelo://app?vid=c82a33d7-d107-462f-b50d-45bd1b3f5d48","ios":"levelo://app?vid=c82a33d7-d107-462f-b50d-45bd1b3f5d48"},"vehicle_type_id":"4","last_reported":1781451046,"current_range_meters":4000,"station_id":"ce4bhnh2rcd13ifvqgtg","pricing_plan_id":"cebpf4jnsgd1na2vs0mg"},{"bike_id":"ef329f4a-ca55-474d-aec4-36dd2957b526","system_id":"levelo_inurba_marseille","lat":43.29094,"lon":5.38128,"is_reserved":false,"is_disabled":false,"rental_uris":{"android":"levelo://app?vid=ef329f4a-ca55-474d-aec4-36dd2957b526","ios":"levelo://app?vid=ef329f4a-ca55-474d-aec4-36dd2957b526"},"vehicle_type_id":"4","last_reported":1781451046,"current_range_meters":4000,"station_id":"ce4bh512rcd13ifvqe2g","pricing_plan_id":"cebpf4jnsgd1na2vs0mg"},{"bike_id":"8ddee029-c909-4376-bb82-54a5738d73f5","system_id":"levelo_inurba_marseille","lat":43.30731,"lon":5.42447,"is_reserved":false,"is_disabled":false,"rental_uris":{"android":"levelo://app?vid=8ddee029-c909-4376-bb82-54a5738d73f5","ios":"levelo://app?vid=8ddee029-c909-4376-bb82-54a5738d73f5"},"vehicle_type_id":"4","last_reported":1781451046,"current_range_meters":4000,"station_id":"st_cvj6ca6bvosntc0bfgr0","pricing_plan_id":"cebpf4jnsgd1na2vs0mg"},{"bike_id":"245a5a18-f8de-4e94-bf59-ccbc5c58117e","system_id":"levelo_inurba_marseille","lat":43.272063,"lon":5.391814,"is_reserved":false,"is_disabled":false,"rental_uris":{"android":"levelo://app?vid=245a5a18-f8de-4e94-bf59-ccbc5c58117e","ios":"levelo://app?vid=245a5a18-f8de-4e94-bf59-ccbc5c58117e"},"vehicle_type_id":"4","last_reported":1781451046,"current_range_meters":4000,"station_id":"ce4bhhp2rcd13ifvqfm0","pricing_plan_id":"cebpf4jnsgd1na2vs0mg"},{"bike_id":"8b7063f1-08a4-4f34-84b0-c7c8b40fa9c1","system_id":"levelo_inurba_marseille","lat":43.31126,"lon":5.38637,"is_reserved":false,"is_disabled":false,"rental_uris":{"android":"levelo://app?vid=8b7063f1-08a4-4f34-84b0-c7c8b40fa9c1","ios":"levelo://app?vid=8b7063f1-08a4-4f34-84b0-c7c8b40fa9c1"},"vehicle_type_id":"4","last_reported":1781451046,"current_range_meters":4000,"station_id":"","pricing_plan_id":"cebpf4jnsgd1na2vs0mg"},{"bike_id":"649e6fee-89c0-4a20-8918-f820245263ae","system_id":"levelo_inurba_marseille","lat":43.260241,"lon":5.375521,"is_reserved":false,"is_disabled":false,"rental_uris":{"android":"levelo://app?vid=649e6fee-89c0-4a20-8918-f820245263ae","ios":"levelo://app?vid=649e6fee-89c0-4a20-8918-f820245263ae"},"vehicle_type_id":"4","last_reported":1781451046,"current_range_meters":4000,"station_id":"ce4bhgh2rcd13ifvqfa0","pricing_plan_id":"cebpf4jnsgd1na2vs0mg"},{"bike_id":"4c0aaefd-2b66-45a7-8e6f-bab47a273073","system_id":"levelo_inurba_marseille","lat":43.32462,"lon":5.4255,"is_reserved":false,"is_disabled":false,"rental_uris":{"android":"levelo://app?vid=4c0aaefd-2b66-45a7-8e6f-bab47a273073","ios":"levelo://app?vid=4c0aaefd-2b66-45a7-8e6f-bab47a273073"},"vehicle_type_id":"4","last_reported":1781451046,"current_range_meters":4000,"station_id":"","pricing_plan_id":"cebpf4jnsgd1na2vs0mg"},{"bike_id":"edde9c35-c5f5-4ae7-83e7-e32268869946","system_id":"levelo_inurba_marseille","lat":43.30554,"lon":5.38411,"is_reserved":false,"is_disabled":false,"rental_uris":{"android":"levelo://app?vid=edde9c35-c5f5-4ae7-83e7-e32268869946","ios":"levelo://app?vid=edde9c35-c5f5-4ae7-83e7-e32268869946"},"vehicle_type_id":"4","last_reported":1781451046,"current_range_meters":4000,"station_id":"ce4bgg92rcd13ifvqb30","pricing_plan_id":"cebpf4jnsgd1na2vs0mg"},{"bike_id":"77a3e5cd-10a1-4b18-bd77-e146c62f220c","system_id":"levelo_inurba_marseille","lat":43.28102,"lon":5.37832,"is_reserved":false,"is_disabled":false,"rental_uris":{"android":"levelo://app?vid=77a3e5cd-10a1-4b18-bd77-e146c62f220c","ios":"levelo://app?vid=77a3e5cd-10a1-4b18-bd77-e146c62f220c"},"vehicle_type_id":"4","last_reported":1781451046,"current_range_meters":4000,"station_id":"ce4bha12rcd13ifvqee0","pricing_plan_id":"cebpf4jnsgd1na2vs0mg"},{"bike_id":"8185a93a-df23-4cba-b5aa-efc041cddc09","system_id":"levelo_inurba_marseille","lat":43.29632,"lon":5.40608,"is_reserved":false,"is_disabled":true,"rental_uris":{"android":"levelo://app?vid=8185a93a-df23-4cba-b5aa-efc041cddc09","ios":"levelo://app?vid=8185a93a-df23-4cba-b5aa-efc041cddc09"},"vehicle_type_id":"4","last_reported":1781451046,"current_range_meters":4400,"station_id":"ce4bh0h2rcd13ifvqd60","pricing_plan_id":"cebpf4jnsgd1na2vs0mg"},{"bike_id":"93b03f6b-edc6-445d-908a-770c538c330f","system_id":"levelo_inurba_marseille","lat":43.25963,"lon":5.39409,"is_reserved":false,"is_disabled":false,"rental_uris":{"android":"levelo://app?vid=93b03f6b-edc6-445d-908a-770c538c330f","ios":"levelo://app?vid=93b03f6b-edc6-445d-908a-770c538c330f"},"vehicle_type_id":"4","last_reported":1781451046,"current_range_meters":4400,"station_id":"","pricing_plan_id":"cebpf4jnsgd1na2vs0mg"},{"bike_id":"d2c1c417-9992-4f5c-be0f-08fcbeddbcd9","system_id":"levelo_inurba_marseille","lat":43.29591,"lon":5.38105,"is_reserved":false,"is_disabled":true,"rental_uris":{"android":"levelo://app?vid=d2c1c417-9992-4f5c-be0f-08fcbeddbcd9","ios":"levelo://app?vid=d2c1c417-9992-4f5c-be0f-08fcbeddbcd9"},"vehicle_type_id":"4","last_reported":1781451046,"current_range_meters":4400,"station_id":"ce4bgl12rcd13ifvqbo0","pricing_plan_id":"cebpf4jnsgd1na2vs0mg"},{"bike_id":"51d4efbc-c158-41ce-b655-6df718012fe6","system_id":"levelo_inurba_marseille","lat":43.25093,"lon":5.39499,"is_reserved":false,"is_disabled":false,"rental_uris":{"android":"levelo://app?vid=51d4efbc-c158-41ce-b655-6df718012fe6","ios":"levelo://app?vid=51d4efbc-c158-41ce-b655-6df718012fe6"},"vehicle_type_id":"4","last_reported":1781451046,"current_range_meters":4400,"station_id":"ce4bhm12rcd13ifvqgkg","pricing_plan_id":"cebpf4jnsgd1na2vs0mg"},{"bike_id":"d51ce86a-5b38-4b76-8e51-2a3373a4f2df","system_id":"levelo_inurba_marseille","lat":43.32052,"lon":5.36829,"is_reserved":false,"is_disabled":false,"rental_uris":{"android":"levelo://app?vid=d51ce86a-5b38-4b76-8e51-2a3373a4f2df","ios":"levelo://app?vid=d51ce86a-5b38-4b76-8e51-2a3373a4f2df"},"vehicle_type_id":"4","last_reported":1781451046,"current_range_meters":4400,"station_id":"","pricing_plan_id":"cebpf4jnsgd1na2vs0mg"},{"bike_id":"1bad5c3d-a537-4cef-a409-4d865ab2e318","system_id":"levelo_inurba_marseille","lat":43.25597,"lon":5.382348,"is_reserved":false,"is_disabled":false,"rental_uris":{"android":"levelo://app?vid=1bad5c3d-a537-4cef-a409-4d865ab2e318","ios":"levelo://app?vid=1bad5c3d-a537-4cef-a409-4d865ab2e318"},"vehicle_type_id":"4","last_reported":1781451046,"current_range_meters":4400,"station_id":"st_d8gjfg747rts73coq3b0","pricing_plan_id":"cebpf4jnsgd1na2vs0mg"},{"bike_id":"b333dd63-be6b-4b45-9f8f-f915b52a0711","system_id":"levelo_inurba_marseille","lat":43.25072,"lon":5.38842,"is_reserved":false,"is_disabled":false,"rental_uris":{"android":"levelo://app?vid=b333dd63-be6b-4b45-9f8f-f915b52a0711","ios":"levelo://app?vid=b333dd63-be6b-4b45-9f8f-f915b52a0711"},"vehicle_type_id":"4","last_reported":1781451046,"current_range_meters":4400,"station_id":"","pricing_plan_id":"cebpf4jnsgd1na2vs0mg"},{"bike_id":"9a33fbc1-c654-4425-97e8-e49f52457286","system_id":"levelo_inurba_marseille","lat":43.28362,"lon":5.381,"is_reserved":false,"is_disabled":false,"rental_uris":{"android":"levelo://app?vid=9a33fbc1-c654-4425-97e8-e49f52457286","ios":"levelo://app?vid=9a33fbc1-c654-4425-97e8-e49f52457286"},"vehicle_type_id":"4","last_reported":1781451046,"current_range_meters":4400,"station_id":"ce4bh412rcd13ifvqdr0","pricing_plan_id":"cebpf4jnsgd1na2vs0mg"},{"bike_id":"0e90fcd7-eac6-4619-8253-cfb1885026ec","system_id":"levelo_inurba_marseille","lat":43.25505,"lon":5.37677,"is_reserved":false,"is_disabled":false,"rental_uris":{"android":"levelo://app?vid=0e90fcd7-eac6-4619-8253-cfb1885026ec","ios":"levelo://app?vid=0e90fcd7-eac6-4619-8253-cfb1885026ec"},"vehicle_type_id":"4","last_reported":1781451046,"current_range_meters":4400,"station_id":"ce4bhh12rcd13ifvqff0","pricing_plan_id":"cebpf4jnsgd1na2vs0mg"},{"bike_id":"52f3e772-ae75-4b62-8837-30b3a36cd0d4","system_id":"levelo_inurba_marseille","lat":43.31045,"lon":5.39383,"is_reserved":false,"is_disabled":false,"rental_uris":{"android":"levelo://app?vid=52f3e772-ae75-4b62-8837-30b3a36cd0d4","ios":"levelo://app?vid=52f3e772-ae75-4b62-8837-30b3a36cd0d4"},"vehicle_type_id":"4","last_reported":1781451046,"current_range_meters":4400,"station_id":"","pricing_plan_id":"cebpf4jnsgd1na2vs0mg"},{"bike_id":"f69a02f7-ed11-4d1a-9e24-dd4a645c18d6","system_id":"levelo_inurba_marseille","lat":43.266788,"lon":5.382674,"is_reserved":false,"is_disabled":false,"rental_uris":{"android":"levelo://app?vid=f69a02f7-ed11-4d1a-9e24-dd4a645c18d6","ios":"levelo://app?vid=f69a02f7-ed11-4d1a-9e24-dd4a645c18d6"},"vehicle_type_id":"4","last_reported":1781451046,"current_range_meters":4400,"station_id":"ce4bhg92rcd13ifvqf90","pricing_plan_id":"cebpf4jnsgd1na2vs0mg"},{"bike_id":"ce059822-03c1-4578-b9e3-bb0b69a47db9","system_id":"levelo_inurba_marseille","lat":43.25006,"lon":5.38952,"is_reserved":false,"is_disabled":false,"rental_uris":{"android":"levelo://app?vid=ce059822-03c1-4578-b9e3-bb0b69a47db9","ios":"levelo://app?vid=ce059822-03c1-4578-b9e3-bb0b69a47db9"},"vehicle_type_id":"4","last_reported":1781451046,"current_range_meters":4400,"station_id":"ce4bhgp2rcd13ifvqfd0","pricing_plan_id":"cebpf4jnsgd1na2vs0mg"},{"bike_id":"fc6d068f-e66a-4a2e-bdf9-0b12bfd86ea0","system_id":"levelo_inurba_marseille","lat":43.23058,"lon":5.35493,"is_reserved":false,"is_disabled":false,"rental_uris":{"android":"levelo://app?vid=fc6d068f-e66a-4a2e-bdf9-0b12bfd86ea0","ios":"levelo://app?vid=fc6d068f-e66a-4a2e-bdf9-0b12bfd86ea0"},"vehicle_type_id":"4","last_reported":1781451046,"current_range_meters":4400,"station_id":"cpo3342slgdg3j2ifvpg","pricing_plan_id":"cebpf4jnsgd1na2vs0mg"},{"bike_id":"7bb9d837-8621-443d-b257-e306cb33cfa1","system_id":"levelo_inurba_marseille","lat":43.28628,"lon":5.37109,"is_reserved":false,"is_disabled":false,"rental_uris":{"android":"levelo://app?vid=7bb9d837-8621-443d-b257-e306cb33cfa1","ios":"levelo://app?vid=7bb9d837-8621-443d-b257-e306cb33cfa1"},"vehicle_type_id":"4","last_reported":1781451046,"current_range_meters":4400,"station_id":"ce4bht12rcd13ifvqi60","pricing_plan_id":"cebpf4jnsgd1na2vs0mg"},{"bike_id":"82827f8a-0b96-4fb7-80e4-b37ecb21eafd","system_id":"levelo_inurba_marseille","lat":43.29031,"lon":5.37592,"is_reserved":false,"is_disabled":false,"rental_uris":{"android":"levelo://app?vid=82827f8a-0b96-4fb7-80e4-b37ecb21eafd","ios":"levelo://app?vid=82827f8a-0b96-4fb7-80e4-b37ecb21eafd"},"vehicle_type_id":"4","last_reported":1781451046,"current_range_meters":4400,"station_id":"ce4bh692rcd13ifvqe90","pricing_plan_id":"cebpf4jnsgd1na2vs0mg"},{"bike_id":"948e7dcf-c12b-4293-8ebe-ef6b71975867","system_id":"levelo_inurba_marseille","lat":43.24193,"lon":5.36355,"is_reserved":false,"is_disabled":true,"rental_uris":{"android":"levelo://app?vid=948e7dcf-c12b-4293-8ebe-ef6b71975867","ios":"levelo://app?vid=948e7dcf-c12b-4293-8ebe-ef6b71975867"},"vehicle_type_id":"4","last_reported":1781451046,"current_range_meters":4400,"station_id":"cpo36qri1sfpv3e86is0","pricing_plan_id":"cebpf4jnsgd1na2vs0mg"},{"bike_id":"b00d8bd0-800e-45a7-ac0f-43138ef8f6fe","system_id":"levelo_inurba_marseille","lat":43.26794,"lon":5.39411,"is_reserved":false,"is_disabled":true,"rental_uris":{"android":"levelo://app?vid=b00d8bd0-800e-45a7-ac0f-43138ef8f6fe","ios":"levelo://app?vid=b00d8bd0-800e-45a7-ac0f-43138ef8f6fe"},"vehicle_type_id":"4","last_reported":1781451046,"current_range_meters":4400,"station_id":"ce4bhh12rcd13ifvqfg0","pricing_plan_id":"cebpf4jnsgd1na2vs0mg"},{"bike_id":"65fc2153-8b6f-41cd-a58b-75f8bb4e9a8c","system_id":"levelo_inurba_marseille","lat":43.28425,"lon":5.3499,"is_reserved":false,"is_disabled":false,"rental_uris":{"android":"levelo://app?vid=65fc2153-8b6f-41cd-a58b-75f8bb4e9a8c","ios":"levelo://app?vid=65fc2153-8b6f-41cd-a58b-75f8bb4e9a8c"},"vehicle_type_id":"4","last_reported":1781451046,"current_range_meters":4400,"station_id":"ce4bhbh2rcd13ifvqepg","pricing_plan_id":"cebpf4jnsgd1na2vs0mg"},{"bike_id":"cf0c68e9-108f-4cb2-8999-26e59936ff8c","system_id":"levelo_inurba_marseille","lat":43.23068,"lon":5.35478,"is_reserved":false,"is_disabled":false,"rental_uris":{"android":"levelo://app?vid=cf0c68e9-108f-4cb2-8999-26e59936ff8c","ios":"levelo://app?vid=cf0c68e9-108f-4cb2-8999-26e59936ff8c"},"vehicle_type_id":"4","last_reported":1781451046,"current_range_meters":4800,"station_id":"cpo3342slgdg3j2ifvpg","pricing_plan_id":"cebpf4jnsgd1na2vs0mg"},{"bike_id":"ee5326b1-f810-41ef-b1b7-1ea9c2c8872f","system_id":"levelo_inurba_marseille","lat":43.28697,"lon":5.46691,"is_reserved":false,"is_disabled":false,"rental_uris":{"android":"levelo://app?vid=ee5326b1-f810-41ef-b1b7-1ea9c2c8872f","ios":"levelo://app?vid=ee5326b1-f810-41ef-b1b7-1ea9c2c8872f"},"vehicle_type_id":"4","last_reported":1781451046,"current_range_meters":4800,"station_id":"st_d6tc3vkotcvc738tfjhg","pricing_plan_id":"cebpf4jnsgd1na2vs0mg"},{"bike_id":"858ea767-b629-415a-959b-d9b2ac30d926","system_id":"levelo_inurba_marseille","lat":43.28489,"lon":5.38433,"is_reserved":false,"is_disabled":false,"rental_uris":{"android":"levelo://app?vid=858ea767-b629-415a-959b-d9b2ac30d926","ios":"levelo://app?vid=858ea767-b629-415a-959b-d9b2ac30d926"},"vehicle_type_id":"4","last_reported":1781451046,"current_range_meters":4800,"station_id":"ce4bh512rcd13ifvqe3g","pricing_plan_id":"cebpf4jnsgd1na2vs0mg"},{"bike_id":"de7a3e7f-6a0e-4cbf-b9a4-e75f6dc39080","system_id":"levelo_inurba_marseille","lat":43.2904,"lon":5.35932,"is_reserved":false,"is_disabled":false,"rental_uris":{"android":"levelo://app?vid=de7a3e7f-6a0e-4cbf-b9a4-e75f6dc39080","ios":"levelo://app?vid=de7a3e7f-6a0e-4cbf-b9a4-e75f6dc39080"},"vehicle_type_id":"4","last_reported":1781451046,"current_range_meters":4800,"station_id":"ce4bha92rcd13ifvqeg0","pricing_plan_id":"cebpf4jnsgd1na2vs0mg"},{"bike_id":"1a1ad63b-bf2d-4119-8f23-2b8341ecdf2b","system_id":"levelo_inurba_marseille","lat":43.31761,"lon":5.39009,"is_reserved":false,"is_disabled":false,"rental_uris":{"android":"levelo://app?vid=1a1ad63b-bf2d-4119-8f23-2b8341ecdf2b","ios":"levelo://app?vid=1a1ad63b-bf2d-4119-8f23-2b8341ecdf2b"},"vehicle_type_id":"4","last_reported":1781451046,"current_range_meters":4800,"station_id":"ce4bhqp2rcd13ifvqhng","pricing_plan_id":"cebpf4jnsgd1na2vs0mg"},{"bike_id":"43aec827-b955-4a67-bba8-4df0141e7eb1","system_id":"levelo_inurba_marseille","lat":43.33781,"lon":5.37463,"is_reserved":false,"is_disabled":false,"rental_uris":{"android":"levelo://app?vid=43aec827-b955-4a67-bba8-4df0141e7eb1","ios":"levelo://app?vid=43aec827-b955-4a67-bba8-4df0141e7eb1"},"vehicle_type_id":"4","last_reported":1781451046,"current_range_meters":4800,"station_id":"","pricing_plan_id":"cebpf4jnsgd1na2vs0mg"},{"bike_id":"e2298d1e-9f46-40e5-8442-06c6300e3b87","system_id":"levelo_inurba_marseille","lat":43.2459,"lon":5.3972,"is_reserved":false,"is_disabled":false,"rental_uris":{"android":"levelo://app?vid=e2298d1e-9f46-40e5-8442-06c6300e3b87","ios":"levelo://app?vid=e2298d1e-9f46-40e5-8442-06c6300e3b87"},"vehicle_type_id":"4","last_reported":1781451046,"current_range_meters":4800,"station_id":"","pricing_plan_id":"cebpf4jnsgd1na2vs0mg"},{"bike_id":"e0cccf2d-e125-4492-af49-bf7d33582c99","system_id":"levelo_inurba_marseille","lat":43.24079,"lon":5.37757,"is_reserved":false,"is_disabled":false,"rental_uris":{"android":"levelo://app?vid=e0cccf2d-e125-4492-af49-bf7d33582c99","ios":"levelo://app?vid=e0cccf2d-e125-4492-af49-bf7d33582c99"},"vehicle_type_id":"4","last_reported":1781451046,"current_range_meters":4800,"station_id":"ce4bhnp2rcd13ifvqgvg","pricing_plan_id":"cebpf4jnsgd1na2vs0mg"},{"bike_id":"0ccdf863-c789-431e-b817-7f8f98aa01f9","system_id":"levelo_inurba_marseille","lat":43.28442,"lon":5.34947,"is_reserved":false,"is_disabled":false,"rental_uris":{"android":"levelo://app?vid=0ccdf863-c789-431e-b817-7f8f98aa01f9","ios":"levelo://app?vid=0ccdf863-c789-431e-b817-7f8f98aa01f9"},"vehicle_type_id":"4","last_reported":1781451046,"current_range_meters":4800,"station_id":"ce4bhbh2rcd13ifvqepg","pricing_plan_id":"cebpf4jnsgd1na2vs0mg"},{"bike_id":"f57ddc5d-b3ad-43f3-bbc4-226ea7be866d","system_id":"levelo_inurba_marseille","lat":43.29854,"lon":5.4228,"is_reserved":false,"is_disabled":false,"rental_uris":{"android":"levelo://app?vid=f57ddc5d-b3ad-43f3-bbc4-226ea7be866d","ios":"levelo://app?vid=f57ddc5d-b3ad-43f3-bbc4-226ea7be866d"},"vehicle_type_id":"4","last_reported":1781451046,"current_range_meters":4800,"station_id":"","pricing_plan_id":"cebpf4jnsgd1na2vs0mg"},{"bike_id":"d8af3ed3-f110-42fc-a859-20bcac54350f","system_id":"levelo_inurba_marseille","lat":43.30785,"lon":5.37656,"is_reserved":false,"is_disabled":true,"rental_uris":{"android":"levelo://app?vid=d8af3ed3-f110-42fc-a859-20bcac54350f","ios":"levelo://app?vid=d8af3ed3-f110-42fc-a859-20bcac54350f"},"vehicle_type_id":"4","last_reported":1781451046,"current_range_meters":4800,"station_id":"ce4bgv92rcd13ifvqcq0","pricing_plan_id":"cebpf4jnsgd1na2vs0mg"},{"bike_id":"5e644823-0361-426b-bc16-4ac715221997","system_id":"levelo_inurba_marseille","lat":43.28704,"lon":5.46671,"is_reserved":false,"is_disabled":false,"rental_uris":{"android":"levelo://app?vid=5e644823-0361-426b-bc16-4ac715221997","ios":"levelo://app?vid=5e644823-0361-426b-bc16-4ac715221997"},"vehicle_type_id":"4","last_reported":1781451046,"current_range_meters":4800,"station_id":"st_d6tc3vkotcvc738tfjhg","pricing_plan_id":"cebpf4jnsgd1na2vs0mg"},{"bike_id":"468ab9e0-7907-4c50-93f2-672f98f09a26","system_id":"levelo_inurba_marseille","lat":43.27615,"lon":5.36113,"is_reserved":false,"is_disabled":false,"rental_uris":{"android":"levelo://app?vid=468ab9e0-7907-4c50-93f2-672f98f09a26","ios":"levelo://app?vid=468ab9e0-7907-4c50-93f2-672f98f09a26"},"vehicle_type_id":"4","last_reported":1781451046,"current_range_meters":4800,"station_id":"ce4bgj92rcd13ifvqbe0","pricing_plan_id":"cebpf4jnsgd1na2vs0mg"},{"bike_id":"44d8c518-1e62-4ae4-9ca9-d1ae179d7840","system_id":"levelo_inurba_marseille","lat":43.29602,"lon":5.37713,"is_reserved":false,"is_disabled":false,"rental_uris":{"android":"levelo://app?vid=44d8c518-1e62-4ae4-9ca9-d1ae179d7840","ios":"levelo://app?vid=44d8c518-1e62-4ae4-9ca9-d1ae179d7840"},"vehicle_type_id":"4","last_reported":1781451046,"current_range_meters":4800,"station_id":"ce4bgi92rcd13ifvqb90","pricing_plan_id":"cebpf4jnsgd1na2vs0mg"},{"bike_id":"ff183300-e381-4623-b20d-53a94b47ae87","system_id":"levelo_inurba_marseille","lat":43.32591,"lon":5.36521,"is_reserved":false,"is_disabled":false,"rental_uris":{"android":"levelo://app?vid=ff183300-e381-4623-b20d-53a94b47ae87","ios":"levelo://app?vid=ff183300-e381-4623-b20d-53a94b47ae87"},"vehicle_type_id":"4","last_reported":1781451046,"current_range_meters":4800,"station_id":"","pricing_plan_id":"cebpf4jnsgd1na2vs0mg"},{"bike_id":"0bda4e22-c870-4c0c-8c5a-68ba2693339c","system_id":"levelo_inurba_marseille","lat":43.29943,"lon":5.37467,"is_reserved":false,"is_disabled":false,"rental_uris":{"android":"levelo://app?vid=0bda4e22-c870-4c0c-8c5a-68ba2693339c","ios":"levelo://app?vid=0bda4e22-c870-4c0c-8c5a-68ba2693339c"},"vehicle_type_id":"4","last_reported":1781451046,"current_range_meters":4800,"station_id":"ce4bgjh2rcd13ifvqbg0","pricing_plan_id":"cebpf4jnsgd1na2vs0mg"},{"bike_id":"6e890818-0091-49c7-b448-7d8a9bd027f5","system_id":"levelo_inurba_marseille","lat":43.2407,"lon":5.37749,"is_reserved":false,"is_disabled":false,"rental_uris":{"android":"levelo://app?vid=6e890818-0091-49c7-b448-7d8a9bd027f5","ios":"levelo://app?vid=6e890818-0091-49c7-b448-7d8a9bd027f5"},"vehicle_type_id":"4","last_reported":1781451046,"current_range_meters":4800,"station_id":"ce4bhnp2rcd13ifvqgvg","pricing_plan_id":"cebpf4jnsgd1na2vs0mg"},{"bike_id":"64b58ddf-26fe-4a55-b7de-d6c7fc07acb1","system_id":"levelo_inurba_marseille","lat":43.30796,"lon":5.38206,"is_reserved":false,"is_disabled":false,"rental_uris":{"android":"levelo://app?vid=64b58ddf-26fe-4a55-b7de-d6c7fc07acb1","ios":"levelo://app?vid=64b58ddf-26fe-4a55-b7de-d6c7fc07acb1"},"vehicle_type_id":"4","last_reported":1781451046,"current_range_meters":4800,"station_id":"ce4bgt12rcd13ifvqce0","pricing_plan_id":"cebpf4jnsgd1na2vs0mg"},{"bike_id":"85ff7ea8-5fb7-4bf1-8a5b-dee5e4773c13","system_id":"levelo_inurba_marseille","lat":43.31955,"lon":5.39415,"is_reserved":false,"is_disabled":false,"rental_uris":{"android":"levelo://app?vid=85ff7ea8-5fb7-4bf1-8a5b-dee5e4773c13","ios":"levelo://app?vid=85ff7ea8-5fb7-4bf1-8a5b-dee5e4773c13"},"vehicle_type_id":"4","last_reported":1781451046,"current_range_meters":4800,"station_id":"","pricing_plan_id":"cebpf4jnsgd1na2vs0mg"},{"bike_id":"1ad3b388-7f05-40c4-b2be-92a0734b3aef","system_id":"levelo_inurba_marseille","lat":43.27781,"lon":5.4279,"is_reserved":false,"is_disabled":false,"rental_uris":{"android":"levelo://app?vid=1ad3b388-7f05-40c4-b2be-92a0734b3aef","ios":"levelo://app?vid=1ad3b388-7f05-40c4-b2be-92a0734b3aef"},"vehicle_type_id":"4","last_reported":1781451046,"current_range_meters":5600,"station_id":"","pricing_plan_id":"cebpf4jnsgd1na2vs0mg"},{"bike_id":"207d34b6-3a83-4d90-938a-80aab0b6e29f","system_id":"levelo_inurba_marseille","lat":43.250042,"lon":5.389242,"is_reserved":false,"is_disabled":false,"rental_uris":{"android":"levelo://app?vid=207d34b6-3a83-4d90-938a-80aab0b6e29f","ios":"levelo://app?vid=207d34b6-3a83-4d90-938a-80aab0b6e29f"},"vehicle_type_id":"4","last_reported":1781451046,"current_range_meters":5600,"station_id":"ce4bhgp2rcd13ifvqfd0","pricing_plan_id":"cebpf4jnsgd1na2vs0mg"},{"bike_id":"56997dce-9cb4-4387-a274-e82e510b15e3","system_id":"levelo_inurba_marseille","lat":43.28619,"lon":5.351,"is_reserved":false,"is_disabled":false,"rental_uris":{"android":"levelo://app?vid=56997dce-9cb4-4387-a274-e82e510b15e3","ios":"levelo://app?vid=56997dce-9cb4-4387-a274-e82e510b15e3"},"vehicle_type_id":"4","last_reported":1781451046,"current_range_meters":5600,"station_id":"ce4bhch2rcd13ifvqeug","pricing_plan_id":"cebpf4jnsgd1na2vs0mg"},{"bike_id":"a47f7ec5-339e-411f-a9f3-d5a489312e95","system_id":"levelo_inurba_marseille","lat":43.28072,"lon":5.3509,"is_reserved":false,"is_disabled":false,"rental_uris":{"android":"levelo://app?vid=a47f7ec5-339e-411f-a9f3-d5a489312e95","ios":"levelo://app?vid=a47f7ec5-339e-411f-a9f3-d5a489312e95"},"vehicle_type_id":"4","last_reported":1781451046,"current_range_meters":5600,"station_id":"","pricing_plan_id":"cebpf4jnsgd1na2vs0mg"},{"bike_id":"0a447fbd-c4e9-4d6f-95ca-96703b3388eb","system_id":"levelo_inurba_marseille","lat":43.21204,"lon":5.3505,"is_reserved":false,"is_disabled":false,"rental_uris":{"android":"levelo://app?vid=0a447fbd-c4e9-4d6f-95ca-96703b3388eb","ios":"levelo://app?vid=0a447fbd-c4e9-4d6f-95ca-96703b3388eb"},"vehicle_type_id":"4","last_reported":1781451046,"current_range_meters":5600,"station_id":"st_cvj6sg6p6f1abm77japg","pricing_plan_id":"cebpf4jnsgd1na2vs0mg"},{"bike_id":"2d5036af-f9df-45c6-97e4-648868345309","system_id":"levelo_inurba_marseille","lat":43.33393,"lon":5.39085,"is_reserved":false,"is_disabled":false,"rental_uris":{"android":"levelo://app?vid=2d5036af-f9df-45c6-97e4-648868345309","ios":"levelo://app?vid=2d5036af-f9df-45c6-97e4-648868345309"},"vehicle_type_id":"4","last_reported":1781451046,"current_range_meters":5600,"station_id":"","pricing_plan_id":"cebpf4jnsgd1na2vs0mg"},{"bike_id":"9ad73139-7430-4597-a4c0-9765ee1bf68c","system_id":"levelo_inurba_marseille","lat":43.28404,"lon":5.34982,"is_reserved":false,"is_disabled":false,"rental_uris":{"android":"levelo://app?vid=9ad73139-7430-4597-a4c0-9765ee1bf68c","ios":"levelo://app?vid=9ad73139-7430-4597-a4c0-9765ee1bf68c"},"vehicle_type_id":"4","last_reported":1781451046,"current_range_meters":5600,"station_id":"ce4bhbh2rcd13ifvqepg","pricing_plan_id":"cebpf4jnsgd1na2vs0mg"},{"bike_id":"d117df6f-92d3-41bd-88ad-1367bea50a0c","system_id":"levelo_inurba_marseille","lat":43.2478,"lon":5.3755,"is_reserved":false,"is_disabled":false,"rental_uris":{"android":"levelo://app?vid=d117df6f-92d3-41bd-88ad-1367bea50a0c","ios":"levelo://app?vid=d117df6f-92d3-41bd-88ad-1367bea50a0c"},"vehicle_type_id":"4","last_reported":1781451046,"current_range_meters":5600,"station_id":"","pricing_plan_id":"cebpf4jnsgd1na2vs0mg"},{"bike_id":"afc6788d-6169-49e9-9a66-a62e10ac4ced","system_id":"levelo_inurba_marseille","lat":43.24185,"lon":5.36368,"is_reserved":false,"is_disabled":false,"rental_uris":{"android":"levelo://app?vid=afc6788d-6169-49e9-9a66-a62e10ac4ced","ios":"levelo://app?vid=afc6788d-6169-49e9-9a66-a62e10ac4ced"},"vehicle_type_id":"4","last_reported":1781451046,"current_range_meters":5600,"station_id":"cpo36qri1sfpv3e86is0","pricing_plan_id":"cebpf4jnsgd1na2vs0mg"},{"bike_id":"1aa69796-4597-4e19-90ef-464fe6857eba","system_id":"levelo_inurba_marseille","lat":43.29471,"lon":5.44523,"is_reserved":false,"is_disabled":false,"rental_uris":{"android":"levelo://app?vid=1aa69796-4597-4e19-90ef-464fe6857eba","ios":"levelo://app?vid=1aa69796-4597-4e19-90ef-464fe6857eba"},"vehicle_type_id":"4","last_reported":1781451046,"current_range_meters":5600,"station_id":"","pricing_plan_id":"cebpf4jnsgd1na2vs0mg"},{"bike_id":"3c107bbc-64c5-4b27-9a39-0e312f849538","system_id":"levelo_inurba_marseille","lat":43.26213,"lon":5.37438,"is_reserved":false,"is_disabled":false,"rental_uris":{"android":"levelo://app?vid=3c107bbc-64c5-4b27-9a39-0e312f849538","ios":"levelo://app?vid=3c107bbc-64c5-4b27-9a39-0e312f849538"},"vehicle_type_id":"4","last_reported":1781451046,"current_range_meters":5600,"station_id":"ce4bhgp2rcd13ifvqfc0","pricing_plan_id":"cebpf4jnsgd1na2vs0mg"},{"bike_id":"eda16d38-e0c1-49d8-a2a8-9038a3005b1f","system_id":"levelo_inurba_marseille","lat":43.28283,"lon":5.35077,"is_reserved":false,"is_disabled":false,"rental_uris":{"android":"levelo://app?vid=eda16d38-e0c1-49d8-a2a8-9038a3005b1f","ios":"levelo://app?vid=eda16d38-e0c1-49d8-a2a8-9038a3005b1f"},"vehicle_type_id":"4","last_reported":1781451046,"current_range_meters":5600,"station_id":"ce4bhbp2rcd13ifvqerg","pricing_plan_id":"cebpf4jnsgd1na2vs0mg"},{"bike_id":"abc01caa-7e82-486b-ad5a-e31151d2d0fc","system_id":"levelo_inurba_marseille","lat":43.27734,"lon":5.39648,"is_reserved":false,"is_disabled":false,"rental_uris":{"android":"levelo://app?vid=abc01caa-7e82-486b-ad5a-e31151d2d0fc","ios":"levelo://app?vid=abc01caa-7e82-486b-ad5a-e31151d2d0fc"},"vehicle_type_id":"4","last_reported":1781451046,"current_range_meters":5600,"station_id":"","pricing_plan_id":"cebpf4jnsgd1na2vs0mg"},{"bike_id":"53f1bc20-cfad-4371-93c2-7f7b75d16fc3","system_id":"levelo_inurba_marseille","lat":43.273622,"lon":5.384994,"is_reserved":false,"is_disabled":false,"rental_uris":{"android":"levelo://app?vid=53f1bc20-cfad-4371-93c2-7f7b75d16fc3","ios":"levelo://app?vid=53f1bc20-cfad-4371-93c2-7f7b75d16fc3"},"vehicle_type_id":"4","last_reported":1781451046,"current_range_meters":5600,"station_id":"ce4bhh92rcd13ifvqfh0","pricing_plan_id":"cebpf4jnsgd1na2vs0mg"},{"bike_id":"98698400-f2fa-4082-90c0-3469cd0af8c9","system_id":"levelo_inurba_marseille","lat":43.28087,"lon":5.39669,"is_reserved":false,"is_disabled":false,"rental_uris":{"android":"levelo://app?vid=98698400-f2fa-4082-90c0-3469cd0af8c9","ios":"levelo://app?vid=98698400-f2fa-4082-90c0-3469cd0af8c9"},"vehicle_type_id":"4","last_reported":1781451046,"current_range_meters":5600,"station_id":"ce4bho12rcd13ifvqh2g","pricing_plan_id":"cebpf4jnsgd1na2vs0mg"},{"bike_id":"02cbaffb-3d1c-4803-a4d8-c8a02d7b6d9b","system_id":"levelo_inurba_marseille","lat":43.27373,"lon":5.36272,"is_reserved":false,"is_disabled":false,"rental_uris":{"android":"levelo://app?vid=02cbaffb-3d1c-4803-a4d8-c8a02d7b6d9b","ios":"levelo://app?vid=02cbaffb-3d1c-4803-a4d8-c8a02d7b6d9b"},"vehicle_type_id":"4","last_reported":1781451046,"current_range_meters":5600,"station_id":"ce4bhbh2rcd13ifvqeo0","pricing_plan_id":"cebpf4jnsgd1na2vs0mg"},{"bike_id":"52c9834c-1c3b-43ed-aed9-745fe9725e1e","system_id":"levelo_inurba_marseille","lat":43.309463,"lon":5.390363,"is_reserved":false,"is_disabled":false,"rental_uris":{"android":"levelo://app?vid=52c9834c-1c3b-43ed-aed9-745fe9725e1e","ios":"levelo://app?vid=52c9834c-1c3b-43ed-aed9-745fe9725e1e"},"vehicle_type_id":"4","last_reported":1781451046,"current_range_meters":5600,"station_id":"ce4bgup2rcd13ifvqco0","pricing_plan_id":"cebpf4jnsgd1na2vs0mg"},{"bike_id":"f0e23bdf-f0c5-49fa-b82f-83c208f5ae8a","system_id":"levelo_inurba_marseille","lat":43.3169,"lon":5.40471,"is_reserved":false,"is_disabled":false,"rental_uris":{"android":"levelo://app?vid=f0e23bdf-f0c5-49fa-b82f-83c208f5ae8a","ios":"levelo://app?vid=f0e23bdf-f0c5-49fa-b82f-83c208f5ae8a"},"vehicle_type_id":"4","last_reported":1781451046,"current_range_meters":5600,"station_id":"ce4bh012rcd13ifvqd00","pricing_plan_id":"cebpf4jnsgd1na2vs0mg"},{"bike_id":"acc63357-000b-426b-bdd6-38bf797f7f7d","system_id":"levelo_inurba_marseille","lat":43.28714,"lon":5.37383,"is_reserved":false,"is_disabled":false,"rental_uris":{"android":"levelo://app?vid=acc63357-000b-426b-bdd6-38bf797f7f7d","ios":"levelo://app?vid=acc63357-000b-426b-bdd6-38bf797f7f7d"},"vehicle_type_id":"4","last_reported":1781451046,"current_range_meters":5600,"station_id":"ce4bh3p2rcd13ifvqdq0","pricing_plan_id":"cebpf4jnsgd1na2vs0mg"},{"bike_id":"178788d6-7709-4484-9971-d7cbf5ca17ce","system_id":"levelo_inurba_marseille","lat":43.21741,"lon":5.34608,"is_reserved":false,"is_disabled":false,"rental_uris":{"android":"levelo://app?vid=178788d6-7709-4484-9971-d7cbf5ca17ce","ios":"levelo://app?vid=178788d6-7709-4484-9971-d7cbf5ca17ce"},"vehicle_type_id":"4","last_reported":1781451046,"current_range_meters":5600,"station_id":"st_cvj6r9ubvosntc0bgbag","pricing_plan_id":"cebpf4jnsgd1na2vs0mg"},{"bike_id":"c2bfcf75-197f-4d0d-8b20-256d9aaad722","system_id":"levelo_inurba_marseille","lat":43.32104,"lon":5.36748,"is_reserved":false,"is_disabled":false,"rental_uris":{"android":"levelo://app?vid=c2bfcf75-197f-4d0d-8b20-256d9aaad722","ios":"levelo://app?vid=c2bfcf75-197f-4d0d-8b20-256d9aaad722"},"vehicle_type_id":"4","last_reported":1781451046,"current_range_meters":5600,"station_id":"ce4bhrh2rcd13ifvqhug","pricing_plan_id":"cebpf4jnsgd1na2vs0mg"},{"bike_id":"8f27be64-7acf-498b-9d2e-74cba605605d","system_id":"levelo_inurba_marseille","lat":43.21748,"lon":5.34622,"is_reserved":false,"is_disabled":false,"rental_uris":{"android":"levelo://app?vid=8f27be64-7acf-498b-9d2e-74cba605605d","ios":"levelo://app?vid=8f27be64-7acf-498b-9d2e-74cba605605d"},"vehicle_type_id":"4","last_reported":1781451046,"current_range_meters":5600,"station_id":"st_cvj6r9ubvosntc0bgbag","pricing_plan_id":"cebpf4jnsgd1na2vs0mg"},{"bike_id":"8150589d-aa57-493e-b46c-c7049ac03237","system_id":"levelo_inurba_marseille","lat":43.32507,"lon":5.39133,"is_reserved":false,"is_disabled":false,"rental_uris":{"android":"levelo://app?vid=8150589d-aa57-493e-b46c-c7049ac03237","ios":"levelo://app?vid=8150589d-aa57-493e-b46c-c7049ac03237"},"vehicle_type_id":"4","last_reported":1781451046,"current_range_meters":5600,"station_id":"","pricing_plan_id":"cebpf4jnsgd1na2vs0mg"},{"bike_id":"f24b25e0-3c58-49f8-973c-eb517f5bd6c6","system_id":"levelo_inurba_marseille","lat":43.273758,"lon":5.362633,"is_reserved":false,"is_disabled":false,"rental_uris":{"android":"levelo://app?vid=f24b25e0-3c58-49f8-973c-eb517f5bd6c6","ios":"levelo://app?vid=f24b25e0-3c58-49f8-973c-eb517f5bd6c6"},"vehicle_type_id":"4","last_reported":1781451046,"current_range_meters":5600,"station_id":"ce4bhbh2rcd13ifvqeo0","pricing_plan_id":"cebpf4jnsgd1na2vs0mg"},{"bike_id":"d729573f-a86b-41d2-bc51-bd23c133868d","system_id":"levelo_inurba_marseille","lat":43.31505,"lon":5.3839,"is_reserved":false,"is_disabled":false,"rental_uris":{"android":"levelo://app?vid=d729573f-a86b-41d2-bc51-bd23c133868d","ios":"levelo://app?vid=d729573f-a86b-41d2-bc51-bd23c133868d"},"vehicle_type_id":"4","last_reported":1781451046,"current_range_meters":5600,"station_id":"","pricing_plan_id":"cebpf4jnsgd1na2vs0mg"},{"bike_id":"3ba2a02a-c7ac-4590-86ab-1ae3e982b53a","system_id":"levelo_inurba_marseille","lat":43.27622,"lon":5.3611,"is_reserved":false,"is_disabled":false,"rental_uris":{"android":"levelo://app?vid=3ba2a02a-c7ac-4590-86ab-1ae3e982b53a","ios":"levelo://app?vid=3ba2a02a-c7ac-4590-86ab-1ae3e982b53a"},"vehicle_type_id":"4","last_reported":1781451046,"current_range_meters":5600,"station_id":"ce4bgj92rcd13ifvqbe0","pricing_plan_id":"cebpf4jnsgd1na2vs0mg"},{"bike_id":"8c35e00d-f145-4990-9075-f1452b27a592","system_id":"levelo_inurba_marseille","lat":43.2119,"lon":5.35068,"is_reserved":false,"is_disabled":false,"rental_uris":{"android":"levelo://app?vid=8c35e00d-f145-4990-9075-f1452b27a592","ios":"levelo://app?vid=8c35e00d-f145-4990-9075-f1452b27a592"},"vehicle_type_id":"4","last_reported":1781451046,"current_range_meters":6000,"station_id":"st_cvj6sg6p6f1abm77japg","pricing_plan_id":"cebpf4jnsgd1na2vs0mg"},{"bike_id":"e1a17b2b-f91e-443f-9138-3f0863f5e9e9","system_id":"levelo_inurba_marseille","lat":43.30951,"lon":5.39039,"is_reserved":false,"is_disabled":false,"rental_uris":{"android":"levelo://app?vid=e1a17b2b-f91e-443f-9138-3f0863f5e9e9","ios":"levelo://app?vid=e1a17b2b-f91e-443f-9138-3f0863f5e9e9"},"vehicle_type_id":"4","last_reported":1781451046,"current_range_meters":6000,"station_id":"ce4bgup2rcd13ifvqco0","pricing_plan_id":"cebpf4jnsgd1na2vs0mg"},{"bike_id":"f2ba73c5-fc69-4601-a3f3-cbbbb5b9b11d","system_id":"levelo_inurba_marseille","lat":43.28319,"lon":5.38813,"is_reserved":false,"is_disabled":false,"rental_uris":{"android":"levelo://app?vid=f2ba73c5-fc69-4601-a3f3-cbbbb5b9b11d","ios":"levelo://app?vid=f2ba73c5-fc69-4601-a3f3-cbbbb5b9b11d"},"vehicle_type_id":"4","last_reported":1781451046,"current_range_meters":6000,"station_id":"","pricing_plan_id":"cebpf4jnsgd1na2vs0mg"},{"bike_id":"1b5c7b8e-75a6-4e5b-a896-3aa61ed24deb","system_id":"levelo_inurba_marseille","lat":43.29513,"lon":5.39409,"is_reserved":false,"is_disabled":true,"rental_uris":{"android":"levelo://app?vid=1b5c7b8e-75a6-4e5b-a896-3aa61ed24deb","ios":"levelo://app?vid=1b5c7b8e-75a6-4e5b-a896-3aa61ed24deb"},"vehicle_type_id":"4","last_reported":1781451046,"current_range_meters":6000,"station_id":"ce4bh292rcd13ifvqdf0","pricing_plan_id":"cebpf4jnsgd1na2vs0mg"},{"bike_id":"dd03c67f-33f6-45b6-a48b-14bffd934592","system_id":"levelo_inurba_marseille","lat":43.27376,"lon":5.36264,"is_reserved":false,"is_disabled":false,"rental_uris":{"android":"levelo://app?vid=dd03c67f-33f6-45b6-a48b-14bffd934592","ios":"levelo://app?vid=dd03c67f-33f6-45b6-a48b-14bffd934592"},"vehicle_type_id":"4","last_reported":1781451046,"current_range_meters":6000,"station_id":"ce4bhbh2rcd13ifvqeo0","pricing_plan_id":"cebpf4jnsgd1na2vs0mg"},{"bike_id":"67b5d997-f3d7-4ed9-aa45-e579b87e467a","system_id":"levelo_inurba_marseille","lat":43.33763,"lon":5.37419,"is_reserved":false,"is_disabled":false,"rental_uris":{"android":"levelo://app?vid=67b5d997-f3d7-4ed9-aa45-e579b87e467a","ios":"levelo://app?vid=67b5d997-f3d7-4ed9-aa45-e579b87e467a"},"vehicle_type_id":"4","last_reported":1781451046,"current_range_meters":6000,"station_id":"","pricing_plan_id":"cebpf4jnsgd1na2vs0mg"},{"bike_id":"52e89d55-3f30-4613-8302-671a182f499c","system_id":"levelo_inurba_marseille","lat":43.28077,"lon":5.34781,"is_reserved":false,"is_disabled":false,"rental_uris":{"android":"levelo://app?vid=52e89d55-3f30-4613-8302-671a182f499c","ios":"levelo://app?vid=52e89d55-3f30-4613-8302-671a182f499c"},"vehicle_type_id":"4","last_reported":1781451046,"current_range_meters":6000,"station_id":"","pricing_plan_id":"cebpf4jnsgd1na2vs0mg"},{"bike_id":"bd14a80d-7334-4287-bdb2-58dca8894c70","system_id":"levelo_inurba_marseille","lat":43.28607,"lon":5.35102,"is_reserved":false,"is_disabled":false,"rental_uris":{"android":"levelo://app?vid=bd14a80d-7334-4287-bdb2-58dca8894c70","ios":"levelo://app?vid=bd14a80d-7334-4287-bdb2-58dca8894c70"},"vehicle_type_id":"4","last_reported":1781451046,"current_range_meters":6000,"station_id":"ce4bhch2rcd13ifvqeug","pricing_plan_id":"cebpf4jnsgd1na2vs0mg"},{"bike_id":"d08ef9dd-8356-473f-ba52-78147a9d045c","system_id":"levelo_inurba_marseille","lat":43.24161,"lon":5.36394,"is_reserved":false,"is_disabled":false,"rental_uris":{"android":"levelo://app?vid=d08ef9dd-8356-473f-ba52-78147a9d045c","ios":"levelo://app?vid=d08ef9dd-8356-473f-ba52-78147a9d045c"},"vehicle_type_id":"4","last_reported":1781451046,"current_range_meters":6000,"station_id":"cpo36qri1sfpv3e86is0","pricing_plan_id":"cebpf4jnsgd1na2vs0mg"},{"bike_id":"bc9bb278-9a3f-444c-9ee4-086e46a06286","system_id":"levelo_inurba_marseille","lat":43.22259,"lon":5.40489,"is_reserved":false,"is_disabled":false,"rental_uris":{"android":"levelo://app?vid=bc9bb278-9a3f-444c-9ee4-086e46a06286","ios":"levelo://app?vid=bc9bb278-9a3f-444c-9ee4-086e46a06286"},"vehicle_type_id":"4","last_reported":1781451046,"current_range_meters":6000,"station_id":"","pricing_plan_id":"cebpf4jnsgd1na2vs0mg"},{"bike_id":"b7f128ff-d381-425b-b25f-44dada2c31e1","system_id":"levelo_inurba_marseille","lat":43.29292,"lon":5.37479,"is_reserved":false,"is_disabled":false,"rental_uris":{"android":"levelo://app?vid=b7f128ff-d381-425b-b25f-44dada2c31e1","ios":"levelo://app?vid=b7f128ff-d381-425b-b25f-44dada2c31e1"},"vehicle_type_id":"4","last_reported":1781451046,"current_range_meters":6000,"station_id":"ce4bgi12rcd13ifvqb70","pricing_plan_id":"cebpf4jnsgd1na2vs0mg"},{"bike_id":"fcbdd51f-fa24-4cc6-b92f-f3288e2d1c12","system_id":"levelo_inurba_marseille","lat":43.28704,"lon":5.46699,"is_reserved":false,"is_disabled":false,"rental_uris":{"android":"levelo://app?vid=fcbdd51f-fa24-4cc6-b92f-f3288e2d1c12","ios":"levelo://app?vid=fcbdd51f-fa24-4cc6-b92f-f3288e2d1c12"},"vehicle_type_id":"4","last_reported":1781451046,"current_range_meters":6000,"station_id":"st_d6tc3vkotcvc738tfjhg","pricing_plan_id":"cebpf4jnsgd1na2vs0mg"},{"bike_id":"d5b9f39c-a98c-4d27-a38b-65d30a444d2b","system_id":"levelo_inurba_marseille","lat":43.27059,"lon":5.38308,"is_reserved":false,"is_disabled":false,"rental_uris":{"android":"levelo://app?vid=d5b9f39c-a98c-4d27-a38b-65d30a444d2b","ios":"levelo://app?vid=d5b9f39c-a98c-4d27-a38b-65d30a444d2b"},"vehicle_type_id":"4","last_reported":1781451046,"current_range_meters":6000,"station_id":"st_d3n2fo6cfp8s73cte1j0","pricing_plan_id":"cebpf4jnsgd1na2vs0mg"},{"bike_id":"9dd4f3a8-39d5-43f7-9f51-1797629b3584","system_id":"levelo_inurba_marseille","lat":43.22525,"lon":5.3484,"is_reserved":false,"is_disabled":false,"rental_uris":{"android":"levelo://app?vid=9dd4f3a8-39d5-43f7-9f51-1797629b3584","ios":"levelo://app?vid=9dd4f3a8-39d5-43f7-9f51-1797629b3584"},"vehicle_type_id":"4","last_reported":1781451046,"current_range_meters":6000,"station_id":"st_cvj5dfep6f1abm77gieg","pricing_plan_id":"cebpf4jnsgd1na2vs0mg"},{"bike_id":"2cafeed8-c7d8-4559-a05c-7d167104707e","system_id":"levelo_inurba_marseille","lat":43.25496,"lon":5.37656,"is_reserved":false,"is_disabled":false,"rental_uris":{"android":"levelo://app?vid=2cafeed8-c7d8-4559-a05c-7d167104707e","ios":"levelo://app?vid=2cafeed8-c7d8-4559-a05c-7d167104707e"},"vehicle_type_id":"4","last_reported":1781451046,"current_range_meters":6000,"station_id":"ce4bhh12rcd13ifvqff0","pricing_plan_id":"cebpf4jnsgd1na2vs0mg"},{"bike_id":"96b2ab90-d8d2-49df-9035-0467b0e6c086","system_id":"levelo_inurba_marseille","lat":43.29813,"lon":5.44082,"is_reserved":false,"is_disabled":false,"rental_uris":{"android":"levelo://app?vid=96b2ab90-d8d2-49df-9035-0467b0e6c086","ios":"levelo://app?vid=96b2ab90-d8d2-49df-9035-0467b0e6c086"},"vehicle_type_id":"4","last_reported":1781451046,"current_range_meters":6000,"station_id":"st_d3jp68qikq2c7381ktn0","pricing_plan_id":"cebpf4jnsgd1na2vs0mg"},{"bike_id":"e6268e01-408c-4640-b5e2-0cc5f3b5f674","system_id":"levelo_inurba_marseille","lat":43.33541,"lon":5.37476,"is_reserved":false,"is_disabled":false,"rental_uris":{"android":"levelo://app?vid=e6268e01-408c-4640-b5e2-0cc5f3b5f674","ios":"levelo://app?vid=e6268e01-408c-4640-b5e2-0cc5f3b5f674"},"vehicle_type_id":"4","last_reported":1781451046,"current_range_meters":6000,"station_id":"st_d46tts09ee8s73dlu43g","pricing_plan_id":"cebpf4jnsgd1na2vs0mg"},{"bike_id":"2f5a2eb1-a60a-4fe8-a5aa-002259731410","system_id":"levelo_inurba_marseille","lat":43.3113,"lon":5.37441,"is_reserved":false,"is_disabled":true,"rental_uris":{"android":"levelo://app?vid=2f5a2eb1-a60a-4fe8-a5aa-002259731410","ios":"levelo://app?vid=2f5a2eb1-a60a-4fe8-a5aa-002259731410"},"vehicle_type_id":"4","last_reported":1781451046,"current_range_meters":6000,"station_id":"","pricing_plan_id":"cebpf4jnsgd1na2vs0mg"},{"bike_id":"423f6182-a443-4c34-a818-81a8277ac3c4","system_id":"levelo_inurba_marseille","lat":43.22528,"lon":5.34831,"is_reserved":false,"is_disabled":false,"rental_uris":{"android":"levelo://app?vid=423f6182-a443-4c34-a818-81a8277ac3c4","ios":"levelo://app?vid=423f6182-a443-4c34-a818-81a8277ac3c4"},"vehicle_type_id":"4","last_reported":1781451046,"current_range_meters":6000,"station_id":"st_cvj5dfep6f1abm77gieg","pricing_plan_id":"cebpf4jnsgd1na2vs0mg"},{"bike_id":"18d3753c-9feb-4a72-9030-d19f09b8a97b","system_id":"levelo_inurba_marseille","lat":43.29863,"lon":5.37916,"is_reserved":false,"is_disabled":false,"rental_uris":{"android":"levelo://app?vid=18d3753c-9feb-4a72-9030-d19f09b8a97b","ios":"levelo://app?vid=18d3753c-9feb-4a72-9030-d19f09b8a97b"},"vehicle_type_id":"4","last_reported":1781451046,"current_range_meters":6400,"station_id":"","pricing_plan_id":"cebpf4jnsgd1na2vs0mg"},{"bike_id":"e3959c0d-8d01-4b52-8b98-e1cb156fafe2","system_id":"levelo_inurba_marseille","lat":43.2827,"lon":5.35074,"is_reserved":false,"is_disabled":false,"rental_uris":{"android":"levelo://app?vid=e3959c0d-8d01-4b52-8b98-e1cb156fafe2","ios":"levelo://app?vid=e3959c0d-8d01-4b52-8b98-e1cb156fafe2"},"vehicle_type_id":"4","last_reported":1781451046,"current_range_meters":6400,"station_id":"ce4bhbp2rcd13ifvqerg","pricing_plan_id":"cebpf4jnsgd1na2vs0mg"},{"bike_id":"2d5ef193-39f2-4c11-87ca-11be80212d28","system_id":"levelo_inurba_marseille","lat":43.25493,"lon":5.37647,"is_reserved":false,"is_disabled":false,"rental_uris":{"android":"levelo://app?vid=2d5ef193-39f2-4c11-87ca-11be80212d28","ios":"levelo://app?vid=2d5ef193-39f2-4c11-87ca-11be80212d28"},"vehicle_type_id":"4","last_reported":1781451046,"current_range_meters":6400,"station_id":"ce4bhh12rcd13ifvqff0","pricing_plan_id":"cebpf4jnsgd1na2vs0mg"},{"bike_id":"7ab101d2-fd7e-47cf-982d-f85b01b5cea8","system_id":"levelo_inurba_marseille","lat":43.29066,"lon":5.37006,"is_reserved":false,"is_disabled":false,"rental_uris":{"android":"levelo://app?vid=7ab101d2-fd7e-47cf-982d-f85b01b5cea8","ios":"levelo://app?vid=7ab101d2-fd7e-47cf-982d-f85b01b5cea8"},"vehicle_type_id":"4","last_reported":1781451046,"current_range_meters":6400,"station_id":"","pricing_plan_id":"cebpf4jnsgd1na2vs0mg"},{"bike_id":"56f2ef51-600d-4f49-a422-ce2f71d0bb3a","system_id":"levelo_inurba_marseille","lat":43.24376,"lon":5.36969,"is_reserved":false,"is_disabled":false,"rental_uris":{"android":"levelo://app?vid=56f2ef51-600d-4f49-a422-ce2f71d0bb3a","ios":"levelo://app?vid=56f2ef51-600d-4f49-a422-ce2f71d0bb3a"},"vehicle_type_id":"4","last_reported":1781451046,"current_range_meters":6400,"station_id":"","pricing_plan_id":"cebpf4jnsgd1na2vs0mg"},{"bike_id":"72a68596-e19c-4a52-ba10-9bdae69e8aa7","system_id":"levelo_inurba_marseille","lat":43.26463,"lon":5.39566,"is_reserved":false,"is_disabled":true,"rental_uris":{"android":"levelo://app?vid=72a68596-e19c-4a52-ba10-9bdae69e8aa7","ios":"levelo://app?vid=72a68596-e19c-4a52-ba10-9bdae69e8aa7"},"vehicle_type_id":"4","last_reported":1781451046,"current_range_meters":6400,"station_id":"ce4bhi12rcd13ifvqfq0","pricing_plan_id":"cebpf4jnsgd1na2vs0mg"},{"bike_id":"79d3fe55-179a-4dcd-8254-78b6944a2fa4","system_id":"levelo_inurba_marseille","lat":43.2551,"lon":5.37627,"is_reserved":false,"is_disabled":false,"rental_uris":{"android":"levelo://app?vid=79d3fe55-179a-4dcd-8254-78b6944a2fa4","ios":"levelo://app?vid=79d3fe55-179a-4dcd-8254-78b6944a2fa4"},"vehicle_type_id":"4","last_reported":1781451046,"current_range_meters":6400,"station_id":"ce4bhh12rcd13ifvqff0","pricing_plan_id":"cebpf4jnsgd1na2vs0mg"},{"bike_id":"61704817-1327-4008-824f-2bfba68820ec","system_id":"levelo_inurba_marseille","lat":43.23885,"lon":5.37477,"is_reserved":false,"is_disabled":false,"rental_uris":{"android":"levelo://app?vid=61704817-1327-4008-824f-2bfba68820ec","ios":"levelo://app?vid=61704817-1327-4008-824f-2bfba68820ec"},"vehicle_type_id":"4","last_reported":1781451046,"current_range_meters":6400,"station_id":"st_d6sm7csbq4hs73f8fpjg","pricing_plan_id":"cebpf4jnsgd1na2vs0mg"},{"bike_id":"2efefc03-4edd-4e9c-8c65-243cf8199fbd","system_id":"levelo_inurba_marseille","lat":43.24469,"lon":5.42542,"is_reserved":false,"is_disabled":false,"rental_uris":{"android":"levelo://app?vid=2efefc03-4edd-4e9c-8c65-243cf8199fbd","ios":"levelo://app?vid=2efefc03-4edd-4e9c-8c65-243cf8199fbd"},"vehicle_type_id":"4","last_reported":1781451046,"current_range_meters":6400,"station_id":"st_d4a3vfp97mjs738cd8kg","pricing_plan_id":"cebpf4jnsgd1na2vs0mg"},{"bike_id":"eaf7b6af-4b59-4c2d-9b24-3b2ba05e4160","system_id":"levelo_inurba_marseille","lat":43.31671,"lon":5.37658,"is_reserved":false,"is_disabled":false,"rental_uris":{"android":"levelo://app?vid=eaf7b6af-4b59-4c2d-9b24-3b2ba05e4160","ios":"levelo://app?vid=eaf7b6af-4b59-4c2d-9b24-3b2ba05e4160"},"vehicle_type_id":"4","last_reported":1781451046,"current_range_meters":6400,"station_id":"","pricing_plan_id":"cebpf4jnsgd1na2vs0mg"},{"bike_id":"31a5c23d-40d4-417f-98b3-4241d25cf95b","system_id":"levelo_inurba_marseille","lat":43.33373,"lon":5.39324,"is_reserved":false,"is_disabled":false,"rental_uris":{"android":"levelo://app?vid=31a5c23d-40d4-417f-98b3-4241d25cf95b","ios":"levelo://app?vid=31a5c23d-40d4-417f-98b3-4241d25cf95b"},"vehicle_type_id":"4","last_reported":1781451046,"current_range_meters":6400,"station_id":"","pricing_plan_id":"cebpf4jnsgd1na2vs0mg"},{"bike_id":"92392093-a828-41ad-8728-12a3d2dae9ad","system_id":"levelo_inurba_marseille","lat":43.28327,"lon":5.35039,"is_reserved":false,"is_disabled":false,"rental_uris":{"android":"levelo://app?vid=92392093-a828-41ad-8728-12a3d2dae9ad","ios":"levelo://app?vid=92392093-a828-41ad-8728-12a3d2dae9ad"},"vehicle_type_id":"4","last_reported":1781451046,"current_range_meters":6400,"station_id":"","pricing_plan_id":"cebpf4jnsgd1na2vs0mg"},{"bike_id":"f61863b0-f767-44a6-8d35-21d2d9984309","system_id":"levelo_inurba_marseille","lat":43.28889,"lon":5.38914,"is_reserved":false,"is_disabled":false,"rental_uris":{"android":"levelo://app?vid=f61863b0-f767-44a6-8d35-21d2d9984309","ios":"levelo://app?vid=f61863b0-f767-44a6-8d35-21d2d9984309"},"vehicle_type_id":"4","last_reported":1781451046,"current_range_meters":6400,"station_id":"","pricing_plan_id":"cebpf4jnsgd1na2vs0mg"},{"bike_id":"30f49dab-8a28-4da8-90c7-01c9777cedac","system_id":"levelo_inurba_marseille","lat":43.29025,"lon":5.38129,"is_reserved":false,"is_disabled":false,"rental_uris":{"android":"levelo://app?vid=30f49dab-8a28-4da8-90c7-01c9777cedac","ios":"levelo://app?vid=30f49dab-8a28-4da8-90c7-01c9777cedac"},"vehicle_type_id":"4","last_reported":1781451046,"current_range_meters":6400,"station_id":"ce4bh4p2rcd13ifvqe1g","pricing_plan_id":"cebpf4jnsgd1na2vs0mg"},{"bike_id":"df0e6f53-267d-4018-ab82-2d863689edf8","system_id":"levelo_inurba_marseille","lat":43.29041,"lon":5.35911,"is_reserved":false,"is_disabled":false,"rental_uris":{"android":"levelo://app?vid=df0e6f53-267d-4018-ab82-2d863689edf8","ios":"levelo://app?vid=df0e6f53-267d-4018-ab82-2d863689edf8"},"vehicle_type_id":"4","last_reported":1781451046,"current_range_meters":6400,"station_id":"ce4bha92rcd13ifvqeg0","pricing_plan_id":"cebpf4jnsgd1na2vs0mg"},{"bike_id":"9b329a65-7b70-4e26-a818-02e7b725d4f9","system_id":"levelo_inurba_marseille","lat":43.28424,"lon":5.34978,"is_reserved":false,"is_disabled":false,"rental_uris":{"android":"levelo://app?vid=9b329a65-7b70-4e26-a818-02e7b725d4f9","ios":"levelo://app?vid=9b329a65-7b70-4e26-a818-02e7b725d4f9"},"vehicle_type_id":"4","last_reported":1781451046,"current_range_meters":6400,"station_id":"ce4bhbh2rcd13ifvqepg","pricing_plan_id":"cebpf4jnsgd1na2vs0mg"},{"bike_id":"bb4ec99a-042f-4e38-9506-c187e898bd8a","system_id":"levelo_inurba_marseille","lat":43.23781,"lon":5.36635,"is_reserved":false,"is_disabled":false,"rental_uris":{"android":"levelo://app?vid=bb4ec99a-042f-4e38-9506-c187e898bd8a","ios":"levelo://app?vid=bb4ec99a-042f-4e38-9506-c187e898bd8a"},"vehicle_type_id":"4","last_reported":1781451046,"current_range_meters":6400,"station_id":"st_d3nk18o9ro0c73en2l3g","pricing_plan_id":"cebpf4jnsgd1na2vs0mg"},{"bike_id":"54e482a5-c534-4992-ad75-060a9850516b","system_id":"levelo_inurba_marseille","lat":43.32349,"lon":5.36736,"is_reserved":false,"is_disabled":false,"rental_uris":{"android":"levelo://app?vid=54e482a5-c534-4992-ad75-060a9850516b","ios":"levelo://app?vid=54e482a5-c534-4992-ad75-060a9850516b"},"vehicle_type_id":"4","last_reported":1781451046,"current_range_meters":6800,"station_id":"ce4bhsh2rcd13ifvqi2g","pricing_plan_id":"cebpf4jnsgd1na2vs0mg"},{"bike_id":"9d7cfe82-e27f-4fb9-a963-f2c0e78ce3c1","system_id":"levelo_inurba_marseille","lat":43.28794,"lon":5.37631,"is_reserved":false,"is_disabled":false,"rental_uris":{"android":"levelo://app?vid=9d7cfe82-e27f-4fb9-a963-f2c0e78ce3c1","ios":"levelo://app?vid=9d7cfe82-e27f-4fb9-a963-f2c0e78ce3c1"},"vehicle_type_id":"4","last_reported":1781451046,"current_range_meters":6800,"station_id":"","pricing_plan_id":"cebpf4jnsgd1na2vs0mg"},{"bike_id":"013347b5-f5ff-4484-8a34-93cd1d903112","system_id":"levelo_inurba_marseille","lat":43.2843,"lon":5.34979,"is_reserved":false,"is_disabled":false,"rental_uris":{"android":"levelo://app?vid=013347b5-f5ff-4484-8a34-93cd1d903112","ios":"levelo://app?vid=013347b5-f5ff-4484-8a34-93cd1d903112"},"vehicle_type_id":"4","last_reported":1781451046,"current_range_meters":6800,"station_id":"ce4bhbh2rcd13ifvqepg","pricing_plan_id":"cebpf4jnsgd1na2vs0mg"},{"bike_id":"8fea25ca-fb48-4384-9778-a8089f84f9ac","system_id":"levelo_inurba_marseille","lat":43.29703,"lon":5.38088,"is_reserved":false,"is_disabled":false,"rental_uris":{"android":"levelo://app?vid=8fea25ca-fb48-4384-9778-a8089f84f9ac","ios":"levelo://app?vid=8fea25ca-fb48-4384-9778-a8089f84f9ac"},"vehicle_type_id":"4","last_reported":1781451046,"current_range_meters":6800,"station_id":"","pricing_plan_id":"cebpf4jnsgd1na2vs0mg"},{"bike_id":"d1800741-fac1-4624-b995-5a057797ea03","system_id":"levelo_inurba_marseille","lat":43.27227,"lon":5.42354,"is_reserved":false,"is_disabled":false,"rental_uris":{"android":"levelo://app?vid=d1800741-fac1-4624-b995-5a057797ea03","ios":"levelo://app?vid=d1800741-fac1-4624-b995-5a057797ea03"},"vehicle_type_id":"4","last_reported":1781451046,"current_range_meters":6800,"station_id":"","pricing_plan_id":"cebpf4jnsgd1na2vs0mg"},{"bike_id":"3a178be9-377a-4a25-b16e-746e76e3b7b2","system_id":"levelo_inurba_marseille","lat":43.26213,"lon":5.38837,"is_reserved":false,"is_disabled":false,"rental_uris":{"android":"levelo://app?vid=3a178be9-377a-4a25-b16e-746e76e3b7b2","ios":"levelo://app?vid=3a178be9-377a-4a25-b16e-746e76e3b7b2"},"vehicle_type_id":"4","last_reported":1781451046,"current_range_meters":6800,"station_id":"","pricing_plan_id":"cebpf4jnsgd1na2vs0mg"},{"bike_id":"c800199a-5474-40e1-bb50-c25e031e8be6","system_id":"levelo_inurba_marseille","lat":43.21192,"lon":5.35071,"is_reserved":false,"is_disabled":false,"rental_uris":{"android":"levelo://app?vid=c800199a-5474-40e1-bb50-c25e031e8be6","ios":"levelo://app?vid=c800199a-5474-40e1-bb50-c25e031e8be6"},"vehicle_type_id":"4","last_reported":1781451046,"current_range_meters":6800,"station_id":"st_cvj6sg6p6f1abm77japg","pricing_plan_id":"cebpf4jnsgd1na2vs0mg"},{"bike_id":"54410e0e-88fe-44cb-9cd3-c20ab067986a","system_id":"levelo_inurba_marseille","lat":43.28264,"lon":5.34804,"is_reserved":false,"is_disabled":false,"rental_uris":{"android":"levelo://app?vid=54410e0e-88fe-44cb-9cd3-c20ab067986a","ios":"levelo://app?vid=54410e0e-88fe-44cb-9cd3-c20ab067986a"},"vehicle_type_id":"4","last_reported":1781451046,"current_range_meters":6800,"station_id":"","pricing_plan_id":"cebpf4jnsgd1na2vs0mg"},{"bike_id":"64d1def8-2a5b-48eb-8ec4-f02e72a31395","system_id":"levelo_inurba_marseille","lat":43.28701,"lon":5.46684,"is_reserved":false,"is_disabled":false,"rental_uris":{"android":"levelo://app?vid=64d1def8-2a5b-48eb-8ec4-f02e72a31395","ios":"levelo://app?vid=64d1def8-2a5b-48eb-8ec4-f02e72a31395"},"vehicle_type_id":"4","last_reported":1781451046,"current_range_meters":6800,"station_id":"st_d6tc3vkotcvc738tfjhg","pricing_plan_id":"cebpf4jnsgd1na2vs0mg"},{"bike_id":"0c977e9a-f490-484e-8825-5fb45e23fb00","system_id":"levelo_inurba_marseille","lat":43.231969,"lon":5.355508,"is_reserved":false,"is_disabled":false,"rental_uris":{"android":"levelo://app?vid=0c977e9a-f490-484e-8825-5fb45e23fb00","ios":"levelo://app?vid=0c977e9a-f490-484e-8825-5fb45e23fb00"},"vehicle_type_id":"4","last_reported":1781451046,"current_range_meters":6800,"station_id":"ce4bhu92rcd13ifvqi70","pricing_plan_id":"cebpf4jnsgd1na2vs0mg"},{"bike_id":"87ce889a-432f-46e2-b722-0082a4450219","system_id":"levelo_inurba_marseille","lat":43.25123,"lon":5.40327,"is_reserved":false,"is_disabled":false,"rental_uris":{"android":"levelo://app?vid=87ce889a-432f-46e2-b722-0082a4450219","ios":"levelo://app?vid=87ce889a-432f-46e2-b722-0082a4450219"},"vehicle_type_id":"4","last_reported":1781451046,"current_range_meters":6800,"station_id":"ce4bhlh2rcd13ifvqgig","pricing_plan_id":"cebpf4jnsgd1na2vs0mg"},{"bike_id":"e6eda01b-4746-4a1b-b8bd-bc2e29bf1778","system_id":"levelo_inurba_marseille","lat":43.28478,"lon":5.48398,"is_reserved":false,"is_disabled":false,"rental_uris":{"android":"levelo://app?vid=e6eda01b-4746-4a1b-b8bd-bc2e29bf1778","ios":"levelo://app?vid=e6eda01b-4746-4a1b-b8bd-bc2e29bf1778"},"vehicle_type_id":"4","last_reported":1781451046,"current_range_meters":6800,"station_id":"st_d3svhcjqgbts73a3dn0g","pricing_plan_id":"cebpf4jnsgd1na2vs0mg"},{"bike_id":"e0e8bbcc-d7ba-4825-b003-2e36145875e8","system_id":"levelo_inurba_marseille","lat":43.28941,"lon":5.36631,"is_reserved":false,"is_disabled":false,"rental_uris":{"android":"levelo://app?vid=e0e8bbcc-d7ba-4825-b003-2e36145875e8","ios":"levelo://app?vid=e0e8bbcc-d7ba-4825-b003-2e36145875e8"},"vehicle_type_id":"4","last_reported":1781451046,"current_range_meters":6800,"station_id":"ce4bhap2rcd13ifvqek0","pricing_plan_id":"cebpf4jnsgd1na2vs0mg"},{"bike_id":"8ca89180-4b47-4f20-9cf3-f395c4cc494f","system_id":"levelo_inurba_marseille","lat":43.26567,"lon":5.39033,"is_reserved":false,"is_disabled":false,"rental_uris":{"android":"levelo://app?vid=8ca89180-4b47-4f20-9cf3-f395c4cc494f","ios":"levelo://app?vid=8ca89180-4b47-4f20-9cf3-f395c4cc494f"},"vehicle_type_id":"4","last_reported":1781451046,"current_range_meters":6800,"station_id":"ce4bhe12rcd13ifvqf30","pricing_plan_id":"cebpf4jnsgd1na2vs0mg"},{"bike_id":"56b376d5-9b28-4e92-ac45-b76b482244af","system_id":"levelo_inurba_marseille","lat":43.31901,"lon":5.36782,"is_reserved":false,"is_disabled":false,"rental_uris":{"android":"levelo://app?vid=56b376d5-9b28-4e92-ac45-b76b482244af","ios":"levelo://app?vid=56b376d5-9b28-4e92-ac45-b76b482244af"},"vehicle_type_id":"4","last_reported":1781451046,"current_range_meters":6800,"station_id":"st_d6o2h0d0559c73evc1b0","pricing_plan_id":"cebpf4jnsgd1na2vs0mg"},{"bike_id":"177de344-f95d-46a5-9c14-646feb167bd4","system_id":"levelo_inurba_marseille","lat":43.27378,"lon":5.36204,"is_reserved":false,"is_disabled":false,"rental_uris":{"android":"levelo://app?vid=177de344-f95d-46a5-9c14-646feb167bd4","ios":"levelo://app?vid=177de344-f95d-46a5-9c14-646feb167bd4"},"vehicle_type_id":"4","last_reported":1781451046,"current_range_meters":6800,"station_id":"","pricing_plan_id":"cebpf4jnsgd1na2vs0mg"},{"bike_id":"4c3e6154-5ec6-4359-a0ec-b8d04342a079","system_id":"levelo_inurba_marseille","lat":43.25514,"lon":5.3766,"is_reserved":false,"is_disabled":false,"rental_uris":{"android":"levelo://app?vid=4c3e6154-5ec6-4359-a0ec-b8d04342a079","ios":"levelo://app?vid=4c3e6154-5ec6-4359-a0ec-b8d04342a079"},"vehicle_type_id":"4","last_reported":1781451046,"current_range_meters":6800,"station_id":"ce4bhh12rcd13ifvqff0","pricing_plan_id":"cebpf4jnsgd1na2vs0mg"},{"bike_id":"70402357-ed8d-408f-abff-857409782ef9","system_id":"levelo_inurba_marseille","lat":43.30605,"lon":5.37231,"is_reserved":false,"is_disabled":false,"rental_uris":{"android":"levelo://app?vid=70402357-ed8d-408f-abff-857409782ef9","ios":"levelo://app?vid=70402357-ed8d-408f-abff-857409782ef9"},"vehicle_type_id":"4","last_reported":1781451046,"current_range_meters":6800,"station_id":"ce4bgqh2rcd13ifvqc4g","pricing_plan_id":"cebpf4jnsgd1na2vs0mg"},{"bike_id":"349586d1-2983-4165-a665-24f8929c0d47","system_id":"levelo_inurba_marseille","lat":43.25521,"lon":5.37667,"is_reserved":false,"is_disabled":false,"rental_uris":{"android":"levelo://app?vid=349586d1-2983-4165-a665-24f8929c0d47","ios":"levelo://app?vid=349586d1-2983-4165-a665-24f8929c0d47"},"vehicle_type_id":"4","last_reported":1781451046,"current_range_meters":6800,"station_id":"ce4bhh12rcd13ifvqff0","pricing_plan_id":"cebpf4jnsgd1na2vs0mg"},{"bike_id":"167df277-6fea-4255-a2ff-b705d70e23c4","system_id":"levelo_inurba_marseille","lat":43.2761,"lon":5.36112,"is_reserved":false,"is_disabled":false,"rental_uris":{"android":"levelo://app?vid=167df277-6fea-4255-a2ff-b705d70e23c4","ios":"levelo://app?vid=167df277-6fea-4255-a2ff-b705d70e23c4"},"vehicle_type_id":"4","last_reported":1781451046,"current_range_meters":6800,"station_id":"ce4bgj92rcd13ifvqbe0","pricing_plan_id":"cebpf4jnsgd1na2vs0mg"},{"bike_id":"caa1db71-553e-4531-b4d3-90af11722d37","system_id":"levelo_inurba_marseille","lat":43.27375,"lon":5.36267,"is_reserved":false,"is_disabled":false,"rental_uris":{"android":"levelo://app?vid=caa1db71-553e-4531-b4d3-90af11722d37","ios":"levelo://app?vid=caa1db71-553e-4531-b4d3-90af11722d37"},"vehicle_type_id":"4","last_reported":1781451046,"current_range_meters":6800,"station_id":"ce4bhbh2rcd13ifvqeo0","pricing_plan_id":"cebpf4jnsgd1na2vs0mg"},{"bike_id":"9059db4d-53f9-4bc2-96ea-2911cca7514a","system_id":"levelo_inurba_marseille","lat":43.21192,"lon":5.35069,"is_reserved":false,"is_disabled":false,"rental_uris":{"android":"levelo://app?vid=9059db4d-53f9-4bc2-96ea-2911cca7514a","ios":"levelo://app?vid=9059db4d-53f9-4bc2-96ea-2911cca7514a"},"vehicle_type_id":"4","last_reported":1781451046,"current_range_meters":6800,"station_id":"st_cvj6sg6p6f1abm77japg","pricing_plan_id":"cebpf4jnsgd1na2vs0mg"},{"bike_id":"58df25d0-bd57-4415-b2e9-39adcdff72a1","system_id":"levelo_inurba_marseille","lat":43.29181,"lon":5.37128,"is_reserved":false,"is_disabled":true,"rental_uris":{"android":"levelo://app?vid=58df25d0-bd57-4415-b2e9-39adcdff72a1","ios":"levelo://app?vid=58df25d0-bd57-4415-b2e9-39adcdff72a1"},"vehicle_type_id":"4","last_reported":1781451046,"current_range_meters":6800,"station_id":"ce4bha92rcd13ifvqeh0","pricing_plan_id":"cebpf4jnsgd1na2vs0mg"},{"bike_id":"e5112433-aa95-4996-836d-6a5e3dd047ee","system_id":"levelo_inurba_marseille","lat":43.30207,"lon":5.38029,"is_reserved":false,"is_disabled":false,"rental_uris":{"android":"levelo://app?vid=e5112433-aa95-4996-836d-6a5e3dd047ee","ios":"levelo://app?vid=e5112433-aa95-4996-836d-6a5e3dd047ee"},"vehicle_type_id":"4","last_reported":1781451046,"current_range_meters":6800,"station_id":"","pricing_plan_id":"cebpf4jnsgd1na2vs0mg"},{"bike_id":"1cc1e854-a64b-4eaa-bd00-1c309caff36d","system_id":"levelo_inurba_marseille","lat":43.28636,"lon":5.35115,"is_reserved":false,"is_disabled":true,"rental_uris":{"android":"levelo://app?vid=1cc1e854-a64b-4eaa-bd00-1c309caff36d","ios":"levelo://app?vid=1cc1e854-a64b-4eaa-bd00-1c309caff36d"},"vehicle_type_id":"4","last_reported":1781451046,"current_range_meters":6800,"station_id":"ce4bhch2rcd13ifvqeug","pricing_plan_id":"cebpf4jnsgd1na2vs0mg"},{"bike_id":"bbcfa845-04e7-4147-af58-e656c6582dc2","system_id":"levelo_inurba_marseille","lat":43.27627,"lon":5.3583,"is_reserved":false,"is_disabled":false,"rental_uris":{"android":"levelo://app?vid=bbcfa845-04e7-4147-af58-e656c6582dc2","ios":"levelo://app?vid=bbcfa845-04e7-4147-af58-e656c6582dc2"},"vehicle_type_id":"4","last_reported":1781451046,"current_range_meters":6800,"station_id":"","pricing_plan_id":"cebpf4jnsgd1na2vs0mg"},{"bike_id":"a04eda4e-5789-41e0-9761-b5034599e153","system_id":"levelo_inurba_marseille","lat":43.3094,"lon":5.39053,"is_reserved":false,"is_disabled":false,"rental_uris":{"android":"levelo://app?vid=a04eda4e-5789-41e0-9761-b5034599e153","ios":"levelo://app?vid=a04eda4e-5789-41e0-9761-b5034599e153"},"vehicle_type_id":"4","last_reported":1781451046,"current_range_meters":6800,"station_id":"ce4bgup2rcd13ifvqco0","pricing_plan_id":"cebpf4jnsgd1na2vs0mg"},{"bike_id":"7272f913-724d-4b58-b6a6-688b3e04b242","system_id":"levelo_inurba_marseille","lat":43.24682,"lon":5.41254,"is_reserved":false,"is_disabled":false,"rental_uris":{"android":"levelo://app?vid=7272f913-724d-4b58-b6a6-688b3e04b242","ios":"levelo://app?vid=7272f913-724d-4b58-b6a6-688b3e04b242"},"vehicle_type_id":"4","last_reported":1781451046,"current_range_meters":6800,"station_id":"","pricing_plan_id":"cebpf4jnsgd1na2vs0mg"},{"bike_id":"1731b9ba-e46e-4a24-8995-2523c66b6437","system_id":"levelo_inurba_marseille","lat":43.24386,"lon":5.37065,"is_reserved":false,"is_disabled":false,"rental_uris":{"android":"levelo://app?vid=1731b9ba-e46e-4a24-8995-2523c66b6437","ios":"levelo://app?vid=1731b9ba-e46e-4a24-8995-2523c66b6437"},"vehicle_type_id":"4","last_reported":1781451046,"current_range_meters":6800,"station_id":"ce4bhhh2rcd13ifvqfk0","pricing_plan_id":"cebpf4jnsgd1na2vs0mg"},{"bike_id":"4e6d713d-5d98-4f27-9e30-016f10070add","system_id":"levelo_inurba_marseille","lat":43.24527,"lon":5.42555,"is_reserved":false,"is_disabled":false,"rental_uris":{"android":"levelo://app?vid=4e6d713d-5d98-4f27-9e30-016f10070add","ios":"levelo://app?vid=4e6d713d-5d98-4f27-9e30-016f10070add"},"vehicle_type_id":"4","last_reported":1781451046,"current_range_meters":6800,"station_id":"","pricing_plan_id":"cebpf4jnsgd1na2vs0mg"},{"bike_id":"fcf4d312-9968-4443-82f2-b045268fd358","system_id":"levelo_inurba_marseille","lat":43.2992,"lon":5.41029,"is_reserved":false,"is_disabled":false,"rental_uris":{"android":"levelo://app?vid=fcf4d312-9968-4443-82f2-b045268fd358","ios":"levelo://app?vid=fcf4d312-9968-4443-82f2-b045268fd358"},"vehicle_type_id":"4","last_reported":1781451046,"current_range_meters":6800,"station_id":"","pricing_plan_id":"cebpf4jnsgd1na2vs0mg"},{"bike_id":"a0967682-704e-4097-9142-482a1f2d36c9","system_id":"levelo_inurba_marseille","lat":43.2119,"lon":5.35071,"is_reserved":false,"is_disabled":true,"rental_uris":{"android":"levelo://app?vid=a0967682-704e-4097-9142-482a1f2d36c9","ios":"levelo://app?vid=a0967682-704e-4097-9142-482a1f2d36c9"},"vehicle_type_id":"4","last_reported":1781451046,"current_range_meters":6800,"station_id":"st_cvj6sg6p6f1abm77japg","pricing_plan_id":"cebpf4jnsgd1na2vs0mg"},{"bike_id":"96eb9038-4225-484d-b479-6dc88e267c34","system_id":"levelo_inurba_marseille","lat":43.273081,"lon":5.362833,"is_reserved":false,"is_disabled":false,"rental_uris":{"android":"levelo://app?vid=96eb9038-4225-484d-b479-6dc88e267c34","ios":"levelo://app?vid=96eb9038-4225-484d-b479-6dc88e267c34"},"vehicle_type_id":"4","last_reported":1781451046,"current_range_meters":7200,"station_id":"ce4bhbh2rcd13ifvqeo0","pricing_plan_id":"cebpf4jnsgd1na2vs0mg"},{"bike_id":"4c78b6b3-2f8d-4f10-973f-a50992bad914","system_id":"levelo_inurba_marseille","lat":43.21192,"lon":5.35074,"is_reserved":false,"is_disabled":false,"rental_uris":{"android":"levelo://app?vid=4c78b6b3-2f8d-4f10-973f-a50992bad914","ios":"levelo://app?vid=4c78b6b3-2f8d-4f10-973f-a50992bad914"},"vehicle_type_id":"4","last_reported":1781451046,"current_range_meters":7200,"station_id":"st_cvj6sg6p6f1abm77japg","pricing_plan_id":"cebpf4jnsgd1na2vs0mg"},{"bike_id":"18a97fb1-1436-49ca-9acc-e362ec62975d","system_id":"levelo_inurba_marseille","lat":43.23213,"lon":5.35556,"is_reserved":false,"is_disabled":false,"rental_uris":{"android":"levelo://app?vid=18a97fb1-1436-49ca-9acc-e362ec62975d","ios":"levelo://app?vid=18a97fb1-1436-49ca-9acc-e362ec62975d"},"vehicle_type_id":"4","last_reported":1781451046,"current_range_meters":7200,"station_id":"ce4bhu92rcd13ifvqi70","pricing_plan_id":"cebpf4jnsgd1na2vs0mg"},{"bike_id":"7269e119-0e13-4dd0-a553-e22258892c39","system_id":"levelo_inurba_marseille","lat":43.2293,"lon":5.35392,"is_reserved":false,"is_disabled":false,"rental_uris":{"android":"levelo://app?vid=7269e119-0e13-4dd0-a553-e22258892c39","ios":"levelo://app?vid=7269e119-0e13-4dd0-a553-e22258892c39"},"vehicle_type_id":"4","last_reported":1781451046,"current_range_meters":7200,"station_id":"cpo3532slgdg3j2ikp40","pricing_plan_id":"cebpf4jnsgd1na2vs0mg"},{"bike_id":"28b75407-b95d-4028-b050-f6d44a2ffa77","system_id":"levelo_inurba_marseille","lat":43.23796,"lon":5.36626,"is_reserved":false,"is_disabled":false,"rental_uris":{"android":"levelo://app?vid=28b75407-b95d-4028-b050-f6d44a2ffa77","ios":"levelo://app?vid=28b75407-b95d-4028-b050-f6d44a2ffa77"},"vehicle_type_id":"4","last_reported":1781451046,"current_range_meters":7200,"station_id":"st_d3nk18o9ro0c73en2l3g","pricing_plan_id":"cebpf4jnsgd1na2vs0mg"},{"bike_id":"e951097c-25bc-4ef7-97e6-1783eeefa1c0","system_id":"levelo_inurba_marseille","lat":43.33642,"lon":5.41947,"is_reserved":false,"is_disabled":false,"rental_uris":{"android":"levelo://app?vid=e951097c-25bc-4ef7-97e6-1783eeefa1c0","ios":"levelo://app?vid=e951097c-25bc-4ef7-97e6-1783eeefa1c0"},"vehicle_type_id":"4","last_reported":1781451046,"current_range_meters":7200,"station_id":"","pricing_plan_id":"cebpf4jnsgd1na2vs0mg"},{"bike_id":"49924376-8cc8-44b4-9eca-5c4ff4c899c1","system_id":"levelo_inurba_marseille","lat":43.26548,"lon":5.37287,"is_reserved":false,"is_disabled":true,"rental_uris":{"android":"levelo://app?vid=49924376-8cc8-44b4-9eca-5c4ff4c899c1","ios":"levelo://app?vid=49924376-8cc8-44b4-9eca-5c4ff4c899c1"},"vehicle_type_id":"4","last_reported":1781451046,"current_range_meters":7200,"station_id":"ce4bhg12rcd13ifvqf70","pricing_plan_id":"cebpf4jnsgd1na2vs0mg"},{"bike_id":"39d0c51c-f43f-4de3-bda2-70f364f473b9","system_id":"levelo_inurba_marseille","lat":43.21747,"lon":5.34611,"is_reserved":false,"is_disabled":false,"rental_uris":{"android":"levelo://app?vid=39d0c51c-f43f-4de3-bda2-70f364f473b9","ios":"levelo://app?vid=39d0c51c-f43f-4de3-bda2-70f364f473b9"},"vehicle_type_id":"4","last_reported":1781451046,"current_range_meters":7200,"station_id":"st_cvj6r9ubvosntc0bgbag","pricing_plan_id":"cebpf4jnsgd1na2vs0mg"},{"bike_id":"e91d4c37-49e1-4eb2-811e-d4c855f1b23c","system_id":"levelo_inurba_marseille","lat":43.31697,"lon":5.37767,"is_reserved":false,"is_disabled":false,"rental_uris":{"android":"levelo://app?vid=e91d4c37-49e1-4eb2-811e-d4c855f1b23c","ios":"levelo://app?vid=e91d4c37-49e1-4eb2-811e-d4c855f1b23c"},"vehicle_type_id":"4","last_reported":1781451046,"current_range_meters":7200,"station_id":"ce4bgth2rcd13ifvqch0","pricing_plan_id":"cebpf4jnsgd1na2vs0mg"},{"bike_id":"c2d1c0df-0e86-4c2a-8f8c-a589e1b924d5","system_id":"levelo_inurba_marseille","lat":43.21736,"lon":5.34605,"is_reserved":false,"is_disabled":false,"rental_uris":{"android":"levelo://app?vid=c2d1c0df-0e86-4c2a-8f8c-a589e1b924d5","ios":"levelo://app?vid=c2d1c0df-0e86-4c2a-8f8c-a589e1b924d5"},"vehicle_type_id":"4","last_reported":1781451046,"current_range_meters":7200,"station_id":"st_cvj6r9ubvosntc0bgbag","pricing_plan_id":"cebpf4jnsgd1na2vs0mg"},{"bike_id":"f10274f0-d5a3-4847-854d-5e53c5520946","system_id":"levelo_inurba_marseille","lat":43.32361,"lon":5.3675,"is_reserved":false,"is_disabled":false,"rental_uris":{"android":"levelo://app?vid=f10274f0-d5a3-4847-854d-5e53c5520946","ios":"levelo://app?vid=f10274f0-d5a3-4847-854d-5e53c5520946"},"vehicle_type_id":"4","last_reported":1781451046,"current_range_meters":7200,"station_id":"ce4bhsh2rcd13ifvqi2g","pricing_plan_id":"cebpf4jnsgd1na2vs0mg"},{"bike_id":"7c85cc1d-6c8e-49ae-977d-773372ecb6ea","system_id":"levelo_inurba_marseille","lat":43.23182,"lon":5.39987,"is_reserved":false,"is_disabled":false,"rental_uris":{"android":"levelo://app?vid=7c85cc1d-6c8e-49ae-977d-773372ecb6ea","ios":"levelo://app?vid=7c85cc1d-6c8e-49ae-977d-773372ecb6ea"},"vehicle_type_id":"4","last_reported":1781451046,"current_range_meters":7200,"station_id":"ce4bhn12rcd13ifvqgqg","pricing_plan_id":"cebpf4jnsgd1na2vs0mg"},{"bike_id":"520e7007-685d-436d-8d38-db025ae27a9c","system_id":"levelo_inurba_marseille","lat":43.33731,"lon":5.39172,"is_reserved":false,"is_disabled":false,"rental_uris":{"android":"levelo://app?vid=520e7007-685d-436d-8d38-db025ae27a9c","ios":"levelo://app?vid=520e7007-685d-436d-8d38-db025ae27a9c"},"vehicle_type_id":"4","last_reported":1781451046,"current_range_meters":7200,"station_id":"ce4bhr92rcd13ifvqhsg","pricing_plan_id":"cebpf4jnsgd1na2vs0mg"},{"bike_id":"4b51180a-f031-4891-9ca2-75426db627c3","system_id":"levelo_inurba_marseille","lat":43.26588,"lon":5.39485,"is_reserved":false,"is_disabled":false,"rental_uris":{"android":"levelo://app?vid=4b51180a-f031-4891-9ca2-75426db627c3","ios":"levelo://app?vid=4b51180a-f031-4891-9ca2-75426db627c3"},"vehicle_type_id":"4","last_reported":1781451046,"current_range_meters":7200,"station_id":"","pricing_plan_id":"cebpf4jnsgd1na2vs0mg"},{"bike_id":"10c3d2ae-f5da-41e9-ad71-c65b3c5f004a","system_id":"levelo_inurba_marseille","lat":43.22514,"lon":5.34832,"is_reserved":false,"is_disabled":false,"rental_uris":{"android":"levelo://app?vid=10c3d2ae-f5da-41e9-ad71-c65b3c5f004a","ios":"levelo://app?vid=10c3d2ae-f5da-41e9-ad71-c65b3c5f004a"},"vehicle_type_id":"4","last_reported":1781451046,"current_range_meters":7200,"station_id":"st_cvj5dfep6f1abm77gieg","pricing_plan_id":"cebpf4jnsgd1na2vs0mg"},{"bike_id":"795c8263-b8d9-4fb4-98a6-7e3fbac3000a","system_id":"levelo_inurba_marseille","lat":43.23417,"lon":5.38015,"is_reserved":false,"is_disabled":false,"rental_uris":{"android":"levelo://app?vid=795c8263-b8d9-4fb4-98a6-7e3fbac3000a","ios":"levelo://app?vid=795c8263-b8d9-4fb4-98a6-7e3fbac3000a"},"vehicle_type_id":"4","last_reported":1781451046,"current_range_meters":7200,"station_id":"","pricing_plan_id":"cebpf4jnsgd1na2vs0mg"},{"bike_id":"eb0c1c7f-47b8-4a10-8001-0064309e6c74","system_id":"levelo_inurba_marseille","lat":43.22535,"lon":5.34828,"is_reserved":false,"is_disabled":false,"rental_uris":{"android":"levelo://app?vid=eb0c1c7f-47b8-4a10-8001-0064309e6c74","ios":"levelo://app?vid=eb0c1c7f-47b8-4a10-8001-0064309e6c74"},"vehicle_type_id":"4","last_reported":1781451046,"current_range_meters":7200,"station_id":"st_cvj5dfep6f1abm77gieg","pricing_plan_id":"cebpf4jnsgd1na2vs0mg"},{"bike_id":"0630f1a9-8739-454b-b039-f139598f8686","system_id":"levelo_inurba_marseille","lat":43.29727,"lon":5.37186,"is_reserved":false,"is_disabled":false,"rental_uris":{"android":"levelo://app?vid=0630f1a9-8739-454b-b039-f139598f8686","ios":"levelo://app?vid=0630f1a9-8739-454b-b039-f139598f8686"},"vehicle_type_id":"4","last_reported":1781451046,"current_range_meters":7200,"station_id":"","pricing_plan_id":"cebpf4jnsgd1na2vs0mg"},{"bike_id":"63b8b66a-611e-42c7-b82d-993acc67e6ee","system_id":"levelo_inurba_marseille","lat":43.28613,"lon":5.35107,"is_reserved":false,"is_disabled":false,"rental_uris":{"android":"levelo://app?vid=63b8b66a-611e-42c7-b82d-993acc67e6ee","ios":"levelo://app?vid=63b8b66a-611e-42c7-b82d-993acc67e6ee"},"vehicle_type_id":"4","last_reported":1781451046,"current_range_meters":7200,"station_id":"ce4bhch2rcd13ifvqeug","pricing_plan_id":"cebpf4jnsgd1na2vs0mg"},{"bike_id":"c1d734fd-9377-400d-8dda-b844a392e7e1","system_id":"levelo_inurba_marseille","lat":43.28371,"lon":5.38635,"is_reserved":false,"is_disabled":true,"rental_uris":{"android":"levelo://app?vid=c1d734fd-9377-400d-8dda-b844a392e7e1","ios":"levelo://app?vid=c1d734fd-9377-400d-8dda-b844a392e7e1"},"vehicle_type_id":"4","last_reported":1781451046,"current_range_meters":7200,"station_id":"ce4bh492rcd13ifvqdvg","pricing_plan_id":"cebpf4jnsgd1na2vs0mg"},{"bike_id":"c01f6dec-89dd-472c-9d53-44f20e2f469d","system_id":"levelo_inurba_marseille","lat":43.28046,"lon":5.34828,"is_reserved":false,"is_disabled":false,"rental_uris":{"android":"levelo://app?vid=c01f6dec-89dd-472c-9d53-44f20e2f469d","ios":"levelo://app?vid=c01f6dec-89dd-472c-9d53-44f20e2f469d"},"vehicle_type_id":"4","last_reported":1781451046,"current_range_meters":7200,"station_id":"","pricing_plan_id":"cebpf4jnsgd1na2vs0mg"},{"bike_id":"bcf8fcef-b2e8-4233-bba5-38c0d2808422","system_id":"levelo_inurba_marseille","lat":43.27382,"lon":5.36272,"is_reserved":false,"is_disabled":false,"rental_uris":{"android":"levelo://app?vid=bcf8fcef-b2e8-4233-bba5-38c0d2808422","ios":"levelo://app?vid=bcf8fcef-b2e8-4233-bba5-38c0d2808422"},"vehicle_type_id":"4","last_reported":1781451046,"current_range_meters":7200,"station_id":"ce4bhbh2rcd13ifvqeo0","pricing_plan_id":"cebpf4jnsgd1na2vs0mg"},{"bike_id":"8201d4c2-f665-4db0-aeb7-7b4a87145f87","system_id":"levelo_inurba_marseille","lat":43.2575,"lon":5.4113,"is_reserved":false,"is_disabled":false,"rental_uris":{"android":"levelo://app?vid=8201d4c2-f665-4db0-aeb7-7b4a87145f87","ios":"levelo://app?vid=8201d4c2-f665-4db0-aeb7-7b4a87145f87"},"vehicle_type_id":"4","last_reported":1781451046,"current_range_meters":7200,"station_id":"","pricing_plan_id":"cebpf4jnsgd1na2vs0mg"},{"bike_id":"64e77842-91f9-4b2d-81f0-fd289d6ebd85","system_id":"levelo_inurba_marseille","lat":43.22926,"lon":5.35379,"is_reserved":false,"is_disabled":false,"rental_uris":{"android":"levelo://app?vid=64e77842-91f9-4b2d-81f0-fd289d6ebd85","ios":"levelo://app?vid=64e77842-91f9-4b2d-81f0-fd289d6ebd85"},"vehicle_type_id":"4","last_reported":1781451046,"current_range_meters":7200,"station_id":"cpo3532slgdg3j2ikp40","pricing_plan_id":"cebpf4jnsgd1na2vs0mg"},{"bike_id":"6e731773-2418-4631-b7fd-e17c8e336e67","system_id":"levelo_inurba_marseille","lat":43.239699,"lon":5.366301,"is_reserved":false,"is_disabled":false,"rental_uris":{"android":"levelo://app?vid=6e731773-2418-4631-b7fd-e17c8e336e67","ios":"levelo://app?vid=6e731773-2418-4631-b7fd-e17c8e336e67"},"vehicle_type_id":"4","last_reported":1781451046,"current_range_meters":7200,"station_id":"ce4bhi12rcd13ifvqfp0","pricing_plan_id":"cebpf4jnsgd1na2vs0mg"},{"bike_id":"794c5ae8-e703-448c-b8f1-6956ccab57f7","system_id":"levelo_inurba_marseille","lat":43.28491,"lon":5.38422,"is_reserved":false,"is_disabled":false,"rental_uris":{"android":"levelo://app?vid=794c5ae8-e703-448c-b8f1-6956ccab57f7","ios":"levelo://app?vid=794c5ae8-e703-448c-b8f1-6956ccab57f7"},"vehicle_type_id":"4","last_reported":1781451046,"current_range_meters":7200,"station_id":"ce4bh512rcd13ifvqe3g","pricing_plan_id":"cebpf4jnsgd1na2vs0mg"},{"bike_id":"4d8df8ec-f6c0-4c39-8cac-00a49ce6968d","system_id":"levelo_inurba_marseille","lat":43.29062,"lon":5.37077,"is_reserved":false,"is_disabled":true,"rental_uris":{"android":"levelo://app?vid=4d8df8ec-f6c0-4c39-8cac-00a49ce6968d","ios":"levelo://app?vid=4d8df8ec-f6c0-4c39-8cac-00a49ce6968d"},"vehicle_type_id":"4","last_reported":1781451046,"current_range_meters":8000,"station_id":"","pricing_plan_id":"cebpf4jnsgd1na2vs0mg"},{"bike_id":"b57be7e9-dbc3-4881-baf7-de73fbc0c7ee","system_id":"levelo_inurba_marseille","lat":43.28598,"lon":5.35038,"is_reserved":false,"is_disabled":false,"rental_uris":{"android":"levelo://app?vid=b57be7e9-dbc3-4881-baf7-de73fbc0c7ee","ios":"levelo://app?vid=b57be7e9-dbc3-4881-baf7-de73fbc0c7ee"},"vehicle_type_id":"4","last_reported":1781451046,"current_range_meters":8000,"station_id":"","pricing_plan_id":"cebpf4jnsgd1na2vs0mg"},{"bike_id":"a08e46ab-d7ed-406f-af3c-1a36579baa76","system_id":"levelo_inurba_marseille","lat":43.28148,"lon":5.42638,"is_reserved":false,"is_disabled":false,"rental_uris":{"android":"levelo://app?vid=a08e46ab-d7ed-406f-af3c-1a36579baa76","ios":"levelo://app?vid=a08e46ab-d7ed-406f-af3c-1a36579baa76"},"vehicle_type_id":"4","last_reported":1781451046,"current_range_meters":8000,"station_id":"ce4bhnh2rcd13ifvqgug","pricing_plan_id":"cebpf4jnsgd1na2vs0mg"},{"bike_id":"da15c788-c8d8-49d8-bc7f-d521b9e32c05","system_id":"levelo_inurba_marseille","lat":43.28427,"lon":5.34988,"is_reserved":false,"is_disabled":false,"rental_uris":{"android":"levelo://app?vid=da15c788-c8d8-49d8-bc7f-d521b9e32c05","ios":"levelo://app?vid=da15c788-c8d8-49d8-bc7f-d521b9e32c05"},"vehicle_type_id":"4","last_reported":1781451046,"current_range_meters":8000,"station_id":"ce4bhbh2rcd13ifvqepg","pricing_plan_id":"cebpf4jnsgd1na2vs0mg"},{"bike_id":"aff014c2-15fa-45d6-bb80-ee15e1a06979","system_id":"levelo_inurba_marseille","lat":43.23776,"lon":5.3663,"is_reserved":false,"is_disabled":false,"rental_uris":{"android":"levelo://app?vid=aff014c2-15fa-45d6-bb80-ee15e1a06979","ios":"levelo://app?vid=aff014c2-15fa-45d6-bb80-ee15e1a06979"},"vehicle_type_id":"4","last_reported":1781451046,"current_range_meters":8000,"station_id":"st_d3nk18o9ro0c73en2l3g","pricing_plan_id":"cebpf4jnsgd1na2vs0mg"},{"bike_id":"3f79f6bd-6890-498c-9016-7fee5e242811","system_id":"levelo_inurba_marseille","lat":43.23198,"lon":5.35559,"is_reserved":false,"is_disabled":false,"rental_uris":{"android":"levelo://app?vid=3f79f6bd-6890-498c-9016-7fee5e242811","ios":"levelo://app?vid=3f79f6bd-6890-498c-9016-7fee5e242811"},"vehicle_type_id":"4","last_reported":1781451046,"current_range_meters":8000,"station_id":"ce4bhu92rcd13ifvqi70","pricing_plan_id":"cebpf4jnsgd1na2vs0mg"},{"bike_id":"618f6793-39e9-491d-9de5-1e26343c6c2a","system_id":"levelo_inurba_marseille","lat":43.27383,"lon":5.36241,"is_reserved":false,"is_disabled":false,"rental_uris":{"android":"levelo://app?vid=618f6793-39e9-491d-9de5-1e26343c6c2a","ios":"levelo://app?vid=618f6793-39e9-491d-9de5-1e26343c6c2a"},"vehicle_type_id":"4","last_reported":1781451046,"current_range_meters":8000,"station_id":"ce4bhbh2rcd13ifvqeo0","pricing_plan_id":"cebpf4jnsgd1na2vs0mg"},{"bike_id":"f6157e06-20b6-4de8-9777-c5f812301933","system_id":"levelo_inurba_marseille","lat":43.32074,"lon":5.36811,"is_reserved":false,"is_disabled":false,"rental_uris":{"android":"levelo://app?vid=f6157e06-20b6-4de8-9777-c5f812301933","ios":"levelo://app?vid=f6157e06-20b6-4de8-9777-c5f812301933"},"vehicle_type_id":"4","last_reported":1781451046,"current_range_meters":8000,"station_id":"ce4bhrh2rcd13ifvqhug","pricing_plan_id":"cebpf4jnsgd1na2vs0mg"},{"bike_id":"832d5b5a-ee7c-4c36-9848-f640990ce892","system_id":"levelo_inurba_marseille","lat":43.28042,"lon":5.36948,"is_reserved":false,"is_disabled":false,"rental_uris":{"android":"levelo://app?vid=832d5b5a-ee7c-4c36-9848-f640990ce892","ios":"levelo://app?vid=832d5b5a-ee7c-4c36-9848-f640990ce892"},"vehicle_type_id":"4","last_reported":1781451046,"current_range_meters":8000,"station_id":"ce4bha12rcd13ifvqef0","pricing_plan_id":"cebpf4jnsgd1na2vs0mg"},{"bike_id":"55ab2f2e-186b-4db7-99d3-75d725c3ef14","system_id":"levelo_inurba_marseille","lat":43.28101,"lon":5.37851,"is_reserved":false,"is_disabled":false,"rental_uris":{"android":"levelo://app?vid=55ab2f2e-186b-4db7-99d3-75d725c3ef14","ios":"levelo://app?vid=55ab2f2e-186b-4db7-99d3-75d725c3ef14"},"vehicle_type_id":"4","last_reported":1781451046,"current_range_meters":8000,"station_id":"ce4bha12rcd13ifvqee0","pricing_plan_id":"cebpf4jnsgd1na2vs0mg"},{"bike_id":"e704f78d-6b2f-42bb-968b-bd71b07d29e8","system_id":"levelo_inurba_marseille","lat":43.28614,"lon":5.35101,"is_reserved":false,"is_disabled":false,"rental_uris":{"android":"levelo://app?vid=e704f78d-6b2f-42bb-968b-bd71b07d29e8","ios":"levelo://app?vid=e704f78d-6b2f-42bb-968b-bd71b07d29e8"},