{"last_updated":1745475338,"ttl":60,"version":"2.2","data":{"bikes":[{"bike_id":"f644730a-a9fe-4330-ba44-81dbf9d99e23","system_id":"levelo_inurba_marseille","lat":43.30779,"lon":5.38163,"is_reserved":false,"is_disabled":false,"rental_uris":{"android":"levelo://app?vid=f644730a-a9fe-4330-ba44-81dbf9d99e23","ios":"levelo://app?vid=f644730a-a9fe-4330-ba44-81dbf9d99e23"},"vehicle_type_id":"4","last_reported":1745475338,"current_range_meters":2800,"station_id":"ce4bgt12rcd13ifvqce0","pricing_plan_id":"cebpf4jnsgd1na2vs0mg"},{"bike_id":"e524d4e1-f946-4b2d-8fb8-2b7cbc9a9592","system_id":"levelo_inurba_marseille","lat":43.29042,"lon":5.39954,"is_reserved":false,"is_disabled":false,"rental_uris":{"android":"levelo://app?vid=e524d4e1-f946-4b2d-8fb8-2b7cbc9a9592","ios":"levelo://app?vid=e524d4e1-f946-4b2d-8fb8-2b7cbc9a9592"},"vehicle_type_id":"4","last_reported":1745475338,"current_range_meters":2800,"station_id":"ce4bh392rcd13ifvqdm0","pricing_plan_id":"cebpf4jnsgd1na2vs0mg"},{"bike_id":"bbf43e6f-a974-49e4-9492-e11b7ccda0e4","system_id":"levelo_inurba_marseille","lat":43.27494,"lon":5.42451,"is_reserved":false,"is_disabled":false,"rental_uris":{"android":"levelo://app?vid=bbf43e6f-a974-49e4-9492-e11b7ccda0e4","ios":"levelo://app?vid=bbf43e6f-a974-49e4-9492-e11b7ccda0e4"},"vehicle_type_id":"4","last_reported":1745475338,"current_range_meters":2800,"station_id":"ce4bhn92rcd13ifvqgrg","pricing_plan_id":"cebpf4jnsgd1na2vs0mg"},{"bike_id":"8d2789be-d356-436f-bee5-111c80e6604e","system_id":"levelo_inurba_marseille","lat":43.24174,"lon":5.36391,"is_reserved":false,"is_disabled":false,"rental_uris":{"android":"levelo://app?vid=8d2789be-d356-436f-bee5-111c80e6604e","ios":"levelo://app?vid=8d2789be-d356-436f-bee5-111c80e6604e"},"vehicle_type_id":"4","last_reported":1745475338,"current_range_meters":2800,"station_id":"cpo36qri1sfpv3e86is0","pricing_plan_id":"cebpf4jnsgd1na2vs0mg"},{"bike_id":"56fb0d76-15cd-4ed6-b8a2-508cf794d5d3","system_id":"levelo_inurba_marseille","lat":43.29016,"lon":5.3865,"is_reserved":false,"is_disabled":false,"rental_uris":{"android":"levelo://app?vid=56fb0d76-15cd-4ed6-b8a2-508cf794d5d3","ios":"levelo://app?vid=56fb0d76-15cd-4ed6-b8a2-508cf794d5d3"},"vehicle_type_id":"4","last_reported":1745475338,"current_range_meters":2800,"station_id":"ce4bh4p2rcd13ifvqe0g","pricing_plan_id":"cebpf4jnsgd1na2vs0mg"},{"bike_id":"475589b7-3578-486e-a234-9c722b446630","system_id":"levelo_inurba_marseille","lat":43.290236,"lon":5.386504,"is_reserved":false,"is_disabled":false,"rental_uris":{"android":"levelo://app?vid=475589b7-3578-486e-a234-9c722b446630","ios":"levelo://app?vid=475589b7-3578-486e-a234-9c722b446630"},"vehicle_type_id":"4","last_reported":1745475338,"current_range_meters":3200,"station_id":"ce4bh4p2rcd13ifvqe0g","pricing_plan_id":"cebpf4jnsgd1na2vs0mg"},{"bike_id":"479f93df-6cce-4498-9df4-b160fa6082f1","system_id":"levelo_inurba_marseille","lat":43.31682,"lon":5.4047,"is_reserved":false,"is_disabled":false,"rental_uris":{"android":"levelo://app?vid=479f93df-6cce-4498-9df4-b160fa6082f1","ios":"levelo://app?vid=479f93df-6cce-4498-9df4-b160fa6082f1"},"vehicle_type_id":"4","last_reported":1745475338,"current_range_meters":3200,"station_id":"ce4bh012rcd13ifvqd00","pricing_plan_id":"cebpf4jnsgd1na2vs0mg"},{"bike_id":"3c35911a-c99f-4c46-937f-be6f52dd755e","system_id":"levelo_inurba_marseille","lat":43.302705,"lon":5.37711,"is_reserved":false,"is_disabled":false,"rental_uris":{"android":"levelo://app?vid=3c35911a-c99f-4c46-937f-be6f52dd755e","ios":"levelo://app?vid=3c35911a-c99f-4c46-937f-be6f52dd755e"},"vehicle_type_id":"4","last_reported":1745475338,"current_range_meters":3600,"station_id":"ce4bguh2rcd13ifvqcj0","pricing_plan_id":"cebpf4jnsgd1na2vs0mg"},{"bike_id":"0e956a52-9f1c-4373-9fd9-05b1de4dc5a0","system_id":"levelo_inurba_marseille","lat":43.30868,"lon":5.3964,"is_reserved":false,"is_disabled":true,"rental_uris":{"android":"levelo://app?vid=0e956a52-9f1c-4373-9fd9-05b1de4dc5a0","ios":"levelo://app?vid=0e956a52-9f1c-4373-9fd9-05b1de4dc5a0"},"vehicle_type_id":"4","last_reported":1745475338,"current_range_meters":3600,"station_id":"ce4bh012rcd13ifvqcv0","pricing_plan_id":"cebpf4jnsgd1na2vs0mg"},{"bike_id":"3c986d49-4c59-4fce-9389-7b631455012c","system_id":"levelo_inurba_marseille","lat":43.23153,"lon":5.43709,"is_reserved":false,"is_disabled":false,"rental_uris":{"android":"levelo://app?vid=3c986d49-4c59-4fce-9389-7b631455012c","ios":"levelo://app?vid=3c986d49-4c59-4fce-9389-7b631455012c"},"vehicle_type_id":"4","last_reported":1745475338,"current_range_meters":3600,"station_id":"ce4bhmp2rcd13ifvqgog","pricing_plan_id":"cebpf4jnsgd1na2vs0mg"},{"bike_id":"b9bb2863-eddb-40b2-9f74-fa629c39fa2a","system_id":"levelo_inurba_marseille","lat":43.26683,"lon":5.38265,"is_reserved":false,"is_disabled":false,"rental_uris":{"android":"levelo://app?vid=b9bb2863-eddb-40b2-9f74-fa629c39fa2a","ios":"levelo://app?vid=b9bb2863-eddb-40b2-9f74-fa629c39fa2a"},"vehicle_type_id":"4","last_reported":1745475338,"current_range_meters":4000,"station_id":"ce4bhg92rcd13ifvqf90","pricing_plan_id":"cebpf4jnsgd1na2vs0mg"},{"bike_id":"806b9c9e-ab5b-4fce-830f-d756eb2a9feb","system_id":"levelo_inurba_marseille","lat":43.31881,"lon":5.40746,"is_reserved":false,"is_disabled":false,"rental_uris":{"android":"levelo://app?vid=806b9c9e-ab5b-4fce-830f-d756eb2a9feb","ios":"levelo://app?vid=806b9c9e-ab5b-4fce-830f-d756eb2a9feb"},"vehicle_type_id":"4","last_reported":1745475338,"current_range_meters":3600,"station_id":"ce4bhq12rcd13ifvqhig","pricing_plan_id":"cebpf4jnsgd1na2vs0mg"},{"bike_id":"ec5b7a83-2b5f-4feb-98dd-e8940d3f3ebc","system_id":"levelo_inurba_marseille","lat":43.29573,"lon":5.37522,"is_reserved":false,"is_disabled":false,"rental_uris":{"android":"levelo://app?vid=ec5b7a83-2b5f-4feb-98dd-e8940d3f3ebc","ios":"levelo://app?vid=ec5b7a83-2b5f-4feb-98dd-e8940d3f3ebc"},"vehicle_type_id":"4","last_reported":1745475338,"current_range_meters":4000,"station_id":"ce4bgh92rcd13ifvqb50","pricing_plan_id":"cebpf4jnsgd1na2vs0mg"},{"bike_id":"c94e26c1-7575-4802-86ec-0bd6f82482cc","system_id":"levelo_inurba_marseille","lat":43.28607,"lon":5.37062,"is_reserved":false,"is_disabled":false,"rental_uris":{"android":"levelo://app?vid=c94e26c1-7575-4802-86ec-0bd6f82482cc","ios":"levelo://app?vid=c94e26c1-7575-4802-86ec-0bd6f82482cc"},"vehicle_type_id":"4","last_reported":1745475338,"current_range_meters":4000,"station_id":"ce4bht12rcd13ifvqi60","pricing_plan_id":"cebpf4jnsgd1na2vs0mg"},{"bike_id":"66906ef3-f736-46ac-be88-a78fcf2b60eb","system_id":"levelo_inurba_marseille","lat":43.30593,"lon":5.39342,"is_reserved":false,"is_disabled":false,"rental_uris":{"android":"levelo://app?vid=66906ef3-f736-46ac-be88-a78fcf2b60eb","ios":"levelo://app?vid=66906ef3-f736-46ac-be88-a78fcf2b60eb"},"vehicle_type_id":"4","last_reported":1745475338,"current_range_meters":4000,"station_id":"ce4bh0p2rcd13ifvqd80","pricing_plan_id":"cebpf4jnsgd1na2vs0mg"},{"bike_id":"5e51118c-70a1-46ba-a4d4-eb157ca3af4e","system_id":"levelo_inurba_marseille","lat":43.28933,"lon":5.39621,"is_reserved":false,"is_disabled":false,"rental_uris":{"android":"levelo://app?vid=5e51118c-70a1-46ba-a4d4-eb157ca3af4e","ios":"levelo://app?vid=5e51118c-70a1-46ba-a4d4-eb157ca3af4e"},"vehicle_type_id":"4","last_reported":1745475338,"current_range_meters":3600,"station_id":"ce4bh3h2rcd13ifvqdn0","pricing_plan_id":"cebpf4jnsgd1na2vs0mg"},{"bike_id":"e88ac0aa-172e-418f-9134-2e3c247b5863","system_id":"levelo_inurba_marseille","lat":43.239648,"lon":5.366288,"is_reserved":false,"is_disabled":false,"rental_uris":{"android":"levelo://app?vid=e88ac0aa-172e-418f-9134-2e3c247b5863","ios":"levelo://app?vid=e88ac0aa-172e-418f-9134-2e3c247b5863"},"vehicle_type_id":"4","last_reported":1745475338,"current_range_meters":4400,"station_id":"ce4bhi12rcd13ifvqfp0","pricing_plan_id":"cebpf4jnsgd1na2vs0mg"},{"bike_id":"f6341b5b-1f7b-4d13-869e-e14c081b350b","system_id":"levelo_inurba_marseille","lat":43.33015,"lon":5.39043,"is_reserved":false,"is_disabled":false,"rental_uris":{"android":"levelo://app?vid=f6341b5b-1f7b-4d13-869e-e14c081b350b","ios":"levelo://app?vid=f6341b5b-1f7b-4d13-869e-e14c081b350b"},"vehicle_type_id":"4","last_reported":1745475338,"current_range_meters":4400,"station_id":"ce4bhr92rcd13ifvqhrg","pricing_plan_id":"cebpf4jnsgd1na2vs0mg"},{"bike_id":"cc9777df-e136-45cf-9807-55471eac2d65","system_id":"levelo_inurba_marseille","lat":43.28685,"lon":5.3867,"is_reserved":false,"is_disabled":false,"rental_uris":{"android":"levelo://app?vid=cc9777df-e136-45cf-9807-55471eac2d65","ios":"levelo://app?vid=cc9777df-e136-45cf-9807-55471eac2d65"},"vehicle_type_id":"4","last_reported":1745475338,"current_range_meters":4800,"station_id":"ce4bh492rcd13ifvqdug","pricing_plan_id":"cebpf4jnsgd1na2vs0mg"},{"bike_id":"a0a5779f-35fa-412a-b5b3-5f0b156b73e1","system_id":"levelo_inurba_marseille","lat":43.28357,"lon":5.38101,"is_reserved":false,"is_disabled":false,"rental_uris":{"android":"levelo://app?vid=a0a5779f-35fa-412a-b5b3-5f0b156b73e1","ios":"levelo://app?vid=a0a5779f-35fa-412a-b5b3-5f0b156b73e1"},"vehicle_type_id":"4","last_reported":1745475338,"current_range_meters":4800,"station_id":"ce4bh412rcd13ifvqdr0","pricing_plan_id":"cebpf4jnsgd1na2vs0mg"},{"bike_id":"0b7a9109-7668-4db4-9724-d01cac3cc1a1","system_id":"levelo_inurba_marseille","lat":43.291619,"lon":5.410029,"is_reserved":false,"is_disabled":false,"rental_uris":{"android":"levelo://app?vid=0b7a9109-7668-4db4-9724-d01cac3cc1a1","ios":"levelo://app?vid=0b7a9109-7668-4db4-9724-d01cac3cc1a1"},"vehicle_type_id":"4","last_reported":1745475338,"current_range_meters":4800,"station_id":"","pricing_plan_id":"cebpf4jnsgd1na2vs0mg"},{"bike_id":"e37792a6-f349-4512-8625-113ccd6f5c99","system_id":"levelo_inurba_marseille","lat":43.27999,"lon":5.4001,"is_reserved":false,"is_disabled":true,"rental_uris":{"android":"levelo://app?vid=e37792a6-f349-4512-8625-113ccd6f5c99","ios":"levelo://app?vid=e37792a6-f349-4512-8625-113ccd6f5c99"},"vehicle_type_id":"4","last_reported":1745475338,"current_range_meters":4800,"station_id":"ce4bho92rcd13ifvqh4g","pricing_plan_id":"cebpf4jnsgd1na2vs0mg"},{"bike_id":"fe198ad5-3ed5-4a50-a120-80605df2593b","system_id":"levelo_inurba_marseille","lat":43.255933,"lon":5.38259,"is_reserved":false,"is_disabled":false,"rental_uris":{"android":"levelo://app?vid=fe198ad5-3ed5-4a50-a120-80605df2593b","ios":"levelo://app?vid=fe198ad5-3ed5-4a50-a120-80605df2593b"},"vehicle_type_id":"4","last_reported":1745475338,"current_range_meters":4800,"station_id":"ce4bhih2rcd13ifvqfs0","pricing_plan_id":"cebpf4jnsgd1na2vs0mg"},{"bike_id":"0c474622-726f-426c-b6f9-81af1f33b5c6","system_id":"levelo_inurba_marseille","lat":43.28489,"lon":5.38593,"is_reserved":false,"is_disabled":false,"rental_uris":{"android":"levelo://app?vid=0c474622-726f-426c-b6f9-81af1f33b5c6","ios":"levelo://app?vid=0c474622-726f-426c-b6f9-81af1f33b5c6"},"vehicle_type_id":"4","last_reported":1745475338,"current_range_meters":4800,"station_id":"ce4bh8p2rcd13ifvqeb0","pricing_plan_id":"cebpf4jnsgd1na2vs0mg"},{"bike_id":"89387576-ee55-4c7d-85cb-e23447476639","system_id":"levelo_inurba_marseille","lat":43.28267,"lon":5.35067,"is_reserved":false,"is_disabled":false,"rental_uris":{"android":"levelo://app?vid=89387576-ee55-4c7d-85cb-e23447476639","ios":"levelo://app?vid=89387576-ee55-4c7d-85cb-e23447476639"},"vehicle_type_id":"4","last_reported":1745475338,"current_range_meters":4800,"station_id":"ce4bhbp2rcd13ifvqerg","pricing_plan_id":"cebpf4jnsgd1na2vs0mg"},{"bike_id":"58789b73-db08-4241-a672-18ab3e3a1832","system_id":"levelo_inurba_marseille","lat":43.28352,"lon":5.38108,"is_reserved":false,"is_disabled":false,"rental_uris":{"android":"levelo://app?vid=58789b73-db08-4241-a672-18ab3e3a1832","ios":"levelo://app?vid=58789b73-db08-4241-a672-18ab3e3a1832"},"vehicle_type_id":"4","last_reported":1745475338,"current_range_meters":5600,"station_id":"ce4bh412rcd13ifvqdr0","pricing_plan_id":"cebpf4jnsgd1na2vs0mg"},{"bike_id":"0f36c06d-b34a-4b6a-9c76-b87640418fc7","system_id":"levelo_inurba_marseille","lat":43.23057,"lon":5.355,"is_reserved":false,"is_disabled":false,"rental_uris":{"android":"levelo://app?vid=0f36c06d-b34a-4b6a-9c76-b87640418fc7","ios":"levelo://app?vid=0f36c06d-b34a-4b6a-9c76-b87640418fc7"},"vehicle_type_id":"4","last_reported":1745475338,"current_range_meters":5600,"station_id":"cpo3342slgdg3j2ifvpg","pricing_plan_id":"cebpf4jnsgd1na2vs0mg"},{"bike_id":"ebd60230-852f-4552-befa-36dd36cec448","system_id":"levelo_inurba_marseille","lat":43.30917,"lon":5.38359,"is_reserved":false,"is_disabled":false,"rental_uris":{"android":"levelo://app?vid=ebd60230-852f-4552-befa-36dd36cec448","ios":"levelo://app?vid=ebd60230-852f-4552-befa-36dd36cec448"},"vehicle_type_id":"4","last_reported":1745475338,"current_range_meters":5600,"station_id":"","pricing_plan_id":"cebpf4jnsgd1na2vs0mg"},{"bike_id":"3dd50929-80e8-4861-abf3-0cc06f516279","system_id":"levelo_inurba_marseille","lat":43.24064,"lon":5.37757,"is_reserved":false,"is_disabled":false,"rental_uris":{"android":"levelo://app?vid=3dd50929-80e8-4861-abf3-0cc06f516279","ios":"levelo://app?vid=3dd50929-80e8-4861-abf3-0cc06f516279"},"vehicle_type_id":"4","last_reported":1745475338,"current_range_meters":5600,"station_id":"ce4bhnp2rcd13ifvqgvg","pricing_plan_id":"cebpf4jnsgd1na2vs0mg"},{"bike_id":"ee6fe346-129a-4352-b7c7-aefa1e451c7a","system_id":"levelo_inurba_marseille","lat":43.306554,"lon":5.400994,"is_reserved":false,"is_disabled":true,"rental_uris":{"android":"levelo://app?vid=ee6fe346-129a-4352-b7c7-aefa1e451c7a","ios":"levelo://app?vid=ee6fe346-129a-4352-b7c7-aefa1e451c7a"},"vehicle_type_id":"4","last_reported":1745475338,"current_range_meters":6000,"station_id":"ce4bh112rcd13ifvqda0","pricing_plan_id":"cebpf4jnsgd1na2vs0mg"},{"bike_id":"5064ebef-a75d-4709-a9a2-bf1147b76071","system_id":"levelo_inurba_marseille","lat":43.28936,"lon":5.36638,"is_reserved":false,"is_disabled":false,"rental_uris":{"android":"levelo://app?vid=5064ebef-a75d-4709-a9a2-bf1147b76071","ios":"levelo://app?vid=5064ebef-a75d-4709-a9a2-bf1147b76071"},"vehicle_type_id":"4","last_reported":1745475338,"current_range_meters":6000,"station_id":"ce4bhap2rcd13ifvqek0","pricing_plan_id":"cebpf4jnsgd1na2vs0mg"},{"bike_id":"f7889748-d9da-4a0d-a4b5-6ffb90fef077","system_id":"levelo_inurba_marseille","lat":43.31758,"lon":5.39014,"is_reserved":false,"is_disabled":true,"rental_uris":{"android":"levelo://app?vid=f7889748-d9da-4a0d-a4b5-6ffb90fef077","ios":"levelo://app?vid=f7889748-d9da-4a0d-a4b5-6ffb90fef077"},"vehicle_type_id":"4","last_reported":1745475338,"current_range_meters":6000,"station_id":"ce4bhqp2rcd13ifvqhng","pricing_plan_id":"cebpf4jnsgd1na2vs0mg"},{"bike_id":"a3503277-8627-4e6d-8709-2b6764847f0a","system_id":"levelo_inurba_marseille","lat":43.2968,"lon":5.37298,"is_reserved":false,"is_disabled":false,"rental_uris":{"android":"levelo://app?vid=a3503277-8627-4e6d-8709-2b6764847f0a","ios":"levelo://app?vid=a3503277-8627-4e6d-8709-2b6764847f0a"},"vehicle_type_id":"4","last_reported":1745475338,"current_range_meters":6000,"station_id":"ce4bgk12rcd13ifvqbj0","pricing_plan_id":"cebpf4jnsgd1na2vs0mg"},{"bike_id":"1c5ec038-935d-45d4-ab05-1768d5c6745a","system_id":"levelo_inurba_marseille","lat":43.24064,"lon":5.37783,"is_reserved":false,"is_disabled":false,"rental_uris":{"android":"levelo://app?vid=1c5ec038-935d-45d4-ab05-1768d5c6745a","ios":"levelo://app?vid=1c5ec038-935d-45d4-ab05-1768d5c6745a"},"vehicle_type_id":"4","last_reported":1745475338,"current_range_meters":6000,"station_id":"ce4bhnp2rcd13ifvqgvg","pricing_plan_id":"cebpf4jnsgd1na2vs0mg"},{"bike_id":"d78fc0d4-804b-47cd-9b93-779df5562250","system_id":"levelo_inurba_marseille","lat":43.29908,"lon":5.38141,"is_reserved":false,"is_disabled":false,"rental_uris":{"android":"levelo://app?vid=d78fc0d4-804b-47cd-9b93-779df5562250","ios":"levelo://app?vid=d78fc0d4-804b-47cd-9b93-779df5562250"},"vehicle_type_id":"4","last_reported":1745475338,"current_range_meters":6400,"station_id":"ce4bgj12rcd13ifvqbc0","pricing_plan_id":"cebpf4jnsgd1na2vs0mg"},{"bike_id":"21e59e1e-eb28-4878-a79a-7c95a31c6e6a","system_id":"levelo_inurba_marseille","lat":43.29035,"lon":5.39962,"is_reserved":false,"is_disabled":false,"rental_uris":{"android":"levelo://app?vid=21e59e1e-eb28-4878-a79a-7c95a31c6e6a","ios":"levelo://app?vid=21e59e1e-eb28-4878-a79a-7c95a31c6e6a"},"vehicle_type_id":"4","last_reported":1745475338,"current_range_meters":6400,"station_id":"ce4bh392rcd13ifvqdm0","pricing_plan_id":"cebpf4jnsgd1na2vs0mg"},{"bike_id":"1281cc3b-3a99-49bc-a664-602f2c8e202f","system_id":"levelo_inurba_marseille","lat":43.283523,"lon":5.381017,"is_reserved":false,"is_disabled":false,"rental_uris":{"android":"levelo://app?vid=1281cc3b-3a99-49bc-a664-602f2c8e202f","ios":"levelo://app?vid=1281cc3b-3a99-49bc-a664-602f2c8e202f"},"vehicle_type_id":"4","last_reported":1745475338,"current_range_meters":6400,"station_id":"ce4bh412rcd13ifvqdr0","pricing_plan_id":"cebpf4jnsgd1na2vs0mg"},{"bike_id":"bdb967bb-025b-42ab-acec-241472a0734a","system_id":"levelo_inurba_marseille","lat":43.32537,"lon":5.41429,"is_reserved":false,"is_disabled":false,"rental_uris":{"android":"levelo://app?vid=bdb967bb-025b-42ab-acec-241472a0734a","ios":"levelo://app?vid=bdb967bb-025b-42ab-acec-241472a0734a"},"vehicle_type_id":"4","last_reported":1745475338,"current_range_meters":6000,"station_id":"ce4bhq12rcd13ifvqhhg","pricing_plan_id":"cebpf4jnsgd1na2vs0mg"},{"bike_id":"3b8fdbfe-6e79-4a18-8182-5fa26df1808a","system_id":"levelo_inurba_marseille","lat":43.29033,"lon":5.39975,"is_reserved":false,"is_disabled":false,"rental_uris":{"android":"levelo://app?vid=3b8fdbfe-6e79-4a18-8182-5fa26df1808a","ios":"levelo://app?vid=3b8fdbfe-6e79-4a18-8182-5fa26df1808a"},"vehicle_type_id":"4","last_reported":1745475338,"current_range_meters":6400,"station_id":"ce4bh392rcd13ifvqdm0","pricing_plan_id":"cebpf4jnsgd1na2vs0mg"},{"bike_id":"41bb7582-969f-4f7b-ac39-5a144f106ccc","system_id":"levelo_inurba_marseille","lat":43.27508,"lon":5.424457,"is_reserved":false,"is_disabled":false,"rental_uris":{"android":"levelo://app?vid=41bb7582-969f-4f7b-ac39-5a144f106ccc","ios":"levelo://app?vid=41bb7582-969f-4f7b-ac39-5a144f106ccc"},"vehicle_type_id":"4","last_reported":1745475338,"current_range_meters":6400,"station_id":"ce4bhn92rcd13ifvqgrg","pricing_plan_id":"cebpf4jnsgd1na2vs0mg"},{"bike_id":"7c3b76f6-6190-4b7f-b2c6-fc8d5a22d7a9","system_id":"levelo_inurba_marseille","lat":43.27492,"lon":5.42453,"is_reserved":false,"is_disabled":false,"rental_uris":{"android":"levelo://app?vid=7c3b76f6-6190-4b7f-b2c6-fc8d5a22d7a9","ios":"levelo://app?vid=7c3b76f6-6190-4b7f-b2c6-fc8d5a22d7a9"},"vehicle_type_id":"4","last_reported":1745475338,"current_range_meters":6800,"station_id":"ce4bhn92rcd13ifvqgrg","pricing_plan_id":"cebpf4jnsgd1na2vs0mg"},{"bike_id":"b6553d69-feb1-4f55-99dc-e45ef526cd58","system_id":"levelo_inurba_marseille","lat":43.295523,"lon":5.42284,"is_reserved":false,"is_disabled":true,"rental_uris":{"android":"levelo://app?vid=b6553d69-feb1-4f55-99dc-e45ef526cd58","ios":"levelo://app?vid=b6553d69-feb1-4f55-99dc-e45ef526cd58"},"vehicle_type_id":"4","last_reported":1745475338,"current_range_meters":6800,"station_id":"ce4bhph2rcd13ifvqhdg","pricing_plan_id":"cebpf4jnsgd1na2vs0mg"},{"bike_id":"f797923e-1744-4fb6-9e7e-5a520e86b335","system_id":"levelo_inurba_marseille","lat":43.23156,"lon":5.43717,"is_reserved":false,"is_disabled":false,"rental_uris":{"android":"levelo://app?vid=f797923e-1744-4fb6-9e7e-5a520e86b335","ios":"levelo://app?vid=f797923e-1744-4fb6-9e7e-5a520e86b335"},"vehicle_type_id":"4","last_reported":1745475338,"current_range_meters":6800,"station_id":"ce4bhmp2rcd13ifvqgog","pricing_plan_id":"cebpf4jnsgd1na2vs0mg"},{"bike_id":"6d85eac8-2807-47cf-9f6e-8094fefcf027","system_id":"levelo_inurba_marseille","lat":43.30544,"lon":5.38437,"is_reserved":false,"is_disabled":false,"rental_uris":{"android":"levelo://app?vid=6d85eac8-2807-47cf-9f6e-8094fefcf027","ios":"levelo://app?vid=6d85eac8-2807-47cf-9f6e-8094fefcf027"},"vehicle_type_id":"4","last_reported":1745475338,"current_range_meters":6800,"station_id":"ce4bgg92rcd13ifvqb30","pricing_plan_id":"cebpf4jnsgd1na2vs0mg"},{"bike_id":"49c0f902-eac7-4a79-adf0-d142aff51e11","system_id":"levelo_inurba_marseille","lat":43.24166,"lon":5.36402,"is_reserved":false,"is_disabled":false,"rental_uris":{"android":"levelo://app?vid=49c0f902-eac7-4a79-adf0-d142aff51e11","ios":"levelo://app?vid=49c0f902-eac7-4a79-adf0-d142aff51e11"},"vehicle_type_id":"4","last_reported":1745475338,"current_range_meters":6800,"station_id":"cpo36qri1sfpv3e86is0","pricing_plan_id":"cebpf4jnsgd1na2vs0mg"},{"bike_id":"8ca8e04f-ff73-4849-803e-d12637321840","system_id":"levelo_inurba_marseille","lat":43.2407,"lon":5.37771,"is_reserved":false,"is_disabled":false,"rental_uris":{"android":"levelo://app?vid=8ca8e04f-ff73-4849-803e-d12637321840","ios":"levelo://app?vid=8ca8e04f-ff73-4849-803e-d12637321840"},"vehicle_type_id":"4","last_reported":1745475338,"current_range_meters":7200,"station_id":"ce4bhnp2rcd13ifvqgvg","pricing_plan_id":"cebpf4jnsgd1na2vs0mg"},{"bike_id":"b7f1465a-6f26-4295-b5e3-c42d825d4220","system_id":"levelo_inurba_marseille","lat":43.28416,"lon":5.3499,"is_reserved":false,"is_disabled":false,"rental_uris":{"android":"levelo://app?vid=b7f1465a-6f26-4295-b5e3-c42d825d4220","ios":"levelo://app?vid=b7f1465a-6f26-4295-b5e3-c42d825d4220"},"vehicle_type_id":"4","last_reported":1745475338,"current_range_meters":7200,"station_id":"ce4bhbh2rcd13ifvqepg","pricing_plan_id":"cebpf4jnsgd1na2vs0mg"},{"bike_id":"ad46d43b-c193-4a1c-b5c1-771936d76441","system_id":"levelo_inurba_marseille","lat":43.29601,"lon":5.38107,"is_reserved":false,"is_disabled":false,"rental_uris":{"android":"levelo://app?vid=ad46d43b-c193-4a1c-b5c1-771936d76441","ios":"levelo://app?vid=ad46d43b-c193-4a1c-b5c1-771936d76441"},"vehicle_type_id":"4","last_reported":1745475338,"current_range_meters":7200,"station_id":"ce4bgl12rcd13ifvqbo0","pricing_plan_id":"cebpf4jnsgd1na2vs0mg"},{"bike_id":"07ee9b7e-9a88-4701-aab5-c6a93509bb37","system_id":"levelo_inurba_marseille","lat":43.299522,"lon":5.38906,"is_reserved":false,"is_disabled":false,"rental_uris":{"android":"levelo://app?vid=07ee9b7e-9a88-4701-aab5-c6a93509bb37","ios":"levelo://app?vid=07ee9b7e-9a88-4701-aab5-c6a93509bb37"},"vehicle_type_id":"4","last_reported":1745475338,"current_range_meters":8000,"station_id":"ce4bh392rcd13ifvqdl0","pricing_plan_id":"cebpf4jnsgd1na2vs0mg"},{"bike_id":"db0f7aab-e66f-42cd-9133-69f84bab05f0","system_id":"levelo_inurba_marseille","lat":43.28935,"lon":5.39629,"is_reserved":false,"is_disabled":false,"rental_uris":{"android":"levelo://app?vid=db0f7aab-e66f-42cd-9133-69f84bab05f0","ios":"levelo://app?vid=db0f7aab-e66f-42cd-9133-69f84bab05f0"},"vehicle_type_id":"4","last_reported":1745475338,"current_range_meters":8000,"station_id":"ce4bh3h2rcd13ifvqdn0","pricing_plan_id":"cebpf4jnsgd1na2vs0mg"},{"bike_id":"2444db48-73b9-4f67-9dc6-6e8bcceff093","system_id":"levelo_inurba_marseille","lat":43.297745,"lon":5.381273,"is_reserved":false,"is_disabled":true,"rental_uris":{"android":"levelo://app?vid=2444db48-73b9-4f67-9dc6-6e8bcceff093","ios":"levelo://app?vid=2444db48-73b9-4f67-9dc6-6e8bcceff093"},"vehicle_type_id":"4","last_reported":1745475338,"current_range_meters":8000,"station_id":"ce4bgip2rcd13ifvqbb0","pricing_plan_id":"cebpf4jnsgd1na2vs0mg"},{"bike_id":"805ea2d5-ec08-4b13-ba23-87cc0a37bf03","system_id":"levelo_inurba_marseille","lat":43.240541,"lon":5.377704,"is_reserved":false,"is_disabled":false,"rental_uris":{"android":"levelo://app?vid=805ea2d5-ec08-4b13-ba23-87cc0a37bf03","ios":"levelo://app?vid=805ea2d5-ec08-4b13-ba23-87cc0a37bf03"},"vehicle_type_id":"4","last_reported":1745475338,"current_range_meters":8000,"station_id":"ce4bhnp2rcd13ifvqgvg","pricing_plan_id":"cebpf4jnsgd1na2vs0mg"},{"bike_id":"3070cec2-559a-4cb5-b38b-e5f337917feb","system_id":"levelo_inurba_marseille","lat":43.23979,"lon":5.36631,"is_reserved":false,"is_disabled":false,"rental_uris":{"android":"levelo://app?vid=3070cec2-559a-4cb5-b38b-e5f337917feb","ios":"levelo://app?vid=3070cec2-559a-4cb5-b38b-e5f337917feb"},"vehicle_type_id":"4","last_reported":1745475338,"current_range_meters":8000,"station_id":"ce4bhi12rcd13ifvqfp0","pricing_plan_id":"cebpf4jnsgd1na2vs0mg"},{"bike_id":"288d2cef-88e9-40ef-a88f-807705ea6070","system_id":"levelo_inurba_marseille","lat":43.278904,"lon":5.353972,"is_reserved":false,"is_disabled":false,"rental_uris":{"android":"levelo://app?vid=288d2cef-88e9-40ef-a88f-807705ea6070","ios":"levelo://app?vid=288d2cef-88e9-40ef-a88f-807705ea6070"},"vehicle_type_id":"4","last_reported":1745475338,"current_range_meters":8000,"station_id":"ce4bhbh2rcd13ifvqeo0","pricing_plan_id":"cebpf4jnsgd1na2vs0mg"},{"bike_id":"fbb6be43-75ac-4697-af84-df6581464ee0","system_id":"levelo_inurba_marseille","lat":43.239631,"lon":5.366356,"is_reserved":false,"is_disabled":false,"rental_uris":{"android":"levelo://app?vid=fbb6be43-75ac-4697-af84-df6581464ee0","ios":"levelo://app?vid=fbb6be43-75ac-4697-af84-df6581464ee0"},"vehicle_type_id":"4","last_reported":1745475338,"current_range_meters":8000,"station_id":"ce4bhi12rcd13ifvqfp0","pricing_plan_id":"cebpf4jnsgd1na2vs0mg"},{"bike_id":"235f2bae-0a04-4484-8459-9c3ece0a1b2c","system_id":"levelo_inurba_marseille","lat":43.30729,"lon":5.42446,"is_reserved":false,"is_disabled":false,"rental_uris":{"android":"levelo://app?vid=235f2bae-0a04-4484-8459-9c3ece0a1b2c","ios":"levelo://app?vid=235f2bae-0a04-4484-8459-9c3ece0a1b2c"},"vehicle_type_id":"4","last_reported":1745475338,"current_range_meters":8400,"station_id":"st_cvj6ca6bvosntc0bfgr0","pricing_plan_id":"cebpf4jnsgd1na2vs0mg"},{"bike_id":"28388528-8a23-4283-8e69-993639e56162","system_id":"levelo_inurba_marseille","lat":43.31366,"lon":5.38501,"is_reserved":false,"is_disabled":false,"rental_uris":{"android":"levelo://app?vid=28388528-8a23-4283-8e69-993639e56162","ios":"levelo://app?vid=28388528-8a23-4283-8e69-993639e56162"},"vehicle_type_id":"4","last_reported":1745475338,"current_range_meters":8400,"station_id":"ce4bgt92rcd13ifvqcf0","pricing_plan_id":"cebpf4jnsgd1na2vs0mg"},{"bike_id":"b5937484-6cf8-47d6-aa9f-590a6cb6bc39","system_id":"levelo_inurba_marseille","lat":43.30224,"lon":5.40068,"is_reserved":false,"is_disabled":false,"rental_uris":{"android":"levelo://app?vid=b5937484-6cf8-47d6-aa9f-590a6cb6bc39","ios":"levelo://app?vid=b5937484-6cf8-47d6-aa9f-590a6cb6bc39"},"vehicle_type_id":"4","last_reported":1745475338,"current_range_meters":8400,"station_id":"","pricing_plan_id":"cebpf4jnsgd1na2vs0mg"},{"bike_id":"4f5ac7c4-fae3-469d-a49f-999fe327ce77","system_id":"levelo_inurba_marseille","lat":43.31988,"lon":5.38147,"is_reserved":false,"is_disabled":false,"rental_uris":{"android":"levelo://app?vid=4f5ac7c4-fae3-469d-a49f-999fe327ce77","ios":"levelo://app?vid=4f5ac7c4-fae3-469d-a49f-999fe327ce77"},"vehicle_type_id":"4","last_reported":1745475338,"current_range_meters":8400,"station_id":"ce4bhr12rcd13ifvqhpg","pricing_plan_id":"cebpf4jnsgd1na2vs0mg"},{"bike_id":"3a148fc6-3ebe-43c6-b6e1-e255f073b2a3","system_id":"levelo_inurba_marseille","lat":43.32087,"lon":5.36792,"is_reserved":false,"is_disabled":false,"rental_uris":{"android":"levelo://app?vid=3a148fc6-3ebe-43c6-b6e1-e255f073b2a3","ios":"levelo://app?vid=3a148fc6-3ebe-43c6-b6e1-e255f073b2a3"},"vehicle_type_id":"4","last_reported":1745475338,"current_range_meters":8400,"station_id":"ce4bhrh2rcd13ifvqhug","pricing_plan_id":"cebpf4jnsgd1na2vs0mg"},{"bike_id":"f92162db-369a-402b-8cfb-23da9cda8b9b","system_id":"levelo_inurba_marseille","lat":43.29026,"lon":5.39958,"is_reserved":false,"is_disabled":false,"rental_uris":{"android":"levelo://app?vid=f92162db-369a-402b-8cfb-23da9cda8b9b","ios":"levelo://app?vid=f92162db-369a-402b-8cfb-23da9cda8b9b"},"vehicle_type_id":"4","last_reported":1745475338,"current_range_meters":8400,"station_id":"ce4bh392rcd13ifvqdm0","pricing_plan_id":"cebpf4jnsgd1na2vs0mg"},{"bike_id":"8eb2cc64-9bf6-4010-b64c-d38ad3c4197f","system_id":"levelo_inurba_marseille","lat":43.279477,"lon":5.387437,"is_reserved":false,"is_disabled":false,"rental_uris":{"android":"levelo://app?vid=8eb2cc64-9bf6-4010-b64c-d38ad3c4197f","ios":"levelo://app?vid=8eb2cc64-9bf6-4010-b64c-d38ad3c4197f"},"vehicle_type_id":"4","last_reported":1745475338,"current_range_meters":8400,"station_id":"ce4bhg12rcd13ifvqf80","pricing_plan_id":"cebpf4jnsgd1na2vs0mg"},{"bike_id":"92c3b340-d069-4f1c-b55b-44c52f19597b","system_id":"levelo_inurba_marseille","lat":43.282526,"lon":5.377946,"is_reserved":false,"is_disabled":false,"rental_uris":{"android":"levelo://app?vid=92c3b340-d069-4f1c-b55b-44c52f19597b","ios":"levelo://app?vid=92c3b340-d069-4f1c-b55b-44c52f19597b"},"vehicle_type_id":"4","last_reported":1745475338,"current_range_meters":8800,"station_id":"","pricing_plan_id":"cebpf4jnsgd1na2vs0mg"},{"bike_id":"b96d48d5-fc65-423b-9a30-5d2c864e8939","system_id":"levelo_inurba_marseille","lat":43.22534,"lon":5.34778,"is_reserved":false,"is_disabled":false,"rental_uris":{"android":"levelo://app?vid=b96d48d5-fc65-423b-9a30-5d2c864e8939","ios":"levelo://app?vid=b96d48d5-fc65-423b-9a30-5d2c864e8939"},"vehicle_type_id":"4","last_reported":1745475338,"current_range_meters":8800,"station_id":"st_cvj5dfep6f1abm77gieg","pricing_plan_id":"cebpf4jnsgd1na2vs0mg"},{"bike_id":"edc71fac-627e-4419-a7b8-e0a92867fd78","system_id":"levelo_inurba_marseille","lat":43.30454,"lon":5.37924,"is_reserved":false,"is_disabled":false,"rental_uris":{"android":"levelo://app?vid=edc71fac-627e-4419-a7b8-e0a92867fd78","ios":"levelo://app?vid=edc71fac-627e-4419-a7b8-e0a92867fd78"},"vehicle_type_id":"4","last_reported":1745475338,"current_range_meters":8800,"station_id":"ce4bgup2rcd13ifvqcn0","pricing_plan_id":"cebpf4jnsgd1na2vs0mg"},{"bike_id":"7e9d26b8-b748-4e10-b3e2-977d9fd05087","system_id":"levelo_inurba_marseille","lat":43.32606,"lon":5.3615,"is_reserved":false,"is_disabled":false,"rental_uris":{"android":"levelo://app?vid=7e9d26b8-b748-4e10-b3e2-977d9fd05087","ios":"levelo://app?vid=7e9d26b8-b748-4e10-b3e2-977d9fd05087"},"vehicle_type_id":"4","last_reported":1745475338,"current_range_meters":8800,"station_id":"","pricing_plan_id":"cebpf4jnsgd1na2vs0mg"},{"bike_id":"9ac3ef30-659b-4bfa-be03-8c5d23f92efb","system_id":"levelo_inurba_marseille","lat":43.21752,"lon":5.3462,"is_reserved":false,"is_disabled":false,"rental_uris":{"android":"levelo://app?vid=9ac3ef30-659b-4bfa-be03-8c5d23f92efb","ios":"levelo://app?vid=9ac3ef30-659b-4bfa-be03-8c5d23f92efb"},"vehicle_type_id":"4","last_reported":1745475338,"current_range_meters":8800,"station_id":"st_cvj6r9ubvosntc0bgbag","pricing_plan_id":"cebpf4jnsgd1na2vs0mg"},{"bike_id":"8c7cba96-a3d5-439a-9e64-c18b09dd7aa5","system_id":"levelo_inurba_marseille","lat":43.295577,"lon":5.42298,"is_reserved":false,"is_disabled":false,"rental_uris":{"android":"levelo://app?vid=8c7cba96-a3d5-439a-9e64-c18b09dd7aa5","ios":"levelo://app?vid=8c7cba96-a3d5-439a-9e64-c18b09dd7aa5"},"vehicle_type_id":"4","last_reported":1745475338,"current_range_meters":8800,"station_id":"ce4bhph2rcd13ifvqhdg","pricing_plan_id":"cebpf4jnsgd1na2vs0mg"},{"bike_id":"5cec985c-475e-4a47-afd7-2118745a458f","system_id":"levelo_inurba_marseille","lat":43.22932,"lon":5.353909,"is_reserved":false,"is_disabled":false,"rental_uris":{"android":"levelo://app?vid=5cec985c-475e-4a47-afd7-2118745a458f","ios":"levelo://app?vid=5cec985c-475e-4a47-afd7-2118745a458f"},"vehicle_type_id":"4","last_reported":1745475338,"current_range_meters":8800,"station_id":"cpo3532slgdg3j2ikp40","pricing_plan_id":"cebpf4jnsgd1na2vs0mg"},{"bike_id":"3eda9883-68ee-4069-9984-1e581863d6d4","system_id":"levelo_inurba_marseille","lat":43.28091,"lon":5.37861,"is_reserved":false,"is_disabled":false,"rental_uris":{"android":"levelo://app?vid=3eda9883-68ee-4069-9984-1e581863d6d4","ios":"levelo://app?vid=3eda9883-68ee-4069-9984-1e581863d6d4"},"vehicle_type_id":"4","last_reported":1745475338,"current_range_meters":8800,"station_id":"ce4bha12rcd13ifvqee0","pricing_plan_id":"cebpf4jnsgd1na2vs0mg"},{"bike_id":"61034bff-863b-4f17-b306-04653b14a109","system_id":"levelo_inurba_marseille","lat":43.30925,"lon":5.40164,"is_reserved":false,"is_disabled":true,"rental_uris":{"android":"levelo://app?vid=61034bff-863b-4f17-b306-04653b14a109","ios":"levelo://app?vid=61034bff-863b-4f17-b306-04653b14a109"},"vehicle_type_id":"4","last_reported":1745475338,"current_range_meters":9200,"station_id":"ce4bgvp2rcd13ifvqct0","pricing_plan_id":"cebpf4jnsgd1na2vs0mg"},{"bike_id":"eac018cc-4244-4d34-9a05-c2e523bb3c57","system_id":"levelo_inurba_marseille","lat":43.28622,"lon":5.35673,"is_reserved":false,"is_disabled":false,"rental_uris":{"android":"levelo://app?vid=eac018cc-4244-4d34-9a05-c2e523bb3c57","ios":"levelo://app?vid=eac018cc-4244-4d34-9a05-c2e523bb3c57"},"vehicle_type_id":"4","last_reported":1745475338,"current_range_meters":9200,"station_id":"","pricing_plan_id":"cebpf4jnsgd1na2vs0mg"},{"bike_id":"a1a35f8e-6962-404d-97c9-472fc7fdc6d3","system_id":"levelo_inurba_marseille","lat":43.3055,"lon":5.36705,"is_reserved":false,"is_disabled":false,"rental_uris":{"android":"levelo://app?vid=a1a35f8e-6962-404d-97c9-472fc7fdc6d3","ios":"levelo://app?vid=a1a35f8e-6962-404d-97c9-472fc7fdc6d3"},"vehicle_type_id":"4","last_reported":1745475338,"current_range_meters":9600,"station_id":"ce4bgrp2rcd13ifvqc9g","pricing_plan_id":"cebpf4jnsgd1na2vs0mg"},{"bike_id":"730c7476-95c4-4e18-a1b3-3a935e74be04","system_id":"levelo_inurba_marseille","lat":43.29037,"lon":5.37564,"is_reserved":false,"is_disabled":true,"rental_uris":{"android":"levelo://app?vid=730c7476-95c4-4e18-a1b3-3a935e74be04","ios":"levelo://app?vid=730c7476-95c4-4e18-a1b3-3a935e74be04"},"vehicle_type_id":"4","last_reported":1745475338,"current_range_meters":9600,"station_id":"","pricing_plan_id":"cebpf4jnsgd1na2vs0mg"},{"bike_id":"d6e43da7-526e-4b26-b101-b79643e59a89","system_id":"levelo_inurba_marseille","lat":43.27203,"lon":5.39184,"is_reserved":false,"is_disabled":false,"rental_uris":{"android":"levelo://app?vid=d6e43da7-526e-4b26-b101-b79643e59a89","ios":"levelo://app?vid=d6e43da7-526e-4b26-b101-b79643e59a89"},"vehicle_type_id":"4","last_reported":1745475338,"current_range_meters":9600,"station_id":"ce4bhhp2rcd13ifvqfm0","pricing_plan_id":"cebpf4jnsgd1na2vs0mg"},{"bike_id":"8fb44261-49c3-4680-b8bd-36f293c27199","system_id":"levelo_inurba_marseille","lat":43.240683,"lon":5.377665,"is_reserved":false,"is_disabled":false,"rental_uris":{"android":"levelo://app?vid=8fb44261-49c3-4680-b8bd-36f293c27199","ios":"levelo://app?vid=8fb44261-49c3-4680-b8bd-36f293c27199"},"vehicle_type_id":"4","last_reported":1745475338,"current_range_meters":9600,"station_id":"ce4bhnp2rcd13ifvqgvg","pricing_plan_id":"cebpf4jnsgd1na2vs0mg"},{"bike_id":"d6a00241-8f25-44db-ac6d-8e84872db2a8","system_id":"levelo_inurba_marseille","lat":43.33682,"lon":5.39207,"is_reserved":false,"is_disabled":false,"rental_uris":{"android":"levelo://app?vid=d6a00241-8f25-44db-ac6d-8e84872db2a8","ios":"levelo://app?vid=d6a00241-8f25-44db-ac6d-8e84872db2a8"},"vehicle_type_id":"4","last_reported":1745475338,"current_range_meters":9600,"station_id":"ce4bhr92rcd13ifvqhsg","pricing_plan_id":"cebpf4jnsgd1na2vs0mg"},{"bike_id":"abd226a8-d003-4133-b9d2-b7c952b7ead1","system_id":"levelo_inurba_marseille","lat":43.230629,"lon":5.354893,"is_reserved":false,"is_disabled":false,"rental_uris":{"android":"levelo://app?vid=abd226a8-d003-4133-b9d2-b7c952b7ead1","ios":"levelo://app?vid=abd226a8-d003-4133-b9d2-b7c952b7ead1"},"vehicle_type_id":"4","last_reported":1745475338,"current_range_meters":9600,"station_id":"cpo3342slgdg3j2ifvpg","pricing_plan_id":"cebpf4jnsgd1na2vs0mg"},{"bike_id":"63c280db-03c0-4fad-a9ba-75b36f56d7f2","system_id":"levelo_inurba_marseille","lat":43.28931,"lon":5.36649,"is_reserved":false,"is_disabled":false,"rental_uris":{"android":"levelo://app?vid=63c280db-03c0-4fad-a9ba-75b36f56d7f2","ios":"levelo://app?vid=63c280db-03c0-4fad-a9ba-75b36f56d7f2"},"vehicle_type_id":"4","last_reported":1745475338,"current_range_meters":9600,"station_id":"ce4bhap2rcd13ifvqek0","pricing_plan_id":"cebpf4jnsgd1na2vs0mg"},{"bike_id":"66d3f2a2-5910-443a-9c4a-b4c3a7c14e40","system_id":"levelo_inurba_marseille","lat":43.300241,"lon":5.409489,"is_reserved":false,"is_disabled":false,"rental_uris":{"android":"levelo://app?vid=66d3f2a2-5910-443a-9c4a-b4c3a7c14e40","ios":"levelo://app?vid=66d3f2a2-5910-443a-9c4a-b4c3a7c14e40"},"vehicle_type_id":"4","last_reported":1745475338,"current_range_meters":9600,"station_id":"","pricing_plan_id":"cebpf4jnsgd1na2vs0mg"},{"bike_id":"debcf1a3-91c6-4274-af93-f7d46a83ff01","system_id":"levelo_inurba_marseille","lat":43.28369,"lon":5.38101,"is_reserved":false,"is_disabled":false,"rental_uris":{"android":"levelo://app?vid=debcf1a3-91c6-4274-af93-f7d46a83ff01","ios":"levelo://app?vid=debcf1a3-91c6-4274-af93-f7d46a83ff01"},"vehicle_type_id":"4","last_reported":1745475338,"current_range_meters":9600,"station_id":"ce4bh412rcd13ifvqdr0","pricing_plan_id":"cebpf4jnsgd1na2vs0mg"},{"bike_id":"1b8b7145-49a7-4fe1-96a2-72a1d6e84a54","system_id":"levelo_inurba_marseille","lat":43.230619,"lon":5.354901,"is_reserved":false,"is_disabled":false,"rental_uris":{"android":"levelo://app?vid=1b8b7145-49a7-4fe1-96a2-72a1d6e84a54","ios":"levelo://app?vid=1b8b7145-49a7-4fe1-96a2-72a1d6e84a54"},"vehicle_type_id":"4","last_reported":1745475338,"current_range_meters":9600,"station_id":"cpo3342slgdg3j2ifvpg","pricing_plan_id":"cebpf4jnsgd1na2vs0mg"},{"bike_id":"bb96f4ed-6fa1-48c3-822f-97694b9f9b42","system_id":"levelo_inurba_marseille","lat":43.274956,"lon":5.42453,"is_reserved":false,"is_disabled":false,"rental_uris":{"android":"levelo://app?vid=bb96f4ed-6fa1-48c3-822f-97694b9f9b42","ios":"levelo://app?vid=bb96f4ed-6fa1-48c3-822f-97694b9f9b42"},"vehicle_type_id":"4","last_reported":1745475338,"current_range_meters":10000,"station_id":"ce4bhn92rcd13ifvqgrg","pricing_plan_id":"cebpf4jnsgd1na2vs0mg"},{"bike_id":"fd329d73-d91a-41c7-89cf-ed671cee0a8f","system_id":"levelo_inurba_marseille","lat":43.25584,"lon":5.38234,"is_reserved":false,"is_disabled":true,"rental_uris":{"android":"levelo://app?vid=fd329d73-d91a-41c7-89cf-ed671cee0a8f","ios":"levelo://app?vid=fd329d73-d91a-41c7-89cf-ed671cee0a8f"},"vehicle_type_id":"4","last_reported":1745475338,"current_range_meters":10000,"station_id":"ce4bhih2rcd13ifvqfs0","pricing_plan_id":"cebpf4jnsgd1na2vs0mg"},{"bike_id":"27c05df6-8a91-4ca8-984f-88f6525a00cd","system_id":"levelo_inurba_marseille","lat":43.24782,"lon":5.37348,"is_reserved":false,"is_disabled":false,"rental_uris":{"android":"levelo://app?vid=27c05df6-8a91-4ca8-984f-88f6525a00cd","ios":"levelo://app?vid=27c05df6-8a91-4ca8-984f-88f6525a00cd"},"vehicle_type_id":"4","last_reported":1745475338,"current_range_meters":10800,"station_id":"","pricing_plan_id":"cebpf4jnsgd1na2vs0mg"},{"bike_id":"527ab9af-1602-4e3b-a3d5-77f5acec1ebf","system_id":"levelo_inurba_marseille","lat":43.261842,"lon":5.374604,"is_reserved":false,"is_disabled":true,"rental_uris":{"android":"levelo://app?vid=527ab9af-1602-4e3b-a3d5-77f5acec1ebf","ios":"levelo://app?vid=527ab9af-1602-4e3b-a3d5-77f5acec1ebf"},"vehicle_type_id":"4","last_reported":1745475338,"current_range_meters":10800,"station_id":"ce4bhgp2rcd13ifvqfc0","pricing_plan_id":"cebpf4jnsgd1na2vs0mg"},{"bike_id":"1c5d2f15-02ff-4d5d-b5fd-097abb7e0340","system_id":"levelo_inurba_marseille","lat":43.3091,"lon":5.36845,"is_reserved":false,"is_disabled":false,"rental_uris":{"android":"levelo://app?vid=1c5d2f15-02ff-4d5d-b5fd-097abb7e0340","ios":"levelo://app?vid=1c5d2f15-02ff-4d5d-b5fd-097abb7e0340"},"vehicle_type_id":"4","last_reported":1745475338,"current_range_meters":11200,"station_id":"ce4bgn92rcd13ifvqbvg","pricing_plan_id":"cebpf4jnsgd1na2vs0mg"},{"bike_id":"31043360-5e61-4e95-99ba-0e4dac94833b","system_id":"levelo_inurba_marseille","lat":43.30154,"lon":5.3809,"is_reserved":false,"is_disabled":false,"rental_uris":{"android":"levelo://app?vid=31043360-5e61-4e95-99ba-0e4dac94833b","ios":"levelo://app?vid=31043360-5e61-4e95-99ba-0e4dac94833b"},"vehicle_type_id":"4","last_reported":1745475338,"current_range_meters":11200,"station_id":"ce4bgjp2rcd13ifvqbh0","pricing_plan_id":"cebpf4jnsgd1na2vs0mg"},{"bike_id":"e8a1baaa-1732-484d-806f-975960e32eb9","system_id":"levelo_inurba_marseille","lat":43.2996,"lon":5.3717,"is_reserved":false,"is_disabled":false,"rental_uris":{"android":"levelo://app?vid=e8a1baaa-1732-484d-806f-975960e32eb9","ios":"levelo://app?vid=e8a1baaa-1732-484d-806f-975960e32eb9"},"vehicle_type_id":"4","last_reported":1745475338,"current_range_meters":11600,"station_id":"ce4bgr92rcd13ifvqc7g","pricing_plan_id":"cebpf4jnsgd1na2vs0mg"},{"bike_id":"82fb25a6-4f8a-47c7-ba44-3636811e0274","system_id":"levelo_inurba_marseille","lat":43.30543,"lon":5.36699,"is_reserved":false,"is_disabled":false,"rental_uris":{"android":"levelo://app?vid=82fb25a6-4f8a-47c7-ba44-3636811e0274","ios":"levelo://app?vid=82fb25a6-4f8a-47c7-ba44-3636811e0274"},"vehicle_type_id":"4","last_reported":1745475338,"current_range_meters":11200,"station_id":"ce4bgrp2rcd13ifvqc9g","pricing_plan_id":"cebpf4jnsgd1na2vs0mg"},{"bike_id":"11ce02ec-5de1-4d28-b35b-b9d2498a4135","system_id":"levelo_inurba_marseille","lat":43.23098,"lon":5.35523,"is_reserved":false,"is_disabled":false,"rental_uris":{"android":"levelo://app?vid=11ce02ec-5de1-4d28-b35b-b9d2498a4135","ios":"levelo://app?vid=11ce02ec-5de1-4d28-b35b-b9d2498a4135"},"vehicle_type_id":"4","last_reported":1745475338,"current_range_meters":12000,"station_id":"cpo3342slgdg3j2ifvpg","pricing_plan_id":"cebpf4jnsgd1na2vs0mg"},{"bike_id":"45220b04-f21f-492a-88e9-e5bad6fae1de","system_id":"levelo_inurba_marseille","lat":43.28365,"lon":5.3863,"is_reserved":false,"is_disabled":false,"rental_uris":{"android":"levelo://app?vid=45220b04-f21f-492a-88e9-e5bad6fae1de","ios":"levelo://app?vid=45220b04-f21f-492a-88e9-e5bad6fae1de"},"vehicle_type_id":"4","last_reported":1745475338,"current_range_meters":12000,"station_id":"ce4bh492rcd13ifvqdvg","pricing_plan_id":"cebpf4jnsgd1na2vs0mg"},{"bike_id":"30e08c8c-a2b6-45d6-9704-9460af4f4d07","system_id":"levelo_inurba_marseille","lat":43.310728,"lon":5.42443,"is_reserved":false,"is_disabled":false,"rental_uris":{"android":"levelo://app?vid=30e08c8c-a2b6-45d6-9704-9460af4f4d07","ios":"levelo://app?vid=30e08c8c-a2b6-45d6-9704-9460af4f4d07"},"vehicle_type_id":"4","last_reported":1745475338,"current_range_meters":12000,"station_id":"ce4bhp92rcd13ifvqhag","pricing_plan_id":"cebpf4jnsgd1na2vs0mg"},{"bike_id":"aae208e2-4035-414a-9c2d-d418ed074ba2","system_id":"levelo_inurba_marseille","lat":43.290765,"lon":5.371537,"is_reserved":false,"is_disabled":false,"rental_uris":{"android":"levelo://app?vid=aae208e2-4035-414a-9c2d-d418ed074ba2","ios":"levelo://app?vid=aae208e2-4035-414a-9c2d-d418ed074ba2"},"vehicle_type_id":"4","last_reported":1745475338,"current_range_meters":12000,"station_id":"ce4bh0h2rcd13ifvqd40","pricing_plan_id":"cebpf4jnsgd1na2vs0mg"},{"bike_id":"162104c9-c9c3-41e8-9022-0f16a6a968c6","system_id":"levelo_inurba_marseille","lat":43.330041,"lon":5.390496,"is_reserved":false,"is_disabled":false,"rental_uris":{"android":"levelo://app?vid=162104c9-c9c3-41e8-9022-0f16a6a968c6","ios":"levelo://app?vid=162104c9-c9c3-41e8-9022-0f16a6a968c6"},"vehicle_type_id":"4","last_reported":1745475338,"current_range_meters":12400,"station_id":"ce4bhr92rcd13ifvqhrg","pricing_plan_id":"cebpf4jnsgd1na2vs0mg"},{"bike_id":"abe47da8-c79d-41d3-9d1c-6f954602d17a","system_id":"levelo_inurba_marseille","lat":43.24072,"lon":5.37761,"is_reserved":false,"is_disabled":false,"rental_uris":{"android":"levelo://app?vid=abe47da8-c79d-41d3-9d1c-6f954602d17a","ios":"levelo://app?vid=abe47da8-c79d-41d3-9d1c-6f954602d17a"},"vehicle_type_id":"4","last_reported":1745475338,"current_range_meters":12800,"station_id":"ce4bhnp2rcd13ifvqgvg","pricing_plan_id":"cebpf4jnsgd1na2vs0mg"},{"bike_id":"6622cc8d-cc27-4d89-b2c4-bfc91b908618","system_id":"levelo_inurba_marseille","lat":43.27616,"lon":5.3611,"is_reserved":false,"is_disabled":false,"rental_uris":{"android":"levelo://app?vid=6622cc8d-cc27-4d89-b2c4-bfc91b908618","ios":"levelo://app?vid=6622cc8d-cc27-4d89-b2c4-bfc91b908618"},"vehicle_type_id":"4","last_reported":1745475338,"current_range_meters":12800,"station_id":"ce4bgj92rcd13ifvqbe0","pricing_plan_id":"cebpf4jnsgd1na2vs0mg"},{"bike_id":"46374c49-3adc-4c5a-8966-e00f056c0d57","system_id":"levelo_inurba_marseille","lat":43.27846,"lon":5.35442,"is_reserved":false,"is_disabled":false,"rental_uris":{"android":"levelo://app?vid=46374c49-3adc-4c5a-8966-e00f056c0d57","ios":"levelo://app?vid=46374c49-3adc-4c5a-8966-e00f056c0d57"},"vehicle_type_id":"4","last_reported":1745475338,"current_range_meters":12800,"station_id":"","pricing_plan_id":"cebpf4jnsgd1na2vs0mg"},{"bike_id":"ffba0ba4-4b22-400f-b823-14c1532b754c","system_id":"levelo_inurba_marseille","lat":43.217441,"lon":5.346229,"is_reserved":false,"is_disabled":false,"rental_uris":{"android":"levelo://app?vid=ffba0ba4-4b22-400f-b823-14c1532b754c","ios":"levelo://app?vid=ffba0ba4-4b22-400f-b823-14c1532b754c"},"vehicle_type_id":"4","last_reported":1745475338,"current_range_meters":13600,"station_id":"","pricing_plan_id":"cebpf4jnsgd1na2vs0mg"},{"bike_id":"29c27f6c-b172-4d99-add3-c74bdfc6be20","system_id":"levelo_inurba_marseille","lat":43.33016,"lon":5.39037,"is_reserved":false,"is_disabled":false,"rental_uris":{"android":"levelo://app?vid=29c27f6c-b172-4d99-add3-c74bdfc6be20","ios":"levelo://app?vid=29c27f6c-b172-4d99-add3-c74bdfc6be20"},"vehicle_type_id":"4","last_reported":1745475338,"current_range_meters":13600,"station_id":"ce4bhr92rcd13ifvqhrg","pricing_plan_id":"cebpf4jnsgd1na2vs0mg"},{"bike_id":"bd4f0b28-c324-459c-8482-b4d9162923c5","system_id":"levelo_inurba_marseille","lat":43.28096,"lon":5.37862,"is_reserved":false,"is_disabled":false,"rental_uris":{"android":"levelo://app?vid=bd4f0b28-c324-459c-8482-b4d9162923c5","ios":"levelo://app?vid=bd4f0b28-c324-459c-8482-b4d9162923c5"},"vehicle_type_id":"4","last_reported":1745475338,"current_range_meters":13600,"station_id":"ce4bha12rcd13ifvqee0","pricing_plan_id":"cebpf4jnsgd1na2vs0mg"},{"bike_id":"bf17615a-0bdd-4a6c-ac91-00904c22da54","system_id":"levelo_inurba_marseille","lat":43.284416,"lon":5.380518,"is_reserved":false,"is_disabled":false,"rental_uris":{"android":"levelo://app?vid=bf17615a-0bdd-4a6c-ac91-00904c22da54","ios":"levelo://app?vid=bf17615a-0bdd-4a6c-ac91-00904c22da54"},"vehicle_type_id":"4","last_reported":1745475338,"current_range_meters":13600,"station_id":"ce4bh412rcd13ifvqdr0","pricing_plan_id":"cebpf4jnsgd1na2vs0mg"},{"bike_id":"755abc1a-f797-479c-8e88-5f59f436c9d9","system_id":"levelo_inurba_marseille","lat":43.23958,"lon":5.36628,"is_reserved":false,"is_disabled":true,"rental_uris":{"android":"levelo://app?vid=755abc1a-f797-479c-8e88-5f59f436c9d9","ios":"levelo://app?vid=755abc1a-f797-479c-8e88-5f59f436c9d9"},"vehicle_type_id":"4","last_reported":1745475338,"current_range_meters":13600,"station_id":"ce4bhi12rcd13ifvqfp0","pricing_plan_id":"cebpf4jnsgd1na2vs0mg"},{"bike_id":"f8216c58-3171-43c5-946d-108cd47e6ac7","system_id":"levelo_inurba_marseille","lat":43.29284,"lon":5.40123,"is_reserved":false,"is_disabled":false,"rental_uris":{"android":"levelo://app?vid=f8216c58-3171-43c5-946d-108cd47e6ac7","ios":"levelo://app?vid=f8216c58-3171-43c5-946d-108cd47e6ac7"},"vehicle_type_id":"4","last_reported":1745475338,"current_range_meters":13600,"station_id":"ce4bh312rcd13ifvqdk0","pricing_plan_id":"cebpf4jnsgd1na2vs0mg"},{"bike_id":"31447890-323b-468e-9f18-1349b0c4d856","system_id":"levelo_inurba_marseille","lat":43.30097,"lon":5.3908,"is_reserved":false,"is_disabled":false,"rental_uris":{"android":"levelo://app?vid=31447890-323b-468e-9f18-1349b0c4d856","ios":"levelo://app?vid=31447890-323b-468e-9f18-1349b0c4d856"},"vehicle_type_id":"4","last_reported":1745475338,"current_range_meters":13600,"station_id":"ce4bh192rcd13ifvqdb0","pricing_plan_id":"cebpf4jnsgd1na2vs0mg"},{"bike_id":"305a8662-bc62-4326-b66d-c6d8c543cba5","system_id":"levelo_inurba_marseille","lat":43.31155,"lon":5.38725,"is_reserved":false,"is_disabled":false,"rental_uris":{"android":"levelo://app?vid=305a8662-bc62-4326-b66d-c6d8c543cba5","ios":"levelo://app?vid=305a8662-bc62-4326-b66d-c6d8c543cba5"},"vehicle_type_id":"4","last_reported":1745475338,"current_range_meters":14000,"station_id":"ce4bgv12rcd13ifvqcp0","pricing_plan_id":"cebpf4jnsgd1na2vs0mg"},{"bike_id":"13306d83-ed88-476f-bce6-7a18094c5170","system_id":"levelo_inurba_marseille","lat":43.30978,"lon":5.38362,"is_reserved":false,"is_disabled":false,"rental_uris":{"android":"levelo://app?vid=13306d83-ed88-476f-bce6-7a18094c5170","ios":"levelo://app?vid=13306d83-ed88-476f-bce6-7a18094c5170"},"vehicle_type_id":"4","last_reported":1745475338,"current_range_meters":14000,"station_id":"ce4bgv92rcd13ifvqcr0","pricing_plan_id":"cebpf4jnsgd1na2vs0mg"},{"bike_id":"7d2633a5-2cb0-46eb-8c00-357bd5fadfef","system_id":"levelo_inurba_marseille","lat":43.254825,"lon":5.376571,"is_reserved":false,"is_disabled":true,"rental_uris":{"android":"levelo://app?vid=7d2633a5-2cb0-46eb-8c00-357bd5fadfef","ios":"levelo://app?vid=7d2633a5-2cb0-46eb-8c00-357bd5fadfef"},"vehicle_type_id":"4","last_reported":1745475338,"current_range_meters":14000,"station_id":"ce4bhh12rcd13ifvqff0","pricing_plan_id":"cebpf4jnsgd1na2vs0mg"},{"bike_id":"a8f81d52-5e6c-4c5e-b13b-df55b6989d86","system_id":"levelo_inurba_marseille","lat":43.30326,"lon":5.37879,"is_reserved":false,"is_disabled":true,"rental_uris":{"android":"levelo://app?vid=a8f81d52-5e6c-4c5e-b13b-df55b6989d86","ios":"levelo://app?vid=a8f81d52-5e6c-4c5e-b13b-df55b6989d86"},"vehicle_type_id":"4","last_reported":1745475338,"current_range_meters":14400,"station_id":"","pricing_plan_id":"cebpf4jnsgd1na2vs0mg"},{"bike_id":"61c97d1b-4e0b-4178-917b-745b1e83ccfa","system_id":"levelo_inurba_marseille","lat":43.2582,"lon":5.39435,"is_reserved":false,"is_disabled":false,"rental_uris":{"android":"levelo://app?vid=61c97d1b-4e0b-4178-917b-745b1e83ccfa","ios":"levelo://app?vid=61c97d1b-4e0b-4178-917b-745b1e83ccfa"},"vehicle_type_id":"4","last_reported":1745475338,"current_range_meters":14400,"station_id":"ce4bhip2rcd13ifvqft0","pricing_plan_id":"cebpf4jnsgd1na2vs0mg"},{"bike_id":"abc6f68b-661b-4984-8200-d9b20829cc1d","system_id":"levelo_inurba_marseille","lat":43.31496,"lon":5.37293,"is_reserved":false,"is_disabled":false,"rental_uris":{"android":"levelo://app?vid=abc6f68b-661b-4984-8200-d9b20829cc1d","ios":"levelo://app?vid=abc6f68b-661b-4984-8200-d9b20829cc1d"},"vehicle_type_id":"4","last_reported":1745475338,"current_range_meters":14800,"station_id":"ce4bgt12rcd13ifvqcd0","pricing_plan_id":"cebpf4jnsgd1na2vs0mg"},{"bike_id":"8ab2ed8d-364c-4252-a36f-2dad9a4f2a15","system_id":"levelo_inurba_marseille","lat":43.239608,"lon":5.366354,"is_reserved":false,"is_disabled":false,"rental_uris":{"android":"levelo://app?vid=8ab2ed8d-364c-4252-a36f-2dad9a4f2a15","ios":"levelo://app?vid=8ab2ed8d-364c-4252-a36f-2dad9a4f2a15"},"vehicle_type_id":"4","last_reported":1745475338,"current_range_meters":14800,"station_id":"ce4bhi12rcd13ifvqfp0","pricing_plan_id":"cebpf4jnsgd1na2vs0mg"},{"bike_id":"d2f9ab38-d77b-417d-8e17-1403be698e41","system_id":"levelo_inurba_marseille","lat":43.24085,"lon":5.378014,"is_reserved":false,"is_disabled":false,"rental_uris":{"android":"levelo://app?vid=d2f9ab38-d77b-417d-8e17-1403be698e41","ios":"levelo://app?vid=d2f9ab38-d77b-417d-8e17-1403be698e41"},"vehicle_type_id":"4","last_reported":1745475338,"current_range_meters":14800,"station_id":"ce4bhnp2rcd13ifvqgvg","pricing_plan_id":"cebpf4jnsgd1na2vs0mg"},{"bike_id":"1c995df5-9dc4-4b33-b00e-04943e3f7897","system_id":"levelo_inurba_marseille","lat":43.24179,"lon":5.39727,"is_reserved":false,"is_disabled":false,"rental_uris":{"android":"levelo://app?vid=1c995df5-9dc4-4b33-b00e-04943e3f7897","ios":"levelo://app?vid=1c995df5-9dc4-4b33-b00e-04943e3f7897"},"vehicle_type_id":"4","last_reported":1745475338,"current_range_meters":14800,"station_id":"ce4bhn12rcd13ifvqgpg","pricing_plan_id":"cebpf4jnsgd1na2vs0mg"},{"bike_id":"3f0168a4-867a-4a92-946b-96a59dc111ac","system_id":"levelo_inurba_marseille","lat":43.30184,"lon":5.38078,"is_reserved":false,"is_disabled":false,"rental_uris":{"android":"levelo://app?vid=3f0168a4-867a-4a92-946b-96a59dc111ac","ios":"levelo://app?vid=3f0168a4-867a-4a92-946b-96a59dc111ac"},"vehicle_type_id":"4","last_reported":1745475338,"current_range_meters":14800,"station_id":"ce4bgjp2rcd13ifvqbh0","pricing_plan_id":"cebpf4jnsgd1na2vs0mg"},{"bike_id":"413934b5-cc9a-4cb5-9bce-49b84e04fbd2","system_id":"levelo_inurba_marseille","lat":43.29915,"lon":5.3748,"is_reserved":false,"is_disabled":false,"rental_uris":{"android":"levelo://app?vid=413934b5-cc9a-4cb5-9bce-49b84e04fbd2","ios":"levelo://app?vid=413934b5-cc9a-4cb5-9bce-49b84e04fbd2"},"vehicle_type_id":"4","last_reported":1745475338,"current_range_meters":14800,"station_id":"ce4bgjh2rcd13ifvqbg0","pricing_plan_id":"cebpf4jnsgd1na2vs0mg"},{"bike_id":"454ccd30-1344-47aa-9a99-d052e309d5ef","system_id":"levelo_inurba_marseille","lat":43.286987,"lon":5.373837,"is_reserved":false,"is_disabled":false,"rental_uris":{"android":"levelo://app?vid=454ccd30-1344-47aa-9a99-d052e309d5ef","ios":"levelo://app?vid=454ccd30-1344-47aa-9a99-d052e309d5ef"},"vehicle_type_id":"4","last_reported":1745475338,"current_range_meters":15200,"station_id":"ce4bgkh2rcd13ifvqbl0","pricing_plan_id":"cebpf4jnsgd1na2vs0mg"},{"bike_id":"6b11b64e-78f5-4f05-8c63-c592e726ebe8","system_id":"levelo_inurba_marseille","lat":43.25112,"lon":5.40319,"is_reserved":false,"is_disabled":false,"rental_uris":{"android":"levelo://app?vid=6b11b64e-78f5-4f05-8c63-c592e726ebe8","ios":"levelo://app?vid=6b11b64e-78f5-4f05-8c63-c592e726ebe8"},"vehicle_type_id":"4","last_reported":1745475338,"current_range_meters":15200,"station_id":"ce4bhlh2rcd13ifvqgig","pricing_plan_id":"cebpf4jnsgd1na2vs0mg"},{"bike_id":"788f87a8-7cec-4429-95b8-581f88103984","system_id":"levelo_inurba_marseille","lat":43.313276,"lon":5.396986,"is_reserved":false,"is_disabled":false,"rental_uris":{"android":"levelo://app?vid=788f87a8-7cec-4429-95b8-581f88103984","ios":"levelo://app?vid=788f87a8-7cec-4429-95b8-581f88103984"},"vehicle_type_id":"4","last_reported":1745475338,"current_range_meters":15200,"station_id":"ce4bgvp2rcd13ifvqcu0","pricing_plan_id":"cebpf4jnsgd1na2vs0mg"},{"bike_id":"8dff3327-c704-4870-8401-73b9c1029785","system_id":"levelo_inurba_marseille","lat":43.25888,"lon":5.39895,"is_reserved":false,"is_disabled":true,"rental_uris":{"android":"levelo://app?vid=8dff3327-c704-4870-8401-73b9c1029785","ios":"levelo://app?vid=8dff3327-c704-4870-8401-73b9c1029785"},"vehicle_type_id":"4","last_reported":1745475338,"current_range_meters":16000,"station_id":"ce4bhl92rcd13ifvqghg","pricing_plan_id":"cebpf4jnsgd1na2vs0mg"},{"bike_id":"dd7fa6b0-be34-4ff4-93cd-9b2a03edd67d","system_id":"levelo_inurba_marseille","lat":43.288703,"lon":5.359893,"is_reserved":false,"is_disabled":false,"rental_uris":{"android":"levelo://app?vid=dd7fa6b0-be34-4ff4-93cd-9b2a03edd67d","ios":"levelo://app?vid=dd7fa6b0-be34-4ff4-93cd-9b2a03edd67d"},"vehicle_type_id":"4","last_reported":1745475338,"current_range_meters":16000,"station_id":"ce4bh8p2rcd13ifvqeb0","pricing_plan_id":"cebpf4jnsgd1na2vs0mg"},{"bike_id":"6a1b385f-4c37-4399-89d8-2a1bce2af65b","system_id":"levelo_inurba_marseille","lat":43.33733,"lon":5.3919,"is_reserved":false,"is_disabled":false,"rental_uris":{"android":"levelo://app?vid=6a1b385f-4c37-4399-89d8-2a1bce2af65b","ios":"levelo://app?vid=6a1b385f-4c37-4399-89d8-2a1bce2af65b"},"vehicle_type_id":"4","last_reported":1745475338,"current_range_meters":16000,"station_id":"ce4bhr92rcd13ifvqhsg","pricing_plan_id":"cebpf4jnsgd1na2vs0mg"},{"bike_id":"87873093-27f5-49a2-8c34-ddd2205add84","system_id":"levelo_inurba_marseille","lat":43.28466,"lon":5.38425,"is_reserved":false,"is_disabled":true,"rental_uris":{"android":"levelo://app?vid=87873093-27f5-49a2-8c34-ddd2205add84","ios":"levelo://app?vid=87873093-27f5-49a2-8c34-ddd2205add84"},"vehicle_type_id":"4","last_reported":1745475338,"current_range_meters":16000,"station_id":"ce4bh512rcd13ifvqe3g","pricing_plan_id":"cebpf4jnsgd1na2vs0mg"},{"bike_id":"caef2552-e2e3-41e9-a827-ac546470c0d7","system_id":"levelo_inurba_marseille","lat":43.23156,"lon":5.43741,"is_reserved":false,"is_disabled":false,"rental_uris":{"android":"levelo://app?vid=caef2552-e2e3-41e9-a827-ac546470c0d7","ios":"levelo://app?vid=caef2552-e2e3-41e9-a827-ac546470c0d7"},"vehicle_type_id":"4","last_reported":1745475338,"current_range_meters":16000,"station_id":"ce4bhmp2rcd13ifvqgog","pricing_plan_id":"cebpf4jnsgd1na2vs0mg"},{"bike_id":"c8cc5bc6-4aee-4811-8513-2b242b7ce89b","system_id":"levelo_inurba_marseille","lat":43.232,"lon":5.35565,"is_reserved":false,"is_disabled":false,"rental_uris":{"android":"levelo://app?vid=c8cc5bc6-4aee-4811-8513-2b242b7ce89b","ios":"levelo://app?vid=c8cc5bc6-4aee-4811-8513-2b242b7ce89b"},"vehicle_type_id":"4","last_reported":1745475338,"current_range_meters":16000,"station_id":"ce4bhu92rcd13ifvqi70","pricing_plan_id":"cebpf4jnsgd1na2vs0mg"},{"bike_id":"b217c7a4-92b6-4872-91fa-f2c2827250cc","system_id":"levelo_inurba_marseille","lat":43.28871,"lon":5.3926,"is_reserved":false,"is_disabled":false,"rental_uris":{"android":"levelo://app?vid=b217c7a4-92b6-4872-91fa-f2c2827250cc","ios":"levelo://app?vid=b217c7a4-92b6-4872-91fa-f2c2827250cc"},"vehicle_type_id":"4","last_reported":1745475338,"current_range_meters":16000,"station_id":"ce4bh2p2rcd13ifvqdi0","pricing_plan_id":"cebpf4jnsgd1na2vs0mg"},{"bike_id":"fa8a552a-d2d3-4e8d-8d8e-02bdba037836","system_id":"levelo_inurba_marseille","lat":43.230673,"lon":5.354948,"is_reserved":false,"is_disabled":false,"rental_uris":{"android":"levelo://app?vid=fa8a552a-d2d3-4e8d-8d8e-02bdba037836","ios":"levelo://app?vid=fa8a552a-d2d3-4e8d-8d8e-02bdba037836"},"vehicle_type_id":"4","last_reported":1745475338,"current_range_meters":16000,"station_id":"cpo3342slgdg3j2ifvpg","pricing_plan_id":"cebpf4jnsgd1na2vs0mg"},{"bike_id":"2952fba4-1b9a-471a-a9f8-6b28a5b1c2aa","system_id":"levelo_inurba_marseille","lat":43.29774,"lon":5.38126,"is_reserved":false,"is_disabled":false,"rental_uris":{"android":"levelo://app?vid=2952fba4-1b9a-471a-a9f8-6b28a5b1c2aa","ios":"levelo://app?vid=2952fba4-1b9a-471a-a9f8-6b28a5b1c2aa"},"vehicle_type_id":"4","last_reported":1745475338,"current_range_meters":16000,"station_id":"ce4bgip2rcd13ifvqbb0","pricing_plan_id":"cebpf4jnsgd1na2vs0mg"},{"bike_id":"5d54de22-55ec-41ee-8247-b88c71058a4a","system_id":"levelo_inurba_marseille","lat":43.270284,"lon":5.363954,"is_reserved":false,"is_disabled":false,"rental_uris":{"android":"levelo://app?vid=5d54de22-55ec-41ee-8247-b88c71058a4a","ios":"levelo://app?vid=5d54de22-55ec-41ee-8247-b88c71058a4a"},"vehicle_type_id":"4","last_reported":1745475338,"current_range_meters":16000,"station_id":"ce4bha12rcd13ifvqef0","pricing_plan_id":"cebpf4jnsgd1na2vs0mg"},{"bike_id":"fdb851bd-e1d2-49e7-bee9-81436e6d08eb","system_id":"levelo_inurba_marseille","lat":43.31782,"lon":5.40405,"is_reserved":false,"is_disabled":false,"rental_uris":{"android":"levelo://app?vid=fdb851bd-e1d2-49e7-bee9-81436e6d08eb","ios":"levelo://app?vid=fdb851bd-e1d2-49e7-bee9-81436e6d08eb"},"vehicle_type_id":"4","last_reported":1745475338,"current_range_meters":16800,"station_id":"ce4bh012rcd13ifvqd00","pricing_plan_id":"cebpf4jnsgd1na2vs0mg"},{"bike_id":"976298e5-e7ba-4d4f-9d5c-e269d3288765","system_id":"levelo_inurba_marseille","lat":43.24808,"lon":5.37457,"is_reserved":false,"is_disabled":false,"rental_uris":{"android":"levelo://app?vid=976298e5-e7ba-4d4f-9d5c-e269d3288765","ios":"levelo://app?vid=976298e5-e7ba-4d4f-9d5c-e269d3288765"},"vehicle_type_id":"4","last_reported":1745475338,"current_range_meters":16400,"station_id":"ce4bhgh2rcd13ifvqfb0","pricing_plan_id":"cebpf4jnsgd1na2vs0mg"},{"bike_id":"1d169f8e-e602-4432-b7fd-911d41abd28f","system_id":"levelo_inurba_marseille","lat":43.315151,"lon":5.373093,"is_reserved":false,"is_disabled":false,"rental_uris":{"android":"levelo://app?vid=1d169f8e-e602-4432-b7fd-911d41abd28f","ios":"levelo://app?vid=1d169f8e-e602-4432-b7fd-911d41abd28f"},"vehicle_type_id":"4","last_reported":1745475338,"current_range_meters":16400,"station_id":"ce4bgt12rcd13ifvqcd0","pricing_plan_id":"cebpf4jnsgd1na2vs0mg"},{"bike_id":"c5260414-53ea-4c4b-84bd-1a38f855ebd9","system_id":"levelo_inurba_marseille","lat":43.310712,"lon":5.383599,"is_reserved":false,"is_disabled":true,"rental_uris":{"android":"levelo://app?vid=c5260414-53ea-4c4b-84bd-1a38f855ebd9","ios":"levelo://app?vid=c5260414-53ea-4c4b-84bd-1a38f855ebd9"},"vehicle_type_id":"4","last_reported":1745475338,"current_range_meters":16400,"station_id":"ce4bgv92rcd13ifvqcr0","pricing_plan_id":"cebpf4jnsgd1na2vs0mg"},{"bike_id":"c0232691-bdbb-4a12-8c74-e822f3ca3538","system_id":"levelo_inurba_marseille","lat":43.29036,"lon":5.3996,"is_reserved":false,"is_disabled":false,"rental_uris":{"android":"levelo://app?vid=c0232691-bdbb-4a12-8c74-e822f3ca3538","ios":"levelo://app?vid=c0232691-bdbb-4a12-8c74-e822f3ca3538"},"vehicle_type_id":"4","last_reported":1745475338,"current_range_meters":16400,"station_id":"ce4bh392rcd13ifvqdm0","pricing_plan_id":"cebpf4jnsgd1na2vs0mg"},{"bike_id":"8c459b2a-035f-498b-9f88-2487f6a50b41","system_id":"levelo_inurba_marseille","lat":43.30136,"lon":5.38075,"is_reserved":false,"is_disabled":false,"rental_uris":{"android":"levelo://app?vid=8c459b2a-035f-498b-9f88-2487f6a50b41","ios":"levelo://app?vid=8c459b2a-035f-498b-9f88-2487f6a50b41"},"vehicle_type_id":"4","last_reported":1745475338,"current_range_meters":10000,"station_id":"ce4bgjp2rcd13ifvqbh0","pricing_plan_id":"cebpf4jnsgd1na2vs0mg"},{"bike_id":"5dd12b3b-eef7-4dab-a6de-2ed4ff99da38","system_id":"levelo_inurba_marseille","lat":43.29032,"lon":5.37551,"is_reserved":false,"is_disabled":true,"rental_uris":{"android":"levelo://app?vid=5dd12b3b-eef7-4dab-a6de-2ed4ff99da38","ios":"levelo://app?vid=5dd12b3b-eef7-4dab-a6de-2ed4ff99da38"},"vehicle_type_id":"4","last_reported":1745475338,"current_range_meters":16800,"station_id":"ce4bh692rcd13ifvqe90","pricing_plan_id":"cebpf4jnsgd1na2vs0mg"},{"bike_id":"ab660249-0742-4ee6-9f3c-cbf7eabd0145","system_id":"levelo_inurba_marseille","lat":43.28644,"lon":5.37062,"is_reserved":false,"is_disabled":false,"rental_uris":{"android":"levelo://app?vid=ab660249-0742-4ee6-9f3c-cbf7eabd0145","ios":"levelo://app?vid=ab660249-0742-4ee6-9f3c-cbf7eabd0145"},"vehicle_type_id":"4","last_reported":1745475338,"current_range_meters":16800,"station_id":"ce4bht12rcd13ifvqi60","pricing_plan_id":"cebpf4jnsgd1na2vs0mg"},{"bike_id":"2655adba-5bd9-4da0-8cd3-5bc0123170f2","system_id":"levelo_inurba_marseille","lat":43.3136,"lon":5.38524,"is_reserved":false,"is_disabled":false,"rental_uris":{"android":"levelo://app?vid=2655adba-5bd9-4da0-8cd3-5bc0123170f2","ios":"levelo://app?vid=2655adba-5bd9-4da0-8cd3-5bc0123170f2"},"vehicle_type_id":"4","last_reported":1745475338,"current_range_meters":16800,"station_id":"ce4bgt92rcd13ifvqcf0","pricing_plan_id":"cebpf4jnsgd1na2vs0mg"},{"bike_id":"6fa93a30-9477-472b-911d-f334fbcc0d65","system_id":"levelo_inurba_marseille","lat":43.30161,"lon":5.38803,"is_reserved":false,"is_disabled":true,"rental_uris":{"android":"levelo://app?vid=6fa93a30-9477-472b-911d-f334fbcc0d65","ios":"levelo://app?vid=6fa93a30-9477-472b-911d-f334fbcc0d65"},"vehicle_type_id":"4","last_reported":1745475338,"current_range_meters":16800,"station_id":"ce4bghh2rcd13ifvqb60","pricing_plan_id":"cebpf4jnsgd1na2vs0mg"},{"bike_id":"d99abc64-fc5e-4365-b2fd-7591e88627e8","system_id":"levelo_inurba_marseille","lat":43.313595,"lon":5.384998,"is_reserved":false,"is_disabled":false,"rental_uris":{"android":"levelo://app?vid=d99abc64-fc5e-4365-b2fd-7591e88627e8","ios":"levelo://app?vid=d99abc64-fc5e-4365-b2fd-7591e88627e8"},"vehicle_type_id":"4","last_reported":1745475338,"current_range_meters":16800,"station_id":"ce4bgt92rcd13ifvqcf0","pricing_plan_id":"cebpf4jnsgd1na2vs0mg"},{"bike_id":"19b1e669-c0ec-46a9-8c21-4f491a13468c","system_id":"levelo_inurba_marseille","lat":43.29523,"lon":5.38562,"is_reserved":false,"is_disabled":true,"rental_uris":{"android":"levelo://app?vid=19b1e669-c0ec-46a9-8c21-4f491a13468c","ios":"levelo://app?vid=19b1e669-c0ec-46a9-8c21-4f491a13468c"},"vehicle_type_id":"4","last_reported":1745475338,"current_range_meters":17200,"station_id":"ce4bgih2rcd13ifvqba0","pricing_plan_id":"cebpf4jnsgd1na2vs0mg"},{"bike_id":"1dac3e3b-a779-4b02-bdcd-eac9198a16e5","system_id":"levelo_inurba_marseille","lat":43.27069,"lon":5.42275,"is_reserved":false,"is_disabled":false,"rental_uris":{"android":"levelo://app?vid=1dac3e3b-a779-4b02-bdcd-eac9198a16e5","ios":"levelo://app?vid=1dac3e3b-a779-4b02-bdcd-eac9198a16e5"},"vehicle_type_id":"4","last_reported":1745475338,"current_range_meters":17200,"station_id":"ce4bhk92rcd13ifvqgb0","pricing_plan_id":"cebpf4jnsgd1na2vs0mg"},{"bike_id":"97f00e91-4a81-4998-8f3d-60d5de3cea7c","system_id":"levelo_inurba_marseille","lat":43.30547,"lon":5.367,"is_reserved":false,"is_disabled":false,"rental_uris":{"android":"levelo://app?vid=97f00e91-4a81-4998-8f3d-60d5de3cea7c","ios":"levelo://app?vid=97f00e91-4a81-4998-8f3d-60d5de3cea7c"},"vehicle_type_id":"4","last_reported":1745475338,"current_range_meters":17200,"station_id":"ce4bgrp2rcd13ifvqc9g","pricing_plan_id":"cebpf4jnsgd1na2vs0mg"},{"bike_id":"51e49b58-85ce-40d7-bef8-b765cd286471","system_id":"levelo_inurba_marseille","lat":43.26922,"lon":5.38921,"is_reserved":false,"is_disabled":false,"rental_uris":{"android":"levelo://app?vid=51e49b58-85ce-40d7-bef8-b765cd286471","ios":"levelo://app?vid=51e49b58-85ce-40d7-bef8-b765cd286471"},"vehicle_type_id":"4","last_reported":1745475338,"current_range_meters":16800,"station_id":"ce4bhhh2rcd13ifvqfl0","pricing_plan_id":"cebpf4jnsgd1na2vs0mg"},{"bike_id":"04730628-0283-47a3-9826-a0ef9a37454b","system_id":"levelo_inurba_marseille","lat":43.2972,"lon":5.37691,"is_reserved":false,"is_disabled":false,"rental_uris":{"android":"levelo://app?vid=04730628-0283-47a3-9826-a0ef9a37454b","ios":"levelo://app?vid=04730628-0283-47a3-9826-a0ef9a37454b"},"vehicle_type_id":"4","last_reported":1745475338,"current_range_meters":17200,"station_id":"ce4bgkh2rcd13ifvqbl0","pricing_plan_id":"cebpf4jnsgd1na2vs0mg"},{"bike_id":"3042b513-066d-4247-9b14-2eb3c1a75e6d","system_id":"levelo_inurba_marseille","lat":43.27477,"lon":5.42465,"is_reserved":false,"is_disabled":false,"rental_uris":{"android":"levelo://app?vid=3042b513-066d-4247-9b14-2eb3c1a75e6d","ios":"levelo://app?vid=3042b513-066d-4247-9b14-2eb3c1a75e6d"},"vehicle_type_id":"4","last_reported":1745475338,"current_range_meters":17200,"station_id":"ce4bhn92rcd13ifvqgrg","pricing_plan_id":"cebpf4jnsgd1na2vs0mg"},{"bike_id":"d33ff4d4-d1aa-4d4c-93cc-5535de4077aa","system_id":"levelo_inurba_marseille","lat":43.30375,"lon":5.42489,"is_reserved":false,"is_disabled":false,"rental_uris":{"android":"levelo://app?vid=d33ff4d4-d1aa-4d4c-93cc-5535de4077aa","ios":"levelo://app?vid=d33ff4d4-d1aa-4d4c-93cc-5535de4077aa"},"vehicle_type_id":"4","last_reported":1745475338,"current_range_meters":17200,"station_id":"ce4bhoh2rcd13ifvqh6g","pricing_plan_id":"cebpf4jnsgd1na2vs0mg"},{"bike_id":"93f3d99a-73cb-4e6f-96ac-43bc6b6658cf","system_id":"levelo_inurba_marseille","lat":43.2989,"lon":5.38644,"is_reserved":false,"is_disabled":false,"rental_uris":{"android":"levelo://app?vid=93f3d99a-73cb-4e6f-96ac-43bc6b6658cf","ios":"levelo://app?vid=93f3d99a-73cb-4e6f-96ac-43bc6b6658cf"},"vehicle_type_id":"4","last_reported":1745475338,"current_range_meters":17600,"station_id":"","pricing_plan_id":"cebpf4jnsgd1na2vs0mg"},{"bike_id":"cd906bce-52be-45be-8f08-cdeb623de131","system_id":"levelo_inurba_marseille","lat":43.28193,"lon":5.40384,"is_reserved":false,"is_disabled":false,"rental_uris":{"android":"levelo://app?vid=cd906bce-52be-45be-8f08-cdeb623de131","ios":"levelo://app?vid=cd906bce-52be-45be-8f08-cdeb623de131"},"vehicle_type_id":"4","last_reported":1745475338,"current_range_meters":17600,"station_id":"","pricing_plan_id":"cebpf4jnsgd1na2vs0mg"},{"bike_id":"db21d451-543e-49c7-8465-c8b53e9510ed","system_id":"levelo_inurba_marseille","lat":43.27496,"lon":5.42456,"is_reserved":false,"is_disabled":false,"rental_uris":{"android":"levelo://app?vid=db21d451-543e-49c7-8465-c8b53e9510ed","ios":"levelo://app?vid=db21d451-543e-49c7-8465-c8b53e9510ed"},"vehicle_type_id":"4","last_reported":1745475338,"current_range_meters":17600,"station_id":"ce4bhn92rcd13ifvqgrg","pricing_plan_id":"cebpf4jnsgd1na2vs0mg"},{"bike_id":"ed670199-f613-4f2d-8ea5-cd3d1f976355","system_id":"levelo_inurba_marseille","lat":43.24076,"lon":5.37758,"is_reserved":false,"is_disabled":false,"rental_uris":{"android":"levelo://app?vid=ed670199-f613-4f2d-8ea5-cd3d1f976355","ios":"levelo://app?vid=ed670199-f613-4f2d-8ea5-cd3d1f976355"},"vehicle_type_id":"4","last_reported":1745475338,"current_range_meters":17600,"station_id":"ce4bhnp2rcd13ifvqgvg","pricing_plan_id":"cebpf4jnsgd1na2vs0mg"},{"bike_id":"ab8406b2-4f8d-4381-8821-3db52b0a4d4d","system_id":"levelo_inurba_marseille","lat":43.273559,"lon":5.378335,"is_reserved":false,"is_disabled":false,"rental_uris":{"android":"levelo://app?vid=ab8406b2-4f8d-4381-8821-3db52b0a4d4d","ios":"levelo://app?vid=ab8406b2-4f8d-4381-8821-3db52b0a4d4d"},"vehicle_type_id":"4","last_reported":1745475338,"current_range_meters":17600,"station_id":"","pricing_plan_id":"cebpf4jnsgd1na2vs0mg"},{"bike_id":"4f9313c7-2873-427a-b841-373b818b6c2e","system_id":"levelo_inurba_marseille","lat":43.28726,"lon":5.360876,"is_reserved":false,"is_disabled":false,"rental_uris":{"android":"levelo://app?vid=4f9313c7-2873-427a-b841-373b818b6c2e","ios":"levelo://app?vid=4f9313c7-2873-427a-b841-373b818b6c2e"},"vehicle_type_id":"4","last_reported":1745475338,"current_range_meters":17600,"station_id":"ce4bhbp2rcd13ifvqerg","pricing_plan_id":"cebpf4jnsgd1na2vs0mg"},{"bike_id":"2030830a-2397-4c2e-99e4-aeaec09e8366","system_id":"levelo_inurba_marseille","lat":43.31686,"lon":5.40473,"is_reserved":false,"is_disabled":false,"rental_uris":{"android":"levelo://app?vid=2030830a-2397-4c2e-99e4-aeaec09e8366","ios":"levelo://app?vid=2030830a-2397-4c2e-99e4-aeaec09e8366"},"vehicle_type_id":"4","last_reported":1745475338,"current_range_meters":18000,"station_id":"ce4bh012rcd13ifvqd00","pricing_plan_id":"cebpf4jnsgd1na2vs0mg"},{"bike_id":"cadd2a19-c37c-493d-b003-1c5753f859f2","system_id":"levelo_inurba_marseille","lat":43.305284,"lon":5.384413,"is_reserved":false,"is_disabled":true,"rental_uris":{"android":"levelo://app?vid=cadd2a19-c37c-493d-b003-1c5753f859f2","ios":"levelo://app?vid=cadd2a19-c37c-493d-b003-1c5753f859f2"},"vehicle_type_id":"4","last_reported":1745475338,"current_range_meters":18000,"station_id":"ce4bgg92rcd13ifvqb30","pricing_plan_id":"cebpf4jnsgd1na2vs0mg"},{"bike_id":"71920feb-8449-41b7-b9b8-8fa1a74f4692","system_id":"levelo_inurba_marseille","lat":43.3045,"lon":5.37905,"is_reserved":false,"is_disabled":false,"rental_uris":{"android":"levelo://app?vid=71920feb-8449-41b7-b9b8-8fa1a74f4692","ios":"levelo://app?vid=71920feb-8449-41b7-b9b8-8fa1a74f4692"},"vehicle_type_id":"4","last_reported":1745475338,"current_range_meters":18000,"station_id":"ce4bgup2rcd13ifvqcn0","pricing_plan_id":"cebpf4jnsgd1na2vs0mg"},{"bike_id":"83ce8635-e014-4d4b-b4bb-5f7a1fac789e","system_id":"levelo_inurba_marseille","lat":43.26692,"lon":5.38264,"is_reserved":false,"is_disabled":true,"rental_uris":{"android":"levelo://app?vid=83ce8635-e014-4d4b-b4bb-5f7a1fac789e","ios":"levelo://app?vid=83ce8635-e014-4d4b-b4bb-5f7a1fac789e"},"vehicle_type_id":"4","last_reported":1745475338,"current_range_meters":18000,"station_id":"ce4bhg92rcd13ifvqf90","pricing_plan_id":"cebpf4jnsgd1na2vs0mg"},{"bike_id":"af08a62a-2847-4555-ab16-42c4660ae434","system_id":"levelo_inurba_marseille","lat":43.27494,"lon":5.42467,"is_reserved":false,"is_disabled":false,"rental_uris":{"android":"levelo://app?vid=af08a62a-2847-4555-ab16-42c4660ae434","ios":"levelo://app?vid=af08a62a-2847-4555-ab16-42c4660ae434"},"vehicle_type_id":"4","last_reported":1745475338,"current_range_meters":18000,"station_id":"ce4bhn92rcd13ifvqgrg","pricing_plan_id":"cebpf4jnsgd1na2vs0mg"},{"bike_id":"ded14cdf-4741-49ca-b212-f379b5da47a3","system_id":"levelo_inurba_marseille","lat":43.28357,"lon":5.38095,"is_reserved":false,"is_disabled":false,"rental_uris":{"android":"levelo://app?vid=ded14cdf-4741-49ca-b212-f379b5da47a3","ios":"levelo://app?vid=ded14cdf-4741-49ca-b212-f379b5da47a3"},"vehicle_type_id":"4","last_reported":1745475338,"current_range_meters":18800,"station_id":"ce4bh412rcd13ifvqdr0","pricing_plan_id":"cebpf4jnsgd1na2vs0mg"},{"bike_id":"f251a661-d61f-476d-9367-a646c2f5ce4d","system_id":"levelo_inurba_marseille","lat":43.29253,"lon":5.37622,"is_reserved":false,"is_disabled":false,"rental_uris":{"android":"levelo://app?vid=f251a661-d61f-476d-9367-a646c2f5ce4d","ios":"levelo://app?vid=f251a661-d61f-476d-9367-a646c2f5ce4d"},"vehicle_type_id":"4","last_reported":1745475338,"current_range_meters":18800,"station_id":"ce4bgi12rcd13ifvqb80","pricing_plan_id":"cebpf4jnsgd1na2vs0mg"},{"bike_id":"e0475622-ca3c-4cc9-8273-63b58a33d69d","system_id":"levelo_inurba_marseille","lat":43.317205,"lon":5.437105,"is_reserved":false,"is_disabled":false,"rental_uris":{"android":"levelo://app?vid=e0475622-ca3c-4cc9-8273-63b58a33d69d","ios":"levelo://app?vid=e0475622-ca3c-4cc9-8273-63b58a33d69d"},"vehicle_type_id":"4","last_reported":1745475338,"current_range_meters":18800,"station_id":"ce4bhp92rcd13ifvqhcg","pricing_plan_id":"cebpf4jnsgd1na2vs0mg"},{"bike_id":"129ea9c4-35d8-4d8a-97f1-d90eefdd4cf8","system_id":"levelo_inurba_marseille","lat":43.29189,"lon":5.39317,"is_reserved":false,"is_disabled":true,"rental_uris":{"android":"levelo://app?vid=129ea9c4-35d8-4d8a-97f1-d90eefdd4cf8","ios":"levelo://app?vid=129ea9c4-35d8-4d8a-97f1-d90eefdd4cf8"},"vehicle_type_id":"4","last_reported":1745475338,"current_range_meters":18800,"station_id":"ce4bh192rcd13ifvqdd0","pricing_plan_id":"cebpf4jnsgd1na2vs0mg"},{"bike_id":"9ef84f77-1373-42ac-9485-aafce33b2b8d","system_id":"levelo_inurba_marseille","lat":43.2837,"lon":5.38126,"is_reserved":false,"is_disabled":false,"rental_uris":{"android":"levelo://app?vid=9ef84f77-1373-42ac-9485-aafce33b2b8d","ios":"levelo://app?vid=9ef84f77-1373-42ac-9485-aafce33b2b8d"},"vehicle_type_id":"4","last_reported":1745475338,"current_range_meters":18800,"station_id":"ce4bh412rcd13ifvqdr0","pricing_plan_id":"cebpf4jnsgd1na2vs0mg"},{"bike_id":"d36bbdc9-3a65-49eb-b711-92415f9acadf","system_id":"levelo_inurba_marseille","lat":43.32539,"lon":5.41433,"is_reserved":false,"is_disabled":false,"rental_uris":{"android":"levelo://app?vid=d36bbdc9-3a65-49eb-b711-92415f9acadf","ios":"levelo://app?vid=d36bbdc9-3a65-49eb-b711-92415f9acadf"},"vehicle_type_id":"4","last_reported":1745475338,"current_range_meters":18000,"station_id":"ce4bhq12rcd13ifvqhhg","pricing_plan_id":"cebpf4jnsgd1na2vs0mg"},{"bike_id":"f0f62196-46ab-434e-85d0-c98631d7c239","system_id":"levelo_inurba_marseille","lat":43.30589,"lon":5.39352,"is_reserved":false,"is_disabled":false,"rental_uris":{"android":"levelo://app?vid=f0f62196-46ab-434e-85d0-c98631d7c239","ios":"levelo://app?vid=f0f62196-46ab-434e-85d0-c98631d7c239"},"vehicle_type_id":"4","last_reported":1745475338,"current_range_meters":18800,"station_id":"ce4bh0p2rcd13ifvqd80","pricing_plan_id":"cebpf4jnsgd1na2vs0mg"},{"bike_id":"30da752e-5450-4da3-965e-773778ce5d7d","system_id":"levelo_inurba_marseille","lat":43.2417,"lon":5.36404,"is_reserved":false,"is_disabled":false,"rental_uris":{"android":"levelo://app?vid=30da752e-5450-4da3-965e-773778ce5d7d","ios":"levelo://app?vid=30da752e-5450-4da3-965e-773778ce5d7d"},"vehicle_type_id":"4","last_reported":1745475338,"current_range_meters":18800,"station_id":"cpo36qri1sfpv3e86is0","pricing_plan_id":"cebpf4jnsgd1na2vs0mg"},{"bike_id":"a91df16b-c83f-4dc3-a936-ee8d4a4be07b","system_id":"levelo_inurba_marseille","lat":43.30151,"lon":5.38083,"is_reserved":false,"is_disabled":false,"rental_uris":{"android":"levelo://app?vid=a91df16b-c83f-4dc3-a936-ee8d4a4be07b","ios":"levelo://app?vid=a91df16b-c83f-4dc3-a936-ee8d4a4be07b"},"vehicle_type_id":"4","last_reported":1745475338,"current_range_meters":19200,"station_id":"ce4bgjp2rcd13ifvqbh0","pricing_plan_id":"cebpf4jnsgd1na2vs0mg"},{"bike_id":"73f40cff-bb71-4b7a-8ad7-f06c69fb0596","system_id":"levelo_inurba_marseille","lat":43.21226,"lon":5.3506,"is_reserved":false,"is_disabled":false,"rental_uris":{"android":"levelo://app?vid=73f40cff-bb71-4b7a-8ad7-f06c69fb0596","ios":"levelo://app?vid=73f40cff-bb71-4b7a-8ad7-f06c69fb0596"},"vehicle_type_id":"4","last_reported":1745475338,"current_range_meters":19200,"station_id":"st_cvj6sg6p6f1abm77japg","pricing_plan_id":"cebpf4jnsgd1na2vs0mg"},{"bike_id":"804f05d6-de88-4623-a2bb-3f4e2b7ee11e","system_id":"levelo_inurba_marseille","lat":43.2606,"lon":5.39391,"is_reserved":false,"is_disabled":false,"rental_uris":{"android":"levelo://app?vid=804f05d6-de88-4623-a2bb-3f4e2b7ee11e","ios":"levelo://app?vid=804f05d6-de88-4623-a2bb-3f4e2b7ee11e"},"vehicle_type_id":"4","last_reported":1745475338,"current_range_meters":19200,"station_id":"ce4bhh92rcd13ifvqfj0","pricing_plan_id":"cebpf4jnsgd1na2vs0mg"},{"bike_id":"e2dcabcf-64d8-4394-bb9a-ff877bee611a","system_id":"levelo_inurba_marseille","lat":43.32056,"lon":5.41547,"is_reserved":false,"is_disabled":false,"rental_uris":{"android":"levelo://app?vid=e2dcabcf-64d8-4394-bb9a-ff877bee611a","ios":"levelo://app?vid=e2dcabcf-64d8-4394-bb9a-ff877bee611a"},"vehicle_type_id":"4","last_reported":1745475338,"current_range_meters":19200,"station_id":"ce4bhq92rcd13ifvqhkg","pricing_plan_id":"cebpf4jnsgd1na2vs0mg"},{"bike_id":"6f8110d9-0891-4a33-8a98-df34fa3c7719","system_id":"levelo_inurba_marseille","lat":43.29553,"lon":5.422901,"is_reserved":false,"is_disabled":false,"rental_uris":{"android":"levelo://app?vid=6f8110d9-0891-4a33-8a98-df34fa3c7719","ios":"levelo://app?vid=6f8110d9-0891-4a33-8a98-df34fa3c7719"},"vehicle_type_id":"4","last_reported":1745475338,"current_range_meters":19200,"station_id":"ce4bhph2rcd13ifvqhdg","pricing_plan_id":"cebpf4jnsgd1na2vs0mg"},{"bike_id":"3e80b9e1-e913-4c6a-b3c9-66419fa94926","system_id":"levelo_inurba_marseille","lat":43.290355,"lon":5.399634,"is_reserved":false,"is_disabled":false,"rental_uris":{"android":"levelo://app?vid=3e80b9e1-e913-4c6a-b3c9-66419fa94926","ios":"levelo://app?vid=3e80b9e1-e913-4c6a-b3c9-66419fa94926"},"vehicle_type_id":"4","last_reported":1745475338,"current_range_meters":19600,"station_id":"ce4bh392rcd13ifvqdm0","pricing_plan_id":"cebpf4jnsgd1na2vs0mg"},{"bike_id":"41e1e971-8a28-4e0b-8eb3-29747a7021cc","system_id":"levelo_inurba_marseille","lat":43.24648,"lon":5.38891,"is_reserved":false,"is_disabled":false,"rental_uris":{"android":"levelo://app?vid=41e1e971-8a28-4e0b-8eb3-29747a7021cc","ios":"levelo://app?vid=41e1e971-8a28-4e0b-8eb3-29747a7021cc"},"vehicle_type_id":"4","last_reported":1745475338,"current_range_meters":19200,"station_id":"ce4bhg12rcd13ifvqf60","pricing_plan_id":"cebpf4jnsgd1na2vs0mg"},{"bike_id":"5cbf2db9-2688-4a1d-bf11-8c5e83490714","system_id":"levelo_inurba_marseille","lat":43.29051,"lon":5.39961,"is_reserved":false,"is_disabled":false,"rental_uris":{"android":"levelo://app?vid=5cbf2db9-2688-4a1d-bf11-8c5e83490714","ios":"levelo://app?vid=5cbf2db9-2688-4a1d-bf11-8c5e83490714"},"vehicle_type_id":"4","last_reported":1745475338,"current_range_meters":19600,"station_id":"ce4bh392rcd13ifvqdm0","pricing_plan_id":"cebpf4jnsgd1na2vs0mg"},{"bike_id":"a823ec9d-7d2e-4894-8bcc-79b308d25452","system_id":"levelo_inurba_marseille","lat":43.3371,"lon":5.39178,"is_reserved":false,"is_disabled":false,"rental_uris":{"android":"levelo://app?vid=a823ec9d-7d2e-4894-8bcc-79b308d25452","ios":"levelo://app?vid=a823ec9d-7d2e-4894-8bcc-79b308d25452"},"vehicle_type_id":"4","last_reported":1745475338,"current_range_meters":19600,"station_id":"ce4bhr92rcd13ifvqhsg","pricing_plan_id":"cebpf4jnsgd1na2vs0mg"},{"bike_id":"025b1126-3f39-4489-aadb-a09340fe17c6","system_id":"levelo_inurba_marseille","lat":43.292606,"lon":5.409139,"is_reserved":false,"is_disabled":false,"rental_uris":{"android":"levelo://app?vid=025b1126-3f39-4489-aadb-a09340fe17c6","ios":"levelo://app?vid=025b1126-3f39-4489-aadb-a09340fe17c6"},"vehicle_type_id":"4","last_reported":1745475338,"current_range_meters":19600,"station_id":"ce4bh2p2rcd13ifvqdi0","pricing_plan_id":"cebpf4jnsgd1na2vs0mg"},{"bike_id":"016d1c33-236f-4281-bd30-10c7bc88d5ce","system_id":"levelo_inurba_marseille","lat":43.24069,"lon":5.37765,"is_reserved":false,"is_disabled":false,"rental_uris":{"android":"levelo://app?vid=016d1c33-236f-4281-bd30-10c7bc88d5ce","ios":"levelo://app?vid=016d1c33-236f-4281-bd30-10c7bc88d5ce"},"vehicle_type_id":"4","last_reported":1745475338,"current_range_meters":20000,"station_id":"ce4bhnp2rcd13ifvqgvg","pricing_plan_id":"cebpf4jnsgd1na2vs0mg"},{"bike_id":"e7093a55-c5e1-4525-90b8-4f083a9c5863","system_id":"levelo_inurba_marseille","lat":43.287084,"lon":5.379498,"is_reserved":false,"is_disabled":true,"rental_uris":{"android":"levelo://app?vid=e7093a55-c5e1-4525-90b8-4f083a9c5863","ios":"levelo://app?vid=e7093a55-c5e1-4525-90b8-4f083a9c5863"},"vehicle_type_id":"4","last_reported":1745475338,"current_range_meters":20000,"station_id":"ce4bh9p2rcd13ifvqec0","pricing_plan_id":"cebpf4jnsgd1na2vs0mg"},{"bike_id":"c914dd52-d4b0-4b0a-928c-137d4b272816","system_id":"levelo_inurba_marseille","lat":43.28933,"lon":5.36628,"is_reserved":false,"is_disabled":false,"rental_uris":{"android":"levelo://app?vid=c914dd52-d4b0-4b0a-928c-137d4b272816","ios":"levelo://app?vid=c914dd52-d4b0-4b0a-928c-137d4b272816"},"vehicle_type_id":"4","last_reported":1745475338,"current_range_meters":20000,"station_id":"ce4bhap2rcd13ifvqek0","pricing_plan_id":"cebpf4jnsgd1na2vs0mg"},{"bike_id":"0bfff189-ec6a-4439-b345-e9dd168ab867","system_id":"levelo_inurba_marseille","lat":43.33721,"lon":5.39184,"is_reserved":false,"is_disabled":false,"rental_uris":{"android":"levelo://app?vid=0bfff189-ec6a-4439-b345-e9dd168ab867","ios":"levelo://app?vid=0bfff189-ec6a-4439-b345-e9dd168ab867"},"vehicle_type_id":"4","last_reported":1745475338,"current_range_meters":20000,"station_id":"ce4bhr92rcd13ifvqhsg","pricing_plan_id":"cebpf4jnsgd1na2vs0mg"},{"bike_id":"2ddb7626-06dc-4abf-976e-19ce121be91c","system_id":"levelo_inurba_marseille","lat":43.31708,"lon":5.3781,"is_reserved":false,"is_disabled":false,"rental_uris":{"android":"levelo://app?vid=2ddb7626-06dc-4abf-976e-19ce121be91c","ios":"levelo://app?vid=2ddb7626-06dc-4abf-976e-19ce121be91c"},"vehicle_type_id":"4","last_reported":1745475338,"current_range_meters":20400,"station_id":"ce4bgth2rcd13ifvqch0","pricing_plan_id":"cebpf4jnsgd1na2vs0mg"},{"bike_id":"182e60f2-4393-4c8e-a6eb-08f563a7c1f1","system_id":"levelo_inurba_marseille","lat":43.33024,"lon":5.39038,"is_reserved":false,"is_disabled":false,"rental_uris":{"android":"levelo://app?vid=182e60f2-4393-4c8e-a6eb-08f563a7c1f1","ios":"levelo://app?vid=182e60f2-4393-4c8e-a6eb-08f563a7c1f1"},"vehicle_type_id":"4","last_reported":1745475338,"current_range_meters":20400,"station_id":"ce4bhr92rcd13ifvqhrg","pricing_plan_id":"cebpf4jnsgd1na2vs0mg"},{"bike_id":"c5bfdf15-e412-4aa6-b1b4-54b63743150c","system_id":"levelo_inurba_marseille","lat":43.24071,"lon":5.37749,"is_reserved":false,"is_disabled":false,"rental_uris":{"android":"levelo://app?vid=c5bfdf15-e412-4aa6-b1b4-54b63743150c","ios":"levelo://app?vid=c5bfdf15-e412-4aa6-b1b4-54b63743150c"},"vehicle_type_id":"4","last_reported":1745475338,"current_range_meters":20400,"station_id":"ce4bhnp2rcd13ifvqgvg","pricing_plan_id":"cebpf4jnsgd1na2vs0mg"},{"bike_id":"2e870c22-d49c-4193-925f-3acd2b68b47b","system_id":"levelo_inurba_marseille","lat":43.299475,"lon":5.365672,"is_reserved":false,"is_disabled":false,"rental_uris":{"android":"levelo://app?vid=2e870c22-d49c-4193-925f-3acd2b68b47b","ios":"levelo://app?vid=2e870c22-d49c-4193-925f-3acd2b68b47b"},"vehicle_type_id":"4","last_reported":1745475338,"current_range_meters":20800,"station_id":"ce4bgjh2rcd13ifvqbf0","pricing_plan_id":"cebpf4jnsgd1na2vs0mg"},{"bike_id":"76a3c604-911f-4b0a-9b9f-b7e63de6ae77","system_id":"levelo_inurba_marseille","lat":43.3376,"lon":5.37482,"is_reserved":false,"is_disabled":false,"rental_uris":{"android":"levelo://app?vid=76a3c604-911f-4b0a-9b9f-b7e63de6ae77","ios":"levelo://app?vid=76a3c604-911f-4b0a-9b9f-b7e63de6ae77"},"vehicle_type_id":"4","last_reported":1745475338,"current_range_meters":20800,"station_id":"","pricing_plan_id":"cebpf4jnsgd1na2vs0mg"},{"bike_id":"900032bf-b5df-495b-b826-170effbd2d99","system_id":"levelo_inurba_marseille","lat":43.30724,"lon":5.42452,"is_reserved":false,"is_disabled":false,"rental_uris":{"android":"levelo://app?vid=900032bf-b5df-495b-b826-170effbd2d99","ios":"levelo://app?vid=900032bf-b5df-495b-b826-170effbd2d99"},"vehicle_type_id":"4","last_reported":1745475338,"current_range_meters":20800,"station_id":"st_cvj6ca6bvosntc0bfgr0","pricing_plan_id":"cebpf4jnsgd1na2vs0mg"},{"bike_id":"f1145dc9-d8e1-4409-98ed-8467011130f0","system_id":"levelo_inurba_marseille","lat":43.28165,"lon":5.42648,"is_reserved":false,"is_disabled":false,"rental_uris":{"android":"levelo://app?vid=f1145dc9-d8e1-4409-98ed-8467011130f0","ios":"levelo://app?vid=f1145dc9-d8e1-4409-98ed-8467011130f0"},"vehicle_type_id":"4","last_reported":1745475338,"current_range_meters":20800,"station_id":"ce4bhnh2rcd13ifvqgug","pricing_plan_id":"cebpf4jnsgd1na2vs0mg"},{"bike_id":"daae1748-0c61-45c8-871e-bef67a3a095b","system_id":"levelo_inurba_marseille","lat":43.284149,"lon":5.375037,"is_reserved":false,"is_disabled":false,"rental_uris":{"android":"levelo://app?vid=daae1748-0c61-45c8-871e-bef67a3a095b","ios":"levelo://app?vid=daae1748-0c61-45c8-871e-bef67a3a095b"},"vehicle_type_id":"4","last_reported":1745475338,"current_range_meters":22800,"station_id":"ce4bh412rcd13ifvqds0","pricing_plan_id":"cebpf4jnsgd1na2vs0mg"},{"bike_id":"42925da4-25cd-415d-8e86-83afb859f416","system_id":"levelo_inurba_marseille","lat":43.280774,"lon":5.38639,"is_reserved":false,"is_disabled":false,"rental_uris":{"android":"levelo://app?vid=42925da4-25cd-415d-8e86-83afb859f416","ios":"levelo://app?vid=42925da4-25cd-415d-8e86-83afb859f416"},"vehicle_type_id":"4","last_reported":1745475338,"current_range_meters":20800,"station_id":"ce4bhhp2rcd13ifvqfm0","pricing_plan_id":"cebpf4jnsgd1na2vs0mg"},{"bike_id":"78fdb1f2-201c-401d-9b37-2e0ecd708fff","system_id":"levelo_inurba_marseille","lat":43.29943,"lon":5.39452,"is_reserved":false,"is_disabled":false,"rental_uris":{"android":"levelo://app?vid=78fdb1f2-201c-401d-9b37-2e0ecd708fff","ios":"levelo://app?vid=78fdb1f2-201c-401d-9b37-2e0ecd708fff"},"vehicle_type_id":"4","last_reported":1745475338,"current_range_meters":20800,"station_id":"","pricing_plan_id":"cebpf4jnsgd1na2vs0mg"},{"bike_id":"a3e5a710-1e88-4136-aacf-04935ea38290","system_id":"levelo_inurba_marseille","lat":43.306062,"lon":5.393569,"is_reserved":false,"is_disabled":false,"rental_uris":{"android":"levelo://app?vid=a3e5a710-1e88-4136-aacf-04935ea38290","ios":"levelo://app?vid=a3e5a710-1e88-4136-aacf-04935ea38290"},"vehicle_type_id":"4","last_reported":1745475338,"current_range_meters":21600,"station_id":"","pricing_plan_id":"cebpf4jnsgd1na2vs0mg"},{"bike_id":"1bd7347e-9cd6-4ae4-aa08-e7b30b3bd9ab","system_id":"levelo_inurba_marseille","lat":43.27496,"lon":5.42451,"is_reserved":false,"is_disabled":false,"rental_uris":{"android":"levelo://app?vid=1bd7347e-9cd6-4ae4-aa08-e7b30b3bd9ab","ios":"levelo://app?vid=1bd7347e-9cd6-4ae4-aa08-e7b30b3bd9ab"},"vehicle_type_id":"4","last_reported":1745475338,"current_range_meters":21600,"station_id":"ce4bhn92rcd13ifvqgrg","pricing_plan_id":"cebpf4jnsgd1na2vs0mg"},{"bike_id":"9a1c0be7-bd1a-4081-ab84-3ef05258b407","system_id":"levelo_inurba_marseille","lat":43.23192,"lon":5.35584,"is_reserved":false,"is_disabled":false,"rental_uris":{"android":"levelo://app?vid=9a1c0be7-bd1a-4081-ab84-3ef05258b407","ios":"levelo://app?vid=9a1c0be7-bd1a-4081-ab84-3ef05258b407"},"vehicle_type_id":"4","last_reported":1745475338,"current_range_meters":21600,"station_id":"ce4bhu92rcd13ifvqi70","pricing_plan_id":"cebpf4jnsgd1na2vs0mg"},{"bike_id":"0511eaef-e620-4443-8c39-8b9425063ec4","system_id":"levelo_inurba_marseille","lat":43.290921,"lon":5.381657,"is_reserved":false,"is_disabled":true,"rental_uris":{"android":"levelo://app?vid=0511eaef-e620-4443-8c39-8b9425063ec4","ios":"levelo://app?vid=0511eaef-e620-4443-8c39-8b9425063ec4"},"vehicle_type_id":"4","last_reported":1745475338,"current_range_meters":21600,"station_id":"ce4bh512rcd13ifvqe2g","pricing_plan_id":"cebpf4jnsgd1na2vs0mg"},{"bike_id":"9741d7e4-c765-42eb-ac3b-ebe017a18c1f","system_id":"levelo_inurba_marseille","lat":43.30132,"lon":5.38806,"is_reserved":false,"is_disabled":false,"rental_uris":{"android":"levelo://app?vid=9741d7e4-c765-42eb-ac3b-ebe017a18c1f","ios":"levelo://app?vid=9741d7e4-c765-42eb-ac3b-ebe017a18c1f"},"vehicle_type_id":"4","last_reported":1745475338,"current_range_meters":21600,"station_id":"ce4bghh2rcd13ifvqb60","pricing_plan_id":"cebpf4jnsgd1na2vs0mg"},{"bike_id":"768baad3-7a55-4e3d-bc60-96f799eee7b3","system_id":"levelo_inurba_marseille","lat":43.27937,"lon":5.41039,"is_reserved":false,"is_disabled":false,"rental_uris":{"android":"levelo://app?vid=768baad3-7a55-4e3d-bc60-96f799eee7b3","ios":"levelo://app?vid=768baad3-7a55-4e3d-bc60-96f799eee7b3"},"vehicle_type_id":"4","last_reported":1745475338,"current_range_meters":21600,"station_id":"ce4bhnp2rcd13ifvqh0g","pricing_plan_id":"cebpf4jnsgd1na2vs0mg"},{"bike_id":"3301fe99-7d20-488d-9be8-957587c190fa","system_id":"levelo_inurba_marseille","lat":43.29785,"lon":5.381,"is_reserved":false,"is_disabled":false,"rental_uris":{"android":"levelo://app?vid=3301fe99-7d20-488d-9be8-957587c190fa","ios":"levelo://app?vid=3301fe99-7d20-488d-9be8-957587c190fa"},"vehicle_type_id":"4","last_reported":1745475338,"current_range_meters":21600,"station_id":"ce4bgip2rcd13ifvqbb0","pricing_plan_id":"cebpf4jnsgd1na2vs0mg"},{"bike_id":"c937e8e0-652f-44d4-87ad-87b71d189125","system_id":"levelo_inurba_marseille","lat":43.2893,"lon":5.36643,"is_reserved":false,"is_disabled":false,"rental_uris":{"android":"levelo://app?vid=c937e8e0-652f-44d4-87ad-87b71d189125","ios":"levelo://app?vid=c937e8e0-652f-44d4-87ad-87b71d189125"},"vehicle_type_id":"4","last_reported":1745475338,"current_range_meters":21600,"station_id":"ce4bhap2rcd13ifvqek0","pricing_plan_id":"cebpf4jnsgd1na2vs0mg"},{"bike_id":"4a61dbbe-e122-4e82-b2da-abf578dfe4ca","system_id":"levelo_inurba_marseille","lat":43.28278,"lon":5.35076,"is_reserved":false,"is_disabled":false,"rental_uris":{"android":"levelo://app?vid=4a61dbbe-e122-4e82-b2da-abf578dfe4ca","ios":"levelo://app?vid=4a61dbbe-e122-4e82-b2da-abf578dfe4ca"},"vehicle_type_id":"4","last_reported":1745475338,"current_range_meters":22000,"station_id":"","pricing_plan_id":"cebpf4jnsgd1na2vs0mg"},{"bike_id":"06a6ec8d-f1b4-4120-8203-729d3c0a21f3","system_id":"levelo_inurba_marseille","lat":43.240673,"lon":5.377686,"is_reserved":false,"is_disabled":false,"rental_uris":{"android":"levelo://app?vid=06a6ec8d-f1b4-4120-8203-729d3c0a21f3","ios":"levelo://app?vid=06a6ec8d-f1b4-4120-8203-729d3c0a21f3"},"vehicle_type_id":"4","last_reported":1745475338,"current_range_meters":22000,"station_id":"ce4bhnp2rcd13ifvqgvg","pricing_plan_id":"cebpf4jnsgd1na2vs0mg"},{"bike_id":"72d66dcf-b324-4348-b1a6-9cc61f0f6d08","system_id":"levelo_inurba_marseille","lat":43.31492,"lon":5.37313,"is_reserved":false,"is_disabled":false,"rental_uris":{"android":"levelo://app?vid=72d66dcf-b324-4348-b1a6-9cc61f0f6d08","ios":"levelo://app?vid=72d66dcf-b324-4348-b1a6-9cc61f0f6d08"},"vehicle_type_id":"4","last_reported":1745475338,"current_range_meters":22000,"station_id":"ce4bgt12rcd13ifvqcd0","pricing_plan_id":"cebpf4jnsgd1na2vs0mg"},{"bike_id":"b4743ed5-1c79-45a7-9bd0-3cd17e5a15b7","system_id":"levelo_inurba_marseille","lat":43.27312,"lon":5.39086,"is_reserved":false,"is_disabled":false,"rental_uris":{"android":"levelo://app?vid=b4743ed5-1c79-45a7-9bd0-3cd17e5a15b7","ios":"levelo://app?vid=b4743ed5-1c79-45a7-9bd0-3cd17e5a15b7"},"vehicle_type_id":"4","last_reported":1745475338,"current_range_meters":22000,"station_id":"ce4bhgp2rcd13ifvqfe0","pricing_plan_id":"cebpf4jnsgd1na2vs0mg"},{"bike_id":"066af90f-287e-48c8-b8cb-6eec10e0abbb","system_id":"levelo_inurba_marseille","lat":43.30534,"lon":5.3655,"is_reserved":false,"is_disabled":false,"rental_uris":{"android":"levelo://app?vid=066af90f-287e-48c8-b8cb-6eec10e0abbb","ios":"levelo://app?vid=066af90f-287e-48c8-b8cb-6eec10e0abbb"},"vehicle_type_id":"4","last_reported":1745475338,"current_range_meters":22000,"station_id":"ce4bgs12rcd13ifvqcag","pricing_plan_id":"cebpf4jnsgd1na2vs0mg"},{"bike_id":"a91328c8-da86-4e07-9d3b-fd61248b159e","system_id":"levelo_inurba_marseille","lat":43.24076,"lon":5.37757,"is_reserved":false,"is_disabled":false,"rental_uris":{"android":"levelo://app?vid=a91328c8-da86-4e07-9d3b-fd61248b159e","ios":"levelo://app?vid=a91328c8-da86-4e07-9d3b-fd61248b159e"},"vehicle_type_id":"4","last_reported":1745475338,"current_range_meters":22000,"station_id":"ce4bhnp2rcd13ifvqgvg","pricing_plan_id":"cebpf4jnsgd1na2vs0mg"},{"bike_id":"de176d11-fc50-43f3-85f2-db96c4b6be15","system_id":"levelo_inurba_marseille","lat":43.21195,"lon":5.35076,"is_reserved":false,"is_disabled":false,"rental_uris":{"android":"levelo://app?vid=de176d11-fc50-43f3-85f2-db96c4b6be15","ios":"levelo://app?vid=de176d11-fc50-43f3-85f2-db96c4b6be15"},"vehicle_type_id":"4","last_reported":1745475338,"current_range_meters":22000,"station_id":"st_cvj6sg6p6f1abm77japg","pricing_plan_id":"cebpf4jnsgd1na2vs0mg"},{"bike_id":"23af337b-dd73-4f86-9f81-ca98be6bef03","system_id":"levelo_inurba_marseille","lat":43.31216,"lon":5.36857,"is_reserved":false,"is_disabled":false,"rental_uris":{"android":"levelo://app?vid=23af337b-dd73-4f86-9f81-ca98be6bef03","ios":"levelo://app?vid=23af337b-dd73-4f86-9f81-ca98be6bef03"},"vehicle_type_id":"4","last_reported":1745475338,"current_range_meters":22400,"station_id":"ce4bgl92rcd13ifvqbq0","pricing_plan_id":"cebpf4jnsgd1na2vs0mg"},{"bike_id":"b9a0b8e1-f49f-4b78-864f-be5e25d4a18c","system_id":"levelo_inurba_marseille","lat":43.330644,"lon":5.408409,"is_reserved":false,"is_disabled":false,"rental_uris":{"android":"levelo://app?vid=b9a0b8e1-f49f-4b78-864f-be5e25d4a18c","ios":"levelo://app?vid=b9a0b8e1-f49f-4b78-864f-be5e25d4a18c"},"vehicle_type_id":"4","last_reported":1745475338,"current_range_meters":22400,"station_id":"","pricing_plan_id":"cebpf4jnsgd1na2vs0mg"},{"bike_id":"80b31bad-7233-406a-84bc-1e48c446522b","system_id":"levelo_inurba_marseille","lat":43.29633,"lon":5.40592,"is_reserved":false,"is_disabled":false,"rental_uris":{"android":"levelo://app?vid=80b31bad-7233-406a-84bc-1e48c446522b","ios":"levelo://app?vid=80b31bad-7233-406a-84bc-1e48c446522b"},"vehicle_type_id":"4","last_reported":1745475338,"current_range_meters":22000,"station_id":"ce4bh0h2rcd13ifvqd60","pricing_plan_id":"cebpf4jnsgd1na2vs0mg"},{"bike_id":"987d7900-bb2a-45cb-bed7-6d69f6fd4fa3","system_id":"levelo_inurba_marseille","lat":43.28482,"lon":5.38469,"is_reserved":false,"is_disabled":false,"rental_uris":{"android":"levelo://app?vid=987d7900-bb2a-45cb-bed7-6d69f6fd4fa3","ios":"levelo://app?vid=987d7900-bb2a-45cb-bed7-6d69f6fd4fa3"},"vehicle_type_id":"4","last_reported":1745475338,"current_range_meters":22400,"station_id":"ce4bh512rcd13ifvqe3g","pricing_plan_id":"cebpf4jnsgd1na2vs0mg"},{"bike_id":"b6112b7e-e1ed-463e-9099-29cb045e09f1","system_id":"levelo_inurba_marseille","lat":43.24066,"lon":5.37775,"is_reserved":false,"is_disabled":false,"rental_uris":{"android":"levelo://app?vid=b6112b7e-e1ed-463e-9099-29cb045e09f1","ios":"levelo://app?vid=b6112b7e-e1ed-463e-9099-29cb045e09f1"},"vehicle_type_id":"4","last_reported":1745475338,"current_range_meters":22400,"station_id":"ce4bhnp2rcd13ifvqgvg","pricing_plan_id":"cebpf4jnsgd1na2vs0mg"},{"bike_id":"0e8a9765-9123-400a-9dde-c10a67829f39","system_id":"levelo_inurba_marseille","lat":43.29044,"lon":5.38666,"is_reserved":false,"is_disabled":true,"rental_uris":{"android":"levelo://app?vid=0e8a9765-9123-400a-9dde-c10a67829f39","ios":"levelo://app?vid=0e8a9765-9123-400a-9dde-c10a67829f39"},"vehicle_type_id":"4","last_reported":1745475338,"current_range_meters":22400,"station_id":"ce4bh4p2rcd13ifvqe0g","pricing_plan_id":"cebpf4jnsgd1na2vs0mg"},{"bike_id":"64e6bd27-3e7d-4652-be5f-61b6f36c8b8f","system_id":"levelo_inurba_marseille","lat":43.29274,"lon":5.36837,"is_reserved":false,"is_disabled":false,"rental_uris":{"android":"levelo://app?vid=64e6bd27-3e7d-4652-be5f-61b6f36c8b8f","ios":"levelo://app?vid=64e6bd27-3e7d-4652-be5f-61b6f36c8b8f"},"vehicle_type_id":"4","last_reported":1745475338,"current_range_meters":22800,"station_id":"ce4bhbp2rcd13ifvqesg","pricing_plan_id":"cebpf4jnsgd1na2vs0mg"},{"bike_id":"829e6027-c98c-4052-9336-7fe801b0bc22","system_id":"levelo_inurba_marseille","lat":43.231489,"lon":5.436964,"is_reserved":false,"is_disabled":true,"rental_uris":{"android":"levelo://app?vid=829e6027-c98c-4052-9336-7fe801b0bc22","ios":"levelo://app?vid=829e6027-c98c-4052-9336-7fe801b0bc22"},"vehicle_type_id":"4","last_reported":1745475338,"current_range_meters":22800,"station_id":"ce4bhmp2rcd13ifvqgog","pricing_plan_id":"cebpf4jnsgd1na2vs0mg"},{"bike_id":"24cc67cc-7c2f-416f-a41f-d6e69cf810ec","system_id":"levelo_inurba_marseille","lat":43.29659,"lon":5.4066,"is_reserved":false,"is_disabled":true,"rental_uris":{"android":"levelo://app?vid=24cc67cc-7c2f-416f-a41f-d6e69cf810ec","ios":"levelo://app?vid=24cc67cc-7c2f-416f-a41f-d6e69cf810ec"},"vehicle_type_id":"4","last_reported":1745475338,"current_range_meters":22800,"station_id":"","pricing_plan_id":"cebpf4jnsgd1na2vs0mg"},{"bike_id":"8f4fa213-93c1-4a09-bd9b-59e348745020","system_id":"levelo_inurba_marseille","lat":43.30464,"lon":5.37912,"is_reserved":false,"is_disabled":false,"rental_uris":{"android":"levelo://app?vid=8f4fa213-93c1-4a09-bd9b-59e348745020","ios":"levelo://app?vid=8f4fa213-93c1-4a09-bd9b-59e348745020"},"vehicle_type_id":"4","last_reported":1745475338,"current_range_meters":22800,"station_id":"ce4bgup2rcd13ifvqcn0","pricing_plan_id":"cebpf4jnsgd1na2vs0mg"},{"bike_id":"f268b92a-2a30-4ec5-84ec-ab7475fb5a4e","system_id":"levelo_inurba_marseille","lat":43.28931,"lon":5.36643,"is_reserved":false,"is_disabled":false,"rental_uris":{"android":"levelo://app?vid=f268b92a-2a30-4ec5-84ec-ab7475fb5a4e","ios":"levelo://app?vid=f268b92a-2a30-4ec5-84ec-ab7475fb5a4e"},"vehicle_type_id":"4","last_reported":1745475338,"current_range_meters":22800,"station_id":"ce4bhap2rcd13ifvqek0","pricing_plan_id":"cebpf4jnsgd1na2vs0mg"},{"bike_id":"4beaabb6-cc41-49bb-a28c-23b46f928de0","system_id":"levelo_inurba_marseille","lat":43.24075,"lon":5.37755,"is_reserved":false,"is_disabled":false,"rental_uris":{"android":"levelo://app?vid=4beaabb6-cc41-49bb-a28c-23b46f928de0","ios":"levelo://app?vid=4beaabb6-cc41-49bb-a28c-23b46f928de0"},"vehicle_type_id":"4","last_reported":1745475338,"current_range_meters":22800,"station_id":"ce4bhnp2rcd13ifvqgvg","pricing_plan_id":"cebpf4jnsgd1na2vs0mg"},{"bike_id":"7572e34d-53ea-4db6-9ac9-10bba1ba19cd","system_id":"levelo_inurba_marseille","lat":43.28942,"lon":5.36643,"is_reserved":false,"is_disabled":false,"rental_uris":{"android":"levelo://app?vid=7572e34d-53ea-4db6-9ac9-10bba1ba19cd","ios":"levelo://app?vid=7572e34d-53ea-4db6-9ac9-10bba1ba19cd"},"vehicle_type_id":"4","last_reported":1745475338,"current_range_meters":23200,"station_id":"ce4bhap2rcd13ifvqek0","pricing_plan_id":"cebpf4jnsgd1na2vs0mg"},{"bike_id":"b7eeb9eb-38a3-47dd-aeb5-f4cbf8ae338a","system_id":"levelo_inurba_marseille","lat":43.24076,"lon":5.37759,"is_reserved":false,"is_disabled":false,"rental_uris":{"android":"levelo://app?vid=b7eeb9eb-38a3-47dd-aeb5-f4cbf8ae338a","ios":"levelo://app?vid=b7eeb9eb-38a3-47dd-aeb5-f4cbf8ae338a"},"vehicle_type_id":"4","last_reported":1745475338,"current_range_meters":23200,"station_id":"ce4bhnp2rcd13ifvqgvg","pricing_plan_id":"cebpf4jnsgd1na2vs0mg"},{"bike_id":"e4612877-ace1-404f-96db-ed4575653881","system_id":"levelo_inurba_marseille","lat":43.25084,"lon":5.39526,"is_reserved":false,"is_disabled":false,"rental_uris":{"android":"levelo://app?vid=e4612877-ace1-404f-96db-ed4575653881","ios":"levelo://app?vid=e4612877-ace1-404f-96db-ed4575653881"},