{"last_updated":1727075378,"ttl":30,"version":"2.2","data":{"bikes":[{"bike_id":"f5c238ac-7405-44c2-9675-f88338a58a7a","system_id":"levelo_inurba_marseille","lat":43.30464,"lon":5.37906,"is_reserved":false,"is_disabled":false,"rental_uris":{"android":"levelo://app?vid=f5c238ac-7405-44c2-9675-f88338a58a7a","ios":"levelo://app?vid=f5c238ac-7405-44c2-9675-f88338a58a7a"},"vehicle_type_id":"4","last_reported":1727075378,"current_range_meters":38000,"station_id":"ce4bgup2rcd13ifvqcn0","pricing_plan_id":"cebpf4jnsgd1na2vs0mg"},{"bike_id":"6eb7f531-9740-4e0f-b657-d61ca2788893","system_id":"levelo_inurba_marseille","lat":43.27489,"lon":5.4246,"is_reserved":false,"is_disabled":false,"rental_uris":{"android":"levelo://app?vid=6eb7f531-9740-4e0f-b657-d61ca2788893","ios":"levelo://app?vid=6eb7f531-9740-4e0f-b657-d61ca2788893"},"vehicle_type_id":"4","last_reported":1727075378,"current_range_meters":11200,"station_id":"ce4bhn92rcd13ifvqgrg","pricing_plan_id":"cebpf4jnsgd1na2vs0mg"},{"bike_id":"aff0c6cb-554e-4b16-8e39-06587389be86","system_id":"levelo_inurba_marseille","lat":43.30462,"lon":5.37907,"is_reserved":false,"is_disabled":false,"rental_uris":{"android":"levelo://app?vid=aff0c6cb-554e-4b16-8e39-06587389be86","ios":"levelo://app?vid=aff0c6cb-554e-4b16-8e39-06587389be86"},"vehicle_type_id":"4","last_reported":1727075378,"current_range_meters":38800,"station_id":"ce4bgup2rcd13ifvqcn0","pricing_plan_id":"cebpf4jnsgd1na2vs0mg"},{"bike_id":"c3092ca8-ae64-4d17-8b92-19e1ce991720","system_id":"levelo_inurba_marseille","lat":43.26063,"lon":5.39393,"is_reserved":false,"is_disabled":false,"rental_uris":{"android":"levelo://app?vid=c3092ca8-ae64-4d17-8b92-19e1ce991720","ios":"levelo://app?vid=c3092ca8-ae64-4d17-8b92-19e1ce991720"},"vehicle_type_id":"4","last_reported":1727075378,"current_range_meters":29600,"station_id":"ce4bhh92rcd13ifvqfj0","pricing_plan_id":"cebpf4jnsgd1na2vs0mg"},{"bike_id":"9e43c38d-5c31-4897-9250-98fe8157efc3","system_id":"levelo_inurba_marseille","lat":43.304618,"lon":5.379026,"is_reserved":false,"is_disabled":false,"rental_uris":{"android":"levelo://app?vid=9e43c38d-5c31-4897-9250-98fe8157efc3","ios":"levelo://app?vid=9e43c38d-5c31-4897-9250-98fe8157efc3"},"vehicle_type_id":"4","last_reported":1727075378,"current_range_meters":36800,"station_id":"ce4bgup2rcd13ifvqcn0","pricing_plan_id":"cebpf4jnsgd1na2vs0mg"},{"bike_id":"38f086e7-87b9-4687-8d85-72b03bf6fe03","system_id":"levelo_inurba_marseille","lat":43.30456,"lon":5.37906,"is_reserved":false,"is_disabled":false,"rental_uris":{"android":"levelo://app?vid=38f086e7-87b9-4687-8d85-72b03bf6fe03","ios":"levelo://app?vid=38f086e7-87b9-4687-8d85-72b03bf6fe03"},"vehicle_type_id":"4","last_reported":1727075378,"current_range_meters":30400,"station_id":"","pricing_plan_id":"cebpf4jnsgd1na2vs0mg"},{"bike_id":"6dfa310a-14c6-42c3-9bbb-30ff49a55f5d","system_id":"levelo_inurba_marseille","lat":43.27054,"lon":5.40282,"is_reserved":false,"is_disabled":false,"rental_uris":{"android":"levelo://app?vid=6dfa310a-14c6-42c3-9bbb-30ff49a55f5d","ios":"levelo://app?vid=6dfa310a-14c6-42c3-9bbb-30ff49a55f5d"},"vehicle_type_id":"4","last_reported":1727075378,"current_range_meters":36800,"station_id":"ce4bhk92rcd13ifvqgc0","pricing_plan_id":"cebpf4jnsgd1na2vs0mg"},{"bike_id":"184b35f6-f4a6-413f-818e-4fcb736211a1","system_id":"levelo_inurba_marseille","lat":43.32655,"lon":5.4099,"is_reserved":false,"is_disabled":false,"rental_uris":{"android":"levelo://app?vid=184b35f6-f4a6-413f-818e-4fcb736211a1","ios":"levelo://app?vid=184b35f6-f4a6-413f-818e-4fcb736211a1"},"vehicle_type_id":"4","last_reported":1727075378,"current_range_meters":28000,"station_id":"ce4bhpp2rcd13ifvqhgg","pricing_plan_id":"cebpf4jnsgd1na2vs0mg"},{"bike_id":"433b0daf-7543-4186-817f-8e74dac7e53f","system_id":"levelo_inurba_marseille","lat":43.31347,"lon":5.36715,"is_reserved":false,"is_disabled":false,"rental_uris":{"android":"levelo://app?vid=433b0daf-7543-4186-817f-8e74dac7e53f","ios":"levelo://app?vid=433b0daf-7543-4186-817f-8e74dac7e53f"},"vehicle_type_id":"4","last_reported":1727075378,"current_range_meters":30800,"station_id":"ce4bgr92rcd13ifvqc6g","pricing_plan_id":"cebpf4jnsgd1na2vs0mg"},{"bike_id":"81830c18-e131-43ad-900e-55ed91b5eea5","system_id":"levelo_inurba_marseille","lat":43.23965,"lon":5.36629,"is_reserved":false,"is_disabled":false,"rental_uris":{"android":"levelo://app?vid=81830c18-e131-43ad-900e-55ed91b5eea5","ios":"levelo://app?vid=81830c18-e131-43ad-900e-55ed91b5eea5"},"vehicle_type_id":"4","last_reported":1727075378,"current_range_meters":32800,"station_id":"ce4bhi12rcd13ifvqfp0","pricing_plan_id":"cebpf4jnsgd1na2vs0mg"},{"bike_id":"8e9dbe5d-8399-4ef6-909d-920d5b3547a6","system_id":"levelo_inurba_marseille","lat":43.32533,"lon":5.41434,"is_reserved":false,"is_disabled":false,"rental_uris":{"android":"levelo://app?vid=8e9dbe5d-8399-4ef6-909d-920d5b3547a6","ios":"levelo://app?vid=8e9dbe5d-8399-4ef6-909d-920d5b3547a6"},"vehicle_type_id":"4","last_reported":1727075378,"current_range_meters":29600,"station_id":"ce4bhq12rcd13ifvqhhg","pricing_plan_id":"cebpf4jnsgd1na2vs0mg"},{"bike_id":"efea74de-fc6c-456d-9885-a54fffb99ebe","system_id":"levelo_inurba_marseille","lat":43.302,"lon":5.36633,"is_reserved":false,"is_disabled":false,"rental_uris":{"android":"levelo://app?vid=efea74de-fc6c-456d-9885-a54fffb99ebe","ios":"levelo://app?vid=efea74de-fc6c-456d-9885-a54fffb99ebe"},"vehicle_type_id":"4","last_reported":1727075378,"current_range_meters":3200,"station_id":"ce4bgrh2rcd13ifvqc8g","pricing_plan_id":"cebpf4jnsgd1na2vs0mg"},{"bike_id":"fdae784e-cbba-4992-8883-fae0b0354ec0","system_id":"levelo_inurba_marseille","lat":43.31716,"lon":5.43704,"is_reserved":false,"is_disabled":false,"rental_uris":{"android":"levelo://app?vid=fdae784e-cbba-4992-8883-fae0b0354ec0","ios":"levelo://app?vid=fdae784e-cbba-4992-8883-fae0b0354ec0"},"vehicle_type_id":"4","last_reported":1727075378,"current_range_meters":16400,"station_id":"ce4bhp92rcd13ifvqhcg","pricing_plan_id":"cebpf4jnsgd1na2vs0mg"},{"bike_id":"526b20eb-a75f-40c5-bb76-a03dedac1a2d","system_id":"levelo_inurba_marseille","lat":43.29525,"lon":5.37507,"is_reserved":false,"is_disabled":false,"rental_uris":{"android":"levelo://app?vid=526b20eb-a75f-40c5-bb76-a03dedac1a2d","ios":"levelo://app?vid=526b20eb-a75f-40c5-bb76-a03dedac1a2d"},"vehicle_type_id":"4","last_reported":1727075378,"current_range_meters":12800,"station_id":"ce4bgkp2rcd13ifvqbmg","pricing_plan_id":"cebpf4jnsgd1na2vs0mg"},{"bike_id":"6b97b311-01f6-4da4-8541-32e924b4d4c5","system_id":"levelo_inurba_marseille","lat":43.26674,"lon":5.38266,"is_reserved":false,"is_disabled":false,"rental_uris":{"android":"levelo://app?vid=6b97b311-01f6-4da4-8541-32e924b4d4c5","ios":"levelo://app?vid=6b97b311-01f6-4da4-8541-32e924b4d4c5"},"vehicle_type_id":"4","last_reported":1727075378,"current_range_meters":38800,"station_id":"ce4bhg92rcd13ifvqf90","pricing_plan_id":"cebpf4jnsgd1na2vs0mg"},{"bike_id":"dfecea0a-0422-4bc0-a57a-bf86bc071c86","system_id":"levelo_inurba_marseille","lat":43.25933,"lon":5.40908,"is_reserved":false,"is_disabled":false,"rental_uris":{"android":"levelo://app?vid=dfecea0a-0422-4bc0-a57a-bf86bc071c86","ios":"levelo://app?vid=dfecea0a-0422-4bc0-a57a-bf86bc071c86"},"vehicle_type_id":"4","last_reported":1727075378,"current_range_meters":24800,"station_id":"ce4bhm92rcd13ifvqglg","pricing_plan_id":"cebpf4jnsgd1na2vs0mg"},{"bike_id":"a1df6bef-8573-4247-ad4b-de77871636bc","system_id":"levelo_inurba_marseille","lat":43.30301,"lon":5.36918,"is_reserved":false,"is_disabled":false,"rental_uris":{"android":"levelo://app?vid=a1df6bef-8573-4247-ad4b-de77871636bc","ios":"levelo://app?vid=a1df6bef-8573-4247-ad4b-de77871636bc"},"vehicle_type_id":"4","last_reported":1727075378,"current_range_meters":38400,"station_id":"ce4bgqh2rcd13ifvqc5g","pricing_plan_id":"cebpf4jnsgd1na2vs0mg"},{"bike_id":"9e491187-6eae-4713-bd6c-e99251300247","system_id":"levelo_inurba_marseille","lat":43.2594,"lon":5.40894,"is_reserved":false,"is_disabled":false,"rental_uris":{"android":"levelo://app?vid=9e491187-6eae-4713-bd6c-e99251300247","ios":"levelo://app?vid=9e491187-6eae-4713-bd6c-e99251300247"},"vehicle_type_id":"4","last_reported":1727075378,"current_range_meters":27600,"station_id":"ce4bhm92rcd13ifvqglg","pricing_plan_id":"cebpf4jnsgd1na2vs0mg"},{"bike_id":"c7ebaf1d-9bbb-4102-9546-357e6ac2ba4a","system_id":"levelo_inurba_marseille","lat":43.304627,"lon":5.379113,"is_reserved":false,"is_disabled":false,"rental_uris":{"android":"levelo://app?vid=c7ebaf1d-9bbb-4102-9546-357e6ac2ba4a","ios":"levelo://app?vid=c7ebaf1d-9bbb-4102-9546-357e6ac2ba4a"},"vehicle_type_id":"4","last_reported":1727075378,"current_range_meters":14800,"station_id":"ce4bh512rcd13ifvqe3g","pricing_plan_id":"cebpf4jnsgd1na2vs0mg"},{"bike_id":"21f01d4f-f3c5-4ee0-a57c-e86be825f570","system_id":"levelo_inurba_marseille","lat":43.289429,"lon":5.363903,"is_reserved":false,"is_disabled":false,"rental_uris":{"android":"levelo://app?vid=21f01d4f-f3c5-4ee0-a57c-e86be825f570","ios":"levelo://app?vid=21f01d4f-f3c5-4ee0-a57c-e86be825f570"},"vehicle_type_id":"4","last_reported":1727075378,"current_range_meters":34000,"station_id":"ce4bhbp2rcd13ifvqerg","pricing_plan_id":"cebpf4jnsgd1na2vs0mg"},{"bike_id":"20a042f1-81aa-4cde-8548-4f002e395336","system_id":"levelo_inurba_marseille","lat":43.30198,"lon":5.39839,"is_reserved":false,"is_disabled":false,"rental_uris":{"android":"levelo://app?vid=20a042f1-81aa-4cde-8548-4f002e395336","ios":"levelo://app?vid=20a042f1-81aa-4cde-8548-4f002e395336"},"vehicle_type_id":"4","last_reported":1727075378,"current_range_meters":33600,"station_id":"ce4bgvp2rcd13ifvqct0","pricing_plan_id":"cebpf4jnsgd1na2vs0mg"},{"bike_id":"ecad1443-9a19-423b-a944-44b9cff9c66b","system_id":"levelo_inurba_marseille","lat":43.27489,"lon":5.42448,"is_reserved":false,"is_disabled":false,"rental_uris":{"android":"levelo://app?vid=ecad1443-9a19-423b-a944-44b9cff9c66b","ios":"levelo://app?vid=ecad1443-9a19-423b-a944-44b9cff9c66b"},"vehicle_type_id":"4","last_reported":1727075378,"current_range_meters":28400,"station_id":"ce4bhn92rcd13ifvqgrg","pricing_plan_id":"cebpf4jnsgd1na2vs0mg"},{"bike_id":"d50713dc-a63f-4b72-9699-b87f071005a8","system_id":"levelo_inurba_marseille","lat":43.26559,"lon":5.37282,"is_reserved":false,"is_disabled":false,"rental_uris":{"android":"levelo://app?vid=d50713dc-a63f-4b72-9699-b87f071005a8","ios":"levelo://app?vid=d50713dc-a63f-4b72-9699-b87f071005a8"},"vehicle_type_id":"4","last_reported":1727075378,"current_range_meters":28800,"station_id":"ce4bhg12rcd13ifvqf70","pricing_plan_id":"cebpf4jnsgd1na2vs0mg"},{"bike_id":"f490f488-1f0e-45bf-b06b-2a8cc8f44dbb","system_id":"levelo_inurba_marseille","lat":43.27491,"lon":5.42455,"is_reserved":false,"is_disabled":false,"rental_uris":{"android":"levelo://app?vid=f490f488-1f0e-45bf-b06b-2a8cc8f44dbb","ios":"levelo://app?vid=f490f488-1f0e-45bf-b06b-2a8cc8f44dbb"},"vehicle_type_id":"4","last_reported":1727075378,"current_range_meters":16000,"station_id":"ce4bhn92rcd13ifvqgrg","pricing_plan_id":"cebpf4jnsgd1na2vs0mg"},{"bike_id":"3a7ed549-316a-4df9-aff1-920d808cad7e","system_id":"levelo_inurba_marseille","lat":43.3054,"lon":5.36532,"is_reserved":false,"is_disabled":false,"rental_uris":{"android":"levelo://app?vid=3a7ed549-316a-4df9-aff1-920d808cad7e","ios":"levelo://app?vid=3a7ed549-316a-4df9-aff1-920d808cad7e"},"vehicle_type_id":"4","last_reported":1727075378,"current_range_meters":26800,"station_id":"ce4bgs12rcd13ifvqcag","pricing_plan_id":"cebpf4jnsgd1na2vs0mg"},{"bike_id":"9e25498b-f602-4b8f-935c-f8e52df9201a","system_id":"levelo_inurba_marseille","lat":43.27813,"lon":5.40725,"is_reserved":false,"is_disabled":false,"rental_uris":{"android":"levelo://app?vid=9e25498b-f602-4b8f-935c-f8e52df9201a","ios":"levelo://app?vid=9e25498b-f602-4b8f-935c-f8e52df9201a"},"vehicle_type_id":"4","last_reported":1727075378,"current_range_meters":11200,"station_id":"ce4bhnh2rcd13ifvqgtg","pricing_plan_id":"cebpf4jnsgd1na2vs0mg"},{"bike_id":"0714da29-a0a1-42a1-abb8-0bde4d975694","system_id":"levelo_inurba_marseille","lat":43.30138,"lon":5.37415,"is_reserved":false,"is_disabled":false,"rental_uris":{"android":"levelo://app?vid=0714da29-a0a1-42a1-abb8-0bde4d975694","ios":"levelo://app?vid=0714da29-a0a1-42a1-abb8-0bde4d975694"},"vehicle_type_id":"4","last_reported":1727075378,"current_range_meters":28000,"station_id":"ce4bgs92rcd13ifvqcc0","pricing_plan_id":"cebpf4jnsgd1na2vs0mg"},{"bike_id":"8c174498-b846-405d-a78b-746976f46acb","system_id":"levelo_inurba_marseille","lat":43.31497,"lon":5.37306,"is_reserved":false,"is_disabled":false,"rental_uris":{"android":"levelo://app?vid=8c174498-b846-405d-a78b-746976f46acb","ios":"levelo://app?vid=8c174498-b846-405d-a78b-746976f46acb"},"vehicle_type_id":"4","last_reported":1727075378,"current_range_meters":38800,"station_id":"ce4bgt12rcd13ifvqcd0","pricing_plan_id":"cebpf4jnsgd1na2vs0mg"},{"bike_id":"c07fce87-525e-4e21-9516-0f2e830a5ac7","system_id":"levelo_inurba_marseille","lat":43.309357,"lon":5.390353,"is_reserved":false,"is_disabled":false,"rental_uris":{"android":"levelo://app?vid=c07fce87-525e-4e21-9516-0f2e830a5ac7","ios":"levelo://app?vid=c07fce87-525e-4e21-9516-0f2e830a5ac7"},"vehicle_type_id":"4","last_reported":1727075378,"current_range_meters":24800,"station_id":"ce4bgup2rcd13ifvqco0","pricing_plan_id":"cebpf4jnsgd1na2vs0mg"},{"bike_id":"a8927790-dced-405e-8d14-212d7c49adb5","system_id":"levelo_inurba_marseille","lat":43.30541,"lon":5.38432,"is_reserved":false,"is_disabled":false,"rental_uris":{"android":"levelo://app?vid=a8927790-dced-405e-8d14-212d7c49adb5","ios":"levelo://app?vid=a8927790-dced-405e-8d14-212d7c49adb5"},"vehicle_type_id":"4","last_reported":1727075378,"current_range_meters":38000,"station_id":"ce4bgg92rcd13ifvqb30","pricing_plan_id":"cebpf4jnsgd1na2vs0mg"},{"bike_id":"bf9495db-1220-4cb4-9d3f-7433d3b4f386","system_id":"levelo_inurba_marseille","lat":43.28266,"lon":5.35059,"is_reserved":false,"is_disabled":false,"rental_uris":{"android":"levelo://app?vid=bf9495db-1220-4cb4-9d3f-7433d3b4f386","ios":"levelo://app?vid=bf9495db-1220-4cb4-9d3f-7433d3b4f386"},"vehicle_type_id":"4","last_reported":1727075378,"current_range_meters":38400,"station_id":"ce4bhbp2rcd13ifvqerg","pricing_plan_id":"cebpf4jnsgd1na2vs0mg"},{"bike_id":"d2f4e5aa-2e0d-453f-b494-5652d2ebdb60","system_id":"levelo_inurba_marseille","lat":43.24999,"lon":5.38928,"is_reserved":false,"is_disabled":false,"rental_uris":{"android":"levelo://app?vid=d2f4e5aa-2e0d-453f-b494-5652d2ebdb60","ios":"levelo://app?vid=d2f4e5aa-2e0d-453f-b494-5652d2ebdb60"},"vehicle_type_id":"4","last_reported":1727075378,"current_range_meters":35200,"station_id":"ce4bhgp2rcd13ifvqfd0","pricing_plan_id":"cebpf4jnsgd1na2vs0mg"},{"bike_id":"e35f0e97-2b9f-438d-b1bc-2da44bc851c0","system_id":"levelo_inurba_marseille","lat":43.31711,"lon":5.43704,"is_reserved":false,"is_disabled":false,"rental_uris":{"android":"levelo://app?vid=e35f0e97-2b9f-438d-b1bc-2da44bc851c0","ios":"levelo://app?vid=e35f0e97-2b9f-438d-b1bc-2da44bc851c0"},"vehicle_type_id":"4","last_reported":1727075378,"current_range_meters":38800,"station_id":"ce4bhp92rcd13ifvqhcg","pricing_plan_id":"cebpf4jnsgd1na2vs0mg"},{"bike_id":"239ec48f-994b-4040-8039-b9729ee0db86","system_id":"levelo_inurba_marseille","lat":43.24077,"lon":5.37746,"is_reserved":false,"is_disabled":false,"rental_uris":{"android":"levelo://app?vid=239ec48f-994b-4040-8039-b9729ee0db86","ios":"levelo://app?vid=239ec48f-994b-4040-8039-b9729ee0db86"},"vehicle_type_id":"4","last_reported":1727075378,"current_range_meters":31200,"station_id":"ce4bhnp2rcd13ifvqgvg","pricing_plan_id":"cebpf4jnsgd1na2vs0mg"},{"bike_id":"196d5913-09ba-4f5f-a44d-37ca72633505","system_id":"levelo_inurba_marseille","lat":43.314728,"lon":5.372886,"is_reserved":false,"is_disabled":false,"rental_uris":{"android":"levelo://app?vid=196d5913-09ba-4f5f-a44d-37ca72633505","ios":"levelo://app?vid=196d5913-09ba-4f5f-a44d-37ca72633505"},"vehicle_type_id":"4","last_reported":1727075378,"current_range_meters":31200,"station_id":"ce4bgt12rcd13ifvqcd0","pricing_plan_id":"cebpf4jnsgd1na2vs0mg"},{"bike_id":"87801148-94d1-4bd8-ae45-d2a18e6c4bd6","system_id":"levelo_inurba_marseille","lat":43.281555,"lon":5.372041,"is_reserved":false,"is_disabled":false,"rental_uris":{"android":"levelo://app?vid=87801148-94d1-4bd8-ae45-d2a18e6c4bd6","ios":"levelo://app?vid=87801148-94d1-4bd8-ae45-d2a18e6c4bd6"},"vehicle_type_id":"4","last_reported":1727075378,"current_range_meters":35200,"station_id":"","pricing_plan_id":"cebpf4jnsgd1na2vs0mg"},{"bike_id":"7d47dc26-ff90-4064-9c81-d84f45b89463","system_id":"levelo_inurba_marseille","lat":43.26549,"lon":5.37286,"is_reserved":false,"is_disabled":false,"rental_uris":{"android":"levelo://app?vid=7d47dc26-ff90-4064-9c81-d84f45b89463","ios":"levelo://app?vid=7d47dc26-ff90-4064-9c81-d84f45b89463"},"vehicle_type_id":"4","last_reported":1727075378,"current_range_meters":16400,"station_id":"ce4bhg12rcd13ifvqf70","pricing_plan_id":"cebpf4jnsgd1na2vs0mg"},{"bike_id":"a0edd235-9112-4738-ae17-f58c690ab2f4","system_id":"levelo_inurba_marseille","lat":43.32484,"lon":5.36556,"is_reserved":false,"is_disabled":false,"rental_uris":{"android":"levelo://app?vid=a0edd235-9112-4738-ae17-f58c690ab2f4","ios":"levelo://app?vid=a0edd235-9112-4738-ae17-f58c690ab2f4"},"vehicle_type_id":"4","last_reported":1727075378,"current_range_meters":33200,"station_id":"ce4bhs12rcd13ifvqhvg","pricing_plan_id":"cebpf4jnsgd1na2vs0mg"},{"bike_id":"1f2ffeb2-701e-45ba-8c52-e42e4286e03a","system_id":"levelo_inurba_marseille","lat":43.269557,"lon":5.386315,"is_reserved":false,"is_disabled":false,"rental_uris":{"android":"levelo://app?vid=1f2ffeb2-701e-45ba-8c52-e42e4286e03a","ios":"levelo://app?vid=1f2ffeb2-701e-45ba-8c52-e42e4286e03a"},"vehicle_type_id":"4","last_reported":1727075378,"current_range_meters":12800,"station_id":"ce4bhh92rcd13ifvqfh0","pricing_plan_id":"cebpf4jnsgd1na2vs0mg"},{"bike_id":"81edc5e0-76e2-457d-afca-45dbe08c42e3","system_id":"levelo_inurba_marseille","lat":43.29275,"lon":5.40116,"is_reserved":false,"is_disabled":false,"rental_uris":{"android":"levelo://app?vid=81edc5e0-76e2-457d-afca-45dbe08c42e3","ios":"levelo://app?vid=81edc5e0-76e2-457d-afca-45dbe08c42e3"},"vehicle_type_id":"4","last_reported":1727075378,"current_range_meters":5600,"station_id":"ce4bh312rcd13ifvqdk0","pricing_plan_id":"cebpf4jnsgd1na2vs0mg"},{"bike_id":"3c079497-4f0f-4dd3-8bef-c3f7cdf08ea0","system_id":"levelo_inurba_marseille","lat":43.2407,"lon":5.37763,"is_reserved":false,"is_disabled":false,"rental_uris":{"android":"levelo://app?vid=3c079497-4f0f-4dd3-8bef-c3f7cdf08ea0","ios":"levelo://app?vid=3c079497-4f0f-4dd3-8bef-c3f7cdf08ea0"},"vehicle_type_id":"4","last_reported":1727075378,"current_range_meters":36800,"station_id":"ce4bhnp2rcd13ifvqgvg","pricing_plan_id":"cebpf4jnsgd1na2vs0mg"},{"bike_id":"e68b94cf-f394-4560-9c0b-52865583d26a","system_id":"levelo_inurba_marseille","lat":43.23184,"lon":5.39984,"is_reserved":false,"is_disabled":false,"rental_uris":{"android":"levelo://app?vid=e68b94cf-f394-4560-9c0b-52865583d26a","ios":"levelo://app?vid=e68b94cf-f394-4560-9c0b-52865583d26a"},"vehicle_type_id":"4","last_reported":1727075378,"current_range_meters":14000,"station_id":"ce4bhn12rcd13ifvqgqg","pricing_plan_id":"cebpf4jnsgd1na2vs0mg"},{"bike_id":"860c8e9d-4001-4aaa-b1f1-ab02b2cccfa4","system_id":"levelo_inurba_marseille","lat":43.32476,"lon":5.36572,"is_reserved":false,"is_disabled":false,"rental_uris":{"android":"levelo://app?vid=860c8e9d-4001-4aaa-b1f1-ab02b2cccfa4","ios":"levelo://app?vid=860c8e9d-4001-4aaa-b1f1-ab02b2cccfa4"},"vehicle_type_id":"4","last_reported":1727075378,"current_range_meters":25200,"station_id":"ce4bhs12rcd13ifvqhvg","pricing_plan_id":"cebpf4jnsgd1na2vs0mg"},{"bike_id":"11658d4c-2567-4b0f-8e71-8ec83d6896ed","system_id":"levelo_inurba_marseille","lat":43.30533,"lon":5.36534,"is_reserved":false,"is_disabled":false,"rental_uris":{"android":"levelo://app?vid=11658d4c-2567-4b0f-8e71-8ec83d6896ed","ios":"levelo://app?vid=11658d4c-2567-4b0f-8e71-8ec83d6896ed"},"vehicle_type_id":"4","last_reported":1727075378,"current_range_meters":27600,"station_id":"ce4bgs12rcd13ifvqcag","pricing_plan_id":"cebpf4jnsgd1na2vs0mg"},{"bike_id":"20599fda-93e8-4f0a-8767-2870330651f5","system_id":"levelo_inurba_marseille","lat":43.28148,"lon":5.42636,"is_reserved":false,"is_disabled":false,"rental_uris":{"android":"levelo://app?vid=20599fda-93e8-4f0a-8767-2870330651f5","ios":"levelo://app?vid=20599fda-93e8-4f0a-8767-2870330651f5"},"vehicle_type_id":"4","last_reported":1727075378,"current_range_meters":10800,"station_id":"ce4bhnh2rcd13ifvqgug","pricing_plan_id":"cebpf4jnsgd1na2vs0mg"},{"bike_id":"4e6397ee-5ee7-4854-a607-e704dc08b16d","system_id":"levelo_inurba_marseille","lat":43.296,"lon":5.37705,"is_reserved":false,"is_disabled":false,"rental_uris":{"android":"levelo://app?vid=4e6397ee-5ee7-4854-a607-e704dc08b16d","ios":"levelo://app?vid=4e6397ee-5ee7-4854-a607-e704dc08b16d"},"vehicle_type_id":"4","last_reported":1727075378,"current_range_meters":24000,"station_id":"ce4bgi92rcd13ifvqb90","pricing_plan_id":"cebpf4jnsgd1na2vs0mg"},{"bike_id":"3ebaaaec-15d2-494c-ab9e-13e8bcbe1874","system_id":"levelo_inurba_marseille","lat":43.29276,"lon":5.3686,"is_reserved":false,"is_disabled":false,"rental_uris":{"android":"levelo://app?vid=3ebaaaec-15d2-494c-ab9e-13e8bcbe1874","ios":"levelo://app?vid=3ebaaaec-15d2-494c-ab9e-13e8bcbe1874"},"vehicle_type_id":"4","last_reported":1727075378,"current_range_meters":31200,"station_id":"ce4bhbp2rcd13ifvqesg","pricing_plan_id":"cebpf4jnsgd1na2vs0mg"},{"bike_id":"de29b561-59b2-44dc-ae00-0f630a9bf7cb","system_id":"levelo_inurba_marseille","lat":43.337625,"lon":5.374797,"is_reserved":false,"is_disabled":false,"rental_uris":{"android":"levelo://app?vid=de29b561-59b2-44dc-ae00-0f630a9bf7cb","ios":"levelo://app?vid=de29b561-59b2-44dc-ae00-0f630a9bf7cb"},"vehicle_type_id":"4","last_reported":1727075378,"current_range_meters":8400,"station_id":"","pricing_plan_id":"cebpf4jnsgd1na2vs0mg"},{"bike_id":"b45367a3-ca31-4c98-a23f-ce2a1da7d459","system_id":"levelo_inurba_marseille","lat":43.305573,"lon":5.38427,"is_reserved":false,"is_disabled":false,"rental_uris":{"android":"levelo://app?vid=b45367a3-ca31-4c98-a23f-ce2a1da7d459","ios":"levelo://app?vid=b45367a3-ca31-4c98-a23f-ce2a1da7d459"},"vehicle_type_id":"4","last_reported":1727075378,"current_range_meters":4400,"station_id":"ce4bgs92rcd13ifvqcc0","pricing_plan_id":"cebpf4jnsgd1na2vs0mg"},{"bike_id":"2b26ac36-e341-4854-a9d6-915450d3500a","system_id":"levelo_inurba_marseille","lat":43.2707,"lon":5.42275,"is_reserved":false,"is_disabled":false,"rental_uris":{"android":"levelo://app?vid=2b26ac36-e341-4854-a9d6-915450d3500a","ios":"levelo://app?vid=2b26ac36-e341-4854-a9d6-915450d3500a"},"vehicle_type_id":"4","last_reported":1727075378,"current_range_meters":38000,"station_id":"ce4bhk92rcd13ifvqgb0","pricing_plan_id":"cebpf4jnsgd1na2vs0mg"},{"bike_id":"c58899bf-0fa3-4eea-b6c6-96b07b2adcfe","system_id":"levelo_inurba_marseille","lat":43.33612,"lon":5.41033,"is_reserved":false,"is_disabled":false,"rental_uris":{"android":"levelo://app?vid=c58899bf-0fa3-4eea-b6c6-96b07b2adcfe","ios":"levelo://app?vid=c58899bf-0fa3-4eea-b6c6-96b07b2adcfe"},"vehicle_type_id":"4","last_reported":1727075378,"current_range_meters":28000,"station_id":"ce4bhqh2rcd13ifvqhmg","pricing_plan_id":"cebpf4jnsgd1na2vs0mg"},{"bike_id":"be811d87-f324-4f3b-aad2-3d1e894098c6","system_id":"levelo_inurba_marseille","lat":43.25867,"lon":5.39896,"is_reserved":false,"is_disabled":false,"rental_uris":{"android":"levelo://app?vid=be811d87-f324-4f3b-aad2-3d1e894098c6","ios":"levelo://app?vid=be811d87-f324-4f3b-aad2-3d1e894098c6"},"vehicle_type_id":"4","last_reported":1727075378,"current_range_meters":36400,"station_id":"ce4bhl92rcd13ifvqghg","pricing_plan_id":"cebpf4jnsgd1na2vs0mg"},{"bike_id":"663b5592-7b4e-4d56-8fee-d5f53d3ee839","system_id":"levelo_inurba_marseille","lat":43.26565,"lon":5.39002,"is_reserved":false,"is_disabled":false,"rental_uris":{"android":"levelo://app?vid=663b5592-7b4e-4d56-8fee-d5f53d3ee839","ios":"levelo://app?vid=663b5592-7b4e-4d56-8fee-d5f53d3ee839"},"vehicle_type_id":"4","last_reported":1727075378,"current_range_meters":26800,"station_id":"ce4bhe12rcd13ifvqf30","pricing_plan_id":"cebpf4jnsgd1na2vs0mg"},{"bike_id":"a3108788-6dbe-4135-a9c6-12d545d1be39","system_id":"levelo_inurba_marseille","lat":43.25576,"lon":5.38231,"is_reserved":false,"is_disabled":false,"rental_uris":{"android":"levelo://app?vid=a3108788-6dbe-4135-a9c6-12d545d1be39","ios":"levelo://app?vid=a3108788-6dbe-4135-a9c6-12d545d1be39"},"vehicle_type_id":"4","last_reported":1727075378,"current_range_meters":38000,"station_id":"ce4bhih2rcd13ifvqfs0","pricing_plan_id":"cebpf4jnsgd1na2vs0mg"},{"bike_id":"b46a0750-bd07-4ba9-8b52-8abd2c69029e","system_id":"levelo_inurba_marseille","lat":43.24076,"lon":5.37756,"is_reserved":false,"is_disabled":false,"rental_uris":{"android":"levelo://app?vid=b46a0750-bd07-4ba9-8b52-8abd2c69029e","ios":"levelo://app?vid=b46a0750-bd07-4ba9-8b52-8abd2c69029e"},"vehicle_type_id":"4","last_reported":1727075378,"current_range_meters":32800,"station_id":"ce4bhnp2rcd13ifvqgvg","pricing_plan_id":"cebpf4jnsgd1na2vs0mg"},{"bike_id":"36c416da-9158-44af-aa3a-06b103bea7bf","system_id":"levelo_inurba_marseille","lat":43.337444,"lon":5.374475,"is_reserved":false,"is_disabled":false,"rental_uris":{"android":"levelo://app?vid=36c416da-9158-44af-aa3a-06b103bea7bf","ios":"levelo://app?vid=36c416da-9158-44af-aa3a-06b103bea7bf"},"vehicle_type_id":"4","last_reported":1727075378,"current_range_meters":24800,"station_id":"","pricing_plan_id":"cebpf4jnsgd1na2vs0mg"},{"bike_id":"fc8978a9-3239-491f-9a1d-78f6ebb24903","system_id":"levelo_inurba_marseille","lat":43.28468,"lon":5.38427,"is_reserved":false,"is_disabled":false,"rental_uris":{"android":"levelo://app?vid=fc8978a9-3239-491f-9a1d-78f6ebb24903","ios":"levelo://app?vid=fc8978a9-3239-491f-9a1d-78f6ebb24903"},"vehicle_type_id":"4","last_reported":1727075378,"current_range_meters":11200,"station_id":"ce4bh512rcd13ifvqe3g","pricing_plan_id":"cebpf4jnsgd1na2vs0mg"},{"bike_id":"2bf85f3e-17db-4c14-84c2-67961f62fade","system_id":"levelo_inurba_marseille","lat":43.31755,"lon":5.39018,"is_reserved":false,"is_disabled":false,"rental_uris":{"android":"levelo://app?vid=2bf85f3e-17db-4c14-84c2-67961f62fade","ios":"levelo://app?vid=2bf85f3e-17db-4c14-84c2-67961f62fade"},"vehicle_type_id":"4","last_reported":1727075378,"current_range_meters":36000,"station_id":"ce4bhqp2rcd13ifvqhng","pricing_plan_id":"cebpf4jnsgd1na2vs0mg"},{"bike_id":"dcf3d7bc-c35f-4647-a9ab-733122a04faf","system_id":"levelo_inurba_marseille","lat":43.25104,"lon":5.40322,"is_reserved":false,"is_disabled":false,"rental_uris":{"android":"levelo://app?vid=dcf3d7bc-c35f-4647-a9ab-733122a04faf","ios":"levelo://app?vid=dcf3d7bc-c35f-4647-a9ab-733122a04faf"},"vehicle_type_id":"4","last_reported":1727075378,"current_range_meters":38000,"station_id":"ce4bhlh2rcd13ifvqgig","pricing_plan_id":"cebpf4jnsgd1na2vs0mg"},{"bike_id":"bc08d377-8934-49f9-a16b-d231e67a2261","system_id":"levelo_inurba_marseille","lat":43.28152,"lon":5.42647,"is_reserved":false,"is_disabled":false,"rental_uris":{"android":"levelo://app?vid=bc08d377-8934-49f9-a16b-d231e67a2261","ios":"levelo://app?vid=bc08d377-8934-49f9-a16b-d231e67a2261"},"vehicle_type_id":"4","last_reported":1727075378,"current_range_meters":21600,"station_id":"ce4bhnh2rcd13ifvqgug","pricing_plan_id":"cebpf4jnsgd1na2vs0mg"},{"bike_id":"a946714b-2b93-4282-8940-2934c541cd65","system_id":"levelo_inurba_marseille","lat":43.29553,"lon":5.42282,"is_reserved":false,"is_disabled":false,"rental_uris":{"android":"levelo://app?vid=a946714b-2b93-4282-8940-2934c541cd65","ios":"levelo://app?vid=a946714b-2b93-4282-8940-2934c541cd65"},"vehicle_type_id":"4","last_reported":1727075378,"current_range_meters":10800,"station_id":"ce4bhph2rcd13ifvqhdg","pricing_plan_id":"cebpf4jnsgd1na2vs0mg"},{"bike_id":"2e9e18af-79ce-478a-97f6-7d21e48d3e93","system_id":"levelo_inurba_marseille","lat":43.29643,"lon":5.40602,"is_reserved":false,"is_disabled":false,"rental_uris":{"android":"levelo://app?vid=2e9e18af-79ce-478a-97f6-7d21e48d3e93","ios":"levelo://app?vid=2e9e18af-79ce-478a-97f6-7d21e48d3e93"},"vehicle_type_id":"4","last_reported":1727075378,"current_range_meters":25200,"station_id":"ce4bh0h2rcd13ifvqd60","pricing_plan_id":"cebpf4jnsgd1na2vs0mg"},{"bike_id":"fee847b2-684e-4f0f-b3c3-0910bdb1f06e","system_id":"levelo_inurba_marseille","lat":43.28153,"lon":5.42638,"is_reserved":false,"is_disabled":false,"rental_uris":{"android":"levelo://app?vid=fee847b2-684e-4f0f-b3c3-0910bdb1f06e","ios":"levelo://app?vid=fee847b2-684e-4f0f-b3c3-0910bdb1f06e"},"vehicle_type_id":"4","last_reported":1727075378,"current_range_meters":9600,"station_id":"ce4bhnh2rcd13ifvqgug","pricing_plan_id":"cebpf4jnsgd1na2vs0mg"},{"bike_id":"84e93f3f-535d-4e05-ab61-d82390950c02","system_id":"levelo_inurba_marseille","lat":43.259381,"lon":5.409113,"is_reserved":false,"is_disabled":false,"rental_uris":{"android":"levelo://app?vid=84e93f3f-535d-4e05-ab61-d82390950c02","ios":"levelo://app?vid=84e93f3f-535d-4e05-ab61-d82390950c02"},"vehicle_type_id":"4","last_reported":1727075378,"current_range_meters":37600,"station_id":"ce4bhm92rcd13ifvqglg","pricing_plan_id":"cebpf4jnsgd1na2vs0mg"},{"bike_id":"43043176-26c4-426a-b720-127ae8f9740f","system_id":"levelo_inurba_marseille","lat":43.23154,"lon":5.43717,"is_reserved":false,"is_disabled":false,"rental_uris":{"android":"levelo://app?vid=43043176-26c4-426a-b720-127ae8f9740f","ios":"levelo://app?vid=43043176-26c4-426a-b720-127ae8f9740f"},"vehicle_type_id":"4","last_reported":1727075378,"current_range_meters":6800,"station_id":"ce4bhmp2rcd13ifvqgog","pricing_plan_id":"cebpf4jnsgd1na2vs0mg"},{"bike_id":"77ec9bed-f7d6-496e-ac56-6c2d17064691","system_id":"levelo_inurba_marseille","lat":43.29005,"lon":5.37823,"is_reserved":false,"is_disabled":false,"rental_uris":{"android":"levelo://app?vid=77ec9bed-f7d6-496e-ac56-6c2d17064691","ios":"levelo://app?vid=77ec9bed-f7d6-496e-ac56-6c2d17064691"},"vehicle_type_id":"4","last_reported":1727075378,"current_range_meters":16400,"station_id":"ce4bh9p2rcd13ifvqed0","pricing_plan_id":"cebpf4jnsgd1na2vs0mg"},{"bike_id":"149779fc-bc45-458a-857f-33707eedaf6a","system_id":"levelo_inurba_marseille","lat":43.23198,"lon":5.35553,"is_reserved":false,"is_disabled":false,"rental_uris":{"android":"levelo://app?vid=149779fc-bc45-458a-857f-33707eedaf6a","ios":"levelo://app?vid=149779fc-bc45-458a-857f-33707eedaf6a"},"vehicle_type_id":"4","last_reported":1727075378,"current_range_meters":10000,"station_id":"ce4bhu92rcd13ifvqi70","pricing_plan_id":"cebpf4jnsgd1na2vs0mg"},{"bike_id":"0887ada4-7ace-4f9e-83e0-036cffcd8a08","system_id":"levelo_inurba_marseille","lat":43.24072,"lon":5.37762,"is_reserved":false,"is_disabled":false,"rental_uris":{"android":"levelo://app?vid=0887ada4-7ace-4f9e-83e0-036cffcd8a08","ios":"levelo://app?vid=0887ada4-7ace-4f9e-83e0-036cffcd8a08"},"vehicle_type_id":"4","last_reported":1727075378,"current_range_meters":36400,"station_id":"ce4bhnp2rcd13ifvqgvg","pricing_plan_id":"cebpf4jnsgd1na2vs0mg"},{"bike_id":"c3b627ad-f005-495a-a411-25129e235258","system_id":"levelo_inurba_marseille","lat":43.299377,"lon":5.397386,"is_reserved":false,"is_disabled":false,"rental_uris":{"android":"levelo://app?vid=c3b627ad-f005-495a-a411-25129e235258","ios":"levelo://app?vid=c3b627ad-f005-495a-a411-25129e235258"},"vehicle_type_id":"4","last_reported":1727075378,"current_range_meters":36800,"station_id":"ce4bhap2rcd13ifvqek0","pricing_plan_id":"cebpf4jnsgd1na2vs0mg"},{"bike_id":"ebdce7da-2f8b-4498-a144-9a1e7afa5618","system_id":"levelo_inurba_marseille","lat":43.325383,"lon":5.414287,"is_reserved":false,"is_disabled":false,"rental_uris":{"android":"levelo://app?vid=ebdce7da-2f8b-4498-a144-9a1e7afa5618","ios":"levelo://app?vid=ebdce7da-2f8b-4498-a144-9a1e7afa5618"},"vehicle_type_id":"4","last_reported":1727075378,"current_range_meters":28400,"station_id":"ce4bhq12rcd13ifvqhhg","pricing_plan_id":"cebpf4jnsgd1na2vs0mg"},{"bike_id":"aa6b3320-f4b4-47ac-b9e1-6322f4823ed3","system_id":"levelo_inurba_marseille","lat":43.30461,"lon":5.3791,"is_reserved":false,"is_disabled":false,"rental_uris":{"android":"levelo://app?vid=aa6b3320-f4b4-47ac-b9e1-6322f4823ed3","ios":"levelo://app?vid=aa6b3320-f4b4-47ac-b9e1-6322f4823ed3"},"vehicle_type_id":"4","last_reported":1727075378,"current_range_meters":33600,"station_id":"ce4bgup2rcd13ifvqcn0","pricing_plan_id":"cebpf4jnsgd1na2vs0mg"},{"bike_id":"76e38e82-0cb9-42f9-8501-6c69223e82a1","system_id":"levelo_inurba_marseille","lat":43.31172,"lon":5.38744,"is_reserved":false,"is_disabled":false,"rental_uris":{"android":"levelo://app?vid=76e38e82-0cb9-42f9-8501-6c69223e82a1","ios":"levelo://app?vid=76e38e82-0cb9-42f9-8501-6c69223e82a1"},"vehicle_type_id":"4","last_reported":1727075378,"current_range_meters":38800,"station_id":"ce4bgv12rcd13ifvqcp0","pricing_plan_id":"cebpf4jnsgd1na2vs0mg"},{"bike_id":"f6687cde-5905-44d9-b729-717d594d108a","system_id":"levelo_inurba_marseille","lat":43.31884,"lon":5.407386,"is_reserved":false,"is_disabled":false,"rental_uris":{"android":"levelo://app?vid=f6687cde-5905-44d9-b729-717d594d108a","ios":"levelo://app?vid=f6687cde-5905-44d9-b729-717d594d108a"},"vehicle_type_id":"4","last_reported":1727075378,"current_range_meters":36800,"station_id":"ce4bhq12rcd13ifvqhig","pricing_plan_id":"cebpf4jnsgd1na2vs0mg"},{"bike_id":"9632816b-1d05-47c2-8d6e-588a1aa07a19","system_id":"levelo_inurba_marseille","lat":43.25578,"lon":5.38232,"is_reserved":false,"is_disabled":false,"rental_uris":{"android":"levelo://app?vid=9632816b-1d05-47c2-8d6e-588a1aa07a19","ios":"levelo://app?vid=9632816b-1d05-47c2-8d6e-588a1aa07a19"},"vehicle_type_id":"4","last_reported":1727075378,"current_range_meters":8800,"station_id":"ce4bhih2rcd13ifvqfs0","pricing_plan_id":"cebpf4jnsgd1na2vs0mg"},{"bike_id":"c501f88e-9fbe-4981-8abd-1de6df1bf2b5","system_id":"levelo_inurba_marseille","lat":43.24083,"lon":5.37751,"is_reserved":false,"is_disabled":false,"rental_uris":{"android":"levelo://app?vid=c501f88e-9fbe-4981-8abd-1de6df1bf2b5","ios":"levelo://app?vid=c501f88e-9fbe-4981-8abd-1de6df1bf2b5"},"vehicle_type_id":"4","last_reported":1727075378,"current_range_meters":26000,"station_id":"ce4bhnp2rcd13ifvqgvg","pricing_plan_id":"cebpf4jnsgd1na2vs0mg"},{"bike_id":"021d392c-0dee-48dd-8f73-a0625265636a","system_id":"levelo_inurba_marseille","lat":43.29303,"lon":5.37172,"is_reserved":false,"is_disabled":false,"rental_uris":{"android":"levelo://app?vid=021d392c-0dee-48dd-8f73-a0625265636a","ios":"levelo://app?vid=021d392c-0dee-48dd-8f73-a0625265636a"},"vehicle_type_id":"4","last_reported":1727075378,"current_range_meters":36800,"station_id":"ce4bgh92rcd13ifvqb40","pricing_plan_id":"cebpf4jnsgd1na2vs0mg"},{"bike_id":"cafc1892-d38a-400e-9753-0536b0eb5bd7","system_id":"levelo_inurba_marseille","lat":43.27493,"lon":5.42454,"is_reserved":false,"is_disabled":false,"rental_uris":{"android":"levelo://app?vid=cafc1892-d38a-400e-9753-0536b0eb5bd7","ios":"levelo://app?vid=cafc1892-d38a-400e-9753-0536b0eb5bd7"},"vehicle_type_id":"4","last_reported":1727075378,"current_range_meters":10800,"station_id":"ce4bhn92rcd13ifvqgrg","pricing_plan_id":"cebpf4jnsgd1na2vs0mg"},{"bike_id":"bed459a2-dc9a-4c2d-b8a7-3be3610d8afa","system_id":"levelo_inurba_marseille","lat":43.30475,"lon":5.37905,"is_reserved":false,"is_disabled":false,"rental_uris":{"android":"levelo://app?vid=bed459a2-dc9a-4c2d-b8a7-3be3610d8afa","ios":"levelo://app?vid=bed459a2-dc9a-4c2d-b8a7-3be3610d8afa"},"vehicle_type_id":"4","last_reported":1727075378,"current_range_meters":8000,"station_id":"ce4bgup2rcd13ifvqcn0","pricing_plan_id":"cebpf4jnsgd1na2vs0mg"},{"bike_id":"a1130285-14c1-471d-a411-fb2eed577eff","system_id":"levelo_inurba_marseille","lat":43.23148,"lon":5.4371,"is_reserved":false,"is_disabled":false,"rental_uris":{"android":"levelo://app?vid=a1130285-14c1-471d-a411-fb2eed577eff","ios":"levelo://app?vid=a1130285-14c1-471d-a411-fb2eed577eff"},"vehicle_type_id":"4","last_reported":1727075378,"current_range_meters":28400,"station_id":"ce4bhmp2rcd13ifvqgog","pricing_plan_id":"cebpf4jnsgd1na2vs0mg"},{"bike_id":"6ea9348a-376a-4865-b15d-1cc34e14a9e7","system_id":"levelo_inurba_marseille","lat":43.30591,"lon":5.39358,"is_reserved":false,"is_disabled":false,"rental_uris":{"android":"levelo://app?vid=6ea9348a-376a-4865-b15d-1cc34e14a9e7","ios":"levelo://app?vid=6ea9348a-376a-4865-b15d-1cc34e14a9e7"},"vehicle_type_id":"4","last_reported":1727075378,"current_range_meters":37600,"station_id":"ce4bh0p2rcd13ifvqd80","pricing_plan_id":"cebpf4jnsgd1na2vs0mg"},{"bike_id":"d71aaa7a-c83f-4f2e-9c67-cd373eea6523","system_id":"levelo_inurba_marseille","lat":43.32656,"lon":5.41005,"is_reserved":false,"is_disabled":false,"rental_uris":{"android":"levelo://app?vid=d71aaa7a-c83f-4f2e-9c67-cd373eea6523","ios":"levelo://app?vid=d71aaa7a-c83f-4f2e-9c67-cd373eea6523"},"vehicle_type_id":"4","last_reported":1727075378,"current_range_meters":38400,"station_id":"ce4bhpp2rcd13ifvqhgg","pricing_plan_id":"cebpf4jnsgd1na2vs0mg"},{"bike_id":"d3cdf664-8be3-47d4-8688-b210493fc3de","system_id":"levelo_inurba_marseille","lat":43.26785,"lon":5.39413,"is_reserved":false,"is_disabled":false,"rental_uris":{"android":"levelo://app?vid=d3cdf664-8be3-47d4-8688-b210493fc3de","ios":"levelo://app?vid=d3cdf664-8be3-47d4-8688-b210493fc3de"},"vehicle_type_id":"4","last_reported":1727075378,"current_range_meters":27200,"station_id":"ce4bhh12rcd13ifvqfg0","pricing_plan_id":"cebpf4jnsgd1na2vs0mg"},{"bike_id":"7ba3699d-37f4-4c59-b8ce-09cef2b1fb42","system_id":"levelo_inurba_marseille","lat":43.30307,"lon":5.369111,"is_reserved":false,"is_disabled":false,"rental_uris":{"android":"levelo://app?vid=7ba3699d-37f4-4c59-b8ce-09cef2b1fb42","ios":"levelo://app?vid=7ba3699d-37f4-4c59-b8ce-09cef2b1fb42"},"vehicle_type_id":"4","last_reported":1727075378,"current_range_meters":14000,"station_id":"ce4bgqh2rcd13ifvqc5g","pricing_plan_id":"cebpf4jnsgd1na2vs0mg"},{"bike_id":"fb3f4093-9422-43c2-a0cb-5d6da8e76d3b","system_id":"levelo_inurba_marseille","lat":43.31702,"lon":5.37753,"is_reserved":false,"is_disabled":false,"rental_uris":{"android":"levelo://app?vid=fb3f4093-9422-43c2-a0cb-5d6da8e76d3b","ios":"levelo://app?vid=fb3f4093-9422-43c2-a0cb-5d6da8e76d3b"},"vehicle_type_id":"4","last_reported":1727075378,"current_range_meters":33200,"station_id":"ce4bgth2rcd13ifvqch0","pricing_plan_id":"cebpf4jnsgd1na2vs0mg"},{"bike_id":"680b7d7f-76fb-4707-ade1-f1798a04e37a","system_id":"levelo_inurba_marseille","lat":43.29021,"lon":5.37557,"is_reserved":false,"is_disabled":false,"rental_uris":{"android":"levelo://app?vid=680b7d7f-76fb-4707-ade1-f1798a04e37a","ios":"levelo://app?vid=680b7d7f-76fb-4707-ade1-f1798a04e37a"},"vehicle_type_id":"4","last_reported":1727075378,"current_range_meters":10800,"station_id":"ce4bh692rcd13ifvqe90","pricing_plan_id":"cebpf4jnsgd1na2vs0mg"},{"bike_id":"3788f45a-3be9-4c81-8b77-2cb3b52e22fe","system_id":"levelo_inurba_marseille","lat":43.28153,"lon":5.42635,"is_reserved":false,"is_disabled":false,"rental_uris":{"android":"levelo://app?vid=3788f45a-3be9-4c81-8b77-2cb3b52e22fe","ios":"levelo://app?vid=3788f45a-3be9-4c81-8b77-2cb3b52e22fe"},"vehicle_type_id":"4","last_reported":1727075378,"current_range_meters":31200,"station_id":"ce4bhnh2rcd13ifvqgug","pricing_plan_id":"cebpf4jnsgd1na2vs0mg"},{"bike_id":"44b50cd5-9fec-40b7-88e0-c89ccba3762c","system_id":"levelo_inurba_marseille","lat":43.2315,"lon":5.43707,"is_reserved":false,"is_disabled":false,"rental_uris":{"android":"levelo://app?vid=44b50cd5-9fec-40b7-88e0-c89ccba3762c","ios":"levelo://app?vid=44b50cd5-9fec-40b7-88e0-c89ccba3762c"},"vehicle_type_id":"4","last_reported":1727075378,"current_range_meters":39200,"station_id":"ce4bhmp2rcd13ifvqgog","pricing_plan_id":"cebpf4jnsgd1na2vs0mg"},{"bike_id":"e9c8c3ef-6dbb-4dc9-97d7-c75a8bd608e2","system_id":"levelo_inurba_marseille","lat":43.24074,"lon":5.37752,"is_reserved":false,"is_disabled":false,"rental_uris":{"android":"levelo://app?vid=e9c8c3ef-6dbb-4dc9-97d7-c75a8bd608e2","ios":"levelo://app?vid=e9c8c3ef-6dbb-4dc9-97d7-c75a8bd608e2"},"vehicle_type_id":"4","last_reported":1727075378,"current_range_meters":6800,"station_id":"ce4bhnp2rcd13ifvqgvg","pricing_plan_id":"cebpf4jnsgd1na2vs0mg"},{"bike_id":"49651c6b-106a-4630-9e3a-edc809336fd2","system_id":"levelo_inurba_marseille","lat":43.25824,"lon":5.39436,"is_reserved":false,"is_disabled":false,"rental_uris":{"android":"levelo://app?vid=49651c6b-106a-4630-9e3a-edc809336fd2","ios":"levelo://app?vid=49651c6b-106a-4630-9e3a-edc809336fd2"},"vehicle_type_id":"4","last_reported":1727075378,"current_range_meters":38000,"station_id":"ce4bhip2rcd13ifvqft0","pricing_plan_id":"cebpf4jnsgd1na2vs0mg"},{"bike_id":"786e6863-c58f-4219-bd24-a2a09c4e4d8d","system_id":"levelo_inurba_marseille","lat":43.26217,"lon":5.37448,"is_reserved":false,"is_disabled":false,"rental_uris":{"android":"levelo://app?vid=786e6863-c58f-4219-bd24-a2a09c4e4d8d","ios":"levelo://app?vid=786e6863-c58f-4219-bd24-a2a09c4e4d8d"},"vehicle_type_id":"4","last_reported":1727075378,"current_range_meters":24800,"station_id":"","pricing_plan_id":"cebpf4jnsgd1na2vs0mg"},{"bike_id":"dc57d540-f6c7-4d23-b294-4219541785f2","system_id":"levelo_inurba_marseille","lat":43.2953,"lon":5.38539,"is_reserved":false,"is_disabled":false,"rental_uris":{"android":"levelo://app?vid=dc57d540-f6c7-4d23-b294-4219541785f2","ios":"levelo://app?vid=dc57d540-f6c7-4d23-b294-4219541785f2"},"vehicle_type_id":"4","last_reported":1727075378,"current_range_meters":36400,"station_id":"ce4bgih2rcd13ifvqba0","pricing_plan_id":"cebpf4jnsgd1na2vs0mg"},{"bike_id":"6cbc2fdc-96a1-4bca-b822-56394ecb85a1","system_id":"levelo_inurba_marseille","lat":43.29558,"lon":5.4229,"is_reserved":false,"is_disabled":false,"rental_uris":{"android":"levelo://app?vid=6cbc2fdc-96a1-4bca-b822-56394ecb85a1","ios":"levelo://app?vid=6cbc2fdc-96a1-4bca-b822-56394ecb85a1"},"vehicle_type_id":"4","last_reported":1727075378,"current_range_meters":38400,"station_id":"ce4bhph2rcd13ifvqhdg","pricing_plan_id":"cebpf4jnsgd1na2vs0mg"},{"bike_id":"a7a2630d-54d4-495a-8506-d0472b9b9a1a","system_id":"levelo_inurba_marseille","lat":43.29554,"lon":5.42327,"is_reserved":false,"is_disabled":false,"rental_uris":{"android":"levelo://app?vid=a7a2630d-54d4-495a-8506-d0472b9b9a1a","ios":"levelo://app?vid=a7a2630d-54d4-495a-8506-d0472b9b9a1a"},"vehicle_type_id":"4","last_reported":1727075378,"current_range_meters":36400,"station_id":"ce4bhph2rcd13ifvqhdg","pricing_plan_id":"cebpf4jnsgd1na2vs0mg"},{"bike_id":"ddc268e0-fb0a-45f0-9a7b-07a46cd09050","system_id":"levelo_inurba_marseille","lat":43.3134,"lon":5.36738,"is_reserved":false,"is_disabled":false,"rental_uris":{"android":"levelo://app?vid=ddc268e0-fb0a-45f0-9a7b-07a46cd09050","ios":"levelo://app?vid=ddc268e0-fb0a-45f0-9a7b-07a46cd09050"},"vehicle_type_id":"4","last_reported":1727075378,"current_range_meters":17600,"station_id":"ce4bgr92rcd13ifvqc6g","pricing_plan_id":"cebpf4jnsgd1na2vs0mg"},{"bike_id":"63643132-01f0-49ea-a92a-22669595e42a","system_id":"levelo_inurba_marseille","lat":43.28858,"lon":5.39321,"is_reserved":false,"is_disabled":false,"rental_uris":{"android":"levelo://app?vid=63643132-01f0-49ea-a92a-22669595e42a","ios":"levelo://app?vid=63643132-01f0-49ea-a92a-22669595e42a"},"vehicle_type_id":"4","last_reported":1727075378,"current_range_meters":17600,"station_id":"ce4bh2p2rcd13ifvqdi0","pricing_plan_id":"cebpf4jnsgd1na2vs0mg"},{"bike_id":"32c295b7-e338-497a-9c83-1d4f4046497d","system_id":"levelo_inurba_marseille","lat":43.30906,"lon":5.36852,"is_reserved":false,"is_disabled":false,"rental_uris":{"android":"levelo://app?vid=32c295b7-e338-497a-9c83-1d4f4046497d","ios":"levelo://app?vid=32c295b7-e338-497a-9c83-1d4f4046497d"},"vehicle_type_id":"4","last_reported":1727075378,"current_range_meters":29600,"station_id":"ce4bgn92rcd13ifvqbvg","pricing_plan_id":"cebpf4jnsgd1na2vs0mg"},{"bike_id":"5524e161-1116-48ae-a9c2-520fcecf51a9","system_id":"levelo_inurba_marseille","lat":43.24079,"lon":5.37755,"is_reserved":false,"is_disabled":false,"rental_uris":{"android":"levelo://app?vid=5524e161-1116-48ae-a9c2-520fcecf51a9","ios":"levelo://app?vid=5524e161-1116-48ae-a9c2-520fcecf51a9"},"vehicle_type_id":"4","last_reported":1727075378,"current_range_meters":28800,"station_id":"ce4bhnp2rcd13ifvqgvg","pricing_plan_id":"cebpf4jnsgd1na2vs0mg"},{"bike_id":"ed54be99-fc57-4d5a-a64d-283a09df8194","system_id":"levelo_inurba_marseille","lat":43.27419,"lon":5.36193,"is_reserved":false,"is_disabled":false,"rental_uris":{"android":"levelo://app?vid=ed54be99-fc57-4d5a-a64d-283a09df8194","ios":"levelo://app?vid=ed54be99-fc57-4d5a-a64d-283a09df8194"},"vehicle_type_id":"4","last_reported":1727075378,"current_range_meters":38400,"station_id":"","pricing_plan_id":"cebpf4jnsgd1na2vs0mg"},{"bike_id":"a123d219-fd44-4d4b-b0f0-83b4eae7294c","system_id":"levelo_inurba_marseille","lat":43.27201,"lon":5.39184,"is_reserved":false,"is_disabled":false,"rental_uris":{"android":"levelo://app?vid=a123d219-fd44-4d4b-b0f0-83b4eae7294c","ios":"levelo://app?vid=a123d219-fd44-4d4b-b0f0-83b4eae7294c"},"vehicle_type_id":"4","last_reported":1727075378,"current_range_meters":15200,"station_id":"ce4bhhp2rcd13ifvqfm0","pricing_plan_id":"cebpf4jnsgd1na2vs0mg"},{"bike_id":"45288da5-f243-4b3a-bd1b-b07c401ecec3","system_id":"levelo_inurba_marseille","lat":43.27994,"lon":5.42454,"is_reserved":false,"is_disabled":false,"rental_uris":{"android":"levelo://app?vid=45288da5-f243-4b3a-bd1b-b07c401ecec3","ios":"levelo://app?vid=45288da5-f243-4b3a-bd1b-b07c401ecec3"},"vehicle_type_id":"4","last_reported":1727075378,"current_range_meters":24800,"station_id":"","pricing_plan_id":"cebpf4jnsgd1na2vs0mg"},{"bike_id":"1091ef48-8ed2-48a9-a7b0-5670679a3e40","system_id":"levelo_inurba_marseille","lat":43.24082,"lon":5.37736,"is_reserved":false,"is_disabled":false,"rental_uris":{"android":"levelo://app?vid=1091ef48-8ed2-48a9-a7b0-5670679a3e40","ios":"levelo://app?vid=1091ef48-8ed2-48a9-a7b0-5670679a3e40"},"vehicle_type_id":"4","last_reported":1727075378,"current_range_meters":35600,"station_id":"ce4bhnp2rcd13ifvqgvg","pricing_plan_id":"cebpf4jnsgd1na2vs0mg"},{"bike_id":"3b2b32b1-081b-464a-b5e2-ce0b7792839b","system_id":"levelo_inurba_marseille","lat":43.26818,"lon":5.38019,"is_reserved":false,"is_disabled":false,"rental_uris":{"android":"levelo://app?vid=3b2b32b1-081b-464a-b5e2-ce0b7792839b","ios":"levelo://app?vid=3b2b32b1-081b-464a-b5e2-ce0b7792839b"},"vehicle_type_id":"4","last_reported":1727075378,"current_range_meters":25600,"station_id":"","pricing_plan_id":"cebpf4jnsgd1na2vs0mg"},{"bike_id":"71aa8592-ddf7-4343-aed4-c00d3433340f","system_id":"levelo_inurba_marseille","lat":43.337444,"lon":5.374475,"is_reserved":false,"is_disabled":false,"rental_uris":{"android":"levelo://app?vid=71aa8592-ddf7-4343-aed4-c00d3433340f","ios":"levelo://app?vid=71aa8592-ddf7-4343-aed4-c00d3433340f"},"vehicle_type_id":"4","last_reported":1727075378,"current_range_meters":28000,"station_id":"","pricing_plan_id":"cebpf4jnsgd1na2vs0mg"},{"bike_id":"3740c6df-06cd-419b-9ae6-b8d9e5eff548","system_id":"levelo_inurba_marseille","lat":43.2753,"lon":5.40935,"is_reserved":false,"is_disabled":false,"rental_uris":{"android":"levelo://app?vid=3740c6df-06cd-419b-9ae6-b8d9e5eff548","ios":"levelo://app?vid=3740c6df-06cd-419b-9ae6-b8d9e5eff548"},"vehicle_type_id":"4","last_reported":1727075378,"current_range_meters":9600,"station_id":"","pricing_plan_id":"cebpf4jnsgd1na2vs0mg"},{"bike_id":"74a278fa-44fc-490b-b2dd-a2c0dd08c0ef","system_id":"levelo_inurba_marseille","lat":43.30546,"lon":5.36703,"is_reserved":false,"is_disabled":false,"rental_uris":{"android":"levelo://app?vid=74a278fa-44fc-490b-b2dd-a2c0dd08c0ef","ios":"levelo://app?vid=74a278fa-44fc-490b-b2dd-a2c0dd08c0ef"},"vehicle_type_id":"4","last_reported":1727075378,"current_range_meters":36000,"station_id":"ce4bgrp2rcd13ifvqc9g","pricing_plan_id":"cebpf4jnsgd1na2vs0mg"},{"bike_id":"0a70c920-4652-4cdb-b9e1-eefeed03e371","system_id":"levelo_inurba_marseille","lat":43.27993,"lon":5.41653,"is_reserved":false,"is_disabled":false,"rental_uris":{"android":"levelo://app?vid=0a70c920-4652-4cdb-b9e1-eefeed03e371","ios":"levelo://app?vid=0a70c920-4652-4cdb-b9e1-eefeed03e371"},"vehicle_type_id":"4","last_reported":1727075378,"current_range_meters":22000,"station_id":"ce4bho12rcd13ifvqh1g","pricing_plan_id":"cebpf4jnsgd1na2vs0mg"},{"bike_id":"37cfea08-a4a9-4194-96d9-f325f70d9e4d","system_id":"levelo_inurba_marseille","lat":43.25581,"lon":5.38234,"is_reserved":false,"is_disabled":false,"rental_uris":{"android":"levelo://app?vid=37cfea08-a4a9-4194-96d9-f325f70d9e4d","ios":"levelo://app?vid=37cfea08-a4a9-4194-96d9-f325f70d9e4d"},"vehicle_type_id":"4","last_reported":1727075378,"current_range_meters":8400,"station_id":"ce4bhih2rcd13ifvqfs0","pricing_plan_id":"cebpf4jnsgd1na2vs0mg"},{"bike_id":"1190a69f-3376-4c5c-8353-291b41658ea5","system_id":"levelo_inurba_marseille","lat":43.28711,"lon":5.37928,"is_reserved":false,"is_disabled":false,"rental_uris":{"android":"levelo://app?vid=1190a69f-3376-4c5c-8353-291b41658ea5","ios":"levelo://app?vid=1190a69f-3376-4c5c-8353-291b41658ea5"},"vehicle_type_id":"4","last_reported":1727075378,"current_range_meters":35200,"station_id":"ce4bh9p2rcd13ifvqec0","pricing_plan_id":"cebpf4jnsgd1na2vs0mg"},{"bike_id":"37129aa8-05a3-4467-8fa1-1fc6f7f9028c","system_id":"levelo_inurba_marseille","lat":43.30947,"lon":5.39049,"is_reserved":false,"is_disabled":false,"rental_uris":{"android":"levelo://app?vid=37129aa8-05a3-4467-8fa1-1fc6f7f9028c","ios":"levelo://app?vid=37129aa8-05a3-4467-8fa1-1fc6f7f9028c"},"vehicle_type_id":"4","last_reported":1727075378,"current_range_meters":38800,"station_id":"ce4bgup2rcd13ifvqco0","pricing_plan_id":"cebpf4jnsgd1na2vs0mg"},{"bike_id":"6b1bfc7c-4a19-4e40-a1e6-7bc55c265373","system_id":"levelo_inurba_marseille","lat":43.27725,"lon":5.42443,"is_reserved":false,"is_disabled":false,"rental_uris":{"android":"levelo://app?vid=6b1bfc7c-4a19-4e40-a1e6-7bc55c265373","ios":"levelo://app?vid=6b1bfc7c-4a19-4e40-a1e6-7bc55c265373"},"vehicle_type_id":"4","last_reported":1727075378,"current_range_meters":31200,"station_id":"","pricing_plan_id":"cebpf4jnsgd1na2vs0mg"},{"bike_id":"715c4804-6a86-4398-98ec-b57358573177","system_id":"levelo_inurba_marseille","lat":43.22931,"lon":5.35374,"is_reserved":false,"is_disabled":false,"rental_uris":{"android":"levelo://app?vid=715c4804-6a86-4398-98ec-b57358573177","ios":"levelo://app?vid=715c4804-6a86-4398-98ec-b57358573177"},"vehicle_type_id":"4","last_reported":1727075378,"current_range_meters":36000,"station_id":"cpo3532slgdg3j2ikp40","pricing_plan_id":"cebpf4jnsgd1na2vs0mg"},{"bike_id":"80ef7279-b375-4587-b39b-77c91fd7500b","system_id":"levelo_inurba_marseille","lat":43.33598,"lon":5.41025,"is_reserved":false,"is_disabled":false,"rental_uris":{"android":"levelo://app?vid=80ef7279-b375-4587-b39b-77c91fd7500b","ios":"levelo://app?vid=80ef7279-b375-4587-b39b-77c91fd7500b"},"vehicle_type_id":"4","last_reported":1727075378,"current_range_meters":38800,"station_id":"ce4bhqh2rcd13ifvqhmg","pricing_plan_id":"cebpf4jnsgd1na2vs0mg"},{"bike_id":"065ab51c-5f5d-4e1b-91a7-6335a1132a29","system_id":"levelo_inurba_marseille","lat":43.3079,"lon":5.38157,"is_reserved":false,"is_disabled":false,"rental_uris":{"android":"levelo://app?vid=065ab51c-5f5d-4e1b-91a7-6335a1132a29","ios":"levelo://app?vid=065ab51c-5f5d-4e1b-91a7-6335a1132a29"},"vehicle_type_id":"4","last_reported":1727075378,"current_range_meters":33200,"station_id":"ce4bgt12rcd13ifvqce0","pricing_plan_id":"cebpf4jnsgd1na2vs0mg"},{"bike_id":"9b8245ad-0465-4f9d-abe8-750ca874cbc1","system_id":"levelo_inurba_marseille","lat":43.27491,"lon":5.42454,"is_reserved":false,"is_disabled":false,"rental_uris":{"android":"levelo://app?vid=9b8245ad-0465-4f9d-abe8-750ca874cbc1","ios":"levelo://app?vid=9b8245ad-0465-4f9d-abe8-750ca874cbc1"},"vehicle_type_id":"4","last_reported":1727075378,"current_range_meters":19600,"station_id":"ce4bhn92rcd13ifvqgrg","pricing_plan_id":"cebpf4jnsgd1na2vs0mg"},{"bike_id":"66970e56-2097-48b0-a677-6535f6ec87c3","system_id":"levelo_inurba_marseille","lat":43.28152,"lon":5.42642,"is_reserved":false,"is_disabled":false,"rental_uris":{"android":"levelo://app?vid=66970e56-2097-48b0-a677-6535f6ec87c3","ios":"levelo://app?vid=66970e56-2097-48b0-a677-6535f6ec87c3"},"vehicle_type_id":"4","last_reported":1727075378,"current_range_meters":38000,"station_id":"ce4bhnh2rcd13ifvqgug","pricing_plan_id":"cebpf4jnsgd1na2vs0mg"},{"bike_id":"88db0355-5ecd-4d5d-a2f1-031bc312ef9a","system_id":"levelo_inurba_marseille","lat":43.29705,"lon":5.37697,"is_reserved":false,"is_disabled":false,"rental_uris":{"android":"levelo://app?vid=88db0355-5ecd-4d5d-a2f1-031bc312ef9a","ios":"levelo://app?vid=88db0355-5ecd-4d5d-a2f1-031bc312ef9a"},"vehicle_type_id":"4","last_reported":1727075378,"current_range_meters":30000,"station_id":"ce4bgkh2rcd13ifvqbl0","pricing_plan_id":"cebpf4jnsgd1na2vs0mg"},{"bike_id":"e961bf11-4930-4d22-a8ba-9c08fe3d0227","system_id":"levelo_inurba_marseille","lat":43.30207,"lon":5.39472,"is_reserved":false,"is_disabled":false,"rental_uris":{"android":"levelo://app?vid=e961bf11-4930-4d22-a8ba-9c08fe3d0227","ios":"levelo://app?vid=e961bf11-4930-4d22-a8ba-9c08fe3d0227"},"vehicle_type_id":"4","last_reported":1727075378,"current_range_meters":37600,"station_id":"ce4bh0p2rcd13ifvqd70","pricing_plan_id":"cebpf4jnsgd1na2vs0mg"},{"bike_id":"13b4b35d-84db-4fd4-afcd-6e5f994aa1b5","system_id":"levelo_inurba_marseille","lat":43.30647,"lon":5.40097,"is_reserved":false,"is_disabled":false,"rental_uris":{"android":"levelo://app?vid=13b4b35d-84db-4fd4-afcd-6e5f994aa1b5","ios":"levelo://app?vid=13b4b35d-84db-4fd4-afcd-6e5f994aa1b5"},"vehicle_type_id":"4","last_reported":1727075378,"current_range_meters":38800,"station_id":"ce4bh112rcd13ifvqda0","pricing_plan_id":"cebpf4jnsgd1na2vs0mg"},{"bike_id":"88e9db64-31e0-4f52-a727-3eff953e337a","system_id":"levelo_inurba_marseille","lat":43.28713,"lon":5.37935,"is_reserved":false,"is_disabled":false,"rental_uris":{"android":"levelo://app?vid=88e9db64-31e0-4f52-a727-3eff953e337a","ios":"levelo://app?vid=88e9db64-31e0-4f52-a727-3eff953e337a"},"vehicle_type_id":"4","last_reported":1727075378,"current_range_meters":29600,"station_id":"ce4bh9p2rcd13ifvqec0","pricing_plan_id":"cebpf4jnsgd1na2vs0mg"},{"bike_id":"b6be7281-305f-4cff-b5d9-59ddfbbdef54","system_id":"levelo_inurba_marseille","lat":43.2828,"lon":5.35087,"is_reserved":false,"is_disabled":false,"rental_uris":{"android":"levelo://app?vid=b6be7281-305f-4cff-b5d9-59ddfbbdef54","ios":"levelo://app?vid=b6be7281-305f-4cff-b5d9-59ddfbbdef54"},"vehicle_type_id":"4","last_reported":1727075378,"current_range_meters":20800,"station_id":"ce4bhbp2rcd13ifvqerg","pricing_plan_id":"cebpf4jnsgd1na2vs0mg"},{"bike_id":"43ef4bd2-25c5-4c2b-a818-b6bc5e6bf5a7","system_id":"levelo_inurba_marseille","lat":43.24548,"lon":5.39517,"is_reserved":false,"is_disabled":false,"rental_uris":{"android":"levelo://app?vid=43ef4bd2-25c5-4c2b-a818-b6bc5e6bf5a7","ios":"levelo://app?vid=43ef4bd2-25c5-4c2b-a818-b6bc5e6bf5a7"},"vehicle_type_id":"4","last_reported":1727075378,"current_range_meters":35600,"station_id":"ce4bhlp2rcd13ifvqgjg","pricing_plan_id":"cebpf4jnsgd1na2vs0mg"},{"bike_id":"35f481e5-a44a-44bd-872d-36547d0835cb","system_id":"levelo_inurba_marseille","lat":43.28719,"lon":5.37936,"is_reserved":false,"is_disabled":false,"rental_uris":{"android":"levelo://app?vid=35f481e5-a44a-44bd-872d-36547d0835cb","ios":"levelo://app?vid=35f481e5-a44a-44bd-872d-36547d0835cb"},"vehicle_type_id":"4","last_reported":1727075378,"current_range_meters":20400,"station_id":"ce4bh9p2rcd13ifvqec0","pricing_plan_id":"cebpf4jnsgd1na2vs0mg"},{"bike_id":"bc0b8359-a17a-46af-bf28-50d22bf8835c","system_id":"levelo_inurba_marseille","lat":43.30545,"lon":5.36715,"is_reserved":false,"is_disabled":false,"rental_uris":{"android":"levelo://app?vid=bc0b8359-a17a-46af-bf28-50d22bf8835c","ios":"levelo://app?vid=bc0b8359-a17a-46af-bf28-50d22bf8835c"},"vehicle_type_id":"4","last_reported":1727075378,"current_range_meters":36000,"station_id":"ce4bgrp2rcd13ifvqc9g","pricing_plan_id":"cebpf4jnsgd1na2vs0mg"},{"bike_id":"88de7929-7efa-466d-9e2a-ea683c637482","system_id":"levelo_inurba_marseille","lat":43.25576,"lon":5.38241,"is_reserved":false,"is_disabled":false,"rental_uris":{"android":"levelo://app?vid=88de7929-7efa-466d-9e2a-ea683c637482","ios":"levelo://app?vid=88de7929-7efa-466d-9e2a-ea683c637482"},"vehicle_type_id":"4","last_reported":1727075378,"current_range_meters":33200,"station_id":"ce4bhih2rcd13ifvqfs0","pricing_plan_id":"cebpf4jnsgd1na2vs0mg"},{"bike_id":"1575e777-51f8-479e-bd95-714cef91a125","system_id":"levelo_inurba_marseille","lat":43.24178,"lon":5.39718,"is_reserved":false,"is_disabled":false,"rental_uris":{"android":"levelo://app?vid=1575e777-51f8-479e-bd95-714cef91a125","ios":"levelo://app?vid=1575e777-51f8-479e-bd95-714cef91a125"},"vehicle_type_id":"4","last_reported":1727075378,"current_range_meters":23200,"station_id":"ce4bhn12rcd13ifvqgpg","pricing_plan_id":"cebpf4jnsgd1na2vs0mg"},{"bike_id":"795d6093-3259-4978-9b6d-4634664b6f15","system_id":"levelo_inurba_marseille","lat":43.2655,"lon":5.37285,"is_reserved":false,"is_disabled":false,"rental_uris":{"android":"levelo://app?vid=795d6093-3259-4978-9b6d-4634664b6f15","ios":"levelo://app?vid=795d6093-3259-4978-9b6d-4634664b6f15"},"vehicle_type_id":"4","last_reported":1727075378,"current_range_meters":36800,"station_id":"ce4bhg12rcd13ifvqf70","pricing_plan_id":"cebpf4jnsgd1na2vs0mg"},{"bike_id":"2c3baefd-e174-4a0f-b3c0-c1acdaa422ad","system_id":"levelo_inurba_marseille","lat":43.25936,"lon":5.40912,"is_reserved":false,"is_disabled":false,"rental_uris":{"android":"levelo://app?vid=2c3baefd-e174-4a0f-b3c0-c1acdaa422ad","ios":"levelo://app?vid=2c3baefd-e174-4a0f-b3c0-c1acdaa422ad"},"vehicle_type_id":"4","last_reported":1727075378,"current_range_meters":34800,"station_id":"ce4bhm92rcd13ifvqglg","pricing_plan_id":"cebpf4jnsgd1na2vs0mg"},{"bike_id":"02486d64-1a8b-4bbe-b235-713b4d9a1f6e","system_id":"levelo_inurba_marseille","lat":43.24075,"lon":5.37761,"is_reserved":false,"is_disabled":false,"rental_uris":{"android":"levelo://app?vid=02486d64-1a8b-4bbe-b235-713b4d9a1f6e","ios":"levelo://app?vid=02486d64-1a8b-4bbe-b235-713b4d9a1f6e"},"vehicle_type_id":"4","last_reported":1727075378,"current_range_meters":28800,"station_id":"ce4bhnp2rcd13ifvqgvg","pricing_plan_id":"cebpf4jnsgd1na2vs0mg"},{"bike_id":"c8e51b48-153b-4ef3-b8a3-de3ee7e4bdc6","system_id":"levelo_inurba_marseille","lat":43.24071,"lon":5.37761,"is_reserved":false,"is_disabled":false,"rental_uris":{"android":"levelo://app?vid=c8e51b48-153b-4ef3-b8a3-de3ee7e4bdc6","ios":"levelo://app?vid=c8e51b48-153b-4ef3-b8a3-de3ee7e4bdc6"},"vehicle_type_id":"4","last_reported":1727075378,"current_range_meters":28000,"station_id":"ce4bhnp2rcd13ifvqgvg","pricing_plan_id":"cebpf4jnsgd1na2vs0mg"},{"bike_id":"3d344747-a764-4b98-9235-5161bd83f230","system_id":"levelo_inurba_marseille","lat":43.25719,"lon":5.41113,"is_reserved":false,"is_disabled":false,"rental_uris":{"android":"levelo://app?vid=3d344747-a764-4b98-9235-5161bd83f230","ios":"levelo://app?vid=3d344747-a764-4b98-9235-5161bd83f230"},"vehicle_type_id":"4","last_reported":1727075378,"current_range_meters":11200,"station_id":"ce4bhkp2rcd13ifvqgd0","pricing_plan_id":"cebpf4jnsgd1na2vs0mg"},{"bike_id":"d5102b31-92ce-42f0-97a3-50a7d1e6a409","system_id":"levelo_inurba_marseille","lat":43.30463,"lon":5.37913,"is_reserved":false,"is_disabled":false,"rental_uris":{"android":"levelo://app?vid=d5102b31-92ce-42f0-97a3-50a7d1e6a409","ios":"levelo://app?vid=d5102b31-92ce-42f0-97a3-50a7d1e6a409"},"vehicle_type_id":"4","last_reported":1727075378,"current_range_meters":21600,"station_id":"ce4bgup2rcd13ifvqcn0","pricing_plan_id":"cebpf4jnsgd1na2vs0mg"},{"bike_id":"d765ecc6-f24e-4e18-aeb0-429ef33b50a7","system_id":"levelo_inurba_marseille","lat":43.23186,"lon":5.39973,"is_reserved":false,"is_disabled":false,"rental_uris":{"android":"levelo://app?vid=d765ecc6-f24e-4e18-aeb0-429ef33b50a7","ios":"levelo://app?vid=d765ecc6-f24e-4e18-aeb0-429ef33b50a7"},"vehicle_type_id":"4","last_reported":1727075378,"current_range_meters":38800,"station_id":"ce4bhn12rcd13ifvqgqg","pricing_plan_id":"cebpf4jnsgd1na2vs0mg"},{"bike_id":"09b0c39f-a13f-4fb3-b353-5833cb9ecfc5","system_id":"levelo_inurba_marseille","lat":43.31345,"lon":5.36727,"is_reserved":false,"is_disabled":false,"rental_uris":{"android":"levelo://app?vid=09b0c39f-a13f-4fb3-b353-5833cb9ecfc5","ios":"levelo://app?vid=09b0c39f-a13f-4fb3-b353-5833cb9ecfc5"},"vehicle_type_id":"4","last_reported":1727075378,"current_range_meters":32800,"station_id":"ce4bgr92rcd13ifvqc6g","pricing_plan_id":"cebpf4jnsgd1na2vs0mg"},{"bike_id":"feb42740-c719-4916-9efa-d99f861e0e6d","system_id":"levelo_inurba_marseille","lat":43.32484,"lon":5.36575,"is_reserved":false,"is_disabled":false,"rental_uris":{"android":"levelo://app?vid=feb42740-c719-4916-9efa-d99f861e0e6d","ios":"levelo://app?vid=feb42740-c719-4916-9efa-d99f861e0e6d"},"vehicle_type_id":"4","last_reported":1727075378,"current_range_meters":31200,"station_id":"ce4bhs12rcd13ifvqhvg","pricing_plan_id":"cebpf4jnsgd1na2vs0mg"},{"bike_id":"914ae7ef-1ebe-4882-be25-0c3aa3dad21f","system_id":"levelo_inurba_marseille","lat":43.30532,"lon":5.3666,"is_reserved":false,"is_disabled":false,"rental_uris":{"android":"levelo://app?vid=914ae7ef-1ebe-4882-be25-0c3aa3dad21f","ios":"levelo://app?vid=914ae7ef-1ebe-4882-be25-0c3aa3dad21f"},"vehicle_type_id":"4","last_reported":1727075378,"current_range_meters":27600,"station_id":"ce4bgrp2rcd13ifvqc9g","pricing_plan_id":"cebpf4jnsgd1na2vs0mg"},{"bike_id":"d046b3da-ed69-4d0f-9008-8ae80b6ca284","system_id":"levelo_inurba_marseille","lat":43.32537,"lon":5.4145,"is_reserved":false,"is_disabled":false,"rental_uris":{"android":"levelo://app?vid=d046b3da-ed69-4d0f-9008-8ae80b6ca284","ios":"levelo://app?vid=d046b3da-ed69-4d0f-9008-8ae80b6ca284"},"vehicle_type_id":"4","last_reported":1727075378,"current_range_meters":37600,"station_id":"ce4bhq12rcd13ifvqhhg","pricing_plan_id":"cebpf4jnsgd1na2vs0mg"},{"bike_id":"d88c04c9-5e62-4d5d-851d-643f064c8972","system_id":"levelo_inurba_marseille","lat":43.26558,"lon":5.39009,"is_reserved":false,"is_disabled":false,"rental_uris":{"android":"levelo://app?vid=d88c04c9-5e62-4d5d-851d-643f064c8972","ios":"levelo://app?vid=d88c04c9-5e62-4d5d-851d-643f064c8972"},"vehicle_type_id":"4","last_reported":1727075378,"current_range_meters":38000,"station_id":"ce4bhe12rcd13ifvqf30","pricing_plan_id":"cebpf4jnsgd1na2vs0mg"},{"bike_id":"2e3d6f58-8dab-419c-8f73-7030681d185a","system_id":"levelo_inurba_marseille","lat":43.27305,"lon":5.39092,"is_reserved":false,"is_disabled":false,"rental_uris":{"android":"levelo://app?vid=2e3d6f58-8dab-419c-8f73-7030681d185a","ios":"levelo://app?vid=2e3d6f58-8dab-419c-8f73-7030681d185a"},"vehicle_type_id":"4","last_reported":1727075378,"current_range_meters":29600,"station_id":"ce4bhgp2rcd13ifvqfe0","pricing_plan_id":"cebpf4jnsgd1na2vs0mg"},{"bike_id":"fce734b4-6c36-4cb6-983c-c95238702258","system_id":"levelo_inurba_marseille","lat":43.31073,"lon":5.38119,"is_reserved":false,"is_disabled":false,"rental_uris":{"android":"levelo://app?vid=fce734b4-6c36-4cb6-983c-c95238702258","ios":"levelo://app?vid=fce734b4-6c36-4cb6-983c-c95238702258"},"vehicle_type_id":"4","last_reported":1727075378,"current_range_meters":8400,"station_id":"","pricing_plan_id":"cebpf4jnsgd1na2vs0mg"},{"bike_id":"12befd97-e3a5-4214-80b6-88d32677b22d","system_id":"levelo_inurba_marseille","lat":43.26504,"lon":5.3954,"is_reserved":false,"is_disabled":false,"rental_uris":{"android":"levelo://app?vid=12befd97-e3a5-4214-80b6-88d32677b22d","ios":"levelo://app?vid=12befd97-e3a5-4214-80b6-88d32677b22d"},"vehicle_type_id":"4","last_reported":1727075378,"current_range_meters":36800,"station_id":"ce4bhi12rcd13ifvqfq0","pricing_plan_id":"cebpf4jnsgd1na2vs0mg"},{"bike_id":"55312e9c-8d7a-4104-aea6-b6bceb05f2bb","system_id":"levelo_inurba_marseille","lat":43.30135,"lon":5.37424,"is_reserved":false,"is_disabled":false,"rental_uris":{"android":"levelo://app?vid=55312e9c-8d7a-4104-aea6-b6bceb05f2bb","ios":"levelo://app?vid=55312e9c-8d7a-4104-aea6-b6bceb05f2bb"},"vehicle_type_id":"4","last_reported":1727075378,"current_range_meters":36000,"station_id":"ce4bgs92rcd13ifvqcc0","pricing_plan_id":"cebpf4jnsgd1na2vs0mg"},{"bike_id":"4d63ed95-027e-4cb2-886f-27e3f2b6b77d","system_id":"levelo_inurba_marseille","lat":43.31335,"lon":5.36716,"is_reserved":false,"is_disabled":false,"rental_uris":{"android":"levelo://app?vid=4d63ed95-027e-4cb2-886f-27e3f2b6b77d","ios":"levelo://app?vid=4d63ed95-027e-4cb2-886f-27e3f2b6b77d"},"vehicle_type_id":"4","last_reported":1727075378,"current_range_meters":35600,"station_id":"ce4bgr92rcd13ifvqc6g","pricing_plan_id":"cebpf4jnsgd1na2vs0mg"},{"bike_id":"e9ff8a04-d08a-4e53-ba15-13ed3974ebbf","system_id":"levelo_inurba_marseille","lat":43.29902,"lon":5.43672,"is_reserved":false,"is_disabled":false,"rental_uris":{"android":"levelo://app?vid=e9ff8a04-d08a-4e53-ba15-13ed3974ebbf","ios":"levelo://app?vid=e9ff8a04-d08a-4e53-ba15-13ed3974ebbf"},"vehicle_type_id":"4","last_reported":1727075378,"current_range_meters":10800,"station_id":"ce4bhpp2rcd13ifvqhfg","pricing_plan_id":"cebpf4jnsgd1na2vs0mg"},{"bike_id":"13aed5f1-c255-40bb-923e-72956c25d1fe","system_id":"levelo_inurba_marseille","lat":43.30957,"lon":5.39033,"is_reserved":false,"is_disabled":false,"rental_uris":{"android":"levelo://app?vid=13aed5f1-c255-40bb-923e-72956c25d1fe","ios":"levelo://app?vid=13aed5f1-c255-40bb-923e-72956c25d1fe"},"vehicle_type_id":"4","last_reported":1727075378,"current_range_meters":4800,"station_id":"ce4bgup2rcd13ifvqco0","pricing_plan_id":"cebpf4jnsgd1na2vs0mg"},{"bike_id":"e5afe0f9-2845-4770-8a8a-1f97c66f27dc","system_id":"levelo_inurba_marseille","lat":43.25934,"lon":5.40915,"is_reserved":false,"is_disabled":false,"rental_uris":{"android":"levelo://app?vid=e5afe0f9-2845-4770-8a8a-1f97c66f27dc","ios":"levelo://app?vid=e5afe0f9-2845-4770-8a8a-1f97c66f27dc"},"vehicle_type_id":"4","last_reported":1727075378,"current_range_meters":30000,"station_id":"ce4bhm92rcd13ifvqglg","pricing_plan_id":"cebpf4jnsgd1na2vs0mg"},{"bike_id":"25d05282-6b5a-48d1-8587-ef49257c7481","system_id":"levelo_inurba_marseille","lat":43.26954,"lon":5.38639,"is_reserved":false,"is_disabled":false,"rental_uris":{"android":"levelo://app?vid=25d05282-6b5a-48d1-8587-ef49257c7481","ios":"levelo://app?vid=25d05282-6b5a-48d1-8587-ef49257c7481"},"vehicle_type_id":"4","last_reported":1727075378,"current_range_meters":28000,"station_id":"ce4bhh92rcd13ifvqfh0","pricing_plan_id":"cebpf4jnsgd1na2vs0mg"},{"bike_id":"7957dc25-aea7-4240-a322-90ab3bffe732","system_id":"levelo_inurba_marseille","lat":43.29609,"lon":5.37712,"is_reserved":false,"is_disabled":false,"rental_uris":{"android":"levelo://app?vid=7957dc25-aea7-4240-a322-90ab3bffe732","ios":"levelo://app?vid=7957dc25-aea7-4240-a322-90ab3bffe732"},"vehicle_type_id":"4","last_reported":1727075378,"current_range_meters":13600,"station_id":"ce4bgi92rcd13ifvqb90","pricing_plan_id":"cebpf4jnsgd1na2vs0mg"},{"bike_id":"428092fd-fc7b-41a7-8d76-494bb0bbe4c5","system_id":"levelo_inurba_marseille","lat":43.25855,"lon":5.39905,"is_reserved":false,"is_disabled":false,"rental_uris":{"android":"levelo://app?vid=428092fd-fc7b-41a7-8d76-494bb0bbe4c5","ios":"levelo://app?vid=428092fd-fc7b-41a7-8d76-494bb0bbe4c5"},"vehicle_type_id":"4","last_reported":1727075378,"current_range_meters":2000,"station_id":"ce4bhl92rcd13ifvqghg","pricing_plan_id":"cebpf4jnsgd1na2vs0mg"},{"bike_id":"28284f2d-af6a-41fc-ad17-2d5e99e0773a","system_id":"levelo_inurba_marseille","lat":43.3054,"lon":5.36566,"is_reserved":false,"is_disabled":false,"rental_uris":{"android":"levelo://app?vid=28284f2d-af6a-41fc-ad17-2d5e99e0773a","ios":"levelo://app?vid=28284f2d-af6a-41fc-ad17-2d5e99e0773a"},"vehicle_type_id":"4","last_reported":1727075378,"current_range_meters":38000,"station_id":"ce4bgs12rcd13ifvqcag","pricing_plan_id":"cebpf4jnsgd1na2vs0mg"},{"bike_id":"b8551345-00a8-413b-a6da-b44b1e50d1de","system_id":"levelo_inurba_marseille","lat":43.27498,"lon":5.42451,"is_reserved":false,"is_disabled":false,"rental_uris":{"android":"levelo://app?vid=b8551345-00a8-413b-a6da-b44b1e50d1de","ios":"levelo://app?vid=b8551345-00a8-413b-a6da-b44b1e50d1de"},"vehicle_type_id":"4","last_reported":1727075378,"current_range_meters":35600,"station_id":"ce4bhn92rcd13ifvqgrg","pricing_plan_id":"cebpf4jnsgd1na2vs0mg"},{"bike_id":"e43e6310-a348-41cd-8943-af09fa3133d4","system_id":"levelo_inurba_marseille","lat":43.25863,"lon":5.399,"is_reserved":false,"is_disabled":false,"rental_uris":{"android":"levelo://app?vid=e43e6310-a348-41cd-8943-af09fa3133d4","ios":"levelo://app?vid=e43e6310-a348-41cd-8943-af09fa3133d4"},"vehicle_type_id":"4","last_reported":1727075378,"current_range_meters":24400,"station_id":"ce4bhl92rcd13ifvqghg","pricing_plan_id":"cebpf4jnsgd1na2vs0mg"},{"bike_id":"8aee470c-444f-4012-9ea5-a18a32eca774","system_id":"levelo_inurba_marseille","lat":43.30554,"lon":5.36704,"is_reserved":false,"is_disabled":false,"rental_uris":{"android":"levelo://app?vid=8aee470c-444f-4012-9ea5-a18a32eca774","ios":"levelo://app?vid=8aee470c-444f-4012-9ea5-a18a32eca774"},"vehicle_type_id":"4","last_reported":1727075378,"current_range_meters":36000,"station_id":"ce4bgrp2rcd13ifvqc9g","pricing_plan_id":"cebpf4jnsgd1na2vs0mg"},{"bike_id":"a4208628-066b-42c3-b00c-c07f6ef4fbbb","system_id":"levelo_inurba_marseille","lat":43.29115,"lon":5.37359,"is_reserved":false,"is_disabled":false,"rental_uris":{"android":"levelo://app?vid=a4208628-066b-42c3-b00c-c07f6ef4fbbb","ios":"levelo://app?vid=a4208628-066b-42c3-b00c-c07f6ef4fbbb"},"vehicle_type_id":"4","last_reported":1727075378,"current_range_meters":26800,"station_id":"","pricing_plan_id":"cebpf4jnsgd1na2vs0mg"},{"bike_id":"c4cec563-92d6-48ac-8134-baab15f24086","system_id":"levelo_inurba_marseille","lat":43.29258,"lon":5.3843,"is_reserved":false,"is_disabled":false,"rental_uris":{"android":"levelo://app?vid=c4cec563-92d6-48ac-8134-baab15f24086","ios":"levelo://app?vid=c4cec563-92d6-48ac-8134-baab15f24086"},"vehicle_type_id":"4","last_reported":1727075378,"current_range_meters":28000,"station_id":"ce4bh692rcd13ifvqea0","pricing_plan_id":"cebpf4jnsgd1na2vs0mg"},{"bike_id":"cb660a1f-39c0-4b29-b61c-d5403f8d97e7","system_id":"levelo_inurba_marseille","lat":43.26688,"lon":5.38272,"is_reserved":false,"is_disabled":false,"rental_uris":{"android":"levelo://app?vid=cb660a1f-39c0-4b29-b61c-d5403f8d97e7","ios":"levelo://app?vid=cb660a1f-39c0-4b29-b61c-d5403f8d97e7"},"vehicle_type_id":"4","last_reported":1727075378,"current_range_meters":33200,"station_id":"ce4bhg92rcd13ifvqf90","pricing_plan_id":"cebpf4jnsgd1na2vs0mg"},{"bike_id":"4fbb5250-9647-470b-8d93-052750ba4685","system_id":"levelo_inurba_marseille","lat":43.287806,"lon":5.373697,"is_reserved":false,"is_disabled":false,"rental_uris":{"android":"levelo://app?vid=4fbb5250-9647-470b-8d93-052750ba4685","ios":"levelo://app?vid=4fbb5250-9647-470b-8d93-052750ba4685"},"vehicle_type_id":"4","last_reported":1727075378,"current_range_meters":20800,"station_id":"ce4bh692rcd13ifvqe90","pricing_plan_id":"cebpf4jnsgd1na2vs0mg"},{"bike_id":"0b1c28ef-5ef3-4666-9073-ad52f59ddee8","system_id":"levelo_inurba_marseille","lat":43.32543,"lon":5.41448,"is_reserved":false,"is_disabled":false,"rental_uris":{"android":"levelo://app?vid=0b1c28ef-5ef3-4666-9073-ad52f59ddee8","ios":"levelo://app?vid=0b1c28ef-5ef3-4666-9073-ad52f59ddee8"},"vehicle_type_id":"4","last_reported":1727075378,"current_range_meters":39200,"station_id":"ce4bhq12rcd13ifvqhhg","pricing_plan_id":"cebpf4jnsgd1na2vs0mg"},{"bike_id":"ad4fa942-d5b9-422b-bd70-10f63308ed2c","system_id":"levelo_inurba_marseille","lat":43.277929,"lon":5.395394,"is_reserved":false,"is_disabled":false,"rental_uris":{"android":"levelo://app?vid=ad4fa942-d5b9-422b-bd70-10f63308ed2c","ios":"levelo://app?vid=ad4fa942-d5b9-422b-bd70-10f63308ed2c"},"vehicle_type_id":"4","last_reported":1727075378,"current_range_meters":12400,"station_id":"","pricing_plan_id":"cebpf4jnsgd1na2vs0mg"},{"bike_id":"46e7af3d-b5e0-41a0-80fe-2ada42bab11a","system_id":"levelo_inurba_marseille","lat":43.29346,"lon":5.3783,"is_reserved":false,"is_disabled":false,"rental_uris":{"android":"levelo://app?vid=46e7af3d-b5e0-41a0-80fe-2ada42bab11a","ios":"levelo://app?vid=46e7af3d-b5e0-41a0-80fe-2ada42bab11a"},"vehicle_type_id":"4","last_reported":1727075378,"current_range_meters":30800,"station_id":"ce4bgjh2rcd13ifvqbf0","pricing_plan_id":"cebpf4jnsgd1na2vs0mg"},{"bike_id":"cafb602b-8776-4cd0-b218-80177be4ba9b","system_id":"levelo_inurba_marseille","lat":43.30313,"lon":5.36904,"is_reserved":false,"is_disabled":false,"rental_uris":{"android":"levelo://app?vid=cafb602b-8776-4cd0-b218-80177be4ba9b","ios":"levelo://app?vid=cafb602b-8776-4cd0-b218-80177be4ba9b"},"vehicle_type_id":"4","last_reported":1727075378,"current_range_meters":39200,"station_id":"ce4bgqh2rcd13ifvqc5g","pricing_plan_id":"cebpf4jnsgd1na2vs0mg"},{"bike_id":"fa690805-233a-4a70-a9f3-33f1b67cdb1f","system_id":"levelo_inurba_marseille","lat":43.32288,"lon":5.38245,"is_reserved":false,"is_disabled":false,"rental_uris":{"android":"levelo://app?vid=fa690805-233a-4a70-a9f3-33f1b67cdb1f","ios":"levelo://app?vid=fa690805-233a-4a70-a9f3-33f1b67cdb1f"},"vehicle_type_id":"4","last_reported":1727075378,"current_range_meters":38400,"station_id":"ce4bhr12rcd13ifvqhqg","pricing_plan_id":"cebpf4jnsgd1na2vs0mg"},{"bike_id":"c7a5c9a2-9c90-4677-8e5f-4be40a154f91","system_id":"levelo_inurba_marseille","lat":43.30308,"lon":5.36908,"is_reserved":false,"is_disabled":false,"rental_uris":{"android":"levelo://app?vid=c7a5c9a2-9c90-4677-8e5f-4be40a154f91","ios":"levelo://app?vid=c7a5c9a2-9c90-4677-8e5f-4be40a154f91"},"vehicle_type_id":"4","last_reported":1727075378,"current_range_meters":38800,"station_id":"ce4bgqh2rcd13ifvqc5g","pricing_plan_id":"cebpf4jnsgd1na2vs0mg"},{"bike_id":"7de67f75-7e3b-4a49-9cf3-b09ec2ff7e13","system_id":"levelo_inurba_marseille","lat":43.26032,"lon":5.37545,"is_reserved":false,"is_disabled":false,"rental_uris":{"android":"levelo://app?vid=7de67f75-7e3b-4a49-9cf3-b09ec2ff7e13","ios":"levelo://app?vid=7de67f75-7e3b-4a49-9cf3-b09ec2ff7e13"},"vehicle_type_id":"4","last_reported":1727075378,"current_range_meters":37600,"station_id":"ce4bhgh2rcd13ifvqfa0","pricing_plan_id":"cebpf4jnsgd1na2vs0mg"},{"bike_id":"2d39d9a8-2632-4d7d-a3d3-90298181a4c1","system_id":"levelo_inurba_marseille","lat":43.296082,"lon":5.369663,"is_reserved":false,"is_disabled":false,"rental_uris":{"android":"levelo://app?vid=2d39d9a8-2632-4d7d-a3d3-90298181a4c1","ios":"levelo://app?vid=2d39d9a8-2632-4d7d-a3d3-90298181a4c1"},"vehicle_type_id":"4","last_reported":1727075378,"current_range_meters":22400,"station_id":"","pricing_plan_id":"cebpf4jnsgd1na2vs0mg"},{"bike_id":"ac75444e-cc51-4669-a3cc-bb12b679f442","system_id":"levelo_inurba_marseille","lat":43.30924,"lon":5.36851,"is_reserved":false,"is_disabled":false,"rental_uris":{"android":"levelo://app?vid=ac75444e-cc51-4669-a3cc-bb12b679f442","ios":"levelo://app?vid=ac75444e-cc51-4669-a3cc-bb12b679f442"},"vehicle_type_id":"4","last_reported":1727075378,"current_range_meters":38400,"station_id":"ce4bgn92rcd13ifvqbvg","pricing_plan_id":"cebpf4jnsgd1na2vs0mg"},{"bike_id":"1953203c-f700-4715-8512-dffe8b385af7","system_id":"levelo_inurba_marseille","lat":43.29317,"lon":5.37179,"is_reserved":false,"is_disabled":false,"rental_uris":{"android":"levelo://app?vid=1953203c-f700-4715-8512-dffe8b385af7","ios":"levelo://app?vid=1953203c-f700-4715-8512-dffe8b385af7"},"vehicle_type_id":"4","last_reported":1727075378,"current_range_meters":30400,"station_id":"ce4bgh92rcd13ifvqb40","pricing_plan_id":"cebpf4jnsgd1na2vs0mg"},{"bike_id":"63837e2f-9e9e-4ca3-8127-3738fe4726e5","system_id":"levelo_inurba_marseille","lat":43.27489,"lon":5.42456,"is_reserved":false,"is_disabled":false,"rental_uris":{"android":"levelo://app?vid=63837e2f-9e9e-4ca3-8127-3738fe4726e5","ios":"levelo://app?vid=63837e2f-9e9e-4ca3-8127-3738fe4726e5"},"vehicle_type_id":"4","last_reported":1727075378,"current_range_meters":38400,"station_id":"ce4bhn92rcd13ifvqgrg","pricing_plan_id":"cebpf4jnsgd1na2vs0mg"},{"bike_id":"b9676bc6-39c1-4a22-94b4-02bce4ff8d0c","system_id":"levelo_inurba_marseille","lat":43.293823,"lon":5.374261,"is_reserved":false,"is_disabled":false,"rental_uris":{"android":"levelo://app?vid=b9676bc6-39c1-4a22-94b4-02bce4ff8d0c","ios":"levelo://app?vid=b9676bc6-39c1-4a22-94b4-02bce4ff8d0c"},"vehicle_type_id":"4","last_reported":1727075378,"current_range_meters":32000,"station_id":"ce4bgs12rcd13ifvqcag","pricing_plan_id":"cebpf4jnsgd1na2vs0mg"},{"bike_id":"73ffd0e7-8c56-4539-93a3-5db195e8d280","system_id":"levelo_inurba_marseille","lat":43.25826,"lon":5.39425,"is_reserved":false,"is_disabled":false,"rental_uris":{"android":"levelo://app?vid=73ffd0e7-8c56-4539-93a3-5db195e8d280","ios":"levelo://app?vid=73ffd0e7-8c56-4539-93a3-5db195e8d280"},"vehicle_type_id":"4","last_reported":1727075378,"current_range_meters":36000,"station_id":"ce4bhip2rcd13ifvqft0","pricing_plan_id":"cebpf4jnsgd1na2vs0mg"},{"bike_id":"9dedd569-8754-4eaa-80e4-17076148da44","system_id":"levelo_inurba_marseille","lat":43.24072,"lon":5.377606,"is_reserved":false,"is_disabled":false,"rental_uris":{"android":"levelo://app?vid=9dedd569-8754-4eaa-80e4-17076148da44","ios":"levelo://app?vid=9dedd569-8754-4eaa-80e4-17076148da44"},"vehicle_type_id":"4","last_reported":1727075378,"current_range_meters":39200,"station_id":"ce4bhnp2rcd13ifvqgvg","pricing_plan_id":"cebpf4jnsgd1na2vs0mg"},{"bike_id":"10f97bcd-9b3b-4ced-a2bf-3e19fdf756ee","system_id":"levelo_inurba_marseille","lat":43.27818,"lon":5.40689,"is_reserved":false,"is_disabled":false,"rental_uris":{"android":"levelo://app?vid=10f97bcd-9b3b-4ced-a2bf-3e19fdf756ee","ios":"levelo://app?vid=10f97bcd-9b3b-4ced-a2bf-3e19fdf756ee"},"vehicle_type_id":"4","last_reported":1727075378,"current_range_meters":15200,"station_id":"ce4bhnh2rcd13ifvqgtg","pricing_plan_id":"cebpf4jnsgd1na2vs0mg"},{"bike_id":"7f3dfbf8-58c2-48bd-89d3-6f61b05952bf","system_id":"levelo_inurba_marseille","lat":43.29532,"lon":5.37496,"is_reserved":false,"is_disabled":false,"rental_uris":{"android":"levelo://app?vid=7f3dfbf8-58c2-48bd-89d3-6f61b05952bf","ios":"levelo://app?vid=7f3dfbf8-58c2-48bd-89d3-6f61b05952bf"},"vehicle_type_id":"4","last_reported":1727075378,"current_range_meters":30800,"station_id":"ce4bgkp2rcd13ifvqbmg","pricing_plan_id":"cebpf4jnsgd1na2vs0mg"},{"bike_id":"43a4486f-73b8-48fa-937a-5bbf0dc70ef5","system_id":"levelo_inurba_marseille","lat":43.29098,"lon":5.38123,"is_reserved":false,"is_disabled":false,"rental_uris":{"android":"levelo://app?vid=43a4486f-73b8-48fa-937a-5bbf0dc70ef5","ios":"levelo://app?vid=43a4486f-73b8-48fa-937a-5bbf0dc70ef5"},"vehicle_type_id":"4","last_reported":1727075378,"current_range_meters":23200,"station_id":"ce4bh512rcd13ifvqe2g","pricing_plan_id":"cebpf4jnsgd1na2vs0mg"},{"bike_id":"fa130a66-b9a6-4adb-a919-a32f057f372e","system_id":"levelo_inurba_marseille","lat":43.30348,"lon":5.418832,"is_reserved":false,"is_disabled":false,"rental_uris":{"android":"levelo://app?vid=fa130a66-b9a6-4adb-a919-a32f057f372e","ios":"levelo://app?vid=fa130a66-b9a6-4adb-a919-a32f057f372e"},"vehicle_type_id":"4","last_reported":1727075378,"current_range_meters":9200,"station_id":"ce4bhph2rcd13ifvqhdg","pricing_plan_id":"cebpf4jnsgd1na2vs0mg"},{"bike_id":"73c95d91-4339-4d75-b1c4-461a3daf1b5f","system_id":"levelo_inurba_marseille","lat":43.29553,"lon":5.42281,"is_reserved":false,"is_disabled":false,"rental_uris":{"android":"levelo://app?vid=73c95d91-4339-4d75-b1c4-461a3daf1b5f","ios":"levelo://app?vid=73c95d91-4339-4d75-b1c4-461a3daf1b5f"},"vehicle_type_id":"4","last_reported":1727075378,"current_range_meters":37600,"station_id":"ce4bhph2rcd13ifvqhdg","pricing_plan_id":"cebpf4jnsgd1na2vs0mg"},{"bike_id":"a18ab7b7-a6f9-4eb0-9ad1-dd7ee1f578dd","system_id":"levelo_inurba_marseille","lat":43.33606,"lon":5.41025,"is_reserved":false,"is_disabled":false,"rental_uris":{"android":"levelo://app?vid=a18ab7b7-a6f9-4eb0-9ad1-dd7ee1f578dd","ios":"levelo://app?vid=a18ab7b7-a6f9-4eb0-9ad1-dd7ee1f578dd"},"vehicle_type_id":"4","last_reported":1727075378,"current_range_meters":27200,"station_id":"ce4bhqh2rcd13ifvqhmg","pricing_plan_id":"cebpf4jnsgd1na2vs0mg"},{"bike_id":"bec92394-8860-4fe2-8433-524cc1554a7a","system_id":"levelo_inurba_marseille","lat":43.31718,"lon":5.43704,"is_reserved":false,"is_disabled":false,"rental_uris":{"android":"levelo://app?vid=bec92394-8860-4fe2-8433-524cc1554a7a","ios":"levelo://app?vid=bec92394-8860-4fe2-8433-524cc1554a7a"},"vehicle_type_id":"4","last_reported":1727075378,"current_range_meters":38800,"station_id":"ce4bhp92rcd13ifvqhcg","pricing_plan_id":"cebpf4jnsgd1na2vs0mg"},{"bike_id":"b24a8981-b962-49bc-aa89-652fa18d4cfd","system_id":"levelo_inurba_marseille","lat":43.26551,"lon":5.37284,"is_reserved":false,"is_disabled":false,"rental_uris":{"android":"levelo://app?vid=b24a8981-b962-49bc-aa89-652fa18d4cfd","ios":"levelo://app?vid=b24a8981-b962-49bc-aa89-652fa18d4cfd"},"vehicle_type_id":"4","last_reported":1727075378,"current_range_meters":36800,"station_id":"ce4bhg12rcd13ifvqf70","pricing_plan_id":"cebpf4jnsgd1na2vs0mg"},{"bike_id":"41e3be79-0483-4710-aecf-a207e49d16f8","system_id":"levelo_inurba_marseille","lat":43.2955,"lon":5.42288,"is_reserved":false,"is_disabled":false,"rental_uris":{"android":"levelo://app?vid=41e3be79-0483-4710-aecf-a207e49d16f8","ios":"levelo://app?vid=41e3be79-0483-4710-aecf-a207e49d16f8"},"vehicle_type_id":"4","last_reported":1727075378,"current_range_meters":16400,"station_id":"ce4bhph2rcd13ifvqhdg","pricing_plan_id":"cebpf4jnsgd1na2vs0mg"},{"bike_id":"70866c3f-d3d7-40cb-8dca-ba47f614494f","system_id":"levelo_inurba_marseille","lat":43.3254,"lon":5.41443,"is_reserved":false,"is_disabled":false,"rental_uris":{"android":"levelo://app?vid=70866c3f-d3d7-40cb-8dca-ba47f614494f","ios":"levelo://app?vid=70866c3f-d3d7-40cb-8dca-ba47f614494f"},"vehicle_type_id":"4","last_reported":1727075378,"current_range_meters":14000,"station_id":"ce4bhq12rcd13ifvqhhg","pricing_plan_id":"cebpf4jnsgd1na2vs0mg"},{"bike_id":"eee05696-6b55-4ea5-a62a-8149d3287208","system_id":"levelo_inurba_marseille","lat":43.30524,"lon":5.36534,"is_reserved":false,"is_disabled":false,"rental_uris":{"android":"levelo://app?vid=eee05696-6b55-4ea5-a62a-8149d3287208","ios":"levelo://app?vid=eee05696-6b55-4ea5-a62a-8149d3287208"},"vehicle_type_id":"4","last_reported":1727075378,"current_range_meters":27600,"station_id":"ce4bgs12rcd13ifvqcag","pricing_plan_id":"cebpf4jnsgd1na2vs0mg"},{"bike_id":"9e7835dd-a7d1-4696-a51e-fa6b2581c7b2","system_id":"levelo_inurba_marseille","lat":43.29919,"lon":5.38122,"is_reserved":false,"is_disabled":false,"rental_uris":{"android":"levelo://app?vid=9e7835dd-a7d1-4696-a51e-fa6b2581c7b2","ios":"levelo://app?vid=9e7835dd-a7d1-4696-a51e-fa6b2581c7b2"},"vehicle_type_id":"4","last_reported":1727075378,"current_range_meters":38000,"station_id":"ce4bgj12rcd13ifvqbc0","pricing_plan_id":"cebpf4jnsgd1na2vs0mg"},{"bike_id":"45e12e89-d706-4a76-b8da-b5ff7a99a24a","system_id":"levelo_inurba_marseille","lat":43.32542,"lon":5.41441,"is_reserved":false,"is_disabled":false,"rental_uris":{"android":"levelo://app?vid=45e12e89-d706-4a76-b8da-b5ff7a99a24a","ios":"levelo://app?vid=45e12e89-d706-4a76-b8da-b5ff7a99a24a"},"vehicle_type_id":"4","last_reported":1727075378,"current_range_meters":35600,"station_id":"ce4bhq12rcd13ifvqhhg","pricing_plan_id":"cebpf4jnsgd1na2vs0mg"},{"bike_id":"16769c62-ef42-4ceb-a21c-ebd104723172","system_id":"levelo_inurba_marseille","lat":43.30463,"lon":5.37918,"is_reserved":false,"is_disabled":false,"rental_uris":{"android":"levelo://app?vid=16769c62-ef42-4ceb-a21c-ebd104723172","ios":"levelo://app?vid=16769c62-ef42-4ceb-a21c-ebd104723172"},"vehicle_type_id":"4","last_reported":1727075378,"current_range_meters":20000,"station_id":"ce4bgup2rcd13ifvqcn0","pricing_plan_id":"cebpf4jnsgd1na2vs0mg"},{"bike_id":"02dc5c43-5b84-4817-a3c7-01bfe693dc51","system_id":"levelo_inurba_marseille","lat":43.33605,"lon":5.41034,"is_reserved":false,"is_disabled":false,"rental_uris":{"android":"levelo://app?vid=02dc5c43-5b84-4817-a3c7-01bfe693dc51","ios":"levelo://app?vid=02dc5c43-5b84-4817-a3c7-01bfe693dc51"},"vehicle_type_id":"4","last_reported":1727075378,"current_range_meters":23200,"station_id":"ce4bhqh2rcd13ifvqhmg","pricing_plan_id":"cebpf4jnsgd1na2vs0mg"},{"bike_id":"1e43de8f-9dc9-42df-bbe6-256ec5e1a6ad","system_id":"levelo_inurba_marseille","lat":43.31493,"lon":5.37298,"is_reserved":false,"is_disabled":false,"rental_uris":{"android":"levelo://app?vid=1e43de8f-9dc9-42df-bbe6-256ec5e1a6ad","ios":"levelo://app?vid=1e43de8f-9dc9-42df-bbe6-256ec5e1a6ad"},"vehicle_type_id":"4","last_reported":1727075378,"current_range_meters":38800,"station_id":"ce4bgt12rcd13ifvqcd0","pricing_plan_id":"cebpf4jnsgd1na2vs0mg"},{"bike_id":"ef0a6687-74ee-4177-ae9f-a8d166b18610","system_id":"levelo_inurba_marseille","lat":43.29273,"lon":5.40119,"is_reserved":false,"is_disabled":false,"rental_uris":{"android":"levelo://app?vid=ef0a6687-74ee-4177-ae9f-a8d166b18610","ios":"levelo://app?vid=ef0a6687-74ee-4177-ae9f-a8d166b18610"},"vehicle_type_id":"4","last_reported":1727075378,"current_range_meters":37600,"station_id":"ce4bh312rcd13ifvqdk0","pricing_plan_id":"cebpf4jnsgd1na2vs0mg"},{"bike_id":"7aba7adc-5b9f-4104-88c5-4d12215eec3d","system_id":"levelo_inurba_marseille","lat":43.24606,"lon":5.39451,"is_reserved":false,"is_disabled":false,"rental_uris":{"android":"levelo://app?vid=7aba7adc-5b9f-4104-88c5-4d12215eec3d","ios":"levelo://app?vid=7aba7adc-5b9f-4104-88c5-4d12215eec3d"},"vehicle_type_id":"4","last_reported":1727075378,"current_range_meters":3200,"station_id":"ce4bhlp2rcd13ifvqgjg","pricing_plan_id":"cebpf4jnsgd1na2vs0mg"},{"bike_id":"2845f897-a0ec-4530-a5ed-af4dba9b29e4","system_id":"levelo_inurba_marseille","lat":43.29556,"lon":5.42286,"is_reserved":false,"is_disabled":false,"rental_uris":{"android":"levelo://app?vid=2845f897-a0ec-4530-a5ed-af4dba9b29e4","ios":"levelo://app?vid=2845f897-a0ec-4530-a5ed-af4dba9b29e4"},"vehicle_type_id":"4","last_reported":1727075378,"current_range_meters":10000,"station_id":"ce4bhph2rcd13ifvqhdg","pricing_plan_id":"cebpf4jnsgd1na2vs0mg"},{"bike_id":"0f30add4-a156-4b7c-8d38-3528b70e9737","system_id":"levelo_inurba_marseille","lat":43.31351,"lon":5.36722,"is_reserved":false,"is_disabled":false,"rental_uris":{"android":"levelo://app?vid=0f30add4-a156-4b7c-8d38-3528b70e9737","ios":"levelo://app?vid=0f30add4-a156-4b7c-8d38-3528b70e9737"},"vehicle_type_id":"4","last_reported":1727075378,"current_range_meters":39200,"station_id":"ce4bgr92rcd13ifvqc6g","pricing_plan_id":"cebpf4jnsgd1na2vs0mg"},{"bike_id":"dbec0ad8-a180-4891-9d97-a2213b6cd957","system_id":"levelo_inurba_marseille","lat":43.29039,"lon":5.39991,"is_reserved":false,"is_disabled":false,"rental_uris":{"android":"levelo://app?vid=dbec0ad8-a180-4891-9d97-a2213b6cd957","ios":"levelo://app?vid=dbec0ad8-a180-4891-9d97-a2213b6cd957"},"vehicle_type_id":"4","last_reported":1727075378,"current_range_meters":32000,"station_id":"ce4bh392rcd13ifvqdm0","pricing_plan_id":"cebpf4jnsgd1na2vs0mg"},{"bike_id":"7d9f444e-ff39-4ec0-b905-b73d86777241","system_id":"levelo_inurba_marseille","lat":43.29032,"lon":5.37562,"is_reserved":false,"is_disabled":false,"rental_uris":{"android":"levelo://app?vid=7d9f444e-ff39-4ec0-b905-b73d86777241","ios":"levelo://app?vid=7d9f444e-ff39-4ec0-b905-b73d86777241"},"vehicle_type_id":"4","last_reported":1727075378,"current_range_meters":38800,"station_id":"ce4bh692rcd13ifvqe90","pricing_plan_id":"cebpf4jnsgd1na2vs0mg"},{"bike_id":"395b358c-6839-44b3-8ad9-b39f7a8b1197","system_id":"levelo_inurba_marseille","lat":43.30556,"lon":5.36699,"is_reserved":false,"is_disabled":false,"rental_uris":{"android":"levelo://app?vid=395b358c-6839-44b3-8ad9-b39f7a8b1197","ios":"levelo://app?vid=395b358c-6839-44b3-8ad9-b39f7a8b1197"},"vehicle_type_id":"4","last_reported":1727075378,"current_range_meters":35600,"station_id":"ce4bgrp2rcd13ifvqc9g","pricing_plan_id":"cebpf4jnsgd1na2vs0mg"},{"bike_id":"bcf93381-fa79-4eb1-99d6-95059a2f3c43","system_id":"levelo_inurba_marseille","lat":43.31122,"lon":5.3776,"is_reserved":false,"is_disabled":false,"rental_uris":{"android":"levelo://app?vid=bcf93381-fa79-4eb1-99d6-95059a2f3c43","ios":"levelo://app?vid=bcf93381-fa79-4eb1-99d6-95059a2f3c43"},"vehicle_type_id":"4","last_reported":1727075378,"current_range_meters":38800,"station_id":"ce4bgt92rcd13ifvqcg0","pricing_plan_id":"cebpf4jnsgd1na2vs0mg"},{"bike_id":"9d832db1-b618-4c31-8c41-fea099a3b1bc","system_id":"levelo_inurba_marseille","lat":43.25579,"lon":5.38228,"is_reserved":false,"is_disabled":false,"rental_uris":{"android":"levelo://app?vid=9d832db1-b618-4c31-8c41-fea099a3b1bc","ios":"levelo://app?vid=9d832db1-b618-4c31-8c41-fea099a3b1bc"},"vehicle_type_id":"4","last_reported":1727075378,"current_range_meters":33600,"station_id":"ce4bhih2rcd13ifvqfs0","pricing_plan_id":"cebpf4jnsgd1na2vs0mg"},{"bike_id":"d75e2abd-d62a-41c2-97c6-5ec84b9ca376","system_id":"levelo_inurba_marseille","lat":43.2956,"lon":5.3753,"is_reserved":false,"is_disabled":false,"rental_uris":{"android":"levelo://app?vid=d75e2abd-d62a-41c2-97c6-5ec84b9ca376","ios":"levelo://app?vid=d75e2abd-d62a-41c2-97c6-5ec84b9ca376"},"vehicle_type_id":"4","last_reported":1727075378,"current_range_meters":4000,"station_id":"ce4bgh92rcd13ifvqb50","pricing_plan_id":"cebpf4jnsgd1na2vs0mg"},{"bike_id":"df42f132-93bd-456a-9a0b-6da80ae47c3c","system_id":"levelo_inurba_marseille","lat":43.30956,"lon":5.39046,"is_reserved":false,"is_disabled":false,"rental_uris":{"android":"levelo://app?vid=df42f132-93bd-456a-9a0b-6da80ae47c3c","ios":"levelo://app?vid=df42f132-93bd-456a-9a0b-6da80ae47c3c"},"vehicle_type_id":"4","last_reported":1727075378,"current_range_meters":39200,"station_id":"ce4bgup2rcd13ifvqco0","pricing_plan_id":"cebpf4jnsgd1na2vs0mg"},{"bike_id":"aced7ee2-2ce0-4ea8-8df3-86cc10d79eec","system_id":"levelo_inurba_marseille","lat":43.265748,"lon":5.390275,"is_reserved":false,"is_disabled":false,"rental_uris":{"android":"levelo://app?vid=aced7ee2-2ce0-4ea8-8df3-86cc10d79eec","ios":"levelo://app?vid=aced7ee2-2ce0-4ea8-8df3-86cc10d79eec"},"vehicle_type_id":"4","last_reported":1727075378,"current_range_meters":14000,"station_id":"ce4bgl92rcd13ifvqbq0","pricing_plan_id":"cebpf4jnsgd1na2vs0mg"},{"bike_id":"8259a5a1-4c0a-45c0-b304-b8d3b10e2e1b","system_id":"levelo_inurba_marseille","lat":43.2656,"lon":5.39011,"is_reserved":false,"is_disabled":false,"rental_uris":{"android":"levelo://app?vid=8259a5a1-4c0a-45c0-b304-b8d3b10e2e1b","ios":"levelo://app?vid=8259a5a1-4c0a-45c0-b304-b8d3b10e2e1b"},"vehicle_type_id":"4","last_reported":1727075378,"current_range_meters":37600,"station_id":"ce4bhe12rcd13ifvqf30","pricing_plan_id":"cebpf4jnsgd1na2vs0mg"},{"bike_id":"fc09186a-dd38-46ce-badc-a2ebffc0b7d8","system_id":"levelo_inurba_marseille","lat":43.30141,"lon":5.37427,"is_reserved":false,"is_disabled":false,"rental_uris":{"android":"levelo://app?vid=fc09186a-dd38-46ce-badc-a2ebffc0b7d8","ios":"levelo://app?vid=fc09186a-dd38-46ce-badc-a2ebffc0b7d8"},"vehicle_type_id":"4","last_reported":1727075378,"current_range_meters":32000,"station_id":"ce4bgs92rcd13ifvqcc0","pricing_plan_id":"cebpf4jnsgd1na2vs0mg"},{"bike_id":"c8b3fe6f-5d80-455e-8ffb-4ab4d7c5ffed","system_id":"levelo_inurba_marseille","lat":43.230103,"lon":5.354807,"is_reserved":false,"is_disabled":false,"rental_uris":{"android":"levelo://app?vid=c8b3fe6f-5d80-455e-8ffb-4ab4d7c5ffed","ios":"levelo://app?vid=c8b3fe6f-5d80-455e-8ffb-4ab4d7c5ffed"},"vehicle_type_id":"4","last_reported":1727075378,"current_range_meters":36000,"station_id":"cpo3342slgdg3j2ifvpg","pricing_plan_id":"cebpf4jnsgd1na2vs0mg"},{"bike_id":"130f507f-3fc1-459f-b680-763ca1173ae3","system_id":"levelo_inurba_marseille","lat":43.262003,"lon":5.379287,"is_reserved":false,"is_disabled":false,"rental_uris":{"android":"levelo://app?vid=130f507f-3fc1-459f-b680-763ca1173ae3","ios":"levelo://app?vid=130f507f-3fc1-459f-b680-763ca1173ae3"},"vehicle_type_id":"4","last_reported":1727075378,"current_range_meters":37600,"station_id":"ce4bhjp2rcd13ifvqg90","pricing_plan_id":"cebpf4jnsgd1na2vs0mg"},{"bike_id":"cf2bc3cb-e310-4818-962e-0d4d42ec889e","system_id":"levelo_inurba_marseille","lat":43.24078,"lon":5.37753,"is_reserved":false,"is_disabled":false,"rental_uris":{"android":"levelo://app?vid=cf2bc3cb-e310-4818-962e-0d4d42ec889e","ios":"levelo://app?vid=cf2bc3cb-e310-4818-962e-0d4d42ec889e"},"vehicle_type_id":"4","last_reported":1727075378,"current_range_meters":23200,"station_id":"ce4bhnp2rcd13ifvqgvg","pricing_plan_id":"cebpf4jnsgd1na2vs0mg"},{"bike_id":"7a33b472-09a7-4f45-8518-e5e286eff93d","system_id":"levelo_inurba_marseille","lat":43.3014,"lon":5.37414,"is_reserved":false,"is_disabled":false,"rental_uris":{"android":"levelo://app?vid=7a33b472-09a7-4f45-8518-e5e286eff93d","ios":"levelo://app?vid=7a33b472-09a7-4f45-8518-e5e286eff93d"},"vehicle_type_id":"4","last_reported":1727075378,"current_range_meters":14000,"station_id":"ce4bgs92rcd13ifvqcc0","pricing_plan_id":"cebpf4jnsgd1na2vs0mg"},{"bike_id":"af57bd14-5f3c-49e5-baa3-dd6560496bc1","system_id":"levelo_inurba_marseille","lat":43.30541,"lon":5.36732,"is_reserved":false,"is_disabled":false,"rental_uris":{"android":"levelo://app?vid=af57bd14-5f3c-49e5-baa3-dd6560496bc1","ios":"levelo://app?vid=af57bd14-5f3c-49e5-baa3-dd6560496bc1"},"vehicle_type_id":"4","last_reported":1727075378,"current_range_meters":30400,"station_id":"ce4bgrp2rcd13ifvqc9g","pricing_plan_id":"cebpf4jnsgd1na2vs0mg"},{"bike_id":"20718d61-aaf9-4ae0-9b46-8a1393e578ef","system_id":"levelo_inurba_marseille","lat":43.30264,"lon":5.37725,"is_reserved":false,"is_disabled":false,"rental_uris":{"android":"levelo://app?vid=20718d61-aaf9-4ae0-9b46-8a1393e578ef","ios":"levelo://app?vid=20718d61-aaf9-4ae0-9b46-8a1393e578ef"},"vehicle_type_id":"4","last_reported":1727075378,"current_range_meters":37600,"station_id":"ce4bguh2rcd13ifvqcj0","pricing_plan_id":"cebpf4jnsgd1na2vs0mg"},{"bike_id":"1197ec17-10ea-4cfb-b8b2-7ea17472d721","system_id":"levelo_inurba_marseille","lat":43.29258,"lon":5.40902,"is_reserved":false,"is_disabled":false,"rental_uris":{"android":"levelo://app?vid=1197ec17-10ea-4cfb-b8b2-7ea17472d721","ios":"levelo://app?vid=1197ec17-10ea-4cfb-b8b2-7ea17472d721"},"vehicle_type_id":"4","last_reported":1727075378,"current_range_meters":20000,"station_id":"ce4bh192rcd13ifvqdc0","pricing_plan_id":"cebpf4jnsgd1na2vs0mg"},{"bike_id":"3abc65f6-fa7c-415d-a6c8-a194084e58c8","system_id":"levelo_inurba_marseille","lat":43.30462,"lon":5.37909,"is_reserved":false,"is_disabled":false,"rental_uris":{"android":"levelo://app?vid=3abc65f6-fa7c-415d-a6c8-a194084e58c8","ios":"levelo://app?vid=3abc65f6-fa7c-415d-a6c8-a194084e58c8"},"vehicle_type_id":"4","last_reported":1727075378,"current_range_meters":34800,"station_id":"ce4bgup2rcd13ifvqcn0","pricing_plan_id":"cebpf4jnsgd1na2vs0mg"},{"bike_id":"840f3e47-074d-4b22-ab80-8cfe985e5e84","system_id":"levelo_inurba_marseille","lat":43.24081,"lon":5.3775,"is_reserved":false,"is_disabled":false,"rental_uris":{"android":"levelo://app?vid=840f3e47-074d-4b22-ab80-8cfe985e5e84","ios":"levelo://app?vid=840f3e47-074d-4b22-ab80-8cfe985e5e84"},"vehicle_type_id":"4","last_reported":1727075378,"current_range_meters":30400,"station_id":"ce4bhnp2rcd13ifvqgvg","pricing_plan_id":"cebpf4jnsgd1na2vs0mg"},{"bike_id":"7641efab-8742-42bf-95ac-e2de0dd6435c","system_id":"levelo_inurba_marseille","lat":43.27313,"lon":5.39079,"is_reserved":false,"is_disabled":false,"rental_uris":{"android":"levelo://app?vid=7641efab-8742-42bf-95ac-e2de0dd6435c","ios":"levelo://app?vid=7641efab-8742-42bf-95ac-e2de0dd6435c"},"vehicle_type_id":"4","last_reported":1727075378,"current_range_meters":30400,"station_id":"ce4bhgp2rcd13ifvqfe0","pricing_plan_id":"cebpf4jnsgd1na2vs0mg"},{"bike_id":"a71682ce-525e-405d-9834-909d69194b4d","system_id":"levelo_inurba_marseille","lat":43.27964,"lon":5.38755,"is_reserved":false,"is_disabled":false,"rental_uris":{"android":"levelo://app?vid=a71682ce-525e-405d-9834-909d69194b4d","ios":"levelo://app?vid=a71682ce-525e-405d-9834-909d69194b4d"},"vehicle_type_id":"4","last_reported":1727075378,"current_range_meters":35600,"station_id":"ce4bhg12rcd13ifvqf80","pricing_plan_id":"cebpf4jnsgd1na2vs0mg"},{"bike_id":"4e039ab9-1705-42b6-a469-743847dfd93a","system_id":"levelo_inurba_marseille","lat":43.29175,"lon":5.37162,"is_reserved":false,"is_disabled":false,"rental_uris":{"android":"levelo://app?vid=4e039ab9-1705-42b6-a469-743847dfd93a","ios":"levelo://app?vid=4e039ab9-1705-42b6-a469-743847dfd93a"},"vehicle_type_id":"4","last_reported":1727075378,"current_range_meters":28400,"station_id":"ce4bha92rcd13ifvqeh0","pricing_plan_id":"cebpf4jnsgd1na2vs0mg"},{"bike_id":"9e038611-14a3-447d-b6f1-4aa4ca54569f","system_id":"levelo_inurba_marseille","lat":43.32538,"lon":5.41446,"is_reserved":false,"is_disabled":false,"rental_uris":{"android":"levelo://app?vid=9e038611-14a3-447d-b6f1-4aa4ca54569f","ios":"levelo://app?vid=9e038611-14a3-447d-b6f1-4aa4ca54569f"},"vehicle_type_id":"4","last_reported":1727075378,"current_range_meters":22400,"station_id":"ce4bhq12rcd13ifvqhhg","pricing_plan_id":"cebpf4jnsgd1na2vs0mg"},{"bike_id":"e351be72-82cc-453b-882c-e76e9af7cde1","system_id":"levelo_inurba_marseille","lat":43.27493,"lon":5.42456,"is_reserved":false,"is_disabled":false,"rental_uris":{"android":"levelo://app?vid=e351be72-82cc-453b-882c-e76e9af7cde1","ios":"levelo://app?vid=e351be72-82cc-453b-882c-e76e9af7cde1"},"vehicle_type_id":"4","last_reported":1727075378,"current_range_meters":30400,"station_id":"ce4bhn92rcd13ifvqgrg","pricing_plan_id":"cebpf4jnsgd1na2vs0mg"},{"bike_id":"7ac10a76-ab62-4113-9825-e80df7bf3f90","system_id":"levelo_inurba_marseille","lat":43.31384,"lon":5.36756,"is_reserved":false,"is_disabled":false,"rental_uris":{"android":"levelo://app?vid=7ac10a76-ab62-4113-9825-e80df7bf3f90","ios":"levelo://app?vid=7ac10a76-ab62-4113-9825-e80df7bf3f90"},"vehicle_type_id":"4","last_reported":1727075378,"current_range_meters":33600,"station_id":"ce4bgr92rcd13ifvqc6g","pricing_plan_id":"cebpf4jnsgd1na2vs0mg"},{"bike_id":"23f3e9fe-7ba1-450a-b938-5546b55cf9ea","system_id":"levelo_inurba_marseille","lat":43.24182,"lon":5.39726,"is_reserved":false,"is_disabled":false,"rental_uris":{"android":"levelo://app?vid=23f3e9fe-7ba1-450a-b938-5546b55cf9ea","ios":"levelo://app?vid=23f3e9fe-7ba1-450a-b938-5546b55cf9ea"},"vehicle_type_id":"4","last_reported":1727075378,"current_range_meters":12000,"station_id":"ce4bhn12rcd13ifvqgpg","pricing_plan_id":"cebpf4jnsgd1na2vs0mg"},{"bike_id":"fdc1c7f7-9d66-4f88-8ee9-3e90f0d900cf","system_id":"levelo_inurba_marseille","lat":43.28268,"lon":5.35067,"is_reserved":false,"is_disabled":false,"rental_uris":{"android":"levelo://app?vid=fdc1c7f7-9d66-4f88-8ee9-3e90f0d900cf","ios":"levelo://app?vid=fdc1c7f7-9d66-4f88-8ee9-3e90f0d900cf"},"vehicle_type_id":"4","last_reported":1727075378,"current_range_meters":37600,"station_id":"ce4bhbp2rcd13ifvqerg","pricing_plan_id":"cebpf4jnsgd1na2vs0mg"},{"bike_id":"d5ee8cf7-31b6-46f3-9b93-73caeb424eb3","system_id":"levelo_inurba_marseille","lat":43.25497,"lon":5.37647,"is_reserved":false,"is_disabled":false,"rental_uris":{"android":"levelo://app?vid=d5ee8cf7-31b6-46f3-9b93-73caeb424eb3","ios":"levelo://app?vid=d5ee8cf7-31b6-46f3-9b93-73caeb424eb3"},"vehicle_type_id":"4","last_reported":1727075378,"current_range_meters":22800,"station_id":"ce4bhh12rcd13ifvqff0","pricing_plan_id":"cebpf4jnsgd1na2vs0mg"},{"bike_id":"7a63ce13-34e2-49ed-8045-bd660792102e","system_id":"levelo_inurba_marseille","lat":43.25934,"lon":5.40911,"is_reserved":false,"is_disabled":false,"rental_uris":{"android":"levelo://app?vid=7a63ce13-34e2-49ed-8045-bd660792102e","ios":"levelo://app?vid=7a63ce13-34e2-49ed-8045-bd660792102e"},"vehicle_type_id":"4","last_reported":1727075378,"current_range_meters":31200,"station_id":"ce4bhm92rcd13ifvqglg","pricing_plan_id":"cebpf4jnsgd1na2vs0mg"},