{"last_updated":1743606640,"ttl":60,"version":"2.2","data":{"bikes":[{"bike_id":"4ad73676-975d-4eb4-8ab0-34916f3a4594","system_id":"levelo_inurba_marseille","lat":43.30604,"lon":5.372127,"is_reserved":false,"is_disabled":false,"rental_uris":{"android":"levelo://app?vid=4ad73676-975d-4eb4-8ab0-34916f3a4594","ios":"levelo://app?vid=4ad73676-975d-4eb4-8ab0-34916f3a4594"},"vehicle_type_id":"4","last_reported":1743606640,"current_range_meters":2800,"station_id":"ce4bgqh2rcd13ifvqc4g","pricing_plan_id":"cebpf4jnsgd1na2vs0mg"},{"bike_id":"73d32c6b-3c61-4634-843f-f383bdbdb9a8","system_id":"levelo_inurba_marseille","lat":43.23963,"lon":5.36629,"is_reserved":false,"is_disabled":false,"rental_uris":{"android":"levelo://app?vid=73d32c6b-3c61-4634-843f-f383bdbdb9a8","ios":"levelo://app?vid=73d32c6b-3c61-4634-843f-f383bdbdb9a8"},"vehicle_type_id":"4","last_reported":1743606640,"current_range_meters":2800,"station_id":"ce4bhi12rcd13ifvqfp0","pricing_plan_id":"cebpf4jnsgd1na2vs0mg"},{"bike_id":"68714527-bee7-444a-bee3-9f799886403c","system_id":"levelo_inurba_marseille","lat":43.23165,"lon":5.43698,"is_reserved":false,"is_disabled":false,"rental_uris":{"android":"levelo://app?vid=68714527-bee7-444a-bee3-9f799886403c","ios":"levelo://app?vid=68714527-bee7-444a-bee3-9f799886403c"},"vehicle_type_id":"4","last_reported":1743606640,"current_range_meters":2000,"station_id":"ce4bhmp2rcd13ifvqgog","pricing_plan_id":"cebpf4jnsgd1na2vs0mg"},{"bike_id":"481d5f1f-03c3-4f49-b4b2-fcaa64e0c6c6","system_id":"levelo_inurba_marseille","lat":43.29629,"lon":5.40604,"is_reserved":false,"is_disabled":false,"rental_uris":{"android":"levelo://app?vid=481d5f1f-03c3-4f49-b4b2-fcaa64e0c6c6","ios":"levelo://app?vid=481d5f1f-03c3-4f49-b4b2-fcaa64e0c6c6"},"vehicle_type_id":"4","last_reported":1743606640,"current_range_meters":2000,"station_id":"ce4bh0h2rcd13ifvqd60","pricing_plan_id":"cebpf4jnsgd1na2vs0mg"},{"bike_id":"64d4cf86-0b00-4e05-b875-4ddc2b15e2fc","system_id":"levelo_inurba_marseille","lat":43.28154,"lon":5.42642,"is_reserved":false,"is_disabled":false,"rental_uris":{"android":"levelo://app?vid=64d4cf86-0b00-4e05-b875-4ddc2b15e2fc","ios":"levelo://app?vid=64d4cf86-0b00-4e05-b875-4ddc2b15e2fc"},"vehicle_type_id":"4","last_reported":1743606640,"current_range_meters":2000,"station_id":"ce4bhnh2rcd13ifvqgug","pricing_plan_id":"cebpf4jnsgd1na2vs0mg"},{"bike_id":"7cda8429-7db5-4e24-97ca-7fdd40a8c17a","system_id":"levelo_inurba_marseille","lat":43.26228,"lon":5.40455,"is_reserved":false,"is_disabled":false,"rental_uris":{"android":"levelo://app?vid=7cda8429-7db5-4e24-97ca-7fdd40a8c17a","ios":"levelo://app?vid=7cda8429-7db5-4e24-97ca-7fdd40a8c17a"},"vehicle_type_id":"4","last_reported":1743606640,"current_range_meters":3200,"station_id":"ce4bhmh2rcd13ifvqgmg","pricing_plan_id":"cebpf4jnsgd1na2vs0mg"},{"bike_id":"d5f6082f-9fc2-4e6a-96ce-3069283abb2f","system_id":"levelo_inurba_marseille","lat":43.29073,"lon":5.37152,"is_reserved":false,"is_disabled":false,"rental_uris":{"android":"levelo://app?vid=d5f6082f-9fc2-4e6a-96ce-3069283abb2f","ios":"levelo://app?vid=d5f6082f-9fc2-4e6a-96ce-3069283abb2f"},"vehicle_type_id":"4","last_reported":1743606640,"current_range_meters":3200,"station_id":"ce4bh5p2rcd13ifvqe4g","pricing_plan_id":"cebpf4jnsgd1na2vs0mg"},{"bike_id":"d662608d-504d-43ae-8d4a-6ba237d6c000","system_id":"levelo_inurba_marseille","lat":43.27843,"lon":5.38487,"is_reserved":false,"is_disabled":false,"rental_uris":{"android":"levelo://app?vid=d662608d-504d-43ae-8d4a-6ba237d6c000","ios":"levelo://app?vid=d662608d-504d-43ae-8d4a-6ba237d6c000"},"vehicle_type_id":"4","last_reported":1743606640,"current_range_meters":3200,"station_id":"","pricing_plan_id":"cebpf4jnsgd1na2vs0mg"},{"bike_id":"3e46bb9a-efcf-4a26-bbab-c053557763cd","system_id":"levelo_inurba_marseille","lat":43.32391,"lon":5.3745,"is_reserved":false,"is_disabled":false,"rental_uris":{"android":"levelo://app?vid=3e46bb9a-efcf-4a26-bbab-c053557763cd","ios":"levelo://app?vid=3e46bb9a-efcf-4a26-bbab-c053557763cd"},"vehicle_type_id":"4","last_reported":1743606640,"current_range_meters":3600,"station_id":"","pricing_plan_id":"cebpf4jnsgd1na2vs0mg"},{"bike_id":"8354ca33-0fed-44ac-9b30-d00a26b1d741","system_id":"levelo_inurba_marseille","lat":43.29542,"lon":5.39389,"is_reserved":false,"is_disabled":false,"rental_uris":{"android":"levelo://app?vid=8354ca33-0fed-44ac-9b30-d00a26b1d741","ios":"levelo://app?vid=8354ca33-0fed-44ac-9b30-d00a26b1d741"},"vehicle_type_id":"4","last_reported":1743606640,"current_range_meters":3200,"station_id":"ce4bh292rcd13ifvqdf0","pricing_plan_id":"cebpf4jnsgd1na2vs0mg"},{"bike_id":"5e6c3a84-834c-4d83-a2d3-580b827057a1","system_id":"levelo_inurba_marseille","lat":43.23157,"lon":5.43704,"is_reserved":false,"is_disabled":false,"rental_uris":{"android":"levelo://app?vid=5e6c3a84-834c-4d83-a2d3-580b827057a1","ios":"levelo://app?vid=5e6c3a84-834c-4d83-a2d3-580b827057a1"},"vehicle_type_id":"4","last_reported":1743606640,"current_range_meters":3600,"station_id":"ce4bhmp2rcd13ifvqgog","pricing_plan_id":"cebpf4jnsgd1na2vs0mg"},{"bike_id":"04556df8-715f-45d8-b288-9c8fd51282f9","system_id":"levelo_inurba_marseille","lat":43.23195,"lon":5.35552,"is_reserved":false,"is_disabled":false,"rental_uris":{"android":"levelo://app?vid=04556df8-715f-45d8-b288-9c8fd51282f9","ios":"levelo://app?vid=04556df8-715f-45d8-b288-9c8fd51282f9"},"vehicle_type_id":"4","last_reported":1743606640,"current_range_meters":4000,"station_id":"ce4bhu92rcd13ifvqi70","pricing_plan_id":"cebpf4jnsgd1na2vs0mg"},{"bike_id":"2065ea44-94d9-4c6e-bf6c-f24ca48e9d61","system_id":"levelo_inurba_marseille","lat":43.30588,"lon":5.39358,"is_reserved":false,"is_disabled":false,"rental_uris":{"android":"levelo://app?vid=2065ea44-94d9-4c6e-bf6c-f24ca48e9d61","ios":"levelo://app?vid=2065ea44-94d9-4c6e-bf6c-f24ca48e9d61"},"vehicle_type_id":"4","last_reported":1743606640,"current_range_meters":4000,"station_id":"ce4bh0p2rcd13ifvqd80","pricing_plan_id":"cebpf4jnsgd1na2vs0mg"},{"bike_id":"9141921e-3f56-4b1d-8ae7-75bce3d7cd31","system_id":"levelo_inurba_marseille","lat":43.23051,"lon":5.35518,"is_reserved":false,"is_disabled":false,"rental_uris":{"android":"levelo://app?vid=9141921e-3f56-4b1d-8ae7-75bce3d7cd31","ios":"levelo://app?vid=9141921e-3f56-4b1d-8ae7-75bce3d7cd31"},"vehicle_type_id":"4","last_reported":1743606640,"current_range_meters":4400,"station_id":"cpo3342slgdg3j2ifvpg","pricing_plan_id":"cebpf4jnsgd1na2vs0mg"},{"bike_id":"3eb814eb-dead-4d50-9b81-73e573952a7d","system_id":"levelo_inurba_marseille","lat":43.29541,"lon":5.38541,"is_reserved":false,"is_disabled":false,"rental_uris":{"android":"levelo://app?vid=3eb814eb-dead-4d50-9b81-73e573952a7d","ios":"levelo://app?vid=3eb814eb-dead-4d50-9b81-73e573952a7d"},"vehicle_type_id":"4","last_reported":1743606640,"current_range_meters":5600,"station_id":"ce4bgih2rcd13ifvqba0","pricing_plan_id":"cebpf4jnsgd1na2vs0mg"},{"bike_id":"862f6c9d-9a20-4d47-a3ed-9d790c3c7959","system_id":"levelo_inurba_marseille","lat":43.23057,"lon":5.35486,"is_reserved":false,"is_disabled":false,"rental_uris":{"android":"levelo://app?vid=862f6c9d-9a20-4d47-a3ed-9d790c3c7959","ios":"levelo://app?vid=862f6c9d-9a20-4d47-a3ed-9d790c3c7959"},"vehicle_type_id":"4","last_reported":1743606640,"current_range_meters":4400,"station_id":"cpo3342slgdg3j2ifvpg","pricing_plan_id":"cebpf4jnsgd1na2vs0mg"},{"bike_id":"d10bd936-2fca-4607-82d0-6e154162cbfd","system_id":"levelo_inurba_marseille","lat":43.30856,"lon":5.39616,"is_reserved":false,"is_disabled":true,"rental_uris":{"android":"levelo://app?vid=d10bd936-2fca-4607-82d0-6e154162cbfd","ios":"levelo://app?vid=d10bd936-2fca-4607-82d0-6e154162cbfd"},"vehicle_type_id":"4","last_reported":1743606640,"current_range_meters":4800,"station_id":"ce4bh012rcd13ifvqcv0","pricing_plan_id":"cebpf4jnsgd1na2vs0mg"},{"bike_id":"7be5f9b1-4936-42e3-826b-4e67ffbe37c6","system_id":"levelo_inurba_marseille","lat":43.28939,"lon":5.39626,"is_reserved":false,"is_disabled":false,"rental_uris":{"android":"levelo://app?vid=7be5f9b1-4936-42e3-826b-4e67ffbe37c6","ios":"levelo://app?vid=7be5f9b1-4936-42e3-826b-4e67ffbe37c6"},"vehicle_type_id":"4","last_reported":1743606640,"current_range_meters":4400,"station_id":"ce4bh3h2rcd13ifvqdn0","pricing_plan_id":"cebpf4jnsgd1na2vs0mg"},{"bike_id":"68af6e4c-e15f-4698-9272-78471577ba50","system_id":"levelo_inurba_marseille","lat":43.25934,"lon":5.40907,"is_reserved":false,"is_disabled":false,"rental_uris":{"android":"levelo://app?vid=68af6e4c-e15f-4698-9272-78471577ba50","ios":"levelo://app?vid=68af6e4c-e15f-4698-9272-78471577ba50"},"vehicle_type_id":"4","last_reported":1743606640,"current_range_meters":4800,"station_id":"ce4bhm92rcd13ifvqglg","pricing_plan_id":"cebpf4jnsgd1na2vs0mg"},{"bike_id":"a8cf3f92-8f7a-4cb3-90d8-ee02badcd426","system_id":"levelo_inurba_marseille","lat":43.2322,"lon":5.39923,"is_reserved":false,"is_disabled":false,"rental_uris":{"android":"levelo://app?vid=a8cf3f92-8f7a-4cb3-90d8-ee02badcd426","ios":"levelo://app?vid=a8cf3f92-8f7a-4cb3-90d8-ee02badcd426"},"vehicle_type_id":"4","last_reported":1743606640,"current_range_meters":4800,"station_id":"","pricing_plan_id":"cebpf4jnsgd1na2vs0mg"},{"bike_id":"89859de9-1fb2-457d-a828-4d5cedc9fba3","system_id":"levelo_inurba_marseille","lat":43.28686,"lon":5.37958,"is_reserved":false,"is_disabled":false,"rental_uris":{"android":"levelo://app?vid=89859de9-1fb2-457d-a828-4d5cedc9fba3","ios":"levelo://app?vid=89859de9-1fb2-457d-a828-4d5cedc9fba3"},"vehicle_type_id":"4","last_reported":1743606640,"current_range_meters":4800,"station_id":"ce4bh9p2rcd13ifvqec0","pricing_plan_id":"cebpf4jnsgd1na2vs0mg"},{"bike_id":"6f0e3252-fff2-4150-9376-4323f196d152","system_id":"levelo_inurba_marseille","lat":43.28616,"lon":5.35104,"is_reserved":false,"is_disabled":false,"rental_uris":{"android":"levelo://app?vid=6f0e3252-fff2-4150-9376-4323f196d152","ios":"levelo://app?vid=6f0e3252-fff2-4150-9376-4323f196d152"},"vehicle_type_id":"4","last_reported":1743606640,"current_range_meters":4800,"station_id":"ce4bhch2rcd13ifvqeug","pricing_plan_id":"cebpf4jnsgd1na2vs0mg"},{"bike_id":"e5553156-ffff-4747-8d1c-60ec3bdb973d","system_id":"levelo_inurba_marseille","lat":43.25872,"lon":5.39904,"is_reserved":false,"is_disabled":false,"rental_uris":{"android":"levelo://app?vid=e5553156-ffff-4747-8d1c-60ec3bdb973d","ios":"levelo://app?vid=e5553156-ffff-4747-8d1c-60ec3bdb973d"},"vehicle_type_id":"4","last_reported":1743606640,"current_range_meters":4800,"station_id":"ce4bhl92rcd13ifvqghg","pricing_plan_id":"cebpf4jnsgd1na2vs0mg"},{"bike_id":"b2db84ea-c8fc-4d77-b86d-a90bd83fd599","system_id":"levelo_inurba_marseille","lat":43.29367,"lon":5.37836,"is_reserved":false,"is_disabled":false,"rental_uris":{"android":"levelo://app?vid=b2db84ea-c8fc-4d77-b86d-a90bd83fd599","ios":"levelo://app?vid=b2db84ea-c8fc-4d77-b86d-a90bd83fd599"},"vehicle_type_id":"4","last_reported":1743606640,"current_range_meters":4400,"station_id":"ce4bgjh2rcd13ifvqbf0","pricing_plan_id":"cebpf4jnsgd1na2vs0mg"},{"bike_id":"1b6ee1d2-1cfc-47d8-ac72-ba4662aafd5a","system_id":"levelo_inurba_marseille","lat":43.29441,"lon":5.3975,"is_reserved":false,"is_disabled":false,"rental_uris":{"android":"levelo://app?vid=1b6ee1d2-1cfc-47d8-ac72-ba4662aafd5a","ios":"levelo://app?vid=1b6ee1d2-1cfc-47d8-ac72-ba4662aafd5a"},"vehicle_type_id":"4","last_reported":1743606640,"current_range_meters":4800,"station_id":"ce4bh3h2rcd13ifvqdo0","pricing_plan_id":"cebpf4jnsgd1na2vs0mg"},{"bike_id":"86fc238d-99b6-4559-9ee0-f722f116f421","system_id":"levelo_inurba_marseille","lat":43.24184,"lon":5.39724,"is_reserved":false,"is_disabled":false,"rental_uris":{"android":"levelo://app?vid=86fc238d-99b6-4559-9ee0-f722f116f421","ios":"levelo://app?vid=86fc238d-99b6-4559-9ee0-f722f116f421"},"vehicle_type_id":"4","last_reported":1743606640,"current_range_meters":5600,"station_id":"ce4bhn12rcd13ifvqgpg","pricing_plan_id":"cebpf4jnsgd1na2vs0mg"},{"bike_id":"1167d76f-0701-42ca-9566-e6b8288b4501","system_id":"levelo_inurba_marseille","lat":43.282717,"lon":5.378757,"is_reserved":false,"is_disabled":false,"rental_uris":{"android":"levelo://app?vid=1167d76f-0701-42ca-9566-e6b8288b4501","ios":"levelo://app?vid=1167d76f-0701-42ca-9566-e6b8288b4501"},"vehicle_type_id":"4","last_reported":1743606640,"current_range_meters":5600,"station_id":"","pricing_plan_id":"cebpf4jnsgd1na2vs0mg"},{"bike_id":"577b084d-71c0-4e6e-b3d2-57cb9bf5c9c2","system_id":"levelo_inurba_marseille","lat":43.25941,"lon":5.40896,"is_reserved":false,"is_disabled":false,"rental_uris":{"android":"levelo://app?vid=577b084d-71c0-4e6e-b3d2-57cb9bf5c9c2","ios":"levelo://app?vid=577b084d-71c0-4e6e-b3d2-57cb9bf5c9c2"},"vehicle_type_id":"4","last_reported":1743606640,"current_range_meters":5600,"station_id":"ce4bhm92rcd13ifvqglg","pricing_plan_id":"cebpf4jnsgd1na2vs0mg"},{"bike_id":"7549bd43-15b2-4001-a4c7-d590c7fffdef","system_id":"levelo_inurba_marseille","lat":43.32132,"lon":5.36721,"is_reserved":false,"is_disabled":false,"rental_uris":{"android":"levelo://app?vid=7549bd43-15b2-4001-a4c7-d590c7fffdef","ios":"levelo://app?vid=7549bd43-15b2-4001-a4c7-d590c7fffdef"},"vehicle_type_id":"4","last_reported":1743606640,"current_range_meters":5600,"station_id":"","pricing_plan_id":"cebpf4jnsgd1na2vs0mg"},{"bike_id":"c6c438e8-d3ab-4770-968b-7a1a93e8a8c6","system_id":"levelo_inurba_marseille","lat":43.289027,"lon":5.45863,"is_reserved":false,"is_disabled":false,"rental_uris":{"android":"levelo://app?vid=c6c438e8-d3ab-4770-968b-7a1a93e8a8c6","ios":"levelo://app?vid=c6c438e8-d3ab-4770-968b-7a1a93e8a8c6"},"vehicle_type_id":"4","last_reported":1743606640,"current_range_meters":5600,"station_id":"","pricing_plan_id":"cebpf4jnsgd1na2vs0mg"},{"bike_id":"015d5353-1efa-4d63-bd30-b13f43f3a23f","system_id":"levelo_inurba_marseille","lat":43.29636,"lon":5.40599,"is_reserved":false,"is_disabled":false,"rental_uris":{"android":"levelo://app?vid=015d5353-1efa-4d63-bd30-b13f43f3a23f","ios":"levelo://app?vid=015d5353-1efa-4d63-bd30-b13f43f3a23f"},"vehicle_type_id":"4","last_reported":1743606640,"current_range_meters":6000,"station_id":"ce4bh0h2rcd13ifvqd60","pricing_plan_id":"cebpf4jnsgd1na2vs0mg"},{"bike_id":"7c17e372-2444-4d88-9143-00658f4f6f6d","system_id":"levelo_inurba_marseille","lat":43.24082,"lon":5.37754,"is_reserved":false,"is_disabled":false,"rental_uris":{"android":"levelo://app?vid=7c17e372-2444-4d88-9143-00658f4f6f6d","ios":"levelo://app?vid=7c17e372-2444-4d88-9143-00658f4f6f6d"},"vehicle_type_id":"4","last_reported":1743606640,"current_range_meters":8400,"station_id":"ce4bhnp2rcd13ifvqgvg","pricing_plan_id":"cebpf4jnsgd1na2vs0mg"},{"bike_id":"f0e842b4-4157-4020-a74b-ab2e5e0b39a5","system_id":"levelo_inurba_marseille","lat":43.25588,"lon":5.38238,"is_reserved":false,"is_disabled":false,"rental_uris":{"android":"levelo://app?vid=f0e842b4-4157-4020-a74b-ab2e5e0b39a5","ios":"levelo://app?vid=f0e842b4-4157-4020-a74b-ab2e5e0b39a5"},"vehicle_type_id":"4","last_reported":1743606640,"current_range_meters":6000,"station_id":"ce4bhih2rcd13ifvqfs0","pricing_plan_id":"cebpf4jnsgd1na2vs0mg"},{"bike_id":"46e5321f-1f0e-476d-9557-3a470246f9d4","system_id":"levelo_inurba_marseille","lat":43.2316,"lon":5.4372,"is_reserved":false,"is_disabled":false,"rental_uris":{"android":"levelo://app?vid=46e5321f-1f0e-476d-9557-3a470246f9d4","ios":"levelo://app?vid=46e5321f-1f0e-476d-9557-3a470246f9d4"},"vehicle_type_id":"4","last_reported":1743606640,"current_range_meters":6000,"station_id":"ce4bhmp2rcd13ifvqgog","pricing_plan_id":"cebpf4jnsgd1na2vs0mg"},{"bike_id":"46e4bbf4-1212-4816-a35e-dfb5b270c80f","system_id":"levelo_inurba_marseille","lat":43.28152,"lon":5.42644,"is_reserved":false,"is_disabled":false,"rental_uris":{"android":"levelo://app?vid=46e4bbf4-1212-4816-a35e-dfb5b270c80f","ios":"levelo://app?vid=46e4bbf4-1212-4816-a35e-dfb5b270c80f"},"vehicle_type_id":"4","last_reported":1743606640,"current_range_meters":6400,"station_id":"ce4bhnh2rcd13ifvqgug","pricing_plan_id":"cebpf4jnsgd1na2vs0mg"},{"bike_id":"7ed94b94-3fc1-4492-9478-fe195d47778b","system_id":"levelo_inurba_marseille","lat":43.2559,"lon":5.38242,"is_reserved":false,"is_disabled":false,"rental_uris":{"android":"levelo://app?vid=7ed94b94-3fc1-4492-9478-fe195d47778b","ios":"levelo://app?vid=7ed94b94-3fc1-4492-9478-fe195d47778b"},"vehicle_type_id":"4","last_reported":1743606640,"current_range_meters":6400,"station_id":"ce4bhih2rcd13ifvqfs0","pricing_plan_id":"cebpf4jnsgd1na2vs0mg"},{"bike_id":"79603f15-8cb1-40c0-b95b-45860c8a2ca0","system_id":"levelo_inurba_marseille","lat":43.27908,"lon":5.38004,"is_reserved":false,"is_disabled":false,"rental_uris":{"android":"levelo://app?vid=79603f15-8cb1-40c0-b95b-45860c8a2ca0","ios":"levelo://app?vid=79603f15-8cb1-40c0-b95b-45860c8a2ca0"},"vehicle_type_id":"4","last_reported":1743606640,"current_range_meters":6000,"station_id":"ce4bhf92rcd13ifvqf50","pricing_plan_id":"cebpf4jnsgd1na2vs0mg"},{"bike_id":"f081d4ca-9710-41ce-83b3-af1ef07b7af0","system_id":"levelo_inurba_marseille","lat":43.28875,"lon":5.39373,"is_reserved":false,"is_disabled":false,"rental_uris":{"android":"levelo://app?vid=f081d4ca-9710-41ce-83b3-af1ef07b7af0","ios":"levelo://app?vid=f081d4ca-9710-41ce-83b3-af1ef07b7af0"},"vehicle_type_id":"4","last_reported":1743606640,"current_range_meters":6400,"station_id":"ce4bh2p2rcd13ifvqdi0","pricing_plan_id":"cebpf4jnsgd1na2vs0mg"},{"bike_id":"222689fe-bf41-45f2-9fc7-f640ab6710c8","system_id":"levelo_inurba_marseille","lat":43.28411,"lon":5.34987,"is_reserved":false,"is_disabled":false,"rental_uris":{"android":"levelo://app?vid=222689fe-bf41-45f2-9fc7-f640ab6710c8","ios":"levelo://app?vid=222689fe-bf41-45f2-9fc7-f640ab6710c8"},"vehicle_type_id":"4","last_reported":1743606640,"current_range_meters":6400,"station_id":"ce4bhbh2rcd13ifvqepg","pricing_plan_id":"cebpf4jnsgd1na2vs0mg"},{"bike_id":"c7ac4f7a-8244-470f-8eaa-4531d0548779","system_id":"levelo_inurba_marseille","lat":43.24553,"lon":5.39526,"is_reserved":false,"is_disabled":false,"rental_uris":{"android":"levelo://app?vid=c7ac4f7a-8244-470f-8eaa-4531d0548779","ios":"levelo://app?vid=c7ac4f7a-8244-470f-8eaa-4531d0548779"},"vehicle_type_id":"4","last_reported":1743606640,"current_range_meters":6400,"station_id":"ce4bhlp2rcd13ifvqgjg","pricing_plan_id":"cebpf4jnsgd1na2vs0mg"},{"bike_id":"0a8d07dd-db7d-4bd3-9059-559cb936ec18","system_id":"levelo_inurba_marseille","lat":43.331235,"lon":5.392369,"is_reserved":false,"is_disabled":false,"rental_uris":{"android":"levelo://app?vid=0a8d07dd-db7d-4bd3-9059-559cb936ec18","ios":"levelo://app?vid=0a8d07dd-db7d-4bd3-9059-559cb936ec18"},"vehicle_type_id":"4","last_reported":1743606640,"current_range_meters":6800,"station_id":"","pricing_plan_id":"cebpf4jnsgd1na2vs0mg"},{"bike_id":"1288ba91-f832-404d-a9bc-12320939abd7","system_id":"levelo_inurba_marseille","lat":43.25,"lon":5.38931,"is_reserved":false,"is_disabled":false,"rental_uris":{"android":"levelo://app?vid=1288ba91-f832-404d-a9bc-12320939abd7","ios":"levelo://app?vid=1288ba91-f832-404d-a9bc-12320939abd7"},"vehicle_type_id":"4","last_reported":1743606640,"current_range_meters":6400,"station_id":"ce4bhgp2rcd13ifvqfd0","pricing_plan_id":"cebpf4jnsgd1na2vs0mg"},{"bike_id":"e4fac013-ca83-4711-a00e-d5d1d727848e","system_id":"levelo_inurba_marseille","lat":43.29629,"lon":5.40595,"is_reserved":false,"is_disabled":false,"rental_uris":{"android":"levelo://app?vid=e4fac013-ca83-4711-a00e-d5d1d727848e","ios":"levelo://app?vid=e4fac013-ca83-4711-a00e-d5d1d727848e"},"vehicle_type_id":"4","last_reported":1743606640,"current_range_meters":6400,"station_id":"ce4bh0h2rcd13ifvqd60","pricing_plan_id":"cebpf4jnsgd1na2vs0mg"},{"bike_id":"59c9a18d-d43d-4c14-9276-ac121e373150","system_id":"levelo_inurba_marseille","lat":43.284943,"lon":5.385699,"is_reserved":false,"is_disabled":false,"rental_uris":{"android":"levelo://app?vid=59c9a18d-d43d-4c14-9276-ac121e373150","ios":"levelo://app?vid=59c9a18d-d43d-4c14-9276-ac121e373150"},"vehicle_type_id":"4","last_reported":1743606640,"current_range_meters":6000,"station_id":"ce4bh5p2rcd13ifvqe4g","pricing_plan_id":"cebpf4jnsgd1na2vs0mg"},{"bike_id":"66a6759f-f104-404f-ba35-7dd5d87e6d0b","system_id":"levelo_inurba_marseille","lat":43.30124,"lon":5.37664,"is_reserved":false,"is_disabled":false,"rental_uris":{"android":"levelo://app?vid=66a6759f-f104-404f-ba35-7dd5d87e6d0b","ios":"levelo://app?vid=66a6759f-f104-404f-ba35-7dd5d87e6d0b"},"vehicle_type_id":"4","last_reported":1743606640,"current_range_meters":6400,"station_id":"","pricing_plan_id":"cebpf4jnsgd1na2vs0mg"},{"bike_id":"d899c0fb-ef5e-460d-b42b-352281bec7ad","system_id":"levelo_inurba_marseille","lat":43.29521,"lon":5.39023,"is_reserved":false,"is_disabled":false,"rental_uris":{"android":"levelo://app?vid=d899c0fb-ef5e-460d-b42b-352281bec7ad","ios":"levelo://app?vid=d899c0fb-ef5e-460d-b42b-352281bec7ad"},"vehicle_type_id":"4","last_reported":1743606640,"current_range_meters":6800,"station_id":"ce4bh3p2rcd13ifvqdp0","pricing_plan_id":"cebpf4jnsgd1na2vs0mg"},{"bike_id":"2b2ec814-e298-4bdc-9cae-7188c33e5976","system_id":"levelo_inurba_marseille","lat":43.26777,"lon":5.39433,"is_reserved":false,"is_disabled":false,"rental_uris":{"android":"levelo://app?vid=2b2ec814-e298-4bdc-9cae-7188c33e5976","ios":"levelo://app?vid=2b2ec814-e298-4bdc-9cae-7188c33e5976"},"vehicle_type_id":"4","last_reported":1743606640,"current_range_meters":6800,"station_id":"ce4bhh12rcd13ifvqfg0","pricing_plan_id":"cebpf4jnsgd1na2vs0mg"},{"bike_id":"bccccaec-b810-4fa0-9958-1e0e0e3eabf9","system_id":"levelo_inurba_marseille","lat":43.27921,"lon":5.39592,"is_reserved":false,"is_disabled":false,"rental_uris":{"android":"levelo://app?vid=bccccaec-b810-4fa0-9958-1e0e0e3eabf9","ios":"levelo://app?vid=bccccaec-b810-4fa0-9958-1e0e0e3eabf9"},"vehicle_type_id":"4","last_reported":1743606640,"current_range_meters":6400,"station_id":"ce4bhf92rcd13ifvqf40","pricing_plan_id":"cebpf4jnsgd1na2vs0mg"},{"bike_id":"8ff3111d-da01-4fbf-b24c-8288d60bd7d2","system_id":"levelo_inurba_marseille","lat":43.30423,"lon":5.38882,"is_reserved":false,"is_disabled":false,"rental_uris":{"android":"levelo://app?vid=8ff3111d-da01-4fbf-b24c-8288d60bd7d2","ios":"levelo://app?vid=8ff3111d-da01-4fbf-b24c-8288d60bd7d2"},"vehicle_type_id":"4","last_reported":1743606640,"current_range_meters":6800,"station_id":"ce4bgk12rcd13ifvqbi0","pricing_plan_id":"cebpf4jnsgd1na2vs0mg"},{"bike_id":"5ef6b633-cf2f-42de-995a-43dea0a55a29","system_id":"levelo_inurba_marseille","lat":43.32116,"lon":5.36783,"is_reserved":false,"is_disabled":false,"rental_uris":{"android":"levelo://app?vid=5ef6b633-cf2f-42de-995a-43dea0a55a29","ios":"levelo://app?vid=5ef6b633-cf2f-42de-995a-43dea0a55a29"},"vehicle_type_id":"4","last_reported":1743606640,"current_range_meters":6800,"station_id":"ce4bhrh2rcd13ifvqhug","pricing_plan_id":"cebpf4jnsgd1na2vs0mg"},{"bike_id":"b0d6cafe-beae-4567-94da-4027c08a1f19","system_id":"levelo_inurba_marseille","lat":43.28469,"lon":5.35886,"is_reserved":false,"is_disabled":false,"rental_uris":{"android":"levelo://app?vid=b0d6cafe-beae-4567-94da-4027c08a1f19","ios":"levelo://app?vid=b0d6cafe-beae-4567-94da-4027c08a1f19"},"vehicle_type_id":"4","last_reported":1743606640,"current_range_meters":8400,"station_id":"ce4bhah2rcd13ifvqei0","pricing_plan_id":"cebpf4jnsgd1na2vs0mg"},{"bike_id":"fdd74cea-2420-4f5e-97f2-a48b67190c4e","system_id":"levelo_inurba_marseille","lat":43.337444,"lon":5.374475,"is_reserved":false,"is_disabled":false,"rental_uris":{"android":"levelo://app?vid=fdd74cea-2420-4f5e-97f2-a48b67190c4e","ios":"levelo://app?vid=fdd74cea-2420-4f5e-97f2-a48b67190c4e"},"vehicle_type_id":"4","last_reported":1743606640,"current_range_meters":6800,"station_id":"","pricing_plan_id":"cebpf4jnsgd1na2vs0mg"},{"bike_id":"e47bc61d-df2d-41b3-b26b-dd94e6e5e301","system_id":"levelo_inurba_marseille","lat":43.26247,"lon":5.42128,"is_reserved":false,"is_disabled":false,"rental_uris":{"android":"levelo://app?vid=e47bc61d-df2d-41b3-b26b-dd94e6e5e301","ios":"levelo://app?vid=e47bc61d-df2d-41b3-b26b-dd94e6e5e301"},"vehicle_type_id":"4","last_reported":1743606640,"current_range_meters":6800,"station_id":"","pricing_plan_id":"cebpf4jnsgd1na2vs0mg"},{"bike_id":"7bdf0d60-3026-4723-ac07-ebb25b9cf79f","system_id":"levelo_inurba_marseille","lat":43.28772,"lon":5.3866,"is_reserved":false,"is_disabled":false,"rental_uris":{"android":"levelo://app?vid=7bdf0d60-3026-4723-ac07-ebb25b9cf79f","ios":"levelo://app?vid=7bdf0d60-3026-4723-ac07-ebb25b9cf79f"},"vehicle_type_id":"4","last_reported":1743606640,"current_range_meters":6800,"station_id":"","pricing_plan_id":"cebpf4jnsgd1na2vs0mg"},{"bike_id":"163c15f1-4d17-44d3-abea-59c348cdbd9d","system_id":"levelo_inurba_marseille","lat":43.29531,"lon":5.3854,"is_reserved":false,"is_disabled":false,"rental_uris":{"android":"levelo://app?vid=163c15f1-4d17-44d3-abea-59c348cdbd9d","ios":"levelo://app?vid=163c15f1-4d17-44d3-abea-59c348cdbd9d"},"vehicle_type_id":"4","last_reported":1743606640,"current_range_meters":6800,"station_id":"ce4bgih2rcd13ifvqba0","pricing_plan_id":"cebpf4jnsgd1na2vs0mg"},{"bike_id":"11a82594-9cdc-4e69-b250-30130efb8591","system_id":"levelo_inurba_marseille","lat":43.29251,"lon":5.38449,"is_reserved":false,"is_disabled":false,"rental_uris":{"android":"levelo://app?vid=11a82594-9cdc-4e69-b250-30130efb8591","ios":"levelo://app?vid=11a82594-9cdc-4e69-b250-30130efb8591"},"vehicle_type_id":"4","last_reported":1743606640,"current_range_meters":6800,"station_id":"ce4bh692rcd13ifvqea0","pricing_plan_id":"cebpf4jnsgd1na2vs0mg"},{"bike_id":"e15d1b5d-d573-42df-8efe-b3471bb0240d","system_id":"levelo_inurba_marseille","lat":43.30553,"lon":5.3654,"is_reserved":false,"is_disabled":false,"rental_uris":{"android":"levelo://app?vid=e15d1b5d-d573-42df-8efe-b3471bb0240d","ios":"levelo://app?vid=e15d1b5d-d573-42df-8efe-b3471bb0240d"},"vehicle_type_id":"4","last_reported":1743606640,"current_range_meters":6800,"station_id":"ce4bgs12rcd13ifvqcag","pricing_plan_id":"cebpf4jnsgd1na2vs0mg"},{"bike_id":"4c3635db-14fa-4337-beac-d31f3ccd1adb","system_id":"levelo_inurba_marseille","lat":43.24548,"lon":5.39526,"is_reserved":false,"is_disabled":false,"rental_uris":{"android":"levelo://app?vid=4c3635db-14fa-4337-beac-d31f3ccd1adb","ios":"levelo://app?vid=4c3635db-14fa-4337-beac-d31f3ccd1adb"},"vehicle_type_id":"4","last_reported":1743606640,"current_range_meters":7200,"station_id":"ce4bhlp2rcd13ifvqgjg","pricing_plan_id":"cebpf4jnsgd1na2vs0mg"},{"bike_id":"d4a79d36-bcea-44b7-bf75-1ca1bbe236f7","system_id":"levelo_inurba_marseille","lat":43.32344,"lon":5.4062,"is_reserved":false,"is_disabled":false,"rental_uris":{"android":"levelo://app?vid=d4a79d36-bcea-44b7-bf75-1ca1bbe236f7","ios":"levelo://app?vid=d4a79d36-bcea-44b7-bf75-1ca1bbe236f7"},"vehicle_type_id":"4","last_reported":1743606640,"current_range_meters":7200,"station_id":"ce4bhq92rcd13ifvqhjg","pricing_plan_id":"cebpf4jnsgd1na2vs0mg"},{"bike_id":"6b6a39d1-249a-4d4a-a20c-2e5e26bdaa6f","system_id":"levelo_inurba_marseille","lat":43.29261,"lon":5.38431,"is_reserved":false,"is_disabled":false,"rental_uris":{"android":"levelo://app?vid=6b6a39d1-249a-4d4a-a20c-2e5e26bdaa6f","ios":"levelo://app?vid=6b6a39d1-249a-4d4a-a20c-2e5e26bdaa6f"},"vehicle_type_id":"4","last_reported":1743606640,"current_range_meters":3600,"station_id":"ce4bh692rcd13ifvqea0","pricing_plan_id":"cebpf4jnsgd1na2vs0mg"},{"bike_id":"4f1fb305-fdac-49af-98f8-e5ebaa4429a4","system_id":"levelo_inurba_marseille","lat":43.22933,"lon":5.35394,"is_reserved":false,"is_disabled":false,"rental_uris":{"android":"levelo://app?vid=4f1fb305-fdac-49af-98f8-e5ebaa4429a4","ios":"levelo://app?vid=4f1fb305-fdac-49af-98f8-e5ebaa4429a4"},"vehicle_type_id":"4","last_reported":1743606640,"current_range_meters":7200,"station_id":"cpo3532slgdg3j2ikp40","pricing_plan_id":"cebpf4jnsgd1na2vs0mg"},{"bike_id":"55d071cc-a0f3-4eaa-9951-c403081674dc","system_id":"levelo_inurba_marseille","lat":43.25583,"lon":5.38239,"is_reserved":false,"is_disabled":false,"rental_uris":{"android":"levelo://app?vid=55d071cc-a0f3-4eaa-9951-c403081674dc","ios":"levelo://app?vid=55d071cc-a0f3-4eaa-9951-c403081674dc"},"vehicle_type_id":"4","last_reported":1743606640,"current_range_meters":7200,"station_id":"ce4bhih2rcd13ifvqfs0","pricing_plan_id":"cebpf4jnsgd1na2vs0mg"},{"bike_id":"1b33c168-a508-4e8d-9b6d-00d9520313b3","system_id":"levelo_inurba_marseille","lat":43.28701,"lon":5.39985,"is_reserved":false,"is_disabled":false,"rental_uris":{"android":"levelo://app?vid=1b33c168-a508-4e8d-9b6d-00d9520313b3","ios":"levelo://app?vid=1b33c168-a508-4e8d-9b6d-00d9520313b3"},"vehicle_type_id":"4","last_reported":1743606640,"current_range_meters":6800,"station_id":"ce4bho92rcd13ifvqh3g","pricing_plan_id":"cebpf4jnsgd1na2vs0mg"},{"bike_id":"8cb47588-efd7-4b3c-aaeb-3d10bcee7da0","system_id":"levelo_inurba_marseille","lat":43.30427,"lon":5.41287,"is_reserved":false,"is_disabled":false,"rental_uris":{"android":"levelo://app?vid=8cb47588-efd7-4b3c-aaeb-3d10bcee7da0","ios":"levelo://app?vid=8cb47588-efd7-4b3c-aaeb-3d10bcee7da0"},"vehicle_type_id":"4","last_reported":1743606640,"current_range_meters":6800,"station_id":"ce4bhop2rcd13ifvqh8g","pricing_plan_id":"cebpf4jnsgd1na2vs0mg"},{"bike_id":"576ddca1-4914-4dee-a4ef-edc841c211d6","system_id":"levelo_inurba_marseille","lat":43.292616,"lon":5.408962,"is_reserved":false,"is_disabled":false,"rental_uris":{"android":"levelo://app?vid=576ddca1-4914-4dee-a4ef-edc841c211d6","ios":"levelo://app?vid=576ddca1-4914-4dee-a4ef-edc841c211d6"},"vehicle_type_id":"4","last_reported":1743606640,"current_range_meters":7200,"station_id":"ce4bh192rcd13ifvqdc0","pricing_plan_id":"cebpf4jnsgd1na2vs0mg"},{"bike_id":"0bac4db0-091d-4454-863e-631d23b1fa6f","system_id":"levelo_inurba_marseille","lat":43.23155,"lon":5.43717,"is_reserved":false,"is_disabled":false,"rental_uris":{"android":"levelo://app?vid=0bac4db0-091d-4454-863e-631d23b1fa6f","ios":"levelo://app?vid=0bac4db0-091d-4454-863e-631d23b1fa6f"},"vehicle_type_id":"4","last_reported":1743606640,"current_range_meters":7200,"station_id":"ce4bhmp2rcd13ifvqgog","pricing_plan_id":"cebpf4jnsgd1na2vs0mg"},{"bike_id":"312ed70b-1ac3-481a-88c0-b0159fcd0caf","system_id":"levelo_inurba_marseille","lat":43.23154,"lon":5.43718,"is_reserved":false,"is_disabled":false,"rental_uris":{"android":"levelo://app?vid=312ed70b-1ac3-481a-88c0-b0159fcd0caf","ios":"levelo://app?vid=312ed70b-1ac3-481a-88c0-b0159fcd0caf"},"vehicle_type_id":"4","last_reported":1743606640,"current_range_meters":7200,"station_id":"ce4bhmp2rcd13ifvqgog","pricing_plan_id":"cebpf4jnsgd1na2vs0mg"},{"bike_id":"f06067fe-c409-49ce-b995-b28658dd37fb","system_id":"levelo_inurba_marseille","lat":43.28688,"lon":5.3738,"is_reserved":false,"is_disabled":true,"rental_uris":{"android":"levelo://app?vid=f06067fe-c409-49ce-b995-b28658dd37fb","ios":"levelo://app?vid=f06067fe-c409-49ce-b995-b28658dd37fb"},"vehicle_type_id":"4","last_reported":1743606640,"current_range_meters":8000,"station_id":"ce4bh3p2rcd13ifvqdq0","pricing_plan_id":"cebpf4jnsgd1na2vs0mg"},{"bike_id":"12e65614-69dc-4d2f-9c84-4a6dbc830afc","system_id":"levelo_inurba_marseille","lat":43.23153,"lon":5.43709,"is_reserved":false,"is_disabled":false,"rental_uris":{"android":"levelo://app?vid=12e65614-69dc-4d2f-9c84-4a6dbc830afc","ios":"levelo://app?vid=12e65614-69dc-4d2f-9c84-4a6dbc830afc"},"vehicle_type_id":"4","last_reported":1743606640,"current_range_meters":8000,"station_id":"ce4bhmp2rcd13ifvqgog","pricing_plan_id":"cebpf4jnsgd1na2vs0mg"},{"bike_id":"5c109dcd-6a72-4b1a-85bf-8900fb8e2504","system_id":"levelo_inurba_marseille","lat":43.29004,"lon":5.35606,"is_reserved":false,"is_disabled":false,"rental_uris":{"android":"levelo://app?vid=5c109dcd-6a72-4b1a-85bf-8900fb8e2504","ios":"levelo://app?vid=5c109dcd-6a72-4b1a-85bf-8900fb8e2504"},"vehicle_type_id":"4","last_reported":1743606640,"current_range_meters":7200,"station_id":"ce4bhb92rcd13ifvqen0","pricing_plan_id":"cebpf4jnsgd1na2vs0mg"},{"bike_id":"7018c222-b3c9-40cc-b215-7f60e9031f8b","system_id":"levelo_inurba_marseille","lat":43.231567,"lon":5.437062,"is_reserved":false,"is_disabled":false,"rental_uris":{"android":"levelo://app?vid=7018c222-b3c9-40cc-b215-7f60e9031f8b","ios":"levelo://app?vid=7018c222-b3c9-40cc-b215-7f60e9031f8b"},"vehicle_type_id":"4","last_reported":1743606640,"current_range_meters":7200,"station_id":"","pricing_plan_id":"cebpf4jnsgd1na2vs0mg"},{"bike_id":"cda1b013-1fa0-4681-b7ab-309945b87975","system_id":"levelo_inurba_marseille","lat":43.29529,"lon":5.37416,"is_reserved":false,"is_disabled":false,"rental_uris":{"android":"levelo://app?vid=cda1b013-1fa0-4681-b7ab-309945b87975","ios":"levelo://app?vid=cda1b013-1fa0-4681-b7ab-309945b87975"},"vehicle_type_id":"4","last_reported":1743606640,"current_range_meters":8400,"station_id":"","pricing_plan_id":"cebpf4jnsgd1na2vs0mg"},{"bike_id":"229f7090-f36f-43a7-a98f-5b2b87c98cea","system_id":"levelo_inurba_marseille","lat":43.27937,"lon":5.41043,"is_reserved":false,"is_disabled":false,"rental_uris":{"android":"levelo://app?vid=229f7090-f36f-43a7-a98f-5b2b87c98cea","ios":"levelo://app?vid=229f7090-f36f-43a7-a98f-5b2b87c98cea"},"vehicle_type_id":"4","last_reported":1743606640,"current_range_meters":8000,"station_id":"ce4bhnp2rcd13ifvqh0g","pricing_plan_id":"cebpf4jnsgd1na2vs0mg"},{"bike_id":"86bb9193-80ac-48e9-88ab-7c1dc1665daf","system_id":"levelo_inurba_marseille","lat":43.28143,"lon":5.42649,"is_reserved":false,"is_disabled":false,"rental_uris":{"android":"levelo://app?vid=86bb9193-80ac-48e9-88ab-7c1dc1665daf","ios":"levelo://app?vid=86bb9193-80ac-48e9-88ab-7c1dc1665daf"},"vehicle_type_id":"4","last_reported":1743606640,"current_range_meters":8000,"station_id":"ce4bhnh2rcd13ifvqgug","pricing_plan_id":"cebpf4jnsgd1na2vs0mg"},{"bike_id":"3e5329f3-c0cd-422c-afb1-2f46242590da","system_id":"levelo_inurba_marseille","lat":43.31921,"lon":5.37556,"is_reserved":false,"is_disabled":false,"rental_uris":{"android":"levelo://app?vid=3e5329f3-c0cd-422c-afb1-2f46242590da","ios":"levelo://app?vid=3e5329f3-c0cd-422c-afb1-2f46242590da"},"vehicle_type_id":"4","last_reported":1743606640,"current_range_meters":8000,"station_id":"","pricing_plan_id":"cebpf4jnsgd1na2vs0mg"},{"bike_id":"1922d091-d80c-4d58-a854-efbad4fbbab2","system_id":"levelo_inurba_marseille","lat":43.32335,"lon":5.4062,"is_reserved":false,"is_disabled":false,"rental_uris":{"android":"levelo://app?vid=1922d091-d80c-4d58-a854-efbad4fbbab2","ios":"levelo://app?vid=1922d091-d80c-4d58-a854-efbad4fbbab2"},"vehicle_type_id":"4","last_reported":1743606640,"current_range_meters":8000,"station_id":"ce4bhq92rcd13ifvqhjg","pricing_plan_id":"cebpf4jnsgd1na2vs0mg"},{"bike_id":"0b8a01ea-b4ac-4743-b0a7-a5aff81bf844","system_id":"levelo_inurba_marseille","lat":43.268,"lon":5.39415,"is_reserved":false,"is_disabled":false,"rental_uris":{"android":"levelo://app?vid=0b8a01ea-b4ac-4743-b0a7-a5aff81bf844","ios":"levelo://app?vid=0b8a01ea-b4ac-4743-b0a7-a5aff81bf844"},"vehicle_type_id":"4","last_reported":1743606640,"current_range_meters":8000,"station_id":"ce4bhh12rcd13ifvqfg0","pricing_plan_id":"cebpf4jnsgd1na2vs0mg"},{"bike_id":"b40ee449-f47b-4b1b-bc19-994b7aa890c1","system_id":"levelo_inurba_marseille","lat":43.27211,"lon":5.3918,"is_reserved":false,"is_disabled":false,"rental_uris":{"android":"levelo://app?vid=b40ee449-f47b-4b1b-bc19-994b7aa890c1","ios":"levelo://app?vid=b40ee449-f47b-4b1b-bc19-994b7aa890c1"},"vehicle_type_id":"4","last_reported":1743606640,"current_range_meters":8400,"station_id":"ce4bhhp2rcd13ifvqfm0","pricing_plan_id":"cebpf4jnsgd1na2vs0mg"},{"bike_id":"cd22e8f6-4b63-4e00-b2fd-554ac28913f8","system_id":"levelo_inurba_marseille","lat":43.268,"lon":5.4268,"is_reserved":false,"is_disabled":false,"rental_uris":{"android":"levelo://app?vid=cd22e8f6-4b63-4e00-b2fd-554ac28913f8","ios":"levelo://app?vid=cd22e8f6-4b63-4e00-b2fd-554ac28913f8"},"vehicle_type_id":"4","last_reported":1743606640,"current_range_meters":8400,"station_id":"","pricing_plan_id":"cebpf4jnsgd1na2vs0mg"},{"bike_id":"1f1218d9-ebac-4975-84ee-2ba3e4d4bcb4","system_id":"levelo_inurba_marseille","lat":43.30865,"lon":5.37815,"is_reserved":false,"is_disabled":false,"rental_uris":{"android":"levelo://app?vid=1f1218d9-ebac-4975-84ee-2ba3e4d4bcb4","ios":"levelo://app?vid=1f1218d9-ebac-4975-84ee-2ba3e4d4bcb4"},"vehicle_type_id":"4","last_reported":1743606640,"current_range_meters":8400,"station_id":"","pricing_plan_id":"cebpf4jnsgd1na2vs0mg"},{"bike_id":"95d0f24a-b048-468d-ae9d-71800fb537df","system_id":"levelo_inurba_marseille","lat":43.29532,"lon":5.38541,"is_reserved":false,"is_disabled":false,"rental_uris":{"android":"levelo://app?vid=95d0f24a-b048-468d-ae9d-71800fb537df","ios":"levelo://app?vid=95d0f24a-b048-468d-ae9d-71800fb537df"},"vehicle_type_id":"4","last_reported":1743606640,"current_range_meters":8400,"station_id":"ce4bgih2rcd13ifvqba0","pricing_plan_id":"cebpf4jnsgd1na2vs0mg"},{"bike_id":"2d5b05ab-3fbf-4245-a566-4ad78ee6292a","system_id":"levelo_inurba_marseille","lat":43.25009,"lon":5.38935,"is_reserved":false,"is_disabled":false,"rental_uris":{"android":"levelo://app?vid=2d5b05ab-3fbf-4245-a566-4ad78ee6292a","ios":"levelo://app?vid=2d5b05ab-3fbf-4245-a566-4ad78ee6292a"},"vehicle_type_id":"4","last_reported":1743606640,"current_range_meters":8400,"station_id":"ce4bhgp2rcd13ifvqfd0","pricing_plan_id":"cebpf4jnsgd1na2vs0mg"},{"bike_id":"03a1214b-14cb-47c3-97dc-ead61e31347b","system_id":"levelo_inurba_marseille","lat":43.28926,"lon":5.38389,"is_reserved":false,"is_disabled":false,"rental_uris":{"android":"levelo://app?vid=03a1214b-14cb-47c3-97dc-ead61e31347b","ios":"levelo://app?vid=03a1214b-14cb-47c3-97dc-ead61e31347b"},"vehicle_type_id":"4","last_reported":1743606640,"current_range_meters":8400,"station_id":"ce4bh612rcd13ifvqe6g","pricing_plan_id":"cebpf4jnsgd1na2vs0mg"},{"bike_id":"3ba6ccff-1eda-46d4-acbd-01dbdd65bb76","system_id":"levelo_inurba_marseille","lat":43.29903,"lon":5.43688,"is_reserved":false,"is_disabled":false,"rental_uris":{"android":"levelo://app?vid=3ba6ccff-1eda-46d4-acbd-01dbdd65bb76","ios":"levelo://app?vid=3ba6ccff-1eda-46d4-acbd-01dbdd65bb76"},"vehicle_type_id":"4","last_reported":1743606640,"current_range_meters":8400,"station_id":"ce4bhpp2rcd13ifvqhfg","pricing_plan_id":"cebpf4jnsgd1na2vs0mg"},{"bike_id":"c04ec2c8-8f50-4ee8-8a69-122203b15c48","system_id":"levelo_inurba_marseille","lat":43.29551,"lon":5.37493,"is_reserved":false,"is_disabled":false,"rental_uris":{"android":"levelo://app?vid=c04ec2c8-8f50-4ee8-8a69-122203b15c48","ios":"levelo://app?vid=c04ec2c8-8f50-4ee8-8a69-122203b15c48"},"vehicle_type_id":"4","last_reported":1743606640,"current_range_meters":8800,"station_id":"ce4bgkp2rcd13ifvqbmg","pricing_plan_id":"cebpf4jnsgd1na2vs0mg"},{"bike_id":"998d557f-6dcb-47bf-b253-9af9cfece282","system_id":"levelo_inurba_marseille","lat":43.29785,"lon":5.38107,"is_reserved":false,"is_disabled":false,"rental_uris":{"android":"levelo://app?vid=998d557f-6dcb-47bf-b253-9af9cfece282","ios":"levelo://app?vid=998d557f-6dcb-47bf-b253-9af9cfece282"},"vehicle_type_id":"4","last_reported":1743606640,"current_range_meters":8800,"station_id":"ce4bgip2rcd13ifvqbb0","pricing_plan_id":"cebpf4jnsgd1na2vs0mg"},{"bike_id":"14501b62-f66f-4a26-a469-5274805c7649","system_id":"levelo_inurba_marseille","lat":43.29966,"lon":5.38499,"is_reserved":false,"is_disabled":false,"rental_uris":{"android":"levelo://app?vid=14501b62-f66f-4a26-a469-5274805c7649","ios":"levelo://app?vid=14501b62-f66f-4a26-a469-5274805c7649"},"vehicle_type_id":"4","last_reported":1743606640,"current_range_meters":8800,"station_id":"ce4bgj92rcd13ifvqbd0","pricing_plan_id":"cebpf4jnsgd1na2vs0mg"},{"bike_id":"3e20270b-4439-4947-82fe-5ff913e9f550","system_id":"levelo_inurba_marseille","lat":43.30656,"lon":5.40081,"is_reserved":false,"is_disabled":false,"rental_uris":{"android":"levelo://app?vid=3e20270b-4439-4947-82fe-5ff913e9f550","ios":"levelo://app?vid=3e20270b-4439-4947-82fe-5ff913e9f550"},"vehicle_type_id":"4","last_reported":1743606640,"current_range_meters":8800,"station_id":"ce4bh112rcd13ifvqda0","pricing_plan_id":"cebpf4jnsgd1na2vs0mg"},{"bike_id":"7aa08c36-ee27-4e8e-996a-fcb4923ecbbb","system_id":"levelo_inurba_marseille","lat":43.28274,"lon":5.35065,"is_reserved":false,"is_disabled":true,"rental_uris":{"android":"levelo://app?vid=7aa08c36-ee27-4e8e-996a-fcb4923ecbbb","ios":"levelo://app?vid=7aa08c36-ee27-4e8e-996a-fcb4923ecbbb"},"vehicle_type_id":"4","last_reported":1743606640,"current_range_meters":8800,"station_id":"ce4bhbp2rcd13ifvqerg","pricing_plan_id":"cebpf4jnsgd1na2vs0mg"},{"bike_id":"c03bd363-802f-4711-94fc-fb858f626d44","system_id":"levelo_inurba_marseille","lat":43.293775,"lon":5.378482,"is_reserved":false,"is_disabled":false,"rental_uris":{"android":"levelo://app?vid=c03bd363-802f-4711-94fc-fb858f626d44","ios":"levelo://app?vid=c03bd363-802f-4711-94fc-fb858f626d44"},"vehicle_type_id":"4","last_reported":1743606640,"current_range_meters":8000,"station_id":"ce4bh292rcd13ifvqdf0","pricing_plan_id":"cebpf4jnsgd1na2vs0mg"},{"bike_id":"129f9a59-343c-494e-b3cd-53db19a5b6cd","system_id":"levelo_inurba_marseille","lat":43.22931,"lon":5.35378,"is_reserved":false,"is_disabled":false,"rental_uris":{"android":"levelo://app?vid=129f9a59-343c-494e-b3cd-53db19a5b6cd","ios":"levelo://app?vid=129f9a59-343c-494e-b3cd-53db19a5b6cd"},"vehicle_type_id":"4","last_reported":1743606640,"current_range_meters":8800,"station_id":"cpo3532slgdg3j2ikp40","pricing_plan_id":"cebpf4jnsgd1na2vs0mg"},{"bike_id":"a515d627-3024-452e-bdba-3a3edaae3658","system_id":"levelo_inurba_marseille","lat":43.26063,"lon":5.3939,"is_reserved":false,"is_disabled":true,"rental_uris":{"android":"levelo://app?vid=a515d627-3024-452e-bdba-3a3edaae3658","ios":"levelo://app?vid=a515d627-3024-452e-bdba-3a3edaae3658"},"vehicle_type_id":"4","last_reported":1743606640,"current_range_meters":8800,"station_id":"ce4bhh92rcd13ifvqfj0","pricing_plan_id":"cebpf4jnsgd1na2vs0mg"},{"bike_id":"edbb5026-7092-42e3-b160-e8af571ca967","system_id":"levelo_inurba_marseille","lat":43.28167,"lon":5.42665,"is_reserved":false,"is_disabled":false,"rental_uris":{"android":"levelo://app?vid=edbb5026-7092-42e3-b160-e8af571ca967","ios":"levelo://app?vid=edbb5026-7092-42e3-b160-e8af571ca967"},"vehicle_type_id":"4","last_reported":1743606640,"current_range_meters":8800,"station_id":"ce4bhnh2rcd13ifvqgug","pricing_plan_id":"cebpf4jnsgd1na2vs0mg"},{"bike_id":"9df1ea73-0ce9-4d97-be8b-4917261e0c76","system_id":"levelo_inurba_marseille","lat":43.32536,"lon":5.41428,"is_reserved":false,"is_disabled":false,"rental_uris":{"android":"levelo://app?vid=9df1ea73-0ce9-4d97-be8b-4917261e0c76","ios":"levelo://app?vid=9df1ea73-0ce9-4d97-be8b-4917261e0c76"},"vehicle_type_id":"4","last_reported":1743606640,"current_range_meters":8800,"station_id":"ce4bhq12rcd13ifvqhhg","pricing_plan_id":"cebpf4jnsgd1na2vs0mg"},{"bike_id":"d3345442-2654-4ddc-b869-fce22decea38","system_id":"levelo_inurba_marseille","lat":43.23054,"lon":5.35494,"is_reserved":false,"is_disabled":false,"rental_uris":{"android":"levelo://app?vid=d3345442-2654-4ddc-b869-fce22decea38","ios":"levelo://app?vid=d3345442-2654-4ddc-b869-fce22decea38"},"vehicle_type_id":"4","last_reported":1743606640,"current_range_meters":8800,"station_id":"cpo3342slgdg3j2ifvpg","pricing_plan_id":"cebpf4jnsgd1na2vs0mg"},{"bike_id":"78246887-1514-4670-929d-2f3817afcb78","system_id":"levelo_inurba_marseille","lat":43.26791,"lon":5.39408,"is_reserved":false,"is_disabled":false,"rental_uris":{"android":"levelo://app?vid=78246887-1514-4670-929d-2f3817afcb78","ios":"levelo://app?vid=78246887-1514-4670-929d-2f3817afcb78"},"vehicle_type_id":"4","last_reported":1743606640,"current_range_meters":9200,"station_id":"ce4bhh12rcd13ifvqfg0","pricing_plan_id":"cebpf4jnsgd1na2vs0mg"},{"bike_id":"26b01a31-2d83-438d-a689-d39612711775","system_id":"levelo_inurba_marseille","lat":43.28935,"lon":5.3664,"is_reserved":false,"is_disabled":false,"rental_uris":{"android":"levelo://app?vid=26b01a31-2d83-438d-a689-d39612711775","ios":"levelo://app?vid=26b01a31-2d83-438d-a689-d39612711775"},"vehicle_type_id":"4","last_reported":1743606640,"current_range_meters":9200,"station_id":"ce4bhap2rcd13ifvqek0","pricing_plan_id":"cebpf4jnsgd1na2vs0mg"},{"bike_id":"e3d01a26-5542-45dc-8373-1b19a6bf2880","system_id":"levelo_inurba_marseille","lat":43.23153,"lon":5.43696,"is_reserved":false,"is_disabled":false,"rental_uris":{"android":"levelo://app?vid=e3d01a26-5542-45dc-8373-1b19a6bf2880","ios":"levelo://app?vid=e3d01a26-5542-45dc-8373-1b19a6bf2880"},"vehicle_type_id":"4","last_reported":1743606640,"current_range_meters":9200,"station_id":"ce4bhmp2rcd13ifvqgog","pricing_plan_id":"cebpf4jnsgd1na2vs0mg"},{"bike_id":"c05ea898-9b73-4ac7-a114-d869d4e9a852","system_id":"levelo_inurba_marseille","lat":43.26217,"lon":5.37438,"is_reserved":false,"is_disabled":false,"rental_uris":{"android":"levelo://app?vid=c05ea898-9b73-4ac7-a114-d869d4e9a852","ios":"levelo://app?vid=c05ea898-9b73-4ac7-a114-d869d4e9a852"},"vehicle_type_id":"4","last_reported":1743606640,"current_range_meters":9200,"station_id":"ce4bhgp2rcd13ifvqfc0","pricing_plan_id":"cebpf4jnsgd1na2vs0mg"},{"bike_id":"2ed9404d-458e-44d9-afcd-e53713075f99","system_id":"levelo_inurba_marseille","lat":43.22935,"lon":5.35381,"is_reserved":false,"is_disabled":false,"rental_uris":{"android":"levelo://app?vid=2ed9404d-458e-44d9-afcd-e53713075f99","ios":"levelo://app?vid=2ed9404d-458e-44d9-afcd-e53713075f99"},"vehicle_type_id":"4","last_reported":1743606640,"current_range_meters":9200,"station_id":"cpo3532slgdg3j2ikp40","pricing_plan_id":"cebpf4jnsgd1na2vs0mg"},{"bike_id":"4583a1b0-54fb-4843-9c08-4e898a0daac6","system_id":"levelo_inurba_marseille","lat":43.28153,"lon":5.42648,"is_reserved":false,"is_disabled":false,"rental_uris":{"android":"levelo://app?vid=4583a1b0-54fb-4843-9c08-4e898a0daac6","ios":"levelo://app?vid=4583a1b0-54fb-4843-9c08-4e898a0daac6"},"vehicle_type_id":"4","last_reported":1743606640,"current_range_meters":9200,"station_id":"ce4bhnh2rcd13ifvqgug","pricing_plan_id":"cebpf4jnsgd1na2vs0mg"},{"bike_id":"d120d6b8-7c34-45a1-bfdf-2a5356fa3a50","system_id":"levelo_inurba_marseille","lat":43.26212,"lon":5.37414,"is_reserved":false,"is_disabled":false,"rental_uris":{"android":"levelo://app?vid=d120d6b8-7c34-45a1-bfdf-2a5356fa3a50","ios":"levelo://app?vid=d120d6b8-7c34-45a1-bfdf-2a5356fa3a50"},"vehicle_type_id":"4","last_reported":1743606640,"current_range_meters":9200,"station_id":"ce4bhgp2rcd13ifvqfc0","pricing_plan_id":"cebpf4jnsgd1na2vs0mg"},{"bike_id":"0d4c4b0c-23f0-4d92-a33b-032001361a1a","system_id":"levelo_inurba_marseille","lat":43.300231,"lon":5.38544,"is_reserved":false,"is_disabled":false,"rental_uris":{"android":"levelo://app?vid=0d4c4b0c-23f0-4d92-a33b-032001361a1a","ios":"levelo://app?vid=0d4c4b0c-23f0-4d92-a33b-032001361a1a"},"vehicle_type_id":"4","last_reported":1743606640,"current_range_meters":9200,"station_id":"ce4bgj92rcd13ifvqbd0","pricing_plan_id":"cebpf4jnsgd1na2vs0mg"},{"bike_id":"52d07ee5-341c-4b10-bfc4-27591791a6ca","system_id":"levelo_inurba_marseille","lat":43.28006,"lon":5.400106,"is_reserved":false,"is_disabled":false,"rental_uris":{"android":"levelo://app?vid=52d07ee5-341c-4b10-bfc4-27591791a6ca","ios":"levelo://app?vid=52d07ee5-341c-4b10-bfc4-27591791a6ca"},"vehicle_type_id":"4","last_reported":1743606640,"current_range_meters":8400,"station_id":"ce4bhnh2rcd13ifvqgtg","pricing_plan_id":"cebpf4jnsgd1na2vs0mg"},{"bike_id":"5b6d583f-c86f-4dfc-9874-771bcfc90929","system_id":"levelo_inurba_marseille","lat":43.28466,"lon":5.35887,"is_reserved":false,"is_disabled":false,"rental_uris":{"android":"levelo://app?vid=5b6d583f-c86f-4dfc-9874-771bcfc90929","ios":"levelo://app?vid=5b6d583f-c86f-4dfc-9874-771bcfc90929"},"vehicle_type_id":"4","last_reported":1743606640,"current_range_meters":9200,"station_id":"ce4bhah2rcd13ifvqei0","pricing_plan_id":"cebpf4jnsgd1na2vs0mg"},{"bike_id":"7b869cea-1d61-42d2-b04b-29df5bd7497f","system_id":"levelo_inurba_marseille","lat":43.32107,"lon":5.36772,"is_reserved":false,"is_disabled":false,"rental_uris":{"android":"levelo://app?vid=7b869cea-1d61-42d2-b04b-29df5bd7497f","ios":"levelo://app?vid=7b869cea-1d61-42d2-b04b-29df5bd7497f"},"vehicle_type_id":"4","last_reported":1743606640,"current_range_meters":9600,"station_id":"ce4bhrh2rcd13ifvqhug","pricing_plan_id":"cebpf4jnsgd1na2vs0mg"},{"bike_id":"4edd6e19-4ba6-444c-9ed9-10270c120be7","system_id":"levelo_inurba_marseille","lat":43.26506,"lon":5.39553,"is_reserved":false,"is_disabled":false,"rental_uris":{"android":"levelo://app?vid=4edd6e19-4ba6-444c-9ed9-10270c120be7","ios":"levelo://app?vid=4edd6e19-4ba6-444c-9ed9-10270c120be7"},"vehicle_type_id":"4","last_reported":1743606640,"current_range_meters":9600,"station_id":"ce4bhi12rcd13ifvqfq0","pricing_plan_id":"cebpf4jnsgd1na2vs0mg"},{"bike_id":"8d8b0c8d-6697-4743-9964-dfa8ce35a689","system_id":"levelo_inurba_marseille","lat":43.30797,"lon":5.37661,"is_reserved":false,"is_disabled":false,"rental_uris":{"android":"levelo://app?vid=8d8b0c8d-6697-4743-9964-dfa8ce35a689","ios":"levelo://app?vid=8d8b0c8d-6697-4743-9964-dfa8ce35a689"},"vehicle_type_id":"4","last_reported":1743606640,"current_range_meters":9600,"station_id":"ce4bgv92rcd13ifvqcq0","pricing_plan_id":"cebpf4jnsgd1na2vs0mg"},{"bike_id":"a37ba079-4ccc-43bf-b918-b876a550e8db","system_id":"levelo_inurba_marseille","lat":43.25575,"lon":5.38229,"is_reserved":false,"is_disabled":false,"rental_uris":{"android":"levelo://app?vid=a37ba079-4ccc-43bf-b918-b876a550e8db","ios":"levelo://app?vid=a37ba079-4ccc-43bf-b918-b876a550e8db"},"vehicle_type_id":"4","last_reported":1743606640,"current_range_meters":9600,"station_id":"ce4bhih2rcd13ifvqfs0","pricing_plan_id":"cebpf4jnsgd1na2vs0mg"},{"bike_id":"6e6a66e5-58ca-4db1-9695-b46ed5c28827","system_id":"levelo_inurba_marseille","lat":43.31568,"lon":5.36501,"is_reserved":false,"is_disabled":false,"rental_uris":{"android":"levelo://app?vid=6e6a66e5-58ca-4db1-9695-b46ed5c28827","ios":"levelo://app?vid=6e6a66e5-58ca-4db1-9695-b46ed5c28827"},"vehicle_type_id":"4","last_reported":1743606640,"current_range_meters":9600,"station_id":"","pricing_plan_id":"cebpf4jnsgd1na2vs0mg"},{"bike_id":"25c9da1a-b5c2-481b-a59e-5c1900e213f6","system_id":"levelo_inurba_marseille","lat":43.25579,"lon":5.38218,"is_reserved":false,"is_disabled":false,"rental_uris":{"android":"levelo://app?vid=25c9da1a-b5c2-481b-a59e-5c1900e213f6","ios":"levelo://app?vid=25c9da1a-b5c2-481b-a59e-5c1900e213f6"},"vehicle_type_id":"4","last_reported":1743606640,"current_range_meters":9600,"station_id":"ce4bhih2rcd13ifvqfs0","pricing_plan_id":"cebpf4jnsgd1na2vs0mg"},{"bike_id":"f55695a6-b65f-4a30-99ab-94b2bfa63268","system_id":"levelo_inurba_marseille","lat":43.23196,"lon":5.35544,"is_reserved":false,"is_disabled":false,"rental_uris":{"android":"levelo://app?vid=f55695a6-b65f-4a30-99ab-94b2bfa63268","ios":"levelo://app?vid=f55695a6-b65f-4a30-99ab-94b2bfa63268"},"vehicle_type_id":"4","last_reported":1743606640,"current_range_meters":9600,"station_id":"ce4bhu92rcd13ifvqi70","pricing_plan_id":"cebpf4jnsgd1na2vs0mg"},{"bike_id":"d8a1595a-9afa-4c5b-a8ee-e7e465b947db","system_id":"levelo_inurba_marseille","lat":43.31325,"lon":5.37331,"is_reserved":false,"is_disabled":false,"rental_uris":{"android":"levelo://app?vid=d8a1595a-9afa-4c5b-a8ee-e7e465b947db","ios":"levelo://app?vid=d8a1595a-9afa-4c5b-a8ee-e7e465b947db"},"vehicle_type_id":"4","last_reported":1743606640,"current_range_meters":9600,"station_id":"","pricing_plan_id":"cebpf4jnsgd1na2vs0mg"},{"bike_id":"dc2f53e7-e059-4375-b84f-13324aacf19d","system_id":"levelo_inurba_marseille","lat":43.29036,"lon":5.39969,"is_reserved":false,"is_disabled":false,"rental_uris":{"android":"levelo://app?vid=dc2f53e7-e059-4375-b84f-13324aacf19d","ios":"levelo://app?vid=dc2f53e7-e059-4375-b84f-13324aacf19d"},"vehicle_type_id":"4","last_reported":1743606640,"current_range_meters":9600,"station_id":"ce4bh392rcd13ifvqdm0","pricing_plan_id":"cebpf4jnsgd1na2vs0mg"},{"bike_id":"4ee5d69e-d0b7-469e-8b79-edc30453fea3","system_id":"levelo_inurba_marseille","lat":43.30544,"lon":5.38429,"is_reserved":false,"is_disabled":false,"rental_uris":{"android":"levelo://app?vid=4ee5d69e-d0b7-469e-8b79-edc30453fea3","ios":"levelo://app?vid=4ee5d69e-d0b7-469e-8b79-edc30453fea3"},"vehicle_type_id":"4","last_reported":1743606640,"current_range_meters":9600,"station_id":"ce4bgg92rcd13ifvqb30","pricing_plan_id":"cebpf4jnsgd1na2vs0mg"},{"bike_id":"74182afd-e582-423a-8199-bd7140f8492d","system_id":"levelo_inurba_marseille","lat":43.2901,"lon":5.35603,"is_reserved":false,"is_disabled":false,"rental_uris":{"android":"levelo://app?vid=74182afd-e582-423a-8199-bd7140f8492d","ios":"levelo://app?vid=74182afd-e582-423a-8199-bd7140f8492d"},"vehicle_type_id":"4","last_reported":1743606640,"current_range_meters":9600,"station_id":"ce4bhb92rcd13ifvqen0","pricing_plan_id":"cebpf4jnsgd1na2vs0mg"},{"bike_id":"2e1d0491-8046-4a1c-910c-6d230f4ca468","system_id":"levelo_inurba_marseille","lat":43.30663,"lon":5.37368,"is_reserved":false,"is_disabled":false,"rental_uris":{"android":"levelo://app?vid=2e1d0491-8046-4a1c-910c-6d230f4ca468","ios":"levelo://app?vid=2e1d0491-8046-4a1c-910c-6d230f4ca468"},"vehicle_type_id":"4","last_reported":1743606640,"current_range_meters":9600,"station_id":"","pricing_plan_id":"cebpf4jnsgd1na2vs0mg"},{"bike_id":"b80ee275-2592-4659-b2e9-175feb839700","system_id":"levelo_inurba_marseille","lat":43.23203,"lon":5.35552,"is_reserved":false,"is_disabled":false,"rental_uris":{"android":"levelo://app?vid=b80ee275-2592-4659-b2e9-175feb839700","ios":"levelo://app?vid=b80ee275-2592-4659-b2e9-175feb839700"},"vehicle_type_id":"4","last_reported":1743606640,"current_range_meters":10000,"station_id":"ce4bhu92rcd13ifvqi70","pricing_plan_id":"cebpf4jnsgd1na2vs0mg"},{"bike_id":"d157a8ac-f1ea-480a-a1ee-9ac00962bb01","system_id":"levelo_inurba_marseille","lat":43.29552,"lon":5.42287,"is_reserved":false,"is_disabled":false,"rental_uris":{"android":"levelo://app?vid=d157a8ac-f1ea-480a-a1ee-9ac00962bb01","ios":"levelo://app?vid=d157a8ac-f1ea-480a-a1ee-9ac00962bb01"},"vehicle_type_id":"4","last_reported":1743606640,"current_range_meters":10000,"station_id":"ce4bhph2rcd13ifvqhdg","pricing_plan_id":"cebpf4jnsgd1na2vs0mg"},{"bike_id":"f87e996c-206a-47d9-8697-84a2d463fdc3","system_id":"levelo_inurba_marseille","lat":43.23192,"lon":5.35556,"is_reserved":false,"is_disabled":false,"rental_uris":{"android":"levelo://app?vid=f87e996c-206a-47d9-8697-84a2d463fdc3","ios":"levelo://app?vid=f87e996c-206a-47d9-8697-84a2d463fdc3"},"vehicle_type_id":"4","last_reported":1743606640,"current_range_meters":10000,"station_id":"ce4bhu92rcd13ifvqi70","pricing_plan_id":"cebpf4jnsgd1na2vs0mg"},{"bike_id":"6eb8a0c0-8e3d-472b-8c89-fe08fa8c7758","system_id":"levelo_inurba_marseille","lat":43.24808,"lon":5.37455,"is_reserved":false,"is_disabled":false,"rental_uris":{"android":"levelo://app?vid=6eb8a0c0-8e3d-472b-8c89-fe08fa8c7758","ios":"levelo://app?vid=6eb8a0c0-8e3d-472b-8c89-fe08fa8c7758"},"vehicle_type_id":"4","last_reported":1743606640,"current_range_meters":16000,"station_id":"ce4bhgh2rcd13ifvqfb0","pricing_plan_id":"cebpf4jnsgd1na2vs0mg"},{"bike_id":"08fa120d-1b7b-45e2-8662-4ad042922a84","system_id":"levelo_inurba_marseille","lat":43.25581,"lon":5.38238,"is_reserved":false,"is_disabled":false,"rental_uris":{"android":"levelo://app?vid=08fa120d-1b7b-45e2-8662-4ad042922a84","ios":"levelo://app?vid=08fa120d-1b7b-45e2-8662-4ad042922a84"},"vehicle_type_id":"4","last_reported":1743606640,"current_range_meters":10000,"station_id":"ce4bhih2rcd13ifvqfs0","pricing_plan_id":"cebpf4jnsgd1na2vs0mg"},{"bike_id":"dd3db03f-0f43-4986-9ec8-2a76818fb28c","system_id":"levelo_inurba_marseille","lat":43.232,"lon":5.35547,"is_reserved":false,"is_disabled":false,"rental_uris":{"android":"levelo://app?vid=dd3db03f-0f43-4986-9ec8-2a76818fb28c","ios":"levelo://app?vid=dd3db03f-0f43-4986-9ec8-2a76818fb28c"},"vehicle_type_id":"4","last_reported":1743606640,"current_range_meters":10000,"station_id":"ce4bhu92rcd13ifvqi70","pricing_plan_id":"cebpf4jnsgd1na2vs0mg"},{"bike_id":"c3d811f8-c2e8-4c0b-a3f2-42f68cf8f94c","system_id":"levelo_inurba_marseille","lat":43.23167,"lon":5.43719,"is_reserved":false,"is_disabled":false,"rental_uris":{"android":"levelo://app?vid=c3d811f8-c2e8-4c0b-a3f2-42f68cf8f94c","ios":"levelo://app?vid=c3d811f8-c2e8-4c0b-a3f2-42f68cf8f94c"},"vehicle_type_id":"4","last_reported":1743606640,"current_range_meters":10000,"station_id":"ce4bhmp2rcd13ifvqgog","pricing_plan_id":"cebpf4jnsgd1na2vs0mg"},{"bike_id":"7235f915-1a31-45ff-b208-6ae60deedd6f","system_id":"levelo_inurba_marseille","lat":43.28621,"lon":5.35102,"is_reserved":false,"is_disabled":false,"rental_uris":{"android":"levelo://app?vid=7235f915-1a31-45ff-b208-6ae60deedd6f","ios":"levelo://app?vid=7235f915-1a31-45ff-b208-6ae60deedd6f"},"vehicle_type_id":"4","last_reported":1743606640,"current_range_meters":10000,"station_id":"ce4bhch2rcd13ifvqeug","pricing_plan_id":"cebpf4jnsgd1na2vs0mg"},{"bike_id":"0a1238fc-ca06-497e-b1b6-1e417900445b","system_id":"levelo_inurba_marseille","lat":43.3019,"lon":5.374162,"is_reserved":false,"is_disabled":false,"rental_uris":{"android":"levelo://app?vid=0a1238fc-ca06-497e-b1b6-1e417900445b","ios":"levelo://app?vid=0a1238fc-ca06-497e-b1b6-1e417900445b"},"vehicle_type_id":"4","last_reported":1743606640,"current_range_meters":9600,"station_id":"ce4bguh2rcd13ifvqcj0","pricing_plan_id":"cebpf4jnsgd1na2vs0mg"},{"bike_id":"a6d25717-0db4-4a18-b77c-e49dc99dee91","system_id":"levelo_inurba_marseille","lat":43.25731,"lon":5.411,"is_reserved":false,"is_disabled":false,"rental_uris":{"android":"levelo://app?vid=a6d25717-0db4-4a18-b77c-e49dc99dee91","ios":"levelo://app?vid=a6d25717-0db4-4a18-b77c-e49dc99dee91"},"vehicle_type_id":"4","last_reported":1743606640,"current_range_meters":10000,"station_id":"ce4bhkp2rcd13ifvqgd0","pricing_plan_id":"cebpf4jnsgd1na2vs0mg"},{"bike_id":"bd85d8e2-c46c-4a7f-a66b-1892178ef080","system_id":"levelo_inurba_marseille","lat":43.27661,"lon":5.38899,"is_reserved":false,"is_disabled":true,"rental_uris":{"android":"levelo://app?vid=bd85d8e2-c46c-4a7f-a66b-1892178ef080","ios":"levelo://app?vid=bd85d8e2-c46c-4a7f-a66b-1892178ef080"},"vehicle_type_id":"4","last_reported":1743606640,"current_range_meters":10000,"station_id":"ce4bhi12rcd13ifvqfo0","pricing_plan_id":"cebpf4jnsgd1na2vs0mg"},{"bike_id":"3c66e0f3-f717-48d5-8837-81303eec4e8b","system_id":"levelo_inurba_marseille","lat":43.29009,"lon":5.3561,"is_reserved":false,"is_disabled":false,"rental_uris":{"android":"levelo://app?vid=3c66e0f3-f717-48d5-8837-81303eec4e8b","ios":"levelo://app?vid=3c66e0f3-f717-48d5-8837-81303eec4e8b"},"vehicle_type_id":"4","last_reported":1743606640,"current_range_meters":10000,"station_id":"ce4bhb92rcd13ifvqen0","pricing_plan_id":"cebpf4jnsgd1na2vs0mg"},{"bike_id":"0bce655f-fb68-4000-819d-155ffecd0d2a","system_id":"levelo_inurba_marseille","lat":43.22939,"lon":5.35378,"is_reserved":false,"is_disabled":false,"rental_uris":{"android":"levelo://app?vid=0bce655f-fb68-4000-819d-155ffecd0d2a","ios":"levelo://app?vid=0bce655f-fb68-4000-819d-155ffecd0d2a"},"vehicle_type_id":"4","last_reported":1743606640,"current_range_meters":10000,"station_id":"cpo3532slgdg3j2ikp40","pricing_plan_id":"cebpf4jnsgd1na2vs0mg"},{"bike_id":"b833c2e3-3fd2-4ea3-a7a4-066c3a72c7f2","system_id":"levelo_inurba_marseille","lat":43.27931,"lon":5.39583,"is_reserved":false,"is_disabled":false,"rental_uris":{"android":"levelo://app?vid=b833c2e3-3fd2-4ea3-a7a4-066c3a72c7f2","ios":"levelo://app?vid=b833c2e3-3fd2-4ea3-a7a4-066c3a72c7f2"},"vehicle_type_id":"4","last_reported":1743606640,"current_range_meters":10000,"station_id":"ce4bhf92rcd13ifvqf40","pricing_plan_id":"cebpf4jnsgd1na2vs0mg"},{"bike_id":"d044cc17-f95d-4c62-8d87-3de8e64b6fe1","system_id":"levelo_inurba_marseille","lat":43.29693,"lon":5.366,"is_reserved":false,"is_disabled":false,"rental_uris":{"android":"levelo://app?vid=d044cc17-f95d-4c62-8d87-3de8e64b6fe1","ios":"levelo://app?vid=d044cc17-f95d-4c62-8d87-3de8e64b6fe1"},"vehicle_type_id":"4","last_reported":1743606640,"current_range_meters":10000,"station_id":"ce4bgn12rcd13ifvqbt0","pricing_plan_id":"cebpf4jnsgd1na2vs0mg"},{"bike_id":"49428efe-bbd8-4963-9aaf-ed822fd5c61b","system_id":"levelo_inurba_marseille","lat":43.29212,"lon":5.44371,"is_reserved":false,"is_disabled":false,"rental_uris":{"android":"levelo://app?vid=49428efe-bbd8-4963-9aaf-ed822fd5c61b","ios":"levelo://app?vid=49428efe-bbd8-4963-9aaf-ed822fd5c61b"},"vehicle_type_id":"4","last_reported":1743606640,"current_range_meters":10000,"station_id":"","pricing_plan_id":"cebpf4jnsgd1na2vs0mg"},{"bike_id":"f4e1d80a-0525-4360-80a9-7e93f553e5b6","system_id":"levelo_inurba_marseille","lat":43.27561,"lon":5.38439,"is_reserved":false,"is_disabled":false,"rental_uris":{"android":"levelo://app?vid=f4e1d80a-0525-4360-80a9-7e93f553e5b6","ios":"levelo://app?vid=f4e1d80a-0525-4360-80a9-7e93f553e5b6"},"vehicle_type_id":"4","last_reported":1743606640,"current_range_meters":11200,"station_id":"ce4bhh92rcd13ifvqfi0","pricing_plan_id":"cebpf4jnsgd1na2vs0mg"},{"bike_id":"b52eafbb-0fdc-487b-b3ce-3a3f8cf7e638","system_id":"levelo_inurba_marseille","lat":43.33118,"lon":5.39234,"is_reserved":false,"is_disabled":false,"rental_uris":{"android":"levelo://app?vid=b52eafbb-0fdc-487b-b3ce-3a3f8cf7e638","ios":"levelo://app?vid=b52eafbb-0fdc-487b-b3ce-3a3f8cf7e638"},"vehicle_type_id":"4","last_reported":1743606640,"current_range_meters":10800,"station_id":"","pricing_plan_id":"cebpf4jnsgd1na2vs0mg"},{"bike_id":"d67cf7ed-3cb5-477b-97dc-33c49516ec6c","system_id":"levelo_inurba_marseille","lat":43.31484,"lon":5.37309,"is_reserved":false,"is_disabled":false,"rental_uris":{"android":"levelo://app?vid=d67cf7ed-3cb5-477b-97dc-33c49516ec6c","ios":"levelo://app?vid=d67cf7ed-3cb5-477b-97dc-33c49516ec6c"},"vehicle_type_id":"4","last_reported":1743606640,"current_range_meters":12800,"station_id":"ce4bgt12rcd13ifvqcd0","pricing_plan_id":"cebpf4jnsgd1na2vs0mg"},{"bike_id":"75dae32f-059a-4b5b-a5e8-963c6eda2f66","system_id":"levelo_inurba_marseille","lat":43.27506,"lon":5.41033,"is_reserved":false,"is_disabled":false,"rental_uris":{"android":"levelo://app?vid=75dae32f-059a-4b5b-a5e8-963c6eda2f66","ios":"levelo://app?vid=75dae32f-059a-4b5b-a5e8-963c6eda2f66"},"vehicle_type_id":"4","last_reported":1743606640,"current_range_meters":10800,"station_id":"","pricing_plan_id":"cebpf4jnsgd1na2vs0mg"},{"bike_id":"ed5cd475-5c00-4e2d-bf5a-493ca558ec44","system_id":"levelo_inurba_marseille","lat":43.24075,"lon":5.3776,"is_reserved":false,"is_disabled":false,"rental_uris":{"android":"levelo://app?vid=ed5cd475-5c00-4e2d-bf5a-493ca558ec44","ios":"levelo://app?vid=ed5cd475-5c00-4e2d-bf5a-493ca558ec44"},"vehicle_type_id":"4","last_reported":1743606640,"current_range_meters":10000,"station_id":"ce4bhnp2rcd13ifvqgvg","pricing_plan_id":"cebpf4jnsgd1na2vs0mg"},{"bike_id":"f53d98b0-5dde-4a02-a89d-a79c748915fa","system_id":"levelo_inurba_marseille","lat":43.31277,"lon":5.40173,"is_reserved":false,"is_disabled":false,"rental_uris":{"android":"levelo://app?vid=f53d98b0-5dde-4a02-a89d-a79c748915fa","ios":"levelo://app?vid=f53d98b0-5dde-4a02-a89d-a79c748915fa"},"vehicle_type_id":"4","last_reported":1743606640,"current_range_meters":10800,"station_id":"","pricing_plan_id":"cebpf4jnsgd1na2vs0mg"},{"bike_id":"85516158-427e-446b-8d96-094af5c3d928","system_id":"levelo_inurba_marseille","lat":43.24537,"lon":5.39521,"is_reserved":false,"is_disabled":false,"rental_uris":{"android":"levelo://app?vid=85516158-427e-446b-8d96-094af5c3d928","ios":"levelo://app?vid=85516158-427e-446b-8d96-094af5c3d928"},"vehicle_type_id":"4","last_reported":1743606640,"current_range_meters":11200,"station_id":"ce4bhlp2rcd13ifvqgjg","pricing_plan_id":"cebpf4jnsgd1na2vs0mg"},{"bike_id":"655f30eb-b327-4164-9d4b-86c4c8bba0e9","system_id":"levelo_inurba_marseille","lat":43.27054,"lon":5.40256,"is_reserved":false,"is_disabled":false,"rental_uris":{"android":"levelo://app?vid=655f30eb-b327-4164-9d4b-86c4c8bba0e9","ios":"levelo://app?vid=655f30eb-b327-4164-9d4b-86c4c8bba0e9"},"vehicle_type_id":"4","last_reported":1743606640,"current_range_meters":11200,"station_id":"ce4bhk92rcd13ifvqgc0","pricing_plan_id":"cebpf4jnsgd1na2vs0mg"},{"bike_id":"2d48cd09-9ee2-4630-8cab-be4140a04965","system_id":"levelo_inurba_marseille","lat":43.23189,"lon":5.35561,"is_reserved":false,"is_disabled":false,"rental_uris":{"android":"levelo://app?vid=2d48cd09-9ee2-4630-8cab-be4140a04965","ios":"levelo://app?vid=2d48cd09-9ee2-4630-8cab-be4140a04965"},"vehicle_type_id":"4","last_reported":1743606640,"current_range_meters":11200,"station_id":"ce4bhu92rcd13ifvqi70","pricing_plan_id":"cebpf4jnsgd1na2vs0mg"},{"bike_id":"fa0e6d67-6eba-4bc5-9ce5-d00c7cf36f00","system_id":"levelo_inurba_marseille","lat":43.25115,"lon":5.40321,"is_reserved":false,"is_disabled":false,"rental_uris":{"android":"levelo://app?vid=fa0e6d67-6eba-4bc5-9ce5-d00c7cf36f00","ios":"levelo://app?vid=fa0e6d67-6eba-4bc5-9ce5-d00c7cf36f00"},"vehicle_type_id":"4","last_reported":1743606640,"current_range_meters":11200,"station_id":"ce4bhlh2rcd13ifvqgig","pricing_plan_id":"cebpf4jnsgd1na2vs0mg"},{"bike_id":"8c6acdda-a613-4d18-b747-e549936f40d7","system_id":"levelo_inurba_marseille","lat":43.2872,"lon":5.36085,"is_reserved":false,"is_disabled":false,"rental_uris":{"android":"levelo://app?vid=8c6acdda-a613-4d18-b747-e549936f40d7","ios":"levelo://app?vid=8c6acdda-a613-4d18-b747-e549936f40d7"},"vehicle_type_id":"4","last_reported":1743606640,"current_range_meters":11200,"station_id":"cki0cbj6b192h4jlfktg","pricing_plan_id":"cebpf4jnsgd1na2vs0mg"},{"bike_id":"b3bff817-2ce3-49c9-84a5-6acd3947b072","system_id":"levelo_inurba_marseille","lat":43.30799,"lon":5.3816,"is_reserved":false,"is_disabled":false,"rental_uris":{"android":"levelo://app?vid=b3bff817-2ce3-49c9-84a5-6acd3947b072","ios":"levelo://app?vid=b3bff817-2ce3-49c9-84a5-6acd3947b072"},"vehicle_type_id":"4","last_reported":1743606640,"current_range_meters":10000,"station_id":"ce4bgt12rcd13ifvqce0","pricing_plan_id":"cebpf4jnsgd1na2vs0mg"},{"bike_id":"ea464bc9-6baf-477f-8592-2d7142958a22","system_id":"levelo_inurba_marseille","lat":43.26689,"lon":5.38276,"is_reserved":false,"is_disabled":true,"rental_uris":{"android":"levelo://app?vid=ea464bc9-6baf-477f-8592-2d7142958a22","ios":"levelo://app?vid=ea464bc9-6baf-477f-8592-2d7142958a22"},"vehicle_type_id":"4","last_reported":1743606640,"current_range_meters":11200,"station_id":"ce4bhg92rcd13ifvqf90","pricing_plan_id":"cebpf4jnsgd1na2vs0mg"},{"bike_id":"0e92f0ec-12b1-4527-8723-e7d74c80720a","system_id":"levelo_inurba_marseille","lat":43.28399,"lon":5.37521,"is_reserved":false,"is_disabled":false,"rental_uris":{"android":"levelo://app?vid=0e92f0ec-12b1-4527-8723-e7d74c80720a","ios":"levelo://app?vid=0e92f0ec-12b1-4527-8723-e7d74c80720a"},"vehicle_type_id":"4","last_reported":1743606640,"current_range_meters":11600,"station_id":"ce4bh412rcd13ifvqds0","pricing_plan_id":"cebpf4jnsgd1na2vs0mg"},{"bike_id":"659734be-3ee7-43e6-a049-8e9a1ef0fd72","system_id":"levelo_inurba_marseille","lat":43.27988,"lon":5.41645,"is_reserved":false,"is_disabled":false,"rental_uris":{"android":"levelo://app?vid=659734be-3ee7-43e6-a049-8e9a1ef0fd72","ios":"levelo://app?vid=659734be-3ee7-43e6-a049-8e9a1ef0fd72"},"vehicle_type_id":"4","last_reported":1743606640,"current_range_meters":11200,"station_id":"ce4bho12rcd13ifvqh1g","pricing_plan_id":"cebpf4jnsgd1na2vs0mg"},{"bike_id":"621228e0-b846-4c25-94bb-63b4d196c1cf","system_id":"levelo_inurba_marseille","lat":43.28356,"lon":5.38102,"is_reserved":false,"is_disabled":false,"rental_uris":{"android":"levelo://app?vid=621228e0-b846-4c25-94bb-63b4d196c1cf","ios":"levelo://app?vid=621228e0-b846-4c25-94bb-63b4d196c1cf"},"vehicle_type_id":"4","last_reported":1743606640,"current_range_meters":9200,"station_id":"ce4bh412rcd13ifvqdr0","pricing_plan_id":"cebpf4jnsgd1na2vs0mg"},{"bike_id":"feb4512d-aed1-4a8b-8082-e716455b1a68","system_id":"levelo_inurba_marseille","lat":43.295286,"lon":5.385405,"is_reserved":false,"is_disabled":false,"rental_uris":{"android":"levelo://app?vid=feb4512d-aed1-4a8b-8082-e716455b1a68","ios":"levelo://app?vid=feb4512d-aed1-4a8b-8082-e716455b1a68"},"vehicle_type_id":"4","last_reported":1743606640,"current_range_meters":11600,"station_id":"ce4bgih2rcd13ifvqba0","pricing_plan_id":"cebpf4jnsgd1na2vs0mg"},{"bike_id":"bf9115f3-535d-46c6-9c51-7930b587bb17","system_id":"levelo_inurba_marseille","lat":43.287,"lon":5.37394,"is_reserved":false,"is_disabled":false,"rental_uris":{"android":"levelo://app?vid=bf9115f3-535d-46c6-9c51-7930b587bb17","ios":"levelo://app?vid=bf9115f3-535d-46c6-9c51-7930b587bb17"},"vehicle_type_id":"4","last_reported":1743606640,"current_range_meters":11200,"station_id":"ce4bh3p2rcd13ifvqdq0","pricing_plan_id":"cebpf4jnsgd1na2vs0mg"},{"bike_id":"f748a046-5e2b-4733-b32d-ace3bda1fc5c","system_id":"levelo_inurba_marseille","lat":43.27618,"lon":5.36104,"is_reserved":false,"is_disabled":false,"rental_uris":{"android":"levelo://app?vid=f748a046-5e2b-4733-b32d-ace3bda1fc5c","ios":"levelo://app?vid=f748a046-5e2b-4733-b32d-ace3bda1fc5c"},"vehicle_type_id":"4","last_reported":1743606640,"current_range_meters":13600,"station_id":"ce4bgj92rcd13ifvqbe0","pricing_plan_id":"cebpf4jnsgd1na2vs0mg"},{"bike_id":"5e3cb191-bcff-4f1b-9992-179019478489","system_id":"levelo_inurba_marseille","lat":43.28716,"lon":5.3608,"is_reserved":false,"is_disabled":false,"rental_uris":{"android":"levelo://app?vid=5e3cb191-bcff-4f1b-9992-179019478489","ios":"levelo://app?vid=5e3cb191-bcff-4f1b-9992-179019478489"},"vehicle_type_id":"4","last_reported":1743606640,"current_range_meters":11600,"station_id":"cki0cbj6b192h4jlfktg","pricing_plan_id":"cebpf4jnsgd1na2vs0mg"},{"bike_id":"f9907644-87e0-4421-a0fa-343ec2a1c436","system_id":"levelo_inurba_marseille","lat":43.2656,"lon":5.37288,"is_reserved":false,"is_disabled":false,"rental_uris":{"android":"levelo://app?vid=f9907644-87e0-4421-a0fa-343ec2a1c436","ios":"levelo://app?vid=f9907644-87e0-4421-a0fa-343ec2a1c436"},"vehicle_type_id":"4","last_reported":1743606640,"current_range_meters":12000,"station_id":"ce4bhg12rcd13ifvqf70","pricing_plan_id":"cebpf4jnsgd1na2vs0mg"},{"bike_id":"c2e6881a-04a3-4a38-9cc0-75cacf165e78","system_id":"levelo_inurba_marseille","lat":43.28832,"lon":5.364645,"is_reserved":false,"is_disabled":false,"rental_uris":{"android":"levelo://app?vid=c2e6881a-04a3-4a38-9cc0-75cacf165e78","ios":"levelo://app?vid=c2e6881a-04a3-4a38-9cc0-75cacf165e78"},"vehicle_type_id":"4","last_reported":1743606640,"current_range_meters":12000,"station_id":"","pricing_plan_id":"cebpf4jnsgd1na2vs0mg"},{"bike_id":"c8fabc09-5175-485b-8fd6-3f2095566256","system_id":"levelo_inurba_marseille","lat":43.28936,"lon":5.36642,"is_reserved":false,"is_disabled":false,"rental_uris":{"android":"levelo://app?vid=c8fabc09-5175-485b-8fd6-3f2095566256","ios":"levelo://app?vid=c8fabc09-5175-485b-8fd6-3f2095566256"},"vehicle_type_id":"4","last_reported":1743606640,"current_range_meters":12000,"station_id":"ce4bhap2rcd13ifvqek0","pricing_plan_id":"cebpf4jnsgd1na2vs0mg"},{"bike_id":"192aa204-05a1-49db-b48e-6f232dde94a9","system_id":"levelo_inurba_marseille","lat":43.25121,"lon":5.40311,"is_reserved":false,"is_disabled":false,"rental_uris":{"android":"levelo://app?vid=192aa204-05a1-49db-b48e-6f232dde94a9","ios":"levelo://app?vid=192aa204-05a1-49db-b48e-6f232dde94a9"},"vehicle_type_id":"4","last_reported":1743606640,"current_range_meters":11600,"station_id":"ce4bhlh2rcd13ifvqgig","pricing_plan_id":"cebpf4jnsgd1na2vs0mg"},{"bike_id":"b5fa61b4-55c0-4d0f-b518-f0583e71aca3","system_id":"levelo_inurba_marseille","lat":43.2292,"lon":5.35368,"is_reserved":false,"is_disabled":false,"rental_uris":{"android":"levelo://app?vid=b5fa61b4-55c0-4d0f-b518-f0583e71aca3","ios":"levelo://app?vid=b5fa61b4-55c0-4d0f-b518-f0583e71aca3"},"vehicle_type_id":"4","last_reported":1743606640,"current_range_meters":12000,"station_id":"cpo3532slgdg3j2ikp40","pricing_plan_id":"cebpf4jnsgd1na2vs0mg"},{"bike_id":"b6c83da9-b3c4-4843-9a1d-36871e12515b","system_id":"levelo_inurba_marseille","lat":43.26121,"lon":5.4146,"is_reserved":false,"is_disabled":false,"rental_uris":{"android":"levelo://app?vid=b6c83da9-b3c4-4843-9a1d-36871e12515b","ios":"levelo://app?vid=b6c83da9-b3c4-4843-9a1d-36871e12515b"},"vehicle_type_id":"4","last_reported":1743606640,"current_range_meters":12000,"station_id":"","pricing_plan_id":"cebpf4jnsgd1na2vs0mg"},{"bike_id":"9affe67b-2db6-4361-a44d-b5b4a1d46794","system_id":"levelo_inurba_marseille","lat":43.29262,"lon":5.37629,"is_reserved":false,"is_disabled":false,"rental_uris":{"android":"levelo://app?vid=9affe67b-2db6-4361-a44d-b5b4a1d46794","ios":"levelo://app?vid=9affe67b-2db6-4361-a44d-b5b4a1d46794"},"vehicle_type_id":"4","last_reported":1743606640,"current_range_meters":12000,"station_id":"ce4bgi12rcd13ifvqb80","pricing_plan_id":"cebpf4jnsgd1na2vs0mg"},{"bike_id":"9e997935-3a59-42ad-b561-8c0ed3de4388","system_id":"levelo_inurba_marseille","lat":43.30554,"lon":5.36538,"is_reserved":false,"is_disabled":false,"rental_uris":{"android":"levelo://app?vid=9e997935-3a59-42ad-b561-8c0ed3de4388","ios":"levelo://app?vid=9e997935-3a59-42ad-b561-8c0ed3de4388"},"vehicle_type_id":"4","last_reported":1743606640,"current_range_meters":12400,"station_id":"ce4bgs12rcd13ifvqcag","pricing_plan_id":"cebpf4jnsgd1na2vs0mg"},{"bike_id":"6eb39187-1297-4e30-8f78-87ba806e6e2d","system_id":"levelo_inurba_marseille","lat":43.23965,"lon":5.36629,"is_reserved":false,"is_disabled":false,"rental_uris":{"android":"levelo://app?vid=6eb39187-1297-4e30-8f78-87ba806e6e2d","ios":"levelo://app?vid=6eb39187-1297-4e30-8f78-87ba806e6e2d"},"vehicle_type_id":"4","last_reported":1743606640,"current_range_meters":12400,"station_id":"ce4bhi12rcd13ifvqfp0","pricing_plan_id":"cebpf4jnsgd1na2vs0mg"},{"bike_id":"7ba67d0a-4dd2-434e-9233-c217be617343","system_id":"levelo_inurba_marseille","lat":43.33796,"lon":5.37427,"is_reserved":false,"is_disabled":false,"rental_uris":{"android":"levelo://app?vid=7ba67d0a-4dd2-434e-9233-c217be617343","ios":"levelo://app?vid=7ba67d0a-4dd2-434e-9233-c217be617343"},"vehicle_type_id":"4","last_reported":1743606640,"current_range_meters":12400,"station_id":"","pricing_plan_id":"cebpf4jnsgd1na2vs0mg"},{"bike_id":"0e6fa36c-f7a4-4560-b88b-1863d7f6c444","system_id":"levelo_inurba_marseille","lat":43.281537,"lon":5.426442,"is_reserved":false,"is_disabled":false,"rental_uris":{"android":"levelo://app?vid=0e6fa36c-f7a4-4560-b88b-1863d7f6c444","ios":"levelo://app?vid=0e6fa36c-f7a4-4560-b88b-1863d7f6c444"},"vehicle_type_id":"4","last_reported":1743606640,"current_range_meters":12400,"station_id":"ce4bhnh2rcd13ifvqgug","pricing_plan_id":"cebpf4jnsgd1na2vs0mg"},{"bike_id":"84554551-6a42-488e-8a3a-e31132de9d2c","system_id":"levelo_inurba_marseille","lat":43.23156,"lon":5.43718,"is_reserved":false,"is_disabled":false,"rental_uris":{"android":"levelo://app?vid=84554551-6a42-488e-8a3a-e31132de9d2c","ios":"levelo://app?vid=84554551-6a42-488e-8a3a-e31132de9d2c"},"vehicle_type_id":"4","last_reported":1743606640,"current_range_meters":12400,"station_id":"ce4bhmp2rcd13ifvqgog","pricing_plan_id":"cebpf4jnsgd1na2vs0mg"},{"bike_id":"7d49898d-4c6e-4131-9fdb-37de62f2c79c","system_id":"levelo_inurba_marseille","lat":43.28897,"lon":5.3713,"is_reserved":false,"is_disabled":false,"rental_uris":{"android":"levelo://app?vid=7d49898d-4c6e-4131-9fdb-37de62f2c79c","ios":"levelo://app?vid=7d49898d-4c6e-4131-9fdb-37de62f2c79c"},"vehicle_type_id":"4","last_reported":1743606640,"current_range_meters":12400,"station_id":"","pricing_plan_id":"cebpf4jnsgd1na2vs0mg"},{"bike_id":"e1b03b21-5eb0-483c-b4ac-ea8a29304382","system_id":"levelo_inurba_marseille","lat":43.23063,"lon":5.35488,"is_reserved":false,"is_disabled":false,"rental_uris":{"android":"levelo://app?vid=e1b03b21-5eb0-483c-b4ac-ea8a29304382","ios":"levelo://app?vid=e1b03b21-5eb0-483c-b4ac-ea8a29304382"},"vehicle_type_id":"4","last_reported":1743606640,"current_range_meters":12800,"station_id":"cpo3342slgdg3j2ifvpg","pricing_plan_id":"cebpf4jnsgd1na2vs0mg"},{"bike_id":"7ff6eea9-fc34-4c93-8420-99e94c0e4cbf","system_id":"levelo_inurba_marseille","lat":43.28425,"lon":5.3499,"is_reserved":false,"is_disabled":false,"rental_uris":{"android":"levelo://app?vid=7ff6eea9-fc34-4c93-8420-99e94c0e4cbf","ios":"levelo://app?vid=7ff6eea9-fc34-4c93-8420-99e94c0e4cbf"},"vehicle_type_id":"4","last_reported":1743606640,"current_range_meters":12800,"station_id":"ce4bhbh2rcd13ifvqepg","pricing_plan_id":"cebpf4jnsgd1na2vs0mg"},{"bike_id":"bbc64c9f-0800-469c-9229-5bf29d37a699","system_id":"levelo_inurba_marseille","lat":43.26067,"lon":5.39399,"is_reserved":false,"is_disabled":false,"rental_uris":{"android":"levelo://app?vid=bbc64c9f-0800-469c-9229-5bf29d37a699","ios":"levelo://app?vid=bbc64c9f-0800-469c-9229-5bf29d37a699"},"vehicle_type_id":"4","last_reported":1743606640,"current_range_meters":12800,"station_id":"ce4bhh92rcd13ifvqfj0","pricing_plan_id":"cebpf4jnsgd1na2vs0mg"},{"bike_id":"9b7bb188-71ad-4a7e-927c-c638e5d43fcd","system_id":"levelo_inurba_marseille","lat":43.28974,"lon":5.37825,"is_reserved":false,"is_disabled":false,"rental_uris":{"android":"levelo://app?vid=9b7bb188-71ad-4a7e-927c-c638e5d43fcd","ios":"levelo://app?vid=9b7bb188-71ad-4a7e-927c-c638e5d43fcd"},"vehicle_type_id":"4","last_reported":1743606640,"current_range_meters":12800,"station_id":"ce4bh9p2rcd13ifvqed0","pricing_plan_id":"cebpf4jnsgd1na2vs0mg"},{"bike_id":"1925d2eb-79cc-4495-ac55-0d86108c91ee","system_id":"levelo_inurba_marseille","lat":43.23784,"lon":5.39608,"is_reserved":false,"is_disabled":false,"rental_uris":{"android":"levelo://app?vid=1925d2eb-79cc-4495-ac55-0d86108c91ee","ios":"levelo://app?vid=1925d2eb-79cc-4495-ac55-0d86108c91ee"},"vehicle_type_id":"4","last_reported":1743606640,"current_range_meters":13600,"station_id":"","pricing_plan_id":"cebpf4jnsgd1na2vs0mg"},{"bike_id":"ba8fe21e-81b7-4fcb-aaa6-274b2288ad74","system_id":"levelo_inurba_marseille","lat":43.29261,"lon":5.37609,"is_reserved":false,"is_disabled":false,"rental_uris":{"android":"levelo://app?vid=ba8fe21e-81b7-4fcb-aaa6-274b2288ad74","ios":"levelo://app?vid=ba8fe21e-81b7-4fcb-aaa6-274b2288ad74"},"vehicle_type_id":"4","last_reported":1743606640,"current_range_meters":12800,"station_id":"ce4bgi12rcd13ifvqb80","pricing_plan_id":"cebpf4jnsgd1na2vs0mg"},{"bike_id":"ddf4f7bc-b429-4ca6-98cc-3ac180d0ed5f","system_id":"levelo_inurba_marseille","lat":43.2319,"lon":5.35552,"is_reserved":false,"is_disabled":false,"rental_uris":{"android":"levelo://app?vid=ddf4f7bc-b429-4ca6-98cc-3ac180d0ed5f","ios":"levelo://app?vid=ddf4f7bc-b429-4ca6-98cc-3ac180d0ed5f"},"vehicle_type_id":"4","last_reported":1743606640,"current_range_meters":12800,"station_id":"ce4bhu92rcd13ifvqi70","pricing_plan_id":"cebpf4jnsgd1na2vs0mg"},{"bike_id":"70e5b39f-29e3-4ea9-aa83-5a60a8eec6f8","system_id":"levelo_inurba_marseille","lat":43.25047,"lon":5.41694,"is_reserved":false,"is_disabled":false,"rental_uris":{"android":"levelo://app?vid=70e5b39f-29e3-4ea9-aa83-5a60a8eec6f8","ios":"levelo://app?vid=70e5b39f-29e3-4ea9-aa83-5a60a8eec6f8"},"vehicle_type_id":"4","last_reported":1743606640,"current_range_meters":12800,"station_id":"","pricing_plan_id":"cebpf4jnsgd1na2vs0mg"},{"bike_id":"30d1ff82-96a1-44e5-b4ef-86e4045ab08e","system_id":"levelo_inurba_marseille","lat":43.29762,"lon":5.37679,"is_reserved":false,"is_disabled":false,"rental_uris":{"android":"levelo://app?vid=30d1ff82-96a1-44e5-b4ef-86e4045ab08e","ios":"levelo://app?vid=30d1ff82-96a1-44e5-b4ef-86e4045ab08e"},"vehicle_type_id":"4","last_reported":1743606640,"current_range_meters":12800,"station_id":"","pricing_plan_id":"cebpf4jnsgd1na2vs0mg"},{"bike_id":"18b33a43-8113-4d0f-b40c-6a7201a04dd5","system_id":"levelo_inurba_marseille","lat":43.32367,"lon":5.36759,"is_reserved":false,"is_disabled":false,"rental_uris":{"android":"levelo://app?vid=18b33a43-8113-4d0f-b40c-6a7201a04dd5","ios":"levelo://app?vid=18b33a43-8113-4d0f-b40c-6a7201a04dd5"},"vehicle_type_id":"4","last_reported":1743606640,"current_range_meters":12800,"station_id":"ce4bhsh2rcd13ifvqi2g","pricing_plan_id":"cebpf4jnsgd1na2vs0mg"},{"bike_id":"6c373425-cf16-43fa-912b-80e970f7abd4","system_id":"levelo_inurba_marseille","lat":43.29282,"lon":5.40116,"is_reserved":false,"is_disabled":false,"rental_uris":{"android":"levelo://app?vid=6c373425-cf16-43fa-912b-80e970f7abd4","ios":"levelo://app?vid=6c373425-cf16-43fa-912b-80e970f7abd4"},"vehicle_type_id":"4","last_reported":1743606640,"current_range_meters":13600,"station_id":"ce4bh312rcd13ifvqdk0","pricing_plan_id":"cebpf4jnsgd1na2vs0mg"},{"bike_id":"be9f4ed3-e1ad-4d0b-b1a1-ddfd43ed6aad","system_id":"levelo_inurba_marseille","lat":43.31203,"lon":5.36842,"is_reserved":false,"is_disabled":false,"rental_uris":{"android":"levelo://app?vid=be9f4ed3-e1ad-4d0b-b1a1-ddfd43ed6aad","ios":"levelo://app?vid=be9f4ed3-e1ad-4d0b-b1a1-ddfd43ed6aad"},"vehicle_type_id":"4","last_reported":1743606640,"current_range_meters":13600,"station_id":"ce4bgl92rcd13ifvqbq0","pricing_plan_id":"cebpf4jnsgd1na2vs0mg"},{"bike_id":"c99cf1a4-9958-4105-b1ba-06f7b84932a4","system_id":"levelo_inurba_marseille","lat":43.2972,"lon":5.37688,"is_reserved":false,"is_disabled":false,"rental_uris":{"android":"levelo://app?vid=c99cf1a4-9958-4105-b1ba-06f7b84932a4","ios":"levelo://app?vid=c99cf1a4-9958-4105-b1ba-06f7b84932a4"},"vehicle_type_id":"4","last_reported":1743606640,"current_range_meters":13600,"station_id":"ce4bgkh2rcd13ifvqbl0","pricing_plan_id":"cebpf4jnsgd1na2vs0mg"},{"bike_id":"cd83c8ac-ed09-4369-9279-b6f36f2bbd3c","system_id":"levelo_inurba_marseille","lat":43.30813,"lon":5.38227,"is_reserved":false,"is_disabled":false,"rental_uris":{"android":"levelo://app?vid=cd83c8ac-ed09-4369-9279-b6f36f2bbd3c","ios":"levelo://app?vid=cd83c8ac-ed09-4369-9279-b6f36f2bbd3c"},"vehicle_type_id":"4","last_reported":1743606640,"current_range_meters":13600,"station_id":"","pricing_plan_id":"cebpf4jnsgd1na2vs0mg"},{"bike_id":"1a592dd4-05f6-451a-a281-45bcd19f68ca","system_id":"levelo_inurba_marseille","lat":43.23185,"lon":5.4,"is_reserved":false,"is_disabled":false,"rental_uris":{"android":"levelo://app?vid=1a592dd4-05f6-451a-a281-45bcd19f68ca","ios":"levelo://app?vid=1a592dd4-05f6-451a-a281-45bcd19f68ca"},"vehicle_type_id":"4","last_reported":1743606640,"current_range_meters":13600,"station_id":"ce4bhn12rcd13ifvqgqg","pricing_plan_id":"cebpf4jnsgd1na2vs0mg"},{"bike_id":"e111ace5-39c9-4488-9abf-b8ef3074cbfe","system_id":"levelo_inurba_marseille","lat":43.26556,"lon":5.37304,"is_reserved":false,"is_disabled":false,"rental_uris":{"android":"levelo://app?vid=e111ace5-39c9-4488-9abf-b8ef3074cbfe","ios":"levelo://app?vid=e111ace5-39c9-4488-9abf-b8ef3074cbfe"},"vehicle_type_id":"4","last_reported":1743606640,"current_range_meters":13600,"station_id":"ce4bhg12rcd13ifvqf70","pricing_plan_id":"cebpf4jnsgd1na2vs0mg"},{"bike_id":"1316d924-124b-425d-b4ab-efb6b4812610","system_id":"levelo_inurba_marseille","lat":43.28857,"lon":5.39319,"is_reserved":false,"is_disabled":false,"rental_uris":{"android":"levelo://app?vid=1316d924-124b-425d-b4ab-efb6b4812610","ios":"levelo://app?vid=1316d924-124b-425d-b4ab-efb6b4812610"},"vehicle_type_id":"4","last_reported":1743606640,"current_range_meters":13600,"station_id":"ce4bh2p2rcd13ifvqdi0","pricing_plan_id":"cebpf4jnsgd1na2vs0mg"},{"bike_id":"3026be77-df9c-4a4a-83d6-132b5a38a0dc","system_id":"levelo_inurba_marseille","lat":43.23193,"lon":5.3998,"is_reserved":false,"is_disabled":false,"rental_uris":{"android":"levelo://app?vid=3026be77-df9c-4a4a-83d6-132b5a38a0dc","ios":"levelo://app?vid=3026be77-df9c-4a4a-83d6-132b5a38a0dc"},"vehicle_type_id":"4","last_reported":1743606640,"current_range_meters":13600,"station_id":"ce4bhn12rcd13ifvqgqg","pricing_plan_id":"cebpf4jnsgd1na2vs0mg"},{"bike_id":"eca000f3-7adb-462c-b7ed-61fb5b2098fc","system_id":"levelo_inurba_marseille","lat":43.22933,"lon":5.35377,"is_reserved":false,"is_disabled":false,"rental_uris":{"android":"levelo://app?vid=eca000f3-7adb-462c-b7ed-61fb5b2098fc","ios":"levelo://app?vid=eca000f3-7adb-462c-b7ed-61fb5b2098fc"},"vehicle_type_id":"4","last_reported":1743606640,"current_range_meters":13600,"station_id":"cpo3532slgdg3j2ikp40","pricing_plan_id":"cebpf4jnsgd1na2vs0mg"},{"bike_id":"1466deb4-aa7e-46be-9dc6-6d67d9bbb161","system_id":"levelo_inurba_marseille","lat":43.28272,"lon":5.35063,"is_reserved":false,"is_disabled":false,"rental_uris":{"android":"levelo://app?vid=1466deb4-aa7e-46be-9dc6-6d67d9bbb161","ios":"levelo://app?vid=1466deb4-aa7e-46be-9dc6-6d67d9bbb161"},"vehicle_type_id":"4","last_reported":1743606640,"current_range_meters":13600,"station_id":"ce4bhbp2rcd13ifvqerg","pricing_plan_id":"cebpf4jnsgd1na2vs0mg"},{"bike_id":"6e05811e-06e7-4304-8ce9-6c25e6bc01dd","system_id":"levelo_inurba_marseille","lat":43.32066,"lon":5.36848,"is_reserved":false,"is_disabled":false,"rental_uris":{"android":"levelo://app?vid=6e05811e-06e7-4304-8ce9-6c25e6bc01dd","ios":"levelo://app?vid=6e05811e-06e7-4304-8ce9-6c25e6bc01dd"},"vehicle_type_id":"4","last_reported":1743606640,"current_range_meters":14000,"station_id":"","pricing_plan_id":"cebpf4jnsgd1na2vs0mg"},{"bike_id":"a228fd71-79bb-4a42-892c-9f88cc1507ff","system_id":"levelo_inurba_marseille","lat":43.297147,"lon":5.376922,"is_reserved":false,"is_disabled":false,"rental_uris":{"android":"levelo://app?vid=a228fd71-79bb-4a42-892c-9f88cc1507ff","ios":"levelo://app?vid=a228fd71-79bb-4a42-892c-9f88cc1507ff"},"vehicle_type_id":"4","last_reported":1743606640,"current_range_meters":14000,"station_id":"ce4bho12rcd13ifvqh2g","pricing_plan_id":"cebpf4jnsgd1na2vs0mg"},{"bike_id":"4b29f8a3-1b56-4fb2-afdb-d95a0927605b","system_id":"levelo_inurba_marseille","lat":43.2952,"lon":5.39032,"is_reserved":false,"is_disabled":false,"rental_uris":{"android":"levelo://app?vid=4b29f8a3-1b56-4fb2-afdb-d95a0927605b","ios":"levelo://app?vid=4b29f8a3-1b56-4fb2-afdb-d95a0927605b"},"vehicle_type_id":"4","last_reported":1743606640,"current_range_meters":14000,"station_id":"ce4bh3p2rcd13ifvqdp0","pricing_plan_id":"cebpf4jnsgd1na2vs0mg"},{"bike_id":"9f62f29e-b083-4314-9e82-a49e79ecd17d","system_id":"levelo_inurba_marseille","lat":43.22934,"lon":5.35378,"is_reserved":false,"is_disabled":false,"rental_uris":{"android":"levelo://app?vid=9f62f29e-b083-4314-9e82-a49e79ecd17d","ios":"levelo://app?vid=9f62f29e-b083-4314-9e82-a49e79ecd17d"},"vehicle_type_id":"4","last_reported":1743606640,"current_range_meters":14000,"station_id":"cpo3532slgdg3j2ikp40","pricing_plan_id":"cebpf4jnsgd1na2vs0mg"},{"bike_id":"c97c18e2-80ba-45fb-8944-918f985d8a47","system_id":"levelo_inurba_marseille","lat":43.24998,"lon":5.38931,"is_reserved":false,"is_disabled":false,"rental_uris":{"android":"levelo://app?vid=c97c18e2-80ba-45fb-8944-918f985d8a47","ios":"levelo://app?vid=c97c18e2-80ba-45fb-8944-918f985d8a47"},"vehicle_type_id":"4","last_reported":1743606640,"current_range_meters":14400,"station_id":"ce4bhgp2rcd13ifvqfd0","pricing_plan_id":"cebpf4jnsgd1na2vs0mg"},{"bike_id":"32b872dc-1b1f-4fc8-8b87-9c6aefa38d10","system_id":"levelo_inurba_marseille","lat":43.240847,"lon":5.377533,"is_reserved":false,"is_disabled":false,"rental_uris":{"android":"levelo://app?vid=32b872dc-1b1f-4fc8-8b87-9c6aefa38d10","ios":"levelo://app?vid=32b872dc-1b1f-4fc8-8b87-9c6aefa38d10"},"vehicle_type_id":"4","last_reported":1743606640,"current_range_meters":14400,"station_id":"ce4bhnp2rcd13ifvqgvg","pricing_plan_id":"cebpf4jnsgd1na2vs0mg"},{"bike_id":"feca48cb-163f-4904-9117-47eea9451b96","system_id":"levelo_inurba_marseille","lat":43.2977,"lon":5.37084,"is_reserved":false,"is_disabled":false,"rental_uris":{"android":"levelo://app?vid=feca48cb-163f-4904-9117-47eea9451b96","ios":"levelo://app?vid=feca48cb-163f-4904-9117-47eea9451b96"},"vehicle_type_id":"4","last_reported":1743606640,"current_range_meters":14000,"station_id":"ce4bgop2rcd13ifvqc1g","pricing_plan_id":"cebpf4jnsgd1na2vs0mg"},{"bike_id":"021d2dd4-65a3-4d65-9c51-da39283b6686","system_id":"levelo_inurba_marseille","lat":43.2887,"lon":5.35863,"is_reserved":false,"is_disabled":false,"rental_uris":{"android":"levelo://app?vid=021d2dd4-65a3-4d65-9c51-da39283b6686","ios":"levelo://app?vid=021d2dd4-65a3-4d65-9c51-da39283b6686"},"vehicle_type_id":"4","last_reported":1743606640,"current_range_meters":14000,"station_id":"ce4bhb12rcd13ifvqem0","pricing_plan_id":"cebpf4jnsgd1na2vs0mg"},{"bike_id":"6ad5733d-d8de-4198-9a68-8a1704614653","system_id":"levelo_inurba_marseille","lat":43.23155,"lon":5.43704,"is_reserved":false,"is_disabled":false,"rental_uris":{"android":"levelo://app?vid=6ad5733d-d8de-4198-9a68-8a1704614653","ios":"levelo://app?vid=6ad5733d-d8de-4198-9a68-8a1704614653"},"vehicle_type_id":"4","last_reported":1743606640,"current_range_meters":14800,"station_id":"ce4bhmp2rcd13ifvqgog","pricing_plan_id":"cebpf4jnsgd1na2vs0mg"},{"bike_id":"633f5437-31df-40e6-bf62-7a852855d8aa","system_id":"levelo_inurba_marseille","lat":43.29199,"lon":5.35812,"is_reserved":false,"is_disabled":false,"rental_uris":{"android":"levelo://app?vid=633f5437-31df-40e6-bf62-7a852855d8aa","ios":"levelo://app?vid=633f5437-31df-40e6-bf62-7a852855d8aa"},"vehicle_type_id":"4","last_reported":1743606640,"current_range_meters":14800,"station_id":"ce4bhb12rcd13ifvqel0","pricing_plan_id":"cebpf4jnsgd1na2vs0mg"},{"bike_id":"a1566f65-7974-4adb-bc5b-c64d03a44f23","system_id":"levelo_inurba_marseille","lat":43.25006,"lon":5.38922,"is_reserved":false,"is_disabled":false,"rental_uris":{"android":"levelo://app?vid=a1566f65-7974-4adb-bc5b-c64d03a44f23","ios":"levelo://app?vid=a1566f65-7974-4adb-bc5b-c64d03a44f23"},"vehicle_type_id":"4","last_reported":1743606640,"current_range_meters":14800,"station_id":"ce4bhgp2rcd13ifvqfd0","pricing_plan_id":"cebpf4jnsgd1na2vs0mg"},{"bike_id":"2b7563bf-72ce-4546-bdfe-0681f54925e9","system_id":"levelo_inurba_marseille","lat":43.29259,"lon":5.38432,"is_reserved":false,"is_disabled":true,"rental_uris":{"android":"levelo://app?vid=2b7563bf-72ce-4546-bdfe-0681f54925e9","ios":"levelo://app?vid=2b7563bf-72ce-4546-bdfe-0681f54925e9"},"vehicle_type_id":"4","last_reported":1743606640,"current_range_meters":14800,"station_id":"ce4bh692rcd13ifvqea0","pricing_plan_id":"cebpf4jnsgd1na2vs0mg"},{"bike_id":"db4f2fea-dd78-4839-8016-eeab270922ec","system_id":"levelo_inurba_marseille","lat":43.23153,"lon":5.43727,"is_reserved":false,"is_disabled":false,"rental_uris":{"android":"levelo://app?vid=db4f2fea-dd78-4839-8016-eeab270922ec","ios":"levelo://app?vid=db4f2fea-dd78-4839-8016-eeab270922ec"},"vehicle_type_id":"4","last_reported":1743606640,"current_range_meters":14800,"station_id":"ce4bhmp2rcd13ifvqgog","pricing_plan_id":"cebpf4jnsgd1na2vs0mg"},{"bike_id":"a3150a96-38dc-49fb-bf8f-0ab44ece3329","system_id":"levelo_inurba_marseille","lat":43.31328,"lon":5.3969,"is_reserved":false,"is_disabled":false,"rental_uris":{"android":"levelo://app?vid=a3150a96-38dc-49fb-bf8f-0ab44ece3329","ios":"levelo://app?vid=a3150a96-38dc-49fb-bf8f-0ab44ece3329"},"vehicle_type_id":"4","last_reported":1743606640,"current_range_meters":14800,"station_id":"ce4bgvp2rcd13ifvqcu0","pricing_plan_id":"cebpf4jnsgd1na2vs0mg"},{"bike_id":"f1a8aecd-d192-45eb-bf9d-6207271a6b6e","system_id":"levelo_inurba_marseille","lat":43.28952,"lon":5.36394,"is_reserved":false,"is_disabled":false,"rental_uris":{"android":"levelo://app?vid=f1a8aecd-d192-45eb-bf9d-6207271a6b6e","ios":"levelo://app?vid=f1a8aecd-d192-45eb-bf9d-6207271a6b6e"},"vehicle_type_id":"4","last_reported":1743606640,"current_range_meters":14800,"station_id":"ce4bhc92rcd13ifvqetg","pricing_plan_id":"cebpf4jnsgd1na2vs0mg"},{"bike_id":"91bdd004-282b-4a2c-a3bc-93cef7dbd883","system_id":"levelo_inurba_marseille","lat":43.292004,"lon":5.357959,"is_reserved":false,"is_disabled":false,"rental_uris":{"android":"levelo://app?vid=91bdd004-282b-4a2c-a3bc-93cef7dbd883","ios":"levelo://app?vid=91bdd004-282b-4a2c-a3bc-93cef7dbd883"},"vehicle_type_id":"4","last_reported":1743606640,"current_range_meters":14800,"station_id":"ce4bhb12rcd13ifvqel0","pricing_plan_id":"cebpf4jnsgd1na2vs0mg"},{"bike_id":"bf99569a-4f45-458b-b148-b21042c1d3c0","system_id":"levelo_inurba_marseille","lat":43.28156,"lon":5.42642,"is_reserved":false,"is_disabled":false,"rental_uris":{"android":"levelo://app?vid=bf99569a-4f45-458b-b148-b21042c1d3c0","ios":"levelo://app?vid=bf99569a-4f45-458b-b148-b21042c1d3c0"},"vehicle_type_id":"4","last_reported":1743606640,"current_range_meters":14800,"station_id":"ce4bhnh2rcd13ifvqgug","pricing_plan_id":"cebpf4jnsgd1na2vs0mg"},{"bike_id":"521cda22-74f6-4da2-9ff6-224aab2e5047","system_id":"levelo_inurba_marseille","lat":43.29036,"lon":5.37562,"is_reserved":false,"is_disabled":false,"rental_uris":{"android":"levelo://app?vid=521cda22-74f6-4da2-9ff6-224aab2e5047","ios":"levelo://app?vid=521cda22-74f6-4da2-9ff6-224aab2e5047"},"vehicle_type_id":"4","last_reported":1743606640,"current_range_meters":14800,"station_id":"ce4bh692rcd13ifvqe90","pricing_plan_id":"cebpf4jnsgd1na2vs0mg"},{"bike_id":"d63fbc41-e5eb-4dc3-88ee-266b6bc14ba5","system_id":"levelo_inurba_marseille","lat":43.30798,"lon":5.381459,"is_reserved":false,"is_disabled":false,"rental_uris":{"android":"levelo://app?vid=d63fbc41-e5eb-4dc3-88ee-266b6bc14ba5","ios":"levelo://app?vid=d63fbc41-e5eb-4dc3-88ee-266b6bc14ba5"},"vehicle_type_id":"4","last_reported":1743606640,"current_range_meters":14400,"station_id":"ce4bgt12rcd13ifvqce0","pricing_plan_id":"cebpf4jnsgd1na2vs0mg"},{"bike_id":"22d47046-8bb1-41ae-9bb4-96eb088b2e63","system_id":"levelo_inurba_marseille","lat":43.32112,"lon":5.367683,"is_reserved":false,"is_disabled":false,"rental_uris":{"android":"levelo://app?vid=22d47046-8bb1-41ae-9bb4-96eb088b2e63","ios":"levelo://app?vid=22d47046-8bb1-41ae-9bb4-96eb088b2e63"},"vehicle_type_id":"4","last_reported":1743606640,"current_range_meters":15200,"station_id":"ce4bhrh2rcd13ifvqhug","pricing_plan_id":"cebpf4jnsgd1na2vs0mg"},{"bike_id":"33fb7e95-04c4-40d8-ae16-f4ffad239973","system_id":"levelo_inurba_marseille","lat":43.29544,"lon":5.38549,"is_reserved":false,"is_disabled":false,"rental_uris":{"android":"levelo://app?vid=33fb7e95-04c4-40d8-ae16-f4ffad239973","ios":"levelo://app?vid=33fb7e95-04c4-40d8-ae16-f4ffad239973"},"vehicle_type_id":"4","last_reported":1743606640,"current_range_meters":15200,"station_id":"ce4bgih2rcd13ifvqba0","pricing_plan_id":"cebpf4jnsgd1na2vs0mg"},{"bike_id":"b86b5b87-f029-48ac-aa00-3a50d7e2c1d2","system_id":"levelo_inurba_marseille","lat":43.32361,"lon":5.3674,"is_reserved":false,"is_disabled":true,"rental_uris":{"android":"levelo://app?vid=b86b5b87-f029-48ac-aa00-3a50d7e2c1d2","ios":"levelo://app?vid=b86b5b87-f029-48ac-aa00-3a50d7e2c1d2"},"vehicle_type_id":"4","last_reported":1743606640,"current_range_meters":15200,"station_id":"ce4bhsh2rcd13ifvqi2g","pricing_plan_id":"cebpf4jnsgd1na2vs0mg"},{"bike_id":"010ff397-c0d4-49b6-ae9d-c5c094fbc4c7","system_id":"levelo_inurba_marseille","lat":43.295227,"lon":5.385195,"is_reserved":false,"is_disabled":false,"rental_uris":{"android":"levelo://app?vid=010ff397-c0d4-49b6-ae9d-c5c094fbc4c7","ios":"levelo://app?vid=010ff397-c0d4-49b6-ae9d-c5c094fbc4c7"},"vehicle_type_id":"4","last_reported":1743606640,"current_range_meters":15200,"station_id":"","pricing_plan_id":"cebpf4jnsgd1na2vs0mg"},{"bike_id":"aa6eb6e5-54e5-4685-95e1-a7038d2da636","system_id":"levelo_inurba_marseille","lat":43.22928,"lon":5.35384,"is_reserved":false,"is_disabled":false,"rental_uris":{"android":"levelo://app?vid=aa6eb6e5-54e5-4685-95e1-a7038d2da636","ios":"levelo://app?vid=aa6eb6e5-54e5-4685-95e1-a7038d2da636"},"vehicle_type_id":"4","last_reported":1743606640,"current_range_meters":15200,"station_id":"cpo3532slgdg3j2ikp40","pricing_plan_id":"cebpf4jnsgd1na2vs0mg"},{"bike_id":"2cd056b1-b397-4b0c-903d-93965c0169cc","system_id":"levelo_inurba_marseille","lat":43.30789,"lon":5.3764,"is_reserved":false,"is_disabled":false,"rental_uris":{"android":"levelo://app?vid=2cd056b1-b397-4b0c-903d-93965c0169cc","ios":"levelo://app?vid=2cd056b1-b397-4b0c-903d-93965c0169cc"},"vehicle_type_id":"4","last_reported":1743606640,"current_range_meters":16400,"station_id":"ce4bgv92rcd13ifvqcq0","pricing_plan_id":"cebpf4jnsgd1na2vs0mg"},{"bike_id":"49d0576a-e96f-4216-a6a4-377258ca3138","system_id":"levelo_inurba_marseille","lat":43.27833,"lon":5.39206,"is_reserved":false,"is_disabled":false,"rental_uris":{"android":"levelo://app?vid=49d0576a-e96f-4216-a6a4-377258ca3138","ios":"levelo://app?vid=49d0576a-e96f-4216-a6a4-377258ca3138"},"vehicle_type_id":"4","last_reported":1743606640,"current_range_meters":16000,"station_id":"ce4bhjp2rcd13ifvqga0","pricing_plan_id":"cebpf4jnsgd1na2vs0mg"},{"bike_id":"17d31aed-a53a-49b6-adc6-b7506a533da4","system_id":"levelo_inurba_marseille","lat":43.30324,"lon":5.40438,"is_reserved":false,"is_disabled":false,"rental_uris":{"android":"levelo://app?vid=17d31aed-a53a-49b6-adc6-b7506a533da4","ios":"levelo://app?vid=17d31aed-a53a-49b6-adc6-b7506a533da4"},"vehicle_type_id":"4","last_reported":1743606640,"current_range_meters":15200,"station_id":"ce4bh012rcd13ifvqd10","pricing_plan_id":"cebpf4jnsgd1na2vs0mg"},{"bike_id":"a4fae94b-5b43-4304-a3d0-ccdcba5e455f","system_id":"levelo_inurba_marseille","lat":43.3081,"lon":5.43517,"is_reserved":false,"is_disabled":false,"rental_uris":{"android":"levelo://app?vid=a4fae94b-5b43-4304-a3d0-ccdcba5e455f","ios":"levelo://app?vid=a4fae94b-5b43-4304-a3d0-ccdcba5e455f"},"vehicle_type_id":"4","last_reported":1743606640,"current_range_meters":16000,"station_id":"ce4bhph2rcd13ifvqheg","pricing_plan_id":"cebpf4jnsgd1na2vs0mg"},{"bike_id":"97c0eecc-8787-4395-b6d9-f622fd6dd4ee","system_id":"levelo_inurba_marseille","lat":43.26141,"lon":5.40914,"is_reserved":false,"is_disabled":true,"rental_uris":{"android":"levelo://app?vid=97c0eecc-8787-4395-b6d9-f622fd6dd4ee","ios":"levelo://app?vid=97c0eecc-8787-4395-b6d9-f622fd6dd4ee"},"vehicle_type_id":"4","last_reported":1743606640,"current_range_meters":16000,"station_id":"","pricing_plan_id":"cebpf4jnsgd1na2vs0mg"},{"bike_id":"b581593f-e2c3-40e4-8110-a1665fe839eb","system_id":"levelo_inurba_marseille","lat":43.29228,"lon":5.36044,"is_reserved":false,"is_disabled":false,"rental_uris":{"android":"levelo://app?vid=b581593f-e2c3-40e4-8110-a1665fe839eb","ios":"levelo://app?vid=b581593f-e2c3-40e4-8110-a1665fe839eb"},"vehicle_type_id":"4","last_reported":1743606640,"current_range_meters":16000,"station_id":"ce4bhbh2rcd13ifvqeqg","pricing_plan_id":"cebpf4jnsgd1na2vs0mg"},{"bike_id":"6fd15896-5697-470b-8f07-45b11106795c","system_id":"levelo_inurba_marseille","lat":43.32114,"lon":5.36795,"is_reserved":false,"is_disabled":false,"rental_uris":{"android":"levelo://app?vid=6fd15896-5697-470b-8f07-45b11106795c","ios":"levelo://app?vid=6fd15896-5697-470b-8f07-45b11106795c"},"vehicle_type_id":"4","last_reported":1743606640,"current_range_meters":16000,"station_id":"ce4bhrh2rcd13ifvqhug","pricing_plan_id":"cebpf4jnsgd1na2vs0mg"},{"bike_id":"97aa5e6f-e45b-4e21-a47e-52761ee9cdb1","system_id":"levelo_inurba_marseille","lat":43.32106,"lon":5.3676,"is_reserved":false,"is_disabled":false,"rental_uris":{"android":"levelo://app?vid=97aa5e6f-e45b-4e21-a47e-52761ee9cdb1","ios":"levelo://app?vid=97aa5e6f-e45b-4e21-a47e-52761ee9cdb1"},"vehicle_type_id":"4","last_reported":1743606640,"current_range_meters":16000,"station_id":"ce4bhrh2rcd13ifvqhug","pricing_plan_id":"cebpf4jnsgd1na2vs0mg"},{"bike_id":"78ca934a-98c9-4dbc-b5b6-c2ca906050d2","system_id":"levelo_inurba_marseille","lat":43.29751,"lon":5.38943,"is_reserved":false,"is_disabled":false,"rental_uris":{"android":"levelo://app?vid=78ca934a-98c9-4dbc-b5b6-c2ca906050d2","ios":"levelo://app?vid=78ca934a-98c9-4dbc-b5b6-c2ca906050d2"},"vehicle_type_id":"4","last_reported":1743606640,"current_range_meters":16000,"station_id":"","pricing_plan_id":"cebpf4jnsgd1na2vs0mg"},{"bike_id":"e6f02e74-383c-4bae-b8c4-037430863270","system_id":"levelo_inurba_marseille","lat":43.23057,"lon":5.35488,"is_reserved":false,"is_disabled":false,"rental_uris":{"android":"levelo://app?vid=e6f02e74-383c-4bae-b8c4-037430863270","ios":"levelo://app?vid=e6f02e74-383c-4bae-b8c4-037430863270"},"vehicle_type_id":"4","last_reported":1743606640,"current_range_meters":16000,"station_id":"cpo3342slgdg3j2ifvpg","pricing_plan_id":"cebpf4jnsgd1na2vs0mg"},