{"last_updated":1762542503,"ttl":60,"version":"2.2","data":{"bikes":[{"bike_id":"b62d824a-44ac-49d1-9faa-aba31feda386","system_id":"levelo_inurba_marseille","lat":43.29521,"lon":5.38489,"is_reserved":false,"is_disabled":false,"rental_uris":{"android":"levelo://app?vid=b62d824a-44ac-49d1-9faa-aba31feda386","ios":"levelo://app?vid=b62d824a-44ac-49d1-9faa-aba31feda386"},"vehicle_type_id":"4","last_reported":1762542503,"current_range_meters":2800,"station_id":"","pricing_plan_id":"cebpf4jnsgd1na2vs0mg"},{"bike_id":"f19c77bc-0be8-4b2c-a6be-9f7dac24b387","system_id":"levelo_inurba_marseille","lat":43.27367,"lon":5.36241,"is_reserved":false,"is_disabled":false,"rental_uris":{"android":"levelo://app?vid=f19c77bc-0be8-4b2c-a6be-9f7dac24b387","ios":"levelo://app?vid=f19c77bc-0be8-4b2c-a6be-9f7dac24b387"},"vehicle_type_id":"4","last_reported":1762542503,"current_range_meters":2800,"station_id":"ce4bhbh2rcd13ifvqeo0","pricing_plan_id":"cebpf4jnsgd1na2vs0mg"},{"bike_id":"d49c544e-2768-4fdc-acf7-6e78f223f7f6","system_id":"levelo_inurba_marseille","lat":43.28038,"lon":5.36947,"is_reserved":false,"is_disabled":false,"rental_uris":{"android":"levelo://app?vid=d49c544e-2768-4fdc-acf7-6e78f223f7f6","ios":"levelo://app?vid=d49c544e-2768-4fdc-acf7-6e78f223f7f6"},"vehicle_type_id":"4","last_reported":1762542503,"current_range_meters":2800,"station_id":"ce4bha12rcd13ifvqef0","pricing_plan_id":"cebpf4jnsgd1na2vs0mg"},{"bike_id":"88c2c250-08af-4a6b-bb1a-31e70a5afb91","system_id":"levelo_inurba_marseille","lat":43.29532,"lon":5.38545,"is_reserved":false,"is_disabled":false,"rental_uris":{"android":"levelo://app?vid=88c2c250-08af-4a6b-bb1a-31e70a5afb91","ios":"levelo://app?vid=88c2c250-08af-4a6b-bb1a-31e70a5afb91"},"vehicle_type_id":"4","last_reported":1762542503,"current_range_meters":2800,"station_id":"ce4bgih2rcd13ifvqba0","pricing_plan_id":"cebpf4jnsgd1na2vs0mg"},{"bike_id":"72bb004c-37a6-44f3-b7de-6c7031d711a4","system_id":"levelo_inurba_marseille","lat":43.27376,"lon":5.36254,"is_reserved":false,"is_disabled":false,"rental_uris":{"android":"levelo://app?vid=72bb004c-37a6-44f3-b7de-6c7031d711a4","ios":"levelo://app?vid=72bb004c-37a6-44f3-b7de-6c7031d711a4"},"vehicle_type_id":"4","last_reported":1762542503,"current_range_meters":3200,"station_id":"ce4bhbh2rcd13ifvqeo0","pricing_plan_id":"cebpf4jnsgd1na2vs0mg"},{"bike_id":"8bb1e1dc-5ade-4a07-9604-5301f03033e6","system_id":"levelo_inurba_marseille","lat":43.27993,"lon":5.40012,"is_reserved":false,"is_disabled":false,"rental_uris":{"android":"levelo://app?vid=8bb1e1dc-5ade-4a07-9604-5301f03033e6","ios":"levelo://app?vid=8bb1e1dc-5ade-4a07-9604-5301f03033e6"},"vehicle_type_id":"4","last_reported":1762542503,"current_range_meters":3200,"station_id":"ce4bho92rcd13ifvqh4g","pricing_plan_id":"cebpf4jnsgd1na2vs0mg"},{"bike_id":"d3a8c452-bd73-4909-9cfe-f1c0285f3d0c","system_id":"levelo_inurba_marseille","lat":43.284809,"lon":5.484045,"is_reserved":false,"is_disabled":false,"rental_uris":{"android":"levelo://app?vid=d3a8c452-bd73-4909-9cfe-f1c0285f3d0c","ios":"levelo://app?vid=d3a8c452-bd73-4909-9cfe-f1c0285f3d0c"},"vehicle_type_id":"4","last_reported":1762542503,"current_range_meters":3600,"station_id":"","pricing_plan_id":"cebpf4jnsgd1na2vs0mg"},{"bike_id":"0b1c6e2c-0615-4487-869c-5f5004ee1396","system_id":"levelo_inurba_marseille","lat":43.27987,"lon":5.41668,"is_reserved":false,"is_disabled":false,"rental_uris":{"android":"levelo://app?vid=0b1c6e2c-0615-4487-869c-5f5004ee1396","ios":"levelo://app?vid=0b1c6e2c-0615-4487-869c-5f5004ee1396"},"vehicle_type_id":"4","last_reported":1762542503,"current_range_meters":3600,"station_id":"ce4bho12rcd13ifvqh1g","pricing_plan_id":"cebpf4jnsgd1na2vs0mg"},{"bike_id":"e59a7538-ec2f-4de3-9677-8b27545f7e89","system_id":"levelo_inurba_marseille","lat":43.29531,"lon":5.38548,"is_reserved":false,"is_disabled":false,"rental_uris":{"android":"levelo://app?vid=e59a7538-ec2f-4de3-9677-8b27545f7e89","ios":"levelo://app?vid=e59a7538-ec2f-4de3-9677-8b27545f7e89"},"vehicle_type_id":"4","last_reported":1762542503,"current_range_meters":3600,"station_id":"ce4bgih2rcd13ifvqba0","pricing_plan_id":"cebpf4jnsgd1na2vs0mg"},{"bike_id":"eb671ccc-01d7-4650-9f95-d6d31af9db12","system_id":"levelo_inurba_marseille","lat":43.302335,"lon":5.394296,"is_reserved":false,"is_disabled":false,"rental_uris":{"android":"levelo://app?vid=eb671ccc-01d7-4650-9f95-d6d31af9db12","ios":"levelo://app?vid=eb671ccc-01d7-4650-9f95-d6d31af9db12"},"vehicle_type_id":"4","last_reported":1762542503,"current_range_meters":3600,"station_id":"ce4bh0p2rcd13ifvqd70","pricing_plan_id":"cebpf4jnsgd1na2vs0mg"},{"bike_id":"bf66c6f4-90a9-4dad-ab7f-441e78a13cab","system_id":"levelo_inurba_marseille","lat":43.310738,"lon":5.383729,"is_reserved":false,"is_disabled":true,"rental_uris":{"android":"levelo://app?vid=bf66c6f4-90a9-4dad-ab7f-441e78a13cab","ios":"levelo://app?vid=bf66c6f4-90a9-4dad-ab7f-441e78a13cab"},"vehicle_type_id":"4","last_reported":1762542503,"current_range_meters":4000,"station_id":"ce4bgt92rcd13ifvqcg0","pricing_plan_id":"cebpf4jnsgd1na2vs0mg"},{"bike_id":"1dc19da6-1171-435d-9c56-332643d0b815","system_id":"levelo_inurba_marseille","lat":43.28486,"lon":5.38411,"is_reserved":false,"is_disabled":false,"rental_uris":{"android":"levelo://app?vid=1dc19da6-1171-435d-9c56-332643d0b815","ios":"levelo://app?vid=1dc19da6-1171-435d-9c56-332643d0b815"},"vehicle_type_id":"4","last_reported":1762542503,"current_range_meters":4400,"station_id":"ce4bh512rcd13ifvqe3g","pricing_plan_id":"cebpf4jnsgd1na2vs0mg"},{"bike_id":"549e9e51-ae7d-4e75-9f9f-cc64f374ba44","system_id":"levelo_inurba_marseille","lat":43.24145,"lon":5.39397,"is_reserved":false,"is_disabled":false,"rental_uris":{"android":"levelo://app?vid=549e9e51-ae7d-4e75-9f9f-cc64f374ba44","ios":"levelo://app?vid=549e9e51-ae7d-4e75-9f9f-cc64f374ba44"},"vehicle_type_id":"4","last_reported":1762542503,"current_range_meters":4800,"station_id":"","pricing_plan_id":"cebpf4jnsgd1na2vs0mg"},{"bike_id":"50cab2b8-86c6-4202-9d7a-52f64d1f8e2c","system_id":"levelo_inurba_marseille","lat":43.28101,"lon":5.37834,"is_reserved":false,"is_disabled":false,"rental_uris":{"android":"levelo://app?vid=50cab2b8-86c6-4202-9d7a-52f64d1f8e2c","ios":"levelo://app?vid=50cab2b8-86c6-4202-9d7a-52f64d1f8e2c"},"vehicle_type_id":"4","last_reported":1762542503,"current_range_meters":4800,"station_id":"ce4bha12rcd13ifvqee0","pricing_plan_id":"cebpf4jnsgd1na2vs0mg"},{"bike_id":"ccb84d71-97cf-4be0-b67e-7f8302115a4d","system_id":"levelo_inurba_marseille","lat":43.28852,"lon":5.39315,"is_reserved":false,"is_disabled":true,"rental_uris":{"android":"levelo://app?vid=ccb84d71-97cf-4be0-b67e-7f8302115a4d","ios":"levelo://app?vid=ccb84d71-97cf-4be0-b67e-7f8302115a4d"},"vehicle_type_id":"4","last_reported":1762542503,"current_range_meters":4800,"station_id":"ce4bh2p2rcd13ifvqdi0","pricing_plan_id":"cebpf4jnsgd1na2vs0mg"},{"bike_id":"d32f18ea-585e-4e19-a179-7a8e934171d2","system_id":"levelo_inurba_marseille","lat":43.27623,"lon":5.36114,"is_reserved":false,"is_disabled":false,"rental_uris":{"android":"levelo://app?vid=d32f18ea-585e-4e19-a179-7a8e934171d2","ios":"levelo://app?vid=d32f18ea-585e-4e19-a179-7a8e934171d2"},"vehicle_type_id":"4","last_reported":1762542503,"current_range_meters":5600,"station_id":"ce4bgj92rcd13ifvqbe0","pricing_plan_id":"cebpf4jnsgd1na2vs0mg"},{"bike_id":"faf02dba-a063-4be7-b738-20d510b602ef","system_id":"levelo_inurba_marseille","lat":43.29826,"lon":5.38269,"is_reserved":false,"is_disabled":false,"rental_uris":{"android":"levelo://app?vid=faf02dba-a063-4be7-b738-20d510b602ef","ios":"levelo://app?vid=faf02dba-a063-4be7-b738-20d510b602ef"},"vehicle_type_id":"4","last_reported":1762542503,"current_range_meters":5600,"station_id":"","pricing_plan_id":"cebpf4jnsgd1na2vs0mg"},{"bike_id":"81dcc136-dea2-46c0-98af-42dbdee92b54","system_id":"levelo_inurba_marseille","lat":43.28502,"lon":5.48403,"is_reserved":false,"is_disabled":false,"rental_uris":{"android":"levelo://app?vid=81dcc136-dea2-46c0-98af-42dbdee92b54","ios":"levelo://app?vid=81dcc136-dea2-46c0-98af-42dbdee92b54"},"vehicle_type_id":"4","last_reported":1762542503,"current_range_meters":5600,"station_id":"","pricing_plan_id":"cebpf4jnsgd1na2vs0mg"},{"bike_id":"fc8334d2-8cc7-48bf-93cc-8304409e8292","system_id":"levelo_inurba_marseille","lat":43.21749,"lon":5.34599,"is_reserved":false,"is_disabled":false,"rental_uris":{"android":"levelo://app?vid=fc8334d2-8cc7-48bf-93cc-8304409e8292","ios":"levelo://app?vid=fc8334d2-8cc7-48bf-93cc-8304409e8292"},"vehicle_type_id":"4","last_reported":1762542503,"current_range_meters":5600,"station_id":"","pricing_plan_id":"cebpf4jnsgd1na2vs0mg"},{"bike_id":"fde6e096-fae9-4d2d-940e-0cc4a6b9fd4e","system_id":"levelo_inurba_marseille","lat":43.23192,"lon":5.39987,"is_reserved":false,"is_disabled":false,"rental_uris":{"android":"levelo://app?vid=fde6e096-fae9-4d2d-940e-0cc4a6b9fd4e","ios":"levelo://app?vid=fde6e096-fae9-4d2d-940e-0cc4a6b9fd4e"},"vehicle_type_id":"4","last_reported":1762542503,"current_range_meters":5600,"station_id":"ce4bhn12rcd13ifvqgqg","pricing_plan_id":"cebpf4jnsgd1na2vs0mg"},{"bike_id":"16e58290-dfa5-4836-a438-470371f5493f","system_id":"levelo_inurba_marseille","lat":43.3199,"lon":5.38163,"is_reserved":false,"is_disabled":false,"rental_uris":{"android":"levelo://app?vid=16e58290-dfa5-4836-a438-470371f5493f","ios":"levelo://app?vid=16e58290-dfa5-4836-a438-470371f5493f"},"vehicle_type_id":"4","last_reported":1762542503,"current_range_meters":5600,"station_id":"ce4bhr12rcd13ifvqhpg","pricing_plan_id":"cebpf4jnsgd1na2vs0mg"},{"bike_id":"830cb6ad-c942-438c-8003-63636abeb00c","system_id":"levelo_inurba_marseille","lat":43.3302,"lon":5.39029,"is_reserved":false,"is_disabled":false,"rental_uris":{"android":"levelo://app?vid=830cb6ad-c942-438c-8003-63636abeb00c","ios":"levelo://app?vid=830cb6ad-c942-438c-8003-63636abeb00c"},"vehicle_type_id":"4","last_reported":1762542503,"current_range_meters":6000,"station_id":"ce4bhr92rcd13ifvqhrg","pricing_plan_id":"cebpf4jnsgd1na2vs0mg"},{"bike_id":"2a4a356b-1326-428b-9d25-4759f54cb54e","system_id":"levelo_inurba_marseille","lat":43.28679,"lon":5.3634,"is_reserved":false,"is_disabled":false,"rental_uris":{"android":"levelo://app?vid=2a4a356b-1326-428b-9d25-4759f54cb54e","ios":"levelo://app?vid=2a4a356b-1326-428b-9d25-4759f54cb54e"},"vehicle_type_id":"4","last_reported":1762542503,"current_range_meters":6000,"station_id":"ce4bhah2rcd13ifvqej0","pricing_plan_id":"cebpf4jnsgd1na2vs0mg"},{"bike_id":"605394a0-063a-4337-8f91-849f31250eb4","system_id":"levelo_inurba_marseille","lat":43.29522,"lon":5.39031,"is_reserved":false,"is_disabled":false,"rental_uris":{"android":"levelo://app?vid=605394a0-063a-4337-8f91-849f31250eb4","ios":"levelo://app?vid=605394a0-063a-4337-8f91-849f31250eb4"},"vehicle_type_id":"4","last_reported":1762542503,"current_range_meters":6000,"station_id":"ce4bh3p2rcd13ifvqdp0","pricing_plan_id":"cebpf4jnsgd1na2vs0mg"},{"bike_id":"dfa40c38-c9af-4586-878e-cb67c962116d","system_id":"levelo_inurba_marseille","lat":43.30132,"lon":5.39844,"is_reserved":false,"is_disabled":false,"rental_uris":{"android":"levelo://app?vid=dfa40c38-c9af-4586-878e-cb67c962116d","ios":"levelo://app?vid=dfa40c38-c9af-4586-878e-cb67c962116d"},"vehicle_type_id":"4","last_reported":1762542503,"current_range_meters":6000,"station_id":"ce4bh0h2rcd13ifvqd40","pricing_plan_id":"cebpf4jnsgd1na2vs0mg"},{"bike_id":"d0cf6b93-21fa-4286-814e-178c6a263a95","system_id":"levelo_inurba_marseille","lat":43.295343,"lon":5.385454,"is_reserved":false,"is_disabled":false,"rental_uris":{"android":"levelo://app?vid=d0cf6b93-21fa-4286-814e-178c6a263a95","ios":"levelo://app?vid=d0cf6b93-21fa-4286-814e-178c6a263a95"},"vehicle_type_id":"4","last_reported":1762542503,"current_range_meters":6400,"station_id":"ce4bgih2rcd13ifvqba0","pricing_plan_id":"cebpf4jnsgd1na2vs0mg"},{"bike_id":"09ee8310-d1d1-4de6-85d9-eae4bf23dc9e","system_id":"levelo_inurba_marseille","lat":43.28041,"lon":5.36942,"is_reserved":false,"is_disabled":false,"rental_uris":{"android":"levelo://app?vid=09ee8310-d1d1-4de6-85d9-eae4bf23dc9e","ios":"levelo://app?vid=09ee8310-d1d1-4de6-85d9-eae4bf23dc9e"},"vehicle_type_id":"4","last_reported":1762542503,"current_range_meters":6400,"station_id":"ce4bha12rcd13ifvqef0","pricing_plan_id":"cebpf4jnsgd1na2vs0mg"},{"bike_id":"c60e2125-53cd-4555-9df4-6b58bcf9ef31","system_id":"levelo_inurba_marseille","lat":43.27918,"lon":5.38007,"is_reserved":false,"is_disabled":false,"rental_uris":{"android":"levelo://app?vid=c60e2125-53cd-4555-9df4-6b58bcf9ef31","ios":"levelo://app?vid=c60e2125-53cd-4555-9df4-6b58bcf9ef31"},"vehicle_type_id":"4","last_reported":1762542503,"current_range_meters":6400,"station_id":"ce4bhf92rcd13ifvqf50","pricing_plan_id":"cebpf4jnsgd1na2vs0mg"},{"bike_id":"4e786243-40e1-4b46-ad29-e8ff1d458682","system_id":"levelo_inurba_marseille","lat":43.30909,"lon":5.36842,"is_reserved":false,"is_disabled":false,"rental_uris":{"android":"levelo://app?vid=4e786243-40e1-4b46-ad29-e8ff1d458682","ios":"levelo://app?vid=4e786243-40e1-4b46-ad29-e8ff1d458682"},"vehicle_type_id":"4","last_reported":1762542503,"current_range_meters":6400,"station_id":"ce4bgn92rcd13ifvqbvg","pricing_plan_id":"cebpf4jnsgd1na2vs0mg"},{"bike_id":"874b186c-6ec7-4094-a4dd-a249e7cc9b62","system_id":"levelo_inurba_marseille","lat":43.27735,"lon":5.42685,"is_reserved":false,"is_disabled":false,"rental_uris":{"android":"levelo://app?vid=874b186c-6ec7-4094-a4dd-a249e7cc9b62","ios":"levelo://app?vid=874b186c-6ec7-4094-a4dd-a249e7cc9b62"},"vehicle_type_id":"4","last_reported":1762542503,"current_range_meters":6800,"station_id":"","pricing_plan_id":"cebpf4jnsgd1na2vs0mg"},{"bike_id":"a6b5c354-bbc4-46b2-9356-4b84838966f9","system_id":"levelo_inurba_marseille","lat":43.306736,"lon":5.403527,"is_reserved":false,"is_disabled":false,"rental_uris":{"android":"levelo://app?vid=a6b5c354-bbc4-46b2-9356-4b84838966f9","ios":"levelo://app?vid=a6b5c354-bbc4-46b2-9356-4b84838966f9"},"vehicle_type_id":"4","last_reported":1762542503,"current_range_meters":6800,"station_id":"","pricing_plan_id":"cebpf4jnsgd1na2vs0mg"},{"bike_id":"41b418aa-e91d-4c2f-a7d7-3256bb1219b1","system_id":"levelo_inurba_marseille","lat":43.29492,"lon":5.43305,"is_reserved":false,"is_disabled":false,"rental_uris":{"android":"levelo://app?vid=41b418aa-e91d-4c2f-a7d7-3256bb1219b1","ios":"levelo://app?vid=41b418aa-e91d-4c2f-a7d7-3256bb1219b1"},"vehicle_type_id":"4","last_reported":1762542503,"current_range_meters":6800,"station_id":"st_d3j5ugp08ojc73fj9d10","pricing_plan_id":"cebpf4jnsgd1na2vs0mg"},{"bike_id":"71967476-752a-4f5e-b222-99c0eea95f39","system_id":"levelo_inurba_marseille","lat":43.32321,"lon":5.3839,"is_reserved":false,"is_disabled":false,"rental_uris":{"android":"levelo://app?vid=71967476-752a-4f5e-b222-99c0eea95f39","ios":"levelo://app?vid=71967476-752a-4f5e-b222-99c0eea95f39"},"vehicle_type_id":"4","last_reported":1762542503,"current_range_meters":6800,"station_id":"","pricing_plan_id":"cebpf4jnsgd1na2vs0mg"},{"bike_id":"7d93b528-b7f9-472a-9d11-b569960df4f1","system_id":"levelo_inurba_marseille","lat":43.32477,"lon":5.36574,"is_reserved":false,"is_disabled":false,"rental_uris":{"android":"levelo://app?vid=7d93b528-b7f9-472a-9d11-b569960df4f1","ios":"levelo://app?vid=7d93b528-b7f9-472a-9d11-b569960df4f1"},"vehicle_type_id":"4","last_reported":1762542503,"current_range_meters":6800,"station_id":"ce4bhs12rcd13ifvqhvg","pricing_plan_id":"cebpf4jnsgd1na2vs0mg"},{"bike_id":"aa073d3c-91f3-4920-9d1e-90bf82850b1e","system_id":"levelo_inurba_marseille","lat":43.33806,"lon":5.37481,"is_reserved":false,"is_disabled":false,"rental_uris":{"android":"levelo://app?vid=aa073d3c-91f3-4920-9d1e-90bf82850b1e","ios":"levelo://app?vid=aa073d3c-91f3-4920-9d1e-90bf82850b1e"},"vehicle_type_id":"4","last_reported":1762542503,"current_range_meters":7200,"station_id":"","pricing_plan_id":"cebpf4jnsgd1na2vs0mg"},{"bike_id":"e5da9acf-946f-4099-ab49-ed48e813fe10","system_id":"levelo_inurba_marseille","lat":43.3122,"lon":5.36854,"is_reserved":false,"is_disabled":false,"rental_uris":{"android":"levelo://app?vid=e5da9acf-946f-4099-ab49-ed48e813fe10","ios":"levelo://app?vid=e5da9acf-946f-4099-ab49-ed48e813fe10"},"vehicle_type_id":"4","last_reported":1762542503,"current_range_meters":7200,"station_id":"ce4bgl92rcd13ifvqbq0","pricing_plan_id":"cebpf4jnsgd1na2vs0mg"},{"bike_id":"5622ad94-eac2-4c17-8053-6411d12ec842","system_id":"levelo_inurba_marseille","lat":43.29526,"lon":5.39034,"is_reserved":false,"is_disabled":false,"rental_uris":{"android":"levelo://app?vid=5622ad94-eac2-4c17-8053-6411d12ec842","ios":"levelo://app?vid=5622ad94-eac2-4c17-8053-6411d12ec842"},"vehicle_type_id":"4","last_reported":1762542503,"current_range_meters":7200,"station_id":"ce4bh3p2rcd13ifvqdp0","pricing_plan_id":"cebpf4jnsgd1na2vs0mg"},{"bike_id":"6d6b4de6-1bff-4c19-8d1f-d94dfa31e91d","system_id":"levelo_inurba_marseille","lat":43.269446,"lon":5.4024,"is_reserved":false,"is_disabled":false,"rental_uris":{"android":"levelo://app?vid=6d6b4de6-1bff-4c19-8d1f-d94dfa31e91d","ios":"levelo://app?vid=6d6b4de6-1bff-4c19-8d1f-d94dfa31e91d"},"vehicle_type_id":"4","last_reported":1762542503,"current_range_meters":7200,"station_id":"cjm6bp8fraef2m0cb0m0","pricing_plan_id":"cebpf4jnsgd1na2vs0mg"},{"bike_id":"95646080-6044-46ec-b4cc-e61ee87c2282","system_id":"levelo_inurba_marseille","lat":43.29168,"lon":5.40676,"is_reserved":false,"is_disabled":false,"rental_uris":{"android":"levelo://app?vid=95646080-6044-46ec-b4cc-e61ee87c2282","ios":"levelo://app?vid=95646080-6044-46ec-b4cc-e61ee87c2282"},"vehicle_type_id":"4","last_reported":1762542503,"current_range_meters":8000,"station_id":"","pricing_plan_id":"cebpf4jnsgd1na2vs0mg"},{"bike_id":"62422c4d-f3cc-415c-a1c5-9271d587a341","system_id":"levelo_inurba_marseille","lat":43.293796,"lon":5.38224,"is_reserved":false,"is_disabled":false,"rental_uris":{"android":"levelo://app?vid=62422c4d-f3cc-415c-a1c5-9271d587a341","ios":"levelo://app?vid=62422c4d-f3cc-415c-a1c5-9271d587a341"},"vehicle_type_id":"4","last_reported":1762542503,"current_range_meters":8000,"station_id":"ce4bgip2rcd13ifvqbb0","pricing_plan_id":"cebpf4jnsgd1na2vs0mg"},{"bike_id":"044a77f6-8e4e-45b1-b0a8-f9ddabc091af","system_id":"levelo_inurba_marseille","lat":43.29909,"lon":5.38145,"is_reserved":false,"is_disabled":false,"rental_uris":{"android":"levelo://app?vid=044a77f6-8e4e-45b1-b0a8-f9ddabc091af","ios":"levelo://app?vid=044a77f6-8e4e-45b1-b0a8-f9ddabc091af"},"vehicle_type_id":"4","last_reported":1762542503,"current_range_meters":8000,"station_id":"ce4bgj12rcd13ifvqbc0","pricing_plan_id":"cebpf4jnsgd1na2vs0mg"},{"bike_id":"32c4054d-c111-4f1c-b188-9138aed42210","system_id":"levelo_inurba_marseille","lat":43.31987,"lon":5.41584,"is_reserved":false,"is_disabled":false,"rental_uris":{"android":"levelo://app?vid=32c4054d-c111-4f1c-b188-9138aed42210","ios":"levelo://app?vid=32c4054d-c111-4f1c-b188-9138aed42210"},"vehicle_type_id":"4","last_reported":1762542503,"current_range_meters":8000,"station_id":"","pricing_plan_id":"cebpf4jnsgd1na2vs0mg"},{"bike_id":"04d0f783-c5b8-4b3f-af75-3660ccbb2bf2","system_id":"levelo_inurba_marseille","lat":43.24949,"lon":5.40492,"is_reserved":false,"is_disabled":false,"rental_uris":{"android":"levelo://app?vid=04d0f783-c5b8-4b3f-af75-3660ccbb2bf2","ios":"levelo://app?vid=04d0f783-c5b8-4b3f-af75-3660ccbb2bf2"},"vehicle_type_id":"4","last_reported":1762542503,"current_range_meters":8000,"station_id":"st_d2ngiaodas8pm72gd1h0","pricing_plan_id":"cebpf4jnsgd1na2vs0mg"},{"bike_id":"59b31ef2-3fe3-46e5-b5a5-685f264695ce","system_id":"levelo_inurba_marseille","lat":43.28466,"lon":5.48409,"is_reserved":false,"is_disabled":false,"rental_uris":{"android":"levelo://app?vid=59b31ef2-3fe3-46e5-b5a5-685f264695ce","ios":"levelo://app?vid=59b31ef2-3fe3-46e5-b5a5-685f264695ce"},"vehicle_type_id":"4","last_reported":1762542503,"current_range_meters":8000,"station_id":"","pricing_plan_id":"cebpf4jnsgd1na2vs0mg"},{"bike_id":"03da6d03-6f66-42b1-9358-7b9d19fef7a2","system_id":"levelo_inurba_marseille","lat":43.29712,"lon":5.36605,"is_reserved":false,"is_disabled":false,"rental_uris":{"android":"levelo://app?vid=03da6d03-6f66-42b1-9358-7b9d19fef7a2","ios":"levelo://app?vid=03da6d03-6f66-42b1-9358-7b9d19fef7a2"},"vehicle_type_id":"4","last_reported":1762542503,"current_range_meters":8000,"station_id":"ce4bgn12rcd13ifvqbt0","pricing_plan_id":"cebpf4jnsgd1na2vs0mg"},{"bike_id":"ab3a4d6b-b442-44b9-8f02-c1c222f445ba","system_id":"levelo_inurba_marseille","lat":43.27477,"lon":5.39287,"is_reserved":false,"is_disabled":false,"rental_uris":{"android":"levelo://app?vid=ab3a4d6b-b442-44b9-8f02-c1c222f445ba","ios":"levelo://app?vid=ab3a4d6b-b442-44b9-8f02-c1c222f445ba"},"vehicle_type_id":"4","last_reported":1762542503,"current_range_meters":8400,"station_id":"","pricing_plan_id":"cebpf4jnsgd1na2vs0mg"},{"bike_id":"15cffa52-b561-44f3-8cdd-01b560f65fd3","system_id":"levelo_inurba_marseille","lat":43.30092,"lon":5.39072,"is_reserved":false,"is_disabled":false,"rental_uris":{"android":"levelo://app?vid=15cffa52-b561-44f3-8cdd-01b560f65fd3","ios":"levelo://app?vid=15cffa52-b561-44f3-8cdd-01b560f65fd3"},"vehicle_type_id":"4","last_reported":1762542503,"current_range_meters":8400,"station_id":"ce4bh192rcd13ifvqdb0","pricing_plan_id":"cebpf4jnsgd1na2vs0mg"},{"bike_id":"e9f48fc6-c6ab-4dbd-990d-daaa87751567","system_id":"levelo_inurba_marseille","lat":43.30328,"lon":5.40438,"is_reserved":false,"is_disabled":false,"rental_uris":{"android":"levelo://app?vid=e9f48fc6-c6ab-4dbd-990d-daaa87751567","ios":"levelo://app?vid=e9f48fc6-c6ab-4dbd-990d-daaa87751567"},"vehicle_type_id":"4","last_reported":1762542503,"current_range_meters":8400,"station_id":"ce4bh012rcd13ifvqd10","pricing_plan_id":"cebpf4jnsgd1na2vs0mg"},{"bike_id":"d95b5290-a36e-4820-a7c2-ec62fb10b596","system_id":"levelo_inurba_marseille","lat":43.29273,"lon":5.36841,"is_reserved":false,"is_disabled":false,"rental_uris":{"android":"levelo://app?vid=d95b5290-a36e-4820-a7c2-ec62fb10b596","ios":"levelo://app?vid=d95b5290-a36e-4820-a7c2-ec62fb10b596"},"vehicle_type_id":"4","last_reported":1762542503,"current_range_meters":8400,"station_id":"ce4bhbp2rcd13ifvqesg","pricing_plan_id":"cebpf4jnsgd1na2vs0mg"},{"bike_id":"b0732b62-19ca-4ec8-88e7-432d75ca293d","system_id":"levelo_inurba_marseille","lat":43.217469,"lon":5.346032,"is_reserved":false,"is_disabled":false,"rental_uris":{"android":"levelo://app?vid=b0732b62-19ca-4ec8-88e7-432d75ca293d","ios":"levelo://app?vid=b0732b62-19ca-4ec8-88e7-432d75ca293d"},"vehicle_type_id":"4","last_reported":1762542503,"current_range_meters":8400,"station_id":"","pricing_plan_id":"cebpf4jnsgd1na2vs0mg"},{"bike_id":"4d51481e-2ab8-45c9-bcd3-a48d92b91f7a","system_id":"levelo_inurba_marseille","lat":43.28413,"lon":5.34978,"is_reserved":false,"is_disabled":false,"rental_uris":{"android":"levelo://app?vid=4d51481e-2ab8-45c9-bcd3-a48d92b91f7a","ios":"levelo://app?vid=4d51481e-2ab8-45c9-bcd3-a48d92b91f7a"},"vehicle_type_id":"4","last_reported":1762542503,"current_range_meters":8400,"station_id":"ce4bhbh2rcd13ifvqepg","pricing_plan_id":"cebpf4jnsgd1na2vs0mg"},{"bike_id":"cf4bd915-7bb8-4aef-a3d3-ac4094b0c86d","system_id":"levelo_inurba_marseille","lat":43.252527,"lon":5.40238,"is_reserved":false,"is_disabled":false,"rental_uris":{"android":"levelo://app?vid=cf4bd915-7bb8-4aef-a3d3-ac4094b0c86d","ios":"levelo://app?vid=cf4bd915-7bb8-4aef-a3d3-ac4094b0c86d"},"vehicle_type_id":"4","last_reported":1762542503,"current_range_meters":8400,"station_id":"ce4bhlh2rcd13ifvqgig","pricing_plan_id":"cebpf4jnsgd1na2vs0mg"},{"bike_id":"4df74738-2f88-4ac0-8aab-91793ceb38c5","system_id":"levelo_inurba_marseille","lat":43.28269,"lon":5.35056,"is_reserved":false,"is_disabled":false,"rental_uris":{"android":"levelo://app?vid=4df74738-2f88-4ac0-8aab-91793ceb38c5","ios":"levelo://app?vid=4df74738-2f88-4ac0-8aab-91793ceb38c5"},"vehicle_type_id":"4","last_reported":1762542503,"current_range_meters":8400,"station_id":"ce4bhbp2rcd13ifvqerg","pricing_plan_id":"cebpf4jnsgd1na2vs0mg"},{"bike_id":"5cd3c788-566a-4f44-9995-cb70c38f6cff","system_id":"levelo_inurba_marseille","lat":43.24632,"lon":5.43143,"is_reserved":false,"is_disabled":false,"rental_uris":{"android":"levelo://app?vid=5cd3c788-566a-4f44-9995-cb70c38f6cff","ios":"levelo://app?vid=5cd3c788-566a-4f44-9995-cb70c38f6cff"},"vehicle_type_id":"4","last_reported":1762542503,"current_range_meters":8400,"station_id":"st_d2m6c4gdas8pm72e190g","pricing_plan_id":"cebpf4jnsgd1na2vs0mg"},{"bike_id":"df74da0d-11d2-4a82-a38e-bbfe3af47d3e","system_id":"levelo_inurba_marseille","lat":43.29513,"lon":5.39039,"is_reserved":false,"is_disabled":false,"rental_uris":{"android":"levelo://app?vid=df74da0d-11d2-4a82-a38e-bbfe3af47d3e","ios":"levelo://app?vid=df74da0d-11d2-4a82-a38e-bbfe3af47d3e"},"vehicle_type_id":"4","last_reported":1762542503,"current_range_meters":8800,"station_id":"ce4bh3p2rcd13ifvqdp0","pricing_plan_id":"cebpf4jnsgd1na2vs0mg"},{"bike_id":"9077e901-93c8-4687-a371-a759fd177d39","system_id":"levelo_inurba_marseille","lat":43.29534,"lon":5.38546,"is_reserved":false,"is_disabled":false,"rental_uris":{"android":"levelo://app?vid=9077e901-93c8-4687-a371-a759fd177d39","ios":"levelo://app?vid=9077e901-93c8-4687-a371-a759fd177d39"},"vehicle_type_id":"4","last_reported":1762542503,"current_range_meters":8800,"station_id":"ce4bgih2rcd13ifvqba0","pricing_plan_id":"cebpf4jnsgd1na2vs0mg"},{"bike_id":"43cfab9e-f547-4304-9999-4a8329474751","system_id":"levelo_inurba_marseille","lat":43.211868,"lon":5.350827,"is_reserved":false,"is_disabled":false,"rental_uris":{"android":"levelo://app?vid=43cfab9e-f547-4304-9999-4a8329474751","ios":"levelo://app?vid=43cfab9e-f547-4304-9999-4a8329474751"},"vehicle_type_id":"4","last_reported":1762542503,"current_range_meters":8800,"station_id":"st_cvj6sg6p6f1abm77japg","pricing_plan_id":"cebpf4jnsgd1na2vs0mg"},{"bike_id":"62b597ad-0183-45ab-83ea-6b1f25540269","system_id":"levelo_inurba_marseille","lat":43.327463,"lon":5.452095,"is_reserved":false,"is_disabled":false,"rental_uris":{"android":"levelo://app?vid=62b597ad-0183-45ab-83ea-6b1f25540269","ios":"levelo://app?vid=62b597ad-0183-45ab-83ea-6b1f25540269"},"vehicle_type_id":"4","last_reported":1762542503,"current_range_meters":8800,"station_id":"","pricing_plan_id":"cebpf4jnsgd1na2vs0mg"},{"bike_id":"1892c972-098b-424d-8c9f-d18809f7aff8","system_id":"levelo_inurba_marseille","lat":43.29042,"lon":5.35907,"is_reserved":false,"is_disabled":false,"rental_uris":{"android":"levelo://app?vid=1892c972-098b-424d-8c9f-d18809f7aff8","ios":"levelo://app?vid=1892c972-098b-424d-8c9f-d18809f7aff8"},"vehicle_type_id":"4","last_reported":1762542503,"current_range_meters":8800,"station_id":"ce4bha92rcd13ifvqeg0","pricing_plan_id":"cebpf4jnsgd1na2vs0mg"},{"bike_id":"0559d570-9344-44aa-b73e-7ae8406530bc","system_id":"levelo_inurba_marseille","lat":43.30881,"lon":5.39665,"is_reserved":false,"is_disabled":false,"rental_uris":{"android":"levelo://app?vid=0559d570-9344-44aa-b73e-7ae8406530bc","ios":"levelo://app?vid=0559d570-9344-44aa-b73e-7ae8406530bc"},"vehicle_type_id":"4","last_reported":1762542503,"current_range_meters":8800,"station_id":"ce4bh012rcd13ifvqcv0","pricing_plan_id":"cebpf4jnsgd1na2vs0mg"},{"bike_id":"e501d20a-8faf-42b2-ba98-fc40273f037f","system_id":"levelo_inurba_marseille","lat":43.29305,"lon":5.37456,"is_reserved":false,"is_disabled":false,"rental_uris":{"android":"levelo://app?vid=e501d20a-8faf-42b2-ba98-fc40273f037f","ios":"levelo://app?vid=e501d20a-8faf-42b2-ba98-fc40273f037f"},"vehicle_type_id":"4","last_reported":1762542503,"current_range_meters":9200,"station_id":"ce4bgi12rcd13ifvqb70","pricing_plan_id":"cebpf4jnsgd1na2vs0mg"},{"bike_id":"db71cd19-e2b8-44f3-80d3-f66e76264b13","system_id":"levelo_inurba_marseille","lat":43.30432,"lon":5.39748,"is_reserved":false,"is_disabled":false,"rental_uris":{"android":"levelo://app?vid=db71cd19-e2b8-44f3-80d3-f66e76264b13","ios":"levelo://app?vid=db71cd19-e2b8-44f3-80d3-f66e76264b13"},"vehicle_type_id":"4","last_reported":1762542503,"current_range_meters":9200,"station_id":"ce4bh092rcd13ifvqd20","pricing_plan_id":"cebpf4jnsgd1na2vs0mg"},{"bike_id":"23448943-7de4-44ea-9c4f-f0efac1bca05","system_id":"levelo_inurba_marseille","lat":43.26578,"lon":5.38995,"is_reserved":false,"is_disabled":false,"rental_uris":{"android":"levelo://app?vid=23448943-7de4-44ea-9c4f-f0efac1bca05","ios":"levelo://app?vid=23448943-7de4-44ea-9c4f-f0efac1bca05"},"vehicle_type_id":"4","last_reported":1762542503,"current_range_meters":9200,"station_id":"ce4bhe12rcd13ifvqf30","pricing_plan_id":"cebpf4jnsgd1na2vs0mg"},{"bike_id":"0e20a5d9-0ab3-4e71-a3ef-c9be28fc5551","system_id":"levelo_inurba_marseille","lat":43.28542,"lon":5.44106,"is_reserved":false,"is_disabled":false,"rental_uris":{"android":"levelo://app?vid=0e20a5d9-0ab3-4e71-a3ef-c9be28fc5551","ios":"levelo://app?vid=0e20a5d9-0ab3-4e71-a3ef-c9be28fc5551"},"vehicle_type_id":"4","last_reported":1762542503,"current_range_meters":9200,"station_id":"st_d3j3df2ikq2c7380ej80","pricing_plan_id":"cebpf4jnsgd1na2vs0mg"},{"bike_id":"87143375-d5fa-47c0-b2ad-67e27a78c1c8","system_id":"levelo_inurba_marseille","lat":43.29568,"lon":5.39968,"is_reserved":false,"is_disabled":false,"rental_uris":{"android":"levelo://app?vid=87143375-d5fa-47c0-b2ad-67e27a78c1c8","ios":"levelo://app?vid=87143375-d5fa-47c0-b2ad-67e27a78c1c8"},"vehicle_type_id":"4","last_reported":1762542503,"current_range_meters":9200,"station_id":"ce4bh312rcd13ifvqdj0","pricing_plan_id":"cebpf4jnsgd1na2vs0mg"},{"bike_id":"c4fdfc73-aa97-4c3f-b9cf-5b4dedbbb4a2","system_id":"levelo_inurba_marseille","lat":43.30324,"lon":5.40437,"is_reserved":false,"is_disabled":false,"rental_uris":{"android":"levelo://app?vid=c4fdfc73-aa97-4c3f-b9cf-5b4dedbbb4a2","ios":"levelo://app?vid=c4fdfc73-aa97-4c3f-b9cf-5b4dedbbb4a2"},"vehicle_type_id":"4","last_reported":1762542503,"current_range_meters":9200,"station_id":"ce4bh012rcd13ifvqd10","pricing_plan_id":"cebpf4jnsgd1na2vs0mg"},{"bike_id":"b41fe404-6aa1-427a-a4c9-09ff8bbfa030","system_id":"levelo_inurba_marseille","lat":43.279,"lon":5.38017,"is_reserved":false,"is_disabled":false,"rental_uris":{"android":"levelo://app?vid=b41fe404-6aa1-427a-a4c9-09ff8bbfa030","ios":"levelo://app?vid=b41fe404-6aa1-427a-a4c9-09ff8bbfa030"},"vehicle_type_id":"4","last_reported":1762542503,"current_range_meters":9600,"station_id":"ce4bhf92rcd13ifvqf50","pricing_plan_id":"cebpf4jnsgd1na2vs0mg"},{"bike_id":"2dcfe196-a3fa-4707-a8f4-76164ae5ea20","system_id":"levelo_inurba_marseille","lat":43.2949,"lon":5.43308,"is_reserved":false,"is_disabled":false,"rental_uris":{"android":"levelo://app?vid=2dcfe196-a3fa-4707-a8f4-76164ae5ea20","ios":"levelo://app?vid=2dcfe196-a3fa-4707-a8f4-76164ae5ea20"},"vehicle_type_id":"4","last_reported":1762542503,"current_range_meters":9600,"station_id":"st_d3j5ugp08ojc73fj9d10","pricing_plan_id":"cebpf4jnsgd1na2vs0mg"},{"bike_id":"a159ee46-1c49-4afe-8e82-ee499f325d71","system_id":"levelo_inurba_marseille","lat":43.30263,"lon":5.40076,"is_reserved":false,"is_disabled":false,"rental_uris":{"android":"levelo://app?vid=a159ee46-1c49-4afe-8e82-ee499f325d71","ios":"levelo://app?vid=a159ee46-1c49-4afe-8e82-ee499f325d71"},"vehicle_type_id":"4","last_reported":1762542503,"current_range_meters":9600,"station_id":"ce4bgvh2rcd13ifvqcs0","pricing_plan_id":"cebpf4jnsgd1na2vs0mg"},{"bike_id":"92db596c-bcbf-489d-9c64-c06ed2378457","system_id":"levelo_inurba_marseille","lat":43.26504,"lon":5.39539,"is_reserved":false,"is_disabled":false,"rental_uris":{"android":"levelo://app?vid=92db596c-bcbf-489d-9c64-c06ed2378457","ios":"levelo://app?vid=92db596c-bcbf-489d-9c64-c06ed2378457"},"vehicle_type_id":"4","last_reported":1762542503,"current_range_meters":10000,"station_id":"ce4bhi12rcd13ifvqfq0","pricing_plan_id":"cebpf4jnsgd1na2vs0mg"},{"bike_id":"67700c47-5d47-4d44-9dfc-435534eca5ef","system_id":"levelo_inurba_marseille","lat":43.2953,"lon":5.38537,"is_reserved":false,"is_disabled":false,"rental_uris":{"android":"levelo://app?vid=67700c47-5d47-4d44-9dfc-435534eca5ef","ios":"levelo://app?vid=67700c47-5d47-4d44-9dfc-435534eca5ef"},"vehicle_type_id":"4","last_reported":1762542503,"current_range_meters":10000,"station_id":"ce4bgih2rcd13ifvqba0","pricing_plan_id":"cebpf4jnsgd1na2vs0mg"},{"bike_id":"711b5184-06a1-46c6-b1ad-270408b914a4","system_id":"levelo_inurba_marseille","lat":43.30001,"lon":5.4097,"is_reserved":false,"is_disabled":false,"rental_uris":{"android":"levelo://app?vid=711b5184-06a1-46c6-b1ad-270408b914a4","ios":"levelo://app?vid=711b5184-06a1-46c6-b1ad-270408b914a4"},"vehicle_type_id":"4","last_reported":1762542503,"current_range_meters":10000,"station_id":"","pricing_plan_id":"cebpf4jnsgd1na2vs0mg"},{"bike_id":"553b0d5a-5793-42d0-ba13-e753d55cbf40","system_id":"levelo_inurba_marseille","lat":43.30152,"lon":5.380922,"is_reserved":false,"is_disabled":false,"rental_uris":{"android":"levelo://app?vid=553b0d5a-5793-42d0-ba13-e753d55cbf40","ios":"levelo://app?vid=553b0d5a-5793-42d0-ba13-e753d55cbf40"},"vehicle_type_id":"4","last_reported":1762542503,"current_range_meters":10000,"station_id":"ce4bgjp2rcd13ifvqbh0","pricing_plan_id":"cebpf4jnsgd1na2vs0mg"},{"bike_id":"676f9b84-4eb4-49d4-bb45-1c4cb446cd66","system_id":"levelo_inurba_marseille","lat":43.33037,"lon":5.39039,"is_reserved":false,"is_disabled":false,"rental_uris":{"android":"levelo://app?vid=676f9b84-4eb4-49d4-bb45-1c4cb446cd66","ios":"levelo://app?vid=676f9b84-4eb4-49d4-bb45-1c4cb446cd66"},"vehicle_type_id":"4","last_reported":1762542503,"current_range_meters":10000,"station_id":"ce4bhr92rcd13ifvqhrg","pricing_plan_id":"cebpf4jnsgd1na2vs0mg"},{"bike_id":"735af335-66bf-4340-87fb-78f795989dcc","system_id":"levelo_inurba_marseille","lat":43.29922,"lon":5.38248,"is_reserved":false,"is_disabled":false,"rental_uris":{"android":"levelo://app?vid=735af335-66bf-4340-87fb-78f795989dcc","ios":"levelo://app?vid=735af335-66bf-4340-87fb-78f795989dcc"},"vehicle_type_id":"4","last_reported":1762542503,"current_range_meters":10000,"station_id":"","pricing_plan_id":"cebpf4jnsgd1na2vs0mg"},{"bike_id":"19e315ec-31a9-4c7d-b9c9-2f394d4f9ac8","system_id":"levelo_inurba_marseille","lat":43.26933,"lon":5.40264,"is_reserved":false,"is_disabled":false,"rental_uris":{"android":"levelo://app?vid=19e315ec-31a9-4c7d-b9c9-2f394d4f9ac8","ios":"levelo://app?vid=19e315ec-31a9-4c7d-b9c9-2f394d4f9ac8"},"vehicle_type_id":"4","last_reported":1762542503,"current_range_meters":10000,"station_id":"cjm6bp8fraef2m0cb0m0","pricing_plan_id":"cebpf4jnsgd1na2vs0mg"},{"bike_id":"5c17ed12-8897-4f84-bbfc-85419a7f8038","system_id":"levelo_inurba_marseille","lat":43.27099,"lon":5.39415,"is_reserved":false,"is_disabled":false,"rental_uris":{"android":"levelo://app?vid=5c17ed12-8897-4f84-bbfc-85419a7f8038","ios":"levelo://app?vid=5c17ed12-8897-4f84-bbfc-85419a7f8038"},"vehicle_type_id":"4","last_reported":1762542503,"current_range_meters":10800,"station_id":"","pricing_plan_id":"cebpf4jnsgd1na2vs0mg"},{"bike_id":"470fbe84-4292-424a-81a1-ddc5d0fc9959","system_id":"levelo_inurba_marseille","lat":43.33756,"lon":5.37433,"is_reserved":false,"is_disabled":false,"rental_uris":{"android":"levelo://app?vid=470fbe84-4292-424a-81a1-ddc5d0fc9959","ios":"levelo://app?vid=470fbe84-4292-424a-81a1-ddc5d0fc9959"},"vehicle_type_id":"4","last_reported":1762542503,"current_range_meters":10800,"station_id":"","pricing_plan_id":"cebpf4jnsgd1na2vs0mg"},{"bike_id":"f3b9728a-d5dd-4800-a470-496c509b5639","system_id":"levelo_inurba_marseille","lat":43.26229,"lon":5.40452,"is_reserved":false,"is_disabled":true,"rental_uris":{"android":"levelo://app?vid=f3b9728a-d5dd-4800-a470-496c509b5639","ios":"levelo://app?vid=f3b9728a-d5dd-4800-a470-496c509b5639"},"vehicle_type_id":"4","last_reported":1762542503,"current_range_meters":10800,"station_id":"ce4bhmh2rcd13ifvqgmg","pricing_plan_id":"cebpf4jnsgd1na2vs0mg"},{"bike_id":"ff52e6d2-0126-428b-8241-f19a2cd5a014","system_id":"levelo_inurba_marseille","lat":43.269634,"lon":5.386453,"is_reserved":false,"is_disabled":true,"rental_uris":{"android":"levelo://app?vid=ff52e6d2-0126-428b-8241-f19a2cd5a014","ios":"levelo://app?vid=ff52e6d2-0126-428b-8241-f19a2cd5a014"},"vehicle_type_id":"4","last_reported":1762542503,"current_range_meters":10800,"station_id":"ce4bhh92rcd13ifvqfh0","pricing_plan_id":"cebpf4jnsgd1na2vs0mg"},{"bike_id":"ca0916ec-7a15-4f80-a852-23984a69b121","system_id":"levelo_inurba_marseille","lat":43.28669,"lon":5.38673,"is_reserved":false,"is_disabled":false,"rental_uris":{"android":"levelo://app?vid=ca0916ec-7a15-4f80-a852-23984a69b121","ios":"levelo://app?vid=ca0916ec-7a15-4f80-a852-23984a69b121"},"vehicle_type_id":"4","last_reported":1762542503,"current_range_meters":10800,"station_id":"ce4bh492rcd13ifvqdug","pricing_plan_id":"cebpf4jnsgd1na2vs0mg"},{"bike_id":"dfb5db16-3bd6-4652-817a-53ea6168925a","system_id":"levelo_inurba_marseille","lat":43.29245,"lon":5.36069,"is_reserved":false,"is_disabled":false,"rental_uris":{"android":"levelo://app?vid=dfb5db16-3bd6-4652-817a-53ea6168925a","ios":"levelo://app?vid=dfb5db16-3bd6-4652-817a-53ea6168925a"},"vehicle_type_id":"4","last_reported":1762542503,"current_range_meters":10800,"station_id":"ce4bhbh2rcd13ifvqeqg","pricing_plan_id":"cebpf4jnsgd1na2vs0mg"},{"bike_id":"5bee8f0f-57fe-4257-a72a-04a4967570b5","system_id":"levelo_inurba_marseille","lat":43.30028,"lon":5.37757,"is_reserved":false,"is_disabled":false,"rental_uris":{"android":"levelo://app?vid=5bee8f0f-57fe-4257-a72a-04a4967570b5","ios":"levelo://app?vid=5bee8f0f-57fe-4257-a72a-04a4967570b5"},"vehicle_type_id":"4","last_reported":1762542503,"current_range_meters":10800,"station_id":"","pricing_plan_id":"cebpf4jnsgd1na2vs0mg"},{"bike_id":"29a84cac-6254-4d5f-b354-c231ff833646","system_id":"levelo_inurba_marseille","lat":43.29868,"lon":5.38907,"is_reserved":false,"is_disabled":false,"rental_uris":{"android":"levelo://app?vid=29a84cac-6254-4d5f-b354-c231ff833646","ios":"levelo://app?vid=29a84cac-6254-4d5f-b354-c231ff833646"},"vehicle_type_id":"4","last_reported":1762542503,"current_range_meters":10800,"station_id":"ce4bh392rcd13ifvqdl0","pricing_plan_id":"cebpf4jnsgd1na2vs0mg"},{"bike_id":"c541d6c6-d855-480d-9416-ad1e26b18f93","system_id":"levelo_inurba_marseille","lat":43.29513,"lon":5.39394,"is_reserved":false,"is_disabled":true,"rental_uris":{"android":"levelo://app?vid=c541d6c6-d855-480d-9416-ad1e26b18f93","ios":"levelo://app?vid=c541d6c6-d855-480d-9416-ad1e26b18f93"},"vehicle_type_id":"4","last_reported":1762542503,"current_range_meters":10800,"station_id":"ce4bh292rcd13ifvqdf0","pricing_plan_id":"cebpf4jnsgd1na2vs0mg"},{"bike_id":"d14af61f-7c1e-4fab-8ebe-0abdc5508f27","system_id":"levelo_inurba_marseille","lat":43.30904,"lon":5.36848,"is_reserved":false,"is_disabled":false,"rental_uris":{"android":"levelo://app?vid=d14af61f-7c1e-4fab-8ebe-0abdc5508f27","ios":"levelo://app?vid=d14af61f-7c1e-4fab-8ebe-0abdc5508f27"},"vehicle_type_id":"4","last_reported":1762542503,"current_range_meters":11200,"station_id":"ce4bgn92rcd13ifvqbvg","pricing_plan_id":"cebpf4jnsgd1na2vs0mg"},{"bike_id":"a8ebbe84-7314-42eb-9811-349d00e0fe19","system_id":"levelo_inurba_marseille","lat":43.3012,"lon":5.43116,"is_reserved":false,"is_disabled":false,"rental_uris":{"android":"levelo://app?vid=a8ebbe84-7314-42eb-9811-349d00e0fe19","ios":"levelo://app?vid=a8ebbe84-7314-42eb-9811-349d00e0fe19"},"vehicle_type_id":"4","last_reported":1762542503,"current_range_meters":11200,"station_id":"st_d3js3co5814s73ftftug","pricing_plan_id":"cebpf4jnsgd1na2vs0mg"},{"bike_id":"8d6b4679-b45c-4150-843a-a405a67bf27e","system_id":"levelo_inurba_marseille","lat":43.281546,"lon":5.426415,"is_reserved":false,"is_disabled":false,"rental_uris":{"android":"levelo://app?vid=8d6b4679-b45c-4150-843a-a405a67bf27e","ios":"levelo://app?vid=8d6b4679-b45c-4150-843a-a405a67bf27e"},"vehicle_type_id":"4","last_reported":1762542503,"current_range_meters":11200,"station_id":"ce4bhnh2rcd13ifvqgug","pricing_plan_id":"cebpf4jnsgd1na2vs0mg"},{"bike_id":"ec44e195-cde1-4252-aadf-701a64256dd7","system_id":"levelo_inurba_marseille","lat":43.24635,"lon":5.43141,"is_reserved":false,"is_disabled":false,"rental_uris":{"android":"levelo://app?vid=ec44e195-cde1-4252-aadf-701a64256dd7","ios":"levelo://app?vid=ec44e195-cde1-4252-aadf-701a64256dd7"},"vehicle_type_id":"4","last_reported":1762542503,"current_range_meters":11200,"station_id":"st_d2m6c4gdas8pm72e190g","pricing_plan_id":"cebpf4jnsgd1na2vs0mg"},{"bike_id":"973a7ea2-1280-411a-bce1-0949fd6222d5","system_id":"levelo_inurba_marseille","lat":43.28673,"lon":5.38679,"is_reserved":false,"is_disabled":false,"rental_uris":{"android":"levelo://app?vid=973a7ea2-1280-411a-bce1-0949fd6222d5","ios":"levelo://app?vid=973a7ea2-1280-411a-bce1-0949fd6222d5"},"vehicle_type_id":"4","last_reported":1762542503,"current_range_meters":11200,"station_id":"ce4bh492rcd13ifvqdug","pricing_plan_id":"cebpf4jnsgd1na2vs0mg"},{"bike_id":"f6aade31-cf85-47a9-9bbd-610e1f371a04","system_id":"levelo_inurba_marseille","lat":43.24181,"lon":5.39732,"is_reserved":false,"is_disabled":false,"rental_uris":{"android":"levelo://app?vid=f6aade31-cf85-47a9-9bbd-610e1f371a04","ios":"levelo://app?vid=f6aade31-cf85-47a9-9bbd-610e1f371a04"},"vehicle_type_id":"4","last_reported":1762542503,"current_range_meters":11200,"station_id":"ce4bhn12rcd13ifvqgpg","pricing_plan_id":"cebpf4jnsgd1na2vs0mg"},{"bike_id":"6eca836b-8e76-4ee3-b249-ee2ba6388d48","system_id":"levelo_inurba_marseille","lat":43.27378,"lon":5.3627,"is_reserved":false,"is_disabled":false,"rental_uris":{"android":"levelo://app?vid=6eca836b-8e76-4ee3-b249-ee2ba6388d48","ios":"levelo://app?vid=6eca836b-8e76-4ee3-b249-ee2ba6388d48"},"vehicle_type_id":"4","last_reported":1762542503,"current_range_meters":11200,"station_id":"ce4bhbh2rcd13ifvqeo0","pricing_plan_id":"cebpf4jnsgd1na2vs0mg"},{"bike_id":"0d4c4208-c858-4eb1-ac9a-3f4f46c8be3a","system_id":"levelo_inurba_marseille","lat":43.318881,"lon":5.407395,"is_reserved":false,"is_disabled":false,"rental_uris":{"android":"levelo://app?vid=0d4c4208-c858-4eb1-ac9a-3f4f46c8be3a","ios":"levelo://app?vid=0d4c4208-c858-4eb1-ac9a-3f4f46c8be3a"},"vehicle_type_id":"4","last_reported":1762542503,"current_range_meters":11200,"station_id":"ce4bhq12rcd13ifvqhig","pricing_plan_id":"cebpf4jnsgd1na2vs0mg"},{"bike_id":"a32f9c1f-dfc7-4129-ade7-29bb2599baf7","system_id":"levelo_inurba_marseille","lat":43.29807,"lon":5.38102,"is_reserved":false,"is_disabled":false,"rental_uris":{"android":"levelo://app?vid=a32f9c1f-dfc7-4129-ade7-29bb2599baf7","ios":"levelo://app?vid=a32f9c1f-dfc7-4129-ade7-29bb2599baf7"},"vehicle_type_id":"4","last_reported":1762542503,"current_range_meters":11200,"station_id":"ce4bgip2rcd13ifvqbb0","pricing_plan_id":"cebpf4jnsgd1na2vs0mg"},{"bike_id":"06d8a6d4-cde1-4774-80e5-91004a4fe543","system_id":"levelo_inurba_marseille","lat":43.298446,"lon":5.362831,"is_reserved":false,"is_disabled":false,"rental_uris":{"android":"levelo://app?vid=06d8a6d4-cde1-4774-80e5-91004a4fe543","ios":"levelo://app?vid=06d8a6d4-cde1-4774-80e5-91004a4fe543"},"vehicle_type_id":"4","last_reported":1762542503,"current_range_meters":11600,"station_id":"ce4bgpp2rcd13ifvqc3g","pricing_plan_id":"cebpf4jnsgd1na2vs0mg"},{"bike_id":"c754cce7-65c7-4e53-acb8-6a9a0aa7df75","system_id":"levelo_inurba_marseille","lat":43.29526,"lon":5.38545,"is_reserved":false,"is_disabled":false,"rental_uris":{"android":"levelo://app?vid=c754cce7-65c7-4e53-acb8-6a9a0aa7df75","ios":"levelo://app?vid=c754cce7-65c7-4e53-acb8-6a9a0aa7df75"},"vehicle_type_id":"4","last_reported":1762542503,"current_range_meters":11600,"station_id":"ce4bgih2rcd13ifvqba0","pricing_plan_id":"cebpf4jnsgd1na2vs0mg"},{"bike_id":"2214147d-b2bc-47a5-8262-b29a2f3cbd90","system_id":"levelo_inurba_marseille","lat":43.28859,"lon":5.42514,"is_reserved":false,"is_disabled":false,"rental_uris":{"android":"levelo://app?vid=2214147d-b2bc-47a5-8262-b29a2f3cbd90","ios":"levelo://app?vid=2214147d-b2bc-47a5-8262-b29a2f3cbd90"},"vehicle_type_id":"4","last_reported":1762542503,"current_range_meters":11600,"station_id":"st_d3b462108ojc7389ooeg","pricing_plan_id":"cebpf4jnsgd1na2vs0mg"},{"bike_id":"b6d2ab96-6a4b-470c-9c25-1ecd0d1456f3","system_id":"levelo_inurba_marseille","lat":43.30331,"lon":5.40422,"is_reserved":false,"is_disabled":false,"rental_uris":{"android":"levelo://app?vid=b6d2ab96-6a4b-470c-9c25-1ecd0d1456f3","ios":"levelo://app?vid=b6d2ab96-6a4b-470c-9c25-1ecd0d1456f3"},"vehicle_type_id":"4","last_reported":1762542503,"current_range_meters":11600,"station_id":"ce4bh012rcd13ifvqd10","pricing_plan_id":"cebpf4jnsgd1na2vs0mg"},{"bike_id":"2e0f5b64-65ed-42b3-9deb-fc4f03eedfcc","system_id":"levelo_inurba_marseille","lat":43.28536,"lon":5.44111,"is_reserved":false,"is_disabled":false,"rental_uris":{"android":"levelo://app?vid=2e0f5b64-65ed-42b3-9deb-fc4f03eedfcc","ios":"levelo://app?vid=2e0f5b64-65ed-42b3-9deb-fc4f03eedfcc"},"vehicle_type_id":"4","last_reported":1762542503,"current_range_meters":11600,"station_id":"st_d3j3df2ikq2c7380ej80","pricing_plan_id":"cebpf4jnsgd1na2vs0mg"},{"bike_id":"d0c92340-00bc-4b12-9091-6e3db0827ad0","system_id":"levelo_inurba_marseille","lat":43.31707,"lon":5.37739,"is_reserved":false,"is_disabled":false,"rental_uris":{"android":"levelo://app?vid=d0c92340-00bc-4b12-9091-6e3db0827ad0","ios":"levelo://app?vid=d0c92340-00bc-4b12-9091-6e3db0827ad0"},"vehicle_type_id":"4","last_reported":1762542503,"current_range_meters":11600,"station_id":"ce4bgth2rcd13ifvqch0","pricing_plan_id":"cebpf4jnsgd1na2vs0mg"},{"bike_id":"9fb4c85b-b944-4739-883c-9c9af0aa5a74","system_id":"levelo_inurba_marseille","lat":43.24639,"lon":5.43142,"is_reserved":false,"is_disabled":false,"rental_uris":{"android":"levelo://app?vid=9fb4c85b-b944-4739-883c-9c9af0aa5a74","ios":"levelo://app?vid=9fb4c85b-b944-4739-883c-9c9af0aa5a74"},"vehicle_type_id":"4","last_reported":1762542503,"current_range_meters":12000,"station_id":"st_d2m6c4gdas8pm72e190g","pricing_plan_id":"cebpf4jnsgd1na2vs0mg"},{"bike_id":"7445542b-a131-4a79-8f44-1d5142ee5b2c","system_id":"levelo_inurba_marseille","lat":43.2794,"lon":5.41047,"is_reserved":false,"is_disabled":false,"rental_uris":{"android":"levelo://app?vid=7445542b-a131-4a79-8f44-1d5142ee5b2c","ios":"levelo://app?vid=7445542b-a131-4a79-8f44-1d5142ee5b2c"},"vehicle_type_id":"4","last_reported":1762542503,"current_range_meters":12000,"station_id":"ce4bhnp2rcd13ifvqh0g","pricing_plan_id":"cebpf4jnsgd1na2vs0mg"},{"bike_id":"e29dcacd-c5cb-4908-af39-1ab6b3c10bce","system_id":"levelo_inurba_marseille","lat":43.28103,"lon":5.37848,"is_reserved":false,"is_disabled":false,"rental_uris":{"android":"levelo://app?vid=e29dcacd-c5cb-4908-af39-1ab6b3c10bce","ios":"levelo://app?vid=e29dcacd-c5cb-4908-af39-1ab6b3c10bce"},"vehicle_type_id":"4","last_reported":1762542503,"current_range_meters":12000,"station_id":"ce4bha12rcd13ifvqee0","pricing_plan_id":"cebpf4jnsgd1na2vs0mg"},{"bike_id":"23d4b732-c785-4a74-a220-93191f06591d","system_id":"levelo_inurba_marseille","lat":43.21201,"lon":5.35074,"is_reserved":false,"is_disabled":true,"rental_uris":{"android":"levelo://app?vid=23d4b732-c785-4a74-a220-93191f06591d","ios":"levelo://app?vid=23d4b732-c785-4a74-a220-93191f06591d"},"vehicle_type_id":"4","last_reported":1762542503,"current_range_meters":12000,"station_id":"st_cvj6sg6p6f1abm77japg","pricing_plan_id":"cebpf4jnsgd1na2vs0mg"},{"bike_id":"7ad758a0-e110-4ce4-aeb2-744871a6c07d","system_id":"levelo_inurba_marseille","lat":43.2953,"lon":5.39041,"is_reserved":false,"is_disabled":false,"rental_uris":{"android":"levelo://app?vid=7ad758a0-e110-4ce4-aeb2-744871a6c07d","ios":"levelo://app?vid=7ad758a0-e110-4ce4-aeb2-744871a6c07d"},"vehicle_type_id":"4","last_reported":1762542503,"current_range_meters":12400,"station_id":"ce4bh3p2rcd13ifvqdp0","pricing_plan_id":"cebpf4jnsgd1na2vs0mg"},{"bike_id":"2c54771e-bc90-4fcb-a7c7-984aebd4a9b2","system_id":"levelo_inurba_marseille","lat":43.30131,"lon":5.38792,"is_reserved":false,"is_disabled":false,"rental_uris":{"android":"levelo://app?vid=2c54771e-bc90-4fcb-a7c7-984aebd4a9b2","ios":"levelo://app?vid=2c54771e-bc90-4fcb-a7c7-984aebd4a9b2"},"vehicle_type_id":"4","last_reported":1762542503,"current_range_meters":12400,"station_id":"ce4bghh2rcd13ifvqb60","pricing_plan_id":"cebpf4jnsgd1na2vs0mg"},{"bike_id":"7c392732-2900-41fd-8c6d-e5b49cdf67b5","system_id":"levelo_inurba_marseille","lat":43.29712,"lon":5.3824,"is_reserved":false,"is_disabled":false,"rental_uris":{"android":"levelo://app?vid=7c392732-2900-41fd-8c6d-e5b49cdf67b5","ios":"levelo://app?vid=7c392732-2900-41fd-8c6d-e5b49cdf67b5"},"vehicle_type_id":"4","last_reported":1762542503,"current_range_meters":12400,"station_id":"","pricing_plan_id":"cebpf4jnsgd1na2vs0mg"},{"bike_id":"c9265478-63fe-4ca8-9a69-3699c09068c3","system_id":"levelo_inurba_marseille","lat":43.29604,"lon":5.38095,"is_reserved":false,"is_disabled":false,"rental_uris":{"android":"levelo://app?vid=c9265478-63fe-4ca8-9a69-3699c09068c3","ios":"levelo://app?vid=c9265478-63fe-4ca8-9a69-3699c09068c3"},"vehicle_type_id":"4","last_reported":1762542503,"current_range_meters":12400,"station_id":"ce4bgl12rcd13ifvqbo0","pricing_plan_id":"cebpf4jnsgd1na2vs0mg"},{"bike_id":"2ee2ac70-6aed-4bd1-8211-ad71f6dc31c0","system_id":"levelo_inurba_marseille","lat":43.31708,"lon":5.37747,"is_reserved":false,"is_disabled":false,"rental_uris":{"android":"levelo://app?vid=2ee2ac70-6aed-4bd1-8211-ad71f6dc31c0","ios":"levelo://app?vid=2ee2ac70-6aed-4bd1-8211-ad71f6dc31c0"},"vehicle_type_id":"4","last_reported":1762542503,"current_range_meters":12400,"station_id":"ce4bgth2rcd13ifvqch0","pricing_plan_id":"cebpf4jnsgd1na2vs0mg"},{"bike_id":"b2b3f5b8-c60c-45ef-9e9c-7429580c9f8c","system_id":"levelo_inurba_marseille","lat":43.28706,"lon":5.39984,"is_reserved":false,"is_disabled":false,"rental_uris":{"android":"levelo://app?vid=b2b3f5b8-c60c-45ef-9e9c-7429580c9f8c","ios":"levelo://app?vid=b2b3f5b8-c60c-45ef-9e9c-7429580c9f8c"},"vehicle_type_id":"4","last_reported":1762542503,"current_range_meters":12400,"station_id":"ce4bho92rcd13ifvqh3g","pricing_plan_id":"cebpf4jnsgd1na2vs0mg"},{"bike_id":"f4b85d88-cacd-40f7-ac6c-90581ac8f45c","system_id":"levelo_inurba_marseille","lat":43.279421,"lon":5.410513,"is_reserved":false,"is_disabled":false,"rental_uris":{"android":"levelo://app?vid=f4b85d88-cacd-40f7-ac6c-90581ac8f45c","ios":"levelo://app?vid=f4b85d88-cacd-40f7-ac6c-90581ac8f45c"},"vehicle_type_id":"4","last_reported":1762542503,"current_range_meters":12800,"station_id":"ce4bhnp2rcd13ifvqh0g","pricing_plan_id":"cebpf4jnsgd1na2vs0mg"},{"bike_id":"beea4fa7-5641-4ca9-bc3d-923fcc0b34fe","system_id":"levelo_inurba_marseille","lat":43.251099,"lon":5.403272,"is_reserved":false,"is_disabled":false,"rental_uris":{"android":"levelo://app?vid=beea4fa7-5641-4ca9-bc3d-923fcc0b34fe","ios":"levelo://app?vid=beea4fa7-5641-4ca9-bc3d-923fcc0b34fe"},"vehicle_type_id":"4","last_reported":1762542503,"current_range_meters":12800,"station_id":"ce4bhlh2rcd13ifvqgig","pricing_plan_id":"cebpf4jnsgd1na2vs0mg"},{"bike_id":"62e247e4-a8a4-4b33-8a85-95dc8b05a046","system_id":"levelo_inurba_marseille","lat":43.280433,"lon":5.369487,"is_reserved":false,"is_disabled":false,"rental_uris":{"android":"levelo://app?vid=62e247e4-a8a4-4b33-8a85-95dc8b05a046","ios":"levelo://app?vid=62e247e4-a8a4-4b33-8a85-95dc8b05a046"},"vehicle_type_id":"4","last_reported":1762542503,"current_range_meters":12800,"station_id":"ce4bha12rcd13ifvqef0","pricing_plan_id":"cebpf4jnsgd1na2vs0mg"},{"bike_id":"3a6b939b-8483-4a00-8652-d825cdd856d7","system_id":"levelo_inurba_marseille","lat":43.2256,"lon":5.41632,"is_reserved":false,"is_disabled":false,"rental_uris":{"android":"levelo://app?vid=3a6b939b-8483-4a00-8652-d825cdd856d7","ios":"levelo://app?vid=3a6b939b-8483-4a00-8652-d825cdd856d7"},"vehicle_type_id":"4","last_reported":1762542503,"current_range_meters":12800,"station_id":"st_d2o4gvlbi1j2169b742g","pricing_plan_id":"cebpf4jnsgd1na2vs0mg"},{"bike_id":"05c639a2-6660-40ed-a12f-85b485fe188e","system_id":"levelo_inurba_marseille","lat":43.29217,"lon":5.3576,"is_reserved":false,"is_disabled":false,"rental_uris":{"android":"levelo://app?vid=05c639a2-6660-40ed-a12f-85b485fe188e","ios":"levelo://app?vid=05c639a2-6660-40ed-a12f-85b485fe188e"},"vehicle_type_id":"4","last_reported":1762542503,"current_range_meters":13600,"station_id":"ce4bhb12rcd13ifvqel0","pricing_plan_id":"cebpf4jnsgd1na2vs0mg"},{"bike_id":"f47c3da6-c029-41b4-8242-9b3b8c7c5bf1","system_id":"levelo_inurba_marseille","lat":43.29571,"lon":5.39964,"is_reserved":false,"is_disabled":false,"rental_uris":{"android":"levelo://app?vid=f47c3da6-c029-41b4-8242-9b3b8c7c5bf1","ios":"levelo://app?vid=f47c3da6-c029-41b4-8242-9b3b8c7c5bf1"},"vehicle_type_id":"4","last_reported":1762542503,"current_range_meters":13600,"station_id":"ce4bh312rcd13ifvqdj0","pricing_plan_id":"cebpf4jnsgd1na2vs0mg"},{"bike_id":"a88522c2-7f31-460d-8b59-1c10109fed19","system_id":"levelo_inurba_marseille","lat":43.31435,"lon":5.37582,"is_reserved":false,"is_disabled":false,"rental_uris":{"android":"levelo://app?vid=a88522c2-7f31-460d-8b59-1c10109fed19","ios":"levelo://app?vid=a88522c2-7f31-460d-8b59-1c10109fed19"},"vehicle_type_id":"4","last_reported":1762542503,"current_range_meters":13600,"station_id":"","pricing_plan_id":"cebpf4jnsgd1na2vs0mg"},{"bike_id":"3771f242-ebc1-4678-84d4-230be10e9f54","system_id":"levelo_inurba_marseille","lat":43.25335,"lon":5.42173,"is_reserved":false,"is_disabled":false,"rental_uris":{"android":"levelo://app?vid=3771f242-ebc1-4678-84d4-230be10e9f54","ios":"levelo://app?vid=3771f242-ebc1-4678-84d4-230be10e9f54"},"vehicle_type_id":"4","last_reported":1762542503,"current_range_meters":13600,"station_id":"st_d2m65c5bi1j21697t3ng","pricing_plan_id":"cebpf4jnsgd1na2vs0mg"},{"bike_id":"dc68f81c-0416-45ac-a446-9c3fb2a838c2","system_id":"levelo_inurba_marseille","lat":43.29163,"lon":5.37156,"is_reserved":false,"is_disabled":false,"rental_uris":{"android":"levelo://app?vid=dc68f81c-0416-45ac-a446-9c3fb2a838c2","ios":"levelo://app?vid=dc68f81c-0416-45ac-a446-9c3fb2a838c2"},"vehicle_type_id":"4","last_reported":1762542503,"current_range_meters":13600,"station_id":"ce4bha92rcd13ifvqeh0","pricing_plan_id":"cebpf4jnsgd1na2vs0mg"},{"bike_id":"cddba67f-c788-4913-a40f-497f7001f088","system_id":"levelo_inurba_marseille","lat":43.295227,"lon":5.385448,"is_reserved":false,"is_disabled":false,"rental_uris":{"android":"levelo://app?vid=cddba67f-c788-4913-a40f-497f7001f088","ios":"levelo://app?vid=cddba67f-c788-4913-a40f-497f7001f088"},"vehicle_type_id":"4","last_reported":1762542503,"current_range_meters":13600,"station_id":"ce4bguh2rcd13ifvqckg","pricing_plan_id":"cebpf4jnsgd1na2vs0mg"},{"bike_id":"669a8e0b-cf8d-435e-9893-b6910c65c14f","system_id":"levelo_inurba_marseille","lat":43.29705,"lon":5.36609,"is_reserved":false,"is_disabled":false,"rental_uris":{"android":"levelo://app?vid=669a8e0b-cf8d-435e-9893-b6910c65c14f","ios":"levelo://app?vid=669a8e0b-cf8d-435e-9893-b6910c65c14f"},"vehicle_type_id":"4","last_reported":1762542503,"current_range_meters":13600,"station_id":"ce4bgn12rcd13ifvqbt0","pricing_plan_id":"cebpf4jnsgd1na2vs0mg"},{"bike_id":"310115a0-7bf2-4a4a-9d53-56bf6918e4d0","system_id":"levelo_inurba_marseille","lat":43.28476,"lon":5.48405,"is_reserved":false,"is_disabled":false,"rental_uris":{"android":"levelo://app?vid=310115a0-7bf2-4a4a-9d53-56bf6918e4d0","ios":"levelo://app?vid=310115a0-7bf2-4a4a-9d53-56bf6918e4d0"},"vehicle_type_id":"4","last_reported":1762542503,"current_range_meters":14000,"station_id":"st_d3svhcjqgbts73a3dn0g","pricing_plan_id":"cebpf4jnsgd1na2vs0mg"},{"bike_id":"19b2c511-8dc4-46ee-8671-edb00e420145","system_id":"levelo_inurba_marseille","lat":43.29513,"lon":5.39017,"is_reserved":false,"is_disabled":false,"rental_uris":{"android":"levelo://app?vid=19b2c511-8dc4-46ee-8671-edb00e420145","ios":"levelo://app?vid=19b2c511-8dc4-46ee-8671-edb00e420145"},"vehicle_type_id":"4","last_reported":1762542503,"current_range_meters":14000,"station_id":"ce4bh3p2rcd13ifvqdp0","pricing_plan_id":"cebpf4jnsgd1na2vs0mg"},{"bike_id":"78bd5f74-b07f-4aac-b566-26ecec6fd5df","system_id":"levelo_inurba_marseille","lat":43.30687,"lon":5.38037,"is_reserved":false,"is_disabled":false,"rental_uris":{"android":"levelo://app?vid=78bd5f74-b07f-4aac-b566-26ecec6fd5df","ios":"levelo://app?vid=78bd5f74-b07f-4aac-b566-26ecec6fd5df"},"vehicle_type_id":"4","last_reported":1762542503,"current_range_meters":14000,"station_id":"","pricing_plan_id":"cebpf4jnsgd1na2vs0mg"},{"bike_id":"0a5cc908-0da3-4201-b575-9af4666aa52a","system_id":"levelo_inurba_marseille","lat":43.29281,"lon":5.40118,"is_reserved":false,"is_disabled":false,"rental_uris":{"android":"levelo://app?vid=0a5cc908-0da3-4201-b575-9af4666aa52a","ios":"levelo://app?vid=0a5cc908-0da3-4201-b575-9af4666aa52a"},"vehicle_type_id":"4","last_reported":1762542503,"current_range_meters":14000,"station_id":"ce4bh312rcd13ifvqdk0","pricing_plan_id":"cebpf4jnsgd1na2vs0mg"},{"bike_id":"d53acc58-25de-4bab-96aa-555c1f973b51","system_id":"levelo_inurba_marseille","lat":43.2953,"lon":5.38545,"is_reserved":false,"is_disabled":false,"rental_uris":{"android":"levelo://app?vid=d53acc58-25de-4bab-96aa-555c1f973b51","ios":"levelo://app?vid=d53acc58-25de-4bab-96aa-555c1f973b51"},"vehicle_type_id":"4","last_reported":1762542503,"current_range_meters":14000,"station_id":"ce4bgih2rcd13ifvqba0","pricing_plan_id":"cebpf4jnsgd1na2vs0mg"},{"bike_id":"a28d514c-265a-4453-9ca1-6773ec2c0f4c","system_id":"levelo_inurba_marseille","lat":43.29968,"lon":5.38497,"is_reserved":false,"is_disabled":false,"rental_uris":{"android":"levelo://app?vid=a28d514c-265a-4453-9ca1-6773ec2c0f4c","ios":"levelo://app?vid=a28d514c-265a-4453-9ca1-6773ec2c0f4c"},"vehicle_type_id":"4","last_reported":1762542503,"current_range_meters":14400,"station_id":"ce4bgj92rcd13ifvqbd0","pricing_plan_id":"cebpf4jnsgd1na2vs0mg"},{"bike_id":"22918fb7-a391-4f35-8c21-8eb60e2ab03f","system_id":"levelo_inurba_marseille","lat":43.225504,"lon":5.416405,"is_reserved":false,"is_disabled":false,"rental_uris":{"android":"levelo://app?vid=22918fb7-a391-4f35-8c21-8eb60e2ab03f","ios":"levelo://app?vid=22918fb7-a391-4f35-8c21-8eb60e2ab03f"},"vehicle_type_id":"4","last_reported":1762542503,"current_range_meters":14400,"station_id":"st_d2o4gvlbi1j2169b742g","pricing_plan_id":"cebpf4jnsgd1na2vs0mg"},{"bike_id":"7eea423d-0b12-4c70-82bf-8ece71dc07a3","system_id":"levelo_inurba_marseille","lat":43.23195,"lon":5.35554,"is_reserved":false,"is_disabled":false,"rental_uris":{"android":"levelo://app?vid=7eea423d-0b12-4c70-82bf-8ece71dc07a3","ios":"levelo://app?vid=7eea423d-0b12-4c70-82bf-8ece71dc07a3"},"vehicle_type_id":"4","last_reported":1762542503,"current_range_meters":14400,"station_id":"ce4bhu92rcd13ifvqi70","pricing_plan_id":"cebpf4jnsgd1na2vs0mg"},{"bike_id":"755efed8-d4cd-4607-b2ac-87dbb7cf66a0","system_id":"levelo_inurba_marseille","lat":43.31682,"lon":5.37778,"is_reserved":false,"is_disabled":false,"rental_uris":{"android":"levelo://app?vid=755efed8-d4cd-4607-b2ac-87dbb7cf66a0","ios":"levelo://app?vid=755efed8-d4cd-4607-b2ac-87dbb7cf66a0"},"vehicle_type_id":"4","last_reported":1762542503,"current_range_meters":14400,"station_id":"ce4bgth2rcd13ifvqch0","pricing_plan_id":"cebpf4jnsgd1na2vs0mg"},{"bike_id":"6e094503-65d7-46f8-bf4a-716cb65bc27b","system_id":"levelo_inurba_marseille","lat":43.32058,"lon":5.41549,"is_reserved":false,"is_disabled":false,"rental_uris":{"android":"levelo://app?vid=6e094503-65d7-46f8-bf4a-716cb65bc27b","ios":"levelo://app?vid=6e094503-65d7-46f8-bf4a-716cb65bc27b"},"vehicle_type_id":"4","last_reported":1762542503,"current_range_meters":14400,"station_id":"ce4bhq92rcd13ifvqhkg","pricing_plan_id":"cebpf4jnsgd1na2vs0mg"},{"bike_id":"dff6b6ac-b7da-4e65-b854-fe9dc1ccc19c","system_id":"levelo_inurba_marseille","lat":43.32042,"lon":5.4157,"is_reserved":false,"is_disabled":true,"rental_uris":{"android":"levelo://app?vid=dff6b6ac-b7da-4e65-b854-fe9dc1ccc19c","ios":"levelo://app?vid=dff6b6ac-b7da-4e65-b854-fe9dc1ccc19c"},"vehicle_type_id":"4","last_reported":1762542503,"current_range_meters":14400,"station_id":"ce4bhq92rcd13ifvqhkg","pricing_plan_id":"cebpf4jnsgd1na2vs0mg"},{"bike_id":"401209f9-1098-407a-9275-182f209531f6","system_id":"levelo_inurba_marseille","lat":43.29575,"lon":5.42222,"is_reserved":false,"is_disabled":false,"rental_uris":{"android":"levelo://app?vid=401209f9-1098-407a-9275-182f209531f6","ios":"levelo://app?vid=401209f9-1098-407a-9275-182f209531f6"},"vehicle_type_id":"4","last_reported":1762542503,"current_range_meters":14400,"station_id":"","pricing_plan_id":"cebpf4jnsgd1na2vs0mg"},{"bike_id":"cdda64f5-beb1-417e-b4eb-e960c588681c","system_id":"levelo_inurba_marseille","lat":43.33534,"lon":5.37462,"is_reserved":false,"is_disabled":false,"rental_uris":{"android":"levelo://app?vid=cdda64f5-beb1-417e-b4eb-e960c588681c","ios":"levelo://app?vid=cdda64f5-beb1-417e-b4eb-e960c588681c"},"vehicle_type_id":"4","last_reported":1762542503,"current_range_meters":14400,"station_id":"st_d46tts09ee8s73dlu43g","pricing_plan_id":"cebpf4jnsgd1na2vs0mg"},{"bike_id":"7a399f82-0892-45c9-a828-80f939bd334e","system_id":"levelo_inurba_marseille","lat":43.273773,"lon":5.362626,"is_reserved":false,"is_disabled":false,"rental_uris":{"android":"levelo://app?vid=7a399f82-0892-45c9-a828-80f939bd334e","ios":"levelo://app?vid=7a399f82-0892-45c9-a828-80f939bd334e"},"vehicle_type_id":"4","last_reported":1762542503,"current_range_meters":14800,"station_id":"ce4bhbh2rcd13ifvqeo0","pricing_plan_id":"cebpf4jnsgd1na2vs0mg"},{"bike_id":"4548bfb3-06f4-4b10-aaa4-465cca5b7e05","system_id":"levelo_inurba_marseille","lat":43.28539,"lon":5.44105,"is_reserved":false,"is_disabled":false,"rental_uris":{"android":"levelo://app?vid=4548bfb3-06f4-4b10-aaa4-465cca5b7e05","ios":"levelo://app?vid=4548bfb3-06f4-4b10-aaa4-465cca5b7e05"},"vehicle_type_id":"4","last_reported":1762542503,"current_range_meters":14800,"station_id":"st_d3j3df2ikq2c7380ej80","pricing_plan_id":"cebpf4jnsgd1na2vs0mg"},{"bike_id":"fa098071-282d-4a01-b56b-00e4e80202ef","system_id":"levelo_inurba_marseille","lat":43.29802,"lon":5.40411,"is_reserved":false,"is_disabled":false,"rental_uris":{"android":"levelo://app?vid=fa098071-282d-4a01-b56b-00e4e80202ef","ios":"levelo://app?vid=fa098071-282d-4a01-b56b-00e4e80202ef"},"vehicle_type_id":"4","last_reported":1762542503,"current_range_meters":14800,"station_id":"ce4bh112rcd13ifvqd90","pricing_plan_id":"cebpf4jnsgd1na2vs0mg"},{"bike_id":"9af0687b-3e79-4e11-b844-dd239618aeba","system_id":"levelo_inurba_marseille","lat":43.28861,"lon":5.42516,"is_reserved":false,"is_disabled":false,"rental_uris":{"android":"levelo://app?vid=9af0687b-3e79-4e11-b844-dd239618aeba","ios":"levelo://app?vid=9af0687b-3e79-4e11-b844-dd239618aeba"},"vehicle_type_id":"4","last_reported":1762542503,"current_range_meters":14800,"station_id":"st_d3b462108ojc7389ooeg","pricing_plan_id":"cebpf4jnsgd1na2vs0mg"},{"bike_id":"e9e51165-35a4-4db2-92e4-9d38dbbcdc82","system_id":"levelo_inurba_marseille","lat":43.27811,"lon":5.4071,"is_reserved":false,"is_disabled":false,"rental_uris":{"android":"levelo://app?vid=e9e51165-35a4-4db2-92e4-9d38dbbcdc82","ios":"levelo://app?vid=e9e51165-35a4-4db2-92e4-9d38dbbcdc82"},"vehicle_type_id":"4","last_reported":1762542503,"current_range_meters":14800,"station_id":"ce4bhnh2rcd13ifvqgtg","pricing_plan_id":"cebpf4jnsgd1na2vs0mg"},{"bike_id":"190e9e32-4010-4d4f-90ec-7d0af3555163","system_id":"levelo_inurba_marseille","lat":43.26229,"lon":5.40448,"is_reserved":false,"is_disabled":false,"rental_uris":{"android":"levelo://app?vid=190e9e32-4010-4d4f-90ec-7d0af3555163","ios":"levelo://app?vid=190e9e32-4010-4d4f-90ec-7d0af3555163"},"vehicle_type_id":"4","last_reported":1762542503,"current_range_meters":14800,"station_id":"ce4bhmh2rcd13ifvqgmg","pricing_plan_id":"cebpf4jnsgd1na2vs0mg"},{"bike_id":"3dc57022-214a-4895-b3f5-73d1bdd5feea","system_id":"levelo_inurba_marseille","lat":43.30722,"lon":5.42436,"is_reserved":false,"is_disabled":false,"rental_uris":{"android":"levelo://app?vid=3dc57022-214a-4895-b3f5-73d1bdd5feea","ios":"levelo://app?vid=3dc57022-214a-4895-b3f5-73d1bdd5feea"},"vehicle_type_id":"4","last_reported":1762542503,"current_range_meters":15200,"station_id":"st_cvj6ca6bvosntc0bfgr0","pricing_plan_id":"cebpf4jnsgd1na2vs0mg"},{"bike_id":"fb9e9562-4e68-4b32-aa51-0d0a7bffba5e","system_id":"levelo_inurba_marseille","lat":43.24662,"lon":5.38174,"is_reserved":false,"is_disabled":false,"rental_uris":{"android":"levelo://app?vid=fb9e9562-4e68-4b32-aa51-0d0a7bffba5e","ios":"levelo://app?vid=fb9e9562-4e68-4b32-aa51-0d0a7bffba5e"},"vehicle_type_id":"4","last_reported":1762542503,"current_range_meters":15200,"station_id":"ce4bhih2rcd13ifvqfr0","pricing_plan_id":"cebpf4jnsgd1na2vs0mg"},{"bike_id":"b712b430-c00d-402e-ab5a-330eb97a6473","system_id":"levelo_inurba_marseille","lat":43.32368,"lon":5.38883,"is_reserved":false,"is_disabled":false,"rental_uris":{"android":"levelo://app?vid=b712b430-c00d-402e-ab5a-330eb97a6473","ios":"levelo://app?vid=b712b430-c00d-402e-ab5a-330eb97a6473"},"vehicle_type_id":"4","last_reported":1762542503,"current_range_meters":15200,"station_id":"ce4bhqp2rcd13ifvqhog","pricing_plan_id":"cebpf4jnsgd1na2vs0mg"},{"bike_id":"cbaf6e70-be37-4c92-8bb7-677f9be0a37d","system_id":"levelo_inurba_marseille","lat":43.30127,"lon":5.43111,"is_reserved":false,"is_disabled":false,"rental_uris":{"android":"levelo://app?vid=cbaf6e70-be37-4c92-8bb7-677f9be0a37d","ios":"levelo://app?vid=cbaf6e70-be37-4c92-8bb7-677f9be0a37d"},"vehicle_type_id":"4","last_reported":1762542503,"current_range_meters":15200,"station_id":"st_d3js3co5814s73ftftug","pricing_plan_id":"cebpf4jnsgd1na2vs0mg"},{"bike_id":"8b2e4a61-24a8-43d6-a685-83038a4ea668","system_id":"levelo_inurba_marseille","lat":43.32042,"lon":5.41546,"is_reserved":false,"is_disabled":false,"rental_uris":{"android":"levelo://app?vid=8b2e4a61-24a8-43d6-a685-83038a4ea668","ios":"levelo://app?vid=8b2e4a61-24a8-43d6-a685-83038a4ea668"},"vehicle_type_id":"4","last_reported":1762542503,"current_range_meters":15200,"station_id":"ce4bhq92rcd13ifvqhkg","pricing_plan_id":"cebpf4jnsgd1na2vs0mg"},{"bike_id":"82e35bef-233e-4320-b6f2-6c9dca65c39b","system_id":"levelo_inurba_marseille","lat":43.29288,"lon":5.37454,"is_reserved":false,"is_disabled":false,"rental_uris":{"android":"levelo://app?vid=82e35bef-233e-4320-b6f2-6c9dca65c39b","ios":"levelo://app?vid=82e35bef-233e-4320-b6f2-6c9dca65c39b"},"vehicle_type_id":"4","last_reported":1762542503,"current_range_meters":15200,"station_id":"ce4bgi12rcd13ifvqb70","pricing_plan_id":"cebpf4jnsgd1na2vs0mg"},{"bike_id":"343f7b97-34f3-460c-a1af-dc6a9c79388b","system_id":"levelo_inurba_marseille","lat":43.29273,"lon":5.36846,"is_reserved":false,"is_disabled":false,"rental_uris":{"android":"levelo://app?vid=343f7b97-34f3-460c-a1af-dc6a9c79388b","ios":"levelo://app?vid=343f7b97-34f3-460c-a1af-dc6a9c79388b"},"vehicle_type_id":"4","last_reported":1762542503,"current_range_meters":15200,"station_id":"ce4bhbp2rcd13ifvqesg","pricing_plan_id":"cebpf4jnsgd1na2vs0mg"},{"bike_id":"8b9df02c-de8d-41ec-8fa7-cb5eecd33e11","system_id":"levelo_inurba_marseille","lat":43.25,"lon":5.38933,"is_reserved":false,"is_disabled":false,"rental_uris":{"android":"levelo://app?vid=8b9df02c-de8d-41ec-8fa7-cb5eecd33e11","ios":"levelo://app?vid=8b9df02c-de8d-41ec-8fa7-cb5eecd33e11"},"vehicle_type_id":"4","last_reported":1762542503,"current_range_meters":15200,"station_id":"ce4bhgp2rcd13ifvqfd0","pricing_plan_id":"cebpf4jnsgd1na2vs0mg"},{"bike_id":"b0eb36ef-53fe-4940-be4e-0838018d16be","system_id":"levelo_inurba_marseille","lat":43.29256,"lon":5.38425,"is_reserved":false,"is_disabled":false,"rental_uris":{"android":"levelo://app?vid=b0eb36ef-53fe-4940-be4e-0838018d16be","ios":"levelo://app?vid=b0eb36ef-53fe-4940-be4e-0838018d16be"},"vehicle_type_id":"4","last_reported":1762542503,"current_range_meters":15200,"station_id":"ce4bh692rcd13ifvqea0","pricing_plan_id":"cebpf4jnsgd1na2vs0mg"},{"bike_id":"65d83eaf-428a-43cd-a356-ecaed95948ff","system_id":"levelo_inurba_marseille","lat":43.24854,"lon":5.39786,"is_reserved":false,"is_disabled":false,"rental_uris":{"android":"levelo://app?vid=65d83eaf-428a-43cd-a356-ecaed95948ff","ios":"levelo://app?vid=65d83eaf-428a-43cd-a356-ecaed95948ff"},"vehicle_type_id":"4","last_reported":1762542503,"current_range_meters":16000,"station_id":"","pricing_plan_id":"cebpf4jnsgd1na2vs0mg"},{"bike_id":"8663a5aa-dcab-4b5d-8cd5-960016fea074","system_id":"levelo_inurba_marseille","lat":43.29529,"lon":5.393397,"is_reserved":false,"is_disabled":false,"rental_uris":{"android":"levelo://app?vid=8663a5aa-dcab-4b5d-8cd5-960016fea074","ios":"levelo://app?vid=8663a5aa-dcab-4b5d-8cd5-960016fea074"},"vehicle_type_id":"4","last_reported":1762542503,"current_range_meters":16000,"station_id":"ce4bh292rcd13ifvqdf0","pricing_plan_id":"cebpf4jnsgd1na2vs0mg"},{"bike_id":"f8e9c0fe-0749-40a5-84b2-5934f231b519","system_id":"levelo_inurba_marseille","lat":43.2815,"lon":5.42613,"is_reserved":false,"is_disabled":false,"rental_uris":{"android":"levelo://app?vid=f8e9c0fe-0749-40a5-84b2-5934f231b519","ios":"levelo://app?vid=f8e9c0fe-0749-40a5-84b2-5934f231b519"},"vehicle_type_id":"4","last_reported":1762542503,"current_range_meters":16000,"station_id":"ce4bhnh2rcd13ifvqgug","pricing_plan_id":"cebpf4jnsgd1na2vs0mg"},{"bike_id":"d30f7ac5-9029-47af-a5da-d6a2da3241ec","system_id":"levelo_inurba_marseille","lat":43.29525,"lon":5.38547,"is_reserved":false,"is_disabled":false,"rental_uris":{"android":"levelo://app?vid=d30f7ac5-9029-47af-a5da-d6a2da3241ec","ios":"levelo://app?vid=d30f7ac5-9029-47af-a5da-d6a2da3241ec"},"vehicle_type_id":"4","last_reported":1762542503,"current_range_meters":16000,"station_id":"ce4bgih2rcd13ifvqba0","pricing_plan_id":"cebpf4jnsgd1na2vs0mg"},{"bike_id":"46698b7d-6c4c-4218-bf0f-a42e405c9524","system_id":"levelo_inurba_marseille","lat":43.29533,"lon":5.3854,"is_reserved":false,"is_disabled":false,"rental_uris":{"android":"levelo://app?vid=46698b7d-6c4c-4218-bf0f-a42e405c9524","ios":"levelo://app?vid=46698b7d-6c4c-4218-bf0f-a42e405c9524"},"vehicle_type_id":"4","last_reported":1762542503,"current_range_meters":16400,"station_id":"ce4bgih2rcd13ifvqba0","pricing_plan_id":"cebpf4jnsgd1na2vs0mg"},{"bike_id":"2f373a5f-e6e9-4abe-805d-f20b12d39ee9","system_id":"levelo_inurba_marseille","lat":43.249464,"lon":5.404935,"is_reserved":false,"is_disabled":false,"rental_uris":{"android":"levelo://app?vid=2f373a5f-e6e9-4abe-805d-f20b12d39ee9","ios":"levelo://app?vid=2f373a5f-e6e9-4abe-805d-f20b12d39ee9"},"vehicle_type_id":"4","last_reported":1762542503,"current_range_meters":16400,"station_id":"st_d2ngiaodas8pm72gd1h0","pricing_plan_id":"cebpf4jnsgd1na2vs0mg"},{"bike_id":"25b5592b-971d-495a-b72c-d7d4eaabefb2","system_id":"levelo_inurba_marseille","lat":43.27369,"lon":5.36266,"is_reserved":false,"is_disabled":false,"rental_uris":{"android":"levelo://app?vid=25b5592b-971d-495a-b72c-d7d4eaabefb2","ios":"levelo://app?vid=25b5592b-971d-495a-b72c-d7d4eaabefb2"},"vehicle_type_id":"4","last_reported":1762542503,"current_range_meters":16400,"station_id":"ce4bhbh2rcd13ifvqeo0","pricing_plan_id":"cebpf4jnsgd1na2vs0mg"},{"bike_id":"716793de-ee21-40b0-af61-96171bd4b74b","system_id":"levelo_inurba_marseille","lat":43.29519,"lon":5.38531,"is_reserved":false,"is_disabled":false,"rental_uris":{"android":"levelo://app?vid=716793de-ee21-40b0-af61-96171bd4b74b","ios":"levelo://app?vid=716793de-ee21-40b0-af61-96171bd4b74b"},"vehicle_type_id":"4","last_reported":1762542503,"current_range_meters":16400,"station_id":"ce4bgih2rcd13ifvqba0","pricing_plan_id":"cebpf4jnsgd1na2vs0mg"},{"bike_id":"ccccae5d-f0e8-4090-9069-7db18ab3a1dc","system_id":"levelo_inurba_marseille","lat":43.25113,"lon":5.40326,"is_reserved":false,"is_disabled":false,"rental_uris":{"android":"levelo://app?vid=ccccae5d-f0e8-4090-9069-7db18ab3a1dc","ios":"levelo://app?vid=ccccae5d-f0e8-4090-9069-7db18ab3a1dc"},"vehicle_type_id":"4","last_reported":1762542503,"current_range_meters":16400,"station_id":"ce4bhlh2rcd13ifvqgig","pricing_plan_id":"cebpf4jnsgd1na2vs0mg"},{"bike_id":"1bf477b3-55e6-4f59-a7a7-7034928d8403","system_id":"levelo_inurba_marseille","lat":43.2535,"lon":5.42153,"is_reserved":false,"is_disabled":false,"rental_uris":{"android":"levelo://app?vid=1bf477b3-55e6-4f59-a7a7-7034928d8403","ios":"levelo://app?vid=1bf477b3-55e6-4f59-a7a7-7034928d8403"},"vehicle_type_id":"4","last_reported":1762542503,"current_range_meters":16400,"station_id":"st_d2m65c5bi1j21697t3ng","pricing_plan_id":"cebpf4jnsgd1na2vs0mg"},{"bike_id":"b866c304-9b9c-42ba-b5e2-2e4a7ebd49d7","system_id":"levelo_inurba_marseille","lat":43.29783,"lon":5.38106,"is_reserved":false,"is_disabled":true,"rental_uris":{"android":"levelo://app?vid=b866c304-9b9c-42ba-b5e2-2e4a7ebd49d7","ios":"levelo://app?vid=b866c304-9b9c-42ba-b5e2-2e4a7ebd49d7"},"vehicle_type_id":"4","last_reported":1762542503,"current_range_meters":16400,"station_id":"ce4bgip2rcd13ifvqbb0","pricing_plan_id":"cebpf4jnsgd1na2vs0mg"},{"bike_id":"95c3d466-1a3a-482c-9dff-d78e7e80ef04","system_id":"levelo_inurba_marseille","lat":43.29542,"lon":5.38546,"is_reserved":false,"is_disabled":false,"rental_uris":{"android":"levelo://app?vid=95c3d466-1a3a-482c-9dff-d78e7e80ef04","ios":"levelo://app?vid=95c3d466-1a3a-482c-9dff-d78e7e80ef04"},"vehicle_type_id":"4","last_reported":1762542503,"current_range_meters":16400,"station_id":"ce4bgih2rcd13ifvqba0","pricing_plan_id":"cebpf4jnsgd1na2vs0mg"},{"bike_id":"1732a4f5-328a-4621-910f-5e3fe9dfbe91","system_id":"levelo_inurba_marseille","lat":43.29681,"lon":5.37218,"is_reserved":false,"is_disabled":false,"rental_uris":{"android":"levelo://app?vid=1732a4f5-328a-4621-910f-5e3fe9dfbe91","ios":"levelo://app?vid=1732a4f5-328a-4621-910f-5e3fe9dfbe91"},"vehicle_type_id":"4","last_reported":1762542503,"current_range_meters":16400,"station_id":"","pricing_plan_id":"cebpf4jnsgd1na2vs0mg"},{"bike_id":"4a455362-a1ad-473d-8b6e-9efc8dd1be98","system_id":"levelo_inurba_marseille","lat":43.27947,"lon":5.41033,"is_reserved":false,"is_disabled":false,"rental_uris":{"android":"levelo://app?vid=4a455362-a1ad-473d-8b6e-9efc8dd1be98","ios":"levelo://app?vid=4a455362-a1ad-473d-8b6e-9efc8dd1be98"},"vehicle_type_id":"4","last_reported":1762542503,"current_range_meters":16400,"station_id":"ce4bhnp2rcd13ifvqh0g","pricing_plan_id":"cebpf4jnsgd1na2vs0mg"},{"bike_id":"f052263b-6c2c-4415-837a-efdb2f0c2a21","system_id":"levelo_inurba_marseille","lat":43.311667,"lon":5.387129,"is_reserved":false,"is_disabled":false,"rental_uris":{"android":"levelo://app?vid=f052263b-6c2c-4415-837a-efdb2f0c2a21","ios":"levelo://app?vid=f052263b-6c2c-4415-837a-efdb2f0c2a21"},"vehicle_type_id":"4","last_reported":1762542503,"current_range_meters":16800,"station_id":"ce4bgv12rcd13ifvqcp0","pricing_plan_id":"cebpf4jnsgd1na2vs0mg"},{"bike_id":"66a25627-2e7d-44b0-9ced-2615b5fe4325","system_id":"levelo_inurba_marseille","lat":43.29512,"lon":5.38536,"is_reserved":false,"is_disabled":false,"rental_uris":{"android":"levelo://app?vid=66a25627-2e7d-44b0-9ced-2615b5fe4325","ios":"levelo://app?vid=66a25627-2e7d-44b0-9ced-2615b5fe4325"},"vehicle_type_id":"4","last_reported":1762542503,"current_range_meters":16800,"station_id":"ce4bgih2rcd13ifvqba0","pricing_plan_id":"cebpf4jnsgd1na2vs0mg"},{"bike_id":"0ff94a84-46fd-4352-866c-e134be757927","system_id":"levelo_inurba_marseille","lat":43.295232,"lon":5.385382,"is_reserved":false,"is_disabled":false,"rental_uris":{"android":"levelo://app?vid=0ff94a84-46fd-4352-866c-e134be757927","ios":"levelo://app?vid=0ff94a84-46fd-4352-866c-e134be757927"},"vehicle_type_id":"4","last_reported":1762542503,"current_range_meters":16800,"station_id":"ce4bgih2rcd13ifvqba0","pricing_plan_id":"cebpf4jnsgd1na2vs0mg"},{"bike_id":"c448769d-72a1-4a2a-80b2-791ccf525608","system_id":"levelo_inurba_marseille","lat":43.257297,"lon":5.411139,"is_reserved":false,"is_disabled":false,"rental_uris":{"android":"levelo://app?vid=c448769d-72a1-4a2a-80b2-791ccf525608","ios":"levelo://app?vid=c448769d-72a1-4a2a-80b2-791ccf525608"},"vehicle_type_id":"4","last_reported":1762542503,"current_range_meters":16800,"station_id":"ce4bhkp2rcd13ifvqgd0","pricing_plan_id":"cebpf4jnsgd1na2vs0mg"},{"bike_id":"4aadc1d9-ba43-4b92-a5cd-e66ee29250dd","system_id":"levelo_inurba_marseille","lat":43.27209,"lon":5.39192,"is_reserved":false,"is_disabled":true,"rental_uris":{"android":"levelo://app?vid=4aadc1d9-ba43-4b92-a5cd-e66ee29250dd","ios":"levelo://app?vid=4aadc1d9-ba43-4b92-a5cd-e66ee29250dd"},"vehicle_type_id":"4","last_reported":1762542503,"current_range_meters":16800,"station_id":"ce4bhhp2rcd13ifvqfm0","pricing_plan_id":"cebpf4jnsgd1na2vs0mg"},{"bike_id":"75d7dc47-dceb-471d-8668-ef13189f4f02","system_id":"levelo_inurba_marseille","lat":43.323565,"lon":5.367528,"is_reserved":false,"is_disabled":false,"rental_uris":{"android":"levelo://app?vid=75d7dc47-dceb-471d-8668-ef13189f4f02","ios":"levelo://app?vid=75d7dc47-dceb-471d-8668-ef13189f4f02"},"vehicle_type_id":"4","last_reported":1762542503,"current_range_meters":16800,"station_id":"ce4bhsh2rcd13ifvqi2g","pricing_plan_id":"cebpf4jnsgd1na2vs0mg"},{"bike_id":"74fcb09b-38e9-49f5-a569-d367be4a6d69","system_id":"levelo_inurba_marseille","lat":43.29195,"lon":5.35801,"is_reserved":false,"is_disabled":false,"rental_uris":{"android":"levelo://app?vid=74fcb09b-38e9-49f5-a569-d367be4a6d69","ios":"levelo://app?vid=74fcb09b-38e9-49f5-a569-d367be4a6d69"},"vehicle_type_id":"4","last_reported":1762542503,"current_range_meters":16800,"station_id":"ce4bhb12rcd13ifvqel0","pricing_plan_id":"cebpf4jnsgd1na2vs0mg"},{"bike_id":"a718cc29-6f54-49e3-862a-351d7a32001f","system_id":"levelo_inurba_marseille","lat":43.28489,"lon":5.484157,"is_reserved":false,"is_disabled":false,"rental_uris":{"android":"levelo://app?vid=a718cc29-6f54-49e3-862a-351d7a32001f","ios":"levelo://app?vid=a718cc29-6f54-49e3-862a-351d7a32001f"},"vehicle_type_id":"4","last_reported":1762542503,"current_range_meters":16800,"station_id":"","pricing_plan_id":"cebpf4jnsgd1na2vs0mg"},{"bike_id":"9e6def68-ff14-4908-ad86-e9e2b55b229b","system_id":"levelo_inurba_marseille","lat":43.3024,"lon":5.40031,"is_reserved":false,"is_disabled":false,"rental_uris":{"android":"levelo://app?vid=9e6def68-ff14-4908-ad86-e9e2b55b229b","ios":"levelo://app?vid=9e6def68-ff14-4908-ad86-e9e2b55b229b"},"vehicle_type_id":"4","last_reported":1762542503,"current_range_meters":16800,"station_id":"","pricing_plan_id":"cebpf4jnsgd1na2vs0mg"},{"bike_id":"fe20b049-918e-4be4-b098-c70b350f6b55","system_id":"levelo_inurba_marseille","lat":43.28667,"lon":5.38664,"is_reserved":false,"is_disabled":false,"rental_uris":{"android":"levelo://app?vid=fe20b049-918e-4be4-b098-c70b350f6b55","ios":"levelo://app?vid=fe20b049-918e-4be4-b098-c70b350f6b55"},"vehicle_type_id":"4","last_reported":1762542503,"current_range_meters":16800,"station_id":"","pricing_plan_id":"cebpf4jnsgd1na2vs0mg"},{"bike_id":"c006eebd-22d1-492e-aeb9-34fd1a08d045","system_id":"levelo_inurba_marseille","lat":43.289503,"lon":5.366287,"is_reserved":false,"is_disabled":true,"rental_uris":{"android":"levelo://app?vid=c006eebd-22d1-492e-aeb9-34fd1a08d045","ios":"levelo://app?vid=c006eebd-22d1-492e-aeb9-34fd1a08d045"},"vehicle_type_id":"4","last_reported":1762542503,"current_range_meters":17200,"station_id":"ce4bhap2rcd13ifvqek0","pricing_plan_id":"cebpf4jnsgd1na2vs0mg"},{"bike_id":"64a7e14c-46d0-4d8c-91f0-19fb7c8ad288","system_id":"levelo_inurba_marseille","lat":43.305605,"lon":5.36711,"is_reserved":false,"is_disabled":true,"rental_uris":{"android":"levelo://app?vid=64a7e14c-46d0-4d8c-91f0-19fb7c8ad288","ios":"levelo://app?vid=64a7e14c-46d0-4d8c-91f0-19fb7c8ad288"},"vehicle_type_id":"4","last_reported":1762542503,"current_range_meters":17200,"station_id":"ce4bgrp2rcd13ifvqc9g","pricing_plan_id":"cebpf4jnsgd1na2vs0mg"},{"bike_id":"1fb6fc76-a463-4520-be34-0da0074dc553","system_id":"levelo_inurba_marseille","lat":43.2791,"lon":5.38004,"is_reserved":false,"is_disabled":false,"rental_uris":{"android":"levelo://app?vid=1fb6fc76-a463-4520-be34-0da0074dc553","ios":"levelo://app?vid=1fb6fc76-a463-4520-be34-0da0074dc553"},"vehicle_type_id":"4","last_reported":1762542503,"current_range_meters":17200,"station_id":"ce4bhf92rcd13ifvqf50","pricing_plan_id":"cebpf4jnsgd1na2vs0mg"},{"bike_id":"b41ec832-8f82-4184-afc1-071f3ed594e8","system_id":"levelo_inurba_marseille","lat":43.29586,"lon":5.39991,"is_reserved":false,"is_disabled":false,"rental_uris":{"android":"levelo://app?vid=b41ec832-8f82-4184-afc1-071f3ed594e8","ios":"levelo://app?vid=b41ec832-8f82-4184-afc1-071f3ed594e8"},"vehicle_type_id":"4","last_reported":1762542503,"current_range_meters":17200,"station_id":"ce4bh312rcd13ifvqdj0","pricing_plan_id":"cebpf4jnsgd1na2vs0mg"},{"bike_id":"d8a5ad5c-82f5-4ef5-aa6d-27151cb82c39","system_id":"levelo_inurba_marseille","lat":43.29258,"lon":5.37619,"is_reserved":false,"is_disabled":false,"rental_uris":{"android":"levelo://app?vid=d8a5ad5c-82f5-4ef5-aa6d-27151cb82c39","ios":"levelo://app?vid=d8a5ad5c-82f5-4ef5-aa6d-27151cb82c39"},"vehicle_type_id":"4","last_reported":1762542503,"current_range_meters":17200,"station_id":"ce4bgi12rcd13ifvqb80","pricing_plan_id":"cebpf4jnsgd1na2vs0mg"},{"bike_id":"e721a5b3-09de-4eca-8900-591b2e752f06","system_id":"levelo_inurba_marseille","lat":43.29795,"lon":5.38075,"is_reserved":false,"is_disabled":false,"rental_uris":{"android":"levelo://app?vid=e721a5b3-09de-4eca-8900-591b2e752f06","ios":"levelo://app?vid=e721a5b3-09de-4eca-8900-591b2e752f06"},"vehicle_type_id":"4","last_reported":1762542503,"current_range_meters":17200,"station_id":"ce4bgip2rcd13ifvqbb0","pricing_plan_id":"cebpf4jnsgd1na2vs0mg"},{"bike_id":"c508dfa6-c4b6-4cea-a4ec-947e346a8310","system_id":"levelo_inurba_marseille","lat":43.33612,"lon":5.41001,"is_reserved":false,"is_disabled":true,"rental_uris":{"android":"levelo://app?vid=c508dfa6-c4b6-4cea-a4ec-947e346a8310","ios":"levelo://app?vid=c508dfa6-c4b6-4cea-a4ec-947e346a8310"},"vehicle_type_id":"4","last_reported":1762542503,"current_range_meters":17200,"station_id":"ce4bhqh2rcd13ifvqhmg","pricing_plan_id":"cebpf4jnsgd1na2vs0mg"},{"bike_id":"b92ef6a4-e35d-43ac-b3c3-437188c3a722","system_id":"levelo_inurba_marseille","lat":43.30146,"lon":5.39863,"is_reserved":false,"is_disabled":false,"rental_uris":{"android":"levelo://app?vid=b92ef6a4-e35d-43ac-b3c3-437188c3a722","ios":"levelo://app?vid=b92ef6a4-e35d-43ac-b3c3-437188c3a722"},"vehicle_type_id":"4","last_reported":1762542503,"current_range_meters":17200,"station_id":"ce4bh0h2rcd13ifvqd40","pricing_plan_id":"cebpf4jnsgd1na2vs0mg"},{"bike_id":"cc4467a5-f9de-4d0d-b689-33861e50031a","system_id":"levelo_inurba_marseille","lat":43.298417,"lon":5.362708,"is_reserved":false,"is_disabled":false,"rental_uris":{"android":"levelo://app?vid=cc4467a5-f9de-4d0d-b689-33861e50031a","ios":"levelo://app?vid=cc4467a5-f9de-4d0d-b689-33861e50031a"},"vehicle_type_id":"4","last_reported":1762542503,"current_range_meters":17200,"station_id":"ce4bgpp2rcd13ifvqc3g","pricing_plan_id":"cebpf4jnsgd1na2vs0mg"},{"bike_id":"74bb8ce2-1ec5-4414-94bf-bc4889d1e14c","system_id":"levelo_inurba_marseille","lat":43.32485,"lon":5.39543,"is_reserved":false,"is_disabled":false,"rental_uris":{"android":"levelo://app?vid=74bb8ce2-1ec5-4414-94bf-bc4889d1e14c","ios":"levelo://app?vid=74bb8ce2-1ec5-4414-94bf-bc4889d1e14c"},"vehicle_type_id":"4","last_reported":1762542503,"current_range_meters":17200,"station_id":"","pricing_plan_id":"cebpf4jnsgd1na2vs0mg"},{"bike_id":"91aa5232-4cb1-44e8-9d87-dabc82c3bca2","system_id":"levelo_inurba_marseille","lat":43.29526,"lon":5.38539,"is_reserved":false,"is_disabled":false,"rental_uris":{"android":"levelo://app?vid=91aa5232-4cb1-44e8-9d87-dabc82c3bca2","ios":"levelo://app?vid=91aa5232-4cb1-44e8-9d87-dabc82c3bca2"},"vehicle_type_id":"4","last_reported":1762542503,"current_range_meters":17600,"station_id":"ce4bgih2rcd13ifvqba0","pricing_plan_id":"cebpf4jnsgd1na2vs0mg"},{"bike_id":"2bf56469-4c3f-420f-a529-43aeef15bbaa","system_id":"levelo_inurba_marseille","lat":43.28969,"lon":5.37835,"is_reserved":false,"is_disabled":false,"rental_uris":{"android":"levelo://app?vid=2bf56469-4c3f-420f-a529-43aeef15bbaa","ios":"levelo://app?vid=2bf56469-4c3f-420f-a529-43aeef15bbaa"},"vehicle_type_id":"4","last_reported":1762542503,"current_range_meters":17600,"station_id":"ce4bh9p2rcd13ifvqed0","pricing_plan_id":"cebpf4jnsgd1na2vs0mg"},{"bike_id":"58df984d-f6ad-47ef-818a-7818e887c7c9","system_id":"levelo_inurba_marseille","lat":43.30119,"lon":5.43073,"is_reserved":false,"is_disabled":false,"rental_uris":{"android":"levelo://app?vid=58df984d-f6ad-47ef-818a-7818e887c7c9","ios":"levelo://app?vid=58df984d-f6ad-47ef-818a-7818e887c7c9"},"vehicle_type_id":"4","last_reported":1762542503,"current_range_meters":17600,"station_id":"st_d3js3co5814s73ftftug","pricing_plan_id":"cebpf4jnsgd1na2vs0mg"},{"bike_id":"514494aa-b1f0-4806-8480-5d9854cf6248","system_id":"levelo_inurba_marseille","lat":43.29595,"lon":5.38093,"is_reserved":false,"is_disabled":false,"rental_uris":{"android":"levelo://app?vid=514494aa-b1f0-4806-8480-5d9854cf6248","ios":"levelo://app?vid=514494aa-b1f0-4806-8480-5d9854cf6248"},"vehicle_type_id":"4","last_reported":1762542503,"current_range_meters":17600,"station_id":"ce4bgl12rcd13ifvqbo0","pricing_plan_id":"cebpf4jnsgd1na2vs0mg"},{"bike_id":"12ea2d3c-72bb-4906-b695-d2a5f0edfe06","system_id":"levelo_inurba_marseille","lat":43.284039,"lon":5.380752,"is_reserved":false,"is_disabled":false,"rental_uris":{"android":"levelo://app?vid=12ea2d3c-72bb-4906-b695-d2a5f0edfe06","ios":"levelo://app?vid=12ea2d3c-72bb-4906-b695-d2a5f0edfe06"},"vehicle_type_id":"4","last_reported":1762542503,"current_range_meters":17600,"station_id":"ce4bh412rcd13ifvqdr0","pricing_plan_id":"cebpf4jnsgd1na2vs0mg"},{"bike_id":"35e42d8b-15f5-4500-8b0a-865ba11035b1","system_id":"levelo_inurba_marseille","lat":43.29268,"lon":5.38445,"is_reserved":false,"is_disabled":false,"rental_uris":{"android":"levelo://app?vid=35e42d8b-15f5-4500-8b0a-865ba11035b1","ios":"levelo://app?vid=35e42d8b-15f5-4500-8b0a-865ba11035b1"},"vehicle_type_id":"4","last_reported":1762542503,"current_range_meters":17600,"station_id":"ce4bh692rcd13ifvqea0","pricing_plan_id":"cebpf4jnsgd1na2vs0mg"},{"bike_id":"77ede060-f268-410c-9976-6ecb826aba07","system_id":"levelo_inurba_marseille","lat":43.30132,"lon":5.39873,"is_reserved":false,"is_disabled":false,"rental_uris":{"android":"levelo://app?vid=77ede060-f268-410c-9976-6ecb826aba07","ios":"levelo://app?vid=77ede060-f268-410c-9976-6ecb826aba07"},"vehicle_type_id":"4","last_reported":1762542503,"current_range_meters":17600,"station_id":"ce4bh0h2rcd13ifvqd40","pricing_plan_id":"cebpf4jnsgd1na2vs0mg"},{"bike_id":"d0486e4c-83e2-47ea-b815-83949b2897b4","system_id":"levelo_inurba_marseille","lat":43.25338,"lon":5.42171,"is_reserved":false,"is_disabled":false,"rental_uris":{"android":"levelo://app?vid=d0486e4c-83e2-47ea-b815-83949b2897b4","ios":"levelo://app?vid=d0486e4c-83e2-47ea-b815-83949b2897b4"},"vehicle_type_id":"4","last_reported":1762542503,"current_range_meters":17600,"station_id":"st_d2m65c5bi1j21697t3ng","pricing_plan_id":"cebpf4jnsgd1na2vs0mg"},{"bike_id":"f85eec26-0a53-4a4d-b3b2-d69230d21ac8","system_id":"levelo_inurba_marseille","lat":43.286162,"lon":5.370603,"is_reserved":false,"is_disabled":false,"rental_uris":{"android":"levelo://app?vid=f85eec26-0a53-4a4d-b3b2-d69230d21ac8","ios":"levelo://app?vid=f85eec26-0a53-4a4d-b3b2-d69230d21ac8"},"vehicle_type_id":"4","last_reported":1762542503,"current_range_meters":17600,"station_id":"ce4bht12rcd13ifvqi60","pricing_plan_id":"cebpf4jnsgd1na2vs0mg"},{"bike_id":"f734e448-6622-4863-b053-9f21b42f3085","system_id":"levelo_inurba_marseille","lat":43.25869,"lon":5.399,"is_reserved":false,"is_disabled":false,"rental_uris":{"android":"levelo://app?vid=f734e448-6622-4863-b053-9f21b42f3085","ios":"levelo://app?vid=f734e448-6622-4863-b053-9f21b42f3085"},"vehicle_type_id":"4","last_reported":1762542503,"current_range_meters":17600,"station_id":"ce4bhl92rcd13ifvqghg","pricing_plan_id":"cebpf4jnsgd1na2vs0mg"},{"bike_id":"841e8afe-f0f9-466d-8925-13776efd5027","system_id":"levelo_inurba_marseille","lat":43.29797,"lon":5.38096,"is_reserved":false,"is_disabled":false,"rental_uris":{"android":"levelo://app?vid=841e8afe-f0f9-466d-8925-13776efd5027","ios":"levelo://app?vid=841e8afe-f0f9-466d-8925-13776efd5027"},"vehicle_type_id":"4","last_reported":1762542503,"current_range_meters":17600,"station_id":"ce4bgip2rcd13ifvqbb0","pricing_plan_id":"cebpf4jnsgd1na2vs0mg"},{"bike_id":"8934b684-18f8-4a13-9001-adbad0d95f37","system_id":"levelo_inurba_marseille","lat":43.30255,"lon":5.40061,"is_reserved":false,"is_disabled":false,"rental_uris":{"android":"levelo://app?vid=8934b684-18f8-4a13-9001-adbad0d95f37","ios":"levelo://app?vid=8934b684-18f8-4a13-9001-adbad0d95f37"},"vehicle_type_id":"4","last_reported":1762542503,"current_range_meters":17600,"station_id":"ce4bgvh2rcd13ifvqcs0","pricing_plan_id":"cebpf4jnsgd1na2vs0mg"},{"bike_id":"a3c88360-2ff0-4ba4-b145-32cc3e67374f","system_id":"levelo_inurba_marseille","lat":43.30543,"lon":5.38421,"is_reserved":false,"is_disabled":false,"rental_uris":{"android":"levelo://app?vid=a3c88360-2ff0-4ba4-b145-32cc3e67374f","ios":"levelo://app?vid=a3c88360-2ff0-4ba4-b145-32cc3e67374f"},"vehicle_type_id":"4","last_reported":1762542503,"current_range_meters":18000,"station_id":"ce4bgg92rcd13ifvqb30","pricing_plan_id":"cebpf4jnsgd1na2vs0mg"},{"bike_id":"d4ef78bf-6581-494b-ba0f-b7d6afbbe69a","system_id":"levelo_inurba_marseille","lat":43.23977,"lon":5.36633,"is_reserved":false,"is_disabled":false,"rental_uris":{"android":"levelo://app?vid=d4ef78bf-6581-494b-ba0f-b7d6afbbe69a","ios":"levelo://app?vid=d4ef78bf-6581-494b-ba0f-b7d6afbbe69a"},"vehicle_type_id":"4","last_reported":1762542503,"current_range_meters":18000,"station_id":"ce4bhi12rcd13ifvqfp0","pricing_plan_id":"cebpf4jnsgd1na2vs0mg"},{"bike_id":"6ba0f1d1-5706-4a14-b89f-505a4c6aa756","system_id":"levelo_inurba_marseille","lat":43.29491,"lon":5.43306,"is_reserved":false,"is_disabled":false,"rental_uris":{"android":"levelo://app?vid=6ba0f1d1-5706-4a14-b89f-505a4c6aa756","ios":"levelo://app?vid=6ba0f1d1-5706-4a14-b89f-505a4c6aa756"},"vehicle_type_id":"4","last_reported":1762542503,"current_range_meters":18000,"station_id":"st_d3j5ugp08ojc73fj9d10","pricing_plan_id":"cebpf4jnsgd1na2vs0mg"},{"bike_id":"5098c842-5e48-40e2-b457-cc6766f8dfac","system_id":"levelo_inurba_marseille","lat":43.2564,"lon":5.40965,"is_reserved":false,"is_disabled":false,"rental_uris":{"android":"levelo://app?vid=5098c842-5e48-40e2-b457-cc6766f8dfac","ios":"levelo://app?vid=5098c842-5e48-40e2-b457-cc6766f8dfac"},"vehicle_type_id":"4","last_reported":1762542503,"current_range_meters":18000,"station_id":"","pricing_plan_id":"cebpf4jnsgd1na2vs0mg"},{"bike_id":"f78067c3-31aa-4d9c-b397-4174c2f5e418","system_id":"levelo_inurba_marseille","lat":43.29562,"lon":5.39968,"is_reserved":false,"is_disabled":false,"rental_uris":{"android":"levelo://app?vid=f78067c3-31aa-4d9c-b397-4174c2f5e418","ios":"levelo://app?vid=f78067c3-31aa-4d9c-b397-4174c2f5e418"},"vehicle_type_id":"4","last_reported":1762542503,"current_range_meters":18000,"station_id":"ce4bh312rcd13ifvqdj0","pricing_plan_id":"cebpf4jnsgd1na2vs0mg"},{"bike_id":"d7bcae65-d45c-4fe1-993c-85f1dd1b036b","system_id":"levelo_inurba_marseille","lat":43.336011,"lon":5.410326,"is_reserved":false,"is_disabled":false,"rental_uris":{"android":"levelo://app?vid=d7bcae65-d45c-4fe1-993c-85f1dd1b036b","ios":"levelo://app?vid=d7bcae65-d45c-4fe1-993c-85f1dd1b036b"},"vehicle_type_id":"4","last_reported":1762542503,"current_range_meters":18000,"station_id":"ce4bhqh2rcd13ifvqhmg","pricing_plan_id":"cebpf4jnsgd1na2vs0mg"},{"bike_id":"cd31405e-e058-4670-aaed-b4100558b311","system_id":"levelo_inurba_marseille","lat":43.286893,"lon":5.399888,"is_reserved":false,"is_disabled":false,"rental_uris":{"android":"levelo://app?vid=cd31405e-e058-4670-aaed-b4100558b311","ios":"levelo://app?vid=cd31405e-e058-4670-aaed-b4100558b311"},"vehicle_type_id":"4","last_reported":1762542503,"current_range_meters":18000,"station_id":"ce4bho92rcd13ifvqh3g","pricing_plan_id":"cebpf4jnsgd1na2vs0mg"},{"bike_id":"8fb5405d-56b8-4021-83b4-671acfdf4385","system_id":"levelo_inurba_marseille","lat":43.29536,"lon":5.39037,"is_reserved":false,"is_disabled":false,"rental_uris":{"android":"levelo://app?vid=8fb5405d-56b8-4021-83b4-671acfdf4385","ios":"levelo://app?vid=8fb5405d-56b8-4021-83b4-671acfdf4385"},"vehicle_type_id":"4","last_reported":1762542503,"current_range_meters":18000,"station_id":"ce4bh3p2rcd13ifvqdp0","pricing_plan_id":"cebpf4jnsgd1na2vs0mg"},{"bike_id":"36f56aa2-0dc9-4962-bb51-f608ea2b337a","system_id":"levelo_inurba_marseille","lat":43.29257,"lon":5.38443,"is_reserved":false,"is_disabled":false,"rental_uris":{"android":"levelo://app?vid=36f56aa2-0dc9-4962-bb51-f608ea2b337a","ios":"levelo://app?vid=36f56aa2-0dc9-4962-bb51-f608ea2b337a"},"vehicle_type_id":"4","last_reported":1762542503,"current_range_meters":18000,"station_id":"ce4bh692rcd13ifvqea0","pricing_plan_id":"cebpf4jnsgd1na2vs0mg"},{"bike_id":"6ea0001b-a94c-46de-82e7-55c3335f7142","system_id":"levelo_inurba_marseille","lat":43.294505,"lon":5.385942,"is_reserved":false,"is_disabled":false,"rental_uris":{"android":"levelo://app?vid=6ea0001b-a94c-46de-82e7-55c3335f7142","ios":"levelo://app?vid=6ea0001b-a94c-46de-82e7-55c3335f7142"},"vehicle_type_id":"4","last_reported":1762542503,"current_range_meters":18000,"station_id":"ce4bh5p2rcd13ifvqe4g","pricing_plan_id":"cebpf4jnsgd1na2vs0mg"},{"bike_id":"7720d517-d82a-422b-939b-f69fdea40831","system_id":"levelo_inurba_marseille","lat":43.31072,"lon":5.38473,"is_reserved":false,"is_disabled":false,"rental_uris":{"android":"levelo://app?vid=7720d517-d82a-422b-939b-f69fdea40831","ios":"levelo://app?vid=7720d517-d82a-422b-939b-f69fdea40831"},"vehicle_type_id":"4","last_reported":1762542503,"current_range_meters":18000,"station_id":"","pricing_plan_id":"cebpf4jnsgd1na2vs0mg"},{"bike_id":"805fae95-d776-4d80-8576-7405c0465ce9","system_id":"levelo_inurba_marseille","lat":43.28267,"lon":5.35068,"is_reserved":false,"is_disabled":false,"rental_uris":{"android":"levelo://app?vid=805fae95-d776-4d80-8576-7405c0465ce9","ios":"levelo://app?vid=805fae95-d776-4d80-8576-7405c0465ce9"},"vehicle_type_id":"4","last_reported":1762542503,"current_range_meters":18000,"station_id":"ce4bhbp2rcd13ifvqerg","pricing_plan_id":"cebpf4jnsgd1na2vs0mg"},{"bike_id":"d2991a60-dcfa-4252-8f9d-bfff4b1dc433","system_id":"levelo_inurba_marseille","lat":43.31066,"lon":5.37186,"is_reserved":false,"is_disabled":false,"rental_uris":{"android":"levelo://app?vid=d2991a60-dcfa-4252-8f9d-bfff4b1dc433","ios":"levelo://app?vid=d2991a60-dcfa-4252-8f9d-bfff4b1dc433"},"vehicle_type_id":"4","last_reported":1762542503,"current_range_meters":18000,"station_id":"","pricing_plan_id":"cebpf4jnsgd1na2vs0mg"},{"bike_id":"4bce02cb-bdba-488a-a39f-eae80d4c7da8","system_id":"levelo_inurba_marseille","lat":43.28197,"lon":5.39121,"is_reserved":false,"is_disabled":true,"rental_uris":{"android":"levelo://app?vid=4bce02cb-bdba-488a-a39f-eae80d4c7da8","ios":"levelo://app?vid=4bce02cb-bdba-488a-a39f-eae80d4c7da8"},"vehicle_type_id":"4","last_reported":1762542503,"current_range_meters":18000,"station_id":"ce4bhn92rcd13ifvqgsg","pricing_plan_id":"cebpf4jnsgd1na2vs0mg"},{"bike_id":"d912dfcb-1b62-44db-81fe-a3a2a403f09d","system_id":"levelo_inurba_marseille","lat":43.292596,"lon":5.384477,"is_reserved":false,"is_disabled":false,"rental_uris":{"android":"levelo://app?vid=d912dfcb-1b62-44db-81fe-a3a2a403f09d","ios":"levelo://app?vid=d912dfcb-1b62-44db-81fe-a3a2a403f09d"},"vehicle_type_id":"4","last_reported":1762542503,"current_range_meters":18800,"station_id":"ce4bh692rcd13ifvqea0","pricing_plan_id":"cebpf4jnsgd1na2vs0mg"},{"bike_id":"e270f0db-93b9-4456-a5ae-4ac7765b3816","system_id":"levelo_inurba_marseille","lat":43.30552,"lon":5.36547,"is_reserved":false,"is_disabled":false,"rental_uris":{"android":"levelo://app?vid=e270f0db-93b9-4456-a5ae-4ac7765b3816","ios":"levelo://app?vid=e270f0db-93b9-4456-a5ae-4ac7765b3816"},"vehicle_type_id":"4","last_reported":1762542503,"current_range_meters":18800,"station_id":"ce4bgs12rcd13ifvqcag","pricing_plan_id":"cebpf4jnsgd1na2vs0mg"},{"bike_id":"fec37f1b-bc77-485a-a954-8c8f117d593a","system_id":"levelo_inurba_marseille","lat":43.29015,"lon":5.38629,"is_reserved":false,"is_disabled":false,"rental_uris":{"android":"levelo://app?vid=fec37f1b-bc77-485a-a954-8c8f117d593a","ios":"levelo://app?vid=fec37f1b-bc77-485a-a954-8c8f117d593a"},"vehicle_type_id":"4","last_reported":1762542503,"current_range_meters":18800,"station_id":"ce4bh4p2rcd13ifvqe0g","pricing_plan_id":"cebpf4jnsgd1na2vs0mg"},{"bike_id":"2d11a7cc-8607-4006-b391-57bf97dee298","system_id":"levelo_inurba_marseille","lat":43.24998,"lon":5.38931,"is_reserved":false,"is_disabled":false,"rental_uris":{"android":"levelo://app?vid=2d11a7cc-8607-4006-b391-57bf97dee298","ios":"levelo://app?vid=2d11a7cc-8607-4006-b391-57bf97dee298"},"vehicle_type_id":"4","last_reported":1762542503,"current_range_meters":18800,"station_id":"ce4bhgp2rcd13ifvqfd0","pricing_plan_id":"cebpf4jnsgd1na2vs0mg"},{"bike_id":"04e9ea83-b0a5-4560-95cf-6cde7f59bb89","system_id":"levelo_inurba_marseille","lat":43.293097,"lon":5.37453,"is_reserved":false,"is_disabled":false,"rental_uris":{"android":"levelo://app?vid=04e9ea83-b0a5-4560-95cf-6cde7f59bb89","ios":"levelo://app?vid=04e9ea83-b0a5-4560-95cf-6cde7f59bb89"},"vehicle_type_id":"4","last_reported":1762542503,"current_range_meters":18800,"station_id":"ce4bgi12rcd13ifvqb70","pricing_plan_id":"cebpf4jnsgd1na2vs0mg"},{"bike_id":"5ebbfdc4-4988-4f8f-860a-a23e6d29751d","system_id":"levelo_inurba_marseille","lat":43.30536,"lon":5.365323,"is_reserved":false,"is_disabled":false,"rental_uris":{"android":"levelo://app?vid=5ebbfdc4-4988-4f8f-860a-a23e6d29751d","ios":"levelo://app?vid=5ebbfdc4-4988-4f8f-860a-a23e6d29751d"},"vehicle_type_id":"4","last_reported":1762542503,"current_range_meters":18800,"station_id":"ce4bgs12rcd13ifvqcag","pricing_plan_id":"cebpf4jnsgd1na2vs0mg"},{"bike_id":"5b3029a4-95be-47c6-8b82-43177cf6e9fb","system_id":"levelo_inurba_marseille","lat":43.24177,"lon":5.39728,"is_reserved":false,"is_disabled":false,"rental_uris":{"android":"levelo://app?vid=5b3029a4-95be-47c6-8b82-43177cf6e9fb","ios":"levelo://app?vid=5b3029a4-95be-47c6-8b82-43177cf6e9fb"},"vehicle_type_id":"4","last_reported":1762542503,"current_range_meters":18800,"station_id":"ce4bhn12rcd13ifvqgpg","pricing_plan_id":"cebpf4jnsgd1na2vs0mg"},{"bike_id":"40642e6c-3b42-4da5-8906-90812bb91823","system_id":"levelo_inurba_marseille","lat":43.25819,"lon":5.39426,"is_reserved":false,"is_disabled":false,"rental_uris":{"android":"levelo://app?vid=40642e6c-3b42-4da5-8906-90812bb91823","ios":"levelo://app?vid=40642e6c-3b42-4da5-8906-90812bb91823"},"vehicle_type_id":"4","last_reported":1762542503,"current_range_meters":18800,"station_id":"ce4bhip2rcd13ifvqft0","pricing_plan_id":"cebpf4jnsgd1na2vs0mg"},{"bike_id":"01b612c9-e2ea-4120-a543-ea80b7d0582c","system_id":"levelo_inurba_marseille","lat":43.32691,"lon":5.39192,"is_reserved":false,"is_disabled":false,"rental_uris":{"android":"levelo://app?vid=01b612c9-e2ea-4120-a543-ea80b7d0582c","ios":"levelo://app?vid=01b612c9-e2ea-4120-a543-ea80b7d0582c"},"vehicle_type_id":"4","last_reported":1762542503,"current_range_meters":18800,"station_id":"","pricing_plan_id":"cebpf4jnsgd1na2vs0mg"},{"bike_id":"e5b60406-6050-4895-badc-44260999dd59","system_id":"levelo_inurba_marseille","lat":43.29269,"lon":5.38438,"is_reserved":false,"is_disabled":false,"rental_uris":{"android":"levelo://app?vid=e5b60406-6050-4895-badc-44260999dd59","ios":"levelo://app?vid=e5b60406-6050-4895-badc-44260999dd59"},"vehicle_type_id":"4","last_reported":1762542503,"current_range_meters":18800,"station_id":"ce4bh692rcd13ifvqea0","pricing_plan_id":"cebpf4jnsgd1na2vs0mg"},{"bike_id":"61c32982-e1bd-47b3-8753-63f402e2b159","system_id":"levelo_inurba_marseille","lat":43.29796,"lon":5.3933,"is_reserved":false,"is_disabled":false,"rental_uris":{"android":"levelo://app?vid=61c32982-e1bd-47b3-8753-63f402e2b159","ios":"levelo://app?vid=61c32982-e1bd-47b3-8753-63f402e2b159"},"vehicle_type_id":"4","last_reported":1762542503,"current_range_meters":18800,"station_id":"chh1huq6cuj3fo74tm60","pricing_plan_id":"cebpf4jnsgd1na2vs0mg"},