{"last_updated":1732723895,"ttl":60,"version":"2.2","data":{"bikes":[{"bike_id":"c6a7d785-3704-497f-a4a1-3b79a59f06ec","system_id":"levelo_inurba_marseille","lat":43.25724,"lon":5.41114,"is_reserved":false,"is_disabled":false,"rental_uris":{"android":"levelo://app?vid=c6a7d785-3704-497f-a4a1-3b79a59f06ec","ios":"levelo://app?vid=c6a7d785-3704-497f-a4a1-3b79a59f06ec"},"vehicle_type_id":"4","last_reported":1732723895,"current_range_meters":39200,"station_id":"ce4bhkp2rcd13ifvqgd0","pricing_plan_id":"cebpf4jnsgd1na2vs0mg"},{"bike_id":"fa364f66-f056-401b-ba81-923b4a3196aa","system_id":"levelo_inurba_marseille","lat":43.26804,"lon":5.40271,"is_reserved":false,"is_disabled":false,"rental_uris":{"android":"levelo://app?vid=fa364f66-f056-401b-ba81-923b4a3196aa","ios":"levelo://app?vid=fa364f66-f056-401b-ba81-923b4a3196aa"},"vehicle_type_id":"4","last_reported":1732723895,"current_range_meters":4000,"station_id":"ce501612rcd8frsf0b60","pricing_plan_id":"cebpf4jnsgd1na2vs0mg"},{"bike_id":"b856c8b4-412d-4c25-bdd4-e6b29aed04cb","system_id":"levelo_inurba_marseille","lat":43.22932,"lon":5.35384,"is_reserved":false,"is_disabled":false,"rental_uris":{"android":"levelo://app?vid=b856c8b4-412d-4c25-bdd4-e6b29aed04cb","ios":"levelo://app?vid=b856c8b4-412d-4c25-bdd4-e6b29aed04cb"},"vehicle_type_id":"4","last_reported":1732723895,"current_range_meters":40000,"station_id":"cpo3532slgdg3j2ikp40","pricing_plan_id":"cebpf4jnsgd1na2vs0mg"},{"bike_id":"cdb0c41b-8ce0-4369-8045-488f7b022d03","system_id":"levelo_inurba_marseille","lat":43.3014,"lon":5.38072,"is_reserved":false,"is_disabled":false,"rental_uris":{"android":"levelo://app?vid=cdb0c41b-8ce0-4369-8045-488f7b022d03","ios":"levelo://app?vid=cdb0c41b-8ce0-4369-8045-488f7b022d03"},"vehicle_type_id":"4","last_reported":1732723895,"current_range_meters":6800,"station_id":"ce4bgjp2rcd13ifvqbh0","pricing_plan_id":"cebpf4jnsgd1na2vs0mg"},{"bike_id":"0d47fb7f-9267-413e-9e66-7159b4653236","system_id":"levelo_inurba_marseille","lat":43.28719,"lon":5.36094,"is_reserved":false,"is_disabled":false,"rental_uris":{"android":"levelo://app?vid=0d47fb7f-9267-413e-9e66-7159b4653236","ios":"levelo://app?vid=0d47fb7f-9267-413e-9e66-7159b4653236"},"vehicle_type_id":"4","last_reported":1732723895,"current_range_meters":38800,"station_id":"cki0cbj6b192h4jlfktg","pricing_plan_id":"cebpf4jnsgd1na2vs0mg"},{"bike_id":"d2cf7a78-7eb1-4d32-aa77-ae8ed51e3e3f","system_id":"levelo_inurba_marseille","lat":43.3378,"lon":5.37452,"is_reserved":false,"is_disabled":false,"rental_uris":{"android":"levelo://app?vid=d2cf7a78-7eb1-4d32-aa77-ae8ed51e3e3f","ios":"levelo://app?vid=d2cf7a78-7eb1-4d32-aa77-ae8ed51e3e3f"},"vehicle_type_id":"4","last_reported":1732723895,"current_range_meters":17600,"station_id":"","pricing_plan_id":"cebpf4jnsgd1na2vs0mg"},{"bike_id":"1375f2a3-ec68-426b-a53e-6a666ff8f86c","system_id":"levelo_inurba_marseille","lat":43.23153,"lon":5.43709,"is_reserved":false,"is_disabled":false,"rental_uris":{"android":"levelo://app?vid=1375f2a3-ec68-426b-a53e-6a666ff8f86c","ios":"levelo://app?vid=1375f2a3-ec68-426b-a53e-6a666ff8f86c"},"vehicle_type_id":"4","last_reported":1732723895,"current_range_meters":16400,"station_id":"ce4bhmp2rcd13ifvqgog","pricing_plan_id":"cebpf4jnsgd1na2vs0mg"},{"bike_id":"761de6a3-4ffb-4cf0-a646-519e6bb24629","system_id":"levelo_inurba_marseille","lat":43.30235,"lon":5.40082,"is_reserved":false,"is_disabled":false,"rental_uris":{"android":"levelo://app?vid=761de6a3-4ffb-4cf0-a646-519e6bb24629","ios":"levelo://app?vid=761de6a3-4ffb-4cf0-a646-519e6bb24629"},"vehicle_type_id":"4","last_reported":1732723895,"current_range_meters":5600,"station_id":"ce4bgvh2rcd13ifvqcs0","pricing_plan_id":"cebpf4jnsgd1na2vs0mg"},{"bike_id":"ad6f99e3-b782-42d1-880d-f996932d6d7d","system_id":"levelo_inurba_marseille","lat":43.31712,"lon":5.43705,"is_reserved":false,"is_disabled":false,"rental_uris":{"android":"levelo://app?vid=ad6f99e3-b782-42d1-880d-f996932d6d7d","ios":"levelo://app?vid=ad6f99e3-b782-42d1-880d-f996932d6d7d"},"vehicle_type_id":"4","last_reported":1732723895,"current_range_meters":37600,"station_id":"ce4bhp92rcd13ifvqhcg","pricing_plan_id":"cebpf4jnsgd1na2vs0mg"},{"bike_id":"5e6ec2f2-8c35-499b-9895-764d21887cf2","system_id":"levelo_inurba_marseille","lat":43.29881,"lon":5.38909,"is_reserved":false,"is_disabled":false,"rental_uris":{"android":"levelo://app?vid=5e6ec2f2-8c35-499b-9895-764d21887cf2","ios":"levelo://app?vid=5e6ec2f2-8c35-499b-9895-764d21887cf2"},"vehicle_type_id":"4","last_reported":1732723895,"current_range_meters":7200,"station_id":"ce4bh392rcd13ifvqdl0","pricing_plan_id":"cebpf4jnsgd1na2vs0mg"},{"bike_id":"d64715bc-4e6d-46d6-be8f-810319bb1e30","system_id":"levelo_inurba_marseille","lat":43.26191,"lon":5.37446,"is_reserved":false,"is_disabled":false,"rental_uris":{"android":"levelo://app?vid=d64715bc-4e6d-46d6-be8f-810319bb1e30","ios":"levelo://app?vid=d64715bc-4e6d-46d6-be8f-810319bb1e30"},"vehicle_type_id":"4","last_reported":1732723895,"current_range_meters":12000,"station_id":"ce4bhgp2rcd13ifvqfc0","pricing_plan_id":"cebpf4jnsgd1na2vs0mg"},{"bike_id":"e2fcd88a-5b50-4059-b110-891c7847ea5f","system_id":"levelo_inurba_marseille","lat":43.30666,"lon":5.36859,"is_reserved":false,"is_disabled":true,"rental_uris":{"android":"levelo://app?vid=e2fcd88a-5b50-4059-b110-891c7847ea5f","ios":"levelo://app?vid=e2fcd88a-5b50-4059-b110-891c7847ea5f"},"vehicle_type_id":"4","last_reported":1732723895,"current_range_meters":0,"station_id":"","pricing_plan_id":"cebpf4jnsgd1na2vs0mg"},{"bike_id":"3a0b8b47-96f0-4eba-bdaf-218c01b99be2","system_id":"levelo_inurba_marseille","lat":43.31114,"lon":5.37782,"is_reserved":false,"is_disabled":false,"rental_uris":{"android":"levelo://app?vid=3a0b8b47-96f0-4eba-bdaf-218c01b99be2","ios":"levelo://app?vid=3a0b8b47-96f0-4eba-bdaf-218c01b99be2"},"vehicle_type_id":"4","last_reported":1732723895,"current_range_meters":26800,"station_id":"ce4bgt92rcd13ifvqcg0","pricing_plan_id":"cebpf4jnsgd1na2vs0mg"},{"bike_id":"ce15a521-8a1d-47b7-92c8-091ca367d00e","system_id":"levelo_inurba_marseille","lat":43.33758,"lon":5.3745,"is_reserved":false,"is_disabled":false,"rental_uris":{"android":"levelo://app?vid=ce15a521-8a1d-47b7-92c8-091ca367d00e","ios":"levelo://app?vid=ce15a521-8a1d-47b7-92c8-091ca367d00e"},"vehicle_type_id":"4","last_reported":1732723895,"current_range_meters":38800,"station_id":"","pricing_plan_id":"cebpf4jnsgd1na2vs0mg"},{"bike_id":"1495d352-cfb3-4c8d-b30b-9d9281b27ae3","system_id":"levelo_inurba_marseille","lat":43.26788,"lon":5.3941,"is_reserved":false,"is_disabled":true,"rental_uris":{"android":"levelo://app?vid=1495d352-cfb3-4c8d-b30b-9d9281b27ae3","ios":"levelo://app?vid=1495d352-cfb3-4c8d-b30b-9d9281b27ae3"},"vehicle_type_id":"4","last_reported":1732723895,"current_range_meters":0,"station_id":"ce4bhh12rcd13ifvqfg0","pricing_plan_id":"cebpf4jnsgd1na2vs0mg"},{"bike_id":"7a4329b9-23b9-4290-94ff-b65ad4d24039","system_id":"levelo_inurba_marseille","lat":43.29912,"lon":5.37478,"is_reserved":false,"is_disabled":true,"rental_uris":{"android":"levelo://app?vid=7a4329b9-23b9-4290-94ff-b65ad4d24039","ios":"levelo://app?vid=7a4329b9-23b9-4290-94ff-b65ad4d24039"},"vehicle_type_id":"4","last_reported":1732723895,"current_range_meters":27600,"station_id":"ce4bgjh2rcd13ifvqbg0","pricing_plan_id":"cebpf4jnsgd1na2vs0mg"},{"bike_id":"963c20ac-df01-48b3-a2e6-5005bf43eb5c","system_id":"levelo_inurba_marseille","lat":43.26571,"lon":5.38997,"is_reserved":false,"is_disabled":false,"rental_uris":{"android":"levelo://app?vid=963c20ac-df01-48b3-a2e6-5005bf43eb5c","ios":"levelo://app?vid=963c20ac-df01-48b3-a2e6-5005bf43eb5c"},"vehicle_type_id":"4","last_reported":1732723895,"current_range_meters":9200,"station_id":"ce4bhe12rcd13ifvqf30","pricing_plan_id":"cebpf4jnsgd1na2vs0mg"},{"bike_id":"1a29b0d7-d35e-4186-9c6a-528f56e25fa6","system_id":"levelo_inurba_marseille","lat":43.25819,"lon":5.3943,"is_reserved":false,"is_disabled":false,"rental_uris":{"android":"levelo://app?vid=1a29b0d7-d35e-4186-9c6a-528f56e25fa6","ios":"levelo://app?vid=1a29b0d7-d35e-4186-9c6a-528f56e25fa6"},"vehicle_type_id":"4","last_reported":1732723895,"current_range_meters":40000,"station_id":"ce4bhip2rcd13ifvqft0","pricing_plan_id":"cebpf4jnsgd1na2vs0mg"},{"bike_id":"a733fb32-967a-4599-a44f-e9b1eb967eb2","system_id":"levelo_inurba_marseille","lat":43.2815,"lon":5.42638,"is_reserved":false,"is_disabled":false,"rental_uris":{"android":"levelo://app?vid=a733fb32-967a-4599-a44f-e9b1eb967eb2","ios":"levelo://app?vid=a733fb32-967a-4599-a44f-e9b1eb967eb2"},"vehicle_type_id":"4","last_reported":1732723895,"current_range_meters":18800,"station_id":"ce4bhnh2rcd13ifvqgug","pricing_plan_id":"cebpf4jnsgd1na2vs0mg"},{"bike_id":"dd4d37fd-527d-4c39-afdd-3d019c17cebf","system_id":"levelo_inurba_marseille","lat":43.28606,"lon":5.37059,"is_reserved":false,"is_disabled":false,"rental_uris":{"android":"levelo://app?vid=dd4d37fd-527d-4c39-afdd-3d019c17cebf","ios":"levelo://app?vid=dd4d37fd-527d-4c39-afdd-3d019c17cebf"},"vehicle_type_id":"4","last_reported":1732723895,"current_range_meters":38800,"station_id":"ce4bht12rcd13ifvqi60","pricing_plan_id":"cebpf4jnsgd1na2vs0mg"},{"bike_id":"cda97604-fd24-4185-8cfb-40a491de9578","system_id":"levelo_inurba_marseille","lat":43.26931,"lon":5.38922,"is_reserved":false,"is_disabled":false,"rental_uris":{"android":"levelo://app?vid=cda97604-fd24-4185-8cfb-40a491de9578","ios":"levelo://app?vid=cda97604-fd24-4185-8cfb-40a491de9578"},"vehicle_type_id":"4","last_reported":1732723895,"current_range_meters":27200,"station_id":"ce4bhhh2rcd13ifvqfl0","pricing_plan_id":"cebpf4jnsgd1na2vs0mg"},{"bike_id":"6f7949e1-de87-4a49-8620-fec27e04447f","system_id":"levelo_inurba_marseille","lat":43.33739,"lon":5.39187,"is_reserved":false,"is_disabled":false,"rental_uris":{"android":"levelo://app?vid=6f7949e1-de87-4a49-8620-fec27e04447f","ios":"levelo://app?vid=6f7949e1-de87-4a49-8620-fec27e04447f"},"vehicle_type_id":"4","last_reported":1732723895,"current_range_meters":38400,"station_id":"ce4bhr92rcd13ifvqhsg","pricing_plan_id":"cebpf4jnsgd1na2vs0mg"},{"bike_id":"f07b3753-16bd-4951-bde5-2dd0a3d96763","system_id":"levelo_inurba_marseille","lat":43.26199,"lon":5.37447,"is_reserved":false,"is_disabled":false,"rental_uris":{"android":"levelo://app?vid=f07b3753-16bd-4951-bde5-2dd0a3d96763","ios":"levelo://app?vid=f07b3753-16bd-4951-bde5-2dd0a3d96763"},"vehicle_type_id":"4","last_reported":1732723895,"current_range_meters":38800,"station_id":"ce4bhgp2rcd13ifvqfc0","pricing_plan_id":"cebpf4jnsgd1na2vs0mg"},{"bike_id":"55967526-8478-4dfe-ac3d-cbda745e8854","system_id":"levelo_inurba_marseille","lat":43.30217,"lon":5.39471,"is_reserved":false,"is_disabled":false,"rental_uris":{"android":"levelo://app?vid=55967526-8478-4dfe-ac3d-cbda745e8854","ios":"levelo://app?vid=55967526-8478-4dfe-ac3d-cbda745e8854"},"vehicle_type_id":"4","last_reported":1732723895,"current_range_meters":27600,"station_id":"ce4bh0p2rcd13ifvqd70","pricing_plan_id":"cebpf4jnsgd1na2vs0mg"},{"bike_id":"88c0a23c-decf-469d-95fc-e70f9cd8eb3b","system_id":"levelo_inurba_marseille","lat":43.33755,"lon":5.37451,"is_reserved":false,"is_disabled":false,"rental_uris":{"android":"levelo://app?vid=88c0a23c-decf-469d-95fc-e70f9cd8eb3b","ios":"levelo://app?vid=88c0a23c-decf-469d-95fc-e70f9cd8eb3b"},"vehicle_type_id":"4","last_reported":1732723895,"current_range_meters":35200,"station_id":"","pricing_plan_id":"cebpf4jnsgd1na2vs0mg"},{"bike_id":"d93067c3-4848-4450-992d-7925dfe41b1d","system_id":"levelo_inurba_marseille","lat":43.25574,"lon":5.38234,"is_reserved":false,"is_disabled":true,"rental_uris":{"android":"levelo://app?vid=d93067c3-4848-4450-992d-7925dfe41b1d","ios":"levelo://app?vid=d93067c3-4848-4450-992d-7925dfe41b1d"},"vehicle_type_id":"4","last_reported":1732723895,"current_range_meters":0,"station_id":"ce4bhih2rcd13ifvqfs0","pricing_plan_id":"cebpf4jnsgd1na2vs0mg"},{"bike_id":"8c471198-5bbf-4563-a1f8-22b542a69c53","system_id":"levelo_inurba_marseille","lat":43.28464,"lon":5.35892,"is_reserved":false,"is_disabled":false,"rental_uris":{"android":"levelo://app?vid=8c471198-5bbf-4563-a1f8-22b542a69c53","ios":"levelo://app?vid=8c471198-5bbf-4563-a1f8-22b542a69c53"},"vehicle_type_id":"4","last_reported":1732723895,"current_range_meters":17200,"station_id":"ce4bhah2rcd13ifvqei0","pricing_plan_id":"cebpf4jnsgd1na2vs0mg"},{"bike_id":"4162670d-578b-416f-ba54-e799fa0680c6","system_id":"levelo_inurba_marseille","lat":43.24647,"lon":5.38895,"is_reserved":false,"is_disabled":false,"rental_uris":{"android":"levelo://app?vid=4162670d-578b-416f-ba54-e799fa0680c6","ios":"levelo://app?vid=4162670d-578b-416f-ba54-e799fa0680c6"},"vehicle_type_id":"4","last_reported":1732723895,"current_range_meters":38000,"station_id":"ce4bhg12rcd13ifvqf60","pricing_plan_id":"cebpf4jnsgd1na2vs0mg"},{"bike_id":"813cded9-64a9-4f61-b428-4f87def47696","system_id":"levelo_inurba_marseille","lat":43.31715,"lon":5.424,"is_reserved":false,"is_disabled":false,"rental_uris":{"android":"levelo://app?vid=813cded9-64a9-4f61-b428-4f87def47696","ios":"levelo://app?vid=813cded9-64a9-4f61-b428-4f87def47696"},"vehicle_type_id":"4","last_reported":1732723895,"current_range_meters":38000,"station_id":"ce4bhp92rcd13ifvqhbg","pricing_plan_id":"cebpf4jnsgd1na2vs0mg"},{"bike_id":"03c4627a-7ddc-4cad-84e1-fa951407f058","system_id":"levelo_inurba_marseille","lat":43.26557,"lon":5.37283,"is_reserved":false,"is_disabled":true,"rental_uris":{"android":"levelo://app?vid=03c4627a-7ddc-4cad-84e1-fa951407f058","ios":"levelo://app?vid=03c4627a-7ddc-4cad-84e1-fa951407f058"},"vehicle_type_id":"4","last_reported":1732723895,"current_range_meters":0,"station_id":"ce4bhg12rcd13ifvqf70","pricing_plan_id":"cebpf4jnsgd1na2vs0mg"},{"bike_id":"ec6ef646-52c8-4507-96b5-18a47396c863","system_id":"levelo_inurba_marseille","lat":43.25579,"lon":5.38242,"is_reserved":false,"is_disabled":false,"rental_uris":{"android":"levelo://app?vid=ec6ef646-52c8-4507-96b5-18a47396c863","ios":"levelo://app?vid=ec6ef646-52c8-4507-96b5-18a47396c863"},"vehicle_type_id":"4","last_reported":1732723895,"current_range_meters":8800,"station_id":"ce4bhih2rcd13ifvqfs0","pricing_plan_id":"cebpf4jnsgd1na2vs0mg"},{"bike_id":"d6d1854d-c533-4e21-aac0-8992e9ca1ced","system_id":"levelo_inurba_marseille","lat":43.28938,"lon":5.36405,"is_reserved":false,"is_disabled":false,"rental_uris":{"android":"levelo://app?vid=d6d1854d-c533-4e21-aac0-8992e9ca1ced","ios":"levelo://app?vid=d6d1854d-c533-4e21-aac0-8992e9ca1ced"},"vehicle_type_id":"4","last_reported":1732723895,"current_range_meters":27200,"station_id":"ce4bhc92rcd13ifvqetg","pricing_plan_id":"cebpf4jnsgd1na2vs0mg"},{"bike_id":"a04ad84c-0274-457e-a2a3-807c11604d95","system_id":"levelo_inurba_marseille","lat":43.3053,"lon":5.36713,"is_reserved":false,"is_disabled":false,"rental_uris":{"android":"levelo://app?vid=a04ad84c-0274-457e-a2a3-807c11604d95","ios":"levelo://app?vid=a04ad84c-0274-457e-a2a3-807c11604d95"},"vehicle_type_id":"4","last_reported":1732723895,"current_range_meters":18000,"station_id":"ce4bgrp2rcd13ifvqc9g","pricing_plan_id":"cebpf4jnsgd1na2vs0mg"},{"bike_id":"0e5557a4-0b7a-43c3-a639-95d5339fc7b4","system_id":"levelo_inurba_marseille","lat":43.28158,"lon":5.42642,"is_reserved":false,"is_disabled":false,"rental_uris":{"android":"levelo://app?vid=0e5557a4-0b7a-43c3-a639-95d5339fc7b4","ios":"levelo://app?vid=0e5557a4-0b7a-43c3-a639-95d5339fc7b4"},"vehicle_type_id":"4","last_reported":1732723895,"current_range_meters":35200,"station_id":"ce4bhnh2rcd13ifvqgug","pricing_plan_id":"cebpf4jnsgd1na2vs0mg"},{"bike_id":"7bc9a943-e713-468f-be90-cc5ac217da17","system_id":"levelo_inurba_marseille","lat":43.27059,"lon":5.4026,"is_reserved":false,"is_disabled":false,"rental_uris":{"android":"levelo://app?vid=7bc9a943-e713-468f-be90-cc5ac217da17","ios":"levelo://app?vid=7bc9a943-e713-468f-be90-cc5ac217da17"},"vehicle_type_id":"4","last_reported":1732723895,"current_range_meters":14400,"station_id":"ce4bhk92rcd13ifvqgc0","pricing_plan_id":"cebpf4jnsgd1na2vs0mg"},{"bike_id":"c7d5bd6c-3688-4cf2-b837-5c3c9133aab5","system_id":"levelo_inurba_marseille","lat":43.28457,"lon":5.35883,"is_reserved":false,"is_disabled":false,"rental_uris":{"android":"levelo://app?vid=c7d5bd6c-3688-4cf2-b837-5c3c9133aab5","ios":"levelo://app?vid=c7d5bd6c-3688-4cf2-b837-5c3c9133aab5"},"vehicle_type_id":"4","last_reported":1732723895,"current_range_meters":28400,"station_id":"ce4bhah2rcd13ifvqei0","pricing_plan_id":"cebpf4jnsgd1na2vs0mg"},{"bike_id":"d38fca74-67eb-4559-8900-5150e7d5ba0d","system_id":"levelo_inurba_marseille","lat":43.28928,"lon":5.36652,"is_reserved":false,"is_disabled":true,"rental_uris":{"android":"levelo://app?vid=d38fca74-67eb-4559-8900-5150e7d5ba0d","ios":"levelo://app?vid=d38fca74-67eb-4559-8900-5150e7d5ba0d"},"vehicle_type_id":"4","last_reported":1732723895,"current_range_meters":0,"station_id":"ce4bhap2rcd13ifvqek0","pricing_plan_id":"cebpf4jnsgd1na2vs0mg"},{"bike_id":"775aba22-baf5-4ce5-b645-5941a20cb104","system_id":"levelo_inurba_marseille","lat":43.27379,"lon":5.36252,"is_reserved":false,"is_disabled":true,"rental_uris":{"android":"levelo://app?vid=775aba22-baf5-4ce5-b645-5941a20cb104","ios":"levelo://app?vid=775aba22-baf5-4ce5-b645-5941a20cb104"},"vehicle_type_id":"4","last_reported":1732723895,"current_range_meters":38400,"station_id":"ce4bhbh2rcd13ifvqeo0","pricing_plan_id":"cebpf4jnsgd1na2vs0mg"},{"bike_id":"d3c5f1d0-65c4-47e6-9186-a8d6ba7ab7f6","system_id":"levelo_inurba_marseille","lat":43.32001,"lon":5.38169,"is_reserved":false,"is_disabled":false,"rental_uris":{"android":"levelo://app?vid=d3c5f1d0-65c4-47e6-9186-a8d6ba7ab7f6","ios":"levelo://app?vid=d3c5f1d0-65c4-47e6-9186-a8d6ba7ab7f6"},"vehicle_type_id":"4","last_reported":1732723895,"current_range_meters":13600,"station_id":"ce4bhr12rcd13ifvqhpg","pricing_plan_id":"cebpf4jnsgd1na2vs0mg"},{"bike_id":"10515226-3d19-49b0-b8c2-7bbf5cbf72e4","system_id":"levelo_inurba_marseille","lat":43.289914,"lon":5.355796,"is_reserved":false,"is_disabled":true,"rental_uris":{"android":"levelo://app?vid=10515226-3d19-49b0-b8c2-7bbf5cbf72e4","ios":"levelo://app?vid=10515226-3d19-49b0-b8c2-7bbf5cbf72e4"},"vehicle_type_id":"4","last_reported":1732723895,"current_range_meters":28400,"station_id":"ce4bhb92rcd13ifvqen0","pricing_plan_id":"cebpf4jnsgd1na2vs0mg"},{"bike_id":"e4ac20e5-90c0-4ead-a091-433a597028b4","system_id":"levelo_inurba_marseille","lat":43.3173,"lon":5.42392,"is_reserved":false,"is_disabled":false,"rental_uris":{"android":"levelo://app?vid=e4ac20e5-90c0-4ead-a091-433a597028b4","ios":"levelo://app?vid=e4ac20e5-90c0-4ead-a091-433a597028b4"},"vehicle_type_id":"4","last_reported":1732723895,"current_range_meters":38800,"station_id":"ce4bhp92rcd13ifvqhbg","pricing_plan_id":"cebpf4jnsgd1na2vs0mg"},{"bike_id":"4d4c884f-6933-49c0-8899-f9856d90f44d","system_id":"levelo_inurba_marseille","lat":43.29748,"lon":5.37968,"is_reserved":false,"is_disabled":true,"rental_uris":{"android":"levelo://app?vid=4d4c884f-6933-49c0-8899-f9856d90f44d","ios":"levelo://app?vid=4d4c884f-6933-49c0-8899-f9856d90f44d"},"vehicle_type_id":"4","last_reported":1732723895,"current_range_meters":0,"station_id":"","pricing_plan_id":"cebpf4jnsgd1na2vs0mg"},{"bike_id":"6c62ff4d-3ecd-49fa-b856-c87f958db3f9","system_id":"levelo_inurba_marseille","lat":43.3126,"lon":5.40165,"is_reserved":false,"is_disabled":false,"rental_uris":{"android":"levelo://app?vid=6c62ff4d-3ecd-49fa-b856-c87f958db3f9","ios":"levelo://app?vid=6c62ff4d-3ecd-49fa-b856-c87f958db3f9"},"vehicle_type_id":"4","last_reported":1732723895,"current_range_meters":31200,"station_id":"ce4bh092rcd13ifvqd30","pricing_plan_id":"cebpf4jnsgd1na2vs0mg"},{"bike_id":"9009be37-c6b1-406b-b0a8-fbab355f715e","system_id":"levelo_inurba_marseille","lat":43.33761,"lon":5.37497,"is_reserved":false,"is_disabled":false,"rental_uris":{"android":"levelo://app?vid=9009be37-c6b1-406b-b0a8-fbab355f715e","ios":"levelo://app?vid=9009be37-c6b1-406b-b0a8-fbab355f715e"},"vehicle_type_id":"4","last_reported":1732723895,"current_range_meters":38400,"station_id":"","pricing_plan_id":"cebpf4jnsgd1na2vs0mg"},{"bike_id":"79e0b48c-a0ec-44c8-b7cc-20d7d7adc530","system_id":"levelo_inurba_marseille","lat":43.31994,"lon":5.38151,"is_reserved":false,"is_disabled":false,"rental_uris":{"android":"levelo://app?vid=79e0b48c-a0ec-44c8-b7cc-20d7d7adc530","ios":"levelo://app?vid=79e0b48c-a0ec-44c8-b7cc-20d7d7adc530"},"vehicle_type_id":"4","last_reported":1732723895,"current_range_meters":39200,"station_id":"ce4bhr12rcd13ifvqhpg","pricing_plan_id":"cebpf4jnsgd1na2vs0mg"},{"bike_id":"787da3e5-5eaa-466d-a942-f9510f3bbd6d","system_id":"levelo_inurba_marseille","lat":43.27922,"lon":5.39578,"is_reserved":false,"is_disabled":true,"rental_uris":{"android":"levelo://app?vid=787da3e5-5eaa-466d-a942-f9510f3bbd6d","ios":"levelo://app?vid=787da3e5-5eaa-466d-a942-f9510f3bbd6d"},"vehicle_type_id":"4","last_reported":1732723895,"current_range_meters":0,"station_id":"ce4bhf92rcd13ifvqf40","pricing_plan_id":"cebpf4jnsgd1na2vs0mg"},{"bike_id":"299f58fd-6e29-4e06-a65a-1ba6949f2bdc","system_id":"levelo_inurba_marseille","lat":43.33786,"lon":5.37392,"is_reserved":false,"is_disabled":false,"rental_uris":{"android":"levelo://app?vid=299f58fd-6e29-4e06-a65a-1ba6949f2bdc","ios":"levelo://app?vid=299f58fd-6e29-4e06-a65a-1ba6949f2bdc"},"vehicle_type_id":"4","last_reported":1732723895,"current_range_meters":36000,"station_id":"","pricing_plan_id":"cebpf4jnsgd1na2vs0mg"},{"bike_id":"4d809776-4d2b-4bf5-8aa6-666b5b1fd18f","system_id":"levelo_inurba_marseille","lat":43.33735,"lon":5.39187,"is_reserved":false,"is_disabled":false,"rental_uris":{"android":"levelo://app?vid=4d809776-4d2b-4bf5-8aa6-666b5b1fd18f","ios":"levelo://app?vid=4d809776-4d2b-4bf5-8aa6-666b5b1fd18f"},"vehicle_type_id":"4","last_reported":1732723895,"current_range_meters":37600,"station_id":"ce4bhr92rcd13ifvqhsg","pricing_plan_id":"cebpf4jnsgd1na2vs0mg"},{"bike_id":"24b2d706-14f2-4a05-a5fd-2a7358cbae81","system_id":"levelo_inurba_marseille","lat":43.24637,"lon":5.38895,"is_reserved":false,"is_disabled":true,"rental_uris":{"android":"levelo://app?vid=24b2d706-14f2-4a05-a5fd-2a7358cbae81","ios":"levelo://app?vid=24b2d706-14f2-4a05-a5fd-2a7358cbae81"},"vehicle_type_id":"4","last_reported":1732723895,"current_range_meters":3200,"station_id":"ce4bhg12rcd13ifvqf60","pricing_plan_id":"cebpf4jnsgd1na2vs0mg"},{"bike_id":"7dccca16-9c81-46ba-8ec7-8ac114550316","system_id":"levelo_inurba_marseille","lat":43.337444,"lon":5.374475,"is_reserved":false,"is_disabled":false,"rental_uris":{"android":"levelo://app?vid=7dccca16-9c81-46ba-8ec7-8ac114550316","ios":"levelo://app?vid=7dccca16-9c81-46ba-8ec7-8ac114550316"},"vehicle_type_id":"4","last_reported":1732723895,"current_range_meters":36800,"station_id":"","pricing_plan_id":"cebpf4jnsgd1na2vs0mg"},{"bike_id":"0ff7cc59-8fd2-48a3-8243-e9e0abbc8fd0","system_id":"levelo_inurba_marseille","lat":43.27997,"lon":5.40026,"is_reserved":false,"is_disabled":false,"rental_uris":{"android":"levelo://app?vid=0ff7cc59-8fd2-48a3-8243-e9e0abbc8fd0","ios":"levelo://app?vid=0ff7cc59-8fd2-48a3-8243-e9e0abbc8fd0"},"vehicle_type_id":"4","last_reported":1732723895,"current_range_meters":9600,"station_id":"ce4bho92rcd13ifvqh4g","pricing_plan_id":"cebpf4jnsgd1na2vs0mg"},{"bike_id":"2187e535-3599-4041-84cb-d67a808c5d93","system_id":"levelo_inurba_marseille","lat":43.289825,"lon":5.378483,"is_reserved":false,"is_disabled":false,"rental_uris":{"android":"levelo://app?vid=2187e535-3599-4041-84cb-d67a808c5d93","ios":"levelo://app?vid=2187e535-3599-4041-84cb-d67a808c5d93"},"vehicle_type_id":"4","last_reported":1732723895,"current_range_meters":38800,"station_id":"ce4bh9p2rcd13ifvqed0","pricing_plan_id":"cebpf4jnsgd1na2vs0mg"},{"bike_id":"5ab4379d-d45f-45e0-94a2-5aa1ac1c19b6","system_id":"levelo_inurba_marseille","lat":43.28945,"lon":5.39636,"is_reserved":false,"is_disabled":false,"rental_uris":{"android":"levelo://app?vid=5ab4379d-d45f-45e0-94a2-5aa1ac1c19b6","ios":"levelo://app?vid=5ab4379d-d45f-45e0-94a2-5aa1ac1c19b6"},"vehicle_type_id":"4","last_reported":1732723895,"current_range_meters":19200,"station_id":"ce4bh3h2rcd13ifvqdn0","pricing_plan_id":"cebpf4jnsgd1na2vs0mg"},{"bike_id":"631e84b8-7569-4f4e-bac8-ac7fe16bacd3","system_id":"levelo_inurba_marseille","lat":43.280835,"lon":5.396475,"is_reserved":false,"is_disabled":false,"rental_uris":{"android":"levelo://app?vid=631e84b8-7569-4f4e-bac8-ac7fe16bacd3","ios":"levelo://app?vid=631e84b8-7569-4f4e-bac8-ac7fe16bacd3"},"vehicle_type_id":"4","last_reported":1732723895,"current_range_meters":19200,"station_id":"ce4bho12rcd13ifvqh2g","pricing_plan_id":"cebpf4jnsgd1na2vs0mg"},{"bike_id":"7b45e0d0-86a8-47b5-8420-74a05761af04","system_id":"levelo_inurba_marseille","lat":43.279216,"lon":5.39591,"is_reserved":false,"is_disabled":true,"rental_uris":{"android":"levelo://app?vid=7b45e0d0-86a8-47b5-8420-74a05761af04","ios":"levelo://app?vid=7b45e0d0-86a8-47b5-8420-74a05761af04"},"vehicle_type_id":"4","last_reported":1732723895,"current_range_meters":0,"station_id":"ce4bhf92rcd13ifvqf40","pricing_plan_id":"cebpf4jnsgd1na2vs0mg"},{"bike_id":"485a41f1-add8-4c91-89ec-1b6d126f2857","system_id":"levelo_inurba_marseille","lat":43.304279,"lon":5.397432,"is_reserved":false,"is_disabled":false,"rental_uris":{"android":"levelo://app?vid=485a41f1-add8-4c91-89ec-1b6d126f2857","ios":"levelo://app?vid=485a41f1-add8-4c91-89ec-1b6d126f2857"},"vehicle_type_id":"4","last_reported":1732723895,"current_range_meters":35600,"station_id":"ce4bh092rcd13ifvqd20","pricing_plan_id":"cebpf4jnsgd1na2vs0mg"},{"bike_id":"a1a39c53-e8d0-4c85-94d7-cac4c0776b02","system_id":"levelo_inurba_marseille","lat":43.29037,"lon":5.38653,"is_reserved":false,"is_disabled":false,"rental_uris":{"android":"levelo://app?vid=a1a39c53-e8d0-4c85-94d7-cac4c0776b02","ios":"levelo://app?vid=a1a39c53-e8d0-4c85-94d7-cac4c0776b02"},"vehicle_type_id":"4","last_reported":1732723895,"current_range_meters":32400,"station_id":"ce4bh4p2rcd13ifvqe0g","pricing_plan_id":"cebpf4jnsgd1na2vs0mg"},{"bike_id":"1579670f-f785-4f48-810d-a3c5af0fbb1e","system_id":"levelo_inurba_marseille","lat":43.26209,"lon":5.37441,"is_reserved":false,"is_disabled":true,"rental_uris":{"android":"levelo://app?vid=1579670f-f785-4f48-810d-a3c5af0fbb1e","ios":"levelo://app?vid=1579670f-f785-4f48-810d-a3c5af0fbb1e"},"vehicle_type_id":"4","last_reported":1732723895,"current_range_meters":0,"station_id":"ce4bhgp2rcd13ifvqfc0","pricing_plan_id":"cebpf4jnsgd1na2vs0mg"},{"bike_id":"59e0b4d5-746e-446a-af7e-c950275211e3","system_id":"levelo_inurba_marseille","lat":43.28397,"lon":5.37519,"is_reserved":false,"is_disabled":false,"rental_uris":{"android":"levelo://app?vid=59e0b4d5-746e-446a-af7e-c950275211e3","ios":"levelo://app?vid=59e0b4d5-746e-446a-af7e-c950275211e3"},"vehicle_type_id":"4","last_reported":1732723895,"current_range_meters":26000,"station_id":"ce4bh412rcd13ifvqds0","pricing_plan_id":"cebpf4jnsgd1na2vs0mg"},{"bike_id":"9f829615-a360-47bc-872a-f61471d53cab","system_id":"levelo_inurba_marseille","lat":43.24998,"lon":5.38921,"is_reserved":false,"is_disabled":false,"rental_uris":{"android":"levelo://app?vid=9f829615-a360-47bc-872a-f61471d53cab","ios":"levelo://app?vid=9f829615-a360-47bc-872a-f61471d53cab"},"vehicle_type_id":"4","last_reported":1732723895,"current_range_meters":30400,"station_id":"ce4bhgp2rcd13ifvqfd0","pricing_plan_id":"cebpf4jnsgd1na2vs0mg"},{"bike_id":"6c6a93bf-e171-448f-8ea9-1241abd089a1","system_id":"levelo_inurba_marseille","lat":43.27819,"lon":5.40715,"is_reserved":false,"is_disabled":true,"rental_uris":{"android":"levelo://app?vid=6c6a93bf-e171-448f-8ea9-1241abd089a1","ios":"levelo://app?vid=6c6a93bf-e171-448f-8ea9-1241abd089a1"},"vehicle_type_id":"4","last_reported":1732723895,"current_range_meters":0,"station_id":"ce4bhnh2rcd13ifvqgtg","pricing_plan_id":"cebpf4jnsgd1na2vs0mg"},{"bike_id":"39b04c21-6a6a-40a7-a489-741c2b67c9bd","system_id":"levelo_inurba_marseille","lat":43.3372,"lon":5.39196,"is_reserved":false,"is_disabled":false,"rental_uris":{"android":"levelo://app?vid=39b04c21-6a6a-40a7-a489-741c2b67c9bd","ios":"levelo://app?vid=39b04c21-6a6a-40a7-a489-741c2b67c9bd"},"vehicle_type_id":"4","last_reported":1732723895,"current_range_meters":9600,"station_id":"ce4bhr92rcd13ifvqhsg","pricing_plan_id":"cebpf4jnsgd1na2vs0mg"},{"bike_id":"868e9e92-221f-49b0-87d2-ed0d0bbdb6b2","system_id":"levelo_inurba_marseille","lat":43.28979,"lon":5.37837,"is_reserved":false,"is_disabled":false,"rental_uris":{"android":"levelo://app?vid=868e9e92-221f-49b0-87d2-ed0d0bbdb6b2","ios":"levelo://app?vid=868e9e92-221f-49b0-87d2-ed0d0bbdb6b2"},"vehicle_type_id":"4","last_reported":1732723895,"current_range_meters":4400,"station_id":"ce4bh9p2rcd13ifvqed0","pricing_plan_id":"cebpf4jnsgd1na2vs0mg"},{"bike_id":"f8fdd00e-7c77-4197-8647-f600cbcdb7e8","system_id":"levelo_inurba_marseille","lat":43.2996,"lon":5.38498,"is_reserved":false,"is_disabled":true,"rental_uris":{"android":"levelo://app?vid=f8fdd00e-7c77-4197-8647-f600cbcdb7e8","ios":"levelo://app?vid=f8fdd00e-7c77-4197-8647-f600cbcdb7e8"},"vehicle_type_id":"4","last_reported":1732723895,"current_range_meters":0,"station_id":"ce4bgj92rcd13ifvqbd0","pricing_plan_id":"cebpf4jnsgd1na2vs0mg"},{"bike_id":"4d9a035b-f52e-42ce-93b2-c0b2e0dc86fb","system_id":"levelo_inurba_marseille","lat":43.31223,"lon":5.36856,"is_reserved":false,"is_disabled":false,"rental_uris":{"android":"levelo://app?vid=4d9a035b-f52e-42ce-93b2-c0b2e0dc86fb","ios":"levelo://app?vid=4d9a035b-f52e-42ce-93b2-c0b2e0dc86fb"},"vehicle_type_id":"4","last_reported":1732723895,"current_range_meters":15200,"station_id":"ce4bgl92rcd13ifvqbq0","pricing_plan_id":"cebpf4jnsgd1na2vs0mg"},{"bike_id":"34cbec49-eeaf-411d-80f2-b68e724f1d2f","system_id":"levelo_inurba_marseille","lat":43.29,"lon":5.35615,"is_reserved":false,"is_disabled":false,"rental_uris":{"android":"levelo://app?vid=34cbec49-eeaf-411d-80f2-b68e724f1d2f","ios":"levelo://app?vid=34cbec49-eeaf-411d-80f2-b68e724f1d2f"},"vehicle_type_id":"4","last_reported":1732723895,"current_range_meters":33600,"station_id":"ce4bhb92rcd13ifvqen0","pricing_plan_id":"cebpf4jnsgd1na2vs0mg"},{"bike_id":"36296f5c-0176-4be0-97c8-7930cda9c369","system_id":"levelo_inurba_marseille","lat":43.32105,"lon":5.3678,"is_reserved":false,"is_disabled":false,"rental_uris":{"android":"levelo://app?vid=36296f5c-0176-4be0-97c8-7930cda9c369","ios":"levelo://app?vid=36296f5c-0176-4be0-97c8-7930cda9c369"},"vehicle_type_id":"4","last_reported":1732723895,"current_range_meters":16000,"station_id":"ce4bhrh2rcd13ifvqhug","pricing_plan_id":"cebpf4jnsgd1na2vs0mg"},{"bike_id":"ad3a700f-a034-42d0-afc0-ee59a9cbce99","system_id":"levelo_inurba_marseille","lat":43.3237,"lon":5.3888,"is_reserved":false,"is_disabled":false,"rental_uris":{"android":"levelo://app?vid=ad3a700f-a034-42d0-afc0-ee59a9cbce99","ios":"levelo://app?vid=ad3a700f-a034-42d0-afc0-ee59a9cbce99"},"vehicle_type_id":"4","last_reported":1732723895,"current_range_meters":34000,"station_id":"ce4bhqp2rcd13ifvqhog","pricing_plan_id":"cebpf4jnsgd1na2vs0mg"},{"bike_id":"49e05f37-4979-4836-a9fb-58b8241dc665","system_id":"levelo_inurba_marseille","lat":43.29609,"lon":5.37725,"is_reserved":false,"is_disabled":false,"rental_uris":{"android":"levelo://app?vid=49e05f37-4979-4836-a9fb-58b8241dc665","ios":"levelo://app?vid=49e05f37-4979-4836-a9fb-58b8241dc665"},"vehicle_type_id":"4","last_reported":1732723895,"current_range_meters":24000,"station_id":"ce4bgi92rcd13ifvqb90","pricing_plan_id":"cebpf4jnsgd1na2vs0mg"},{"bike_id":"4cbe1a6f-7d26-4519-b006-a2a8cca73281","system_id":"levelo_inurba_marseille","lat":43.31719,"lon":5.43708,"is_reserved":false,"is_disabled":false,"rental_uris":{"android":"levelo://app?vid=4cbe1a6f-7d26-4519-b006-a2a8cca73281","ios":"levelo://app?vid=4cbe1a6f-7d26-4519-b006-a2a8cca73281"},"vehicle_type_id":"4","last_reported":1732723895,"current_range_meters":38400,"station_id":"ce4bhp92rcd13ifvqhcg","pricing_plan_id":"cebpf4jnsgd1na2vs0mg"},{"bike_id":"897af377-1107-49d1-9b1a-704b94587b09","system_id":"levelo_inurba_marseille","lat":43.29208,"lon":5.36079,"is_reserved":false,"is_disabled":false,"rental_uris":{"android":"levelo://app?vid=897af377-1107-49d1-9b1a-704b94587b09","ios":"levelo://app?vid=897af377-1107-49d1-9b1a-704b94587b09"},"vehicle_type_id":"4","last_reported":1732723895,"current_range_meters":38800,"station_id":"ce4bhbh2rcd13ifvqeqg","pricing_plan_id":"cebpf4jnsgd1na2vs0mg"},{"bike_id":"cab5a014-e130-49c9-8d5e-f3da0783e821","system_id":"levelo_inurba_marseille","lat":43.25577,"lon":5.38238,"is_reserved":false,"is_disabled":false,"rental_uris":{"android":"levelo://app?vid=cab5a014-e130-49c9-8d5e-f3da0783e821","ios":"levelo://app?vid=cab5a014-e130-49c9-8d5e-f3da0783e821"},"vehicle_type_id":"4","last_reported":1732723895,"current_range_meters":6000,"station_id":"ce4bhih2rcd13ifvqfs0","pricing_plan_id":"cebpf4jnsgd1na2vs0mg"},{"bike_id":"c09f4df8-d987-46fa-8795-74e0fc50c627","system_id":"levelo_inurba_marseille","lat":43.30162,"lon":5.38083,"is_reserved":false,"is_disabled":false,"rental_uris":{"android":"levelo://app?vid=c09f4df8-d987-46fa-8795-74e0fc50c627","ios":"levelo://app?vid=c09f4df8-d987-46fa-8795-74e0fc50c627"},"vehicle_type_id":"4","last_reported":1732723895,"current_range_meters":28800,"station_id":"ce4bgjp2rcd13ifvqbh0","pricing_plan_id":"cebpf4jnsgd1na2vs0mg"},{"bike_id":"d06aaab7-4a56-4e9c-b023-2a6fced4e218","system_id":"levelo_inurba_marseille","lat":43.23152,"lon":5.43706,"is_reserved":false,"is_disabled":true,"rental_uris":{"android":"levelo://app?vid=d06aaab7-4a56-4e9c-b023-2a6fced4e218","ios":"levelo://app?vid=d06aaab7-4a56-4e9c-b023-2a6fced4e218"},"vehicle_type_id":"4","last_reported":1732723895,"current_range_meters":0,"station_id":"ce4bhmp2rcd13ifvqgog","pricing_plan_id":"cebpf4jnsgd1na2vs0mg"},{"bike_id":"464e6a70-f3c3-4364-bc90-2f451fe0efe1","system_id":"levelo_inurba_marseille","lat":43.27671,"lon":5.38911,"is_reserved":false,"is_disabled":false,"rental_uris":{"android":"levelo://app?vid=464e6a70-f3c3-4364-bc90-2f451fe0efe1","ios":"levelo://app?vid=464e6a70-f3c3-4364-bc90-2f451fe0efe1"},"vehicle_type_id":"4","last_reported":1732723895,"current_range_meters":39200,"station_id":"ce4bhi12rcd13ifvqfo0","pricing_plan_id":"cebpf4jnsgd1na2vs0mg"},{"bike_id":"b29b0b64-231f-4eb2-812b-63f6c74d2116","system_id":"levelo_inurba_marseille","lat":43.31487,"lon":5.37283,"is_reserved":false,"is_disabled":false,"rental_uris":{"android":"levelo://app?vid=b29b0b64-231f-4eb2-812b-63f6c74d2116","ios":"levelo://app?vid=b29b0b64-231f-4eb2-812b-63f6c74d2116"},"vehicle_type_id":"4","last_reported":1732723895,"current_range_meters":14800,"station_id":"ce4bgt12rcd13ifvqcd0","pricing_plan_id":"cebpf4jnsgd1na2vs0mg"},{"bike_id":"1cd78e3c-eca2-430e-a00b-3450b52eb373","system_id":"levelo_inurba_marseille","lat":43.22928,"lon":5.3538,"is_reserved":false,"is_disabled":false,"rental_uris":{"android":"levelo://app?vid=1cd78e3c-eca2-430e-a00b-3450b52eb373","ios":"levelo://app?vid=1cd78e3c-eca2-430e-a00b-3450b52eb373"},"vehicle_type_id":"4","last_reported":1732723895,"current_range_meters":36800,"station_id":"cpo3532slgdg3j2ikp40","pricing_plan_id":"cebpf4jnsgd1na2vs0mg"},{"bike_id":"e880ec50-a13a-4284-90b8-6f79648e0ca2","system_id":"levelo_inurba_marseille","lat":43.27572,"lon":5.384167,"is_reserved":false,"is_disabled":true,"rental_uris":{"android":"levelo://app?vid=e880ec50-a13a-4284-90b8-6f79648e0ca2","ios":"levelo://app?vid=e880ec50-a13a-4284-90b8-6f79648e0ca2"},"vehicle_type_id":"4","last_reported":1732723895,"current_range_meters":1200,"station_id":"ce4bhh92rcd13ifvqfi0","pricing_plan_id":"cebpf4jnsgd1na2vs0mg"},{"bike_id":"681460a9-806c-471b-88e8-ce403c82f10b","system_id":"levelo_inurba_marseille","lat":43.30644,"lon":5.36887,"is_reserved":false,"is_disabled":true,"rental_uris":{"android":"levelo://app?vid=681460a9-806c-471b-88e8-ce403c82f10b","ios":"levelo://app?vid=681460a9-806c-471b-88e8-ce403c82f10b"},"vehicle_type_id":"4","last_reported":1732723895,"current_range_meters":0,"station_id":"","pricing_plan_id":"cebpf4jnsgd1na2vs0mg"},{"bike_id":"0cfb5b85-a56b-4f39-ba6e-03fd791329da","system_id":"levelo_inurba_marseille","lat":43.29277,"lon":5.3745,"is_reserved":false,"is_disabled":false,"rental_uris":{"android":"levelo://app?vid=0cfb5b85-a56b-4f39-ba6e-03fd791329da","ios":"levelo://app?vid=0cfb5b85-a56b-4f39-ba6e-03fd791329da"},"vehicle_type_id":"4","last_reported":1732723895,"current_range_meters":38400,"station_id":"ce4bgi12rcd13ifvqb70","pricing_plan_id":"cebpf4jnsgd1na2vs0mg"},{"bike_id":"78cef642-a0b1-46d4-ae22-e2900f040d1a","system_id":"levelo_inurba_marseille","lat":43.2862,"lon":5.35099,"is_reserved":false,"is_disabled":false,"rental_uris":{"android":"levelo://app?vid=78cef642-a0b1-46d4-ae22-e2900f040d1a","ios":"levelo://app?vid=78cef642-a0b1-46d4-ae22-e2900f040d1a"},"vehicle_type_id":"4","last_reported":1732723895,"current_range_meters":23200,"station_id":"ce4bhch2rcd13ifvqeug","pricing_plan_id":"cebpf4jnsgd1na2vs0mg"},{"bike_id":"8246edc1-bff6-44e0-8ad1-75c23e1bfbd7","system_id":"levelo_inurba_marseille","lat":43.26936,"lon":5.40255,"is_reserved":false,"is_disabled":false,"rental_uris":{"android":"levelo://app?vid=8246edc1-bff6-44e0-8ad1-75c23e1bfbd7","ios":"levelo://app?vid=8246edc1-bff6-44e0-8ad1-75c23e1bfbd7"},"vehicle_type_id":"4","last_reported":1732723895,"current_range_meters":12000,"station_id":"cjm6bp8fraef2m0cb0m0","pricing_plan_id":"cebpf4jnsgd1na2vs0mg"},{"bike_id":"146859be-050c-4fa7-9473-10d8176aeefd","system_id":"levelo_inurba_marseille","lat":43.25937,"lon":5.40918,"is_reserved":false,"is_disabled":true,"rental_uris":{"android":"levelo://app?vid=146859be-050c-4fa7-9473-10d8176aeefd","ios":"levelo://app?vid=146859be-050c-4fa7-9473-10d8176aeefd"},"vehicle_type_id":"4","last_reported":1732723895,"current_range_meters":0,"station_id":"ce4bhm92rcd13ifvqglg","pricing_plan_id":"cebpf4jnsgd1na2vs0mg"},{"bike_id":"4209c6dd-6cf5-41d7-9a23-5ded2291d375","system_id":"levelo_inurba_marseille","lat":43.29527,"lon":5.375,"is_reserved":false,"is_disabled":false,"rental_uris":{"android":"levelo://app?vid=4209c6dd-6cf5-41d7-9a23-5ded2291d375","ios":"levelo://app?vid=4209c6dd-6cf5-41d7-9a23-5ded2291d375"},"vehicle_type_id":"4","last_reported":1732723895,"current_range_meters":16000,"station_id":"ce4bgkp2rcd13ifvqbmg","pricing_plan_id":"cebpf4jnsgd1na2vs0mg"},{"bike_id":"8e1128f3-5228-4da6-8493-19c1d4df6871","system_id":"levelo_inurba_marseille","lat":43.29623,"lon":5.37159,"is_reserved":false,"is_disabled":false,"rental_uris":{"android":"levelo://app?vid=8e1128f3-5228-4da6-8493-19c1d4df6871","ios":"levelo://app?vid=8e1128f3-5228-4da6-8493-19c1d4df6871"},"vehicle_type_id":"4","last_reported":1732723895,"current_range_meters":30000,"station_id":"ce4bgnh2rcd13ifvqc0g","pricing_plan_id":"cebpf4jnsgd1na2vs0mg"},{"bike_id":"e70098e4-8d5b-40ba-ac17-dfc24b445eee","system_id":"levelo_inurba_marseille","lat":43.30145,"lon":5.38077,"is_reserved":false,"is_disabled":false,"rental_uris":{"android":"levelo://app?vid=e70098e4-8d5b-40ba-ac17-dfc24b445eee","ios":"levelo://app?vid=e70098e4-8d5b-40ba-ac17-dfc24b445eee"},"vehicle_type_id":"4","last_reported":1732723895,"current_range_meters":35600,"station_id":"ce4bgjp2rcd13ifvqbh0","pricing_plan_id":"cebpf4jnsgd1na2vs0mg"},{"bike_id":"7acf64e6-102c-4b24-bfca-4cd2f2ab9f83","system_id":"levelo_inurba_marseille","lat":43.30541,"lon":5.3651,"is_reserved":false,"is_disabled":true,"rental_uris":{"android":"levelo://app?vid=7acf64e6-102c-4b24-bfca-4cd2f2ab9f83","ios":"levelo://app?vid=7acf64e6-102c-4b24-bfca-4cd2f2ab9f83"},"vehicle_type_id":"4","last_reported":1732723895,"current_range_meters":1200,"station_id":"ce4bgs12rcd13ifvqcag","pricing_plan_id":"cebpf4jnsgd1na2vs0mg"},{"bike_id":"2e95a691-d7d8-426b-8dba-47b6b56c6a41","system_id":"levelo_inurba_marseille","lat":43.2815,"lon":5.4265,"is_reserved":false,"is_disabled":true,"rental_uris":{"android":"levelo://app?vid=2e95a691-d7d8-426b-8dba-47b6b56c6a41","ios":"levelo://app?vid=2e95a691-d7d8-426b-8dba-47b6b56c6a41"},"vehicle_type_id":"4","last_reported":1732723895,"current_range_meters":1200,"station_id":"ce4bhnh2rcd13ifvqgug","pricing_plan_id":"cebpf4jnsgd1na2vs0mg"},{"bike_id":"9bfa5a35-2392-4742-a34f-4ab9350823ef","system_id":"levelo_inurba_marseille","lat":43.28698,"lon":5.39988,"is_reserved":false,"is_disabled":true,"rental_uris":{"android":"levelo://app?vid=9bfa5a35-2392-4742-a34f-4ab9350823ef","ios":"levelo://app?vid=9bfa5a35-2392-4742-a34f-4ab9350823ef"},"vehicle_type_id":"4","last_reported":1732723895,"current_range_meters":400,"station_id":"ce4bho92rcd13ifvqh3g","pricing_plan_id":"cebpf4jnsgd1na2vs0mg"},{"bike_id":"a5848fc1-9c38-4c0f-8cd3-7a1f74903e08","system_id":"levelo_inurba_marseille","lat":43.23175,"lon":5.40003,"is_reserved":false,"is_disabled":false,"rental_uris":{"android":"levelo://app?vid=a5848fc1-9c38-4c0f-8cd3-7a1f74903e08","ios":"levelo://app?vid=a5848fc1-9c38-4c0f-8cd3-7a1f74903e08"},"vehicle_type_id":"4","last_reported":1732723895,"current_range_meters":38800,"station_id":"ce4bhn12rcd13ifvqgqg","pricing_plan_id":"cebpf4jnsgd1na2vs0mg"},{"bike_id":"ef4957b3-83fb-424e-ba5a-54f78a30bcd6","system_id":"levelo_inurba_marseille","lat":43.30927,"lon":5.40151,"is_reserved":false,"is_disabled":false,"rental_uris":{"android":"levelo://app?vid=ef4957b3-83fb-424e-ba5a-54f78a30bcd6","ios":"levelo://app?vid=ef4957b3-83fb-424e-ba5a-54f78a30bcd6"},"vehicle_type_id":"4","last_reported":1732723895,"current_range_meters":33200,"station_id":"ce4bgvp2rcd13ifvqct0","pricing_plan_id":"cebpf4jnsgd1na2vs0mg"},{"bike_id":"16ad57bb-ba2e-4d25-96f6-bb956c61e82c","system_id":"levelo_inurba_marseille","lat":43.23153,"lon":5.43704,"is_reserved":false,"is_disabled":false,"rental_uris":{"android":"levelo://app?vid=16ad57bb-ba2e-4d25-96f6-bb956c61e82c","ios":"levelo://app?vid=16ad57bb-ba2e-4d25-96f6-bb956c61e82c"},"vehicle_type_id":"4","last_reported":1732723895,"current_range_meters":38000,"station_id":"ce4bhmp2rcd13ifvqgog","pricing_plan_id":"cebpf4jnsgd1na2vs0mg"},{"bike_id":"858b65e1-94fc-4151-a71e-8b168cb19dcb","system_id":"levelo_inurba_marseille","lat":43.32249,"lon":5.39241,"is_reserved":false,"is_disabled":true,"rental_uris":{"android":"levelo://app?vid=858b65e1-94fc-4151-a71e-8b168cb19dcb","ios":"levelo://app?vid=858b65e1-94fc-4151-a71e-8b168cb19dcb"},"vehicle_type_id":"4","last_reported":1732723895,"current_range_meters":0,"station_id":"","pricing_plan_id":"cebpf4jnsgd1na2vs0mg"},{"bike_id":"e51b2acb-d883-446b-9ce9-347608453ece","system_id":"levelo_inurba_marseille","lat":43.2293,"lon":5.35372,"is_reserved":false,"is_disabled":false,"rental_uris":{"android":"levelo://app?vid=e51b2acb-d883-446b-9ce9-347608453ece","ios":"levelo://app?vid=e51b2acb-d883-446b-9ce9-347608453ece"},"vehicle_type_id":"4","last_reported":1732723895,"current_range_meters":36400,"station_id":"cpo3532slgdg3j2ikp40","pricing_plan_id":"cebpf4jnsgd1na2vs0mg"},{"bike_id":"844ec8e9-1291-4e83-a299-880eb52e8b86","system_id":"levelo_inurba_marseille","lat":43.28084,"lon":5.39637,"is_reserved":false,"is_disabled":true,"rental_uris":{"android":"levelo://app?vid=844ec8e9-1291-4e83-a299-880eb52e8b86","ios":"levelo://app?vid=844ec8e9-1291-4e83-a299-880eb52e8b86"},"vehicle_type_id":"4","last_reported":1732723895,"current_range_meters":0,"station_id":"ce4bho12rcd13ifvqh2g","pricing_plan_id":"cebpf4jnsgd1na2vs0mg"},{"bike_id":"07e999cf-40a8-4a01-b969-68cbfc768052","system_id":"levelo_inurba_marseille","lat":43.28158,"lon":5.42644,"is_reserved":false,"is_disabled":true,"rental_uris":{"android":"levelo://app?vid=07e999cf-40a8-4a01-b969-68cbfc768052","ios":"levelo://app?vid=07e999cf-40a8-4a01-b969-68cbfc768052"},"vehicle_type_id":"4","last_reported":1732723895,"current_range_meters":0,"station_id":"ce4bhnh2rcd13ifvqgug","pricing_plan_id":"cebpf4jnsgd1na2vs0mg"},{"bike_id":"dd43d351-1235-4db7-9293-da9ccc010a02","system_id":"levelo_inurba_marseille","lat":43.30879,"lon":5.39661,"is_reserved":false,"is_disabled":false,"rental_uris":{"android":"levelo://app?vid=dd43d351-1235-4db7-9293-da9ccc010a02","ios":"levelo://app?vid=dd43d351-1235-4db7-9293-da9ccc010a02"},"vehicle_type_id":"4","last_reported":1732723895,"current_range_meters":22400,"station_id":"ce4bh012rcd13ifvqcv0","pricing_plan_id":"cebpf4jnsgd1na2vs0mg"},{"bike_id":"a680f9f7-b4f1-49f8-a537-30dfddda0052","system_id":"levelo_inurba_marseille","lat":43.31354,"lon":5.38493,"is_reserved":false,"is_disabled":false,"rental_uris":{"android":"levelo://app?vid=a680f9f7-b4f1-49f8-a537-30dfddda0052","ios":"levelo://app?vid=a680f9f7-b4f1-49f8-a537-30dfddda0052"},"vehicle_type_id":"4","last_reported":1732723895,"current_range_meters":38000,"station_id":"ce4bgt92rcd13ifvqcf0","pricing_plan_id":"cebpf4jnsgd1na2vs0mg"},{"bike_id":"ea18ff21-6fce-4b26-a88d-a6e9c4dd1a0c","system_id":"levelo_inurba_marseille","lat":43.262173,"lon":5.3744,"is_reserved":false,"is_disabled":true,"rental_uris":{"android":"levelo://app?vid=ea18ff21-6fce-4b26-a88d-a6e9c4dd1a0c","ios":"levelo://app?vid=ea18ff21-6fce-4b26-a88d-a6e9c4dd1a0c"},"vehicle_type_id":"4","last_reported":1732723895,"current_range_meters":0,"station_id":"ce4bhgp2rcd13ifvqfc0","pricing_plan_id":"cebpf4jnsgd1na2vs0mg"},{"bike_id":"f7f3756c-1ec7-4782-9c87-6273f87b6774","system_id":"levelo_inurba_marseille","lat":43.337444,"lon":5.374475,"is_reserved":false,"is_disabled":true,"rental_uris":{"android":"levelo://app?vid=f7f3756c-1ec7-4782-9c87-6273f87b6774","ios":"levelo://app?vid=f7f3756c-1ec7-4782-9c87-6273f87b6774"},"vehicle_type_id":"4","last_reported":1732723895,"current_range_meters":14400,"station_id":"","pricing_plan_id":"cebpf4jnsgd1na2vs0mg"},{"bike_id":"9a7fc65c-a473-4df1-8da8-b97e38cbdb89","system_id":"levelo_inurba_marseille","lat":43.23141,"lon":5.43728,"is_reserved":false,"is_disabled":false,"rental_uris":{"android":"levelo://app?vid=9a7fc65c-a473-4df1-8da8-b97e38cbdb89","ios":"levelo://app?vid=9a7fc65c-a473-4df1-8da8-b97e38cbdb89"},"vehicle_type_id":"4","last_reported":1732723895,"current_range_meters":38800,"station_id":"ce4bhmp2rcd13ifvqgog","pricing_plan_id":"cebpf4jnsgd1na2vs0mg"},{"bike_id":"703e8aa1-dcfb-4cea-8282-43c583c4255c","system_id":"levelo_inurba_marseille","lat":43.24544,"lon":5.39527,"is_reserved":false,"is_disabled":true,"rental_uris":{"android":"levelo://app?vid=703e8aa1-dcfb-4cea-8282-43c583c4255c","ios":"levelo://app?vid=703e8aa1-dcfb-4cea-8282-43c583c4255c"},"vehicle_type_id":"4","last_reported":1732723895,"current_range_meters":1200,"station_id":"ce4bhlp2rcd13ifvqgjg","pricing_plan_id":"cebpf4jnsgd1na2vs0mg"},{"bike_id":"8f43ee39-f010-4299-82b1-a29724be626b","system_id":"levelo_inurba_marseille","lat":43.27949,"lon":5.41052,"is_reserved":false,"is_disabled":true,"rental_uris":{"android":"levelo://app?vid=8f43ee39-f010-4299-82b1-a29724be626b","ios":"levelo://app?vid=8f43ee39-f010-4299-82b1-a29724be626b"},"vehicle_type_id":"4","last_reported":1732723895,"current_range_meters":800,"station_id":"ce4bhnp2rcd13ifvqh0g","pricing_plan_id":"cebpf4jnsgd1na2vs0mg"},{"bike_id":"fd12b71c-4f83-48b5-921e-0be79170051e","system_id":"levelo_inurba_marseille","lat":43.26809,"lon":5.40274,"is_reserved":false,"is_disabled":false,"rental_uris":{"android":"levelo://app?vid=fd12b71c-4f83-48b5-921e-0be79170051e","ios":"levelo://app?vid=fd12b71c-4f83-48b5-921e-0be79170051e"},"vehicle_type_id":"4","last_reported":1732723895,"current_range_meters":9200,"station_id":"ce501612rcd8frsf0b60","pricing_plan_id":"cebpf4jnsgd1na2vs0mg"},{"bike_id":"416027f6-8585-4f1d-86ed-7055df22e5ed","system_id":"levelo_inurba_marseille","lat":43.232452,"lon":5.436134,"is_reserved":false,"is_disabled":false,"rental_uris":{"android":"levelo://app?vid=416027f6-8585-4f1d-86ed-7055df22e5ed","ios":"levelo://app?vid=416027f6-8585-4f1d-86ed-7055df22e5ed"},"vehicle_type_id":"4","last_reported":1732723895,"current_range_meters":38000,"station_id":"ce4bhmp2rcd13ifvqgog","pricing_plan_id":"cebpf4jnsgd1na2vs0mg"},{"bike_id":"3ad77e91-7bb8-4f80-9d51-0e3ceb752272","system_id":"levelo_inurba_marseille","lat":43.28265,"lon":5.35071,"is_reserved":false,"is_disabled":true,"rental_uris":{"android":"levelo://app?vid=3ad77e91-7bb8-4f80-9d51-0e3ceb752272","ios":"levelo://app?vid=3ad77e91-7bb8-4f80-9d51-0e3ceb752272"},"vehicle_type_id":"4","last_reported":1732723895,"current_range_meters":0,"station_id":"ce4bhbp2rcd13ifvqerg","pricing_plan_id":"cebpf4jnsgd1na2vs0mg"},{"bike_id":"67dfe3d7-e290-4b1e-9f5e-90cca73a4f4a","system_id":"levelo_inurba_marseille","lat":43.27387,"lon":5.36257,"is_reserved":false,"is_disabled":false,"rental_uris":{"android":"levelo://app?vid=67dfe3d7-e290-4b1e-9f5e-90cca73a4f4a","ios":"levelo://app?vid=67dfe3d7-e290-4b1e-9f5e-90cca73a4f4a"},"vehicle_type_id":"4","last_reported":1732723895,"current_range_meters":35200,"station_id":"ce4bhbh2rcd13ifvqeo0","pricing_plan_id":"cebpf4jnsgd1na2vs0mg"},{"bike_id":"5c5abfbc-7ee1-49d6-8da4-9477956ba432","system_id":"levelo_inurba_marseille","lat":43.30154,"lon":5.38088,"is_reserved":false,"is_disabled":false,"rental_uris":{"android":"levelo://app?vid=5c5abfbc-7ee1-49d6-8da4-9477956ba432","ios":"levelo://app?vid=5c5abfbc-7ee1-49d6-8da4-9477956ba432"},"vehicle_type_id":"4","last_reported":1732723895,"current_range_meters":38400,"station_id":"ce4bgjp2rcd13ifvqbh0","pricing_plan_id":"cebpf4jnsgd1na2vs0mg"},{"bike_id":"c9fe4c77-ed2c-41bd-93c3-273c631862d6","system_id":"levelo_inurba_marseille","lat":43.25868,"lon":5.39903,"is_reserved":false,"is_disabled":false,"rental_uris":{"android":"levelo://app?vid=c9fe4c77-ed2c-41bd-93c3-273c631862d6","ios":"levelo://app?vid=c9fe4c77-ed2c-41bd-93c3-273c631862d6"},"vehicle_type_id":"4","last_reported":1732723895,"current_range_meters":8000,"station_id":"ce4bhl92rcd13ifvqghg","pricing_plan_id":"cebpf4jnsgd1na2vs0mg"},{"bike_id":"c1350596-c129-49e7-897e-0d0932369655","system_id":"levelo_inurba_marseille","lat":43.311167,"lon":5.377723,"is_reserved":false,"is_disabled":true,"rental_uris":{"android":"levelo://app?vid=c1350596-c129-49e7-897e-0d0932369655","ios":"levelo://app?vid=c1350596-c129-49e7-897e-0d0932369655"},"vehicle_type_id":"4","last_reported":1732723895,"current_range_meters":800,"station_id":"ce4bgt92rcd13ifvqcg0","pricing_plan_id":"cebpf4jnsgd1na2vs0mg"},{"bike_id":"a5909545-3e09-4859-9fda-9ffe4e6e4883","system_id":"levelo_inurba_marseille","lat":43.23065,"lon":5.35491,"is_reserved":false,"is_disabled":false,"rental_uris":{"android":"levelo://app?vid=a5909545-3e09-4859-9fda-9ffe4e6e4883","ios":"levelo://app?vid=a5909545-3e09-4859-9fda-9ffe4e6e4883"},"vehicle_type_id":"4","last_reported":1732723895,"current_range_meters":26800,"station_id":"cpo3342slgdg3j2ifvpg","pricing_plan_id":"cebpf4jnsgd1na2vs0mg"},{"bike_id":"228e46c4-1b82-4b74-9b39-7ebd39c7346c","system_id":"levelo_inurba_marseille","lat":43.28448,"lon":5.39203,"is_reserved":false,"is_disabled":false,"rental_uris":{"android":"levelo://app?vid=228e46c4-1b82-4b74-9b39-7ebd39c7346c","ios":"levelo://app?vid=228e46c4-1b82-4b74-9b39-7ebd39c7346c"},"vehicle_type_id":"4","last_reported":1732723895,"current_range_meters":8400,"station_id":"ce4bhoh2rcd13ifvqh5g","pricing_plan_id":"cebpf4jnsgd1na2vs0mg"},{"bike_id":"b1298b26-adef-4cec-a757-99604d785e64","system_id":"levelo_inurba_marseille","lat":43.28723,"lon":5.36091,"is_reserved":false,"is_disabled":false,"rental_uris":{"android":"levelo://app?vid=b1298b26-adef-4cec-a757-99604d785e64","ios":"levelo://app?vid=b1298b26-adef-4cec-a757-99604d785e64"},"vehicle_type_id":"4","last_reported":1732723895,"current_range_meters":0,"station_id":"cki0cbj6b192h4jlfktg","pricing_plan_id":"cebpf4jnsgd1na2vs0mg"},{"bike_id":"5be1675a-51c4-474f-8f58-627231db95d5","system_id":"levelo_inurba_marseille","lat":43.32121,"lon":5.36778,"is_reserved":false,"is_disabled":false,"rental_uris":{"android":"levelo://app?vid=5be1675a-51c4-474f-8f58-627231db95d5","ios":"levelo://app?vid=5be1675a-51c4-474f-8f58-627231db95d5"},"vehicle_type_id":"4","last_reported":1732723895,"current_range_meters":24800,"station_id":"ce4bhrh2rcd13ifvqhug","pricing_plan_id":"cebpf4jnsgd1na2vs0mg"},{"bike_id":"067fa05f-104c-454c-aa07-e227f2f2c2d2","system_id":"levelo_inurba_marseille","lat":43.23184,"lon":5.39991,"is_reserved":false,"is_disabled":false,"rental_uris":{"android":"levelo://app?vid=067fa05f-104c-454c-aa07-e227f2f2c2d2","ios":"levelo://app?vid=067fa05f-104c-454c-aa07-e227f2f2c2d2"},"vehicle_type_id":"4","last_reported":1732723895,"current_range_meters":10800,"station_id":"ce4bhn12rcd13ifvqgqg","pricing_plan_id":"cebpf4jnsgd1na2vs0mg"},{"bike_id":"84a6041d-99df-4fbd-90d6-36f9fc18b07b","system_id":"levelo_inurba_marseille","lat":43.27373,"lon":5.36261,"is_reserved":false,"is_disabled":false,"rental_uris":{"android":"levelo://app?vid=84a6041d-99df-4fbd-90d6-36f9fc18b07b","ios":"levelo://app?vid=84a6041d-99df-4fbd-90d6-36f9fc18b07b"},"vehicle_type_id":"4","last_reported":1732723895,"current_range_meters":18000,"station_id":"ce4bhbh2rcd13ifvqeo0","pricing_plan_id":"cebpf4jnsgd1na2vs0mg"},{"bike_id":"e5951ee3-4a5a-4ebb-b469-096c5188dfa3","system_id":"levelo_inurba_marseille","lat":43.23188,"lon":5.35538,"is_reserved":false,"is_disabled":false,"rental_uris":{"android":"levelo://app?vid=e5951ee3-4a5a-4ebb-b469-096c5188dfa3","ios":"levelo://app?vid=e5951ee3-4a5a-4ebb-b469-096c5188dfa3"},"vehicle_type_id":"4","last_reported":1732723895,"current_range_meters":31200,"station_id":"ce4bhu92rcd13ifvqi70","pricing_plan_id":"cebpf4jnsgd1na2vs0mg"},{"bike_id":"4b4e5291-1ed0-4958-b855-356c624c9827","system_id":"levelo_inurba_marseille","lat":43.31123,"lon":5.37761,"is_reserved":false,"is_disabled":true,"rental_uris":{"android":"levelo://app?vid=4b4e5291-1ed0-4958-b855-356c624c9827","ios":"levelo://app?vid=4b4e5291-1ed0-4958-b855-356c624c9827"},"vehicle_type_id":"4","last_reported":1732723895,"current_range_meters":0,"station_id":"ce4bgt92rcd13ifvqcg0","pricing_plan_id":"cebpf4jnsgd1na2vs0mg"},{"bike_id":"6c948e9c-d5b3-4fe5-a918-1bd2f7c83b02","system_id":"levelo_inurba_marseille","lat":43.32104,"lon":5.36776,"is_reserved":false,"is_disabled":false,"rental_uris":{"android":"levelo://app?vid=6c948e9c-d5b3-4fe5-a918-1bd2f7c83b02","ios":"levelo://app?vid=6c948e9c-d5b3-4fe5-a918-1bd2f7c83b02"},"vehicle_type_id":"4","last_reported":1732723895,"current_range_meters":11600,"station_id":"ce4bhrh2rcd13ifvqhug","pricing_plan_id":"cebpf4jnsgd1na2vs0mg"},{"bike_id":"52d76038-c55e-433e-bbf6-dcccffb9f14b","system_id":"levelo_inurba_marseille","lat":43.31326,"lon":5.39687,"is_reserved":false,"is_disabled":false,"rental_uris":{"android":"levelo://app?vid=52d76038-c55e-433e-bbf6-dcccffb9f14b","ios":"levelo://app?vid=52d76038-c55e-433e-bbf6-dcccffb9f14b"},"vehicle_type_id":"4","last_reported":1732723895,"current_range_meters":40000,"station_id":"ce4bgvp2rcd13ifvqcu0","pricing_plan_id":"cebpf4jnsgd1na2vs0mg"},{"bike_id":"8a87853b-205b-47aa-be1e-fe345084d052","system_id":"levelo_inurba_marseille","lat":43.29577,"lon":5.37518,"is_reserved":false,"is_disabled":false,"rental_uris":{"android":"levelo://app?vid=8a87853b-205b-47aa-be1e-fe345084d052","ios":"levelo://app?vid=8a87853b-205b-47aa-be1e-fe345084d052"},"vehicle_type_id":"4","last_reported":1732723895,"current_range_meters":24400,"station_id":"ce4bgh92rcd13ifvqb50","pricing_plan_id":"cebpf4jnsgd1na2vs0mg"},{"bike_id":"ecbc6a07-b48a-4854-8264-07f06d61f521","system_id":"levelo_inurba_marseille","lat":43.30885,"lon":5.39649,"is_reserved":false,"is_disabled":false,"rental_uris":{"android":"levelo://app?vid=ecbc6a07-b48a-4854-8264-07f06d61f521","ios":"levelo://app?vid=ecbc6a07-b48a-4854-8264-07f06d61f521"},"vehicle_type_id":"4","last_reported":1732723895,"current_range_meters":11600,"station_id":"ce4bh012rcd13ifvqcv0","pricing_plan_id":"cebpf4jnsgd1na2vs0mg"},{"bike_id":"5c53cfbd-2547-413a-b79a-f8cc3b1ca992","system_id":"levelo_inurba_marseille","lat":43.321096,"lon":5.3678,"is_reserved":false,"is_disabled":false,"rental_uris":{"android":"levelo://app?vid=5c53cfbd-2547-413a-b79a-f8cc3b1ca992","ios":"levelo://app?vid=5c53cfbd-2547-413a-b79a-f8cc3b1ca992"},"vehicle_type_id":"4","last_reported":1732723895,"current_range_meters":27600,"station_id":"ce4bhrh2rcd13ifvqhug","pricing_plan_id":"cebpf4jnsgd1na2vs0mg"},{"bike_id":"fb270e8d-41be-4f6a-aa67-3213668ac662","system_id":"levelo_inurba_marseille","lat":43.26554,"lon":5.37286,"is_reserved":false,"is_disabled":false,"rental_uris":{"android":"levelo://app?vid=fb270e8d-41be-4f6a-aa67-3213668ac662","ios":"levelo://app?vid=fb270e8d-41be-4f6a-aa67-3213668ac662"},"vehicle_type_id":"4","last_reported":1732723895,"current_range_meters":35200,"station_id":"ce4bhg12rcd13ifvqf70","pricing_plan_id":"cebpf4jnsgd1na2vs0mg"},{"bike_id":"d330d418-aa02-432e-a6ed-074fd731340f","system_id":"levelo_inurba_marseille","lat":43.30651,"lon":5.40082,"is_reserved":false,"is_disabled":false,"rental_uris":{"android":"levelo://app?vid=d330d418-aa02-432e-a6ed-074fd731340f","ios":"levelo://app?vid=d330d418-aa02-432e-a6ed-074fd731340f"},"vehicle_type_id":"4","last_reported":1732723895,"current_range_meters":30400,"station_id":"ce4bh112rcd13ifvqda0","pricing_plan_id":"cebpf4jnsgd1na2vs0mg"},{"bike_id":"70e5991f-58cf-41e5-8409-5b3f1c65076f","system_id":"levelo_inurba_marseille","lat":43.30257,"lon":5.366313,"is_reserved":false,"is_disabled":false,"rental_uris":{"android":"levelo://app?vid=70e5991f-58cf-41e5-8409-5b3f1c65076f","ios":"levelo://app?vid=70e5991f-58cf-41e5-8409-5b3f1c65076f"},"vehicle_type_id":"4","last_reported":1732723895,"current_range_meters":20000,"station_id":"ce4bgrh2rcd13ifvqc8g","pricing_plan_id":"cebpf4jnsgd1na2vs0mg"},{"bike_id":"0b794867-6e89-491d-a611-f32d460a36d9","system_id":"levelo_inurba_marseille","lat":43.30339,"lon":5.40442,"is_reserved":false,"is_disabled":false,"rental_uris":{"android":"levelo://app?vid=0b794867-6e89-491d-a611-f32d460a36d9","ios":"levelo://app?vid=0b794867-6e89-491d-a611-f32d460a36d9"},"vehicle_type_id":"4","last_reported":1732723895,"current_range_meters":1600,"station_id":"ce4bh012rcd13ifvqd10","pricing_plan_id":"cebpf4jnsgd1na2vs0mg"},{"bike_id":"c32aafd8-8905-4559-a1d0-f74aa7efcf0e","system_id":"levelo_inurba_marseille","lat":43.338,"lon":5.37474,"is_reserved":false,"is_disabled":false,"rental_uris":{"android":"levelo://app?vid=c32aafd8-8905-4559-a1d0-f74aa7efcf0e","ios":"levelo://app?vid=c32aafd8-8905-4559-a1d0-f74aa7efcf0e"},"vehicle_type_id":"4","last_reported":1732723895,"current_range_meters":36800,"station_id":"","pricing_plan_id":"cebpf4jnsgd1na2vs0mg"},{"bike_id":"5a088262-6439-4aa9-9dfb-d9c87dbd3ac9","system_id":"levelo_inurba_marseille","lat":43.27947,"lon":5.41044,"is_reserved":false,"is_disabled":false,"rental_uris":{"android":"levelo://app?vid=5a088262-6439-4aa9-9dfb-d9c87dbd3ac9","ios":"levelo://app?vid=5a088262-6439-4aa9-9dfb-d9c87dbd3ac9"},"vehicle_type_id":"4","last_reported":1732723895,"current_range_meters":25200,"station_id":"ce4bhnp2rcd13ifvqh0g","pricing_plan_id":"cebpf4jnsgd1na2vs0mg"},{"bike_id":"d2155dcd-ce23-44be-93ec-4292d16151f9","system_id":"levelo_inurba_marseille","lat":43.30883,"lon":5.39642,"is_reserved":false,"is_disabled":false,"rental_uris":{"android":"levelo://app?vid=d2155dcd-ce23-44be-93ec-4292d16151f9","ios":"levelo://app?vid=d2155dcd-ce23-44be-93ec-4292d16151f9"},"vehicle_type_id":"4","last_reported":1732723895,"current_range_meters":20400,"station_id":"ce4bh012rcd13ifvqcv0","pricing_plan_id":"cebpf4jnsgd1na2vs0mg"},{"bike_id":"110511e7-d418-46d7-a5e9-c916da14f3dc","system_id":"levelo_inurba_marseille","lat":43.31484,"lon":5.37306,"is_reserved":false,"is_disabled":true,"rental_uris":{"android":"levelo://app?vid=110511e7-d418-46d7-a5e9-c916da14f3dc","ios":"levelo://app?vid=110511e7-d418-46d7-a5e9-c916da14f3dc"},"vehicle_type_id":"4","last_reported":1732723895,"current_range_meters":800,"station_id":"ce4bgt12rcd13ifvqcd0","pricing_plan_id":"cebpf4jnsgd1na2vs0mg"},{"bike_id":"0dbf4a25-0b81-4076-980f-2de46488ffa7","system_id":"levelo_inurba_marseille","lat":43.28615,"lon":5.35098,"is_reserved":false,"is_disabled":false,"rental_uris":{"android":"levelo://app?vid=0dbf4a25-0b81-4076-980f-2de46488ffa7","ios":"levelo://app?vid=0dbf4a25-0b81-4076-980f-2de46488ffa7"},"vehicle_type_id":"4","last_reported":1732723895,"current_range_meters":12400,"station_id":"ce4bhch2rcd13ifvqeug","pricing_plan_id":"cebpf4jnsgd1na2vs0mg"},{"bike_id":"b0532d77-a652-43de-8ae1-079cd29bfc13","system_id":"levelo_inurba_marseille","lat":43.32362,"lon":5.38883,"is_reserved":false,"is_disabled":false,"rental_uris":{"android":"levelo://app?vid=b0532d77-a652-43de-8ae1-079cd29bfc13","ios":"levelo://app?vid=b0532d77-a652-43de-8ae1-079cd29bfc13"},"vehicle_type_id":"4","last_reported":1732723895,"current_range_meters":19200,"station_id":"ce4bhqp2rcd13ifvqhog","pricing_plan_id":"cebpf4jnsgd1na2vs0mg"},{"bike_id":"43746d86-8a13-4845-9faf-ae69b548d714","system_id":"levelo_inurba_marseille","lat":43.29459,"lon":5.37917,"is_reserved":false,"is_disabled":true,"rental_uris":{"android":"levelo://app?vid=43746d86-8a13-4845-9faf-ae69b548d714","ios":"levelo://app?vid=43746d86-8a13-4845-9faf-ae69b548d714"},"vehicle_type_id":"4","last_reported":1732723895,"current_range_meters":0,"station_id":"","pricing_plan_id":"cebpf4jnsgd1na2vs0mg"},{"bike_id":"a6250c61-bf12-469b-85ca-c30571fd2eaa","system_id":"levelo_inurba_marseille","lat":43.30332,"lon":5.40445,"is_reserved":false,"is_disabled":false,"rental_uris":{"android":"levelo://app?vid=a6250c61-bf12-469b-85ca-c30571fd2eaa","ios":"levelo://app?vid=a6250c61-bf12-469b-85ca-c30571fd2eaa"},"vehicle_type_id":"4","last_reported":1732723895,"current_range_meters":38800,"station_id":"ce4bh012rcd13ifvqd10","pricing_plan_id":"cebpf4jnsgd1na2vs0mg"},{"bike_id":"c4a7e894-f878-4bab-a8aa-1db498e677c5","system_id":"levelo_inurba_marseille","lat":43.26801,"lon":5.40268,"is_reserved":false,"is_disabled":true,"rental_uris":{"android":"levelo://app?vid=c4a7e894-f878-4bab-a8aa-1db498e677c5","ios":"levelo://app?vid=c4a7e894-f878-4bab-a8aa-1db498e677c5"},"vehicle_type_id":"4","last_reported":1732723895,"current_range_meters":0,"station_id":"ce501612rcd8frsf0b60","pricing_plan_id":"cebpf4jnsgd1na2vs0mg"},{"bike_id":"df76b7bf-b879-4e94-9796-439ee296ef0a","system_id":"levelo_inurba_marseille","lat":43.22925,"lon":5.35381,"is_reserved":false,"is_disabled":false,"rental_uris":{"android":"levelo://app?vid=df76b7bf-b879-4e94-9796-439ee296ef0a","ios":"levelo://app?vid=df76b7bf-b879-4e94-9796-439ee296ef0a"},"vehicle_type_id":"4","last_reported":1732723895,"current_range_meters":36800,"station_id":"cpo3532slgdg3j2ikp40","pricing_plan_id":"cebpf4jnsgd1na2vs0mg"},{"bike_id":"4daf813f-7564-4698-bfdc-e1aaded323b3","system_id":"levelo_inurba_marseille","lat":43.29172,"lon":5.3716,"is_reserved":false,"is_disabled":false,"rental_uris":{"android":"levelo://app?vid=4daf813f-7564-4698-bfdc-e1aaded323b3","ios":"levelo://app?vid=4daf813f-7564-4698-bfdc-e1aaded323b3"},"vehicle_type_id":"4","last_reported":1732723895,"current_range_meters":29600,"station_id":"ce4bha92rcd13ifvqeh0","pricing_plan_id":"cebpf4jnsgd1na2vs0mg"},{"bike_id":"d2f8966c-be69-42f3-bdcd-0127c29eda10","system_id":"levelo_inurba_marseille","lat":43.29569,"lon":5.37524,"is_reserved":false,"is_disabled":false,"rental_uris":{"android":"levelo://app?vid=d2f8966c-be69-42f3-bdcd-0127c29eda10","ios":"levelo://app?vid=d2f8966c-be69-42f3-bdcd-0127c29eda10"},"vehicle_type_id":"4","last_reported":1732723895,"current_range_meters":3200,"station_id":"ce4bgh92rcd13ifvqb50","pricing_plan_id":"cebpf4jnsgd1na2vs0mg"},{"bike_id":"7850b5a3-047b-4ac7-ba36-9800297e2ebc","system_id":"levelo_inurba_marseille","lat":43.27382,"lon":5.36253,"is_reserved":false,"is_disabled":false,"rental_uris":{"android":"levelo://app?vid=7850b5a3-047b-4ac7-ba36-9800297e2ebc","ios":"levelo://app?vid=7850b5a3-047b-4ac7-ba36-9800297e2ebc"},"vehicle_type_id":"4","last_reported":1732723895,"current_range_meters":30400,"station_id":"ce4bhbh2rcd13ifvqeo0","pricing_plan_id":"cebpf4jnsgd1na2vs0mg"},{"bike_id":"b257af45-8f94-461f-b20b-8d3cf1e47a3b","system_id":"levelo_inurba_marseille","lat":43.32042,"lon":5.415598,"is_reserved":false,"is_disabled":false,"rental_uris":{"android":"levelo://app?vid=b257af45-8f94-461f-b20b-8d3cf1e47a3b","ios":"levelo://app?vid=b257af45-8f94-461f-b20b-8d3cf1e47a3b"},"vehicle_type_id":"4","last_reported":1732723895,"current_range_meters":24800,"station_id":"ce4bhq92rcd13ifvqhkg","pricing_plan_id":"cebpf4jnsgd1na2vs0mg"},{"bike_id":"43dd7936-0a96-4c73-9cb8-49a7603fd32b","system_id":"levelo_inurba_marseille","lat":43.321434,"lon":5.368275,"is_reserved":false,"is_disabled":false,"rental_uris":{"android":"levelo://app?vid=43dd7936-0a96-4c73-9cb8-49a7603fd32b","ios":"levelo://app?vid=43dd7936-0a96-4c73-9cb8-49a7603fd32b"},"vehicle_type_id":"4","last_reported":1732723895,"current_range_meters":10000,"station_id":"","pricing_plan_id":"cebpf4jnsgd1na2vs0mg"},{"bike_id":"c7c8eb9f-a72f-46cc-a7d7-36fb49eb8a83","system_id":"levelo_inurba_marseille","lat":43.337444,"lon":5.374475,"is_reserved":false,"is_disabled":true,"rental_uris":{"android":"levelo://app?vid=c7c8eb9f-a72f-46cc-a7d7-36fb49eb8a83","ios":"levelo://app?vid=c7c8eb9f-a72f-46cc-a7d7-36fb49eb8a83"},"vehicle_type_id":"4","last_reported":1732723895,"current_range_meters":0,"station_id":"","pricing_plan_id":"cebpf4jnsgd1na2vs0mg"},{"bike_id":"0475d691-409f-4186-9fbf-9871c4c0ff7e","system_id":"levelo_inurba_marseille","lat":43.26777,"lon":5.39422,"is_reserved":false,"is_disabled":true,"rental_uris":{"android":"levelo://app?vid=0475d691-409f-4186-9fbf-9871c4c0ff7e","ios":"levelo://app?vid=0475d691-409f-4186-9fbf-9871c4c0ff7e"},"vehicle_type_id":"4","last_reported":1732723895,"current_range_meters":0,"station_id":"ce4bhh12rcd13ifvqfg0","pricing_plan_id":"cebpf4jnsgd1na2vs0mg"},{"bike_id":"cf298d8c-a0c9-4883-b341-ff4459ca7832","system_id":"levelo_inurba_marseille","lat":43.22932,"lon":5.35378,"is_reserved":false,"is_disabled":false,"rental_uris":{"android":"levelo://app?vid=cf298d8c-a0c9-4883-b341-ff4459ca7832","ios":"levelo://app?vid=cf298d8c-a0c9-4883-b341-ff4459ca7832"},"vehicle_type_id":"4","last_reported":1732723895,"current_range_meters":37600,"station_id":"cpo3532slgdg3j2ikp40","pricing_plan_id":"cebpf4jnsgd1na2vs0mg"},{"bike_id":"b03f88eb-68dd-4f5e-9780-bea08d3e85c6","system_id":"levelo_inurba_marseille","lat":43.33752,"lon":5.37423,"is_reserved":false,"is_disabled":false,"rental_uris":{"android":"levelo://app?vid=b03f88eb-68dd-4f5e-9780-bea08d3e85c6","ios":"levelo://app?vid=b03f88eb-68dd-4f5e-9780-bea08d3e85c6"},"vehicle_type_id":"4","last_reported":1732723895,"current_range_meters":12400,"station_id":"","pricing_plan_id":"cebpf4jnsgd1na2vs0mg"},{"bike_id":"6280208b-c967-4bc3-8fab-ee0bce8760da","system_id":"levelo_inurba_marseille","lat":43.28664,"lon":5.36358,"is_reserved":false,"is_disabled":false,"rental_uris":{"android":"levelo://app?vid=6280208b-c967-4bc3-8fab-ee0bce8760da","ios":"levelo://app?vid=6280208b-c967-4bc3-8fab-ee0bce8760da"},"vehicle_type_id":"4","last_reported":1732723895,"current_range_meters":19600,"station_id":"ce4bhah2rcd13ifvqej0","pricing_plan_id":"cebpf4jnsgd1na2vs0mg"},{"bike_id":"3bda0192-441f-448b-a44b-62afdb2df3e6","system_id":"levelo_inurba_marseille","lat":43.27811,"lon":5.4072,"is_reserved":false,"is_disabled":true,"rental_uris":{"android":"levelo://app?vid=3bda0192-441f-448b-a44b-62afdb2df3e6","ios":"levelo://app?vid=3bda0192-441f-448b-a44b-62afdb2df3e6"},"vehicle_type_id":"4","last_reported":1732723895,"current_range_meters":39200,"station_id":"ce4bhnh2rcd13ifvqgtg","pricing_plan_id":"cebpf4jnsgd1na2vs0mg"},{"bike_id":"c88f8730-1176-4717-97e2-17c27b15274f","system_id":"levelo_inurba_marseille","lat":43.23196,"lon":5.35552,"is_reserved":false,"is_disabled":true,"rental_uris":{"android":"levelo://app?vid=c88f8730-1176-4717-97e2-17c27b15274f","ios":"levelo://app?vid=c88f8730-1176-4717-97e2-17c27b15274f"},"vehicle_type_id":"4","last_reported":1732723895,"current_range_meters":800,"station_id":"ce4bhu92rcd13ifvqi70","pricing_plan_id":"cebpf4jnsgd1na2vs0mg"},{"bike_id":"78a2bcf0-2687-4099-8ea8-7df9e90e87d9","system_id":"levelo_inurba_marseille","lat":43.31075,"lon":5.38365,"is_reserved":false,"is_disabled":false,"rental_uris":{"android":"levelo://app?vid=78a2bcf0-2687-4099-8ea8-7df9e90e87d9","ios":"levelo://app?vid=78a2bcf0-2687-4099-8ea8-7df9e90e87d9"},"vehicle_type_id":"4","last_reported":1732723895,"current_range_meters":11200,"station_id":"ce4bgv92rcd13ifvqcr0","pricing_plan_id":"cebpf4jnsgd1na2vs0mg"},{"bike_id":"45cc0129-d320-4c4f-95cc-6b85bf99203c","system_id":"levelo_inurba_marseille","lat":43.32289,"lon":5.38278,"is_reserved":false,"is_disabled":false,"rental_uris":{"android":"levelo://app?vid=45cc0129-d320-4c4f-95cc-6b85bf99203c","ios":"levelo://app?vid=45cc0129-d320-4c4f-95cc-6b85bf99203c"},"vehicle_type_id":"4","last_reported":1732723895,"current_range_meters":25200,"station_id":"ce4bhr12rcd13ifvqhqg","pricing_plan_id":"cebpf4jnsgd1na2vs0mg"},{"bike_id":"1d491570-34a1-4266-9dd8-096aad79ce71","system_id":"levelo_inurba_marseille","lat":43.28429,"lon":5.34995,"is_reserved":false,"is_disabled":false,"rental_uris":{"android":"levelo://app?vid=1d491570-34a1-4266-9dd8-096aad79ce71","ios":"levelo://app?vid=1d491570-34a1-4266-9dd8-096aad79ce71"},"vehicle_type_id":"4","last_reported":1732723895,"current_range_meters":39200,"station_id":"ce4bhbh2rcd13ifvqepg","pricing_plan_id":"cebpf4jnsgd1na2vs0mg"},{"bike_id":"3cd2a8cd-9354-4d25-a8be-70d02520bdf5","system_id":"levelo_inurba_marseille","lat":43.28155,"lon":5.42638,"is_reserved":false,"is_disabled":false,"rental_uris":{"android":"levelo://app?vid=3cd2a8cd-9354-4d25-a8be-70d02520bdf5","ios":"levelo://app?vid=3cd2a8cd-9354-4d25-a8be-70d02520bdf5"},"vehicle_type_id":"4","last_reported":1732723895,"current_range_meters":35200,"station_id":"ce4bhnh2rcd13ifvqgug","pricing_plan_id":"cebpf4jnsgd1na2vs0mg"},{"bike_id":"5383479e-e9f1-48cf-b76c-b49cd29dcdeb","system_id":"levelo_inurba_marseille","lat":43.27377,"lon":5.36263,"is_reserved":false,"is_disabled":false,"rental_uris":{"android":"levelo://app?vid=5383479e-e9f1-48cf-b76c-b49cd29dcdeb","ios":"levelo://app?vid=5383479e-e9f1-48cf-b76c-b49cd29dcdeb"},"vehicle_type_id":"4","last_reported":1732723895,"current_range_meters":30000,"station_id":"ce4bhbh2rcd13ifvqeo0","pricing_plan_id":"cebpf4jnsgd1na2vs0mg"},{"bike_id":"1b2543aa-dc44-4873-b4b0-d166a6544c05","system_id":"levelo_inurba_marseille","lat":43.27374,"lon":5.3626,"is_reserved":false,"is_disabled":false,"rental_uris":{"android":"levelo://app?vid=1b2543aa-dc44-4873-b4b0-d166a6544c05","ios":"levelo://app?vid=1b2543aa-dc44-4873-b4b0-d166a6544c05"},"vehicle_type_id":"4","last_reported":1732723895,"current_range_meters":38400,"station_id":"ce4bhbh2rcd13ifvqeo0","pricing_plan_id":"cebpf4jnsgd1na2vs0mg"},{"bike_id":"1614e2a5-eff6-4651-9d69-3a3985cf0ea9","system_id":"levelo_inurba_marseille","lat":43.28218,"lon":5.39844,"is_reserved":false,"is_disabled":false,"rental_uris":{"android":"levelo://app?vid=1614e2a5-eff6-4651-9d69-3a3985cf0ea9","ios":"levelo://app?vid=1614e2a5-eff6-4651-9d69-3a3985cf0ea9"},"vehicle_type_id":"4","last_reported":1732723895,"current_range_meters":9600,"station_id":"","pricing_plan_id":"cebpf4jnsgd1na2vs0mg"},{"bike_id":"63619990-f78e-4a15-9620-780513b6ec17","system_id":"levelo_inurba_marseille","lat":43.29198,"lon":5.39315,"is_reserved":false,"is_disabled":false,"rental_uris":{"android":"levelo://app?vid=63619990-f78e-4a15-9620-780513b6ec17","ios":"levelo://app?vid=63619990-f78e-4a15-9620-780513b6ec17"},"vehicle_type_id":"4","last_reported":1732723895,"current_range_meters":4800,"station_id":"ce4bh192rcd13ifvqdd0","pricing_plan_id":"cebpf4jnsgd1na2vs0mg"},{"bike_id":"387f384f-5e90-4552-a4c6-218836cd0323","system_id":"levelo_inurba_marseille","lat":43.29554,"lon":5.42284,"is_reserved":false,"is_disabled":false,"rental_uris":{"android":"levelo://app?vid=387f384f-5e90-4552-a4c6-218836cd0323","ios":"levelo://app?vid=387f384f-5e90-4552-a4c6-218836cd0323"},"vehicle_type_id":"4","last_reported":1732723895,"current_range_meters":38000,"station_id":"ce4bhph2rcd13ifvqhdg","pricing_plan_id":"cebpf4jnsgd1na2vs0mg"},{"bike_id":"a5ce7078-bf7d-472c-bbb6-2d070261ff8c","system_id":"levelo_inurba_marseille","lat":43.33609,"lon":5.41035,"is_reserved":false,"is_disabled":false,"rental_uris":{"android":"levelo://app?vid=a5ce7078-bf7d-472c-bbb6-2d070261ff8c","ios":"levelo://app?vid=a5ce7078-bf7d-472c-bbb6-2d070261ff8c"},"vehicle_type_id":"4","last_reported":1732723895,"current_range_meters":24000,"station_id":"ce4bhqh2rcd13ifvqhmg","pricing_plan_id":"cebpf4jnsgd1na2vs0mg"},{"bike_id":"3a9b3c7a-a759-480b-99e1-7c792ca1ce99","system_id":"levelo_inurba_marseille","lat":43.25112,"lon":5.40323,"is_reserved":false,"is_disabled":false,"rental_uris":{"android":"levelo://app?vid=3a9b3c7a-a759-480b-99e1-7c792ca1ce99","ios":"levelo://app?vid=3a9b3c7a-a759-480b-99e1-7c792ca1ce99"},"vehicle_type_id":"4","last_reported":1732723895,"current_range_meters":21600,"station_id":"ce4bhlh2rcd13ifvqgig","pricing_plan_id":"cebpf4jnsgd1na2vs0mg"},{"bike_id":"fc0dc438-e583-4414-b9a2-2e55d988281a","system_id":"levelo_inurba_marseille","lat":43.24809,"lon":5.37459,"is_reserved":false,"is_disabled":false,"rental_uris":{"android":"levelo://app?vid=fc0dc438-e583-4414-b9a2-2e55d988281a","ios":"levelo://app?vid=fc0dc438-e583-4414-b9a2-2e55d988281a"},"vehicle_type_id":"4","last_reported":1732723895,"current_range_meters":30000,"station_id":"ce4bhgh2rcd13ifvqfb0","pricing_plan_id":"cebpf4jnsgd1na2vs0mg"},{"bike_id":"4f4e3e9a-0e0b-4bb8-bce2-a404fbf07c11","system_id":"levelo_inurba_marseille","lat":43.32365,"lon":5.38884,"is_reserved":false,"is_disabled":false,"rental_uris":{"android":"levelo://app?vid=4f4e3e9a-0e0b-4bb8-bce2-a404fbf07c11","ios":"levelo://app?vid=4f4e3e9a-0e0b-4bb8-bce2-a404fbf07c11"},"vehicle_type_id":"4","last_reported":1732723895,"current_range_meters":2800,"station_id":"ce4bhqp2rcd13ifvqhog","pricing_plan_id":"cebpf4jnsgd1na2vs0mg"},{"bike_id":"011fd21e-25e1-4055-bae2-55efd72d292a","system_id":"levelo_inurba_marseille","lat":43.29029,"lon":5.38652,"is_reserved":false,"is_disabled":false,"rental_uris":{"android":"levelo://app?vid=011fd21e-25e1-4055-bae2-55efd72d292a","ios":"levelo://app?vid=011fd21e-25e1-4055-bae2-55efd72d292a"},"vehicle_type_id":"4","last_reported":1732723895,"current_range_meters":39200,"station_id":"ce4bh4p2rcd13ifvqe0g","pricing_plan_id":"cebpf4jnsgd1na2vs0mg"},{"bike_id":"65c5b7a0-2741-4674-9e62-324f44553665","system_id":"levelo_inurba_marseille","lat":43.27964,"lon":5.38707,"is_reserved":false,"is_disabled":true,"rental_uris":{"android":"levelo://app?vid=65c5b7a0-2741-4674-9e62-324f44553665","ios":"levelo://app?vid=65c5b7a0-2741-4674-9e62-324f44553665"},"vehicle_type_id":"4","last_reported":1732723895,"current_range_meters":0,"station_id":"ce4bhg12rcd13ifvqf80","pricing_plan_id":"cebpf4jnsgd1na2vs0mg"},{"bike_id":"562a76b4-6ab9-4ff0-9faf-2020d86f5e9a","system_id":"levelo_inurba_marseille","lat":43.24147,"lon":5.3973,"is_reserved":false,"is_disabled":true,"rental_uris":{"android":"levelo://app?vid=562a76b4-6ab9-4ff0-9faf-2020d86f5e9a","ios":"levelo://app?vid=562a76b4-6ab9-4ff0-9faf-2020d86f5e9a"},"vehicle_type_id":"4","last_reported":1732723895,"current_range_meters":0,"station_id":"ce4bhn12rcd13ifvqgpg","pricing_plan_id":"cebpf4jnsgd1na2vs0mg"},{"bike_id":"8831458c-bbd6-4692-84c4-531474636899","system_id":"levelo_inurba_marseille","lat":43.30806,"lon":5.43521,"is_reserved":false,"is_disabled":false,"rental_uris":{"android":"levelo://app?vid=8831458c-bbd6-4692-84c4-531474636899","ios":"levelo://app?vid=8831458c-bbd6-4692-84c4-531474636899"},"vehicle_type_id":"4","last_reported":1732723895,"current_range_meters":9200,"station_id":"ce4bhph2rcd13ifvqheg","pricing_plan_id":"cebpf4jnsgd1na2vs0mg"},{"bike_id":"7db9c639-3177-4805-92ec-95540cb7e1d6","system_id":"levelo_inurba_marseille","lat":43.3055,"lon":5.36711,"is_reserved":false,"is_disabled":true,"rental_uris":{"android":"levelo://app?vid=7db9c639-3177-4805-92ec-95540cb7e1d6","ios":"levelo://app?vid=7db9c639-3177-4805-92ec-95540cb7e1d6"},"vehicle_type_id":"4","last_reported":1732723895,"current_range_meters":15200,"station_id":"ce4bgrp2rcd13ifvqc9g","pricing_plan_id":"cebpf4jnsgd1na2vs0mg"},{"bike_id":"b096ff8f-ee8d-426c-988a-a2bfcf8bed2d","system_id":"levelo_inurba_marseille","lat":43.28079,"lon":5.39667,"is_reserved":false,"is_disabled":false,"rental_uris":{"android":"levelo://app?vid=b096ff8f-ee8d-426c-988a-a2bfcf8bed2d","ios":"levelo://app?vid=b096ff8f-ee8d-426c-988a-a2bfcf8bed2d"},"vehicle_type_id":"4","last_reported":1732723895,"current_range_meters":24800,"station_id":"ce4bho12rcd13ifvqh2g","pricing_plan_id":"cebpf4jnsgd1na2vs0mg"},{"bike_id":"a6edff23-3722-46ac-8763-43f19ea5db30","system_id":"levelo_inurba_marseille","lat":43.26553,"lon":5.37286,"is_reserved":false,"is_disabled":false,"rental_uris":{"android":"levelo://app?vid=a6edff23-3722-46ac-8763-43f19ea5db30","ios":"levelo://app?vid=a6edff23-3722-46ac-8763-43f19ea5db30"},"vehicle_type_id":"4","last_reported":1732723895,"current_range_meters":36000,"station_id":"ce4bhg12rcd13ifvqf70","pricing_plan_id":"cebpf4jnsgd1na2vs0mg"},{"bike_id":"9e944db9-d48e-4848-b5fa-4af701aee80b","system_id":"levelo_inurba_marseille","lat":48.808,"lon":2.40122,"is_reserved":false,"is_disabled":true,"rental_uris":{"android":"levelo://app?vid=9e944db9-d48e-4848-b5fa-4af701aee80b","ios":"levelo://app?vid=9e944db9-d48e-4848-b5fa-4af701aee80b"},"vehicle_type_id":"4","last_reported":1732723895,"current_range_meters":27200,"station_id":"","pricing_plan_id":"cebpf4jnsgd1na2vs0mg"},{"bike_id":"5e0f10b8-b37e-4cad-8fd6-6398f9bb4557","system_id":"levelo_inurba_marseille","lat":43.27062,"lon":5.40259,"is_reserved":false,"is_disabled":false,"rental_uris":{"android":"levelo://app?vid=5e0f10b8-b37e-4cad-8fd6-6398f9bb4557","ios":"levelo://app?vid=5e0f10b8-b37e-4cad-8fd6-6398f9bb4557"},"vehicle_type_id":"4","last_reported":1732723895,"current_range_meters":38800,"station_id":"ce4bhk92rcd13ifvqgc0","pricing_plan_id":"cebpf4jnsgd1na2vs0mg"},{"bike_id":"beb3946d-c9ce-45b5-bb30-8792552036a7","system_id":"levelo_inurba_marseille","lat":43.29907,"lon":5.37477,"is_reserved":false,"is_disabled":false,"rental_uris":{"android":"levelo://app?vid=beb3946d-c9ce-45b5-bb30-8792552036a7","ios":"levelo://app?vid=beb3946d-c9ce-45b5-bb30-8792552036a7"},"vehicle_type_id":"4","last_reported":1732723895,"current_range_meters":23200,"station_id":"ce4bgjh2rcd13ifvqbg0","pricing_plan_id":"cebpf4jnsgd1na2vs0mg"},{"bike_id":"6c054444-6c60-4919-bdbc-6576b3872aa8","system_id":"levelo_inurba_marseille","lat":43.29261,"lon":5.40911,"is_reserved":false,"is_disabled":false,"rental_uris":{"android":"levelo://app?vid=6c054444-6c60-4919-bdbc-6576b3872aa8","ios":"levelo://app?vid=6c054444-6c60-4919-bdbc-6576b3872aa8"},"vehicle_type_id":"4","last_reported":1732723895,"current_range_meters":8400,"station_id":"ce4bh192rcd13ifvqdc0","pricing_plan_id":"cebpf4jnsgd1na2vs0mg"},{"bike_id":"9f131acf-0dc0-4bb5-afd1-e7d3c47ab64a","system_id":"levelo_inurba_marseille","lat":43.28278,"lon":5.35068,"is_reserved":false,"is_disabled":true,"rental_uris":{"android":"levelo://app?vid=9f131acf-0dc0-4bb5-afd1-e7d3c47ab64a","ios":"levelo://app?vid=9f131acf-0dc0-4bb5-afd1-e7d3c47ab64a"},"vehicle_type_id":"4","last_reported":1732723895,"current_range_meters":12400,"station_id":"ce4bhbp2rcd13ifvqerg","pricing_plan_id":"cebpf4jnsgd1na2vs0mg"},{"bike_id":"85c6807d-adb2-4c55-89d5-379a914608be","system_id":"levelo_inurba_marseille","lat":43.337444,"lon":5.374475,"is_reserved":false,"is_disabled":false,"rental_uris":{"android":"levelo://app?vid=85c6807d-adb2-4c55-89d5-379a914608be","ios":"levelo://app?vid=85c6807d-adb2-4c55-89d5-379a914608be"},"vehicle_type_id":"4","last_reported":1732723895,"current_range_meters":36800,"station_id":"","pricing_plan_id":"cebpf4jnsgd1na2vs0mg"},{"bike_id":"2a4b48ff-f15e-4529-ac7f-d91f65542b5e","system_id":"levelo_inurba_marseille","lat":43.24654,"lon":5.38895,"is_reserved":false,"is_disabled":false,"rental_uris":{"android":"levelo://app?vid=2a4b48ff-f15e-4529-ac7f-d91f65542b5e","ios":"levelo://app?vid=2a4b48ff-f15e-4529-ac7f-d91f65542b5e"},"vehicle_type_id":"4","last_reported":1732723895,"current_range_meters":15200,"station_id":"ce4bhg12rcd13ifvqf60","pricing_plan_id":"cebpf4jnsgd1na2vs0mg"},{"bike_id":"4b4a1a19-19a4-4aa7-882d-efdb55e702a3","system_id":"levelo_inurba_marseille","lat":43.29924,"lon":5.37489,"is_reserved":false,"is_disabled":false,"rental_uris":{"android":"levelo://app?vid=4b4a1a19-19a4-4aa7-882d-efdb55e702a3","ios":"levelo://app?vid=4b4a1a19-19a4-4aa7-882d-efdb55e702a3"},"vehicle_type_id":"4","last_reported":1732723895,"current_range_meters":38000,"station_id":"ce4bgjh2rcd13ifvqbg0","pricing_plan_id":"cebpf4jnsgd1na2vs0mg"},{"bike_id":"f7f6a96a-20cb-4e65-816d-53e397856901","system_id":"levelo_inurba_marseille","lat":43.27171,"lon":5.40996,"is_reserved":false,"is_disabled":false,"rental_uris":{"android":"levelo://app?vid=f7f6a96a-20cb-4e65-816d-53e397856901","ios":"levelo://app?vid=f7f6a96a-20cb-4e65-816d-53e397856901"},"vehicle_type_id":"4","last_reported":1732723895,"current_range_meters":30800,"station_id":"ce4bhl12rcd13ifvqgf0","pricing_plan_id":"cebpf4jnsgd1na2vs0mg"},{"bike_id":"7a3c8073-4799-43ae-8cbb-c96d441ba2c2","system_id":"levelo_inurba_marseille","lat":43.30794,"lon":5.38123,"is_reserved":false,"is_disabled":true,"rental_uris":{"android":"levelo://app?vid=7a3c8073-4799-43ae-8cbb-c96d441ba2c2","ios":"levelo://app?vid=7a3c8073-4799-43ae-8cbb-c96d441ba2c2"},"vehicle_type_id":"4","last_reported":1732723895,"current_range_meters":0,"station_id":"ce4bgt12rcd13ifvqce0","pricing_plan_id":"cebpf4jnsgd1na2vs0mg"},{"bike_id":"1d53b8a4-d427-47ed-a67e-5baca0b22496","system_id":"levelo_inurba_marseille","lat":43.29577,"lon":5.37499,"is_reserved":false,"is_disabled":true,"rental_uris":{"android":"levelo://app?vid=1d53b8a4-d427-47ed-a67e-5baca0b22496","ios":"levelo://app?vid=1d53b8a4-d427-47ed-a67e-5baca0b22496"},"vehicle_type_id":"4","last_reported":1732723895,"current_range_meters":36400,"station_id":"ce4bgh92rcd13ifvqb50","pricing_plan_id":"cebpf4jnsgd1na2vs0mg"},{"bike_id":"6f1f8dda-57ee-4778-a172-f1293520ef6e","system_id":"levelo_inurba_marseille","lat":43.3229,"lon":5.38273,"is_reserved":false,"is_disabled":false,"rental_uris":{"android":"levelo://app?vid=6f1f8dda-57ee-4778-a172-f1293520ef6e","ios":"levelo://app?vid=6f1f8dda-57ee-4778-a172-f1293520ef6e"},"vehicle_type_id":"4","last_reported":1732723895,"current_range_meters":38800,"station_id":"ce4bhr12rcd13ifvqhqg","pricing_plan_id":"cebpf4jnsgd1na2vs0mg"},{"bike_id":"6a183b96-1b96-4d88-9308-3239877e209c","system_id":"levelo_inurba_marseille","lat":43.30421,"lon":5.41293,"is_reserved":false,"is_disabled":false,"rental_uris":{"android":"levelo://app?vid=6a183b96-1b96-4d88-9308-3239877e209c","ios":"levelo://app?vid=6a183b96-1b96-4d88-9308-3239877e209c"},"vehicle_type_id":"4","last_reported":1732723895,"current_range_meters":38400,"station_id":"ce4bhop2rcd13ifvqh8g","pricing_plan_id":"cebpf4jnsgd1na2vs0mg"},{"bike_id":"11e33eb7-9888-468a-a37e-59711cc3dd96","system_id":"levelo_inurba_marseille","lat":43.3052,"lon":5.37116,"is_reserved":false,"is_disabled":false,"rental_uris":{"android":"levelo://app?vid=11e33eb7-9888-468a-a37e-59711cc3dd96","ios":"levelo://app?vid=11e33eb7-9888-468a-a37e-59711cc3dd96"},"vehicle_type_id":"4","last_reported":1732723895,"current_range_meters":37600,"station_id":"","pricing_plan_id":"cebpf4jnsgd1na2vs0mg"},{"bike_id":"0a53a6c8-f77f-47e2-bdb9-be2cf4c9252d","system_id":"levelo_inurba_marseille","lat":43.30434,"lon":5.39753,"is_reserved":false,"is_disabled":false,"rental_uris":{"android":"levelo://app?vid=0a53a6c8-f77f-47e2-bdb9-be2cf4c9252d","ios":"levelo://app?vid=0a53a6c8-f77f-47e2-bdb9-be2cf4c9252d"},"vehicle_type_id":"4","last_reported":1732723895,"current_range_meters":12800,"station_id":"ce4bh092rcd13ifvqd20","pricing_plan_id":"cebpf4jnsgd1na2vs0mg"},{"bike_id":"5af795bd-1be6-40c3-9eb4-314b3a593482","system_id":"levelo_inurba_marseille","lat":43.2508,"lon":5.39514,"is_reserved":false,"is_disabled":false,"rental_uris":{"android":"levelo://app?vid=5af795bd-1be6-40c3-9eb4-314b3a593482","ios":"levelo://app?vid=5af795bd-1be6-40c3-9eb4-314b3a593482"},"vehicle_type_id":"4","last_reported":1732723895,"current_range_meters":36400,"station_id":"ce4bhm12rcd13ifvqgkg","pricing_plan_id":"cebpf4jnsgd1na2vs0mg"},{"bike_id":"e900288d-ed63-4aa6-9a90-88f0f919d2ea","system_id":"levelo_inurba_marseille","lat":43.30133,"lon":5.3877,"is_reserved":false,"is_disabled":false,"rental_uris":{"android":"levelo://app?vid=e900288d-ed63-4aa6-9a90-88f0f919d2ea","ios":"levelo://app?vid=e900288d-ed63-4aa6-9a90-88f0f919d2ea"},"vehicle_type_id":"4","last_reported":1732723895,"current_range_meters":36800,"station_id":"ce4bghh2rcd13ifvqb60","pricing_plan_id":"cebpf4jnsgd1na2vs0mg"},{"bike_id":"31563b47-c5fe-4c9f-8546-883274d5ffbb","system_id":"levelo_inurba_marseille","lat":43.299,"lon":5.37483,"is_reserved":false,"is_disabled":false,"rental_uris":{"android":"levelo://app?vid=31563b47-c5fe-4c9f-8546-883274d5ffbb","ios":"levelo://app?vid=31563b47-c5fe-4c9f-8546-883274d5ffbb"},"vehicle_type_id":"4","last_reported":1732723895,"current_range_meters":15200,"station_id":"ce4bgjh2rcd13ifvqbg0","pricing_plan_id":"cebpf4jnsgd1na2vs0mg"},{"bike_id":"19d15acd-2011-4f27-b78c-ab43bf81225a","system_id":"levelo_inurba_marseille","lat":43.26556,"lon":5.37302,"is_reserved":false,"is_disabled":true,"rental_uris":{"android":"levelo://app?vid=19d15acd-2011-4f27-b78c-ab43bf81225a","ios":"levelo://app?vid=19d15acd-2011-4f27-b78c-ab43bf81225a"},"vehicle_type_id":"4","last_reported":1732723895,"current_range_meters":0,"station_id":"ce4bhg12rcd13ifvqf70","pricing_plan_id":"cebpf4jnsgd1na2vs0mg"},{"bike_id":"fa87c63e-b59b-4a5e-870d-81f8aaec5938","system_id":"levelo_inurba_marseille","lat":43.31991,"lon":5.38147,"is_reserved":false,"is_disabled":false,"rental_uris":{"android":"levelo://app?vid=fa87c63e-b59b-4a5e-870d-81f8aaec5938","ios":"levelo://app?vid=fa87c63e-b59b-4a5e-870d-81f8aaec5938"},"vehicle_type_id":"4","last_reported":1732723895,"current_range_meters":40000,"station_id":"ce4bhr12rcd13ifvqhpg","pricing_plan_id":"cebpf4jnsgd1na2vs0mg"},{"bike_id":"5df56a47-47ee-41a8-a84f-6d6cb0e240a4","system_id":"levelo_inurba_marseille","lat":43.32288,"lon":5.38277,"is_reserved":false,"is_disabled":false,"rental_uris":{"android":"levelo://app?vid=5df56a47-47ee-41a8-a84f-6d6cb0e240a4","ios":"levelo://app?vid=5df56a47-47ee-41a8-a84f-6d6cb0e240a4"},"vehicle_type_id":"4","last_reported":1732723895,"current_range_meters":40000,"station_id":"ce4bhr12rcd13ifvqhqg","pricing_plan_id":"cebpf4jnsgd1na2vs0mg"},{"bike_id":"ccf54889-0718-41e6-8a88-ddb636f9cbca","system_id":"levelo_inurba_marseille","lat":43.30423,"lon":5.41283,"is_reserved":false,"is_disabled":false,"rental_uris":{"android":"levelo://app?vid=ccf54889-0718-41e6-8a88-ddb636f9cbca","ios":"levelo://app?vid=ccf54889-0718-41e6-8a88-ddb636f9cbca"},"vehicle_type_id":"4","last_reported":1732723895,"current_range_meters":38400,"station_id":"ce4bhop2rcd13ifvqh8g","pricing_plan_id":"cebpf4jnsgd1na2vs0mg"},{"bike_id":"070fe0b5-cefd-4257-8564-069bd7c9636a","system_id":"levelo_inurba_marseille","lat":43.273733,"lon":5.36265,"is_reserved":false,"is_disabled":true,"rental_uris":{"android":"levelo://app?vid=070fe0b5-cefd-4257-8564-069bd7c9636a","ios":"levelo://app?vid=070fe0b5-cefd-4257-8564-069bd7c9636a"},"vehicle_type_id":"4","last_reported":1732723895,"current_range_meters":0,"station_id":"ce4bhbh2rcd13ifvqeo0","pricing_plan_id":"cebpf4jnsgd1na2vs0mg"},{"bike_id":"02bf57ec-7cf6-48eb-9b85-e586a19c8f00","system_id":"levelo_inurba_marseille","lat":43.26582,"lon":5.39031,"is_reserved":false,"is_disabled":false,"rental_uris":{"android":"levelo://app?vid=02bf57ec-7cf6-48eb-9b85-e586a19c8f00","ios":"levelo://app?vid=02bf57ec-7cf6-48eb-9b85-e586a19c8f00"},"vehicle_type_id":"4","last_reported":1732723895,"current_range_meters":25200,"station_id":"ce4bhe12rcd13ifvqf30","pricing_plan_id":"cebpf4jnsgd1na2vs0mg"},{"bike_id":"80f99b00-1802-473a-b26c-f35e524a6e02","system_id":"levelo_inurba_marseille","lat":43.28034,"lon":5.36939,"is_reserved":false,"is_disabled":false,"rental_uris":{"android":"levelo://app?vid=80f99b00-1802-473a-b26c-f35e524a6e02","ios":"levelo://app?vid=80f99b00-1802-473a-b26c-f35e524a6e02"},"vehicle_type_id":"4","last_reported":1732723895,"current_range_meters":38800,"station_id":"ce4bha12rcd13ifvqef0","pricing_plan_id":"cebpf4jnsgd1na2vs0mg"},{"bike_id":"c5086e97-1714-40e5-8396-231e5b41a2c1","system_id":"levelo_inurba_marseille","lat":43.33729,"lon":5.39183,"is_reserved":false,"is_disabled":false,"rental_uris":{"android":"levelo://app?vid=c5086e97-1714-40e5-8396-231e5b41a2c1","ios":"levelo://app?vid=c5086e97-1714-40e5-8396-231e5b41a2c1"},"vehicle_type_id":"4","last_reported":1732723895,"current_range_meters":32800,"station_id":"ce4bhr92rcd13ifvqhsg","pricing_plan_id":"cebpf4jnsgd1na2vs0mg"},{"bike_id":"9b5b9ba3-ed77-46ed-aafd-ad8705005ad6","system_id":"levelo_inurba_marseille","lat":43.29259,"lon":5.40906,"is_reserved":false,"is_disabled":false,"rental_uris":{"android":"levelo://app?vid=9b5b9ba3-ed77-46ed-aafd-ad8705005ad6","ios":"levelo://app?vid=9b5b9ba3-ed77-46ed-aafd-ad8705005ad6"},"vehicle_type_id":"4","last_reported":1732723895,"current_range_meters":32000,"station_id":"ce4bh192rcd13ifvqdc0","pricing_plan_id":"cebpf4jnsgd1na2vs0mg"},{"bike_id":"773be41e-ae4d-474c-814f-ec81f47b3f46","system_id":"levelo_inurba_marseille","lat":43.30128,"lon":5.38787,"is_reserved":false,"is_disabled":false,"rental_uris":{"android":"levelo://app?vid=773be41e-ae4d-474c-814f-ec81f47b3f46","ios":"levelo://app?vid=773be41e-ae4d-474c-814f-ec81f47b3f46"},"vehicle_type_id":"4","last_reported":1732723895,"current_range_meters":12400,"station_id":"ce4bghh2rcd13ifvqb60","pricing_plan_id":"cebpf4jnsgd1na2vs0mg"},{"bike_id":"811ad545-de54-4af4-9f7c-4beb57b3cb79","system_id":"levelo_inurba_marseille","lat":43.28612,"lon":5.35102,"is_reserved":false,"is_disabled":false,"rental_uris":{"android":"levelo://app?vid=811ad545-de54-4af4-9f7c-4beb57b3cb79","ios":"levelo://app?vid=811ad545-de54-4af4-9f7c-4beb57b3cb79"},"vehicle_type_id":"4","last_reported":1732723895,"current_range_meters":36400,"station_id":"ce4bhch2rcd13ifvqeug","pricing_plan_id":"cebpf4jnsgd1na2vs0mg"},{"bike_id":"d66f3292-eaf9-4e83-909b-34533550279d","system_id":"levelo_inurba_marseille","lat":43.25873,"lon":5.39901,"is_reserved":false,"is_disabled":false,"rental_uris":{"android":"levelo://app?vid=d66f3292-eaf9-4e83-909b-34533550279d","ios":"levelo://app?vid=d66f3292-eaf9-4e83-909b-34533550279d"},"vehicle_type_id":"4","last_reported":1732723895,"current_range_meters":11600,"station_id":"ce4bhl92rcd13ifvqghg","pricing_plan_id":"cebpf4jnsgd1na2vs0mg"},{"bike_id":"82f1f565-7054-45ee-a7ec-9ff6fcfa4f39","system_id":"levelo_inurba_marseille","lat":43.23182,"lon":5.39995,"is_reserved":false,"is_disabled":false,"rental_uris":{"android":"levelo://app?vid=82f1f565-7054-45ee-a7ec-9ff6fcfa4f39","ios":"levelo://app?vid=82f1f565-7054-45ee-a7ec-9ff6fcfa4f39"},"vehicle_type_id":"4","last_reported":1732723895,"current_range_meters":36000,"station_id":"ce4bhn12rcd13ifvqgqg","pricing_plan_id":"cebpf4jnsgd1na2vs0mg"},{"bike_id":"9f80e0a5-df14-49f9-9657-3f8d19a0dfe3","system_id":"levelo_inurba_marseille","lat":43.27552,"lon":5.38437,"is_reserved":false,"is_disabled":false,"rental_uris":{"android":"levelo://app?vid=9f80e0a5-df14-49f9-9657-3f8d19a0dfe3","ios":"levelo://app?vid=9f80e0a5-df14-49f9-9657-3f8d19a0dfe3"},"vehicle_type_id":"4","last_reported":1732723895,"current_range_meters":26800,"station_id":"ce4bhh92rcd13ifvqfi0","pricing_plan_id":"cebpf4jnsgd1na2vs0mg"},{"bike_id":"dd16f8da-464d-4dcb-a1dc-9b35bc1b8b9b","system_id":"levelo_inurba_marseille","lat":43.29222,"lon":5.36062,"is_reserved":false,"is_disabled":false,"rental_uris":{"android":"levelo://app?vid=dd16f8da-464d-4dcb-a1dc-9b35bc1b8b9b","ios":"levelo://app?vid=dd16f8da-464d-4dcb-a1dc-9b35bc1b8b9b"},"vehicle_type_id":"4","last_reported":1732723895,"current_range_meters":14400,"station_id":"ce4bhbh2rcd13ifvqeqg","pricing_plan_id":"cebpf4jnsgd1na2vs0mg"},{"bike_id":"1b465152-708f-40b4-af1c-57b6bd01d68e","system_id":"levelo_inurba_marseille","lat":43.28279,"lon":5.35068,"is_reserved":false,"is_disabled":true,"rental_uris":{"android":"levelo://app?vid=1b465152-708f-40b4-af1c-57b6bd01d68e","ios":"levelo://app?vid=1b465152-708f-40b4-af1c-57b6bd01d68e"},"vehicle_type_id":"4","last_reported":1732723895,"current_range_meters":16400,"station_id":"ce4bhbp2rcd13ifvqerg","pricing_plan_id":"cebpf4jnsgd1na2vs0mg"},{"bike_id":"945a23d1-d405-42a1-8f98-61ad67c3482d","system_id":"levelo_inurba_marseille","lat":43.26217,"lon":5.37442,"is_reserved":false,"is_disabled":false,"rental_uris":{"android":"levelo://app?vid=945a23d1-d405-42a1-8f98-61ad67c3482d","ios":"levelo://app?vid=945a23d1-d405-42a1-8f98-61ad67c3482d"},"vehicle_type_id":"4","last_reported":1732723895,"current_range_meters":14800,"station_id":"ce4bhgp2rcd13ifvqfc0","pricing_plan_id":"cebpf4jnsgd1na2vs0mg"},{"bike_id":"f9af9211-d29a-4dfd-abf6-a248ed47c33e","system_id":"levelo_inurba_marseille","lat":43.28456,"lon":5.35885,"is_reserved":false,"is_disabled":false,"rental_uris":{"android":"levelo://app?vid=f9af9211-d29a-4dfd-abf6-a248ed47c33e","ios":"levelo://app?vid=f9af9211-d29a-4dfd-abf6-a248ed47c33e"},"vehicle_type_id":"4","last_reported":1732723895,"current_range_meters":6000,"station_id":"ce4bhah2rcd13ifvqei0","pricing_plan_id":"cebpf4jnsgd1na2vs0mg"},{"bike_id":"c77c3287-96eb-49fb-a979-2af810276084","system_id":"levelo_inurba_marseille","lat":43.28607,"lon":5.37066,"is_reserved":false,"is_disabled":false,"rental_uris":{"android":"levelo://app?vid=c77c3287-96eb-49fb-a979-2af810276084","ios":"levelo://app?vid=c77c3287-96eb-49fb-a979-2af810276084"},"vehicle_type_id":"4","last_reported":1732723895,"current_range_meters":16000,"station_id":"ce4bht12rcd13ifvqi60","pricing_plan_id":"cebpf4jnsgd1na2vs0mg"},{"bike_id":"d0accadd-1e4b-45f2-ad9d-fd3a86b57663","system_id":"levelo_inurba_marseille","lat":43.33028,"lon":5.39047,"is_reserved":false,"is_disabled":false,"rental_uris":{"android":"levelo://app?vid=d0accadd-1e4b-45f2-ad9d-fd3a86b57663","ios":"levelo://app?vid=d0accadd-1e4b-45f2-ad9d-fd3a86b57663"},"vehicle_type_id":"4","last_reported":1732723895,"current_range_meters":6400,"station_id":"ce4bhr92rcd13ifvqhrg","pricing_plan_id":"cebpf4jnsgd1na2vs0mg"},{"bike_id":"9e14710c-d2cb-40f8-95dd-b82ff5561da5","system_id":"levelo_inurba_marseille","lat":43.26048,"lon":5.37582,"is_reserved":false,"is_disabled":false,"rental_uris":{"android":"levelo://app?vid=9e14710c-d2cb-40f8-95dd-b82ff5561da5","ios":"levelo://app?vid=9e14710c-d2cb-40f8-95dd-b82ff5561da5"},"vehicle_type_id":"4","last_reported":1732723895,"current_range_meters":37600,"station_id":"ce4bhgh2rcd13ifvqfa0","pricing_plan_id":"cebpf4jnsgd1na2vs0mg"},{"bike_id":"2da4caab-859f-4a04-be8c-9e0cbc7b92b9","system_id":"levelo_inurba_marseille","lat":43.284624,"lon":5.358862,"is_reserved":false,"is_disabled":true,"rental_uris":{"android":"levelo://app?vid=2da4caab-859f-4a04-be8c-9e0cbc7b92b9","ios":"levelo://app?vid=2da4caab-859f-4a04-be8c-9e0cbc7b92b9"},"vehicle_type_id":"4","last_reported":1732723895,"current_range_meters":0,"station_id":"ce4bhah2rcd13ifvqei0","pricing_plan_id":"cebpf4jnsgd1na2vs0mg"},{"bike_id":"0d279a0e-4959-4412-ada6-fc4f8d3135e1","system_id":"levelo_inurba_marseille","lat":43.273763,"lon":5.362586,"is_reserved":false,"is_disabled":false,"rental_uris":{"android":"levelo://app?vid=0d279a0e-4959-4412-ada6-fc4f8d3135e1","ios":"levelo://app?vid=0d279a0e-4959-4412-ada6-fc4f8d3135e1"},"vehicle_type_id":"4","last_reported":1732723895,"current_range_meters":39200,"station_id":"ce4bhbh2rcd13ifvqeo0","pricing_plan_id":"cebpf4jnsgd1na2vs0mg"},{"bike_id":"facd2445-e42d-4a69-a67b-e567c1a1e701","system_id":"levelo_inurba_marseille","lat":43.25821,"lon":5.39443,"is_reserved":false,"is_disabled":true,"rental_uris":{"android":"levelo://app?vid=facd2445-e42d-4a69-a67b-e567c1a1e701","ios":"levelo://app?vid=facd2445-e42d-4a69-a67b-e567c1a1e701"},"vehicle_type_id":"4","last_reported":1732723895,"current_range_meters":800,"station_id":"ce4bhip2rcd13ifvqft0","pricing_plan_id":"cebpf4jnsgd1na2vs0mg"},{"bike_id":"4169efb1-20fd-4c8b-8921-8488cc6a935d","system_id":"levelo_inurba_marseille","lat":43.2897,"lon":5.37823,"is_reserved":false,"is_disabled":false,"rental_uris":{"android":"levelo://app?vid=4169efb1-20fd-4c8b-8921-8488cc6a935d","ios":"levelo://app?vid=4169efb1-20fd-4c8b-8921-8488cc6a935d"},"vehicle_type_id":"4","last_reported":1732723895,"current_range_meters":36400,"station_id":"ce4bh9p2rcd13ifvqed0","pricing_plan_id":"cebpf4jnsgd1na2vs0mg"},{"bike_id":"72220cdb-09f1-44f2-9bfa-39b92131e461","system_id":"levelo_inurba_marseille","lat":43.29039,"lon":5.39976,"is_reserved":false,"is_disabled":false,"rental_uris":{"android":"levelo://app?vid=72220cdb-09f1-44f2-9bfa-39b92131e461","ios":"levelo://app?vid=72220cdb-09f1-44f2-9bfa-39b92131e461"},"vehicle_type_id":"4","last_reported":1732723895,"current_range_meters":39200,"station_id":"ce4bh392rcd13ifvqdm0","pricing_plan_id":"cebpf4jnsgd1na2vs0mg"},{"bike_id":"c524e813-d70b-4f48-a4d5-8d3b5610fa54","system_id":"levelo_inurba_marseille","lat":43.2782,"lon":5.40713,"is_reserved":false,"is_disabled":false,"rental_uris":{"android":"levelo://app?vid=c524e813-d70b-4f48-a4d5-8d3b5610fa54","ios":"levelo://app?vid=c524e813-d70b-4f48-a4d5-8d3b5610fa54"},"vehicle_type_id":"4","last_reported":1732723895,"current_range_meters":34000,"station_id":"ce4bhnh2rcd13ifvqgtg","pricing_plan_id":"cebpf4jnsgd1na2vs0mg"},{"bike_id":"0bb7011b-3069-4378-a1b2-e7d9d9cfa111","system_id":"levelo_inurba_marseille","lat":43.27967,"lon":5.38729,"is_reserved":false,"is_disabled":true,"rental_uris":{"android":"levelo://app?vid=0bb7011b-3069-4378-a1b2-e7d9d9cfa111","ios":"levelo://app?vid=0bb7011b-3069-4378-a1b2-e7d9d9cfa111"},"vehicle_type_id":"4","last_reported":1732723895,"current_range_meters":0,"station_id":"ce4bhg12rcd13ifvqf80","pricing_plan_id":"cebpf4jnsgd1na2vs0mg"},{"bike_id":"158d0466-003e-4969-b644-b1ee5a66cfae","system_id":"levelo_inurba_marseille","lat":43.30095,"lon":5.3908,"is_reserved":false,"is_disabled":false,"rental_uris":{"android":"levelo://app?vid=158d0466-003e-4969-b644-b1ee5a66cfae","ios":"levelo://app?vid=158d0466-003e-4969-b644-b1ee5a66cfae"},"vehicle_type_id":"4","last_reported":1732723895,"current_range_meters":39200,"station_id":"ce4bh192rcd13ifvqdb0","pricing_plan_id":"cebpf4jnsgd1na2vs0mg"},{"bike_id":"5d8694e0-782e-43cf-ba2c-f48e618fdcaf","system_id":"levelo_inurba_marseille","lat":43.337444,"lon":5.374475,"is_reserved":false,"is_disabled":true,"rental_uris":{"android":"levelo://app?vid=5d8694e0-782e-43cf-ba2c-f48e618fdcaf","ios":"levelo://app?vid=5d8694e0-782e-43cf-ba2c-f48e618fdcaf"},"vehicle_type_id":"4","last_reported":1732723895,"current_range_meters":0,"station_id":"","pricing_plan_id":"cebpf4jnsgd1na2vs0mg"},{"bike_id":"64d00509-1081-4232-9158-9688097684dc","system_id":"levelo_inurba_marseille","lat":43.337444,"lon":5.374475,"is_reserved":false,"is_disabled":true,"rental_uris":{"android":"levelo://app?vid=64d00509-1081-4232-9158-9688097684dc","ios":"levelo://app?vid=64d00509-1081-4232-9158-9688097684dc"},"vehicle_type_id":"4","last_reported":1732723895,"current_range_meters":0,"station_id":"","pricing_plan_id":"cebpf4jnsgd1na2vs0mg"},{"bike_id":"ff11293e-8c0b-4571-8d97-b3ebd87dfd6d","system_id":"levelo_inurba_marseille","lat":43.29241,"lon":5.36102,"is_reserved":false,"is_disabled":true,"rental_uris":{"android":"levelo://app?vid=ff11293e-8c0b-4571-8d97-b3ebd87dfd6d","ios":"levelo://app?vid=ff11293e-8c0b-4571-8d97-b3ebd87dfd6d"},"vehicle_type_id":"4","last_reported":1732723895,"current_range_meters":18000,"station_id":"ce4bhbh2rcd13ifvqeqg","pricing_plan_id":"cebpf4jnsgd1na2vs0mg"},{"bike_id":"4f4298e7-61bc-4731-886f-1d0477ca0eb7","system_id":"levelo_inurba_marseille","lat":43.29042,"lon":5.39959,"is_reserved":false,"is_disabled":true,"rental_uris":{"android":"levelo://app?vid=4f4298e7-61bc-4731-886f-1d0477ca0eb7","ios":"levelo://app?vid=4f4298e7-61bc-4731-886f-1d0477ca0eb7"},"vehicle_type_id":"4","last_reported":1732723895,"current_range_meters":28000,"station_id":"ce4bh392rcd13ifvqdm0","pricing_plan_id":"cebpf4jnsgd1na2vs0mg"},