{"last_updated":1734396646,"ttl":60,"version":"2.2","data":{"bikes":[{"bike_id":"42c22991-bbb2-4c12-ab0d-47d496460860","system_id":"levelo_inurba_marseille","lat":43.27605,"lon":5.36149,"is_reserved":false,"is_disabled":false,"rental_uris":{"android":"levelo://app?vid=42c22991-bbb2-4c12-ab0d-47d496460860","ios":"levelo://app?vid=42c22991-bbb2-4c12-ab0d-47d496460860"},"vehicle_type_id":"4","last_reported":1734396646,"current_range_meters":15200,"station_id":"ce4bgj92rcd13ifvqbe0","pricing_plan_id":"cebpf4jnsgd1na2vs0mg"},{"bike_id":"3945d924-4864-404c-8dc1-69939c22235c","system_id":"levelo_inurba_marseille","lat":43.32334,"lon":5.406194,"is_reserved":false,"is_disabled":false,"rental_uris":{"android":"levelo://app?vid=3945d924-4864-404c-8dc1-69939c22235c","ios":"levelo://app?vid=3945d924-4864-404c-8dc1-69939c22235c"},"vehicle_type_id":"4","last_reported":1734396646,"current_range_meters":17600,"station_id":"ce4bhq92rcd13ifvqhjg","pricing_plan_id":"cebpf4jnsgd1na2vs0mg"},{"bike_id":"f6454cc5-1690-43a6-92aa-1d6f0da09f29","system_id":"levelo_inurba_marseille","lat":43.31332,"lon":5.39694,"is_reserved":false,"is_disabled":false,"rental_uris":{"android":"levelo://app?vid=f6454cc5-1690-43a6-92aa-1d6f0da09f29","ios":"levelo://app?vid=f6454cc5-1690-43a6-92aa-1d6f0da09f29"},"vehicle_type_id":"4","last_reported":1734396646,"current_range_meters":26800,"station_id":"ce4bgvp2rcd13ifvqcu0","pricing_plan_id":"cebpf4jnsgd1na2vs0mg"},{"bike_id":"b3620522-96c6-48bb-953b-bc9cfe9f311a","system_id":"levelo_inurba_marseille","lat":43.2846,"lon":5.35886,"is_reserved":false,"is_disabled":false,"rental_uris":{"android":"levelo://app?vid=b3620522-96c6-48bb-953b-bc9cfe9f311a","ios":"levelo://app?vid=b3620522-96c6-48bb-953b-bc9cfe9f311a"},"vehicle_type_id":"4","last_reported":1734396646,"current_range_meters":8000,"station_id":"ce4bhah2rcd13ifvqei0","pricing_plan_id":"cebpf4jnsgd1na2vs0mg"},{"bike_id":"60694eb5-3776-4b2a-853c-0bc9979500e3","system_id":"levelo_inurba_marseille","lat":43.284539,"lon":5.358846,"is_reserved":false,"is_disabled":false,"rental_uris":{"android":"levelo://app?vid=60694eb5-3776-4b2a-853c-0bc9979500e3","ios":"levelo://app?vid=60694eb5-3776-4b2a-853c-0bc9979500e3"},"vehicle_type_id":"4","last_reported":1734396646,"current_range_meters":33200,"station_id":"ce4bhah2rcd13ifvqei0","pricing_plan_id":"cebpf4jnsgd1na2vs0mg"},{"bike_id":"2f5d94cd-9442-4cc7-9ddb-7c4903b293c4","system_id":"levelo_inurba_marseille","lat":43.24657,"lon":5.3816,"is_reserved":false,"is_disabled":false,"rental_uris":{"android":"levelo://app?vid=2f5d94cd-9442-4cc7-9ddb-7c4903b293c4","ios":"levelo://app?vid=2f5d94cd-9442-4cc7-9ddb-7c4903b293c4"},"vehicle_type_id":"4","last_reported":1734396646,"current_range_meters":16800,"station_id":"ce4bhih2rcd13ifvqfr0","pricing_plan_id":"cebpf4jnsgd1na2vs0mg"},{"bike_id":"0ef6db4d-529f-4d18-a3e2-fe1b03a2423c","system_id":"levelo_inurba_marseille","lat":43.31486,"lon":5.37281,"is_reserved":false,"is_disabled":false,"rental_uris":{"android":"levelo://app?vid=0ef6db4d-529f-4d18-a3e2-fe1b03a2423c","ios":"levelo://app?vid=0ef6db4d-529f-4d18-a3e2-fe1b03a2423c"},"vehicle_type_id":"4","last_reported":1734396646,"current_range_meters":38800,"station_id":"ce4bgt12rcd13ifvqcd0","pricing_plan_id":"cebpf4jnsgd1na2vs0mg"},{"bike_id":"cfab8bd3-b49b-4939-8a9f-c5672b029bb5","system_id":"levelo_inurba_marseille","lat":43.31329,"lon":5.39671,"is_reserved":false,"is_disabled":false,"rental_uris":{"android":"levelo://app?vid=cfab8bd3-b49b-4939-8a9f-c5672b029bb5","ios":"levelo://app?vid=cfab8bd3-b49b-4939-8a9f-c5672b029bb5"},"vehicle_type_id":"4","last_reported":1734396646,"current_range_meters":37600,"station_id":"ce4bgvp2rcd13ifvqcu0","pricing_plan_id":"cebpf4jnsgd1na2vs0mg"},{"bike_id":"66c2d464-591d-4cf7-a92e-3040a1b49fea","system_id":"levelo_inurba_marseille","lat":43.28665,"lon":5.36373,"is_reserved":false,"is_disabled":false,"rental_uris":{"android":"levelo://app?vid=66c2d464-591d-4cf7-a92e-3040a1b49fea","ios":"levelo://app?vid=66c2d464-591d-4cf7-a92e-3040a1b49fea"},"vehicle_type_id":"4","last_reported":1734396646,"current_range_meters":39200,"station_id":"ce4bhah2rcd13ifvqej0","pricing_plan_id":"cebpf4jnsgd1na2vs0mg"},{"bike_id":"0e5fa3cd-a913-4061-b0b9-e6b5b6a4b26a","system_id":"levelo_inurba_marseille","lat":43.25084,"lon":5.39515,"is_reserved":false,"is_disabled":false,"rental_uris":{"android":"levelo://app?vid=0e5fa3cd-a913-4061-b0b9-e6b5b6a4b26a","ios":"levelo://app?vid=0e5fa3cd-a913-4061-b0b9-e6b5b6a4b26a"},"vehicle_type_id":"4","last_reported":1734396646,"current_range_meters":22800,"station_id":"ce4bhm12rcd13ifvqgkg","pricing_plan_id":"cebpf4jnsgd1na2vs0mg"},{"bike_id":"ed8635a9-8a62-4be7-9d4b-a4dbff1f7c6d","system_id":"levelo_inurba_marseille","lat":43.2853,"lon":5.38052,"is_reserved":false,"is_disabled":true,"rental_uris":{"android":"levelo://app?vid=ed8635a9-8a62-4be7-9d4b-a4dbff1f7c6d","ios":"levelo://app?vid=ed8635a9-8a62-4be7-9d4b-a4dbff1f7c6d"},"vehicle_type_id":"4","last_reported":1734396646,"current_range_meters":22400,"station_id":"","pricing_plan_id":"cebpf4jnsgd1na2vs0mg"},{"bike_id":"79e08014-78be-4b51-8e47-3248ec87023b","system_id":"levelo_inurba_marseille","lat":43.24661,"lon":5.38159,"is_reserved":false,"is_disabled":false,"rental_uris":{"android":"levelo://app?vid=79e08014-78be-4b51-8e47-3248ec87023b","ios":"levelo://app?vid=79e08014-78be-4b51-8e47-3248ec87023b"},"vehicle_type_id":"4","last_reported":1734396646,"current_range_meters":36400,"station_id":"ce4bhih2rcd13ifvqfr0","pricing_plan_id":"cebpf4jnsgd1na2vs0mg"},{"bike_id":"b1141b56-3e7b-49ed-8c3a-fdb8940f3e60","system_id":"levelo_inurba_marseille","lat":43.30022,"lon":5.37745,"is_reserved":false,"is_disabled":true,"rental_uris":{"android":"levelo://app?vid=b1141b56-3e7b-49ed-8c3a-fdb8940f3e60","ios":"levelo://app?vid=b1141b56-3e7b-49ed-8c3a-fdb8940f3e60"},"vehicle_type_id":"4","last_reported":1734396646,"current_range_meters":8800,"station_id":"","pricing_plan_id":"cebpf4jnsgd1na2vs0mg"},{"bike_id":"9803638d-a938-45ea-aef4-b2c366107a44","system_id":"levelo_inurba_marseille","lat":43.27993,"lon":5.40018,"is_reserved":false,"is_disabled":false,"rental_uris":{"android":"levelo://app?vid=9803638d-a938-45ea-aef4-b2c366107a44","ios":"levelo://app?vid=9803638d-a938-45ea-aef4-b2c366107a44"},"vehicle_type_id":"4","last_reported":1734396646,"current_range_meters":38000,"station_id":"ce4bho92rcd13ifvqh4g","pricing_plan_id":"cebpf4jnsgd1na2vs0mg"},{"bike_id":"e6d133bd-af2c-45d5-a97a-3aefb8b0f7a9","system_id":"levelo_inurba_marseille","lat":43.2985,"lon":5.36279,"is_reserved":false,"is_disabled":false,"rental_uris":{"android":"levelo://app?vid=e6d133bd-af2c-45d5-a97a-3aefb8b0f7a9","ios":"levelo://app?vid=e6d133bd-af2c-45d5-a97a-3aefb8b0f7a9"},"vehicle_type_id":"4","last_reported":1734396646,"current_range_meters":35200,"station_id":"ce4bgpp2rcd13ifvqc3g","pricing_plan_id":"cebpf4jnsgd1na2vs0mg"},{"bike_id":"10086f5f-eb94-421a-8247-01c4a38e23de","system_id":"levelo_inurba_marseille","lat":43.26786,"lon":5.39928,"is_reserved":false,"is_disabled":true,"rental_uris":{"android":"levelo://app?vid=10086f5f-eb94-421a-8247-01c4a38e23de","ios":"levelo://app?vid=10086f5f-eb94-421a-8247-01c4a38e23de"},"vehicle_type_id":"4","last_reported":1734396646,"current_range_meters":0,"station_id":"","pricing_plan_id":"cebpf4jnsgd1na2vs0mg"},{"bike_id":"43080d42-6f82-421a-a638-62cb8c5273ca","system_id":"levelo_inurba_marseille","lat":43.251134,"lon":5.403239,"is_reserved":false,"is_disabled":false,"rental_uris":{"android":"levelo://app?vid=43080d42-6f82-421a-a638-62cb8c5273ca","ios":"levelo://app?vid=43080d42-6f82-421a-a638-62cb8c5273ca"},"vehicle_type_id":"4","last_reported":1734396646,"current_range_meters":39200,"station_id":"ce4bhlh2rcd13ifvqgig","pricing_plan_id":"cebpf4jnsgd1na2vs0mg"},{"bike_id":"19b63edb-b49d-48d7-a32f-d786a72a8236","system_id":"levelo_inurba_marseille","lat":43.28498,"lon":5.35079,"is_reserved":false,"is_disabled":false,"rental_uris":{"android":"levelo://app?vid=19b63edb-b49d-48d7-a32f-d786a72a8236","ios":"levelo://app?vid=19b63edb-b49d-48d7-a32f-d786a72a8236"},"vehicle_type_id":"4","last_reported":1734396646,"current_range_meters":32000,"station_id":"","pricing_plan_id":"cebpf4jnsgd1na2vs0mg"},{"bike_id":"2bcb2020-1157-48f1-aa76-65d8d9a083d0","system_id":"levelo_inurba_marseille","lat":43.30619,"lon":5.37204,"is_reserved":false,"is_disabled":false,"rental_uris":{"android":"levelo://app?vid=2bcb2020-1157-48f1-aa76-65d8d9a083d0","ios":"levelo://app?vid=2bcb2020-1157-48f1-aa76-65d8d9a083d0"},"vehicle_type_id":"4","last_reported":1734396646,"current_range_meters":10800,"station_id":"ce4bgqh2rcd13ifvqc4g","pricing_plan_id":"cebpf4jnsgd1na2vs0mg"},{"bike_id":"6b49ebdf-767b-495c-8b00-273a87320406","system_id":"levelo_inurba_marseille","lat":43.3012,"lon":5.3985,"is_reserved":false,"is_disabled":false,"rental_uris":{"android":"levelo://app?vid=6b49ebdf-767b-495c-8b00-273a87320406","ios":"levelo://app?vid=6b49ebdf-767b-495c-8b00-273a87320406"},"vehicle_type_id":"4","last_reported":1734396646,"current_range_meters":9200,"station_id":"ce4bh0h2rcd13ifvqd40","pricing_plan_id":"cebpf4jnsgd1na2vs0mg"},{"bike_id":"82bfb1cc-5635-4d47-bc8e-b9ff0bb37081","system_id":"levelo_inurba_marseille","lat":43.30807,"lon":5.38143,"is_reserved":false,"is_disabled":false,"rental_uris":{"android":"levelo://app?vid=82bfb1cc-5635-4d47-bc8e-b9ff0bb37081","ios":"levelo://app?vid=82bfb1cc-5635-4d47-bc8e-b9ff0bb37081"},"vehicle_type_id":"4","last_reported":1734396646,"current_range_meters":38800,"station_id":"ce4bgt12rcd13ifvqce0","pricing_plan_id":"cebpf4jnsgd1na2vs0mg"},{"bike_id":"0942ec52-e4c2-4259-b7e5-1369cb3cb0e8","system_id":"levelo_inurba_marseille","lat":43.31708,"lon":5.37755,"is_reserved":false,"is_disabled":false,"rental_uris":{"android":"levelo://app?vid=0942ec52-e4c2-4259-b7e5-1369cb3cb0e8","ios":"levelo://app?vid=0942ec52-e4c2-4259-b7e5-1369cb3cb0e8"},"vehicle_type_id":"4","last_reported":1734396646,"current_range_meters":38800,"station_id":"ce4bgth2rcd13ifvqch0","pricing_plan_id":"cebpf4jnsgd1na2vs0mg"},{"bike_id":"6e68a8b1-0e13-427b-839f-d0db81a56eee","system_id":"levelo_inurba_marseille","lat":43.28935,"lon":5.36415,"is_reserved":false,"is_disabled":false,"rental_uris":{"android":"levelo://app?vid=6e68a8b1-0e13-427b-839f-d0db81a56eee","ios":"levelo://app?vid=6e68a8b1-0e13-427b-839f-d0db81a56eee"},"vehicle_type_id":"4","last_reported":1734396646,"current_range_meters":27600,"station_id":"ce4bhc92rcd13ifvqetg","pricing_plan_id":"cebpf4jnsgd1na2vs0mg"},{"bike_id":"3d591825-2339-4c6b-9755-23f26a0e2fa6","system_id":"levelo_inurba_marseille","lat":43.27998,"lon":5.41661,"is_reserved":false,"is_disabled":false,"rental_uris":{"android":"levelo://app?vid=3d591825-2339-4c6b-9755-23f26a0e2fa6","ios":"levelo://app?vid=3d591825-2339-4c6b-9755-23f26a0e2fa6"},"vehicle_type_id":"4","last_reported":1734396646,"current_range_meters":38000,"station_id":"ce4bho12rcd13ifvqh1g","pricing_plan_id":"cebpf4jnsgd1na2vs0mg"},{"bike_id":"491b5c18-99d4-4072-a89f-caaafeb4b981","system_id":"levelo_inurba_marseille","lat":43.30259,"lon":5.40055,"is_reserved":false,"is_disabled":false,"rental_uris":{"android":"levelo://app?vid=491b5c18-99d4-4072-a89f-caaafeb4b981","ios":"levelo://app?vid=491b5c18-99d4-4072-a89f-caaafeb4b981"},"vehicle_type_id":"4","last_reported":1734396646,"current_range_meters":19200,"station_id":"ce4bgvh2rcd13ifvqcs0","pricing_plan_id":"cebpf4jnsgd1na2vs0mg"},{"bike_id":"6cb9fe89-432b-437b-8ac2-83ad2cda73a0","system_id":"levelo_inurba_marseille","lat":43.29251,"lon":5.40913,"is_reserved":false,"is_disabled":true,"rental_uris":{"android":"levelo://app?vid=6cb9fe89-432b-437b-8ac2-83ad2cda73a0","ios":"levelo://app?vid=6cb9fe89-432b-437b-8ac2-83ad2cda73a0"},"vehicle_type_id":"4","last_reported":1734396646,"current_range_meters":37600,"station_id":"ce4bh192rcd13ifvqdc0","pricing_plan_id":"cebpf4jnsgd1na2vs0mg"},{"bike_id":"ec6fd560-80ad-469b-8d2b-c65539592be7","system_id":"levelo_inurba_marseille","lat":43.27414,"lon":5.39419,"is_reserved":false,"is_disabled":false,"rental_uris":{"android":"levelo://app?vid=ec6fd560-80ad-469b-8d2b-c65539592be7","ios":"levelo://app?vid=ec6fd560-80ad-469b-8d2b-c65539592be7"},"vehicle_type_id":"4","last_reported":1734396646,"current_range_meters":30400,"station_id":"ce4bhdp2rcd13ifvqf20","pricing_plan_id":"cebpf4jnsgd1na2vs0mg"},{"bike_id":"b98cd8cf-b3b3-4f57-8006-8fb738ec896b","system_id":"levelo_inurba_marseille","lat":43.31718,"lon":5.42414,"is_reserved":false,"is_disabled":false,"rental_uris":{"android":"levelo://app?vid=b98cd8cf-b3b3-4f57-8006-8fb738ec896b","ios":"levelo://app?vid=b98cd8cf-b3b3-4f57-8006-8fb738ec896b"},"vehicle_type_id":"4","last_reported":1734396646,"current_range_meters":38000,"station_id":"ce4bhp92rcd13ifvqhbg","pricing_plan_id":"cebpf4jnsgd1na2vs0mg"},{"bike_id":"407426e2-5473-4726-8fbf-7659838178e2","system_id":"levelo_inurba_marseille","lat":43.27497,"lon":5.42448,"is_reserved":false,"is_disabled":false,"rental_uris":{"android":"levelo://app?vid=407426e2-5473-4726-8fbf-7659838178e2","ios":"levelo://app?vid=407426e2-5473-4726-8fbf-7659838178e2"},"vehicle_type_id":"4","last_reported":1734396646,"current_range_meters":35600,"station_id":"ce4bhn92rcd13ifvqgrg","pricing_plan_id":"cebpf4jnsgd1na2vs0mg"},{"bike_id":"e6029fb1-ca48-4fee-ba7d-8ee528661eb7","system_id":"levelo_inurba_marseille","lat":43.26498,"lon":5.39555,"is_reserved":false,"is_disabled":false,"rental_uris":{"android":"levelo://app?vid=e6029fb1-ca48-4fee-ba7d-8ee528661eb7","ios":"levelo://app?vid=e6029fb1-ca48-4fee-ba7d-8ee528661eb7"},"vehicle_type_id":"4","last_reported":1734396646,"current_range_meters":32400,"station_id":"ce4bhi12rcd13ifvqfq0","pricing_plan_id":"cebpf4jnsgd1na2vs0mg"},{"bike_id":"3210868a-ae7c-446f-9222-fef482512f15","system_id":"levelo_inurba_marseille","lat":43.24175,"lon":5.39728,"is_reserved":false,"is_disabled":false,"rental_uris":{"android":"levelo://app?vid=3210868a-ae7c-446f-9222-fef482512f15","ios":"levelo://app?vid=3210868a-ae7c-446f-9222-fef482512f15"},"vehicle_type_id":"4","last_reported":1734396646,"current_range_meters":39200,"station_id":"ce4bhn12rcd13ifvqgpg","pricing_plan_id":"cebpf4jnsgd1na2vs0mg"},{"bike_id":"08860759-a12d-4523-91fe-6df91f670ec4","system_id":"levelo_inurba_marseille","lat":43.302945,"lon":5.392103,"is_reserved":false,"is_disabled":false,"rental_uris":{"android":"levelo://app?vid=08860759-a12d-4523-91fe-6df91f670ec4","ios":"levelo://app?vid=08860759-a12d-4523-91fe-6df91f670ec4"},"vehicle_type_id":"4","last_reported":1734396646,"current_range_meters":38800,"station_id":"ce4bgkh2rcd13ifvqbk0","pricing_plan_id":"cebpf4jnsgd1na2vs0mg"},{"bike_id":"df8d9f60-67d3-4227-99b7-48c256f5c206","system_id":"levelo_inurba_marseille","lat":43.31703,"lon":5.37762,"is_reserved":false,"is_disabled":false,"rental_uris":{"android":"levelo://app?vid=df8d9f60-67d3-4227-99b7-48c256f5c206","ios":"levelo://app?vid=df8d9f60-67d3-4227-99b7-48c256f5c206"},"vehicle_type_id":"4","last_reported":1734396646,"current_range_meters":38800,"station_id":"ce4bgth2rcd13ifvqch0","pricing_plan_id":"cebpf4jnsgd1na2vs0mg"},{"bike_id":"a716bf4a-483b-4082-8d5e-a159c3e6bcca","system_id":"levelo_inurba_marseille","lat":43.29997,"lon":5.41315,"is_reserved":false,"is_disabled":true,"rental_uris":{"android":"levelo://app?vid=a716bf4a-483b-4082-8d5e-a159c3e6bcca","ios":"levelo://app?vid=a716bf4a-483b-4082-8d5e-a159c3e6bcca"},"vehicle_type_id":"4","last_reported":1734396646,"current_range_meters":32400,"station_id":"ce4bhp12rcd13ifvqh9g","pricing_plan_id":"cebpf4jnsgd1na2vs0mg"},{"bike_id":"3d267de2-ee4b-437e-ae53-7fc94a4768ee","system_id":"levelo_inurba_marseille","lat":43.28417,"lon":5.37519,"is_reserved":false,"is_disabled":false,"rental_uris":{"android":"levelo://app?vid=3d267de2-ee4b-437e-ae53-7fc94a4768ee","ios":"levelo://app?vid=3d267de2-ee4b-437e-ae53-7fc94a4768ee"},"vehicle_type_id":"4","last_reported":1734396646,"current_range_meters":8000,"station_id":"ce4bh412rcd13ifvqds0","pricing_plan_id":"cebpf4jnsgd1na2vs0mg"},{"bike_id":"75979f35-52fb-4ff9-aef4-c293842957ed","system_id":"levelo_inurba_marseille","lat":43.325463,"lon":5.414343,"is_reserved":false,"is_disabled":true,"rental_uris":{"android":"levelo://app?vid=75979f35-52fb-4ff9-aef4-c293842957ed","ios":"levelo://app?vid=75979f35-52fb-4ff9-aef4-c293842957ed"},"vehicle_type_id":"4","last_reported":1734396646,"current_range_meters":35600,"station_id":"ce4bhq12rcd13ifvqhhg","pricing_plan_id":"cebpf4jnsgd1na2vs0mg"},{"bike_id":"434843cf-9364-4dd4-8d3c-6f995f6c8fa3","system_id":"levelo_inurba_marseille","lat":43.23048,"lon":5.35496,"is_reserved":false,"is_disabled":false,"rental_uris":{"android":"levelo://app?vid=434843cf-9364-4dd4-8d3c-6f995f6c8fa3","ios":"levelo://app?vid=434843cf-9364-4dd4-8d3c-6f995f6c8fa3"},"vehicle_type_id":"4","last_reported":1734396646,"current_range_meters":26000,"station_id":"cpo3342slgdg3j2ifvpg","pricing_plan_id":"cebpf4jnsgd1na2vs0mg"},{"bike_id":"01dd261f-922b-4db8-a73b-009ae8f8ee61","system_id":"levelo_inurba_marseille","lat":43.30802,"lon":5.38154,"is_reserved":false,"is_disabled":false,"rental_uris":{"android":"levelo://app?vid=01dd261f-922b-4db8-a73b-009ae8f8ee61","ios":"levelo://app?vid=01dd261f-922b-4db8-a73b-009ae8f8ee61"},"vehicle_type_id":"4","last_reported":1734396646,"current_range_meters":10000,"station_id":"ce4bgt12rcd13ifvqce0","pricing_plan_id":"cebpf4jnsgd1na2vs0mg"},{"bike_id":"3e7f231c-4722-46f1-9378-a923ab2b5c70","system_id":"levelo_inurba_marseille","lat":43.28692,"lon":5.3738,"is_reserved":false,"is_disabled":false,"rental_uris":{"android":"levelo://app?vid=3e7f231c-4722-46f1-9378-a923ab2b5c70","ios":"levelo://app?vid=3e7f231c-4722-46f1-9378-a923ab2b5c70"},"vehicle_type_id":"4","last_reported":1734396646,"current_range_meters":35600,"station_id":"ce4bh3p2rcd13ifvqdq0","pricing_plan_id":"cebpf4jnsgd1na2vs0mg"},{"bike_id":"ba98bdce-aee7-48db-921f-e5b23de6229a","system_id":"levelo_inurba_marseille","lat":43.33791,"lon":5.42098,"is_reserved":false,"is_disabled":true,"rental_uris":{"android":"levelo://app?vid=ba98bdce-aee7-48db-921f-e5b23de6229a","ios":"levelo://app?vid=ba98bdce-aee7-48db-921f-e5b23de6229a"},"vehicle_type_id":"4","last_reported":1734396646,"current_range_meters":0,"station_id":"","pricing_plan_id":"cebpf4jnsgd1na2vs0mg"},{"bike_id":"9cfc09f0-d43f-48e4-babe-f93a6fdf0d20","system_id":"levelo_inurba_marseille","lat":43.29189,"lon":5.35808,"is_reserved":false,"is_disabled":false,"rental_uris":{"android":"levelo://app?vid=9cfc09f0-d43f-48e4-babe-f93a6fdf0d20","ios":"levelo://app?vid=9cfc09f0-d43f-48e4-babe-f93a6fdf0d20"},"vehicle_type_id":"4","last_reported":1734396646,"current_range_meters":11600,"station_id":"ce4bhb12rcd13ifvqel0","pricing_plan_id":"cebpf4jnsgd1na2vs0mg"},{"bike_id":"4a362138-7fa3-4e22-886c-fe544747f1fc","system_id":"levelo_inurba_marseille","lat":43.28924,"lon":5.36392,"is_reserved":false,"is_disabled":false,"rental_uris":{"android":"levelo://app?vid=4a362138-7fa3-4e22-886c-fe544747f1fc","ios":"levelo://app?vid=4a362138-7fa3-4e22-886c-fe544747f1fc"},"vehicle_type_id":"4","last_reported":1734396646,"current_range_meters":26000,"station_id":"ce4bhc92rcd13ifvqetg","pricing_plan_id":"cebpf4jnsgd1na2vs0mg"},{"bike_id":"9a1338f2-16a3-4644-85a6-79582cb358ee","system_id":"levelo_inurba_marseille","lat":43.313584,"lon":5.384946,"is_reserved":false,"is_disabled":false,"rental_uris":{"android":"levelo://app?vid=9a1338f2-16a3-4644-85a6-79582cb358ee","ios":"levelo://app?vid=9a1338f2-16a3-4644-85a6-79582cb358ee"},"vehicle_type_id":"4","last_reported":1734396646,"current_range_meters":10000,"station_id":"ce4bgt92rcd13ifvqcf0","pricing_plan_id":"cebpf4jnsgd1na2vs0mg"},{"bike_id":"003d4e3a-a4f7-4446-a02e-430813fd1656","system_id":"levelo_inurba_marseille","lat":43.29193,"lon":5.39331,"is_reserved":false,"is_disabled":false,"rental_uris":{"android":"levelo://app?vid=003d4e3a-a4f7-4446-a02e-430813fd1656","ios":"levelo://app?vid=003d4e3a-a4f7-4446-a02e-430813fd1656"},"vehicle_type_id":"4","last_reported":1734396646,"current_range_meters":38800,"station_id":"ce4bh192rcd13ifvqdd0","pricing_plan_id":"cebpf4jnsgd1na2vs0mg"},{"bike_id":"e9e7807d-fbf4-40c3-a707-f9babe7d56c2","system_id":"levelo_inurba_marseille","lat":43.28616,"lon":5.3706,"is_reserved":false,"is_disabled":false,"rental_uris":{"android":"levelo://app?vid=e9e7807d-fbf4-40c3-a707-f9babe7d56c2","ios":"levelo://app?vid=e9e7807d-fbf4-40c3-a707-f9babe7d56c2"},"vehicle_type_id":"4","last_reported":1734396646,"current_range_meters":38800,"station_id":"ce4bht12rcd13ifvqi60","pricing_plan_id":"cebpf4jnsgd1na2vs0mg"},{"bike_id":"8275f4eb-07eb-44a4-8bd8-4036a333488d","system_id":"levelo_inurba_marseille","lat":43.2511,"lon":5.40315,"is_reserved":false,"is_disabled":false,"rental_uris":{"android":"levelo://app?vid=8275f4eb-07eb-44a4-8bd8-4036a333488d","ios":"levelo://app?vid=8275f4eb-07eb-44a4-8bd8-4036a333488d"},"vehicle_type_id":"4","last_reported":1734396646,"current_range_meters":35600,"station_id":"ce4bhlh2rcd13ifvqgig","pricing_plan_id":"cebpf4jnsgd1na2vs0mg"},{"bike_id":"c3e06171-606e-48df-8fdf-8daebe9ad97f","system_id":"levelo_inurba_marseille","lat":43.23183,"lon":5.39995,"is_reserved":false,"is_disabled":false,"rental_uris":{"android":"levelo://app?vid=c3e06171-606e-48df-8fdf-8daebe9ad97f","ios":"levelo://app?vid=c3e06171-606e-48df-8fdf-8daebe9ad97f"},"vehicle_type_id":"4","last_reported":1734396646,"current_range_meters":38800,"station_id":"ce4bhn12rcd13ifvqgqg","pricing_plan_id":"cebpf4jnsgd1na2vs0mg"},{"bike_id":"e140feec-2771-48c7-83d4-2c6bc36c1315","system_id":"levelo_inurba_marseille","lat":43.30888,"lon":5.39636,"is_reserved":false,"is_disabled":false,"rental_uris":{"android":"levelo://app?vid=e140feec-2771-48c7-83d4-2c6bc36c1315","ios":"levelo://app?vid=e140feec-2771-48c7-83d4-2c6bc36c1315"},"vehicle_type_id":"4","last_reported":1734396646,"current_range_meters":29600,"station_id":"ce4bh012rcd13ifvqcv0","pricing_plan_id":"cebpf4jnsgd1na2vs0mg"},{"bike_id":"d26f2667-7794-4c2e-9fd3-955db73c9d35","system_id":"levelo_inurba_marseille","lat":43.27502,"lon":5.42457,"is_reserved":false,"is_disabled":false,"rental_uris":{"android":"levelo://app?vid=d26f2667-7794-4c2e-9fd3-955db73c9d35","ios":"levelo://app?vid=d26f2667-7794-4c2e-9fd3-955db73c9d35"},"vehicle_type_id":"4","last_reported":1734396646,"current_range_meters":26000,"station_id":"ce4bhn92rcd13ifvqgrg","pricing_plan_id":"cebpf4jnsgd1na2vs0mg"},{"bike_id":"03a86a1d-ad23-45b9-b8c2-8ad21cf9e42f","system_id":"levelo_inurba_marseille","lat":43.26553,"lon":5.37287,"is_reserved":false,"is_disabled":false,"rental_uris":{"android":"levelo://app?vid=03a86a1d-ad23-45b9-b8c2-8ad21cf9e42f","ios":"levelo://app?vid=03a86a1d-ad23-45b9-b8c2-8ad21cf9e42f"},"vehicle_type_id":"4","last_reported":1734396646,"current_range_meters":38800,"station_id":"ce4bhg12rcd13ifvqf70","pricing_plan_id":"cebpf4jnsgd1na2vs0mg"},{"bike_id":"87ee05a6-7bf0-4b2d-98c3-db5d2162d893","system_id":"levelo_inurba_marseille","lat":43.299859,"lon":5.371839,"is_reserved":false,"is_disabled":false,"rental_uris":{"android":"levelo://app?vid=87ee05a6-7bf0-4b2d-98c3-db5d2162d893","ios":"levelo://app?vid=87ee05a6-7bf0-4b2d-98c3-db5d2162d893"},"vehicle_type_id":"4","last_reported":1734396646,"current_range_meters":38400,"station_id":"ce4bgr92rcd13ifvqc7g","pricing_plan_id":"cebpf4jnsgd1na2vs0mg"},{"bike_id":"e8649dca-63cd-44d1-8d73-065270fb8001","system_id":"levelo_inurba_marseille","lat":43.30146,"lon":5.39888,"is_reserved":false,"is_disabled":false,"rental_uris":{"android":"levelo://app?vid=e8649dca-63cd-44d1-8d73-065270fb8001","ios":"levelo://app?vid=e8649dca-63cd-44d1-8d73-065270fb8001"},"vehicle_type_id":"4","last_reported":1734396646,"current_range_meters":28000,"station_id":"ce4bh0h2rcd13ifvqd40","pricing_plan_id":"cebpf4jnsgd1na2vs0mg"},{"bike_id":"c0b753ba-4d49-4251-94d6-22c21097403a","system_id":"levelo_inurba_marseille","lat":43.29918,"lon":5.43611,"is_reserved":false,"is_disabled":false,"rental_uris":{"android":"levelo://app?vid=c0b753ba-4d49-4251-94d6-22c21097403a","ios":"levelo://app?vid=c0b753ba-4d49-4251-94d6-22c21097403a"},"vehicle_type_id":"4","last_reported":1734396646,"current_range_meters":18800,"station_id":"","pricing_plan_id":"cebpf4jnsgd1na2vs0mg"},{"bike_id":"f90a56d8-6b58-4667-b1e0-9be9da1c9d3e","system_id":"levelo_inurba_marseille","lat":43.28937,"lon":5.37937,"is_reserved":false,"is_disabled":true,"rental_uris":{"android":"levelo://app?vid=f90a56d8-6b58-4667-b1e0-9be9da1c9d3e","ios":"levelo://app?vid=f90a56d8-6b58-4667-b1e0-9be9da1c9d3e"},"vehicle_type_id":"4","last_reported":1734396646,"current_range_meters":30000,"station_id":"","pricing_plan_id":"cebpf4jnsgd1na2vs0mg"},{"bike_id":"06a23c1a-d42a-4e1c-b1b4-ee94afa8cf99","system_id":"levelo_inurba_marseille","lat":43.28943,"lon":5.36385,"is_reserved":false,"is_disabled":false,"rental_uris":{"android":"levelo://app?vid=06a23c1a-d42a-4e1c-b1b4-ee94afa8cf99","ios":"levelo://app?vid=06a23c1a-d42a-4e1c-b1b4-ee94afa8cf99"},"vehicle_type_id":"4","last_reported":1734396646,"current_range_meters":25200,"station_id":"ce4bhc92rcd13ifvqetg","pricing_plan_id":"cebpf4jnsgd1na2vs0mg"},{"bike_id":"f8cdd3fb-430f-4031-a4b1-d7051c2af35c","system_id":"levelo_inurba_marseille","lat":43.28696,"lon":5.37372,"is_reserved":false,"is_disabled":false,"rental_uris":{"android":"levelo://app?vid=f8cdd3fb-430f-4031-a4b1-d7051c2af35c","ios":"levelo://app?vid=f8cdd3fb-430f-4031-a4b1-d7051c2af35c"},"vehicle_type_id":"4","last_reported":1734396646,"current_range_meters":17600,"station_id":"ce4bh3p2rcd13ifvqdq0","pricing_plan_id":"cebpf4jnsgd1na2vs0mg"},{"bike_id":"c84b2943-d429-4852-8ae2-0b7dc34368c8","system_id":"levelo_inurba_marseille","lat":43.3188,"lon":5.40737,"is_reserved":false,"is_disabled":false,"rental_uris":{"android":"levelo://app?vid=c84b2943-d429-4852-8ae2-0b7dc34368c8","ios":"levelo://app?vid=c84b2943-d429-4852-8ae2-0b7dc34368c8"},"vehicle_type_id":"4","last_reported":1734396646,"current_range_meters":37600,"station_id":"ce4bhq12rcd13ifvqhig","pricing_plan_id":"cebpf4jnsgd1na2vs0mg"},{"bike_id":"0c281ba5-3f42-4962-a4d8-5f995bbb41ad","system_id":"levelo_inurba_marseille","lat":43.29008,"lon":5.35609,"is_reserved":false,"is_disabled":false,"rental_uris":{"android":"levelo://app?vid=0c281ba5-3f42-4962-a4d8-5f995bbb41ad","ios":"levelo://app?vid=0c281ba5-3f42-4962-a4d8-5f995bbb41ad"},"vehicle_type_id":"4","last_reported":1734396646,"current_range_meters":37600,"station_id":"ce4bhb92rcd13ifvqen0","pricing_plan_id":"cebpf4jnsgd1na2vs0mg"},{"bike_id":"e2fa2199-d3dd-47c3-8996-03d11144708e","system_id":"levelo_inurba_marseille","lat":43.33024,"lon":5.39046,"is_reserved":false,"is_disabled":false,"rental_uris":{"android":"levelo://app?vid=e2fa2199-d3dd-47c3-8996-03d11144708e","ios":"levelo://app?vid=e2fa2199-d3dd-47c3-8996-03d11144708e"},"vehicle_type_id":"4","last_reported":1734396646,"current_range_meters":38800,"station_id":"ce4bhr92rcd13ifvqhrg","pricing_plan_id":"cebpf4jnsgd1na2vs0mg"},{"bike_id":"cc236266-b4a4-4242-9542-29d54f50c8e0","system_id":"levelo_inurba_marseille","lat":43.31164,"lon":5.38712,"is_reserved":false,"is_disabled":false,"rental_uris":{"android":"levelo://app?vid=cc236266-b4a4-4242-9542-29d54f50c8e0","ios":"levelo://app?vid=cc236266-b4a4-4242-9542-29d54f50c8e0"},"vehicle_type_id":"4","last_reported":1734396646,"current_range_meters":36000,"station_id":"ce4bgv12rcd13ifvqcp0","pricing_plan_id":"cebpf4jnsgd1na2vs0mg"},{"bike_id":"d9e49cd9-d4b5-4ef4-98f8-834de6126cc0","system_id":"levelo_inurba_marseille","lat":43.28271,"lon":5.35071,"is_reserved":false,"is_disabled":false,"rental_uris":{"android":"levelo://app?vid=d9e49cd9-d4b5-4ef4-98f8-834de6126cc0","ios":"levelo://app?vid=d9e49cd9-d4b5-4ef4-98f8-834de6126cc0"},"vehicle_type_id":"4","last_reported":1734396646,"current_range_meters":38000,"station_id":"ce4bhbp2rcd13ifvqerg","pricing_plan_id":"cebpf4jnsgd1na2vs0mg"},{"bike_id":"c3123191-8af3-4905-b6f5-28cd8730b742","system_id":"levelo_inurba_marseille","lat":43.313259,"lon":5.396944,"is_reserved":false,"is_disabled":false,"rental_uris":{"android":"levelo://app?vid=c3123191-8af3-4905-b6f5-28cd8730b742","ios":"levelo://app?vid=c3123191-8af3-4905-b6f5-28cd8730b742"},"vehicle_type_id":"4","last_reported":1734396646,"current_range_meters":31200,"station_id":"ce4bgvp2rcd13ifvqcu0","pricing_plan_id":"cebpf4jnsgd1na2vs0mg"},{"bike_id":"0854f93a-27ef-4312-bd8f-be30bba0059f","system_id":"levelo_inurba_marseille","lat":43.28618,"lon":5.35099,"is_reserved":false,"is_disabled":true,"rental_uris":{"android":"levelo://app?vid=0854f93a-27ef-4312-bd8f-be30bba0059f","ios":"levelo://app?vid=0854f93a-27ef-4312-bd8f-be30bba0059f"},"vehicle_type_id":"4","last_reported":1734396646,"current_range_meters":26000,"station_id":"","pricing_plan_id":"cebpf4jnsgd1na2vs0mg"},{"bike_id":"1d94fcbf-d626-434e-b8ab-055af36da271","system_id":"levelo_inurba_marseille","lat":43.30603,"lon":5.39346,"is_reserved":false,"is_disabled":false,"rental_uris":{"android":"levelo://app?vid=1d94fcbf-d626-434e-b8ab-055af36da271","ios":"levelo://app?vid=1d94fcbf-d626-434e-b8ab-055af36da271"},"vehicle_type_id":"4","last_reported":1734396646,"current_range_meters":38800,"station_id":"ce4bh0p2rcd13ifvqd80","pricing_plan_id":"cebpf4jnsgd1na2vs0mg"},{"bike_id":"b89cace3-fd84-4fd5-b7d4-63c8d0b748f3","system_id":"levelo_inurba_marseille","lat":43.30135,"lon":5.39873,"is_reserved":false,"is_disabled":false,"rental_uris":{"android":"levelo://app?vid=b89cace3-fd84-4fd5-b7d4-63c8d0b748f3","ios":"levelo://app?vid=b89cace3-fd84-4fd5-b7d4-63c8d0b748f3"},"vehicle_type_id":"4","last_reported":1734396646,"current_range_meters":37600,"station_id":"ce4bh0h2rcd13ifvqd40","pricing_plan_id":"cebpf4jnsgd1na2vs0mg"},{"bike_id":"c4270ea9-5ce6-4111-8dc1-8ae345013bb1","system_id":"levelo_inurba_marseille","lat":43.27182,"lon":5.40992,"is_reserved":false,"is_disabled":false,"rental_uris":{"android":"levelo://app?vid=c4270ea9-5ce6-4111-8dc1-8ae345013bb1","ios":"levelo://app?vid=c4270ea9-5ce6-4111-8dc1-8ae345013bb1"},"vehicle_type_id":"4","last_reported":1734396646,"current_range_meters":13600,"station_id":"ce4bhl12rcd13ifvqgf0","pricing_plan_id":"cebpf4jnsgd1na2vs0mg"},{"bike_id":"c0a0c9e6-d71d-42e0-9b1f-2849721da8f4","system_id":"levelo_inurba_marseille","lat":43.27187,"lon":5.40991,"is_reserved":false,"is_disabled":false,"rental_uris":{"android":"levelo://app?vid=c0a0c9e6-d71d-42e0-9b1f-2849721da8f4","ios":"levelo://app?vid=c0a0c9e6-d71d-42e0-9b1f-2849721da8f4"},"vehicle_type_id":"4","last_reported":1734396646,"current_range_meters":22800,"station_id":"ce4bhl12rcd13ifvqgf0","pricing_plan_id":"cebpf4jnsgd1na2vs0mg"},{"bike_id":"4307528f-73ef-4ebb-ab88-bcab69796fe2","system_id":"levelo_inurba_marseille","lat":43.30605,"lon":5.39358,"is_reserved":false,"is_disabled":false,"rental_uris":{"android":"levelo://app?vid=4307528f-73ef-4ebb-ab88-bcab69796fe2","ios":"levelo://app?vid=4307528f-73ef-4ebb-ab88-bcab69796fe2"},"vehicle_type_id":"4","last_reported":1734396646,"current_range_meters":13600,"station_id":"ce4bh0p2rcd13ifvqd80","pricing_plan_id":"cebpf4jnsgd1na2vs0mg"},{"bike_id":"d9f638ef-8ccb-454e-adae-4e085f7e7956","system_id":"levelo_inurba_marseille","lat":43.243901,"lon":5.370474,"is_reserved":false,"is_disabled":false,"rental_uris":{"android":"levelo://app?vid=d9f638ef-8ccb-454e-adae-4e085f7e7956","ios":"levelo://app?vid=d9f638ef-8ccb-454e-adae-4e085f7e7956"},"vehicle_type_id":"4","last_reported":1734396646,"current_range_meters":38800,"station_id":"ce4bhhh2rcd13ifvqfk0","pricing_plan_id":"cebpf4jnsgd1na2vs0mg"},{"bike_id":"02ed7963-1b3c-490b-b642-5174fddf349b","system_id":"levelo_inurba_marseille","lat":43.29278,"lon":5.40141,"is_reserved":false,"is_disabled":false,"rental_uris":{"android":"levelo://app?vid=02ed7963-1b3c-490b-b642-5174fddf349b","ios":"levelo://app?vid=02ed7963-1b3c-490b-b642-5174fddf349b"},"vehicle_type_id":"4","last_reported":1734396646,"current_range_meters":35600,"station_id":"ce4bh312rcd13ifvqdk0","pricing_plan_id":"cebpf4jnsgd1na2vs0mg"},{"bike_id":"209bd16c-28da-4aaf-91b3-949cf5d910d0","system_id":"levelo_inurba_marseille","lat":43.29261,"lon":5.38433,"is_reserved":false,"is_disabled":true,"rental_uris":{"android":"levelo://app?vid=209bd16c-28da-4aaf-91b3-949cf5d910d0","ios":"levelo://app?vid=209bd16c-28da-4aaf-91b3-949cf5d910d0"},"vehicle_type_id":"4","last_reported":1734396646,"current_range_meters":22400,"station_id":"ce4bh692rcd13ifvqea0","pricing_plan_id":"cebpf4jnsgd1na2vs0mg"},{"bike_id":"14270be7-87cd-4bad-92bc-7f49cbd5cacd","system_id":"levelo_inurba_marseille","lat":43.28155,"lon":5.4266,"is_reserved":false,"is_disabled":false,"rental_uris":{"android":"levelo://app?vid=14270be7-87cd-4bad-92bc-7f49cbd5cacd","ios":"levelo://app?vid=14270be7-87cd-4bad-92bc-7f49cbd5cacd"},"vehicle_type_id":"4","last_reported":1734396646,"current_range_meters":11600,"station_id":"ce4bhnh2rcd13ifvqgug","pricing_plan_id":"cebpf4jnsgd1na2vs0mg"},{"bike_id":"555e7050-23c8-4f64-9c01-6f8aa78f8bb7","system_id":"levelo_inurba_marseille","lat":43.3054,"lon":5.38438,"is_reserved":false,"is_disabled":false,"rental_uris":{"android":"levelo://app?vid=555e7050-23c8-4f64-9c01-6f8aa78f8bb7","ios":"levelo://app?vid=555e7050-23c8-4f64-9c01-6f8aa78f8bb7"},"vehicle_type_id":"4","last_reported":1734396646,"current_range_meters":38800,"station_id":"ce4bgg92rcd13ifvqb30","pricing_plan_id":"cebpf4jnsgd1na2vs0mg"},{"bike_id":"7b70bd7c-233a-4d42-9c2b-cff9df18c3b2","system_id":"levelo_inurba_marseille","lat":43.29276,"lon":5.40127,"is_reserved":false,"is_disabled":false,"rental_uris":{"android":"levelo://app?vid=7b70bd7c-233a-4d42-9c2b-cff9df18c3b2","ios":"levelo://app?vid=7b70bd7c-233a-4d42-9c2b-cff9df18c3b2"},"vehicle_type_id":"4","last_reported":1734396646,"current_range_meters":24800,"station_id":"ce4bh312rcd13ifvqdk0","pricing_plan_id":"cebpf4jnsgd1na2vs0mg"},{"bike_id":"9deef00e-810f-42c9-a63d-00fba51c2b82","system_id":"levelo_inurba_marseille","lat":43.33608,"lon":5.4103,"is_reserved":false,"is_disabled":false,"rental_uris":{"android":"levelo://app?vid=9deef00e-810f-42c9-a63d-00fba51c2b82","ios":"levelo://app?vid=9deef00e-810f-42c9-a63d-00fba51c2b82"},"vehicle_type_id":"4","last_reported":1734396646,"current_range_meters":39200,"station_id":"ce4bhqh2rcd13ifvqhmg","pricing_plan_id":"cebpf4jnsgd1na2vs0mg"},{"bike_id":"9595ff7a-ff62-488c-b31c-ab18b0cf92a2","system_id":"levelo_inurba_marseille","lat":43.23962,"lon":5.36628,"is_reserved":false,"is_disabled":false,"rental_uris":{"android":"levelo://app?vid=9595ff7a-ff62-488c-b31c-ab18b0cf92a2","ios":"levelo://app?vid=9595ff7a-ff62-488c-b31c-ab18b0cf92a2"},"vehicle_type_id":"4","last_reported":1734396646,"current_range_meters":38800,"station_id":"ce4bhi12rcd13ifvqfp0","pricing_plan_id":"cebpf4jnsgd1na2vs0mg"},{"bike_id":"eeed152f-b0af-481f-83b6-5a77a6023927","system_id":"levelo_inurba_marseille","lat":43.31225,"lon":5.36865,"is_reserved":false,"is_disabled":false,"rental_uris":{"android":"levelo://app?vid=eeed152f-b0af-481f-83b6-5a77a6023927","ios":"levelo://app?vid=eeed152f-b0af-481f-83b6-5a77a6023927"},"vehicle_type_id":"4","last_reported":1734396646,"current_range_meters":37600,"station_id":"ce4bgl92rcd13ifvqbq0","pricing_plan_id":"cebpf4jnsgd1na2vs0mg"},{"bike_id":"3fb6596b-b720-4e37-88d1-377c7a736425","system_id":"levelo_inurba_marseille","lat":43.23196,"lon":5.35557,"is_reserved":false,"is_disabled":false,"rental_uris":{"android":"levelo://app?vid=3fb6596b-b720-4e37-88d1-377c7a736425","ios":"levelo://app?vid=3fb6596b-b720-4e37-88d1-377c7a736425"},"vehicle_type_id":"4","last_reported":1734396646,"current_range_meters":38800,"station_id":"ce4bhu92rcd13ifvqi70","pricing_plan_id":"cebpf4jnsgd1na2vs0mg"},{"bike_id":"8914bb17-7251-4066-b905-d58eaff8838d","system_id":"levelo_inurba_marseille","lat":43.27177,"lon":5.40994,"is_reserved":false,"is_disabled":false,"rental_uris":{"android":"levelo://app?vid=8914bb17-7251-4066-b905-d58eaff8838d","ios":"levelo://app?vid=8914bb17-7251-4066-b905-d58eaff8838d"},"vehicle_type_id":"4","last_reported":1734396646,"current_range_meters":27600,"station_id":"ce4bhl12rcd13ifvqgf0","pricing_plan_id":"cebpf4jnsgd1na2vs0mg"},{"bike_id":"8ee62417-ba9c-4b61-84a5-5bd7e2cbee2e","system_id":"levelo_inurba_marseille","lat":43.337444,"lon":5.374475,"is_reserved":false,"is_disabled":true,"rental_uris":{"android":"levelo://app?vid=8ee62417-ba9c-4b61-84a5-5bd7e2cbee2e","ios":"levelo://app?vid=8ee62417-ba9c-4b61-84a5-5bd7e2cbee2e"},"vehicle_type_id":"4","last_reported":1734396646,"current_range_meters":0,"station_id":"","pricing_plan_id":"cebpf4jnsgd1na2vs0mg"},{"bike_id":"20c4d571-f9f9-426e-8c0f-9955d737fd82","system_id":"levelo_inurba_marseille","lat":43.26809,"lon":5.40267,"is_reserved":false,"is_disabled":false,"rental_uris":{"android":"levelo://app?vid=20c4d571-f9f9-426e-8c0f-9955d737fd82","ios":"levelo://app?vid=20c4d571-f9f9-426e-8c0f-9955d737fd82"},"vehicle_type_id":"4","last_reported":1734396646,"current_range_meters":12000,"station_id":"ce501612rcd8frsf0b60","pricing_plan_id":"cebpf4jnsgd1na2vs0mg"},{"bike_id":"d2294c64-af77-450b-b299-fc06315dbf1a","system_id":"levelo_inurba_marseille","lat":43.29308,"lon":5.37184,"is_reserved":false,"is_disabled":true,"rental_uris":{"android":"levelo://app?vid=d2294c64-af77-450b-b299-fc06315dbf1a","ios":"levelo://app?vid=d2294c64-af77-450b-b299-fc06315dbf1a"},"vehicle_type_id":"4","last_reported":1734396646,"current_range_meters":20000,"station_id":"ce4bgh92rcd13ifvqb40","pricing_plan_id":"cebpf4jnsgd1na2vs0mg"},{"bike_id":"efc57f04-4351-4676-97a0-14c3c2859977","system_id":"levelo_inurba_marseille","lat":43.29563,"lon":5.36838,"is_reserved":false,"is_disabled":false,"rental_uris":{"android":"levelo://app?vid=efc57f04-4351-4676-97a0-14c3c2859977","ios":"levelo://app?vid=efc57f04-4351-4676-97a0-14c3c2859977"},"vehicle_type_id":"4","last_reported":1734396646,"current_range_meters":38800,"station_id":"ce4bgph2rcd13ifvqc2g","pricing_plan_id":"cebpf4jnsgd1na2vs0mg"},{"bike_id":"056177a6-f3a6-40fa-80e0-574bf5840c95","system_id":"levelo_inurba_marseille","lat":43.28369,"lon":5.3864,"is_reserved":false,"is_disabled":true,"rental_uris":{"android":"levelo://app?vid=056177a6-f3a6-40fa-80e0-574bf5840c95","ios":"levelo://app?vid=056177a6-f3a6-40fa-80e0-574bf5840c95"},"vehicle_type_id":"4","last_reported":1734396646,"current_range_meters":28000,"station_id":"ce4bh492rcd13ifvqdvg","pricing_plan_id":"cebpf4jnsgd1na2vs0mg"},{"bike_id":"2a03e7a9-e623-43fe-99c0-8c16e6af2b40","system_id":"levelo_inurba_marseille","lat":43.26979,"lon":5.39871,"is_reserved":false,"is_disabled":false,"rental_uris":{"android":"levelo://app?vid=2a03e7a9-e623-43fe-99c0-8c16e6af2b40","ios":"levelo://app?vid=2a03e7a9-e623-43fe-99c0-8c16e6af2b40"},"vehicle_type_id":"4","last_reported":1734396646,"current_range_meters":14000,"station_id":"","pricing_plan_id":"cebpf4jnsgd1na2vs0mg"},{"bike_id":"32d1df07-0c63-4e6c-87ad-7c97c2cbc8ce","system_id":"levelo_inurba_marseille","lat":43.30875,"lon":5.39648,"is_reserved":false,"is_disabled":false,"rental_uris":{"android":"levelo://app?vid=32d1df07-0c63-4e6c-87ad-7c97c2cbc8ce","ios":"levelo://app?vid=32d1df07-0c63-4e6c-87ad-7c97c2cbc8ce"},"vehicle_type_id":"4","last_reported":1734396646,"current_range_meters":18000,"station_id":"ce4bh012rcd13ifvqcv0","pricing_plan_id":"cebpf4jnsgd1na2vs0mg"},{"bike_id":"b10d48f1-c7ec-4c0f-a97b-b71c2f6a750b","system_id":"levelo_inurba_marseille","lat":43.289359,"lon":5.363871,"is_reserved":false,"is_disabled":false,"rental_uris":{"android":"levelo://app?vid=b10d48f1-c7ec-4c0f-a97b-b71c2f6a750b","ios":"levelo://app?vid=b10d48f1-c7ec-4c0f-a97b-b71c2f6a750b"},"vehicle_type_id":"4","last_reported":1734396646,"current_range_meters":38800,"station_id":"ce4bhc92rcd13ifvqetg","pricing_plan_id":"cebpf4jnsgd1na2vs0mg"},{"bike_id":"0e009e2b-5946-4a59-bf02-ae4910d6465b","system_id":"levelo_inurba_marseille","lat":43.29558,"lon":5.42271,"is_reserved":false,"is_disabled":false,"rental_uris":{"android":"levelo://app?vid=0e009e2b-5946-4a59-bf02-ae4910d6465b","ios":"levelo://app?vid=0e009e2b-5946-4a59-bf02-ae4910d6465b"},"vehicle_type_id":"4","last_reported":1734396646,"current_range_meters":8400,"station_id":"ce4bhph2rcd13ifvqhdg","pricing_plan_id":"cebpf4jnsgd1na2vs0mg"},{"bike_id":"d82023e7-5914-44f9-8b97-0992779a3467","system_id":"levelo_inurba_marseille","lat":43.245499,"lon":5.395246,"is_reserved":false,"is_disabled":false,"rental_uris":{"android":"levelo://app?vid=d82023e7-5914-44f9-8b97-0992779a3467","ios":"levelo://app?vid=d82023e7-5914-44f9-8b97-0992779a3467"},"vehicle_type_id":"4","last_reported":1734396646,"current_range_meters":38800,"station_id":"ce4bhlp2rcd13ifvqgjg","pricing_plan_id":"cebpf4jnsgd1na2vs0mg"},{"bike_id":"0e2e421d-cab6-4bab-ab43-0de2daec6dd5","system_id":"levelo_inurba_marseille","lat":43.278805,"lon":5.388003,"is_reserved":false,"is_disabled":true,"rental_uris":{"android":"levelo://app?vid=0e2e421d-cab6-4bab-ab43-0de2daec6dd5","ios":"levelo://app?vid=0e2e421d-cab6-4bab-ab43-0de2daec6dd5"},"vehicle_type_id":"4","last_reported":1734396646,"current_range_meters":0,"station_id":"","pricing_plan_id":"cebpf4jnsgd1na2vs0mg"},{"bike_id":"bf85f0b9-c86c-43a7-bfe7-23af3028a90a","system_id":"levelo_inurba_marseille","lat":43.25575,"lon":5.38237,"is_reserved":false,"is_disabled":false,"rental_uris":{"android":"levelo://app?vid=bf85f0b9-c86c-43a7-bfe7-23af3028a90a","ios":"levelo://app?vid=bf85f0b9-c86c-43a7-bfe7-23af3028a90a"},"vehicle_type_id":"4","last_reported":1734396646,"current_range_meters":38800,"station_id":"ce4bhih2rcd13ifvqfs0","pricing_plan_id":"cebpf4jnsgd1na2vs0mg"},{"bike_id":"25c0c336-834d-421d-b66d-e51c42a0ba97","system_id":"levelo_inurba_marseille","lat":43.30721,"lon":5.368238,"is_reserved":false,"is_disabled":false,"rental_uris":{"android":"levelo://app?vid=25c0c336-834d-421d-b66d-e51c42a0ba97","ios":"levelo://app?vid=25c0c336-834d-421d-b66d-e51c42a0ba97"},"vehicle_type_id":"4","last_reported":1734396646,"current_range_meters":22000,"station_id":"","pricing_plan_id":"cebpf4jnsgd1na2vs0mg"},{"bike_id":"048041f3-0a08-4bb3-967a-efe1acd6593e","system_id":"levelo_inurba_marseille","lat":43.25503,"lon":5.37652,"is_reserved":false,"is_disabled":false,"rental_uris":{"android":"levelo://app?vid=048041f3-0a08-4bb3-967a-efe1acd6593e","ios":"levelo://app?vid=048041f3-0a08-4bb3-967a-efe1acd6593e"},"vehicle_type_id":"4","last_reported":1734396646,"current_range_meters":38000,"station_id":"ce4bhh12rcd13ifvqff0","pricing_plan_id":"cebpf4jnsgd1na2vs0mg"},{"bike_id":"5e10a06f-6d61-4ebb-9345-c784442507a3","system_id":"levelo_inurba_marseille","lat":43.32459,"lon":5.36567,"is_reserved":false,"is_disabled":true,"rental_uris":{"android":"levelo://app?vid=5e10a06f-6d61-4ebb-9345-c784442507a3","ios":"levelo://app?vid=5e10a06f-6d61-4ebb-9345-c784442507a3"},"vehicle_type_id":"4","last_reported":1734396646,"current_range_meters":39200,"station_id":"ce4bhs12rcd13ifvqhvg","pricing_plan_id":"cebpf4jnsgd1na2vs0mg"},{"bike_id":"1469fe98-071b-47c8-a80a-3e20f248b4b8","system_id":"levelo_inurba_marseille","lat":43.281026,"lon":5.378389,"is_reserved":false,"is_disabled":false,"rental_uris":{"android":"levelo://app?vid=1469fe98-071b-47c8-a80a-3e20f248b4b8","ios":"levelo://app?vid=1469fe98-071b-47c8-a80a-3e20f248b4b8"},"vehicle_type_id":"4","last_reported":1734396646,"current_range_meters":37600,"station_id":"ce4bha12rcd13ifvqee0","pricing_plan_id":"cebpf4jnsgd1na2vs0mg"},{"bike_id":"54a85025-694f-47a0-8f8f-7005fb77c937","system_id":"levelo_inurba_marseille","lat":43.28082,"lon":5.39648,"is_reserved":false,"is_disabled":false,"rental_uris":{"android":"levelo://app?vid=54a85025-694f-47a0-8f8f-7005fb77c937","ios":"levelo://app?vid=54a85025-694f-47a0-8f8f-7005fb77c937"},"vehicle_type_id":"4","last_reported":1734396646,"current_range_meters":36800,"station_id":"ce4bho12rcd13ifvqh2g","pricing_plan_id":"cebpf4jnsgd1na2vs0mg"},{"bike_id":"d91e2578-e2ed-4931-9142-db3aa779df9b","system_id":"levelo_inurba_marseille","lat":43.27841,"lon":5.39194,"is_reserved":false,"is_disabled":false,"rental_uris":{"android":"levelo://app?vid=d91e2578-e2ed-4931-9142-db3aa779df9b","ios":"levelo://app?vid=d91e2578-e2ed-4931-9142-db3aa779df9b"},"vehicle_type_id":"4","last_reported":1734396646,"current_range_meters":24800,"station_id":"ce4bhjp2rcd13ifvqga0","pricing_plan_id":"cebpf4jnsgd1na2vs0mg"},{"bike_id":"584b569e-7298-4afe-b48b-612c38273697","system_id":"levelo_inurba_marseille","lat":43.31062,"lon":5.38352,"is_reserved":false,"is_disabled":true,"rental_uris":{"android":"levelo://app?vid=584b569e-7298-4afe-b48b-612c38273697","ios":"levelo://app?vid=584b569e-7298-4afe-b48b-612c38273697"},"vehicle_type_id":"4","last_reported":1734396646,"current_range_meters":0,"station_id":"ce4bgv92rcd13ifvqcr0","pricing_plan_id":"cebpf4jnsgd1na2vs0mg"},{"bike_id":"6fcca420-7b9a-4500-9580-675e569a2a96","system_id":"levelo_inurba_marseille","lat":43.26547,"lon":5.3729,"is_reserved":false,"is_disabled":false,"rental_uris":{"android":"levelo://app?vid=6fcca420-7b9a-4500-9580-675e569a2a96","ios":"levelo://app?vid=6fcca420-7b9a-4500-9580-675e569a2a96"},"vehicle_type_id":"4","last_reported":1734396646,"current_range_meters":24800,"station_id":"ce4bhg12rcd13ifvqf70","pricing_plan_id":"cebpf4jnsgd1na2vs0mg"},{"bike_id":"120abb77-5811-4e7b-9581-8e972edf37fd","system_id":"levelo_inurba_marseille","lat":43.29801,"lon":5.3713,"is_reserved":false,"is_disabled":true,"rental_uris":{"android":"levelo://app?vid=120abb77-5811-4e7b-9581-8e972edf37fd","ios":"levelo://app?vid=120abb77-5811-4e7b-9581-8e972edf37fd"},"vehicle_type_id":"4","last_reported":1734396646,"current_range_meters":38800,"station_id":"ce4bgop2rcd13ifvqc1g","pricing_plan_id":"cebpf4jnsgd1na2vs0mg"},{"bike_id":"11600c38-dc3d-4aea-88bc-c214298d70f1","system_id":"levelo_inurba_marseille","lat":43.28456,"lon":5.35891,"is_reserved":false,"is_disabled":false,"rental_uris":{"android":"levelo://app?vid=11600c38-dc3d-4aea-88bc-c214298d70f1","ios":"levelo://app?vid=11600c38-dc3d-4aea-88bc-c214298d70f1"},"vehicle_type_id":"4","last_reported":1734396646,"current_range_meters":37600,"station_id":"ce4bhah2rcd13ifvqei0","pricing_plan_id":"cebpf4jnsgd1na2vs0mg"},{"bike_id":"2b15d063-7a3f-4ab1-9a96-79820bd042f5","system_id":"levelo_inurba_marseille","lat":43.30255,"lon":5.40044,"is_reserved":false,"is_disabled":true,"rental_uris":{"android":"levelo://app?vid=2b15d063-7a3f-4ab1-9a96-79820bd042f5","ios":"levelo://app?vid=2b15d063-7a3f-4ab1-9a96-79820bd042f5"},"vehicle_type_id":"4","last_reported":1734396646,"current_range_meters":18800,"station_id":"ce4bgvh2rcd13ifvqcs0","pricing_plan_id":"cebpf4jnsgd1na2vs0mg"},{"bike_id":"bfe5e067-4070-40f8-8cac-6448828a3f77","system_id":"levelo_inurba_marseille","lat":43.29878,"lon":5.39735,"is_reserved":false,"is_disabled":false,"rental_uris":{"android":"levelo://app?vid=bfe5e067-4070-40f8-8cac-6448828a3f77","ios":"levelo://app?vid=bfe5e067-4070-40f8-8cac-6448828a3f77"},"vehicle_type_id":"4","last_reported":1734396646,"current_range_meters":39200,"station_id":"ce4bh0h2rcd13ifvqd50","pricing_plan_id":"cebpf4jnsgd1na2vs0mg"},{"bike_id":"a8e8da64-46d2-4140-a717-5860e695aab7","system_id":"levelo_inurba_marseille","lat":43.28365,"lon":5.38121,"is_reserved":false,"is_disabled":false,"rental_uris":{"android":"levelo://app?vid=a8e8da64-46d2-4140-a717-5860e695aab7","ios":"levelo://app?vid=a8e8da64-46d2-4140-a717-5860e695aab7"},"vehicle_type_id":"4","last_reported":1734396646,"current_range_meters":38800,"station_id":"ce4bh412rcd13ifvqdr0","pricing_plan_id":"cebpf4jnsgd1na2vs0mg"},{"bike_id":"54c11d0c-45a0-42d8-8ca0-d10a61cb44e5","system_id":"levelo_inurba_marseille","lat":43.265505,"lon":5.372876,"is_reserved":false,"is_disabled":false,"rental_uris":{"android":"levelo://app?vid=54c11d0c-45a0-42d8-8ca0-d10a61cb44e5","ios":"levelo://app?vid=54c11d0c-45a0-42d8-8ca0-d10a61cb44e5"},"vehicle_type_id":"4","last_reported":1734396646,"current_range_meters":30800,"station_id":"ce4bhg12rcd13ifvqf70","pricing_plan_id":"cebpf4jnsgd1na2vs0mg"},{"bike_id":"63b80b07-02f6-4570-afe0-999789fb48d9","system_id":"levelo_inurba_marseille","lat":43.25497,"lon":5.37649,"is_reserved":false,"is_disabled":false,"rental_uris":{"android":"levelo://app?vid=63b80b07-02f6-4570-afe0-999789fb48d9","ios":"levelo://app?vid=63b80b07-02f6-4570-afe0-999789fb48d9"},"vehicle_type_id":"4","last_reported":1734396646,"current_range_meters":37600,"station_id":"ce4bhh12rcd13ifvqff0","pricing_plan_id":"cebpf4jnsgd1na2vs0mg"},{"bike_id":"2b0d00ea-e18e-4e2b-9087-38d7d88e3458","system_id":"levelo_inurba_marseille","lat":43.28941,"lon":5.364,"is_reserved":false,"is_disabled":false,"rental_uris":{"android":"levelo://app?vid=2b0d00ea-e18e-4e2b-9087-38d7d88e3458","ios":"levelo://app?vid=2b0d00ea-e18e-4e2b-9087-38d7d88e3458"},"vehicle_type_id":"4","last_reported":1734396646,"current_range_meters":38800,"station_id":"ce4bhc92rcd13ifvqetg","pricing_plan_id":"cebpf4jnsgd1na2vs0mg"},{"bike_id":"8c7e2759-1761-4283-8484-bda9243b869e","system_id":"levelo_inurba_marseille","lat":43.32478,"lon":5.36564,"is_reserved":false,"is_disabled":false,"rental_uris":{"android":"levelo://app?vid=8c7e2759-1761-4283-8484-bda9243b869e","ios":"levelo://app?vid=8c7e2759-1761-4283-8484-bda9243b869e"},"vehicle_type_id":"4","last_reported":1734396646,"current_range_meters":38800,"station_id":"ce4bhs12rcd13ifvqhvg","pricing_plan_id":"cebpf4jnsgd1na2vs0mg"},{"bike_id":"5e68685b-5a26-4a2c-81cf-c3ecf4f3378f","system_id":"levelo_inurba_marseille","lat":43.28459,"lon":5.35891,"is_reserved":false,"is_disabled":false,"rental_uris":{"android":"levelo://app?vid=5e68685b-5a26-4a2c-81cf-c3ecf4f3378f","ios":"levelo://app?vid=5e68685b-5a26-4a2c-81cf-c3ecf4f3378f"},"vehicle_type_id":"4","last_reported":1734396646,"current_range_meters":32400,"station_id":"ce4bhah2rcd13ifvqei0","pricing_plan_id":"cebpf4jnsgd1na2vs0mg"},{"bike_id":"57dd0c1d-c442-4111-819c-722da721fac4","system_id":"levelo_inurba_marseille","lat":43.29905,"lon":5.38884,"is_reserved":false,"is_disabled":false,"rental_uris":{"android":"levelo://app?vid=57dd0c1d-c442-4111-819c-722da721fac4","ios":"levelo://app?vid=57dd0c1d-c442-4111-819c-722da721fac4"},"vehicle_type_id":"4","last_reported":1734396646,"current_range_meters":38000,"station_id":"ce4bh392rcd13ifvqdl0","pricing_plan_id":"cebpf4jnsgd1na2vs0mg"},{"bike_id":"865920f3-1ff2-409f-b448-e657ecc61490","system_id":"levelo_inurba_marseille","lat":43.28564,"lon":5.3949,"is_reserved":false,"is_disabled":false,"rental_uris":{"android":"levelo://app?vid=865920f3-1ff2-409f-b448-e657ecc61490","ios":"levelo://app?vid=865920f3-1ff2-409f-b448-e657ecc61490"},"vehicle_type_id":"4","last_reported":1734396646,"current_range_meters":25600,"station_id":"ce4bh292rcd13ifvqdg0","pricing_plan_id":"cebpf4jnsgd1na2vs0mg"},{"bike_id":"d600d5f9-a3e6-4b94-ba8f-df9f8ed10059","system_id":"levelo_inurba_marseille","lat":43.24545,"lon":5.39521,"is_reserved":false,"is_disabled":false,"rental_uris":{"android":"levelo://app?vid=d600d5f9-a3e6-4b94-ba8f-df9f8ed10059","ios":"levelo://app?vid=d600d5f9-a3e6-4b94-ba8f-df9f8ed10059"},"vehicle_type_id":"4","last_reported":1734396646,"current_range_meters":13600,"station_id":"ce4bhlp2rcd13ifvqgjg","pricing_plan_id":"cebpf4jnsgd1na2vs0mg"},{"bike_id":"6bcea96b-2fd2-4aa6-b10c-d89cef8832d2","system_id":"levelo_inurba_marseille","lat":43.2925,"lon":5.40898,"is_reserved":false,"is_disabled":false,"rental_uris":{"android":"levelo://app?vid=6bcea96b-2fd2-4aa6-b10c-d89cef8832d2","ios":"levelo://app?vid=6bcea96b-2fd2-4aa6-b10c-d89cef8832d2"},"vehicle_type_id":"4","last_reported":1734396646,"current_range_meters":38800,"station_id":"ce4bh192rcd13ifvqdc0","pricing_plan_id":"cebpf4jnsgd1na2vs0mg"},{"bike_id":"d56b8641-06e1-4323-9a69-75ab328d3cd1","system_id":"levelo_inurba_marseille","lat":43.231882,"lon":5.399776,"is_reserved":false,"is_disabled":false,"rental_uris":{"android":"levelo://app?vid=d56b8641-06e1-4323-9a69-75ab328d3cd1","ios":"levelo://app?vid=d56b8641-06e1-4323-9a69-75ab328d3cd1"},"vehicle_type_id":"4","last_reported":1734396646,"current_range_meters":38800,"station_id":"ce4bhn12rcd13ifvqgqg","pricing_plan_id":"cebpf4jnsgd1na2vs0mg"},{"bike_id":"76ec3642-6b04-4fa3-81b8-996f867e214d","system_id":"levelo_inurba_marseille","lat":43.24182,"lon":5.39715,"is_reserved":false,"is_disabled":true,"rental_uris":{"android":"levelo://app?vid=76ec3642-6b04-4fa3-81b8-996f867e214d","ios":"levelo://app?vid=76ec3642-6b04-4fa3-81b8-996f867e214d"},"vehicle_type_id":"4","last_reported":1734396646,"current_range_meters":15200,"station_id":"ce4bhn12rcd13ifvqgpg","pricing_plan_id":"cebpf4jnsgd1na2vs0mg"},{"bike_id":"a88760a5-bded-4b2b-92be-418e7a03d3a5","system_id":"levelo_inurba_marseille","lat":43.2961,"lon":5.37711,"is_reserved":false,"is_disabled":true,"rental_uris":{"android":"levelo://app?vid=a88760a5-bded-4b2b-92be-418e7a03d3a5","ios":"levelo://app?vid=a88760a5-bded-4b2b-92be-418e7a03d3a5"},"vehicle_type_id":"4","last_reported":1734396646,"current_range_meters":0,"station_id":"ce4bgi92rcd13ifvqb90","pricing_plan_id":"cebpf4jnsgd1na2vs0mg"},{"bike_id":"79f3ae0d-6333-4e50-b3b7-522f8072751f","system_id":"levelo_inurba_marseille","lat":43.3361,"lon":5.41026,"is_reserved":false,"is_disabled":false,"rental_uris":{"android":"levelo://app?vid=79f3ae0d-6333-4e50-b3b7-522f8072751f","ios":"levelo://app?vid=79f3ae0d-6333-4e50-b3b7-522f8072751f"},"vehicle_type_id":"4","last_reported":1734396646,"current_range_meters":38400,"station_id":"ce4bhqh2rcd13ifvqhmg","pricing_plan_id":"cebpf4jnsgd1na2vs0mg"},{"bike_id":"ac9d3cf6-aaeb-482e-8ebb-d3183ed5b44c","system_id":"levelo_inurba_marseille","lat":43.31752,"lon":5.39032,"is_reserved":false,"is_disabled":false,"rental_uris":{"android":"levelo://app?vid=ac9d3cf6-aaeb-482e-8ebb-d3183ed5b44c","ios":"levelo://app?vid=ac9d3cf6-aaeb-482e-8ebb-d3183ed5b44c"},"vehicle_type_id":"4","last_reported":1734396646,"current_range_meters":22800,"station_id":"ce4bhqp2rcd13ifvqhng","pricing_plan_id":"cebpf4jnsgd1na2vs0mg"},{"bike_id":"d97fe5f2-9491-4c9e-bede-890204658da0","system_id":"levelo_inurba_marseille","lat":43.28465,"lon":5.35883,"is_reserved":false,"is_disabled":false,"rental_uris":{"android":"levelo://app?vid=d97fe5f2-9491-4c9e-bede-890204658da0","ios":"levelo://app?vid=d97fe5f2-9491-4c9e-bede-890204658da0"},"vehicle_type_id":"4","last_reported":1734396646,"current_range_meters":38000,"station_id":"ce4bhah2rcd13ifvqei0","pricing_plan_id":"cebpf4jnsgd1na2vs0mg"},{"bike_id":"03d4ca6b-f6c8-4763-90b4-5fc0a101449e","system_id":"levelo_inurba_marseille","lat":43.28728,"lon":5.36088,"is_reserved":false,"is_disabled":false,"rental_uris":{"android":"levelo://app?vid=03d4ca6b-f6c8-4763-90b4-5fc0a101449e","ios":"levelo://app?vid=03d4ca6b-f6c8-4763-90b4-5fc0a101449e"},"vehicle_type_id":"4","last_reported":1734396646,"current_range_meters":35200,"station_id":"cki0cbj6b192h4jlfktg","pricing_plan_id":"cebpf4jnsgd1na2vs0mg"},{"bike_id":"b38afd42-c0ab-4d89-bb51-653c55809745","system_id":"levelo_inurba_marseille","lat":43.31327,"lon":5.39694,"is_reserved":false,"is_disabled":false,"rental_uris":{"android":"levelo://app?vid=b38afd42-c0ab-4d89-bb51-653c55809745","ios":"levelo://app?vid=b38afd42-c0ab-4d89-bb51-653c55809745"},"vehicle_type_id":"4","last_reported":1734396646,"current_range_meters":39200,"station_id":"ce4bgvp2rcd13ifvqcu0","pricing_plan_id":"cebpf4jnsgd1na2vs0mg"},{"bike_id":"c23cd138-2a8f-4687-846c-ea5d55e0bd33","system_id":"levelo_inurba_marseille","lat":43.30128,"lon":5.39873,"is_reserved":false,"is_disabled":false,"rental_uris":{"android":"levelo://app?vid=c23cd138-2a8f-4687-846c-ea5d55e0bd33","ios":"levelo://app?vid=c23cd138-2a8f-4687-846c-ea5d55e0bd33"},"vehicle_type_id":"4","last_reported":1734396646,"current_range_meters":38800,"station_id":"ce4bh0h2rcd13ifvqd40","pricing_plan_id":"cebpf4jnsgd1na2vs0mg"},{"bike_id":"689314f8-8b91-45a3-a724-ebaceb481789","system_id":"levelo_inurba_marseille","lat":43.28408,"lon":5.37513,"is_reserved":false,"is_disabled":false,"rental_uris":{"android":"levelo://app?vid=689314f8-8b91-45a3-a724-ebaceb481789","ios":"levelo://app?vid=689314f8-8b91-45a3-a724-ebaceb481789"},"vehicle_type_id":"4","last_reported":1734396646,"current_range_meters":22400,"station_id":"ce4bh412rcd13ifvqds0","pricing_plan_id":"cebpf4jnsgd1na2vs0mg"},{"bike_id":"6b2019df-57c6-4717-bb28-99523c4cbdf8","system_id":"levelo_inurba_marseille","lat":43.29537,"lon":5.39019,"is_reserved":false,"is_disabled":true,"rental_uris":{"android":"levelo://app?vid=6b2019df-57c6-4717-bb28-99523c4cbdf8","ios":"levelo://app?vid=6b2019df-57c6-4717-bb28-99523c4cbdf8"},"vehicle_type_id":"4","last_reported":1734396646,"current_range_meters":8000,"station_id":"ce4bh3p2rcd13ifvqdp0","pricing_plan_id":"cebpf4jnsgd1na2vs0mg"},{"bike_id":"e6d61402-c937-4e29-8dec-b52b2a0c0925","system_id":"levelo_inurba_marseille","lat":43.28568,"lon":5.39483,"is_reserved":false,"is_disabled":false,"rental_uris":{"android":"levelo://app?vid=e6d61402-c937-4e29-8dec-b52b2a0c0925","ios":"levelo://app?vid=e6d61402-c937-4e29-8dec-b52b2a0c0925"},"vehicle_type_id":"4","last_reported":1734396646,"current_range_meters":38800,"station_id":"ce4bh292rcd13ifvqdg0","pricing_plan_id":"cebpf4jnsgd1na2vs0mg"},{"bike_id":"06581807-95c6-4c33-8fb9-7666bcd5776c","system_id":"levelo_inurba_marseille","lat":43.28715,"lon":5.37942,"is_reserved":false,"is_disabled":false,"rental_uris":{"android":"levelo://app?vid=06581807-95c6-4c33-8fb9-7666bcd5776c","ios":"levelo://app?vid=06581807-95c6-4c33-8fb9-7666bcd5776c"},"vehicle_type_id":"4","last_reported":1734396646,"current_range_meters":38000,"station_id":"ce4bh9p2rcd13ifvqec0","pricing_plan_id":"cebpf4jnsgd1na2vs0mg"},{"bike_id":"4375d76a-dfa4-4b4b-b81c-b45a1fb8d4ca","system_id":"levelo_inurba_marseille","lat":43.28929,"lon":5.36399,"is_reserved":false,"is_disabled":false,"rental_uris":{"android":"levelo://app?vid=4375d76a-dfa4-4b4b-b81c-b45a1fb8d4ca","ios":"levelo://app?vid=4375d76a-dfa4-4b4b-b81c-b45a1fb8d4ca"},"vehicle_type_id":"4","last_reported":1734396646,"current_range_meters":36000,"station_id":"ce4bhc92rcd13ifvqetg","pricing_plan_id":"cebpf4jnsgd1na2vs0mg"},{"bike_id":"0ff63b43-e762-4853-8e57-8ec84f36bda7","system_id":"levelo_inurba_marseille","lat":43.31175,"lon":5.38705,"is_reserved":false,"is_disabled":false,"rental_uris":{"android":"levelo://app?vid=0ff63b43-e762-4853-8e57-8ec84f36bda7","ios":"levelo://app?vid=0ff63b43-e762-4853-8e57-8ec84f36bda7"},"vehicle_type_id":"4","last_reported":1734396646,"current_range_meters":33200,"station_id":"ce4bgv12rcd13ifvqcp0","pricing_plan_id":"cebpf4jnsgd1na2vs0mg"},{"bike_id":"3adf56f7-e398-4f39-9aed-d791bf6ebdd6","system_id":"levelo_inurba_marseille","lat":43.26495,"lon":5.39543,"is_reserved":false,"is_disabled":false,"rental_uris":{"android":"levelo://app?vid=3adf56f7-e398-4f39-9aed-d791bf6ebdd6","ios":"levelo://app?vid=3adf56f7-e398-4f39-9aed-d791bf6ebdd6"},"vehicle_type_id":"4","last_reported":1734396646,"current_range_meters":12000,"station_id":"ce4bhi12rcd13ifvqfq0","pricing_plan_id":"cebpf4jnsgd1na2vs0mg"},{"bike_id":"730a6134-88d8-47e4-be24-a87eaceaba81","system_id":"levelo_inurba_marseille","lat":43.27918,"lon":5.39556,"is_reserved":false,"is_disabled":false,"rental_uris":{"android":"levelo://app?vid=730a6134-88d8-47e4-be24-a87eaceaba81","ios":"levelo://app?vid=730a6134-88d8-47e4-be24-a87eaceaba81"},"vehicle_type_id":"4","last_reported":1734396646,"current_range_meters":38800,"station_id":"ce4bhf92rcd13ifvqf40","pricing_plan_id":"cebpf4jnsgd1na2vs0mg"},{"bike_id":"5b0cdc9a-aa12-4c24-86b8-81ee92b220ac","system_id":"levelo_inurba_marseille","lat":43.29138,"lon":5.40437,"is_reserved":false,"is_disabled":false,"rental_uris":{"android":"levelo://app?vid=5b0cdc9a-aa12-4c24-86b8-81ee92b220ac","ios":"levelo://app?vid=5b0cdc9a-aa12-4c24-86b8-81ee92b220ac"},"vehicle_type_id":"4","last_reported":1734396646,"current_range_meters":36000,"station_id":"","pricing_plan_id":"cebpf4jnsgd1na2vs0mg"},{"bike_id":"bb1c0ef0-184d-4b17-9016-88e561b3d27b","system_id":"levelo_inurba_marseille","lat":43.28615,"lon":5.35099,"is_reserved":false,"is_disabled":true,"rental_uris":{"android":"levelo://app?vid=bb1c0ef0-184d-4b17-9016-88e561b3d27b","ios":"levelo://app?vid=bb1c0ef0-184d-4b17-9016-88e561b3d27b"},"vehicle_type_id":"4","last_reported":1734396646,"current_range_meters":24800,"station_id":"ce4bhch2rcd13ifvqeug","pricing_plan_id":"cebpf4jnsgd1na2vs0mg"},{"bike_id":"63e53b98-acea-4a22-8d02-003944a706e6","system_id":"levelo_inurba_marseille","lat":43.257184,"lon":5.411091,"is_reserved":false,"is_disabled":false,"rental_uris":{"android":"levelo://app?vid=63e53b98-acea-4a22-8d02-003944a706e6","ios":"levelo://app?vid=63e53b98-acea-4a22-8d02-003944a706e6"},"vehicle_type_id":"4","last_reported":1734396646,"current_range_meters":37600,"station_id":"ce4bhkp2rcd13ifvqgd0","pricing_plan_id":"cebpf4jnsgd1na2vs0mg"},{"bike_id":"7464f61b-492b-4f2c-b3c0-c83417d5a111","system_id":"levelo_inurba_marseille","lat":43.31163,"lon":5.38717,"is_reserved":false,"is_disabled":false,"rental_uris":{"android":"levelo://app?vid=7464f61b-492b-4f2c-b3c0-c83417d5a111","ios":"levelo://app?vid=7464f61b-492b-4f2c-b3c0-c83417d5a111"},"vehicle_type_id":"4","last_reported":1734396646,"current_range_meters":10000,"station_id":"ce4bgv12rcd13ifvqcp0","pricing_plan_id":"cebpf4jnsgd1na2vs0mg"},{"bike_id":"44861a73-1a94-4497-ad37-285de7daa1ae","system_id":"levelo_inurba_marseille","lat":43.28034,"lon":5.36922,"is_reserved":false,"is_disabled":false,"rental_uris":{"android":"levelo://app?vid=44861a73-1a94-4497-ad37-285de7daa1ae","ios":"levelo://app?vid=44861a73-1a94-4497-ad37-285de7daa1ae"},"vehicle_type_id":"4","last_reported":1734396646,"current_range_meters":38800,"station_id":"ce4bha12rcd13ifvqef0","pricing_plan_id":"cebpf4jnsgd1na2vs0mg"},{"bike_id":"c5595fd0-fc8e-462b-8984-5c1c92ed35f5","system_id":"levelo_inurba_marseille","lat":43.29556,"lon":5.42279,"is_reserved":false,"is_disabled":true,"rental_uris":{"android":"levelo://app?vid=c5595fd0-fc8e-462b-8984-5c1c92ed35f5","ios":"levelo://app?vid=c5595fd0-fc8e-462b-8984-5c1c92ed35f5"},"vehicle_type_id":"4","last_reported":1734396646,"current_range_meters":0,"station_id":"ce4bhph2rcd13ifvqhdg","pricing_plan_id":"cebpf4jnsgd1na2vs0mg"},{"bike_id":"d17068e4-bff5-4619-b1b5-acf62ffb0fb1","system_id":"levelo_inurba_marseille","lat":43.288511,"lon":5.358448,"is_reserved":false,"is_disabled":false,"rental_uris":{"android":"levelo://app?vid=d17068e4-bff5-4619-b1b5-acf62ffb0fb1","ios":"levelo://app?vid=d17068e4-bff5-4619-b1b5-acf62ffb0fb1"},"vehicle_type_id":"4","last_reported":1734396646,"current_range_meters":30000,"station_id":"ce4bhb12rcd13ifvqem0","pricing_plan_id":"cebpf4jnsgd1na2vs0mg"},{"bike_id":"ebaa68e4-3d1b-47af-9a69-6f7f2246f6e7","system_id":"levelo_inurba_marseille","lat":43.24658,"lon":5.38172,"is_reserved":false,"is_disabled":true,"rental_uris":{"android":"levelo://app?vid=ebaa68e4-3d1b-47af-9a69-6f7f2246f6e7","ios":"levelo://app?vid=ebaa68e4-3d1b-47af-9a69-6f7f2246f6e7"},"vehicle_type_id":"4","last_reported":1734396646,"current_range_meters":38800,"station_id":"ce4bhih2rcd13ifvqfr0","pricing_plan_id":"cebpf4jnsgd1na2vs0mg"},{"bike_id":"16ff838f-1cdb-4ddb-b5eb-dde2105d633a","system_id":"levelo_inurba_marseille","lat":43.26551,"lon":5.37281,"is_reserved":false,"is_disabled":false,"rental_uris":{"android":"levelo://app?vid=16ff838f-1cdb-4ddb-b5eb-dde2105d633a","ios":"levelo://app?vid=16ff838f-1cdb-4ddb-b5eb-dde2105d633a"},"vehicle_type_id":"4","last_reported":1734396646,"current_range_meters":28400,"station_id":"ce4bhg12rcd13ifvqf70","pricing_plan_id":"cebpf4jnsgd1na2vs0mg"},{"bike_id":"1273d0ea-868c-4b40-af39-d859d3abf9f5","system_id":"levelo_inurba_marseille","lat":43.243868,"lon":5.370588,"is_reserved":false,"is_disabled":false,"rental_uris":{"android":"levelo://app?vid=1273d0ea-868c-4b40-af39-d859d3abf9f5","ios":"levelo://app?vid=1273d0ea-868c-4b40-af39-d859d3abf9f5"},"vehicle_type_id":"4","last_reported":1734396646,"current_range_meters":38800,"station_id":"ce4bhhh2rcd13ifvqfk0","pricing_plan_id":"cebpf4jnsgd1na2vs0mg"},{"bike_id":"ed15a02e-1f11-4fab-be7c-ed27688f620c","system_id":"levelo_inurba_marseille","lat":43.31169,"lon":5.38714,"is_reserved":false,"is_disabled":false,"rental_uris":{"android":"levelo://app?vid=ed15a02e-1f11-4fab-be7c-ed27688f620c","ios":"levelo://app?vid=ed15a02e-1f11-4fab-be7c-ed27688f620c"},"vehicle_type_id":"4","last_reported":1734396646,"current_range_meters":22400,"station_id":"ce4bgv12rcd13ifvqcp0","pricing_plan_id":"cebpf4jnsgd1na2vs0mg"},{"bike_id":"8e7c3683-99a9-4188-89c4-858575c3d04c","system_id":"levelo_inurba_marseille","lat":43.27658,"lon":5.38936,"is_reserved":false,"is_disabled":true,"rental_uris":{"android":"levelo://app?vid=8e7c3683-99a9-4188-89c4-858575c3d04c","ios":"levelo://app?vid=8e7c3683-99a9-4188-89c4-858575c3d04c"},"vehicle_type_id":"4","last_reported":1734396646,"current_range_meters":32800,"station_id":"","pricing_plan_id":"cebpf4jnsgd1na2vs0mg"},{"bike_id":"c2b15600-6c6a-46ab-91af-17b7273fdfc4","system_id":"levelo_inurba_marseille","lat":43.2866,"lon":5.36355,"is_reserved":false,"is_disabled":false,"rental_uris":{"android":"levelo://app?vid=c2b15600-6c6a-46ab-91af-17b7273fdfc4","ios":"levelo://app?vid=c2b15600-6c6a-46ab-91af-17b7273fdfc4"},"vehicle_type_id":"4","last_reported":1734396646,"current_range_meters":27600,"station_id":"ce4bhah2rcd13ifvqej0","pricing_plan_id":"cebpf4jnsgd1na2vs0mg"},{"bike_id":"b2a6d57f-5052-4d3c-9a8b-5166108f0a2a","system_id":"levelo_inurba_marseille","lat":43.25876,"lon":5.39904,"is_reserved":false,"is_disabled":false,"rental_uris":{"android":"levelo://app?vid=b2a6d57f-5052-4d3c-9a8b-5166108f0a2a","ios":"levelo://app?vid=b2a6d57f-5052-4d3c-9a8b-5166108f0a2a"},"vehicle_type_id":"4","last_reported":1734396646,"current_range_meters":37600,"station_id":"ce4bhl92rcd13ifvqghg","pricing_plan_id":"cebpf4jnsgd1na2vs0mg"},{"bike_id":"4577e3e8-7ec6-4361-8738-81257af38076","system_id":"levelo_inurba_marseille","lat":43.284203,"lon":5.349901,"is_reserved":false,"is_disabled":false,"rental_uris":{"android":"levelo://app?vid=4577e3e8-7ec6-4361-8738-81257af38076","ios":"levelo://app?vid=4577e3e8-7ec6-4361-8738-81257af38076"},"vehicle_type_id":"4","last_reported":1734396646,"current_range_meters":38400,"station_id":"ce4bhbh2rcd13ifvqepg","pricing_plan_id":"cebpf4jnsgd1na2vs0mg"},{"bike_id":"add9ba96-7459-451c-8e6d-baaa8033dc3a","system_id":"levelo_inurba_marseille","lat":43.29784,"lon":5.39339,"is_reserved":false,"is_disabled":false,"rental_uris":{"android":"levelo://app?vid=add9ba96-7459-451c-8e6d-baaa8033dc3a","ios":"levelo://app?vid=add9ba96-7459-451c-8e6d-baaa8033dc3a"},"vehicle_type_id":"4","last_reported":1734396646,"current_range_meters":38800,"station_id":"chh1huq6cuj3fo74tm60","pricing_plan_id":"cebpf4jnsgd1na2vs0mg"},{"bike_id":"aed794a0-7229-469a-a13b-e3b6912de584","system_id":"levelo_inurba_marseille","lat":43.31161,"lon":5.38673,"is_reserved":false,"is_disabled":false,"rental_uris":{"android":"levelo://app?vid=aed794a0-7229-469a-a13b-e3b6912de584","ios":"levelo://app?vid=aed794a0-7229-469a-a13b-e3b6912de584"},"vehicle_type_id":"4","last_reported":1734396646,"current_range_meters":27200,"station_id":"ce4bgv12rcd13ifvqcp0","pricing_plan_id":"cebpf4jnsgd1na2vs0mg"},{"bike_id":"df3c5b33-0731-4d28-883c-1a4af4ad0ec4","system_id":"levelo_inurba_marseille","lat":43.26211,"lon":5.37444,"is_reserved":false,"is_disabled":false,"rental_uris":{"android":"levelo://app?vid=df3c5b33-0731-4d28-883c-1a4af4ad0ec4","ios":"levelo://app?vid=df3c5b33-0731-4d28-883c-1a4af4ad0ec4"},"vehicle_type_id":"4","last_reported":1734396646,"current_range_meters":23200,"station_id":"ce4bhgp2rcd13ifvqfc0","pricing_plan_id":"cebpf4jnsgd1na2vs0mg"},{"bike_id":"fce89ad1-8179-44ba-bc08-912eb64808ee","system_id":"levelo_inurba_marseille","lat":43.28095,"lon":5.39644,"is_reserved":false,"is_disabled":false,"rental_uris":{"android":"levelo://app?vid=fce89ad1-8179-44ba-bc08-912eb64808ee","ios":"levelo://app?vid=fce89ad1-8179-44ba-bc08-912eb64808ee"},"vehicle_type_id":"4","last_reported":1734396646,"current_range_meters":38800,"station_id":"ce4bho12rcd13ifvqh2g","pricing_plan_id":"cebpf4jnsgd1na2vs0mg"},{"bike_id":"d866e701-7bee-4d60-b865-75d9d70ca9ec","system_id":"levelo_inurba_marseille","lat":43.28937,"lon":5.36612,"is_reserved":false,"is_disabled":false,"rental_uris":{"android":"levelo://app?vid=d866e701-7bee-4d60-b865-75d9d70ca9ec","ios":"levelo://app?vid=d866e701-7bee-4d60-b865-75d9d70ca9ec"},"vehicle_type_id":"4","last_reported":1734396646,"current_range_meters":38800,"station_id":"ce4bhap2rcd13ifvqek0","pricing_plan_id":"cebpf4jnsgd1na2vs0mg"},{"bike_id":"6e28de05-13f9-4c5b-befc-4c44ea134848","system_id":"levelo_inurba_marseille","lat":43.27955,"lon":5.41026,"is_reserved":false,"is_disabled":false,"rental_uris":{"android":"levelo://app?vid=6e28de05-13f9-4c5b-befc-4c44ea134848","ios":"levelo://app?vid=6e28de05-13f9-4c5b-befc-4c44ea134848"},"vehicle_type_id":"4","last_reported":1734396646,"current_range_meters":22000,"station_id":"ce4bhnp2rcd13ifvqh0g","pricing_plan_id":"cebpf4jnsgd1na2vs0mg"},{"bike_id":"cbd46a1e-a30c-4edf-bd43-7bd67d2d18c8","system_id":"levelo_inurba_marseille","lat":43.28918,"lon":5.36399,"is_reserved":false,"is_disabled":false,"rental_uris":{"android":"levelo://app?vid=cbd46a1e-a30c-4edf-bd43-7bd67d2d18c8","ios":"levelo://app?vid=cbd46a1e-a30c-4edf-bd43-7bd67d2d18c8"},"vehicle_type_id":"4","last_reported":1734396646,"current_range_meters":39200,"station_id":"ce4bhc92rcd13ifvqetg","pricing_plan_id":"cebpf4jnsgd1na2vs0mg"},{"bike_id":"6afe920d-4000-429a-84e5-416689c1fee2","system_id":"levelo_inurba_marseille","lat":43.28847,"lon":5.35851,"is_reserved":false,"is_disabled":false,"rental_uris":{"android":"levelo://app?vid=6afe920d-4000-429a-84e5-416689c1fee2","ios":"levelo://app?vid=6afe920d-4000-429a-84e5-416689c1fee2"},"vehicle_type_id":"4","last_reported":1734396646,"current_range_meters":38800,"station_id":"ce4bhb12rcd13ifvqem0","pricing_plan_id":"cebpf4jnsgd1na2vs0mg"},{"bike_id":"e14b8748-e4dd-4eba-9e7f-1675e71e7a55","system_id":"levelo_inurba_marseille","lat":43.26826,"lon":5.40249,"is_reserved":false,"is_disabled":false,"rental_uris":{"android":"levelo://app?vid=e14b8748-e4dd-4eba-9e7f-1675e71e7a55","ios":"levelo://app?vid=e14b8748-e4dd-4eba-9e7f-1675e71e7a55"},"vehicle_type_id":"4","last_reported":1734396646,"current_range_meters":38800,"station_id":"ce501612rcd8frsf0b60","pricing_plan_id":"cebpf4jnsgd1na2vs0mg"},{"bike_id":"9f319d58-4e1f-4982-b409-b9dae2c131f9","system_id":"levelo_inurba_marseille","lat":43.29055,"lon":5.35887,"is_reserved":false,"is_disabled":false,"rental_uris":{"android":"levelo://app?vid=9f319d58-4e1f-4982-b409-b9dae2c131f9","ios":"levelo://app?vid=9f319d58-4e1f-4982-b409-b9dae2c131f9"},"vehicle_type_id":"4","last_reported":1734396646,"current_range_meters":38000,"station_id":"ce4bha92rcd13ifvqeg0","pricing_plan_id":"cebpf4jnsgd1na2vs0mg"},{"bike_id":"51d84435-6690-4d85-963e-bbaae1721698","system_id":"levelo_inurba_marseille","lat":43.28938,"lon":5.36392,"is_reserved":false,"is_disabled":false,"rental_uris":{"android":"levelo://app?vid=51d84435-6690-4d85-963e-bbaae1721698","ios":"levelo://app?vid=51d84435-6690-4d85-963e-bbaae1721698"},"vehicle_type_id":"4","last_reported":1734396646,"current_range_meters":39200,"station_id":"ce4bhc92rcd13ifvqetg","pricing_plan_id":"cebpf4jnsgd1na2vs0mg"},{"bike_id":"03156a43-27f1-4d88-b75f-6e81fc09e3fc","system_id":"levelo_inurba_marseille","lat":43.31897,"lon":5.40722,"is_reserved":false,"is_disabled":false,"rental_uris":{"android":"levelo://app?vid=03156a43-27f1-4d88-b75f-6e81fc09e3fc","ios":"levelo://app?vid=03156a43-27f1-4d88-b75f-6e81fc09e3fc"},"vehicle_type_id":"4","last_reported":1734396646,"current_range_meters":38000,"station_id":"ce4bhq12rcd13ifvqhig","pricing_plan_id":"cebpf4jnsgd1na2vs0mg"},{"bike_id":"95cb1a12-3d24-4b7c-8cc9-a0c3e83a05b3","system_id":"levelo_inurba_marseille","lat":43.29199,"lon":5.35796,"is_reserved":false,"is_disabled":false,"rental_uris":{"android":"levelo://app?vid=95cb1a12-3d24-4b7c-8cc9-a0c3e83a05b3","ios":"levelo://app?vid=95cb1a12-3d24-4b7c-8cc9-a0c3e83a05b3"},"vehicle_type_id":"4","last_reported":1734396646,"current_range_meters":38800,"station_id":"ce4bhb12rcd13ifvqel0","pricing_plan_id":"cebpf4jnsgd1na2vs0mg"},{"bike_id":"17fd1c3b-23af-4fb5-9435-033e2a988571","system_id":"levelo_inurba_marseille","lat":43.30984,"lon":5.40125,"is_reserved":false,"is_disabled":true,"rental_uris":{"android":"levelo://app?vid=17fd1c3b-23af-4fb5-9435-033e2a988571","ios":"levelo://app?vid=17fd1c3b-23af-4fb5-9435-033e2a988571"},"vehicle_type_id":"4","last_reported":1734396646,"current_range_meters":36000,"station_id":"","pricing_plan_id":"cebpf4jnsgd1na2vs0mg"},{"bike_id":"8912d06c-9480-45f0-991d-76f346d018e9","system_id":"levelo_inurba_marseille","lat":43.30141,"lon":5.39864,"is_reserved":false,"is_disabled":false,"rental_uris":{"android":"levelo://app?vid=8912d06c-9480-45f0-991d-76f346d018e9","ios":"levelo://app?vid=8912d06c-9480-45f0-991d-76f346d018e9"},"vehicle_type_id":"4","last_reported":1734396646,"current_range_meters":38800,"station_id":"ce4bh0h2rcd13ifvqd40","pricing_plan_id":"cebpf4jnsgd1na2vs0mg"},{"bike_id":"56f645d0-d459-4a27-ba9a-c72d2ef792b2","system_id":"levelo_inurba_marseille","lat":43.28457,"lon":5.35885,"is_reserved":false,"is_disabled":false,"rental_uris":{"android":"levelo://app?vid=56f645d0-d459-4a27-ba9a-c72d2ef792b2","ios":"levelo://app?vid=56f645d0-d459-4a27-ba9a-c72d2ef792b2"},"vehicle_type_id":"4","last_reported":1734396646,"current_range_meters":36400,"station_id":"ce4bhah2rcd13ifvqei0","pricing_plan_id":"cebpf4jnsgd1na2vs0mg"},{"bike_id":"6e48c8fa-29c4-4053-86d1-e9699061339b","system_id":"levelo_inurba_marseille","lat":43.287023,"lon":5.373862,"is_reserved":false,"is_disabled":false,"rental_uris":{"android":"levelo://app?vid=6e48c8fa-29c4-4053-86d1-e9699061339b","ios":"levelo://app?vid=6e48c8fa-29c4-4053-86d1-e9699061339b"},"vehicle_type_id":"4","last_reported":1734396646,"current_range_meters":27600,"station_id":"ce4bh3p2rcd13ifvqdq0","pricing_plan_id":"cebpf4jnsgd1na2vs0mg"},{"bike_id":"d7c1cf73-5ea5-4c2f-a402-88978e03c60a","system_id":"levelo_inurba_marseille","lat":43.29468,"lon":5.36245,"is_reserved":false,"is_disabled":false,"rental_uris":{"android":"levelo://app?vid=d7c1cf73-5ea5-4c2f-a402-88978e03c60a","ios":"levelo://app?vid=d7c1cf73-5ea5-4c2f-a402-88978e03c60a"},"vehicle_type_id":"4","last_reported":1734396646,"current_range_meters":6000,"station_id":"","pricing_plan_id":"cebpf4jnsgd1na2vs0mg"},{"bike_id":"26ef2c06-f6a1-44da-a156-f1644ab22047","system_id":"levelo_inurba_marseille","lat":43.33613,"lon":5.41034,"is_reserved":false,"is_disabled":false,"rental_uris":{"android":"levelo://app?vid=26ef2c06-f6a1-44da-a156-f1644ab22047","ios":"levelo://app?vid=26ef2c06-f6a1-44da-a156-f1644ab22047"},"vehicle_type_id":"4","last_reported":1734396646,"current_range_meters":39200,"station_id":"ce4bhqh2rcd13ifvqhmg","pricing_plan_id":"cebpf4jnsgd1na2vs0mg"},{"bike_id":"82711b20-7bed-4fec-a4b5-4945e51505d9","system_id":"levelo_inurba_marseille","lat":43.307976,"lon":5.435229,"is_reserved":false,"is_disabled":false,"rental_uris":{"android":"levelo://app?vid=82711b20-7bed-4fec-a4b5-4945e51505d9","ios":"levelo://app?vid=82711b20-7bed-4fec-a4b5-4945e51505d9"},"vehicle_type_id":"4","last_reported":1734396646,"current_range_meters":38800,"station_id":"ce4bhph2rcd13ifvqheg","pricing_plan_id":"cebpf4jnsgd1na2vs0mg"},{"bike_id":"d68a8bfe-a1fe-43aa-94f3-8bfaa3478d06","system_id":"levelo_inurba_marseille","lat":43.26551,"lon":5.37283,"is_reserved":false,"is_disabled":false,"rental_uris":{"android":"levelo://app?vid=d68a8bfe-a1fe-43aa-94f3-8bfaa3478d06","ios":"levelo://app?vid=d68a8bfe-a1fe-43aa-94f3-8bfaa3478d06"},"vehicle_type_id":"4","last_reported":1734396646,"current_range_meters":38800,"station_id":"ce4bhg12rcd13ifvqf70","pricing_plan_id":"cebpf4jnsgd1na2vs0mg"},{"bike_id":"74148a3d-e1ce-4bc3-a657-bb402326ef32","system_id":"levelo_inurba_marseille","lat":43.28267,"lon":5.35069,"is_reserved":false,"is_disabled":false,"rental_uris":{"android":"levelo://app?vid=74148a3d-e1ce-4bc3-a657-bb402326ef32","ios":"levelo://app?vid=74148a3d-e1ce-4bc3-a657-bb402326ef32"},"vehicle_type_id":"4","last_reported":1734396646,"current_range_meters":12800,"station_id":"ce4bhbp2rcd13ifvqerg","pricing_plan_id":"cebpf4jnsgd1na2vs0mg"},{"bike_id":"9935a82e-b512-40ea-8632-24adb4fd0019","system_id":"levelo_inurba_marseille","lat":43.302032,"lon":5.39749,"is_reserved":false,"is_disabled":false,"rental_uris":{"android":"levelo://app?vid=9935a82e-b512-40ea-8632-24adb4fd0019","ios":"levelo://app?vid=9935a82e-b512-40ea-8632-24adb4fd0019"},"vehicle_type_id":"4","last_reported":1734396646,"current_range_meters":34000,"station_id":"ce4bh0h2rcd13ifvqd40","pricing_plan_id":"cebpf4jnsgd1na2vs0mg"},{"bike_id":"e53b9f40-7cbe-4478-bd2b-78685be42b06","system_id":"levelo_inurba_marseille","lat":43.28693,"lon":5.37374,"is_reserved":false,"is_disabled":false,"rental_uris":{"android":"levelo://app?vid=e53b9f40-7cbe-4478-bd2b-78685be42b06","ios":"levelo://app?vid=e53b9f40-7cbe-4478-bd2b-78685be42b06"},"vehicle_type_id":"4","last_reported":1734396646,"current_range_meters":23200,"station_id":"ce4bh3p2rcd13ifvqdq0","pricing_plan_id":"cebpf4jnsgd1na2vs0mg"},{"bike_id":"55f80f81-ad6e-4bc9-b366-50507bc87bcd","system_id":"levelo_inurba_marseille","lat":43.323382,"lon":5.406147,"is_reserved":false,"is_disabled":true,"rental_uris":{"android":"levelo://app?vid=55f80f81-ad6e-4bc9-b366-50507bc87bcd","ios":"levelo://app?vid=55f80f81-ad6e-4bc9-b366-50507bc87bcd"},"vehicle_type_id":"4","last_reported":1734396646,"current_range_meters":1600,"station_id":"ce4bhq92rcd13ifvqhjg","pricing_plan_id":"cebpf4jnsgd1na2vs0mg"},{"bike_id":"ddefe9f2-23b4-4062-a0ac-7c8a96367f14","system_id":"levelo_inurba_marseille","lat":43.29184,"lon":5.35799,"is_reserved":false,"is_disabled":false,"rental_uris":{"android":"levelo://app?vid=ddefe9f2-23b4-4062-a0ac-7c8a96367f14","ios":"levelo://app?vid=ddefe9f2-23b4-4062-a0ac-7c8a96367f14"},"vehicle_type_id":"4","last_reported":1734396646,"current_range_meters":38800,"station_id":"ce4bhb12rcd13ifvqel0","pricing_plan_id":"cebpf4jnsgd1na2vs0mg"},{"bike_id":"5f96354a-9f46-4eee-beb5-de6cfce2039c","system_id":"levelo_inurba_marseille","lat":43.29318,"lon":5.37159,"is_reserved":false,"is_disabled":false,"rental_uris":{"android":"levelo://app?vid=5f96354a-9f46-4eee-beb5-de6cfce2039c","ios":"levelo://app?vid=5f96354a-9f46-4eee-beb5-de6cfce2039c"},"vehicle_type_id":"4","last_reported":1734396646,"current_range_meters":37600,"station_id":"ce4bgh92rcd13ifvqb40","pricing_plan_id":"cebpf4jnsgd1na2vs0mg"},{"bike_id":"e76a1b6d-7052-4ff1-948e-2b8006ff4fd9","system_id":"levelo_inurba_marseille","lat":43.29714,"lon":5.36611,"is_reserved":false,"is_disabled":false,"rental_uris":{"android":"levelo://app?vid=e76a1b6d-7052-4ff1-948e-2b8006ff4fd9","ios":"levelo://app?vid=e76a1b6d-7052-4ff1-948e-2b8006ff4fd9"},"vehicle_type_id":"4","last_reported":1734396646,"current_range_meters":37600,"station_id":"ce4bgn12rcd13ifvqbt0","pricing_plan_id":"cebpf4jnsgd1na2vs0mg"},{"bike_id":"60e9ff38-efcb-428e-8e74-cd94fa0bd389","system_id":"levelo_inurba_marseille","lat":43.31679,"lon":5.37792,"is_reserved":false,"is_disabled":false,"rental_uris":{"android":"levelo://app?vid=60e9ff38-efcb-428e-8e74-cd94fa0bd389","ios":"levelo://app?vid=60e9ff38-efcb-428e-8e74-cd94fa0bd389"},"vehicle_type_id":"4","last_reported":1734396646,"current_range_meters":32400,"station_id":"ce4bgth2rcd13ifvqch0","pricing_plan_id":"cebpf4jnsgd1na2vs0mg"},{"bike_id":"fd86ba01-89b3-4141-ae5f-a12dec22cb24","system_id":"levelo_inurba_marseille","lat":43.28406,"lon":5.3751,"is_reserved":false,"is_disabled":false,"rental_uris":{"android":"levelo://app?vid=fd86ba01-89b3-4141-ae5f-a12dec22cb24","ios":"levelo://app?vid=fd86ba01-89b3-4141-ae5f-a12dec22cb24"},"vehicle_type_id":"4","last_reported":1734396646,"current_range_meters":28400,"station_id":"ce4bh412rcd13ifvqds0","pricing_plan_id":"cebpf4jnsgd1na2vs0mg"},{"bike_id":"5f2be17f-083e-494f-a7a1-4802346cfcb9","system_id":"levelo_inurba_marseille","lat":43.28564,"lon":5.39495,"is_reserved":false,"is_disabled":true,"rental_uris":{"android":"levelo://app?vid=5f2be17f-083e-494f-a7a1-4802346cfcb9","ios":"levelo://app?vid=5f2be17f-083e-494f-a7a1-4802346cfcb9"},"vehicle_type_id":"4","last_reported":1734396646,"current_range_meters":25200,"station_id":"ce4bh292rcd13ifvqdg0","pricing_plan_id":"cebpf4jnsgd1na2vs0mg"},{"bike_id":"d705ef2b-d72b-417f-b321-d9710b5a9281","system_id":"levelo_inurba_marseille","lat":43.24647,"lon":5.38897,"is_reserved":false,"is_disabled":false,"rental_uris":{"android":"levelo://app?vid=d705ef2b-d72b-417f-b321-d9710b5a9281","ios":"levelo://app?vid=d705ef2b-d72b-417f-b321-d9710b5a9281"},"vehicle_type_id":"4","last_reported":1734396646,"current_range_meters":12800,"station_id":"ce4bhg12rcd13ifvqf60","pricing_plan_id":"cebpf4jnsgd1na2vs0mg"},{"bike_id":"d3e29b4b-4386-4f03-a1dd-c7c9a11c63cb","system_id":"levelo_inurba_marseille","lat":43.26061,"lon":5.39401,"is_reserved":false,"is_disabled":false,"rental_uris":{"android":"levelo://app?vid=d3e29b4b-4386-4f03-a1dd-c7c9a11c63cb","ios":"levelo://app?vid=d3e29b4b-4386-4f03-a1dd-c7c9a11c63cb"},"vehicle_type_id":"4","last_reported":1734396646,"current_range_meters":10800,"station_id":"ce4bhh92rcd13ifvqfj0","pricing_plan_id":"cebpf4jnsgd1na2vs0mg"},{"bike_id":"c569cb87-3117-4e1f-800d-ba1a26ff1c49","system_id":"levelo_inurba_marseille","lat":43.30799,"lon":5.38149,"is_reserved":false,"is_disabled":false,"rental_uris":{"android":"levelo://app?vid=c569cb87-3117-4e1f-800d-ba1a26ff1c49","ios":"levelo://app?vid=c569cb87-3117-4e1f-800d-ba1a26ff1c49"},"vehicle_type_id":"4","last_reported":1734396646,"current_range_meters":38800,"station_id":"ce4bgt12rcd13ifvqce0","pricing_plan_id":"cebpf4jnsgd1na2vs0mg"},{"bike_id":"b080cd93-ae1d-416c-aff0-33280d88921a","system_id":"levelo_inurba_marseille","lat":43.26487,"lon":5.39547,"is_reserved":false,"is_disabled":false,"rental_uris":{"android":"levelo://app?vid=b080cd93-ae1d-416c-aff0-33280d88921a","ios":"levelo://app?vid=b080cd93-ae1d-416c-aff0-33280d88921a"},"vehicle_type_id":"4","last_reported":1734396646,"current_range_meters":33600,"station_id":"ce4bhi12rcd13ifvqfq0","pricing_plan_id":"cebpf4jnsgd1na2vs0mg"},{"bike_id":"318aa57b-1568-4ffc-a05f-60313d3eca7d","system_id":"levelo_inurba_marseille","lat":43.30779,"lon":5.43566,"is_reserved":false,"is_disabled":false,"rental_uris":{"android":"levelo://app?vid=318aa57b-1568-4ffc-a05f-60313d3eca7d","ios":"levelo://app?vid=318aa57b-1568-4ffc-a05f-60313d3eca7d"},"vehicle_type_id":"4","last_reported":1734396646,"current_range_meters":38800,"station_id":"ce4bhph2rcd13ifvqheg","pricing_plan_id":"cebpf4jnsgd1na2vs0mg"},{"bike_id":"dc745e3a-9aae-4a4b-9b24-4df6bd906afd","system_id":"levelo_inurba_marseille","lat":43.255005,"lon":5.376491,"is_reserved":false,"is_disabled":false,"rental_uris":{"android":"levelo://app?vid=dc745e3a-9aae-4a4b-9b24-4df6bd906afd","ios":"levelo://app?vid=dc745e3a-9aae-4a4b-9b24-4df6bd906afd"},"vehicle_type_id":"4","last_reported":1734396646,"current_range_meters":38800,"station_id":"ce4bhh12rcd13ifvqff0","pricing_plan_id":"cebpf4jnsgd1na2vs0mg"},{"bike_id":"586ce07a-15e4-4f19-a803-224f9d280bb7","system_id":"levelo_inurba_marseille","lat":43.24405,"lon":5.3705,"is_reserved":false,"is_disabled":false,"rental_uris":{"android":"levelo://app?vid=586ce07a-15e4-4f19-a803-224f9d280bb7","ios":"levelo://app?vid=586ce07a-15e4-4f19-a803-224f9d280bb7"},"vehicle_type_id":"4","last_reported":1734396646,"current_range_meters":38800,"station_id":"ce4bhhh2rcd13ifvqfk0","pricing_plan_id":"cebpf4jnsgd1na2vs0mg"},{"bike_id":"048ede08-1dd8-40d1-8404-3b85f61fc0d5","system_id":"levelo_inurba_marseille","lat":43.29557,"lon":5.42272,"is_reserved":false,"is_disabled":false,"rental_uris":{"android":"levelo://app?vid=048ede08-1dd8-40d1-8404-3b85f61fc0d5","ios":"levelo://app?vid=048ede08-1dd8-40d1-8404-3b85f61fc0d5"},"vehicle_type_id":"4","last_reported":1734396646,"current_range_meters":36800,"station_id":"ce4bhph2rcd13ifvqhdg","pricing_plan_id":"cebpf4jnsgd1na2vs0mg"},{"bike_id":"84876f57-9228-4c29-8dc5-7725e669d6fb","system_id":"levelo_inurba_marseille","lat":43.31331,"lon":5.39686,"is_reserved":false,"is_disabled":false,"rental_uris":{"android":"levelo://app?vid=84876f57-9228-4c29-8dc5-7725e669d6fb","ios":"levelo://app?vid=84876f57-9228-4c29-8dc5-7725e669d6fb"},"vehicle_type_id":"4","last_reported":1734396646,"current_range_meters":24800,"station_id":"ce4bgvp2rcd13ifvqcu0","pricing_plan_id":"cebpf4jnsgd1na2vs0mg"},{"bike_id":"98e9c359-f12e-4d60-8054-eac280f0daf0","system_id":"levelo_inurba_marseille","lat":43.30886,"lon":5.39633,"is_reserved":false,"is_disabled":false,"rental_uris":{"android":"levelo://app?vid=98e9c359-f12e-4d60-8054-eac280f0daf0","ios":"levelo://app?vid=98e9c359-f12e-4d60-8054-eac280f0daf0"},"vehicle_type_id":"4","last_reported":1734396646,"current_range_meters":28800,"station_id":"ce4bh012rcd13ifvqcv0","pricing_plan_id":"cebpf4jnsgd1na2vs0mg"},{"bike_id":"e0b34c3f-004d-4bd8-93a8-b71f93dc87a3","system_id":"levelo_inurba_marseille","lat":43.29696,"lon":5.36594,"is_reserved":false,"is_disabled":false,"rental_uris":{"android":"levelo://app?vid=e0b34c3f-004d-4bd8-93a8-b71f93dc87a3","ios":"levelo://app?vid=e0b34c3f-004d-4bd8-93a8-b71f93dc87a3"},"vehicle_type_id":"4","last_reported":1734396646,"current_range_meters":38400,"station_id":"ce4bgn12rcd13ifvqbt0","pricing_plan_id":"cebpf4jnsgd1na2vs0mg"},{"bike_id":"a3ae6ee4-d060-4597-a716-f8c3846f7f84","system_id":"levelo_inurba_marseille","lat":43.28264,"lon":5.35066,"is_reserved":false,"is_disabled":false,"rental_uris":{"android":"levelo://app?vid=a3ae6ee4-d060-4597-a716-f8c3846f7f84","ios":"levelo://app?vid=a3ae6ee4-d060-4597-a716-f8c3846f7f84"},"vehicle_type_id":"4","last_reported":1734396646,"current_range_meters":38000,"station_id":"ce4bhbp2rcd13ifvqerg","pricing_plan_id":"cebpf4jnsgd1na2vs0mg"},{"bike_id":"a5572d10-2ba6-48e2-9296-3c77d287a8b0","system_id":"levelo_inurba_marseille","lat":43.31329,"lon":5.39735,"is_reserved":false,"is_disabled":false,"rental_uris":{"android":"levelo://app?vid=a5572d10-2ba6-48e2-9296-3c77d287a8b0","ios":"levelo://app?vid=a5572d10-2ba6-48e2-9296-3c77d287a8b0"},"vehicle_type_id":"4","last_reported":1734396646,"current_range_meters":38800,"station_id":"ce4bgvp2rcd13ifvqcu0","pricing_plan_id":"cebpf4jnsgd1na2vs0mg"},{"bike_id":"c9b6ceb3-3fe8-4b5f-93cf-b2e0f99bf1b7","system_id":"levelo_inurba_marseille","lat":43.33026,"lon":5.39038,"is_reserved":false,"is_disabled":false,"rental_uris":{"android":"levelo://app?vid=c9b6ceb3-3fe8-4b5f-93cf-b2e0f99bf1b7","ios":"levelo://app?vid=c9b6ceb3-3fe8-4b5f-93cf-b2e0f99bf1b7"},"vehicle_type_id":"4","last_reported":1734396646,"current_range_meters":32000,"station_id":"ce4bhr92rcd13ifvqhrg","pricing_plan_id":"cebpf4jnsgd1na2vs0mg"},{"bike_id":"a939b72a-eb93-48d5-93d2-5b5defdd7d63","system_id":"levelo_inurba_marseille","lat":43.24539,"lon":5.39536,"is_reserved":false,"is_disabled":false,"rental_uris":{"android":"levelo://app?vid=a939b72a-eb93-48d5-93d2-5b5defdd7d63","ios":"levelo://app?vid=a939b72a-eb93-48d5-93d2-5b5defdd7d63"},"vehicle_type_id":"4","last_reported":1734396646,"current_range_meters":10800,"station_id":"ce4bhlp2rcd13ifvqgjg","pricing_plan_id":"cebpf4jnsgd1na2vs0mg"},{"bike_id":"a44bd97b-781a-4442-9927-2bcea40f9555","system_id":"levelo_inurba_marseille","lat":43.30944,"lon":5.39049,"is_reserved":false,"is_disabled":false,"rental_uris":{"android":"levelo://app?vid=a44bd97b-781a-4442-9927-2bcea40f9555","ios":"levelo://app?vid=a44bd97b-781a-4442-9927-2bcea40f9555"},"vehicle_type_id":"4","last_reported":1734396646,"current_range_meters":39200,"station_id":"ce4bgup2rcd13ifvqco0","pricing_plan_id":"cebpf4jnsgd1na2vs0mg"},{"bike_id":"f3379db6-4ea4-44b7-bec9-c44fb1a483c8","system_id":"levelo_inurba_marseille","lat":43.24185,"lon":5.39717,"is_reserved":false,"is_disabled":false,"rental_uris":{"android":"levelo://app?vid=f3379db6-4ea4-44b7-bec9-c44fb1a483c8","ios":"levelo://app?vid=f3379db6-4ea4-44b7-bec9-c44fb1a483c8"},"vehicle_type_id":"4","last_reported":1734396646,"current_range_meters":27200,"station_id":"ce4bhn12rcd13ifvqgpg","pricing_plan_id":"cebpf4jnsgd1na2vs0mg"},{"bike_id":"53e42023-e252-4b7f-a9eb-a99e355c181f","system_id":"levelo_inurba_marseille","lat":43.28731,"lon":5.36092,"is_reserved":false,"is_disabled":false,"rental_uris":{"android":"levelo://app?vid=53e42023-e252-4b7f-a9eb-a99e355c181f","ios":"levelo://app?vid=53e42023-e252-4b7f-a9eb-a99e355c181f"},"vehicle_type_id":"4","last_reported":1734396646,"current_range_meters":34000,"station_id":"cki0cbj6b192h4jlfktg","pricing_plan_id":"cebpf4jnsgd1na2vs0mg"},{"bike_id":"a423dfc8-22d7-4651-975b-8e8614ee351b","system_id":"levelo_inurba_marseille","lat":43.30784,"lon":5.39962,"is_reserved":false,"is_disabled":false,"rental_uris":{"android":"levelo://app?vid=a423dfc8-22d7-4651-975b-8e8614ee351b","ios":"levelo://app?vid=a423dfc8-22d7-4651-975b-8e8614ee351b"},"vehicle_type_id":"4","last_reported":1734396646,"current_range_meters":8800,"station_id":"","pricing_plan_id":"cebpf4jnsgd1na2vs0mg"},{"bike_id":"93c5eb91-3fba-4bf2-b5c1-03c9a75bad92","system_id":"levelo_inurba_marseille","lat":43.25089,"lon":5.39514,"is_reserved":false,"is_disabled":false,"rental_uris":{"android":"levelo://app?vid=93c5eb91-3fba-4bf2-b5c1-03c9a75bad92","ios":"levelo://app?vid=93c5eb91-3fba-4bf2-b5c1-03c9a75bad92"},"vehicle_type_id":"4","last_reported":1734396646,"current_range_meters":8800,"station_id":"ce4bhm12rcd13ifvqgkg","pricing_plan_id":"cebpf4jnsgd1na2vs0mg"},{"bike_id":"8f863510-521f-40bc-8f40-c4ad3458e44a","system_id":"levelo_inurba_marseille","lat":43.28844,"lon":5.39302,"is_reserved":false,"is_disabled":false,"rental_uris":{"android":"levelo://app?vid=8f863510-521f-40bc-8f40-c4ad3458e44a","ios":"levelo://app?vid=8f863510-521f-40bc-8f40-c4ad3458e44a"},"vehicle_type_id":"4","last_reported":1734396646,"current_range_meters":36800,"station_id":"ce4bh2p2rcd13ifvqdi0","pricing_plan_id":"cebpf4jnsgd1na2vs0mg"},{"bike_id":"764dd124-8b6c-4e2e-8283-a78f598ae4cd","system_id":"levelo_inurba_marseille","lat":43.31317,"lon":5.39703,"is_reserved":false,"is_disabled":false,"rental_uris":{"android":"levelo://app?vid=764dd124-8b6c-4e2e-8283-a78f598ae4cd","ios":"levelo://app?vid=764dd124-8b6c-4e2e-8283-a78f598ae4cd"},"vehicle_type_id":"4","last_reported":1734396646,"current_range_meters":38800,"station_id":"ce4bgvp2rcd13ifvqcu0","pricing_plan_id":"cebpf4jnsgd1na2vs0mg"},{"bike_id":"8f16ed72-f3d6-49c7-b3ae-8758bc247503","system_id":"levelo_inurba_marseille","lat":43.29035,"lon":5.3591,"is_reserved":false,"is_disabled":false,"rental_uris":{"android":"levelo://app?vid=8f16ed72-f3d6-49c7-b3ae-8758bc247503","ios":"levelo://app?vid=8f16ed72-f3d6-49c7-b3ae-8758bc247503"},"vehicle_type_id":"4","last_reported":1734396646,"current_range_meters":38000,"station_id":"ce4bha92rcd13ifvqeg0","pricing_plan_id":"cebpf4jnsgd1na2vs0mg"},{"bike_id":"bda38b21-c7e5-4cf3-a915-d2dc62c0831e","system_id":"levelo_inurba_marseille","lat":43.31759,"lon":5.39023,"is_reserved":false,"is_disabled":false,"rental_uris":{"android":"levelo://app?vid=bda38b21-c7e5-4cf3-a915-d2dc62c0831e","ios":"levelo://app?vid=bda38b21-c7e5-4cf3-a915-d2dc62c0831e"},"vehicle_type_id":"4","last_reported":1734396646,"current_range_meters":19600,"station_id":"ce4bhqp2rcd13ifvqhng","pricing_plan_id":"cebpf4jnsgd1na2vs0mg"},{"bike_id":"169c23d3-816f-4fb1-b1f6-6a28c3c0935c","system_id":"levelo_inurba_marseille","lat":43.30776,"lon":5.37652,"is_reserved":false,"is_disabled":false,"rental_uris":{"android":"levelo://app?vid=169c23d3-816f-4fb1-b1f6-6a28c3c0935c","ios":"levelo://app?vid=169c23d3-816f-4fb1-b1f6-6a28c3c0935c"},"vehicle_type_id":"4","last_reported":1734396646,"current_range_meters":39200,"station_id":"ce4bgv92rcd13ifvqcq0","pricing_plan_id":"cebpf4jnsgd1na2vs0mg"},{"bike_id":"32bcd328-f7f5-4900-8d76-f3d18c79595c","system_id":"levelo_inurba_marseille","lat":43.24824,"lon":5.37457,"is_reserved":false,"is_disabled":false,"rental_uris":{"android":"levelo://app?vid=32bcd328-f7f5-4900-8d76-f3d18c79595c","ios":"levelo://app?vid=32bcd328-f7f5-4900-8d76-f3d18c79595c"},"vehicle_type_id":"4","last_reported":1734396646,"current_range_meters":37600,"station_id":"ce4bhgh2rcd13ifvqfb0","pricing_plan_id":"cebpf4jnsgd1na2vs0mg"},{"bike_id":"ad3e51cb-df7c-4ce4-b243-f609a121c657","system_id":"levelo_inurba_marseille","lat":43.24169,"lon":5.36389,"is_reserved":false,"is_disabled":false,"rental_uris":{"android":"levelo://app?vid=ad3e51cb-df7c-4ce4-b243-f609a121c657","ios":"levelo://app?vid=ad3e51cb-df7c-4ce4-b243-f609a121c657"},"vehicle_type_id":"4","last_reported":1734396646,"current_range_meters":19200,"station_id":"cpo36qri1sfpv3e86is0","pricing_plan_id":"cebpf4jnsgd1na2vs0mg"},{"bike_id":"04f407fc-ef13-49b8-9f7a-4d7c6eda5f9f","system_id":"levelo_inurba_marseille","lat":43.30791,"lon":5.38138,"is_reserved":false,"is_disabled":false,"rental_uris":{"android":"levelo://app?vid=04f407fc-ef13-49b8-9f7a-4d7c6eda5f9f","ios":"levelo://app?vid=04f407fc-ef13-49b8-9f7a-4d7c6eda5f9f"},"vehicle_type_id":"4","last_reported":1734396646,"current_range_meters":38800,"station_id":"ce4bgt12rcd13ifvqce0","pricing_plan_id":"cebpf4jnsgd1na2vs0mg"},{"bike_id":"6c2f8196-548c-49d5-bcb1-35ab07679de5","system_id":"levelo_inurba_marseille","lat":43.31748,"lon":5.39023,"is_reserved":false,"is_disabled":false,"rental_uris":{"android":"levelo://app?vid=6c2f8196-548c-49d5-bcb1-35ab07679de5","ios":"levelo://app?vid=6c2f8196-548c-49d5-bcb1-35ab07679de5"},"vehicle_type_id":"4","last_reported":1734396646,"current_range_meters":34000,"station_id":"ce4bhqp2rcd13ifvqhng","pricing_plan_id":"cebpf4jnsgd1na2vs0mg"},{"bike_id":"c59837dc-8d74-4db1-b183-a5034d718c43","system_id":"levelo_inurba_marseille","lat":43.25865,"lon":5.39916,"is_reserved":false,"is_disabled":false,"rental_uris":{"android":"levelo://app?vid=c59837dc-8d74-4db1-b183-a5034d718c43","ios":"levelo://app?vid=c59837dc-8d74-4db1-b183-a5034d718c43"},"vehicle_type_id":"4","last_reported":1734396646,"current_range_meters":38800,"station_id":"ce4bhl92rcd13ifvqghg","pricing_plan_id":"cebpf4jnsgd1na2vs0mg"},{"bike_id":"6fb001bd-cbfc-4b33-8fbb-908a2824bf04","system_id":"levelo_inurba_marseille","lat":43.25865,"lon":5.39907,"is_reserved":false,"is_disabled":false,"rental_uris":{"android":"levelo://app?vid=6fb001bd-cbfc-4b33-8fbb-908a2824bf04","ios":"levelo://app?vid=6fb001bd-cbfc-4b33-8fbb-908a2824bf04"},"vehicle_type_id":"4","last_reported":1734396646,"current_range_meters":38800,"station_id":"ce4bhl92rcd13ifvqghg","pricing_plan_id":"cebpf4jnsgd1na2vs0mg"},{"bike_id":"c6b0656c-31fe-4a90-9789-c87a1b0ab57b","system_id":"levelo_inurba_marseille","lat":43.24545,"lon":5.39548,"is_reserved":false,"is_disabled":false,"rental_uris":{"android":"levelo://app?vid=c6b0656c-31fe-4a90-9789-c87a1b0ab57b","ios":"levelo://app?vid=c6b0656c-31fe-4a90-9789-c87a1b0ab57b"},"vehicle_type_id":"4","last_reported":1734396646,"current_range_meters":17200,"station_id":"ce4bhlp2rcd13ifvqgjg","pricing_plan_id":"cebpf4jnsgd1na2vs0mg"},{"bike_id":"feec68f8-7e7f-4d17-8aa9-3bb28707fff0","system_id":"levelo_inurba_marseille","lat":43.28378,"lon":5.38079,"is_reserved":false,"is_disabled":false,"rental_uris":{"android":"levelo://app?vid=feec68f8-7e7f-4d17-8aa9-3bb28707fff0","ios":"levelo://app?vid=feec68f8-7e7f-4d17-8aa9-3bb28707fff0"},"vehicle_type_id":"4","last_reported":1734396646,"current_range_meters":38800,"station_id":"ce4bh412rcd13ifvqdr0","pricing_plan_id":"cebpf4jnsgd1na2vs0mg"},{"bike_id":"81391304-b451-4119-80ac-f61ef4862eb2","system_id":"levelo_inurba_marseille","lat":43.337444,"lon":5.374475,"is_reserved":false,"is_disabled":true,"rental_uris":{"android":"levelo://app?vid=81391304-b451-4119-80ac-f61ef4862eb2","ios":"levelo://app?vid=81391304-b451-4119-80ac-f61ef4862eb2"},"vehicle_type_id":"4","last_reported":1734396646,"current_range_meters":0,"station_id":"","pricing_plan_id":"cebpf4jnsgd1na2vs0mg"},{"bike_id":"ed8e8bd1-fd85-4eb2-9bd0-55619e432958","system_id":"levelo_inurba_marseille","lat":43.308786,"lon":5.396323,"is_reserved":false,"is_disabled":false,"rental_uris":{"android":"levelo://app?vid=ed8e8bd1-fd85-4eb2-9bd0-55619e432958","ios":"levelo://app?vid=ed8e8bd1-fd85-4eb2-9bd0-55619e432958"},"vehicle_type_id":"4","last_reported":1734396646,"current_range_meters":12000,"station_id":"ce4bh012rcd13ifvqcv0","pricing_plan_id":"cebpf4jnsgd1na2vs0mg"},{"bike_id":"66343f16-c96a-493e-b903-7c265d82cce1","system_id":"levelo_inurba_marseille","lat":43.32465,"lon":5.3659,"is_reserved":false,"is_disabled":false,"rental_uris":{"android":"levelo://app?vid=66343f16-c96a-493e-b903-7c265d82cce1","ios":"levelo://app?vid=66343f16-c96a-493e-b903-7c265d82cce1"},"vehicle_type_id":"4","last_reported":1734396646,"current_range_meters":27600,"station_id":"ce4bhs12rcd13ifvqhvg","pricing_plan_id":"cebpf4jnsgd1na2vs0mg"},{"bike_id":"15f71a9f-864d-48de-9d20-f621cbff105e","system_id":"levelo_inurba_marseille","lat":43.26804,"lon":5.40241,"is_reserved":false,"is_disabled":false,"rental_uris":{"android":"levelo://app?vid=15f71a9f-864d-48de-9d20-f621cbff105e","ios":"levelo://app?vid=15f71a9f-864d-48de-9d20-f621cbff105e"},"vehicle_type_id":"4","last_reported":1734396646,"current_range_meters":38800,"station_id":"ce501612rcd8frsf0b60","pricing_plan_id":"cebpf4jnsgd1na2vs0mg"},{"bike_id":"4a044e50-47b4-4e97-b895-8ad27c23a0e1","system_id":"levelo_inurba_marseille","lat":43.28647,"lon":5.38678,"is_reserved":false,"is_disabled":false,"rental_uris":{"android":"levelo://app?vid=4a044e50-47b4-4e97-b895-8ad27c23a0e1","ios":"levelo://app?vid=4a044e50-47b4-4e97-b895-8ad27c23a0e1"},"vehicle_type_id":"4","last_reported":1734396646,"current_range_meters":31200,"station_id":"ce4bh492rcd13ifvqdug","pricing_plan_id":"cebpf4jnsgd1na2vs0mg"},{"bike_id":"d5accae4-0b7f-4603-8070-ad403bf2e0fe","system_id":"levelo_inurba_marseille","lat":43.28852,"lon":5.35848,"is_reserved":false,"is_disabled":false,"rental_uris":{"android":"levelo://app?vid=d5accae4-0b7f-4603-8070-ad403bf2e0fe","ios":"levelo://app?vid=d5accae4-0b7f-4603-8070-ad403bf2e0fe"},"vehicle_type_id":"4","last_reported":1734396646,"current_range_meters":34000,"station_id":"ce4bhb12rcd13ifvqem0","pricing_plan_id":"cebpf4jnsgd1na2vs0mg"},{"bike_id":"11f05fe5-e450-4aa1-bdaa-c4445fc827c3","system_id":"levelo_inurba_marseille","lat":43.27816,"lon":5.40711,"is_reserved":false,"is_disabled":false,"rental_uris":{"android":"levelo://app?vid=11f05fe5-e450-4aa1-bdaa-c4445fc827c3","ios":"levelo://app?vid=11f05fe5-e450-4aa1-bdaa-c4445fc827c3"},"vehicle_type_id":"4","last_reported":1734396646,"current_range_meters":27600,"station_id":"ce4bhnh2rcd13ifvqgtg","pricing_plan_id":"cebpf4jnsgd1na2vs0mg"},{"bike_id":"8c92f62c-a171-43fa-a0c9-1ec039481665","system_id":"levelo_inurba_marseille","lat":43.290036,"lon":5.356097,"is_reserved":false,"is_disabled":false,"rental_uris":{"android":"levelo://app?vid=8c92f62c-a171-43fa-a0c9-1ec039481665","ios":"levelo://app?vid=8c92f62c-a171-43fa-a0c9-1ec039481665"},"vehicle_type_id":"4","last_reported":1734396646,"current_range_meters":38800,"station_id":"ce4bhb92rcd13ifvqen0","pricing_plan_id":"cebpf4jnsgd1na2vs0mg"},{"bike_id":"29f246a6-bf44-455d-b9d7-de191a6777e4","system_id":"levelo_inurba_marseille","lat":43.29222,"lon":5.3606,"is_reserved":false,"is_disabled":true,"rental_uris":{"android":"levelo://app?vid=29f246a6-bf44-455d-b9d7-de191a6777e4","ios":"levelo://app?vid=29f246a6-bf44-455d-b9d7-de191a6777e4"},"vehicle_type_id":"4","last_reported":1734396646,"current_range_meters":0,"station_id":"ce4bhbh2rcd13ifvqeqg","pricing_plan_id":"cebpf4jnsgd1na2vs0mg"},{"bike_id":"9e8afa4d-c208-40c0-805a-620a5080516c","system_id":"levelo_inurba_marseille","lat":43.2857,"lon":5.39518,"is_reserved":false,"is_disabled":false,"rental_uris":{"android":"levelo://app?vid=9e8afa4d-c208-40c0-805a-620a5080516c","ios":"levelo://app?vid=9e8afa4d-c208-40c0-805a-620a5080516c"},"vehicle_type_id":"4","last_reported":1734396646,"current_range_meters":25600,"station_id":"ce4bh292rcd13ifvqdg0","pricing_plan_id":"cebpf4jnsgd1na2vs0mg"},