{"last_updated":1691521500,"ttl":30,"version":"2.2","data":{"bikes":[{"bike_id":"bbc95537-331c-4175-b683-35fd68af43ee","system_id":"levelo_inurba_marseille","lat":43.309076,"lon":5.368465,"is_reserved":false,"is_disabled":false,"rental_uris":{"android":"levelo://app?vid=bbc95537-331c-4175-b683-35fd68af43ee","ios":"levelo://app?vid=bbc95537-331c-4175-b683-35fd68af43ee"},"vehicle_type_id":"4","last_reported":1691521500,"current_range_meters":12400,"station_id":"ce4bgn92rcd13ifvqbvg","pricing_plan_id":"free"},{"bike_id":"5f770b2d-0892-458d-bee5-9bfc63e082bf","system_id":"levelo_inurba_marseille","lat":43.309076,"lon":5.368465,"is_reserved":false,"is_disabled":false,"rental_uris":{"android":"levelo://app?vid=5f770b2d-0892-458d-bee5-9bfc63e082bf","ios":"levelo://app?vid=5f770b2d-0892-458d-bee5-9bfc63e082bf"},"vehicle_type_id":"4","last_reported":1691521500,"current_range_meters":28000,"station_id":"ce4bgn92rcd13ifvqbvg","pricing_plan_id":"free"},{"bike_id":"6f97ca04-06e4-428b-8205-70192acf0c88","system_id":"levelo_inurba_marseille","lat":43.314811,"lon":5.373103,"is_reserved":false,"is_disabled":false,"rental_uris":{"android":"levelo://app?vid=6f97ca04-06e4-428b-8205-70192acf0c88","ios":"levelo://app?vid=6f97ca04-06e4-428b-8205-70192acf0c88"},"vehicle_type_id":"4","last_reported":1691521500,"current_range_meters":28000,"station_id":"ce4bgt12rcd13ifvqcd0","pricing_plan_id":"free"},{"bike_id":"c4dbbf1b-390d-46a6-95b1-f4bd0e3a5010","system_id":"levelo_inurba_marseille","lat":43.305636,"lon":5.367168,"is_reserved":false,"is_disabled":false,"rental_uris":{"android":"levelo://app?vid=c4dbbf1b-390d-46a6-95b1-f4bd0e3a5010","ios":"levelo://app?vid=c4dbbf1b-390d-46a6-95b1-f4bd0e3a5010"},"vehicle_type_id":"4","last_reported":1691521500,"current_range_meters":29200,"station_id":"ce4bgrp2rcd13ifvqc9g","pricing_plan_id":"free"},{"bike_id":"1b655f4a-5ce8-40cd-9016-93b847aff843","system_id":"levelo_inurba_marseille","lat":43.305368,"lon":5.367343,"is_reserved":false,"is_disabled":false,"rental_uris":{"android":"levelo://app?vid=1b655f4a-5ce8-40cd-9016-93b847aff843","ios":"levelo://app?vid=1b655f4a-5ce8-40cd-9016-93b847aff843"},"vehicle_type_id":"4","last_reported":1691521500,"current_range_meters":24800,"station_id":"ce4bgrp2rcd13ifvqc9g","pricing_plan_id":"free"},{"bike_id":"2ce7a0d9-ca46-43ad-b0d9-6582a5f080f7","system_id":"levelo_inurba_marseille","lat":43.30547,"lon":5.36536,"is_reserved":false,"is_disabled":false,"rental_uris":{"android":"levelo://app?vid=2ce7a0d9-ca46-43ad-b0d9-6582a5f080f7","ios":"levelo://app?vid=2ce7a0d9-ca46-43ad-b0d9-6582a5f080f7"},"vehicle_type_id":"4","last_reported":1691521500,"current_range_meters":28400,"station_id":"ce4bgs12rcd13ifvqcag","pricing_plan_id":"free"},{"bike_id":"aef322f3-28c8-4281-b320-7b7b72f0e20e","system_id":"levelo_inurba_marseille","lat":43.305706,"lon":5.365654,"is_reserved":false,"is_disabled":false,"rental_uris":{"android":"levelo://app?vid=aef322f3-28c8-4281-b320-7b7b72f0e20e","ios":"levelo://app?vid=aef322f3-28c8-4281-b320-7b7b72f0e20e"},"vehicle_type_id":"4","last_reported":1691521500,"current_range_meters":12000,"station_id":"ce4bgs12rcd13ifvqcag","pricing_plan_id":"free"},{"bike_id":"868ce1a0-b713-4d8f-b917-720180b062ee","system_id":"levelo_inurba_marseille","lat":43.3053,"lon":5.36724,"is_reserved":false,"is_disabled":false,"rental_uris":{"android":"levelo://app?vid=868ce1a0-b713-4d8f-b917-720180b062ee","ios":"levelo://app?vid=868ce1a0-b713-4d8f-b917-720180b062ee"},"vehicle_type_id":"4","last_reported":1691521500,"current_range_meters":17600,"station_id":"ce4bgrp2rcd13ifvqc9g","pricing_plan_id":"free"},{"bike_id":"faaa1c19-d276-47fe-9867-c5d5893c35f1","system_id":"levelo_inurba_marseille","lat":43.305989,"lon":5.37225,"is_reserved":false,"is_disabled":false,"rental_uris":{"android":"levelo://app?vid=faaa1c19-d276-47fe-9867-c5d5893c35f1","ios":"levelo://app?vid=faaa1c19-d276-47fe-9867-c5d5893c35f1"},"vehicle_type_id":"4","last_reported":1691521500,"current_range_meters":21200,"station_id":"ce4bgqh2rcd13ifvqc4g","pricing_plan_id":"free"},{"bike_id":"b45be961-4116-40ca-bcdc-ad174c5cf317","system_id":"levelo_inurba_marseille","lat":43.305989,"lon":5.37225,"is_reserved":false,"is_disabled":false,"rental_uris":{"android":"levelo://app?vid=b45be961-4116-40ca-bcdc-ad174c5cf317","ios":"levelo://app?vid=b45be961-4116-40ca-bcdc-ad174c5cf317"},"vehicle_type_id":"4","last_reported":1691521500,"current_range_meters":12000,"station_id":"ce4bgqh2rcd13ifvqc4g","pricing_plan_id":"free"},{"bike_id":"37f0c091-bd44-4177-ab27-209b21a0d96b","system_id":"levelo_inurba_marseille","lat":43.305989,"lon":5.37225,"is_reserved":false,"is_disabled":false,"rental_uris":{"android":"levelo://app?vid=37f0c091-bd44-4177-ab27-209b21a0d96b","ios":"levelo://app?vid=37f0c091-bd44-4177-ab27-209b21a0d96b"},"vehicle_type_id":"4","last_reported":1691521500,"current_range_meters":11200,"station_id":"ce4bgqh2rcd13ifvqc4g","pricing_plan_id":"free"},{"bike_id":"c8c6fd82-154e-4aab-86d1-d2b29eaf9a70","system_id":"levelo_inurba_marseille","lat":43.305989,"lon":5.37225,"is_reserved":false,"is_disabled":false,"rental_uris":{"android":"levelo://app?vid=c8c6fd82-154e-4aab-86d1-d2b29eaf9a70","ios":"levelo://app?vid=c8c6fd82-154e-4aab-86d1-d2b29eaf9a70"},"vehicle_type_id":"4","last_reported":1691521500,"current_range_meters":29200,"station_id":"ce4bgqh2rcd13ifvqc4g","pricing_plan_id":"free"},{"bike_id":"bd71553d-4af5-46af-b328-b15aa9fcac62","system_id":"levelo_inurba_marseille","lat":43.311125,"lon":5.377624,"is_reserved":false,"is_disabled":false,"rental_uris":{"android":"levelo://app?vid=bd71553d-4af5-46af-b328-b15aa9fcac62","ios":"levelo://app?vid=bd71553d-4af5-46af-b328-b15aa9fcac62"},"vehicle_type_id":"4","last_reported":1691521500,"current_range_meters":8400,"station_id":"ce4bgt92rcd13ifvqcg0","pricing_plan_id":"free"},{"bike_id":"b6aaf8b8-df14-40a8-b4c0-c7ec83e5046c","system_id":"levelo_inurba_marseille","lat":43.311131,"lon":5.377651,"is_reserved":false,"is_disabled":false,"rental_uris":{"android":"levelo://app?vid=b6aaf8b8-df14-40a8-b4c0-c7ec83e5046c","ios":"levelo://app?vid=b6aaf8b8-df14-40a8-b4c0-c7ec83e5046c"},"vehicle_type_id":"4","last_reported":1691521500,"current_range_meters":9200,"station_id":"ce4bgt92rcd13ifvqcg0","pricing_plan_id":"free"},{"bike_id":"3b2871ee-8369-43b3-9294-62f5ea66d7da","system_id":"levelo_inurba_marseille","lat":43.311131,"lon":5.377651,"is_reserved":false,"is_disabled":false,"rental_uris":{"android":"levelo://app?vid=3b2871ee-8369-43b3-9294-62f5ea66d7da","ios":"levelo://app?vid=3b2871ee-8369-43b3-9294-62f5ea66d7da"},"vehicle_type_id":"4","last_reported":1691521500,"current_range_meters":8400,"station_id":"ce4bgt92rcd13ifvqcg0","pricing_plan_id":"free"},{"bike_id":"3a97ea23-8b35-4b3f-891d-2e5acfe975ff","system_id":"levelo_inurba_marseille","lat":43.311125,"lon":5.377624,"is_reserved":false,"is_disabled":false,"rental_uris":{"android":"levelo://app?vid=3a97ea23-8b35-4b3f-891d-2e5acfe975ff","ios":"levelo://app?vid=3a97ea23-8b35-4b3f-891d-2e5acfe975ff"},"vehicle_type_id":"4","last_reported":1691521500,"current_range_meters":30400,"station_id":"ce4bgt92rcd13ifvqcg0","pricing_plan_id":"free"},{"bike_id":"065adea7-f9f5-40af-b502-d4f177296a0b","system_id":"levelo_inurba_marseille","lat":43.303046,"lon":5.368981,"is_reserved":false,"is_disabled":false,"rental_uris":{"android":"levelo://app?vid=065adea7-f9f5-40af-b502-d4f177296a0b","ios":"levelo://app?vid=065adea7-f9f5-40af-b502-d4f177296a0b"},"vehicle_type_id":"4","last_reported":1691521500,"current_range_meters":20800,"station_id":"ce4bgqh2rcd13ifvqc5g","pricing_plan_id":"free"},{"bike_id":"1d2f1142-4cd2-4fda-b23c-3acc653dcb45","system_id":"levelo_inurba_marseille","lat":43.303018,"lon":5.369025,"is_reserved":false,"is_disabled":false,"rental_uris":{"android":"levelo://app?vid=1d2f1142-4cd2-4fda-b23c-3acc653dcb45","ios":"levelo://app?vid=1d2f1142-4cd2-4fda-b23c-3acc653dcb45"},"vehicle_type_id":"4","last_reported":1691521500,"current_range_meters":0,"station_id":"ce4bgqh2rcd13ifvqc5g","pricing_plan_id":"free"},{"bike_id":"c998e393-48a2-4902-ad53-441c18e60aa7","system_id":"levelo_inurba_marseille","lat":43.304606,"lon":5.379026,"is_reserved":false,"is_disabled":false,"rental_uris":{"android":"levelo://app?vid=c998e393-48a2-4902-ad53-441c18e60aa7","ios":"levelo://app?vid=c998e393-48a2-4902-ad53-441c18e60aa7"},"vehicle_type_id":"4","last_reported":1691521500,"current_range_meters":1600,"station_id":"ce4bgup2rcd13ifvqcn0","pricing_plan_id":"free"},{"bike_id":"d36a151a-d38c-49bb-845a-018d795678eb","system_id":"levelo_inurba_marseille","lat":43.304606,"lon":5.379026,"is_reserved":false,"is_disabled":false,"rental_uris":{"android":"levelo://app?vid=d36a151a-d38c-49bb-845a-018d795678eb","ios":"levelo://app?vid=d36a151a-d38c-49bb-845a-018d795678eb"},"vehicle_type_id":"4","last_reported":1691521500,"current_range_meters":3600,"station_id":"ce4bgup2rcd13ifvqcn0","pricing_plan_id":"free"},{"bike_id":"dce67559-f66a-40f6-abf1-94a2a6349567","system_id":"levelo_inurba_marseille","lat":43.30143,"lon":5.37413,"is_reserved":false,"is_disabled":false,"rental_uris":{"android":"levelo://app?vid=dce67559-f66a-40f6-abf1-94a2a6349567","ios":"levelo://app?vid=dce67559-f66a-40f6-abf1-94a2a6349567"},"vehicle_type_id":"4","last_reported":1691521500,"current_range_meters":0,"station_id":"ce4bgs92rcd13ifvqcc0","pricing_plan_id":"free"},{"bike_id":"481e9929-af33-480f-b23c-7b640cad7970","system_id":"levelo_inurba_marseille","lat":43.302784,"lon":5.377158,"is_reserved":false,"is_disabled":false,"rental_uris":{"android":"levelo://app?vid=481e9929-af33-480f-b23c-7b640cad7970","ios":"levelo://app?vid=481e9929-af33-480f-b23c-7b640cad7970"},"vehicle_type_id":"4","last_reported":1691521500,"current_range_meters":23200,"station_id":"ce4bguh2rcd13ifvqcj0","pricing_plan_id":"free"},{"bike_id":"a6fbd94e-d8af-4d8c-b89a-1c267e012810","system_id":"levelo_inurba_marseille","lat":43.31369,"lon":5.38479,"is_reserved":false,"is_disabled":false,"rental_uris":{"android":"levelo://app?vid=a6fbd94e-d8af-4d8c-b89a-1c267e012810","ios":"levelo://app?vid=a6fbd94e-d8af-4d8c-b89a-1c267e012810"},"vehicle_type_id":"4","last_reported":1691521500,"current_range_meters":16800,"station_id":"ce4bgt92rcd13ifvqcf0","pricing_plan_id":"free"},{"bike_id":"7fd64405-f304-4cb6-bac7-8aebaa65416c","system_id":"levelo_inurba_marseille","lat":43.313571,"lon":5.384829,"is_reserved":false,"is_disabled":false,"rental_uris":{"android":"levelo://app?vid=7fd64405-f304-4cb6-bac7-8aebaa65416c","ios":"levelo://app?vid=7fd64405-f304-4cb6-bac7-8aebaa65416c"},"vehicle_type_id":"4","last_reported":1691521500,"current_range_meters":7200,"station_id":"ce4bgt92rcd13ifvqcf0","pricing_plan_id":"free"},{"bike_id":"15b2f289-e8da-4c30-a721-2cf15799ace1","system_id":"levelo_inurba_marseille","lat":43.31973,"lon":5.38255,"is_reserved":false,"is_disabled":false,"rental_uris":{"android":"levelo://app?vid=15b2f289-e8da-4c30-a721-2cf15799ace1","ios":"levelo://app?vid=15b2f289-e8da-4c30-a721-2cf15799ace1"},"vehicle_type_id":"4","last_reported":1691521500,"current_range_meters":8000,"station_id":"","pricing_plan_id":"free"},{"bike_id":"118eb670-ec3d-4e41-ba33-ca836c06cb7f","system_id":"levelo_inurba_marseille","lat":43.299777,"lon":5.371822,"is_reserved":false,"is_disabled":false,"rental_uris":{"android":"levelo://app?vid=118eb670-ec3d-4e41-ba33-ca836c06cb7f","ios":"levelo://app?vid=118eb670-ec3d-4e41-ba33-ca836c06cb7f"},"vehicle_type_id":"4","last_reported":1691521500,"current_range_meters":13600,"station_id":"ce4bgr92rcd13ifvqc7g","pricing_plan_id":"free"},{"bike_id":"a6d92881-68ce-4c88-8df4-b37ef2f97acf","system_id":"levelo_inurba_marseille","lat":43.30544,"lon":5.38426,"is_reserved":false,"is_disabled":false,"rental_uris":{"android":"levelo://app?vid=a6d92881-68ce-4c88-8df4-b37ef2f97acf","ios":"levelo://app?vid=a6d92881-68ce-4c88-8df4-b37ef2f97acf"},"vehicle_type_id":"4","last_reported":1691521500,"current_range_meters":1200,"station_id":"ce4bgg92rcd13ifvqb30","pricing_plan_id":"free"},{"bike_id":"30537d43-af02-4a10-b928-7b9b8cf633d2","system_id":"levelo_inurba_marseille","lat":43.305265,"lon":5.384239,"is_reserved":false,"is_disabled":false,"rental_uris":{"android":"levelo://app?vid=30537d43-af02-4a10-b928-7b9b8cf633d2","ios":"levelo://app?vid=30537d43-af02-4a10-b928-7b9b8cf633d2"},"vehicle_type_id":"4","last_reported":1691521500,"current_range_meters":22800,"station_id":"ce4bgg92rcd13ifvqb30","pricing_plan_id":"free"},{"bike_id":"b02cd542-8be9-4298-bd42-794d4239843a","system_id":"levelo_inurba_marseille","lat":43.30529,"lon":5.38433,"is_reserved":false,"is_disabled":false,"rental_uris":{"android":"levelo://app?vid=b02cd542-8be9-4298-bd42-794d4239843a","ios":"levelo://app?vid=b02cd542-8be9-4298-bd42-794d4239843a"},"vehicle_type_id":"4","last_reported":1691521500,"current_range_meters":29200,"station_id":"ce4bgg92rcd13ifvqb30","pricing_plan_id":"free"},{"bike_id":"3a574de3-b31f-4b53-9fcf-1545808be757","system_id":"levelo_inurba_marseille","lat":43.32278,"lon":5.38262,"is_reserved":false,"is_disabled":false,"rental_uris":{"android":"levelo://app?vid=3a574de3-b31f-4b53-9fcf-1545808be757","ios":"levelo://app?vid=3a574de3-b31f-4b53-9fcf-1545808be757"},"vehicle_type_id":"4","last_reported":1691521500,"current_range_meters":29600,"station_id":"ce4bhr12rcd13ifvqhqg","pricing_plan_id":"free"},{"bike_id":"0481b73c-9660-469b-8b98-11d7deaad257","system_id":"levelo_inurba_marseille","lat":43.297794,"lon":5.370888,"is_reserved":false,"is_disabled":false,"rental_uris":{"android":"levelo://app?vid=0481b73c-9660-469b-8b98-11d7deaad257","ios":"levelo://app?vid=0481b73c-9660-469b-8b98-11d7deaad257"},"vehicle_type_id":"4","last_reported":1691521500,"current_range_meters":0,"station_id":"ce4bgop2rcd13ifvqc1g","pricing_plan_id":"free"},{"bike_id":"31fbeef0-3ea6-4181-b554-9ffe87064c33","system_id":"levelo_inurba_marseille","lat":43.322872,"lon":5.382756,"is_reserved":false,"is_disabled":false,"rental_uris":{"android":"levelo://app?vid=31fbeef0-3ea6-4181-b554-9ffe87064c33","ios":"levelo://app?vid=31fbeef0-3ea6-4181-b554-9ffe87064c33"},"vehicle_type_id":"4","last_reported":1691521500,"current_range_meters":31200,"station_id":"ce4bhr12rcd13ifvqhqg","pricing_plan_id":"free"},{"bike_id":"af5f0ba3-5944-49d9-8a5e-09dfd05d27f3","system_id":"levelo_inurba_marseille","lat":43.322872,"lon":5.382756,"is_reserved":false,"is_disabled":false,"rental_uris":{"android":"levelo://app?vid=af5f0ba3-5944-49d9-8a5e-09dfd05d27f3","ios":"levelo://app?vid=af5f0ba3-5944-49d9-8a5e-09dfd05d27f3"},"vehicle_type_id":"4","last_reported":1691521500,"current_range_meters":30800,"station_id":"ce4bhr12rcd13ifvqhqg","pricing_plan_id":"free"},{"bike_id":"fb1f4388-8696-456a-869b-56761e505eee","system_id":"levelo_inurba_marseille","lat":43.32825,"lon":5.36669,"is_reserved":false,"is_disabled":false,"rental_uris":{"android":"levelo://app?vid=fb1f4388-8696-456a-869b-56761e505eee","ios":"levelo://app?vid=fb1f4388-8696-456a-869b-56761e505eee"},"vehicle_type_id":"4","last_reported":1691521500,"current_range_meters":31200,"station_id":"ce4bhs92rcd13ifvqi0g","pricing_plan_id":"free"},{"bike_id":"afccaf72-7e42-438a-996b-62b8c3fb2f0d","system_id":"levelo_inurba_marseille","lat":43.32826,"lon":5.36687,"is_reserved":false,"is_disabled":false,"rental_uris":{"android":"levelo://app?vid=afccaf72-7e42-438a-996b-62b8c3fb2f0d","ios":"levelo://app?vid=afccaf72-7e42-438a-996b-62b8c3fb2f0d"},"vehicle_type_id":"4","last_reported":1691521500,"current_range_meters":15200,"station_id":"ce4bhs92rcd13ifvqi0g","pricing_plan_id":"free"},{"bike_id":"d0f4a6b1-501b-4fbd-9cf4-fa9799dc7772","system_id":"levelo_inurba_marseille","lat":43.32827,"lon":5.3668,"is_reserved":false,"is_disabled":false,"rental_uris":{"android":"levelo://app?vid=d0f4a6b1-501b-4fbd-9cf4-fa9799dc7772","ios":"levelo://app?vid=d0f4a6b1-501b-4fbd-9cf4-fa9799dc7772"},"vehicle_type_id":"4","last_reported":1691521500,"current_range_meters":28400,"station_id":"ce4bhs92rcd13ifvqi0g","pricing_plan_id":"free"},{"bike_id":"97afdb01-5eea-4486-8c30-3859e0392bf5","system_id":"levelo_inurba_marseille","lat":43.32831,"lon":5.36674,"is_reserved":false,"is_disabled":false,"rental_uris":{"android":"levelo://app?vid=97afdb01-5eea-4486-8c30-3859e0392bf5","ios":"levelo://app?vid=97afdb01-5eea-4486-8c30-3859e0392bf5"},"vehicle_type_id":"4","last_reported":1691521500,"current_range_meters":30800,"station_id":"ce4bhs92rcd13ifvqi0g","pricing_plan_id":"free"},{"bike_id":"9fd7bfd1-6f30-484a-93d7-e323269d32c7","system_id":"levelo_inurba_marseille","lat":43.32832,"lon":5.36676,"is_reserved":false,"is_disabled":false,"rental_uris":{"android":"levelo://app?vid=9fd7bfd1-6f30-484a-93d7-e323269d32c7","ios":"levelo://app?vid=9fd7bfd1-6f30-484a-93d7-e323269d32c7"},"vehicle_type_id":"4","last_reported":1691521500,"current_range_meters":19200,"station_id":"ce4bhs92rcd13ifvqi0g","pricing_plan_id":"free"},{"bike_id":"dd789220-e7b5-42c1-b9dc-dc4243148021","system_id":"levelo_inurba_marseille","lat":43.29708,"lon":5.36616,"is_reserved":false,"is_disabled":false,"rental_uris":{"android":"levelo://app?vid=dd789220-e7b5-42c1-b9dc-dc4243148021","ios":"levelo://app?vid=dd789220-e7b5-42c1-b9dc-dc4243148021"},"vehicle_type_id":"4","last_reported":1691521500,"current_range_meters":29200,"station_id":"ce4bgn12rcd13ifvqbt0","pricing_plan_id":"free"},{"bike_id":"7a005864-3a45-46e0-b606-5f85c981ddd1","system_id":"levelo_inurba_marseille","lat":43.29581,"lon":5.36753,"is_reserved":false,"is_disabled":false,"rental_uris":{"android":"levelo://app?vid=7a005864-3a45-46e0-b606-5f85c981ddd1","ios":"levelo://app?vid=7a005864-3a45-46e0-b606-5f85c981ddd1"},"vehicle_type_id":"4","last_reported":1691521500,"current_range_meters":17200,"station_id":"ce4bgph2rcd13ifvqc2g","pricing_plan_id":"free"},{"bike_id":"027df140-dbd7-4198-a3f7-040e0c36fe1e","system_id":"levelo_inurba_marseille","lat":43.2958,"lon":5.36749,"is_reserved":false,"is_disabled":false,"rental_uris":{"android":"levelo://app?vid=027df140-dbd7-4198-a3f7-040e0c36fe1e","ios":"levelo://app?vid=027df140-dbd7-4198-a3f7-040e0c36fe1e"},"vehicle_type_id":"4","last_reported":1691521500,"current_range_meters":9600,"station_id":"ce4bgph2rcd13ifvqc2g","pricing_plan_id":"free"},{"bike_id":"a387de25-0e44-427a-ab01-c30eb4b070d2","system_id":"levelo_inurba_marseille","lat":43.296921,"lon":5.376579,"is_reserved":false,"is_disabled":false,"rental_uris":{"android":"levelo://app?vid=a387de25-0e44-427a-ab01-c30eb4b070d2","ios":"levelo://app?vid=a387de25-0e44-427a-ab01-c30eb4b070d2"},"vehicle_type_id":"4","last_reported":1691521500,"current_range_meters":0,"station_id":"ce4bgkh2rcd13ifvqbl0","pricing_plan_id":"free"},{"bike_id":"bbf4d416-d449-42e7-8d66-04f816ce971d","system_id":"levelo_inurba_marseille","lat":43.29728,"lon":5.37696,"is_reserved":false,"is_disabled":false,"rental_uris":{"android":"levelo://app?vid=bbf4d416-d449-42e7-8d66-04f816ce971d","ios":"levelo://app?vid=bbf4d416-d449-42e7-8d66-04f816ce971d"},"vehicle_type_id":"4","last_reported":1691521500,"current_range_meters":1600,"station_id":"ce4bgkh2rcd13ifvqbl0","pricing_plan_id":"free"},{"bike_id":"c1f228a0-3580-4af5-a063-0ba1e331af7b","system_id":"levelo_inurba_marseille","lat":43.299028,"lon":5.381509,"is_reserved":false,"is_disabled":false,"rental_uris":{"android":"levelo://app?vid=c1f228a0-3580-4af5-a063-0ba1e331af7b","ios":"levelo://app?vid=c1f228a0-3580-4af5-a063-0ba1e331af7b"},"vehicle_type_id":"4","last_reported":1691521500,"current_range_meters":12800,"station_id":"ce4bgj12rcd13ifvqbc0","pricing_plan_id":"free"},{"bike_id":"e89c3ea9-6b3c-4b72-a2ba-93153e46acf5","system_id":"levelo_inurba_marseille","lat":43.32267,"lon":5.38663,"is_reserved":false,"is_disabled":false,"rental_uris":{"android":"levelo://app?vid=e89c3ea9-6b3c-4b72-a2ba-93153e46acf5","ios":"levelo://app?vid=e89c3ea9-6b3c-4b72-a2ba-93153e46acf5"},"vehicle_type_id":"4","last_reported":1691521500,"current_range_meters":2000,"station_id":"","pricing_plan_id":"free"},{"bike_id":"2e1dc13f-d123-499e-bbc5-0ff0e14301f0","system_id":"levelo_inurba_marseille","lat":43.317557,"lon":5.390173,"is_reserved":false,"is_disabled":false,"rental_uris":{"android":"levelo://app?vid=2e1dc13f-d123-499e-bbc5-0ff0e14301f0","ios":"levelo://app?vid=2e1dc13f-d123-499e-bbc5-0ff0e14301f0"},"vehicle_type_id":"4","last_reported":1691521500,"current_range_meters":12400,"station_id":"ce4bhqp2rcd13ifvqhng","pricing_plan_id":"free"},{"bike_id":"6f27de8a-42d7-45b5-b5de-815bde7daf80","system_id":"levelo_inurba_marseille","lat":43.317557,"lon":5.390173,"is_reserved":false,"is_disabled":false,"rental_uris":{"android":"levelo://app?vid=6f27de8a-42d7-45b5-b5de-815bde7daf80","ios":"levelo://app?vid=6f27de8a-42d7-45b5-b5de-815bde7daf80"},"vehicle_type_id":"4","last_reported":1691521500,"current_range_meters":25600,"station_id":"ce4bhqp2rcd13ifvqhng","pricing_plan_id":"free"},{"bike_id":"9f986759-5904-4293-80db-07b7eba35b30","system_id":"levelo_inurba_marseille","lat":43.317557,"lon":5.390173,"is_reserved":false,"is_disabled":false,"rental_uris":{"android":"levelo://app?vid=9f986759-5904-4293-80db-07b7eba35b30","ios":"levelo://app?vid=9f986759-5904-4293-80db-07b7eba35b30"},"vehicle_type_id":"4","last_reported":1691521500,"current_range_meters":16800,"station_id":"ce4bhqp2rcd13ifvqhng","pricing_plan_id":"free"},{"bike_id":"a4df99ce-0488-49dd-a888-94686f562e88","system_id":"levelo_inurba_marseille","lat":43.295748,"lon":5.37522,"is_reserved":false,"is_disabled":false,"rental_uris":{"android":"levelo://app?vid=a4df99ce-0488-49dd-a888-94686f562e88","ios":"levelo://app?vid=a4df99ce-0488-49dd-a888-94686f562e88"},"vehicle_type_id":"4","last_reported":1691521500,"current_range_meters":31200,"station_id":"ce4bgh92rcd13ifvqb50","pricing_plan_id":"free"},{"bike_id":"da437c44-9897-4062-a70f-a64790ae10e8","system_id":"levelo_inurba_marseille","lat":43.296263,"lon":5.377094,"is_reserved":false,"is_disabled":false,"rental_uris":{"android":"levelo://app?vid=da437c44-9897-4062-a70f-a64790ae10e8","ios":"levelo://app?vid=da437c44-9897-4062-a70f-a64790ae10e8"},"vehicle_type_id":"4","last_reported":1691521500,"current_range_meters":4400,"station_id":"ce4bgi92rcd13ifvqb90","pricing_plan_id":"free"},{"bike_id":"8960d944-bd10-41ba-acd6-57f12832fa2d","system_id":"levelo_inurba_marseille","lat":43.304278,"lon":5.388868,"is_reserved":false,"is_disabled":false,"rental_uris":{"android":"levelo://app?vid=8960d944-bd10-41ba-acd6-57f12832fa2d","ios":"levelo://app?vid=8960d944-bd10-41ba-acd6-57f12832fa2d"},"vehicle_type_id":"4","last_reported":1691521500,"current_range_meters":5600,"station_id":"ce4bgk12rcd13ifvqbi0","pricing_plan_id":"free"},{"bike_id":"1e7ed559-f90c-45ee-989b-703616ecfecc","system_id":"levelo_inurba_marseille","lat":43.304278,"lon":5.388868,"is_reserved":false,"is_disabled":false,"rental_uris":{"android":"levelo://app?vid=1e7ed559-f90c-45ee-989b-703616ecfecc","ios":"levelo://app?vid=1e7ed559-f90c-45ee-989b-703616ecfecc"},"vehicle_type_id":"4","last_reported":1691521500,"current_range_meters":7200,"station_id":"ce4bgk12rcd13ifvqbi0","pricing_plan_id":"free"},{"bike_id":"f9f6de1b-f382-4bc4-abe7-3af954bfa8b2","system_id":"levelo_inurba_marseille","lat":43.296277,"lon":5.377108,"is_reserved":false,"is_disabled":false,"rental_uris":{"android":"levelo://app?vid=f9f6de1b-f382-4bc4-abe7-3af954bfa8b2","ios":"levelo://app?vid=f9f6de1b-f382-4bc4-abe7-3af954bfa8b2"},"vehicle_type_id":"4","last_reported":1691521500,"current_range_meters":1200,"station_id":"ce4bgi92rcd13ifvqb90","pricing_plan_id":"free"},{"bike_id":"f7f12194-f14a-4233-a393-da9790fdeeed","system_id":"levelo_inurba_marseille","lat":43.30427,"lon":5.38895,"is_reserved":false,"is_disabled":false,"rental_uris":{"android":"levelo://app?vid=f7f12194-f14a-4233-a393-da9790fdeeed","ios":"levelo://app?vid=f7f12194-f14a-4233-a393-da9790fdeeed"},"vehicle_type_id":"4","last_reported":1691521500,"current_range_meters":13600,"station_id":"ce4bgk12rcd13ifvqbi0","pricing_plan_id":"free"},{"bike_id":"dd3ee3c7-ec91-4822-9bf3-cb8ea9a0e41f","system_id":"levelo_inurba_marseille","lat":43.296263,"lon":5.377094,"is_reserved":false,"is_disabled":false,"rental_uris":{"android":"levelo://app?vid=dd3ee3c7-ec91-4822-9bf3-cb8ea9a0e41f","ios":"levelo://app?vid=dd3ee3c7-ec91-4822-9bf3-cb8ea9a0e41f"},"vehicle_type_id":"4","last_reported":1691521500,"current_range_meters":22800,"station_id":"ce4bgi92rcd13ifvqb90","pricing_plan_id":"free"},{"bike_id":"377d7882-7b10-4075-a772-46efb9f1a154","system_id":"levelo_inurba_marseille","lat":43.29603,"lon":5.37685,"is_reserved":false,"is_disabled":false,"rental_uris":{"android":"levelo://app?vid=377d7882-7b10-4075-a772-46efb9f1a154","ios":"levelo://app?vid=377d7882-7b10-4075-a772-46efb9f1a154"},"vehicle_type_id":"4","last_reported":1691521500,"current_range_meters":0,"station_id":"ce4bgi92rcd13ifvqb90","pricing_plan_id":"free"},{"bike_id":"94289b4d-c7f7-4643-af9d-d42ab41eb5dd","system_id":"levelo_inurba_marseille","lat":43.296277,"lon":5.377108,"is_reserved":false,"is_disabled":false,"rental_uris":{"android":"levelo://app?vid=94289b4d-c7f7-4643-af9d-d42ab41eb5dd","ios":"levelo://app?vid=94289b4d-c7f7-4643-af9d-d42ab41eb5dd"},"vehicle_type_id":"4","last_reported":1691521500,"current_range_meters":2000,"station_id":"ce4bgi92rcd13ifvqb90","pricing_plan_id":"free"},{"bike_id":"9fd7e193-c838-4c3f-98e4-60ef98c228e7","system_id":"levelo_inurba_marseille","lat":43.295279,"lon":5.375048,"is_reserved":false,"is_disabled":false,"rental_uris":{"android":"levelo://app?vid=9fd7e193-c838-4c3f-98e4-60ef98c228e7","ios":"levelo://app?vid=9fd7e193-c838-4c3f-98e4-60ef98c228e7"},"vehicle_type_id":"4","last_reported":1691521500,"current_range_meters":13600,"station_id":"ce4bgkp2rcd13ifvqbmg","pricing_plan_id":"free"},{"bike_id":"348c9251-7a8b-4c64-9a0a-1358bb5d47c6","system_id":"levelo_inurba_marseille","lat":43.29976,"lon":5.38486,"is_reserved":false,"is_disabled":false,"rental_uris":{"android":"levelo://app?vid=348c9251-7a8b-4c64-9a0a-1358bb5d47c6","ios":"levelo://app?vid=348c9251-7a8b-4c64-9a0a-1358bb5d47c6"},"vehicle_type_id":"4","last_reported":1691521500,"current_range_meters":18000,"station_id":"ce4bgj92rcd13ifvqbd0","pricing_plan_id":"free"},{"bike_id":"26db8e30-a770-48bf-b002-4dbeac09c449","system_id":"levelo_inurba_marseille","lat":43.295279,"lon":5.375048,"is_reserved":false,"is_disabled":false,"rental_uris":{"android":"levelo://app?vid=26db8e30-a770-48bf-b002-4dbeac09c449","ios":"levelo://app?vid=26db8e30-a770-48bf-b002-4dbeac09c449"},"vehicle_type_id":"4","last_reported":1691521500,"current_range_meters":0,"station_id":"ce4bgkp2rcd13ifvqbmg","pricing_plan_id":"free"},{"bike_id":"e6073a10-ee71-45c3-a64f-d76c573afdaf","system_id":"levelo_inurba_marseille","lat":43.299717,"lon":5.384845,"is_reserved":false,"is_disabled":false,"rental_uris":{"android":"levelo://app?vid=e6073a10-ee71-45c3-a64f-d76c573afdaf","ios":"levelo://app?vid=e6073a10-ee71-45c3-a64f-d76c573afdaf"},"vehicle_type_id":"4","last_reported":1691521500,"current_range_meters":17200,"station_id":"ce4bgj92rcd13ifvqbd0","pricing_plan_id":"free"},{"bike_id":"e749062d-5ecf-4bd2-9080-c0cfc1ee981f","system_id":"levelo_inurba_marseille","lat":43.32365,"lon":5.3888,"is_reserved":false,"is_disabled":false,"rental_uris":{"android":"levelo://app?vid=e749062d-5ecf-4bd2-9080-c0cfc1ee981f","ios":"levelo://app?vid=e749062d-5ecf-4bd2-9080-c0cfc1ee981f"},"vehicle_type_id":"4","last_reported":1691521500,"current_range_meters":16400,"station_id":"ce4bhqp2rcd13ifvqhog","pricing_plan_id":"free"},{"bike_id":"d343b214-9fd8-4983-9f92-5a92418f14a5","system_id":"levelo_inurba_marseille","lat":43.32363,"lon":5.38883,"is_reserved":false,"is_disabled":false,"rental_uris":{"android":"levelo://app?vid=d343b214-9fd8-4983-9f92-5a92418f14a5","ios":"levelo://app?vid=d343b214-9fd8-4983-9f92-5a92418f14a5"},"vehicle_type_id":"4","last_reported":1691521500,"current_range_meters":5600,"station_id":"ce4bhqp2rcd13ifvqhog","pricing_plan_id":"free"},{"bike_id":"74dadc79-5b09-46d4-b1f2-8afef6601364","system_id":"levelo_inurba_marseille","lat":43.32367,"lon":5.388836,"is_reserved":false,"is_disabled":false,"rental_uris":{"android":"levelo://app?vid=74dadc79-5b09-46d4-b1f2-8afef6601364","ios":"levelo://app?vid=74dadc79-5b09-46d4-b1f2-8afef6601364"},"vehicle_type_id":"4","last_reported":1691521500,"current_range_meters":30000,"station_id":"ce4bhqp2rcd13ifvqhog","pricing_plan_id":"free"},{"bike_id":"89167c46-19fb-4428-be8d-a2f6f1964079","system_id":"levelo_inurba_marseille","lat":43.32364,"lon":5.38883,"is_reserved":false,"is_disabled":false,"rental_uris":{"android":"levelo://app?vid=89167c46-19fb-4428-be8d-a2f6f1964079","ios":"levelo://app?vid=89167c46-19fb-4428-be8d-a2f6f1964079"},"vehicle_type_id":"4","last_reported":1691521500,"current_range_meters":15600,"station_id":"ce4bhqp2rcd13ifvqhog","pricing_plan_id":"free"},{"bike_id":"6b7eff1a-606d-42da-bbd2-faf1d71b2833","system_id":"levelo_inurba_marseille","lat":43.32368,"lon":5.38881,"is_reserved":false,"is_disabled":false,"rental_uris":{"android":"levelo://app?vid=6b7eff1a-606d-42da-bbd2-faf1d71b2833","ios":"levelo://app?vid=6b7eff1a-606d-42da-bbd2-faf1d71b2833"},"vehicle_type_id":"4","last_reported":1691521500,"current_range_meters":27600,"station_id":"ce4bhqp2rcd13ifvqhog","pricing_plan_id":"free"},{"bike_id":"7150b49f-1df1-4688-97da-807cb4341d3f","system_id":"levelo_inurba_marseille","lat":43.32367,"lon":5.38882,"is_reserved":false,"is_disabled":false,"rental_uris":{"android":"levelo://app?vid=7150b49f-1df1-4688-97da-807cb4341d3f","ios":"levelo://app?vid=7150b49f-1df1-4688-97da-807cb4341d3f"},"vehicle_type_id":"4","last_reported":1691521500,"current_range_meters":26800,"station_id":"ce4bhqp2rcd13ifvqhog","pricing_plan_id":"free"},{"bike_id":"8622645b-3c96-4fdf-8cf6-da71833282c8","system_id":"levelo_inurba_marseille","lat":43.32367,"lon":5.38883,"is_reserved":false,"is_disabled":false,"rental_uris":{"android":"levelo://app?vid=8622645b-3c96-4fdf-8cf6-da71833282c8","ios":"levelo://app?vid=8622645b-3c96-4fdf-8cf6-da71833282c8"},"vehicle_type_id":"4","last_reported":1691521500,"current_range_meters":29200,"station_id":"ce4bhqp2rcd13ifvqhog","pricing_plan_id":"free"},{"bike_id":"1ea5fdc5-3897-4ff2-9a70-bf6391fccfde","system_id":"levelo_inurba_marseille","lat":43.32366,"lon":5.38884,"is_reserved":false,"is_disabled":false,"rental_uris":{"android":"levelo://app?vid=1ea5fdc5-3897-4ff2-9a70-bf6391fccfde","ios":"levelo://app?vid=1ea5fdc5-3897-4ff2-9a70-bf6391fccfde"},"vehicle_type_id":"4","last_reported":1691521500,"current_range_meters":28800,"station_id":"ce4bhqp2rcd13ifvqhog","pricing_plan_id":"free"},{"bike_id":"76c391ee-2205-4639-a6be-a8561f89affc","system_id":"levelo_inurba_marseille","lat":43.32367,"lon":5.388836,"is_reserved":false,"is_disabled":false,"rental_uris":{"android":"levelo://app?vid=76c391ee-2205-4639-a6be-a8561f89affc","ios":"levelo://app?vid=76c391ee-2205-4639-a6be-a8561f89affc"},"vehicle_type_id":"4","last_reported":1691521500,"current_range_meters":22000,"station_id":"ce4bhqp2rcd13ifvqhog","pricing_plan_id":"free"},{"bike_id":"04393ddb-228a-4341-98f6-4cd9a60e6083","system_id":"levelo_inurba_marseille","lat":43.32367,"lon":5.388836,"is_reserved":false,"is_disabled":false,"rental_uris":{"android":"levelo://app?vid=04393ddb-228a-4341-98f6-4cd9a60e6083","ios":"levelo://app?vid=04393ddb-228a-4341-98f6-4cd9a60e6083"},"vehicle_type_id":"4","last_reported":1691521500,"current_range_meters":25600,"station_id":"ce4bhqp2rcd13ifvqhog","pricing_plan_id":"free"},{"bike_id":"043d829d-8be0-4935-89c0-53132d4349ab","system_id":"levelo_inurba_marseille","lat":43.32368,"lon":5.38888,"is_reserved":false,"is_disabled":false,"rental_uris":{"android":"levelo://app?vid=043d829d-8be0-4935-89c0-53132d4349ab","ios":"levelo://app?vid=043d829d-8be0-4935-89c0-53132d4349ab"},"vehicle_type_id":"4","last_reported":1691521500,"current_range_meters":14400,"station_id":"ce4bhqp2rcd13ifvqhog","pricing_plan_id":"free"},{"bike_id":"ad1699d4-ab13-440b-9a4e-1687c2d3524b","system_id":"levelo_inurba_marseille","lat":43.29602,"lon":5.381084,"is_reserved":false,"is_disabled":false,"rental_uris":{"android":"levelo://app?vid=ad1699d4-ab13-440b-9a4e-1687c2d3524b","ios":"levelo://app?vid=ad1699d4-ab13-440b-9a4e-1687c2d3524b"},"vehicle_type_id":"4","last_reported":1691521500,"current_range_meters":3200,"station_id":"ce4bgl12rcd13ifvqbo0","pricing_plan_id":"free"},{"bike_id":"bef522e6-1c1f-4789-b727-55b6efb08aa4","system_id":"levelo_inurba_marseille","lat":43.29602,"lon":5.381084,"is_reserved":false,"is_disabled":false,"rental_uris":{"android":"levelo://app?vid=bef522e6-1c1f-4789-b727-55b6efb08aa4","ios":"levelo://app?vid=bef522e6-1c1f-4789-b727-55b6efb08aa4"},"vehicle_type_id":"4","last_reported":1691521500,"current_range_meters":6400,"station_id":"ce4bgl12rcd13ifvqbo0","pricing_plan_id":"free"},{"bike_id":"4eb02ea2-3441-403d-befb-ccbca97094b3","system_id":"levelo_inurba_marseille","lat":43.29602,"lon":5.381084,"is_reserved":false,"is_disabled":false,"rental_uris":{"android":"levelo://app?vid=4eb02ea2-3441-403d-befb-ccbca97094b3","ios":"levelo://app?vid=4eb02ea2-3441-403d-befb-ccbca97094b3"},"vehicle_type_id":"4","last_reported":1691521500,"current_range_meters":8400,"station_id":"ce4bgl12rcd13ifvqbo0","pricing_plan_id":"free"},{"bike_id":"4feb61bd-b711-4b03-bba0-54ea7fe7b143","system_id":"levelo_inurba_marseille","lat":43.292749,"lon":5.368402,"is_reserved":false,"is_disabled":false,"rental_uris":{"android":"levelo://app?vid=4feb61bd-b711-4b03-bba0-54ea7fe7b143","ios":"levelo://app?vid=4feb61bd-b711-4b03-bba0-54ea7fe7b143"},"vehicle_type_id":"4","last_reported":1691521500,"current_range_meters":21600,"station_id":"ce4bhbp2rcd13ifvqesg","pricing_plan_id":"free"},{"bike_id":"53d034a2-0b8b-42b2-b7e5-9bcbb90bca15","system_id":"levelo_inurba_marseille","lat":43.292749,"lon":5.368398,"is_reserved":false,"is_disabled":false,"rental_uris":{"android":"levelo://app?vid=53d034a2-0b8b-42b2-b7e5-9bcbb90bca15","ios":"levelo://app?vid=53d034a2-0b8b-42b2-b7e5-9bcbb90bca15"},"vehicle_type_id":"4","last_reported":1691521500,"current_range_meters":28000,"station_id":"ce4bhbp2rcd13ifvqesg","pricing_plan_id":"free"},{"bike_id":"ab234762-8d54-4180-9671-8d75ade1df49","system_id":"levelo_inurba_marseille","lat":43.293032,"lon":5.371715,"is_reserved":false,"is_disabled":false,"rental_uris":{"android":"levelo://app?vid=ab234762-8d54-4180-9671-8d75ade1df49","ios":"levelo://app?vid=ab234762-8d54-4180-9671-8d75ade1df49"},"vehicle_type_id":"4","last_reported":1691521500,"current_range_meters":20400,"station_id":"ce4bgh92rcd13ifvqb40","pricing_plan_id":"free"},{"bike_id":"93b59529-3cbc-4763-83ff-a515d25a1a58","system_id":"levelo_inurba_marseille","lat":43.29302,"lon":5.37175,"is_reserved":false,"is_disabled":false,"rental_uris":{"android":"levelo://app?vid=93b59529-3cbc-4763-83ff-a515d25a1a58","ios":"levelo://app?vid=93b59529-3cbc-4763-83ff-a515d25a1a58"},"vehicle_type_id":"4","last_reported":1691521500,"current_range_meters":10400,"station_id":"ce4bgh92rcd13ifvqb40","pricing_plan_id":"free"},{"bike_id":"6d00e923-2d04-48bb-b2be-1436d009e918","system_id":"levelo_inurba_marseille","lat":43.292749,"lon":5.368398,"is_reserved":false,"is_disabled":false,"rental_uris":{"android":"levelo://app?vid=6d00e923-2d04-48bb-b2be-1436d009e918","ios":"levelo://app?vid=6d00e923-2d04-48bb-b2be-1436d009e918"},"vehicle_type_id":"4","last_reported":1691521500,"current_range_meters":28800,"station_id":"ce4bhbp2rcd13ifvqesg","pricing_plan_id":"free"},{"bike_id":"445e7984-240b-468c-a238-628fd3a6a989","system_id":"levelo_inurba_marseille","lat":43.29302,"lon":5.37177,"is_reserved":false,"is_disabled":false,"rental_uris":{"android":"levelo://app?vid=445e7984-240b-468c-a238-628fd3a6a989","ios":"levelo://app?vid=445e7984-240b-468c-a238-628fd3a6a989"},"vehicle_type_id":"4","last_reported":1691521500,"current_range_meters":19200,"station_id":"ce4bgh92rcd13ifvqb40","pricing_plan_id":"free"},{"bike_id":"1339e2ef-f4e0-4faa-837b-1f8f4c4ffbdf","system_id":"levelo_inurba_marseille","lat":43.29567,"lon":5.38136,"is_reserved":false,"is_disabled":false,"rental_uris":{"android":"levelo://app?vid=1339e2ef-f4e0-4faa-837b-1f8f4c4ffbdf","ios":"levelo://app?vid=1339e2ef-f4e0-4faa-837b-1f8f4c4ffbdf"},"vehicle_type_id":"4","last_reported":1691521500,"current_range_meters":5200,"station_id":"ce4bgl12rcd13ifvqbo0","pricing_plan_id":"free"},{"bike_id":"356d4ecc-d4f9-4a8d-9c48-cad6eccd4b42","system_id":"levelo_inurba_marseille","lat":43.293249,"lon":5.371578,"is_reserved":false,"is_disabled":false,"rental_uris":{"android":"levelo://app?vid=356d4ecc-d4f9-4a8d-9c48-cad6eccd4b42","ios":"levelo://app?vid=356d4ecc-d4f9-4a8d-9c48-cad6eccd4b42"},"vehicle_type_id":"4","last_reported":1691521500,"current_range_meters":11200,"station_id":"ce4bgh92rcd13ifvqb40","pricing_plan_id":"free"},{"bike_id":"dbe406a0-e31d-4174-932b-0d8d584d17c2","system_id":"levelo_inurba_marseille","lat":43.292749,"lon":5.368398,"is_reserved":false,"is_disabled":false,"rental_uris":{"android":"levelo://app?vid=dbe406a0-e31d-4174-932b-0d8d584d17c2","ios":"levelo://app?vid=dbe406a0-e31d-4174-932b-0d8d584d17c2"},"vehicle_type_id":"4","last_reported":1691521500,"current_range_meters":31600,"station_id":"ce4bhbp2rcd13ifvqesg","pricing_plan_id":"free"},{"bike_id":"3499a191-4fde-4e3e-8720-6845eee4b1b4","system_id":"levelo_inurba_marseille","lat":43.29299,"lon":5.37181,"is_reserved":false,"is_disabled":false,"rental_uris":{"android":"levelo://app?vid=3499a191-4fde-4e3e-8720-6845eee4b1b4","ios":"levelo://app?vid=3499a191-4fde-4e3e-8720-6845eee4b1b4"},"vehicle_type_id":"4","last_reported":1691521500,"current_range_meters":0,"station_id":"ce4bgh92rcd13ifvqb40","pricing_plan_id":"free"},{"bike_id":"f47dda48-06e2-44db-bc3b-8ddab8c96a76","system_id":"levelo_inurba_marseille","lat":43.293009,"lon":5.374584,"is_reserved":false,"is_disabled":false,"rental_uris":{"android":"levelo://app?vid=f47dda48-06e2-44db-bc3b-8ddab8c96a76","ios":"levelo://app?vid=f47dda48-06e2-44db-bc3b-8ddab8c96a76"},"vehicle_type_id":"4","last_reported":1691521500,"current_range_meters":18000,"station_id":"ce4bgi12rcd13ifvqb70","pricing_plan_id":"free"},{"bike_id":"8be5c97d-7acc-4889-8f9c-4b2e0ebbfb07","system_id":"levelo_inurba_marseille","lat":43.305994,"lon":5.393687,"is_reserved":false,"is_disabled":false,"rental_uris":{"android":"levelo://app?vid=8be5c97d-7acc-4889-8f9c-4b2e0ebbfb07","ios":"levelo://app?vid=8be5c97d-7acc-4889-8f9c-4b2e0ebbfb07"},"vehicle_type_id":"4","last_reported":1691521500,"current_range_meters":18000,"station_id":"ce4bh0p2rcd13ifvqd80","pricing_plan_id":"free"},{"bike_id":"ea8f3158-bc4b-4dd5-9945-b3cd33323950","system_id":"levelo_inurba_marseille","lat":43.305994,"lon":5.393687,"is_reserved":false,"is_disabled":false,"rental_uris":{"android":"levelo://app?vid=ea8f3158-bc4b-4dd5-9945-b3cd33323950","ios":"levelo://app?vid=ea8f3158-bc4b-4dd5-9945-b3cd33323950"},"vehicle_type_id":"4","last_reported":1691521500,"current_range_meters":9600,"station_id":"ce4bh0p2rcd13ifvqd80","pricing_plan_id":"free"},{"bike_id":"b65647ab-fa6e-43f3-b9c1-8f9782092e7a","system_id":"levelo_inurba_marseille","lat":43.305994,"lon":5.393687,"is_reserved":false,"is_disabled":false,"rental_uris":{"android":"levelo://app?vid=b65647ab-fa6e-43f3-b9c1-8f9782092e7a","ios":"levelo://app?vid=b65647ab-fa6e-43f3-b9c1-8f9782092e7a"},"vehicle_type_id":"4","last_reported":1691521500,"current_range_meters":16000,"station_id":"ce4bh0p2rcd13ifvqd80","pricing_plan_id":"free"},{"bike_id":"e3797deb-a4e3-4704-bc8b-dc857ae47aec","system_id":"levelo_inurba_marseille","lat":43.305994,"lon":5.393687,"is_reserved":false,"is_disabled":false,"rental_uris":{"android":"levelo://app?vid=e3797deb-a4e3-4704-bc8b-dc857ae47aec","ios":"levelo://app?vid=e3797deb-a4e3-4704-bc8b-dc857ae47aec"},"vehicle_type_id":"4","last_reported":1691521500,"current_range_meters":31200,"station_id":"ce4bh0p2rcd13ifvqd80","pricing_plan_id":"free"},{"bike_id":"c5cb2e99-20b6-47c7-b43f-72c257afe81e","system_id":"levelo_inurba_marseille","lat":43.302992,"lon":5.392136,"is_reserved":false,"is_disabled":false,"rental_uris":{"android":"levelo://app?vid=c5cb2e99-20b6-47c7-b43f-72c257afe81e","ios":"levelo://app?vid=c5cb2e99-20b6-47c7-b43f-72c257afe81e"},"vehicle_type_id":"4","last_reported":1691521500,"current_range_meters":22000,"station_id":"ce4bgkh2rcd13ifvqbk0","pricing_plan_id":"free"},{"bike_id":"ee566a13-d7ca-4c44-9b5d-7877440a9c11","system_id":"levelo_inurba_marseille","lat":43.2936,"lon":5.37835,"is_reserved":false,"is_disabled":false,"rental_uris":{"android":"levelo://app?vid=ee566a13-d7ca-4c44-9b5d-7877440a9c11","ios":"levelo://app?vid=ee566a13-d7ca-4c44-9b5d-7877440a9c11"},"vehicle_type_id":"4","last_reported":1691521500,"current_range_meters":22400,"station_id":"ce4bgjh2rcd13ifvqbf0","pricing_plan_id":"free"},{"bike_id":"77b48b11-0db3-4212-b453-819816879837","system_id":"levelo_inurba_marseille","lat":43.302992,"lon":5.392136,"is_reserved":false,"is_disabled":false,"rental_uris":{"android":"levelo://app?vid=77b48b11-0db3-4212-b453-819816879837","ios":"levelo://app?vid=77b48b11-0db3-4212-b453-819816879837"},"vehicle_type_id":"4","last_reported":1691521500,"current_range_meters":8000,"station_id":"ce4bgkh2rcd13ifvqbk0","pricing_plan_id":"free"},{"bike_id":"942822aa-c963-4187-aece-13c8bc594bcb","system_id":"levelo_inurba_marseille","lat":43.300852,"lon":5.390859,"is_reserved":false,"is_disabled":false,"rental_uris":{"android":"levelo://app?vid=942822aa-c963-4187-aece-13c8bc594bcb","ios":"levelo://app?vid=942822aa-c963-4187-aece-13c8bc594bcb"},"vehicle_type_id":"4","last_reported":1691521500,"current_range_meters":9200,"station_id":"ce4bh192rcd13ifvqdb0","pricing_plan_id":"free"},{"bike_id":"32c25e9d-f87a-4f29-b172-301afdf7ae93","system_id":"levelo_inurba_marseille","lat":43.300852,"lon":5.390859,"is_reserved":false,"is_disabled":false,"rental_uris":{"android":"levelo://app?vid=32c25e9d-f87a-4f29-b172-301afdf7ae93","ios":"levelo://app?vid=32c25e9d-f87a-4f29-b172-301afdf7ae93"},"vehicle_type_id":"4","last_reported":1691521500,"current_range_meters":31200,"station_id":"ce4bh192rcd13ifvqdb0","pricing_plan_id":"free"},{"bike_id":"39fcd380-0044-4bfa-a5dc-32723d673ec5","system_id":"levelo_inurba_marseille","lat":43.292663,"lon":5.376389,"is_reserved":false,"is_disabled":false,"rental_uris":{"android":"levelo://app?vid=39fcd380-0044-4bfa-a5dc-32723d673ec5","ios":"levelo://app?vid=39fcd380-0044-4bfa-a5dc-32723d673ec5"},"vehicle_type_id":"4","last_reported":1691521500,"current_range_meters":14400,"station_id":"ce4bgi12rcd13ifvqb80","pricing_plan_id":"free"},{"bike_id":"17fda60d-48bf-4284-8558-b2c1ed7c200d","system_id":"levelo_inurba_marseille","lat":43.292663,"lon":5.376389,"is_reserved":false,"is_disabled":false,"rental_uris":{"android":"levelo://app?vid=17fda60d-48bf-4284-8558-b2c1ed7c200d","ios":"levelo://app?vid=17fda60d-48bf-4284-8558-b2c1ed7c200d"},"vehicle_type_id":"4","last_reported":1691521500,"current_range_meters":12400,"station_id":"ce4bgi12rcd13ifvqb80","pricing_plan_id":"free"},{"bike_id":"da0ef962-ac93-4a2f-ada7-22d06e5dd1f5","system_id":"levelo_inurba_marseille","lat":43.292663,"lon":5.376389,"is_reserved":false,"is_disabled":false,"rental_uris":{"android":"levelo://app?vid=da0ef962-ac93-4a2f-ada7-22d06e5dd1f5","ios":"levelo://app?vid=da0ef962-ac93-4a2f-ada7-22d06e5dd1f5"},"vehicle_type_id":"4","last_reported":1691521500,"current_range_meters":5200,"station_id":"ce4bgi12rcd13ifvqb80","pricing_plan_id":"free"},{"bike_id":"ec701d2e-66fb-4271-bd5f-7f165fad7275","system_id":"levelo_inurba_marseille","lat":43.29167,"lon":5.37157,"is_reserved":false,"is_disabled":false,"rental_uris":{"android":"levelo://app?vid=ec701d2e-66fb-4271-bd5f-7f165fad7275","ios":"levelo://app?vid=ec701d2e-66fb-4271-bd5f-7f165fad7275"},"vehicle_type_id":"4","last_reported":1691521500,"current_range_meters":4800,"station_id":"ce4bha92rcd13ifvqeh0","pricing_plan_id":"free"},{"bike_id":"6cc354db-bd61-4058-b5eb-f0cefcc1b169","system_id":"levelo_inurba_marseille","lat":43.292663,"lon":5.376389,"is_reserved":false,"is_disabled":false,"rental_uris":{"android":"levelo://app?vid=6cc354db-bd61-4058-b5eb-f0cefcc1b169","ios":"levelo://app?vid=6cc354db-bd61-4058-b5eb-f0cefcc1b169"},"vehicle_type_id":"4","last_reported":1691521500,"current_range_meters":2800,"station_id":"ce4bgi12rcd13ifvqb80","pricing_plan_id":"free"},{"bike_id":"68312dd1-5f01-49ab-b720-af5aceabd138","system_id":"levelo_inurba_marseille","lat":43.31329,"lon":5.39688,"is_reserved":false,"is_disabled":false,"rental_uris":{"android":"levelo://app?vid=68312dd1-5f01-49ab-b720-af5aceabd138","ios":"levelo://app?vid=68312dd1-5f01-49ab-b720-af5aceabd138"},"vehicle_type_id":"4","last_reported":1691521500,"current_range_meters":14400,"station_id":"ce4bgvp2rcd13ifvqcu0","pricing_plan_id":"free"},{"bike_id":"b891bafc-2f89-4186-a947-9b7b8dc967dd","system_id":"levelo_inurba_marseille","lat":43.309038,"lon":5.396546,"is_reserved":false,"is_disabled":false,"rental_uris":{"android":"levelo://app?vid=b891bafc-2f89-4186-a947-9b7b8dc967dd","ios":"levelo://app?vid=b891bafc-2f89-4186-a947-9b7b8dc967dd"},"vehicle_type_id":"4","last_reported":1691521500,"current_range_meters":4800,"station_id":"ce4bh012rcd13ifvqcv0","pricing_plan_id":"free"},{"bike_id":"2282c425-6055-4414-b21f-9fa61eaba595","system_id":"levelo_inurba_marseille","lat":43.3088,"lon":5.39642,"is_reserved":false,"is_disabled":false,"rental_uris":{"android":"levelo://app?vid=2282c425-6055-4414-b21f-9fa61eaba595","ios":"levelo://app?vid=2282c425-6055-4414-b21f-9fa61eaba595"},"vehicle_type_id":"4","last_reported":1691521500,"current_range_meters":0,"station_id":"ce4bh012rcd13ifvqcv0","pricing_plan_id":"free"},{"bike_id":"4aab9beb-18da-4f14-85e9-ecc3a1a05426","system_id":"levelo_inurba_marseille","lat":43.31332,"lon":5.39691,"is_reserved":false,"is_disabled":false,"rental_uris":{"android":"levelo://app?vid=4aab9beb-18da-4f14-85e9-ecc3a1a05426","ios":"levelo://app?vid=4aab9beb-18da-4f14-85e9-ecc3a1a05426"},"vehicle_type_id":"4","last_reported":1691521500,"current_range_meters":12000,"station_id":"ce4bgvp2rcd13ifvqcu0","pricing_plan_id":"free"},{"bike_id":"6596df62-a4f8-4a39-a0ac-6d146b78daac","system_id":"levelo_inurba_marseille","lat":43.313291,"lon":5.396838,"is_reserved":false,"is_disabled":false,"rental_uris":{"android":"levelo://app?vid=6596df62-a4f8-4a39-a0ac-6d146b78daac","ios":"levelo://app?vid=6596df62-a4f8-4a39-a0ac-6d146b78daac"},"vehicle_type_id":"4","last_reported":1691521500,"current_range_meters":6800,"station_id":"ce4bgvp2rcd13ifvqcu0","pricing_plan_id":"free"},{"bike_id":"0bbb27ff-4b8f-4aac-92e3-0d266b7c92ed","system_id":"levelo_inurba_marseille","lat":43.29184,"lon":5.35793,"is_reserved":false,"is_disabled":false,"rental_uris":{"android":"levelo://app?vid=0bbb27ff-4b8f-4aac-92e3-0d266b7c92ed","ios":"levelo://app?vid=0bbb27ff-4b8f-4aac-92e3-0d266b7c92ed"},"vehicle_type_id":"4","last_reported":1691521500,"current_range_meters":0,"station_id":"ce4bhb12rcd13ifvqel0","pricing_plan_id":"free"},{"bike_id":"2aea0df4-5766-4bde-8f1f-39bcb115698c","system_id":"levelo_inurba_marseille","lat":43.30888,"lon":5.39656,"is_reserved":false,"is_disabled":false,"rental_uris":{"android":"levelo://app?vid=2aea0df4-5766-4bde-8f1f-39bcb115698c","ios":"levelo://app?vid=2aea0df4-5766-4bde-8f1f-39bcb115698c"},"vehicle_type_id":"4","last_reported":1691521500,"current_range_meters":0,"station_id":"ce4bh012rcd13ifvqcv0","pricing_plan_id":"free"},{"bike_id":"b8d0226b-60e5-479c-af56-eb2ce8191d3e","system_id":"levelo_inurba_marseille","lat":43.29529,"lon":5.385581,"is_reserved":false,"is_disabled":false,"rental_uris":{"android":"levelo://app?vid=b8d0226b-60e5-479c-af56-eb2ce8191d3e","ios":"levelo://app?vid=b8d0226b-60e5-479c-af56-eb2ce8191d3e"},"vehicle_type_id":"4","last_reported":1691521500,"current_range_meters":3600,"station_id":"ce4bgih2rcd13ifvqba0","pricing_plan_id":"free"},{"bike_id":"2396ba41-66cd-41bd-8d10-bfd8cc31ae61","system_id":"levelo_inurba_marseille","lat":43.29529,"lon":5.385581,"is_reserved":false,"is_disabled":false,"rental_uris":{"android":"levelo://app?vid=2396ba41-66cd-41bd-8d10-bfd8cc31ae61","ios":"levelo://app?vid=2396ba41-66cd-41bd-8d10-bfd8cc31ae61"},"vehicle_type_id":"4","last_reported":1691521500,"current_range_meters":800,"station_id":"ce4bgih2rcd13ifvqba0","pricing_plan_id":"free"},{"bike_id":"71012dd2-dba5-4500-a396-a5ca1d8a9b66","system_id":"levelo_inurba_marseille","lat":43.29529,"lon":5.385581,"is_reserved":false,"is_disabled":false,"rental_uris":{"android":"levelo://app?vid=71012dd2-dba5-4500-a396-a5ca1d8a9b66","ios":"levelo://app?vid=71012dd2-dba5-4500-a396-a5ca1d8a9b66"},"vehicle_type_id":"4","last_reported":1691521500,"current_range_meters":12000,"station_id":"ce4bgih2rcd13ifvqba0","pricing_plan_id":"free"},{"bike_id":"e31235ec-09d2-4408-860d-88fc67bd3103","system_id":"levelo_inurba_marseille","lat":43.29529,"lon":5.385581,"is_reserved":false,"is_disabled":false,"rental_uris":{"android":"levelo://app?vid=e31235ec-09d2-4408-860d-88fc67bd3103","ios":"levelo://app?vid=e31235ec-09d2-4408-860d-88fc67bd3103"},"vehicle_type_id":"4","last_reported":1691521500,"current_range_meters":16000,"station_id":"ce4bgih2rcd13ifvqba0","pricing_plan_id":"free"},{"bike_id":"47d4448b-a4b7-497c-a8ab-4416d0d24e71","system_id":"levelo_inurba_marseille","lat":43.29529,"lon":5.385581,"is_reserved":false,"is_disabled":false,"rental_uris":{"android":"levelo://app?vid=47d4448b-a4b7-497c-a8ab-4416d0d24e71","ios":"levelo://app?vid=47d4448b-a4b7-497c-a8ab-4416d0d24e71"},"vehicle_type_id":"4","last_reported":1691521500,"current_range_meters":15600,"station_id":"ce4bgih2rcd13ifvqba0","pricing_plan_id":"free"},{"bike_id":"f66eac05-eb45-42e4-a9b7-31bd01d27216","system_id":"levelo_inurba_marseille","lat":43.29529,"lon":5.385581,"is_reserved":false,"is_disabled":false,"rental_uris":{"android":"levelo://app?vid=f66eac05-eb45-42e4-a9b7-31bd01d27216","ios":"levelo://app?vid=f66eac05-eb45-42e4-a9b7-31bd01d27216"},"vehicle_type_id":"4","last_reported":1691521500,"current_range_meters":17600,"station_id":"ce4bgih2rcd13ifvqba0","pricing_plan_id":"free"},{"bike_id":"d6d9c4db-4c27-4aaa-a466-ec37e79c3d80","system_id":"levelo_inurba_marseille","lat":43.29076,"lon":5.37163,"is_reserved":false,"is_disabled":false,"rental_uris":{"android":"levelo://app?vid=d6d9c4db-4c27-4aaa-a466-ec37e79c3d80","ios":"levelo://app?vid=d6d9c4db-4c27-4aaa-a466-ec37e79c3d80"},"vehicle_type_id":"4","last_reported":1691521500,"current_range_meters":0,"station_id":"ce4bh5p2rcd13ifvqe4g","pricing_plan_id":"free"},{"bike_id":"9f58c430-ccd8-4f66-b1ce-132b81647dd7","system_id":"levelo_inurba_marseille","lat":43.2907,"lon":5.37163,"is_reserved":false,"is_disabled":false,"rental_uris":{"android":"levelo://app?vid=9f58c430-ccd8-4f66-b1ce-132b81647dd7","ios":"levelo://app?vid=9f58c430-ccd8-4f66-b1ce-132b81647dd7"},"vehicle_type_id":"4","last_reported":1691521500,"current_range_meters":3200,"station_id":"ce4bh5p2rcd13ifvqe4g","pricing_plan_id":"free"},{"bike_id":"e663c363-4582-442e-ad8c-ef7da320cb71","system_id":"levelo_inurba_marseille","lat":43.302008,"lon":5.394694,"is_reserved":false,"is_disabled":false,"rental_uris":{"android":"levelo://app?vid=e663c363-4582-442e-ad8c-ef7da320cb71","ios":"levelo://app?vid=e663c363-4582-442e-ad8c-ef7da320cb71"},"vehicle_type_id":"4","last_reported":1691521500,"current_range_meters":1200,"station_id":"ce4bh0p2rcd13ifvqd70","pricing_plan_id":"free"},{"bike_id":"61b0db8e-9544-4bc9-9b87-c4c4d78e2bde","system_id":"levelo_inurba_marseille","lat":43.294162,"lon":5.386292,"is_reserved":false,"is_disabled":false,"rental_uris":{"android":"levelo://app?vid=61b0db8e-9544-4bc9-9b87-c4c4d78e2bde","ios":"levelo://app?vid=61b0db8e-9544-4bc9-9b87-c4c4d78e2bde"},"vehicle_type_id":"4","last_reported":1691521500,"current_range_meters":5200,"station_id":"ce4bh2h2rcd13ifvqdh0","pricing_plan_id":"free"},{"bike_id":"c1801321-577c-4862-a885-5959c226d5ad","system_id":"levelo_inurba_marseille","lat":43.294153,"lon":5.386305,"is_reserved":false,"is_disabled":false,"rental_uris":{"android":"levelo://app?vid=c1801321-577c-4862-a885-5959c226d5ad","ios":"levelo://app?vid=c1801321-577c-4862-a885-5959c226d5ad"},"vehicle_type_id":"4","last_reported":1691521500,"current_range_meters":9200,"station_id":"ce4bh2h2rcd13ifvqdh0","pricing_plan_id":"free"},{"bike_id":"e58bc743-50b5-4054-a81e-fb0edd795d8e","system_id":"levelo_inurba_marseille","lat":43.294162,"lon":5.386292,"is_reserved":false,"is_disabled":false,"rental_uris":{"android":"levelo://app?vid=e58bc743-50b5-4054-a81e-fb0edd795d8e","ios":"levelo://app?vid=e58bc743-50b5-4054-a81e-fb0edd795d8e"},"vehicle_type_id":"4","last_reported":1691521500,"current_range_meters":26000,"station_id":"ce4bh2h2rcd13ifvqdh0","pricing_plan_id":"free"},{"bike_id":"9f2cff8d-0219-4e38-b44a-ef57baa24579","system_id":"levelo_inurba_marseille","lat":43.294162,"lon":5.386292,"is_reserved":false,"is_disabled":false,"rental_uris":{"android":"levelo://app?vid=9f2cff8d-0219-4e38-b44a-ef57baa24579","ios":"levelo://app?vid=9f2cff8d-0219-4e38-b44a-ef57baa24579"},"vehicle_type_id":"4","last_reported":1691521500,"current_range_meters":23200,"station_id":"ce4bh2h2rcd13ifvqdh0","pricing_plan_id":"free"},{"bike_id":"6830cb89-a891-44f0-94db-b7a153737927","system_id":"levelo_inurba_marseille","lat":43.289184,"lon":5.366408,"is_reserved":false,"is_disabled":false,"rental_uris":{"android":"levelo://app?vid=6830cb89-a891-44f0-94db-b7a153737927","ios":"levelo://app?vid=6830cb89-a891-44f0-94db-b7a153737927"},"vehicle_type_id":"4","last_reported":1691521500,"current_range_meters":0,"station_id":"ce4bhap2rcd13ifvqek0","pricing_plan_id":"free"},{"bike_id":"98879fd7-057b-4fa1-82b3-21081cff327f","system_id":"levelo_inurba_marseille","lat":43.28946,"lon":5.36414,"is_reserved":false,"is_disabled":false,"rental_uris":{"android":"levelo://app?vid=98879fd7-057b-4fa1-82b3-21081cff327f","ios":"levelo://app?vid=98879fd7-057b-4fa1-82b3-21081cff327f"},"vehicle_type_id":"4","last_reported":1691521500,"current_range_meters":25600,"station_id":"ce4bhc92rcd13ifvqetg","pricing_plan_id":"free"},{"bike_id":"aa3d47cb-2c32-4d82-af9e-d273a599ce00","system_id":"levelo_inurba_marseille","lat":43.289184,"lon":5.366408,"is_reserved":false,"is_disabled":false,"rental_uris":{"android":"levelo://app?vid=aa3d47cb-2c32-4d82-af9e-d273a599ce00","ios":"levelo://app?vid=aa3d47cb-2c32-4d82-af9e-d273a599ce00"},"vehicle_type_id":"4","last_reported":1691521500,"current_range_meters":12000,"station_id":"ce4bhap2rcd13ifvqek0","pricing_plan_id":"free"},{"bike_id":"4c6a2a45-bff1-4667-a4d5-097f4a05930f","system_id":"levelo_inurba_marseille","lat":43.289468,"lon":5.363719,"is_reserved":false,"is_disabled":false,"rental_uris":{"android":"levelo://app?vid=4c6a2a45-bff1-4667-a4d5-097f4a05930f","ios":"levelo://app?vid=4c6a2a45-bff1-4667-a4d5-097f4a05930f"},"vehicle_type_id":"4","last_reported":1691521500,"current_range_meters":23200,"station_id":"ce4bhc92rcd13ifvqetg","pricing_plan_id":"free"},{"bike_id":"85c772b7-275a-4cdf-9796-59d80d241732","system_id":"levelo_inurba_marseille","lat":43.29412,"lon":5.38642,"is_reserved":false,"is_disabled":false,"rental_uris":{"android":"levelo://app?vid=85c772b7-275a-4cdf-9796-59d80d241732","ios":"levelo://app?vid=85c772b7-275a-4cdf-9796-59d80d241732"},"vehicle_type_id":"4","last_reported":1691521500,"current_range_meters":3600,"station_id":"ce4bh2h2rcd13ifvqdh0","pricing_plan_id":"free"},{"bike_id":"4038c9e2-1f75-47f3-b43d-420caffd8369","system_id":"levelo_inurba_marseille","lat":43.29268,"lon":5.38445,"is_reserved":false,"is_disabled":false,"rental_uris":{"android":"levelo://app?vid=4038c9e2-1f75-47f3-b43d-420caffd8369","ios":"levelo://app?vid=4038c9e2-1f75-47f3-b43d-420caffd8369"},"vehicle_type_id":"4","last_reported":1691521500,"current_range_meters":27200,"station_id":"ce4bh692rcd13ifvqea0","pricing_plan_id":"free"},{"bike_id":"16b9fd5a-c0cc-44a7-9bce-6984dc238e68","system_id":"levelo_inurba_marseille","lat":43.29041,"lon":5.399634,"is_reserved":false,"is_disabled":false,"rental_uris":{"android":"levelo://app?vid=16b9fd5a-c0cc-44a7-9bce-6984dc238e68","ios":"levelo://app?vid=16b9fd5a-c0cc-44a7-9bce-6984dc238e68"},"vehicle_type_id":"4","last_reported":1691521500,"current_range_meters":13600,"station_id":"ce4bh392rcd13ifvqdm0","pricing_plan_id":"free"},{"bike_id":"057338ce-600d-4b28-84ae-d6adabb9df87","system_id":"levelo_inurba_marseille","lat":43.304296,"lon":5.397513,"is_reserved":false,"is_disabled":false,"rental_uris":{"android":"levelo://app?vid=057338ce-600d-4b28-84ae-d6adabb9df87","ios":"levelo://app?vid=057338ce-600d-4b28-84ae-d6adabb9df87"},"vehicle_type_id":"4","last_reported":1691521500,"current_range_meters":11600,"station_id":"ce4bh092rcd13ifvqd20","pricing_plan_id":"free"},{"bike_id":"d267f9bf-e46c-4d71-8d64-b83cbc8c9077","system_id":"levelo_inurba_marseille","lat":43.30414,"lon":5.39754,"is_reserved":false,"is_disabled":false,"rental_uris":{"android":"levelo://app?vid=d267f9bf-e46c-4d71-8d64-b83cbc8c9077","ios":"levelo://app?vid=d267f9bf-e46c-4d71-8d64-b83cbc8c9077"},"vehicle_type_id":"4","last_reported":1691521500,"current_range_meters":28400,"station_id":"ce4bh0h2rcd13ifvqd60","pricing_plan_id":"free"},{"bike_id":"07d878fa-4a53-45ff-9114-5c2388007020","system_id":"levelo_inurba_marseille","lat":43.33042,"lon":5.38913,"is_reserved":false,"is_disabled":false,"rental_uris":{"android":"levelo://app?vid=07d878fa-4a53-45ff-9114-5c2388007020","ios":"levelo://app?vid=07d878fa-4a53-45ff-9114-5c2388007020"},"vehicle_type_id":"4","last_reported":1691521500,"current_range_meters":0,"station_id":"ce4bhr92rcd13ifvqhrg","pricing_plan_id":"free"},{"bike_id":"389d1175-4a9d-40bc-a61c-5c5f0da54622","system_id":"levelo_inurba_marseille","lat":43.33043,"lon":5.38913,"is_reserved":false,"is_disabled":false,"rental_uris":{"android":"levelo://app?vid=389d1175-4a9d-40bc-a61c-5c5f0da54622","ios":"levelo://app?vid=389d1175-4a9d-40bc-a61c-5c5f0da54622"},"vehicle_type_id":"4","last_reported":1691521500,"current_range_meters":800,"station_id":"ce4bhr92rcd13ifvqhrg","pricing_plan_id":"free"},{"bike_id":"2f74d4f2-3af7-4dd0-aae7-6aebc48c5839","system_id":"levelo_inurba_marseille","lat":43.290103,"lon":5.356114,"is_reserved":false,"is_disabled":false,"rental_uris":{"android":"levelo://app?vid=2f74d4f2-3af7-4dd0-aae7-6aebc48c5839","ios":"levelo://app?vid=2f74d4f2-3af7-4dd0-aae7-6aebc48c5839"},"vehicle_type_id":"4","last_reported":1691521500,"current_range_meters":27600,"station_id":"ce4bhb92rcd13ifvqen0","pricing_plan_id":"free"},{"bike_id":"a035053b-9701-4f72-9469-04731e85ef5e","system_id":"levelo_inurba_marseille","lat":43.290104,"lon":5.356111,"is_reserved":false,"is_disabled":false,"rental_uris":{"android":"levelo://app?vid=a035053b-9701-4f72-9469-04731e85ef5e","ios":"levelo://app?vid=a035053b-9701-4f72-9469-04731e85ef5e"},"vehicle_type_id":"4","last_reported":1691521500,"current_range_meters":28800,"station_id":"ce4bhb92rcd13ifvqen0","pricing_plan_id":"free"},{"bike_id":"a051219d-a4f1-4967-82da-b1aa1352c07e","system_id":"levelo_inurba_marseille","lat":43.290104,"lon":5.356111,"is_reserved":false,"is_disabled":false,"rental_uris":{"android":"levelo://app?vid=a051219d-a4f1-4967-82da-b1aa1352c07e","ios":"levelo://app?vid=a051219d-a4f1-4967-82da-b1aa1352c07e"},"vehicle_type_id":"4","last_reported":1691521500,"current_range_meters":31600,"station_id":"ce4bhb92rcd13ifvqen0","pricing_plan_id":"free"},{"bike_id":"65d0d39c-009e-47fc-85c5-47bfa2a47e07","system_id":"levelo_inurba_marseille","lat":43.293009,"lon":5.374584,"is_reserved":false,"is_disabled":false,"rental_uris":{"android":"levelo://app?vid=65d0d39c-009e-47fc-85c5-47bfa2a47e07","ios":"levelo://app?vid=65d0d39c-009e-47fc-85c5-47bfa2a47e07"},"vehicle_type_id":"4","last_reported":1691521500,"current_range_meters":12800,"station_id":"ce4bgi12rcd13ifvqb70","pricing_plan_id":"free"},{"bike_id":"d92191b5-3897-428d-989c-4b986c7a7e64","system_id":"levelo_inurba_marseille","lat":43.29001,"lon":5.35607,"is_reserved":false,"is_disabled":false,"rental_uris":{"android":"levelo://app?vid=d92191b5-3897-428d-989c-4b986c7a7e64","ios":"levelo://app?vid=d92191b5-3897-428d-989c-4b986c7a7e64"},"vehicle_type_id":"4","last_reported":1691521500,"current_range_meters":8000,"station_id":"ce4bhb92rcd13ifvqen0","pricing_plan_id":"free"},{"bike_id":"7b78d55e-e99c-4fa7-968a-c672d6912f00","system_id":"levelo_inurba_marseille","lat":43.290103,"lon":5.356114,"is_reserved":false,"is_disabled":false,"rental_uris":{"android":"levelo://app?vid=7b78d55e-e99c-4fa7-968a-c672d6912f00","ios":"levelo://app?vid=7b78d55e-e99c-4fa7-968a-c672d6912f00"},"vehicle_type_id":"4","last_reported":1691521500,"current_range_meters":32000,"station_id":"ce4bhb92rcd13ifvqen0","pricing_plan_id":"free"},{"bike_id":"48fbd06a-2ffa-4c59-a019-dd5bc6161527","system_id":"levelo_inurba_marseille","lat":43.290995,"lon":5.381361,"is_reserved":false,"is_disabled":false,"rental_uris":{"android":"levelo://app?vid=48fbd06a-2ffa-4c59-a019-dd5bc6161527","ios":"levelo://app?vid=48fbd06a-2ffa-4c59-a019-dd5bc6161527"},"vehicle_type_id":"4","last_reported":1691521500,"current_range_meters":8000,"station_id":"ce4bh512rcd13ifvqe2g","pricing_plan_id":"free"},{"bike_id":"714218c8-2d46-4990-9b22-735b250bed85","system_id":"levelo_inurba_marseille","lat":43.29093,"lon":5.38122,"is_reserved":false,"is_disabled":false,"rental_uris":{"android":"levelo://app?vid=714218c8-2d46-4990-9b22-735b250bed85","ios":"levelo://app?vid=714218c8-2d46-4990-9b22-735b250bed85"},"vehicle_type_id":"4","last_reported":1691521500,"current_range_meters":1600,"station_id":"","pricing_plan_id":"free"},{"bike_id":"7c4b8e3a-0250-49ed-9012-6b8bb56c9701","system_id":"levelo_inurba_marseille","lat":43.29099,"lon":5.38151,"is_reserved":false,"is_disabled":false,"rental_uris":{"android":"levelo://app?vid=7c4b8e3a-0250-49ed-9012-6b8bb56c9701","ios":"levelo://app?vid=7c4b8e3a-0250-49ed-9012-6b8bb56c9701"},"vehicle_type_id":"4","last_reported":1691521500,"current_range_meters":0,"station_id":"ce4bh512rcd13ifvqe2g","pricing_plan_id":"free"},{"bike_id":"1472adb5-a44e-4c02-8231-73dad720cf8c","system_id":"levelo_inurba_marseille","lat":43.295169,"lon":5.390426,"is_reserved":false,"is_disabled":false,"rental_uris":{"android":"levelo://app?vid=1472adb5-a44e-4c02-8231-73dad720cf8c","ios":"levelo://app?vid=1472adb5-a44e-4c02-8231-73dad720cf8c"},"vehicle_type_id":"4","last_reported":1691521500,"current_range_meters":15200,"station_id":"ce4bh3p2rcd13ifvqdp0","pricing_plan_id":"free"},{"bike_id":"3366d32b-38b8-4f5b-8e35-e81db990aaae","system_id":"levelo_inurba_marseille","lat":43.29524,"lon":5.3902,"is_reserved":false,"is_disabled":false,"rental_uris":{"android":"levelo://app?vid=3366d32b-38b8-4f5b-8e35-e81db990aaae","ios":"levelo://app?vid=3366d32b-38b8-4f5b-8e35-e81db990aaae"},"vehicle_type_id":"4","last_reported":1691521500,"current_range_meters":12800,"station_id":"ce4bh3p2rcd13ifvqdp0","pricing_plan_id":"free"},{"bike_id":"753ec029-9dfe-4f2f-b2ae-377ee488b80d","system_id":"levelo_inurba_marseille","lat":43.295169,"lon":5.390426,"is_reserved":false,"is_disabled":false,"rental_uris":{"android":"levelo://app?vid=753ec029-9dfe-4f2f-b2ae-377ee488b80d","ios":"levelo://app?vid=753ec029-9dfe-4f2f-b2ae-377ee488b80d"},"vehicle_type_id":"4","last_reported":1691521500,"current_range_meters":25200,"station_id":"ce4bh3p2rcd13ifvqdp0","pricing_plan_id":"free"},{"bike_id":"5bac8f02-e6a1-40f7-a427-530b1b43c369","system_id":"levelo_inurba_marseille","lat":43.2901,"lon":5.381269,"is_reserved":false,"is_disabled":false,"rental_uris":{"android":"levelo://app?vid=5bac8f02-e6a1-40f7-a427-530b1b43c369","ios":"levelo://app?vid=5bac8f02-e6a1-40f7-a427-530b1b43c369"},"vehicle_type_id":"4","last_reported":1691521500,"current_range_meters":13600,"station_id":"ce4bh4p2rcd13ifvqe1g","pricing_plan_id":"free"},{"bike_id":"1ea31090-34e4-48ff-91b5-c3df5481bb60","system_id":"levelo_inurba_marseille","lat":43.2901,"lon":5.381269,"is_reserved":false,"is_disabled":false,"rental_uris":{"android":"levelo://app?vid=1ea31090-34e4-48ff-91b5-c3df5481bb60","ios":"levelo://app?vid=1ea31090-34e4-48ff-91b5-c3df5481bb60"},"vehicle_type_id":"4","last_reported":1691521500,"current_range_meters":0,"station_id":"ce4bh4p2rcd13ifvqe1g","pricing_plan_id":"free"},{"bike_id":"db854c36-eda8-4c81-8543-007ec4c17bc9","system_id":"levelo_inurba_marseille","lat":43.28856,"lon":5.358371,"is_reserved":false,"is_disabled":false,"rental_uris":{"android":"levelo://app?vid=db854c36-eda8-4c81-8543-007ec4c17bc9","ios":"levelo://app?vid=db854c36-eda8-4c81-8543-007ec4c17bc9"},"vehicle_type_id":"4","last_reported":1691521500,"current_range_meters":20800,"station_id":"ce4bhb12rcd13ifvqem0","pricing_plan_id":"free"},{"bike_id":"6c442387-2a42-4c80-9af0-011fc62f309f","system_id":"levelo_inurba_marseille","lat":43.28856,"lon":5.358371,"is_reserved":false,"is_disabled":false,"rental_uris":{"android":"levelo://app?vid=6c442387-2a42-4c80-9af0-011fc62f309f","ios":"levelo://app?vid=6c442387-2a42-4c80-9af0-011fc62f309f"},"vehicle_type_id":"4","last_reported":1691521500,"current_range_meters":4000,"station_id":"ce4bhb12rcd13ifvqem0","pricing_plan_id":"free"},{"bike_id":"984fa2e7-6dea-49d8-9ca8-7c5228029d44","system_id":"levelo_inurba_marseille","lat":43.28856,"lon":5.358371,"is_reserved":false,"is_disabled":false,"rental_uris":{"android":"levelo://app?vid=984fa2e7-6dea-49d8-9ca8-7c5228029d44","ios":"levelo://app?vid=984fa2e7-6dea-49d8-9ca8-7c5228029d44"},"vehicle_type_id":"4","last_reported":1691521500,"current_range_meters":23600,"station_id":"ce4bhb12rcd13ifvqem0","pricing_plan_id":"free"},{"bike_id":"075d1cb8-b477-4654-8f11-9b330daaead8","system_id":"levelo_inurba_marseille","lat":43.31266,"lon":5.40161,"is_reserved":false,"is_disabled":false,"rental_uris":{"android":"levelo://app?vid=075d1cb8-b477-4654-8f11-9b330daaead8","ios":"levelo://app?vid=075d1cb8-b477-4654-8f11-9b330daaead8"},"vehicle_type_id":"4","last_reported":1691521500,"current_range_meters":9200,"station_id":"ce4bh092rcd13ifvqd30","pricing_plan_id":"free"},{"bike_id":"7ccfd2f8-3c21-431a-adf8-948bbc576217","system_id":"levelo_inurba_marseille","lat":43.33019,"lon":5.39199,"is_reserved":false,"is_disabled":false,"rental_uris":{"android":"levelo://app?vid=7ccfd2f8-3c21-431a-adf8-948bbc576217","ios":"levelo://app?vid=7ccfd2f8-3c21-431a-adf8-948bbc576217"},"vehicle_type_id":"4","last_reported":1691521500,"current_range_meters":28000,"station_id":"","pricing_plan_id":"free"},{"bike_id":"4f40c031-abe1-4c28-9993-2a227bee37bb","system_id":"levelo_inurba_marseille","lat":43.30938,"lon":5.40143,"is_reserved":false,"is_disabled":false,"rental_uris":{"android":"levelo://app?vid=4f40c031-abe1-4c28-9993-2a227bee37bb","ios":"levelo://app?vid=4f40c031-abe1-4c28-9993-2a227bee37bb"},"vehicle_type_id":"4","last_reported":1691521500,"current_range_meters":18800,"station_id":"ce4bgvp2rcd13ifvqct0","pricing_plan_id":"free"},{"bike_id":"326458cc-6230-41a2-9f0b-099d7b4f1f04","system_id":"levelo_inurba_marseille","lat":43.30937,"lon":5.40145,"is_reserved":false,"is_disabled":false,"rental_uris":{"android":"levelo://app?vid=326458cc-6230-41a2-9f0b-099d7b4f1f04","ios":"levelo://app?vid=326458cc-6230-41a2-9f0b-099d7b4f1f04"},"vehicle_type_id":"4","last_reported":1691521500,"current_range_meters":10800,"station_id":"ce4bgvp2rcd13ifvqct0","pricing_plan_id":"free"},{"bike_id":"80bcf0c8-fce0-4451-a240-8e4ef33c366e","system_id":"levelo_inurba_marseille","lat":43.309371,"lon":5.401449,"is_reserved":false,"is_disabled":false,"rental_uris":{"android":"levelo://app?vid=80bcf0c8-fce0-4451-a240-8e4ef33c366e","ios":"levelo://app?vid=80bcf0c8-fce0-4451-a240-8e4ef33c366e"},"vehicle_type_id":"4","last_reported":1691521500,"current_range_meters":19200,"station_id":"ce4bgvp2rcd13ifvqct0","pricing_plan_id":"free"},{"bike_id":"d41466e4-2f56-4759-8508-989473e4c54b","system_id":"levelo_inurba_marseille","lat":43.30939,"lon":5.40146,"is_reserved":false,"is_disabled":false,"rental_uris":{"android":"levelo://app?vid=d41466e4-2f56-4759-8508-989473e4c54b","ios":"levelo://app?vid=d41466e4-2f56-4759-8508-989473e4c54b"},"vehicle_type_id":"4","last_reported":1691521500,"current_range_meters":5200,"station_id":"ce4bgvp2rcd13ifvqct0","pricing_plan_id":"free"},{"bike_id":"8fb16971-4505-4d00-b97e-a2aa6fa66f80","system_id":"levelo_inurba_marseille","lat":43.309371,"lon":5.401449,"is_reserved":false,"is_disabled":false,"rental_uris":{"android":"levelo://app?vid=8fb16971-4505-4d00-b97e-a2aa6fa66f80","ios":"levelo://app?vid=8fb16971-4505-4d00-b97e-a2aa6fa66f80"},"vehicle_type_id":"4","last_reported":1691521500,"current_range_meters":9600,"station_id":"ce4bgvp2rcd13ifvqct0","pricing_plan_id":"free"},{"bike_id":"b0634c9b-42bc-4ae8-b933-59225681d5a8","system_id":"levelo_inurba_marseille","lat":43.317121,"lon":5.423936,"is_reserved":false,"is_disabled":false,"rental_uris":{"android":"levelo://app?vid=b0634c9b-42bc-4ae8-b933-59225681d5a8","ios":"levelo://app?vid=b0634c9b-42bc-4ae8-b933-59225681d5a8"},"vehicle_type_id":"4","last_reported":1691521500,"current_range_meters":31200,"station_id":"ce4bhp92rcd13ifvqhbg","pricing_plan_id":"free"},{"bike_id":"3e5d8ff6-f73b-45c2-b3f1-71ca35c9274a","system_id":"levelo_inurba_marseille","lat":43.301117,"lon":5.398795,"is_reserved":false,"is_disabled":false,"rental_uris":{"android":"levelo://app?vid=3e5d8ff6-f73b-45c2-b3f1-71ca35c9274a","ios":"levelo://app?vid=3e5d8ff6-f73b-45c2-b3f1-71ca35c9274a"},"vehicle_type_id":"4","last_reported":1691521500,"current_range_meters":27600,"station_id":"ce4bh0h2rcd13ifvqd40","pricing_plan_id":"free"},{"bike_id":"0e9a8b55-bdc1-48be-b0e2-19c3d250e0ee","system_id":"levelo_inurba_marseille","lat":43.301117,"lon":5.398795,"is_reserved":false,"is_disabled":false,"rental_uris":{"android":"levelo://app?vid=0e9a8b55-bdc1-48be-b0e2-19c3d250e0ee","ios":"levelo://app?vid=0e9a8b55-bdc1-48be-b0e2-19c3d250e0ee"},"vehicle_type_id":"4","last_reported":1691521500,"current_range_meters":18800,"station_id":"ce4bh0h2rcd13ifvqd40","pricing_plan_id":"free"},{"bike_id":"69baa21c-d050-4401-bea8-723c436593c1","system_id":"levelo_inurba_marseille","lat":43.301117,"lon":5.398795,"is_reserved":false,"is_disabled":false,"rental_uris":{"android":"levelo://app?vid=69baa21c-d050-4401-bea8-723c436593c1","ios":"levelo://app?vid=69baa21c-d050-4401-bea8-723c436593c1"},"vehicle_type_id":"4","last_reported":1691521500,"current_range_meters":8000,"station_id":"ce4bh0h2rcd13ifvqd40","pricing_plan_id":"free"},{"bike_id":"3585088c-1fad-4eca-b223-780202197d91","system_id":"levelo_inurba_marseille","lat":43.33003,"lon":5.39341,"is_reserved":false,"is_disabled":false,"rental_uris":{"android":"levelo://app?vid=3585088c-1fad-4eca-b223-780202197d91","ios":"levelo://app?vid=3585088c-1fad-4eca-b223-780202197d91"},"vehicle_type_id":"4","last_reported":1691521500,"current_range_meters":12000,"station_id":"","pricing_plan_id":"free"},{"bike_id":"75199276-b705-4ad7-b6a9-49aeaa84628a","system_id":"levelo_inurba_marseille","lat":43.286591,"lon":5.363346,"is_reserved":false,"is_disabled":false,"rental_uris":{"android":"levelo://app?vid=75199276-b705-4ad7-b6a9-49aeaa84628a","ios":"levelo://app?vid=75199276-b705-4ad7-b6a9-49aeaa84628a"},"vehicle_type_id":"4","last_reported":1691521500,"current_range_meters":31200,"station_id":"ce4bhah2rcd13ifvqej0","pricing_plan_id":"free"},{"bike_id":"6c8f5daa-51e7-47ca-b21a-e76b0ee0417c","system_id":"levelo_inurba_marseille","lat":43.28708,"lon":5.37389,"is_reserved":false,"is_disabled":false,"rental_uris":{"android":"levelo://app?vid=6c8f5daa-51e7-47ca-b21a-e76b0ee0417c","ios":"levelo://app?vid=6c8f5daa-51e7-47ca-b21a-e76b0ee0417c"},"vehicle_type_id":"4","last_reported":1691521500,"current_range_meters":20800,"station_id":"","pricing_plan_id":"free"},{"bike_id":"f34a9f62-4c24-4052-adeb-89e5b6d11615","system_id":"levelo_inurba_marseille","lat":43.295194,"lon":5.39397,"is_reserved":false,"is_disabled":false,"rental_uris":{"android":"levelo://app?vid=f34a9f62-4c24-4052-adeb-89e5b6d11615","ios":"levelo://app?vid=f34a9f62-4c24-4052-adeb-89e5b6d11615"},"vehicle_type_id":"4","last_reported":1691521500,"current_range_meters":11600,"station_id":"ce4bh292rcd13ifvqdf0","pricing_plan_id":"free"},{"bike_id":"d466e233-dc5d-4f30-92da-328d639a63c2","system_id":"levelo_inurba_marseille","lat":43.28697,"lon":5.37389,"is_reserved":false,"is_disabled":false,"rental_uris":{"android":"levelo://app?vid=d466e233-dc5d-4f30-92da-328d639a63c2","ios":"levelo://app?vid=d466e233-dc5d-4f30-92da-328d639a63c2"},"vehicle_type_id":"4","last_reported":1691521500,"current_range_meters":21600,"station_id":"ce4bh3p2rcd13ifvqdq0","pricing_plan_id":"free"},{"bike_id":"946c6c61-66c5-4d4a-b725-039127878f17","system_id":"levelo_inurba_marseille","lat":43.29531,"lon":5.39402,"is_reserved":false,"is_disabled":false,"rental_uris":{"android":"levelo://app?vid=946c6c61-66c5-4d4a-b725-039127878f17","ios":"levelo://app?vid=946c6c61-66c5-4d4a-b725-039127878f17"},"vehicle_type_id":"4","last_reported":1691521500,"current_range_meters":18800,"station_id":"","pricing_plan_id":"free"},{"bike_id":"1d7b021f-8fb9-4177-8823-53dc0687f7b7","system_id":"levelo_inurba_marseille","lat":43.302759,"lon":5.400793,"is_reserved":false,"is_disabled":false,"rental_uris":{"android":"levelo://app?vid=1d7b021f-8fb9-4177-8823-53dc0687f7b7","ios":"levelo://app?vid=1d7b021f-8fb9-4177-8823-53dc0687f7b7"},"vehicle_type_id":"4","last_reported":1691521500,"current_range_meters":3600,"station_id":"ce4bgvh2rcd13ifvqcs0","pricing_plan_id":"free"},{"bike_id":"4f9b6c54-ed41-4526-8718-7fed03f8355d","system_id":"levelo_inurba_marseille","lat":43.302759,"lon":5.400793,"is_reserved":false,"is_disabled":false,"rental_uris":{"android":"levelo://app?vid=4f9b6c54-ed41-4526-8718-7fed03f8355d","ios":"levelo://app?vid=4f9b6c54-ed41-4526-8718-7fed03f8355d"},"vehicle_type_id":"4","last_reported":1691521500,"current_range_meters":11600,"station_id":"ce4bgvh2rcd13ifvqcs0","pricing_plan_id":"free"},{"bike_id":"7b9e2d57-7c2f-4652-8ec0-ee4d147afe24","system_id":"levelo_inurba_marseille","lat":43.302548,"lon":5.400568,"is_reserved":false,"is_disabled":false,"rental_uris":{"android":"levelo://app?vid=7b9e2d57-7c2f-4652-8ec0-ee4d147afe24","ios":"levelo://app?vid=7b9e2d57-7c2f-4652-8ec0-ee4d147afe24"},"vehicle_type_id":"4","last_reported":1691521500,"current_range_meters":0,"station_id":"","pricing_plan_id":"free"},{"bike_id":"60610cee-995c-4fab-8344-d9a0c8f08290","system_id":"levelo_inurba_marseille","lat":43.302759,"lon":5.400793,"is_reserved":false,"is_disabled":false,"rental_uris":{"android":"levelo://app?vid=60610cee-995c-4fab-8344-d9a0c8f08290","ios":"levelo://app?vid=60610cee-995c-4fab-8344-d9a0c8f08290"},"vehicle_type_id":"4","last_reported":1691521500,"current_range_meters":12000,"station_id":"ce4bgvh2rcd13ifvqcs0","pricing_plan_id":"free"},{"bike_id":"3812857a-3d22-45e1-9611-a32cf81adc1f","system_id":"levelo_inurba_marseille","lat":43.290336,"lon":5.386425,"is_reserved":false,"is_disabled":false,"rental_uris":{"android":"levelo://app?vid=3812857a-3d22-45e1-9611-a32cf81adc1f","ios":"levelo://app?vid=3812857a-3d22-45e1-9611-a32cf81adc1f"},"vehicle_type_id":"4","last_reported":1691521500,"current_range_meters":8800,"station_id":"ce4bh4p2rcd13ifvqe0g","pricing_plan_id":"free"},{"bike_id":"9226dc02-ebf0-4cac-ab50-1e99ef25764c","system_id":"levelo_inurba_marseille","lat":43.290336,"lon":5.386425,"is_reserved":false,"is_disabled":false,"rental_uris":{"android":"levelo://app?vid=9226dc02-ebf0-4cac-ab50-1e99ef25764c","ios":"levelo://app?vid=9226dc02-ebf0-4cac-ab50-1e99ef25764c"},"vehicle_type_id":"4","last_reported":1691521500,"current_range_meters":28800,"station_id":"ce4bh4p2rcd13ifvqe0g","pricing_plan_id":"free"},{"bike_id":"05eca100-da2a-41c7-83a8-b9a98b943877","system_id":"levelo_inurba_marseille","lat":43.290336,"lon":5.386425,"is_reserved":false,"is_disabled":false,"rental_uris":{"android":"levelo://app?vid=05eca100-da2a-41c7-83a8-b9a98b943877","ios":"levelo://app?vid=05eca100-da2a-41c7-83a8-b9a98b943877"},"vehicle_type_id":"4","last_reported":1691521500,"current_range_meters":0,"station_id":"ce4bh4p2rcd13ifvqe0g","pricing_plan_id":"free"},{"bike_id":"c9035ee1-15a7-45eb-8392-3cd24d415d60","system_id":"levelo_inurba_marseille","lat":43.290336,"lon":5.386425,"is_reserved":false,"is_disabled":false,"rental_uris":{"android":"levelo://app?vid=c9035ee1-15a7-45eb-8392-3cd24d415d60","ios":"levelo://app?vid=c9035ee1-15a7-45eb-8392-3cd24d415d60"},"vehicle_type_id":"4","last_reported":1691521500,"current_range_meters":19600,"station_id":"ce4bh4p2rcd13ifvqe0g","pricing_plan_id":"free"},{"bike_id":"534080de-14cc-41f5-846b-4f44d09c2091","system_id":"levelo_inurba_marseille","lat":43.290336,"lon":5.386425,"is_reserved":false,"is_disabled":false,"rental_uris":{"android":"levelo://app?vid=534080de-14cc-41f5-846b-4f44d09c2091","ios":"levelo://app?vid=534080de-14cc-41f5-846b-4f44d09c2091"},"vehicle_type_id":"4","last_reported":1691521500,"current_range_meters":0,"station_id":"ce4bh4p2rcd13ifvqe0g","pricing_plan_id":"free"},{"bike_id":"98033b90-36e7-4a88-abf6-fec41b4574fe","system_id":"levelo_inurba_marseille","lat":43.28613,"lon":5.37059,"is_reserved":false,"is_disabled":false,"rental_uris":{"android":"levelo://app?vid=98033b90-36e7-4a88-abf6-fec41b4574fe","ios":"levelo://app?vid=98033b90-36e7-4a88-abf6-fec41b4574fe"},"vehicle_type_id":"4","last_reported":1691521500,"current_range_meters":16400,"station_id":"ce4bht12rcd13ifvqi60","pricing_plan_id":"free"},{"bike_id":"838e654c-d17f-494a-a3d5-f0855056275f","system_id":"levelo_inurba_marseille","lat":43.286039,"lon":5.370679,"is_reserved":false,"is_disabled":false,"rental_uris":{"android":"levelo://app?vid=838e654c-d17f-494a-a3d5-f0855056275f","ios":"levelo://app?vid=838e654c-d17f-494a-a3d5-f0855056275f"},"vehicle_type_id":"4","last_reported":1691521500,"current_range_meters":1600,"station_id":"ce4bht12rcd13ifvqi60","pricing_plan_id":"free"},{"bike_id":"ce2e1f2a-26d1-48ab-9f18-0d221b2d5791","system_id":"levelo_inurba_marseille","lat":43.28609,"lon":5.37064,"is_reserved":false,"is_disabled":false,"rental_uris":{"android":"levelo://app?vid=ce2e1f2a-26d1-48ab-9f18-0d221b2d5791","ios":"levelo://app?vid=ce2e1f2a-26d1-48ab-9f18-0d221b2d5791"},"vehicle_type_id":"4","last_reported":1691521500,"current_range_meters":16800,"station_id":"ce4bht12rcd13ifvqi60","pricing_plan_id":"free"},{"bike_id":"f52b2a60-5f8e-4941-b2f9-ffd348bb06be","system_id":"levelo_inurba_marseille","lat":43.286039,"lon":5.370679,"is_reserved":false,"is_disabled":false,"rental_uris":{"android":"levelo://app?vid=f52b2a60-5f8e-4941-b2f9-ffd348bb06be","ios":"levelo://app?vid=f52b2a60-5f8e-4941-b2f9-ffd348bb06be"},"vehicle_type_id":"4","last_reported":1691521500,"current_range_meters":12400,"station_id":"ce4bht12rcd13ifvqi60","pricing_plan_id":"free"},{"bike_id":"5cc2c215-6ffa-4fe5-814e-a10d8b7c764a","system_id":"levelo_inurba_marseille","lat":43.28609,"lon":5.37073,"is_reserved":false,"is_disabled":false,"rental_uris":{"android":"levelo://app?vid=5cc2c215-6ffa-4fe5-814e-a10d8b7c764a","ios":"levelo://app?vid=5cc2c215-6ffa-4fe5-814e-a10d8b7c764a"},"vehicle_type_id":"4","last_reported":1691521500,"current_range_meters":10800,"station_id":"ce4bht12rcd13ifvqi60","pricing_plan_id":"free"},{"bike_id":"62b42214-fbe5-40ed-9f0e-f0c895f498bd","system_id":"levelo_inurba_marseille","lat":43.28608,"lon":5.3706,"is_reserved":false,"is_disabled":false,"rental_uris":{"android":"levelo://app?vid=62b42214-fbe5-40ed-9f0e-f0c895f498bd","ios":"levelo://app?vid=62b42214-fbe5-40ed-9f0e-f0c895f498bd"},"vehicle_type_id":"4","last_reported":1691521500,"current_range_meters":10000,"station_id":"ce4bht12rcd13ifvqi60","pricing_plan_id":"free"},{"bike_id":"96f4aaee-96ea-45ae-be0e-f2cd8c7529bb","system_id":"levelo_inurba_marseille","lat":43.28608,"lon":5.37061,"is_reserved":false,"is_disabled":false,"rental_uris":{"android":"levelo://app?vid=96f4aaee-96ea-45ae-be0e-f2cd8c7529bb","ios":"levelo://app?vid=96f4aaee-96ea-45ae-be0e-f2cd8c7529bb"},"vehicle_type_id":"4","last_reported":1691521500,"current_range_meters":18800,"station_id":"ce4bht12rcd13ifvqi60","pricing_plan_id":"free"},{"bike_id":"f73b60c3-ea6d-421b-988f-134a64a3fbac","system_id":"levelo_inurba_marseille","lat":43.286039,"lon":5.370679,"is_reserved":false,"is_disabled":false,"rental_uris":{"android":"levelo://app?vid=f73b60c3-ea6d-421b-988f-134a64a3fbac","ios":"levelo://app?vid=f73b60c3-ea6d-421b-988f-134a64a3fbac"},"vehicle_type_id":"4","last_reported":1691521500,"current_range_meters":31200,"station_id":"ce4bht12rcd13ifvqi60","pricing_plan_id":"free"},{"bike_id":"221fe85b-ea96-47ee-9922-b69a2109429d","system_id":"levelo_inurba_marseille","lat":43.286039,"lon":5.370679,"is_reserved":false,"is_disabled":false,"rental_uris":{"android":"levelo://app?vid=221fe85b-ea96-47ee-9922-b69a2109429d","ios":"levelo://app?vid=221fe85b-ea96-47ee-9922-b69a2109429d"},"vehicle_type_id":"4","last_reported":1691521500,"current_range_meters":0,"station_id":"ce4bht12rcd13ifvqi60","pricing_plan_id":"free"},{"bike_id":"f8f17a3a-3eca-4c72-99f5-8058852cc2a4","system_id":"levelo_inurba_marseille","lat":43.286039,"lon":5.370681,"is_reserved":false,"is_disabled":false,"rental_uris":{"android":"levelo://app?vid=f8f17a3a-3eca-4c72-99f5-8058852cc2a4","ios":"levelo://app?vid=f8f17a3a-3eca-4c72-99f5-8058852cc2a4"},"vehicle_type_id":"4","last_reported":1691521500,"current_range_meters":25200,"station_id":"ce4bht12rcd13ifvqi60","pricing_plan_id":"free"},{"bike_id":"a4e9e027-01c1-4d50-b0e6-52ade52af8ba","system_id":"levelo_inurba_marseille","lat":43.28607,"lon":5.37066,"is_reserved":false,"is_disabled":false,"rental_uris":{"android":"levelo://app?vid=a4e9e027-01c1-4d50-b0e6-52ade52af8ba","ios":"levelo://app?vid=a4e9e027-01c1-4d50-b0e6-52ade52af8ba"},"vehicle_type_id":"4","last_reported":1691521500,"current_range_meters":21600,"station_id":"ce4bht12rcd13ifvqi60","pricing_plan_id":"free"},{"bike_id":"0573659b-ae43-48a9-94d8-c03faeb1ead8","system_id":"levelo_inurba_marseille","lat":43.291994,"lon":5.392907,"is_reserved":false,"is_disabled":false,"rental_uris":{"android":"levelo://app?vid=0573659b-ae43-48a9-94d8-c03faeb1ead8","ios":"levelo://app?vid=0573659b-ae43-48a9-94d8-c03faeb1ead8"},"vehicle_type_id":"4","last_reported":1691521500,"current_range_meters":15600,"station_id":"ce4bh192rcd13ifvqdd0","pricing_plan_id":"free"},{"bike_id":"9c29a799-aeed-41e7-96c0-226f062ddc46","system_id":"levelo_inurba_marseille","lat":43.29449,"lon":5.39756,"is_reserved":false,"is_disabled":false,"rental_uris":{"android":"levelo://app?vid=9c29a799-aeed-41e7-96c0-226f062ddc46","ios":"levelo://app?vid=9c29a799-aeed-41e7-96c0-226f062ddc46"},"vehicle_type_id":"4","last_reported":1691521500,"current_range_meters":1200,"station_id":"ce4bh3h2rcd13ifvqdo0","pricing_plan_id":"free"},{"bike_id":"01447df1-b30b-4f5d-858e-620d51c16def","system_id":"levelo_inurba_marseille","lat":43.28617,"lon":5.35106,"is_reserved":false,"is_disabled":false,"rental_uris":{"android":"levelo://app?vid=01447df1-b30b-4f5d-858e-620d51c16def","ios":"levelo://app?vid=01447df1-b30b-4f5d-858e-620d51c16def"},"vehicle_type_id":"4","last_reported":1691521500,"current_range_meters":31200,"station_id":"ce4bhch2rcd13ifvqeug","pricing_plan_id":"free"},{"bike_id":"df283b23-cd44-4d64-9745-0fbd465e2d95","system_id":"levelo_inurba_marseille","lat":43.286135,"lon":5.351052,"is_reserved":false,"is_disabled":false,"rental_uris":{"android":"levelo://app?vid=df283b23-cd44-4d64-9745-0fbd465e2d95","ios":"levelo://app?vid=df283b23-cd44-4d64-9745-0fbd465e2d95"},"vehicle_type_id":"4","last_reported":1691521500,"current_range_meters":31200,"station_id":"ce4bhch2rcd13ifvqeug","pricing_plan_id":"free"},{"bike_id":"7d357873-015f-417e-bdab-4b076284a54e","system_id":"levelo_inurba_marseille","lat":43.28424,"lon":5.37516,"is_reserved":false,"is_disabled":false,"rental_uris":{"android":"levelo://app?vid=7d357873-015f-417e-bdab-4b076284a54e","ios":"levelo://app?vid=7d357873-015f-417e-bdab-4b076284a54e"},"vehicle_type_id":"4","last_reported":1691521500,"current_range_meters":0,"station_id":"ce4bh412rcd13ifvqds0","pricing_plan_id":"free"},{"bike_id":"74869cd0-1a8c-41a1-aa85-0996725c5de1","system_id":"levelo_inurba_marseille","lat":43.2841,"lon":5.37496,"is_reserved":false,"is_disabled":false,"rental_uris":{"android":"levelo://app?vid=74869cd0-1a8c-41a1-aa85-0996725c5de1","ios":"levelo://app?vid=74869cd0-1a8c-41a1-aa85-0996725c5de1"},"vehicle_type_id":"4","last_reported":1691521500,"current_range_meters":22800,"station_id":"ce4bh412rcd13ifvqds0","pricing_plan_id":"free"},{"bike_id":"12d59836-e2c9-4246-8e3d-e55373e2174d","system_id":"levelo_inurba_marseille","lat":43.28411,"lon":5.37509,"is_reserved":false,"is_disabled":false,"rental_uris":{"android":"levelo://app?vid=12d59836-e2c9-4246-8e3d-e55373e2174d","ios":"levelo://app?vid=12d59836-e2c9-4246-8e3d-e55373e2174d"},"vehicle_type_id":"4","last_reported":1691521500,"current_range_meters":0,"station_id":"ce4bh412rcd13ifvqds0","pricing_plan_id":"free"},{"bike_id":"27ba3a6e-fcb3-41f3-a218-01f1bb2a8245","system_id":"levelo_inurba_marseille","lat":43.283998,"lon":5.375062,"is_reserved":false,"is_disabled":false,"rental_uris":{"android":"levelo://app?vid=27ba3a6e-fcb3-41f3-a218-01f1bb2a8245","ios":"levelo://app?vid=27ba3a6e-fcb3-41f3-a218-01f1bb2a8245"},"vehicle_type_id":"4","last_reported":1691521500,"current_range_meters":30800,"station_id":"ce4bh412rcd13ifvqds0","pricing_plan_id":"free"},{"bike_id":"edf0a53e-8231-451c-9ca7-4deb67fbeab1","system_id":"levelo_inurba_marseille","lat":43.28407,"lon":5.37503,"is_reserved":false,"is_disabled":false,"rental_uris":{"android":"levelo://app?vid=edf0a53e-8231-451c-9ca7-4deb67fbeab1","ios":"levelo://app?vid=edf0a53e-8231-451c-9ca7-4deb67fbeab1"},"vehicle_type_id":"4","last_reported":1691521500,"current_range_meters":26800,"station_id":"ce4bh412rcd13ifvqds0","pricing_plan_id":"free"},{"bike_id":"79d7ef4c-98bf-415f-a155-3aede6cb11b8","system_id":"levelo_inurba_marseille","lat":43.28584,"lon":5.3508,"is_reserved":false,"is_disabled":false,"rental_uris":{"android":"levelo://app?vid=79d7ef4c-98bf-415f-a155-3aede6cb11b8","ios":"levelo://app?vid=79d7ef4c-98bf-415f-a155-3aede6cb11b8"},"vehicle_type_id":"4","last_reported":1691521500,"current_range_meters":22000,"station_id":"ce4bhch2rcd13ifvqeug","pricing_plan_id":"free"},{"bike_id":"d1046bd0-b28c-43bd-96a9-79fb249a0f0c","system_id":"levelo_inurba_marseille","lat":43.283998,"lon":5.375062,"is_reserved":false,"is_disabled":false,"rental_uris":{"android":"levelo://app?vid=d1046bd0-b28c-43bd-96a9-79fb249a0f0c","ios":"levelo://app?vid=d1046bd0-b28c-43bd-96a9-79fb249a0f0c"},"vehicle_type_id":"4","last_reported":1691521500,"current_range_meters":4800,"station_id":"ce4bh412rcd13ifvqds0","pricing_plan_id":"free"},{"bike_id":"c37d4a7a-6924-4de3-b1f0-282f81fabd95","system_id":"levelo_inurba_marseille","lat":43.286595,"lon":5.386795,"is_reserved":false,"is_disabled":false,"rental_uris":{"android":"levelo://app?vid=c37d4a7a-6924-4de3-b1f0-282f81fabd95","ios":"levelo://app?vid=c37d4a7a-6924-4de3-b1f0-282f81fabd95"},"vehicle_type_id":"4","last_reported":1691521500,"current_range_meters":22800,"station_id":"ce4bh492rcd13ifvqdug","pricing_plan_id":"free"},{"bike_id":"fe7de633-f835-4014-95cb-a4b4a55af940","system_id":"levelo_inurba_marseille","lat":43.286595,"lon":5.386795,"is_reserved":false,"is_disabled":false,"rental_uris":{"android":"levelo://app?vid=fe7de633-f835-4014-95cb-a4b4a55af940","ios":"levelo://app?vid=fe7de633-f835-4014-95cb-a4b4a55af940"},"vehicle_type_id":"4","last_reported":1691521500,"current_range_meters":0,"station_id":"ce4bh492rcd13ifvqdug","pricing_plan_id":"free"},{"bike_id":"7feb13d3-4b80-4fb8-b30c-621184b6bf00","system_id":"levelo_inurba_marseille","lat":43.28669,"lon":5.38666,"is_reserved":false,"is_disabled":false,"rental_uris":{"android":"levelo://app?vid=7feb13d3-4b80-4fb8-b30c-621184b6bf00","ios":"levelo://app?vid=7feb13d3-4b80-4fb8-b30c-621184b6bf00"},"vehicle_type_id":"4","last_reported":1691521500,"current_range_meters":7600,"station_id":"ce4bh492rcd13ifvqdug","pricing_plan_id":"free"},{"bike_id":"8f1e53bc-1087-4d56-adeb-5c77ac7ccdc6","system_id":"levelo_inurba_marseille","lat":43.286595,"lon":5.386795,"is_reserved":false,"is_disabled":false,"rental_uris":{"android":"levelo://app?vid=8f1e53bc-1087-4d56-adeb-5c77ac7ccdc6","ios":"levelo://app?vid=8f1e53bc-1087-4d56-adeb-5c77ac7ccdc6"},"vehicle_type_id":"4","last_reported":1691521500,"current_range_meters":2000,"station_id":"ce4bh492rcd13ifvqdug","pricing_plan_id":"free"},{"bike_id":"baaca672-c198-461c-ba32-114a8a294884","system_id":"levelo_inurba_marseille","lat":43.33721,"lon":5.39182,"is_reserved":false,"is_disabled":false,"rental_uris":{"android":"levelo://app?vid=baaca672-c198-461c-ba32-114a8a294884","ios":"levelo://app?vid=baaca672-c198-461c-ba32-114a8a294884"},"vehicle_type_id":"4","last_reported":1691521500,"current_range_meters":29200,"station_id":"ce4bhr92rcd13ifvqhsg","pricing_plan_id":"free"},{"bike_id":"b1a8d3df-9052-4a1b-9a68-5b1f5da99dc3","system_id":"levelo_inurba_marseille","lat":43.323464,"lon":5.406297,"is_reserved":false,"is_disabled":false,"rental_uris":{"android":"levelo://app?vid=b1a8d3df-9052-4a1b-9a68-5b1f5da99dc3","ios":"levelo://app?vid=b1a8d3df-9052-4a1b-9a68-5b1f5da99dc3"},"vehicle_type_id":"4","last_reported":1691521500,"current_range_meters":9600,"station_id":"ce4bhq92rcd13ifvqhjg","pricing_plan_id":"free"},{"bike_id":"f9553fab-da8a-40f6-ac75-eac9a93c1399","system_id":"levelo_inurba_marseille","lat":43.33721,"lon":5.39188,"is_reserved":false,"is_disabled":false,"rental_uris":{"android":"levelo://app?vid=f9553fab-da8a-40f6-ac75-eac9a93c1399","ios":"levelo://app?vid=f9553fab-da8a-40f6-ac75-eac9a93c1399"},"vehicle_type_id":"4","last_reported":1691521500,"current_range_meters":20400,"station_id":"ce4bhr92rcd13ifvqhsg","pricing_plan_id":"free"},{"bike_id":"c1c36742-594e-4942-8b1b-16f98a15fa5e","system_id":"levelo_inurba_marseille","lat":43.323464,"lon":5.406297,"is_reserved":false,"is_disabled":false,"rental_uris":{"android":"levelo://app?vid=c1c36742-594e-4942-8b1b-16f98a15fa5e","ios":"levelo://app?vid=c1c36742-594e-4942-8b1b-16f98a15fa5e"},"vehicle_type_id":"4","last_reported":1691521500,"current_range_meters":32000,"station_id":"ce4bhq92rcd13ifvqhjg","pricing_plan_id":"free"},{"bike_id":"9e8e53b5-93b7-49de-a9a5-ac7e6fb1156e","system_id":"levelo_inurba_marseille","lat":43.323464,"lon":5.406297,"is_reserved":false,"is_disabled":false,"rental_uris":{"android":"levelo://app?vid=9e8e53b5-93b7-49de-a9a5-ac7e6fb1156e","ios":"levelo://app?vid=9e8e53b5-93b7-49de-a9a5-ac7e6fb1156e"},"vehicle_type_id":"4","last_reported":1691521500,"current_range_meters":31600,"station_id":"ce4bhq92rcd13ifvqhjg","pricing_plan_id":"free"},{"bike_id":"8ffd9567-7128-4da5-a784-2961d58d75f5","system_id":"levelo_inurba_marseille","lat":43.33727,"lon":5.39181,"is_reserved":false,"is_disabled":false,"rental_uris":{"android":"levelo://app?vid=8ffd9567-7128-4da5-a784-2961d58d75f5","ios":"levelo://app?vid=8ffd9567-7128-4da5-a784-2961d58d75f5"},"vehicle_type_id":"4","last_reported":1691521500,"current_range_meters":30800,"station_id":"ce4bhr92rcd13ifvqhsg","pricing_plan_id":"free"},{"bike_id":"b87f01e5-33e8-4805-97b7-2d1d17bcf518","system_id":"levelo_inurba_marseille","lat":43.323464,"lon":5.406297,"is_reserved":false,"is_disabled":false,"rental_uris":{"android":"levelo://app?vid=b87f01e5-33e8-4805-97b7-2d1d17bcf518","ios":"levelo://app?vid=b87f01e5-33e8-4805-97b7-2d1d17bcf518"},"vehicle_type_id":"4","last_reported":1691521500,"current_range_meters":6800,"station_id":"ce4bhq92rcd13ifvqhjg","pricing_plan_id":"free"},{"bike_id":"93b3c431-4b8e-4a6c-aad9-d6499ab6407b","system_id":"levelo_inurba_marseille","lat":43.323464,"lon":5.406297,"is_reserved":false,"is_disabled":false,"rental_uris":{"android":"levelo://app?vid=93b3c431-4b8e-4a6c-aad9-d6499ab6407b","ios":"levelo://app?vid=93b3c431-4b8e-4a6c-aad9-d6499ab6407b"},"vehicle_type_id":"4","last_reported":1691521500,"current_range_meters":32000,"station_id":"ce4bhq92rcd13ifvqhjg","pricing_plan_id":"free"},{"bike_id":"4e4c076c-5e9e-4892-8ee0-387ffc04227f","system_id":"levelo_inurba_marseille","lat":43.323464,"lon":5.406297,"is_reserved":false,"is_disabled":false,"rental_uris":{"android":"levelo://app?vid=4e4c076c-5e9e-4892-8ee0-387ffc04227f","ios":"levelo://app?vid=4e4c076c-5e9e-4892-8ee0-387ffc04227f"},"vehicle_type_id":"4","last_reported":1691521500,"current_range_meters":12800,"station_id":"ce4bhq92rcd13ifvqhjg","pricing_plan_id":"free"},{"bike_id":"ea3ec417-957d-4686-829a-3567789d3db2","system_id":"levelo_inurba_marseille","lat":43.323464,"lon":5.406297,"is_reserved":false,"is_disabled":false,"rental_uris":{"android":"levelo://app?vid=ea3ec417-957d-4686-829a-3567789d3db2","ios":"levelo://app?vid=ea3ec417-957d-4686-829a-3567789d3db2"},"vehicle_type_id":"4","last_reported":1691521500,"current_range_meters":23600,"station_id":"ce4bhq92rcd13ifvqhjg","pricing_plan_id":"free"},{"bike_id":"7258caf8-00ef-41b3-a8ce-d1580350bbf4","system_id":"levelo_inurba_marseille","lat":43.284793,"lon":5.384119,"is_reserved":false,"is_disabled":false,"rental_uris":{"android":"levelo://app?vid=7258caf8-00ef-41b3-a8ce-d1580350bbf4","ios":"levelo://app?vid=7258caf8-00ef-41b3-a8ce-d1580350bbf4"},"vehicle_type_id":"4","last_reported":1691521500,"current_range_meters":26000,"station_id":"ce4bh512rcd13ifvqe3g","pricing_plan_id":"free"},{"bike_id":"31ce2699-3a85-4e49-89b5-ba768fcd9e90","system_id":"levelo_inurba_marseille","lat":43.29795,"lon":5.40406,"is_reserved":false,"is_disabled":false,"rental_uris":{"android":"levelo://app?vid=31ce2699-3a85-4e49-89b5-ba768fcd9e90","ios":"levelo://app?vid=31ce2699-3a85-4e49-89b5-ba768fcd9e90"},"vehicle_type_id":"4","last_reported":1691521500,"current_range_meters":12400,"station_id":"","pricing_plan_id":"free"},{"bike_id":"7e7c7579-6113-4bc4-b82f-ab65ae5a283d","system_id":"levelo_inurba_marseille","lat":43.28341,"lon":5.38116,"is_reserved":false,"is_disabled":false,"rental_uris":{"android":"levelo://app?vid=7e7c7579-6113-4bc4-b82f-ab65ae5a283d","ios":"levelo://app?vid=7e7c7579-6113-4bc4-b82f-ab65ae5a283d"},"vehicle_type_id":"4","last_reported":1691521500,"current_range_meters":18400,"station_id":"ce4bh412rcd13ifvqdr0","pricing_plan_id":"free"},{"bike_id":"7d6bfb46-05b5-41ca-959c-fbab5ec95888","system_id":"levelo_inurba_marseille","lat":43.32384,"lon":5.40847,"is_reserved":false,"is_disabled":false,"rental_uris":{"android":"levelo://app?vid=7d6bfb46-05b5-41ca-959c-fbab5ec95888","ios":"levelo://app?vid=7d6bfb46-05b5-41ca-959c-fbab5ec95888"},"vehicle_type_id":"4","last_reported":1691521500,"current_range_meters":22400,"station_id":"","pricing_plan_id":"free"},{"bike_id":"e3faf6c6-5cda-44c6-a542-999e9cfaf8a6","system_id":"levelo_inurba_marseille","lat":43.32381,"lon":5.40849,"is_reserved":false,"is_disabled":false,"rental_uris":{"android":"levelo://app?vid=e3faf6c6-5cda-44c6-a542-999e9cfaf8a6","ios":"levelo://app?vid=e3faf6c6-5cda-44c6-a542-999e9cfaf8a6"},"vehicle_type_id":"4","last_reported":1691521500,"current_range_meters":30800,"station_id":"","pricing_plan_id":"free"},{"bike_id":"88940920-727e-47f8-bee6-24feedff1167","system_id":"levelo_inurba_marseille","lat":43.28267,"lon":5.35068,"is_reserved":false,"is_disabled":false,"rental_uris":{"android":"levelo://app?vid=88940920-727e-47f8-bee6-24feedff1167","ios":"levelo://app?vid=88940920-727e-47f8-bee6-24feedff1167"},"vehicle_type_id":"4","last_reported":1691521500,"current_range_meters":31200,"station_id":"ce4bhbp2rcd13ifvqerg","pricing_plan_id":"free"},{"bike_id":"b3cfd81a-715d-4c9e-adff-083e167222dd","system_id":"levelo_inurba_marseille","lat":43.283502,"lon":5.386471,"is_reserved":false,"is_disabled":false,"rental_uris":{"android":"levelo://app?vid=b3cfd81a-715d-4c9e-adff-083e167222dd","ios":"levelo://app?vid=b3cfd81a-715d-4c9e-adff-083e167222dd"},"vehicle_type_id":"4","last_reported":1691521500,"current_range_meters":14000,"station_id":"ce4bh492rcd13ifvqdvg","pricing_plan_id":"free"},{"bike_id":"b4275f66-e87c-4226-a8e4-d228573432bb","system_id":"levelo_inurba_marseille","lat":43.283502,"lon":5.386471,"is_reserved":false,"is_disabled":false,"rental_uris":{"android":"levelo://app?vid=b4275f66-e87c-4226-a8e4-d228573432bb","ios":"levelo://app?vid=b4275f66-e87c-4226-a8e4-d228573432bb"},"vehicle_type_id":"4","last_reported":1691521500,"current_range_meters":28800,"station_id":"ce4bh492rcd13ifvqdvg","pricing_plan_id":"free"},{"bike_id":"6cf51613-022f-48d9-a6d8-487d5b9290ac","system_id":"levelo_inurba_marseille","lat":43.283502,"lon":5.386471,"is_reserved":false,"is_disabled":false,"rental_uris":{"android":"levelo://app?vid=6cf51613-022f-48d9-a6d8-487d5b9290ac","ios":"levelo://app?vid=6cf51613-022f-48d9-a6d8-487d5b9290ac"},"vehicle_type_id":"4","last_reported":1691521500,"current_range_meters":20400,"station_id":"ce4bh492rcd13ifvqdvg","pricing_plan_id":"free"},{"bike_id":"4c283fdc-832d-4b30-b3af-bea33c93d97d","system_id":"levelo_inurba_marseille","lat":43.28363,"lon":5.38638,"is_reserved":false,"is_disabled":false,"rental_uris":{"android":"levelo://app?vid=4c283fdc-832d-4b30-b3af-bea33c93d97d","ios":"levelo://app?vid=4c283fdc-832d-4b30-b3af-bea33c93d97d"},"vehicle_type_id":"4","last_reported":1691521500,"current_range_meters":9600,"station_id":"","pricing_plan_id":"free"},{"bike_id":"cc125917-d324-4270-a20e-dfdac3ff83b0","system_id":"levelo_inurba_marseille","lat":43.283502,"lon":5.386471,"is_reserved":false,"is_disabled":false,"rental_uris":{"android":"levelo://app?vid=cc125917-d324-4270-a20e-dfdac3ff83b0","ios":"levelo://app?vid=cc125917-d324-4270-a20e-dfdac3ff83b0"},"vehicle_type_id":"4","last_reported":1691521500,"current_range_meters":28000,"station_id":"ce4bh492rcd13ifvqdvg","pricing_plan_id":"free"},{"bike_id":"8db5b787-7f21-45f3-ae68-72c32b1ed396","system_id":"levelo_inurba_marseille","lat":43.28039,"lon":5.369297,"is_reserved":false,"is_disabled":false,"rental_uris":{"android":"levelo://app?vid=8db5b787-7f21-45f3-ae68-72c32b1ed396","ios":"levelo://app?vid=8db5b787-7f21-45f3-ae68-72c32b1ed396"},"vehicle_type_id":"4","last_reported":1691521500,"current_range_meters":27600,"station_id":"ce4bha12rcd13ifvqef0","pricing_plan_id":"free"},{"bike_id":"9476c07e-65d4-41aa-9d21-8347e8b0100d","system_id":"levelo_inurba_marseille","lat":43.28039,"lon":5.369297,"is_reserved":false,"is_disabled":false,"rental_uris":{"android":"levelo://app?vid=9476c07e-65d4-41aa-9d21-8347e8b0100d","ios":"levelo://app?vid=9476c07e-65d4-41aa-9d21-8347e8b0100d"},"vehicle_type_id":"4","last_reported":1691521500,"current_range_meters":25200,"station_id":"ce4bha12rcd13ifvqef0","pricing_plan_id":"free"},{"bike_id":"d324667f-9bdc-473e-98fd-982efc3466fb","system_id":"levelo_inurba_marseille","lat":43.280382,"lon":5.369291,"is_reserved":false,"is_disabled":false,"rental_uris":{"android":"levelo://app?vid=d324667f-9bdc-473e-98fd-982efc3466fb","ios":"levelo://app?vid=d324667f-9bdc-473e-98fd-982efc3466fb"},"vehicle_type_id":"4","last_reported":1691521500,"current_range_meters":30000,"station_id":"ce4bha12rcd13ifvqef0","pricing_plan_id":"free"},{"bike_id":"c00f7379-6dfd-4a1d-867b-9f7c012ca089","system_id":"levelo_inurba_marseille","lat":43.280382,"lon":5.369291,"is_reserved":false,"is_disabled":false,"rental_uris":{"android":"levelo://app?vid=c00f7379-6dfd-4a1d-867b-9f7c012ca089","ios":"levelo://app?vid=c00f7379-6dfd-4a1d-867b-9f7c012ca089"},"vehicle_type_id":"4","last_reported":1691521500,"current_range_meters":11200,"station_id":"ce4bha12rcd13ifvqef0","pricing_plan_id":"free"},{"bike_id":"1c5c1779-82a9-4caf-b6b9-44c129877803","system_id":"levelo_inurba_marseille","lat":43.28039,"lon":5.369297,"is_reserved":false,"is_disabled":false,"rental_uris":{"android":"levelo://app?vid=1c5c1779-82a9-4caf-b6b9-44c129877803","ios":"levelo://app?vid=1c5c1779-82a9-4caf-b6b9-44c129877803"},"vehicle_type_id":"4","last_reported":1691521500,"current_range_meters":30800,"station_id":"ce4bha12rcd13ifvqef0","pricing_plan_id":"free"},{"bike_id":"fcb40165-26d7-4b1a-a1d1-377eb5e5ea18","system_id":"levelo_inurba_marseille","lat":43.29041,"lon":5.399634,"is_reserved":false,"is_disabled":false,"rental_uris":{"android":"levelo://app?vid=fcb40165-26d7-4b1a-a1d1-377eb5e5ea18","ios":"levelo://app?vid=fcb40165-26d7-4b1a-a1d1-377eb5e5ea18"},