{"last_updated":1724091070,"ttl":30,"version":"2.2","data":{"bikes":[{"bike_id":"724cfd8a-6c54-45ac-ac30-ea764671a0d5","system_id":"levelo_inurba_marseille","lat":43.312239,"lon":5.368562,"is_reserved":false,"is_disabled":false,"rental_uris":{"android":"levelo://app?vid=724cfd8a-6c54-45ac-ac30-ea764671a0d5","ios":"levelo://app?vid=724cfd8a-6c54-45ac-ac30-ea764671a0d5"},"vehicle_type_id":"4","last_reported":1724091070,"current_range_meters":0,"station_id":"ce4bgl92rcd13ifvqbq0","pricing_plan_id":"cebpf4jnsgd1na2vs0mg"},{"bike_id":"e831dec7-daf6-42d0-b80e-cec2703ab8f9","system_id":"levelo_inurba_marseille","lat":43.314811,"lon":5.373103,"is_reserved":false,"is_disabled":false,"rental_uris":{"android":"levelo://app?vid=e831dec7-daf6-42d0-b80e-cec2703ab8f9","ios":"levelo://app?vid=e831dec7-daf6-42d0-b80e-cec2703ab8f9"},"vehicle_type_id":"4","last_reported":1724091070,"current_range_meters":0,"station_id":"ce4bgt12rcd13ifvqcd0","pricing_plan_id":"cebpf4jnsgd1na2vs0mg"},{"bike_id":"ced8b09f-1c8e-4d9e-9282-3383cdde9bcf","system_id":"levelo_inurba_marseille","lat":43.314811,"lon":5.373103,"is_reserved":false,"is_disabled":false,"rental_uris":{"android":"levelo://app?vid=ced8b09f-1c8e-4d9e-9282-3383cdde9bcf","ios":"levelo://app?vid=ced8b09f-1c8e-4d9e-9282-3383cdde9bcf"},"vehicle_type_id":"4","last_reported":1724091070,"current_range_meters":0,"station_id":"ce4bgt12rcd13ifvqcd0","pricing_plan_id":"cebpf4jnsgd1na2vs0mg"},{"bike_id":"7f0e035a-bd96-4156-9361-0b463762c114","system_id":"levelo_inurba_marseille","lat":43.309034,"lon":5.371783,"is_reserved":false,"is_disabled":false,"rental_uris":{"android":"levelo://app?vid=7f0e035a-bd96-4156-9361-0b463762c114","ios":"levelo://app?vid=7f0e035a-bd96-4156-9361-0b463762c114"},"vehicle_type_id":"4","last_reported":1724091070,"current_range_meters":8000,"station_id":"ce4bguh2rcd13ifvqckg","pricing_plan_id":"cebpf4jnsgd1na2vs0mg"},{"bike_id":"7b9ee7e8-5abe-4ae5-a03b-760beb6ef082","system_id":"levelo_inurba_marseille","lat":43.314571,"lon":5.373809,"is_reserved":false,"is_disabled":false,"rental_uris":{"android":"levelo://app?vid=7b9ee7e8-5abe-4ae5-a03b-760beb6ef082","ios":"levelo://app?vid=7b9ee7e8-5abe-4ae5-a03b-760beb6ef082"},"vehicle_type_id":"4","last_reported":1724091070,"current_range_meters":2000,"station_id":"","pricing_plan_id":"cebpf4jnsgd1na2vs0mg"},{"bike_id":"4935ed80-3623-4ba2-8332-8750bb9a2279","system_id":"levelo_inurba_marseille","lat":43.309076,"lon":5.368465,"is_reserved":false,"is_disabled":false,"rental_uris":{"android":"levelo://app?vid=4935ed80-3623-4ba2-8332-8750bb9a2279","ios":"levelo://app?vid=4935ed80-3623-4ba2-8332-8750bb9a2279"},"vehicle_type_id":"4","last_reported":1724091070,"current_range_meters":19200,"station_id":"ce4bgn92rcd13ifvqbvg","pricing_plan_id":"cebpf4jnsgd1na2vs0mg"},{"bike_id":"78c15995-130a-4e7f-b548-7a45ac60754c","system_id":"levelo_inurba_marseille","lat":43.305368,"lon":5.367343,"is_reserved":false,"is_disabled":false,"rental_uris":{"android":"levelo://app?vid=78c15995-130a-4e7f-b548-7a45ac60754c","ios":"levelo://app?vid=78c15995-130a-4e7f-b548-7a45ac60754c"},"vehicle_type_id":"4","last_reported":1724091070,"current_range_meters":0,"station_id":"ce4bgrp2rcd13ifvqc9g","pricing_plan_id":"cebpf4jnsgd1na2vs0mg"},{"bike_id":"8c26d088-6826-4cea-980c-2d2aba2513c7","system_id":"levelo_inurba_marseille","lat":43.305368,"lon":5.367343,"is_reserved":false,"is_disabled":false,"rental_uris":{"android":"levelo://app?vid=8c26d088-6826-4cea-980c-2d2aba2513c7","ios":"levelo://app?vid=8c26d088-6826-4cea-980c-2d2aba2513c7"},"vehicle_type_id":"4","last_reported":1724091070,"current_range_meters":0,"station_id":"ce4bgrp2rcd13ifvqc9g","pricing_plan_id":"cebpf4jnsgd1na2vs0mg"},{"bike_id":"17b2ba53-e81f-46fc-b1b5-cb9299a23bf3","system_id":"levelo_inurba_marseille","lat":43.30545,"lon":5.36537,"is_reserved":false,"is_disabled":false,"rental_uris":{"android":"levelo://app?vid=17b2ba53-e81f-46fc-b1b5-cb9299a23bf3","ios":"levelo://app?vid=17b2ba53-e81f-46fc-b1b5-cb9299a23bf3"},"vehicle_type_id":"4","last_reported":1724091070,"current_range_meters":0,"station_id":"ce4bgs12rcd13ifvqcag","pricing_plan_id":"cebpf4jnsgd1na2vs0mg"},{"bike_id":"9c8894d1-8b84-4a11-bf9f-8d90fc825f06","system_id":"levelo_inurba_marseille","lat":43.305989,"lon":5.37225,"is_reserved":false,"is_disabled":false,"rental_uris":{"android":"levelo://app?vid=9c8894d1-8b84-4a11-bf9f-8d90fc825f06","ios":"levelo://app?vid=9c8894d1-8b84-4a11-bf9f-8d90fc825f06"},"vehicle_type_id":"4","last_reported":1724091070,"current_range_meters":7200,"station_id":"ce4bgqh2rcd13ifvqc4g","pricing_plan_id":"cebpf4jnsgd1na2vs0mg"},{"bike_id":"97301f8c-6ca9-461d-9595-965ea6e70a4a","system_id":"levelo_inurba_marseille","lat":43.305989,"lon":5.37225,"is_reserved":false,"is_disabled":false,"rental_uris":{"android":"levelo://app?vid=97301f8c-6ca9-461d-9595-965ea6e70a4a","ios":"levelo://app?vid=97301f8c-6ca9-461d-9595-965ea6e70a4a"},"vehicle_type_id":"4","last_reported":1724091070,"current_range_meters":18800,"station_id":"ce4bgqh2rcd13ifvqc4g","pricing_plan_id":"cebpf4jnsgd1na2vs0mg"},{"bike_id":"eef3b4f6-bbdf-42b5-8154-02c573c7ae48","system_id":"levelo_inurba_marseille","lat":43.311125,"lon":5.377624,"is_reserved":false,"is_disabled":false,"rental_uris":{"android":"levelo://app?vid=eef3b4f6-bbdf-42b5-8154-02c573c7ae48","ios":"levelo://app?vid=eef3b4f6-bbdf-42b5-8154-02c573c7ae48"},"vehicle_type_id":"4","last_reported":1724091070,"current_range_meters":24400,"station_id":"ce4bgt92rcd13ifvqcg0","pricing_plan_id":"cebpf4jnsgd1na2vs0mg"},{"bike_id":"b123cdb8-55d6-4c5b-b691-0bc9de67d700","system_id":"levelo_inurba_marseille","lat":43.307945,"lon":5.376487,"is_reserved":false,"is_disabled":false,"rental_uris":{"android":"levelo://app?vid=b123cdb8-55d6-4c5b-b691-0bc9de67d700","ios":"levelo://app?vid=b123cdb8-55d6-4c5b-b691-0bc9de67d700"},"vehicle_type_id":"4","last_reported":1724091070,"current_range_meters":0,"station_id":"ce4bgv92rcd13ifvqcq0","pricing_plan_id":"cebpf4jnsgd1na2vs0mg"},{"bike_id":"f6024a98-8be7-4b72-8803-04c22bbf535f","system_id":"levelo_inurba_marseille","lat":43.317075,"lon":5.377367,"is_reserved":false,"is_disabled":false,"rental_uris":{"android":"levelo://app?vid=f6024a98-8be7-4b72-8803-04c22bbf535f","ios":"levelo://app?vid=f6024a98-8be7-4b72-8803-04c22bbf535f"},"vehicle_type_id":"4","last_reported":1724091070,"current_range_meters":23200,"station_id":"ce4bgth2rcd13ifvqch0","pricing_plan_id":"cebpf4jnsgd1na2vs0mg"},{"bike_id":"4fa16d3d-3ca3-4f07-927a-4bf4191d2ebc","system_id":"levelo_inurba_marseille","lat":43.317075,"lon":5.377367,"is_reserved":false,"is_disabled":false,"rental_uris":{"android":"levelo://app?vid=4fa16d3d-3ca3-4f07-927a-4bf4191d2ebc","ios":"levelo://app?vid=4fa16d3d-3ca3-4f07-927a-4bf4191d2ebc"},"vehicle_type_id":"4","last_reported":1724091070,"current_range_meters":6800,"station_id":"ce4bgth2rcd13ifvqch0","pricing_plan_id":"cebpf4jnsgd1na2vs0mg"},{"bike_id":"545c8e51-e822-4604-941b-6bffe9358360","system_id":"levelo_inurba_marseille","lat":43.30929,"lon":5.37891,"is_reserved":false,"is_disabled":false,"rental_uris":{"android":"levelo://app?vid=545c8e51-e822-4604-941b-6bffe9358360","ios":"levelo://app?vid=545c8e51-e822-4604-941b-6bffe9358360"},"vehicle_type_id":"4","last_reported":1724091070,"current_range_meters":14800,"station_id":"","pricing_plan_id":"cebpf4jnsgd1na2vs0mg"},{"bike_id":"6ca5c7d7-d4ae-42db-8d9d-0d34a84b958f","system_id":"levelo_inurba_marseille","lat":43.315289,"lon":5.380349,"is_reserved":false,"is_disabled":false,"rental_uris":{"android":"levelo://app?vid=6ca5c7d7-d4ae-42db-8d9d-0d34a84b958f","ios":"levelo://app?vid=6ca5c7d7-d4ae-42db-8d9d-0d34a84b958f"},"vehicle_type_id":"4","last_reported":1724091070,"current_range_meters":0,"station_id":"ce4bhsp2rcd13ifvqi50","pricing_plan_id":"cebpf4jnsgd1na2vs0mg"},{"bike_id":"7eb36cce-592b-4d48-9fec-f2394717518b","system_id":"levelo_inurba_marseille","lat":43.315289,"lon":5.380349,"is_reserved":false,"is_disabled":false,"rental_uris":{"android":"levelo://app?vid=7eb36cce-592b-4d48-9fec-f2394717518b","ios":"levelo://app?vid=7eb36cce-592b-4d48-9fec-f2394717518b"},"vehicle_type_id":"4","last_reported":1724091070,"current_range_meters":28800,"station_id":"ce4bhsp2rcd13ifvqi50","pricing_plan_id":"cebpf4jnsgd1na2vs0mg"},{"bike_id":"0a4ff776-6260-4a84-83d6-307876ddbcaf","system_id":"levelo_inurba_marseille","lat":43.315289,"lon":5.380349,"is_reserved":false,"is_disabled":false,"rental_uris":{"android":"levelo://app?vid=0a4ff776-6260-4a84-83d6-307876ddbcaf","ios":"levelo://app?vid=0a4ff776-6260-4a84-83d6-307876ddbcaf"},"vehicle_type_id":"4","last_reported":1724091070,"current_range_meters":4000,"station_id":"ce4bhsp2rcd13ifvqi50","pricing_plan_id":"cebpf4jnsgd1na2vs0mg"},{"bike_id":"375dd0d5-4fed-44a0-a977-60a577152543","system_id":"levelo_inurba_marseille","lat":43.315289,"lon":5.380349,"is_reserved":false,"is_disabled":false,"rental_uris":{"android":"levelo://app?vid=375dd0d5-4fed-44a0-a977-60a577152543","ios":"levelo://app?vid=375dd0d5-4fed-44a0-a977-60a577152543"},"vehicle_type_id":"4","last_reported":1724091070,"current_range_meters":7200,"station_id":"ce4bhsp2rcd13ifvqi50","pricing_plan_id":"cebpf4jnsgd1na2vs0mg"},{"bike_id":"d7fb8a09-1e4f-4708-ab3a-31cf179c6e8b","system_id":"levelo_inurba_marseille","lat":43.301939,"lon":5.366286,"is_reserved":false,"is_disabled":false,"rental_uris":{"android":"levelo://app?vid=d7fb8a09-1e4f-4708-ab3a-31cf179c6e8b","ios":"levelo://app?vid=d7fb8a09-1e4f-4708-ab3a-31cf179c6e8b"},"vehicle_type_id":"4","last_reported":1724091070,"current_range_meters":15600,"station_id":"ce4bgrh2rcd13ifvqc8g","pricing_plan_id":"cebpf4jnsgd1na2vs0mg"},{"bike_id":"3e1faef3-38bc-445c-ac31-428044968b05","system_id":"levelo_inurba_marseille","lat":43.301939,"lon":5.366286,"is_reserved":false,"is_disabled":false,"rental_uris":{"android":"levelo://app?vid=3e1faef3-38bc-445c-ac31-428044968b05","ios":"levelo://app?vid=3e1faef3-38bc-445c-ac31-428044968b05"},"vehicle_type_id":"4","last_reported":1724091070,"current_range_meters":16800,"station_id":"ce4bgrh2rcd13ifvqc8g","pricing_plan_id":"cebpf4jnsgd1na2vs0mg"},{"bike_id":"44a96641-5aa6-4774-b4a5-aa44e7e45d94","system_id":"levelo_inurba_marseille","lat":43.308,"lon":5.3815,"is_reserved":false,"is_disabled":false,"rental_uris":{"android":"levelo://app?vid=44a96641-5aa6-4774-b4a5-aa44e7e45d94","ios":"levelo://app?vid=44a96641-5aa6-4774-b4a5-aa44e7e45d94"},"vehicle_type_id":"4","last_reported":1724091070,"current_range_meters":14000,"station_id":"ce4bgt12rcd13ifvqce0","pricing_plan_id":"cebpf4jnsgd1na2vs0mg"},{"bike_id":"86e5c166-d17d-4eae-9606-e0b836a45405","system_id":"levelo_inurba_marseille","lat":43.324771,"lon":5.36557,"is_reserved":false,"is_disabled":false,"rental_uris":{"android":"levelo://app?vid=86e5c166-d17d-4eae-9606-e0b836a45405","ios":"levelo://app?vid=86e5c166-d17d-4eae-9606-e0b836a45405"},"vehicle_type_id":"4","last_reported":1724091070,"current_range_meters":12400,"station_id":"ce4bhs12rcd13ifvqhvg","pricing_plan_id":"cebpf4jnsgd1na2vs0mg"},{"bike_id":"662117b5-bb70-4eb3-ac47-82e3bc97a38e","system_id":"levelo_inurba_marseille","lat":43.324771,"lon":5.36557,"is_reserved":false,"is_disabled":false,"rental_uris":{"android":"levelo://app?vid=662117b5-bb70-4eb3-ac47-82e3bc97a38e","ios":"levelo://app?vid=662117b5-bb70-4eb3-ac47-82e3bc97a38e"},"vehicle_type_id":"4","last_reported":1724091070,"current_range_meters":29600,"station_id":"ce4bhs12rcd13ifvqhvg","pricing_plan_id":"cebpf4jnsgd1na2vs0mg"},{"bike_id":"f6b227d0-ce0e-45d0-8119-767353c18806","system_id":"levelo_inurba_marseille","lat":43.324771,"lon":5.36557,"is_reserved":false,"is_disabled":false,"rental_uris":{"android":"levelo://app?vid=f6b227d0-ce0e-45d0-8119-767353c18806","ios":"levelo://app?vid=f6b227d0-ce0e-45d0-8119-767353c18806"},"vehicle_type_id":"4","last_reported":1724091070,"current_range_meters":6000,"station_id":"ce4bhs12rcd13ifvqhvg","pricing_plan_id":"cebpf4jnsgd1na2vs0mg"},{"bike_id":"dc18ef80-7b17-4500-950b-a5b475701f80","system_id":"levelo_inurba_marseille","lat":43.324771,"lon":5.36557,"is_reserved":false,"is_disabled":false,"rental_uris":{"android":"levelo://app?vid=dc18ef80-7b17-4500-950b-a5b475701f80","ios":"levelo://app?vid=dc18ef80-7b17-4500-950b-a5b475701f80"},"vehicle_type_id":"4","last_reported":1724091070,"current_range_meters":11600,"station_id":"ce4bhs12rcd13ifvqhvg","pricing_plan_id":"cebpf4jnsgd1na2vs0mg"},{"bike_id":"e28e762f-514c-404d-87d1-e86de1bf87d9","system_id":"levelo_inurba_marseille","lat":43.324771,"lon":5.36557,"is_reserved":false,"is_disabled":false,"rental_uris":{"android":"levelo://app?vid=e28e762f-514c-404d-87d1-e86de1bf87d9","ios":"levelo://app?vid=e28e762f-514c-404d-87d1-e86de1bf87d9"},"vehicle_type_id":"4","last_reported":1724091070,"current_range_meters":27200,"station_id":"ce4bhs12rcd13ifvqhvg","pricing_plan_id":"cebpf4jnsgd1na2vs0mg"},{"bike_id":"006d918b-d366-4358-bcb1-321285afa275","system_id":"levelo_inurba_marseille","lat":43.32482,"lon":5.365598,"is_reserved":false,"is_disabled":false,"rental_uris":{"android":"levelo://app?vid=006d918b-d366-4358-bcb1-321285afa275","ios":"levelo://app?vid=006d918b-d366-4358-bcb1-321285afa275"},"vehicle_type_id":"4","last_reported":1724091070,"current_range_meters":7600,"station_id":"ce4bhs12rcd13ifvqhvg","pricing_plan_id":"cebpf4jnsgd1na2vs0mg"},{"bike_id":"e3320ad1-80fc-4357-8088-3385ae06d232","system_id":"levelo_inurba_marseille","lat":43.324771,"lon":5.36557,"is_reserved":false,"is_disabled":false,"rental_uris":{"android":"levelo://app?vid=e3320ad1-80fc-4357-8088-3385ae06d232","ios":"levelo://app?vid=e3320ad1-80fc-4357-8088-3385ae06d232"},"vehicle_type_id":"4","last_reported":1724091070,"current_range_meters":31200,"station_id":"ce4bhs12rcd13ifvqhvg","pricing_plan_id":"cebpf4jnsgd1na2vs0mg"},{"bike_id":"9da294b8-2850-4f51-9f3a-5fff040b842e","system_id":"levelo_inurba_marseille","lat":43.310804,"lon":5.38359,"is_reserved":false,"is_disabled":false,"rental_uris":{"android":"levelo://app?vid=9da294b8-2850-4f51-9f3a-5fff040b842e","ios":"levelo://app?vid=9da294b8-2850-4f51-9f3a-5fff040b842e"},"vehicle_type_id":"4","last_reported":1724091070,"current_range_meters":9600,"station_id":"ce4bgv92rcd13ifvqcr0","pricing_plan_id":"cebpf4jnsgd1na2vs0mg"},{"bike_id":"868f1657-e8b2-4d94-9c6e-5a1f20551175","system_id":"levelo_inurba_marseille","lat":43.30143,"lon":5.37413,"is_reserved":false,"is_disabled":false,"rental_uris":{"android":"levelo://app?vid=868f1657-e8b2-4d94-9c6e-5a1f20551175","ios":"levelo://app?vid=868f1657-e8b2-4d94-9c6e-5a1f20551175"},"vehicle_type_id":"4","last_reported":1724091070,"current_range_meters":31600,"station_id":"ce4bgs92rcd13ifvqcc0","pricing_plan_id":"cebpf4jnsgd1na2vs0mg"},{"bike_id":"195aa233-d0cf-4e5a-b2dd-6e3eaa795b9a","system_id":"levelo_inurba_marseille","lat":43.30143,"lon":5.37413,"is_reserved":false,"is_disabled":false,"rental_uris":{"android":"levelo://app?vid=195aa233-d0cf-4e5a-b2dd-6e3eaa795b9a","ios":"levelo://app?vid=195aa233-d0cf-4e5a-b2dd-6e3eaa795b9a"},"vehicle_type_id":"4","last_reported":1724091070,"current_range_meters":18000,"station_id":"ce4bgs92rcd13ifvqcc0","pricing_plan_id":"cebpf4jnsgd1na2vs0mg"},{"bike_id":"f86f6770-af76-4260-a4db-a39dd21e8f1f","system_id":"levelo_inurba_marseille","lat":43.319986,"lon":5.381558,"is_reserved":false,"is_disabled":false,"rental_uris":{"android":"levelo://app?vid=f86f6770-af76-4260-a4db-a39dd21e8f1f","ios":"levelo://app?vid=f86f6770-af76-4260-a4db-a39dd21e8f1f"},"vehicle_type_id":"4","last_reported":1724091070,"current_range_meters":29600,"station_id":"ce4bhr12rcd13ifvqhpg","pricing_plan_id":"cebpf4jnsgd1na2vs0mg"},{"bike_id":"874e50ba-aa3e-48b7-b610-3263f4ab3eaa","system_id":"levelo_inurba_marseille","lat":43.30588,"lon":5.38204,"is_reserved":false,"is_disabled":false,"rental_uris":{"android":"levelo://app?vid=874e50ba-aa3e-48b7-b610-3263f4ab3eaa","ios":"levelo://app?vid=874e50ba-aa3e-48b7-b610-3263f4ab3eaa"},"vehicle_type_id":"4","last_reported":1724091070,"current_range_meters":21600,"station_id":"","pricing_plan_id":"cebpf4jnsgd1na2vs0mg"},{"bike_id":"0346ee8d-4a23-4170-beab-53eb9c2aeb65","system_id":"levelo_inurba_marseille","lat":43.313571,"lon":5.384829,"is_reserved":false,"is_disabled":false,"rental_uris":{"android":"levelo://app?vid=0346ee8d-4a23-4170-beab-53eb9c2aeb65","ios":"levelo://app?vid=0346ee8d-4a23-4170-beab-53eb9c2aeb65"},"vehicle_type_id":"4","last_reported":1724091070,"current_range_meters":0,"station_id":"ce4bgt92rcd13ifvqcf0","pricing_plan_id":"cebpf4jnsgd1na2vs0mg"},{"bike_id":"76772ad0-3a53-4105-a988-694d42e7428d","system_id":"levelo_inurba_marseille","lat":43.299724,"lon":5.371829,"is_reserved":false,"is_disabled":false,"rental_uris":{"android":"levelo://app?vid=76772ad0-3a53-4105-a988-694d42e7428d","ios":"levelo://app?vid=76772ad0-3a53-4105-a988-694d42e7428d"},"vehicle_type_id":"4","last_reported":1724091070,"current_range_meters":30400,"station_id":"ce4bgr92rcd13ifvqc7g","pricing_plan_id":"cebpf4jnsgd1na2vs0mg"},{"bike_id":"1873784e-4058-4c05-a6c2-e55f479c7323","system_id":"levelo_inurba_marseille","lat":43.29973,"lon":5.37183,"is_reserved":false,"is_disabled":false,"rental_uris":{"android":"levelo://app?vid=1873784e-4058-4c05-a6c2-e55f479c7323","ios":"levelo://app?vid=1873784e-4058-4c05-a6c2-e55f479c7323"},"vehicle_type_id":"4","last_reported":1724091070,"current_range_meters":31600,"station_id":"ce4bgr92rcd13ifvqc7g","pricing_plan_id":"cebpf4jnsgd1na2vs0mg"},{"bike_id":"ea82f259-880d-4f07-b17c-ecd9ccdb46d5","system_id":"levelo_inurba_marseille","lat":43.299724,"lon":5.371829,"is_reserved":false,"is_disabled":false,"rental_uris":{"android":"levelo://app?vid=ea82f259-880d-4f07-b17c-ecd9ccdb46d5","ios":"levelo://app?vid=ea82f259-880d-4f07-b17c-ecd9ccdb46d5"},"vehicle_type_id":"4","last_reported":1724091070,"current_range_meters":31200,"station_id":"ce4bgr92rcd13ifvqc7g","pricing_plan_id":"cebpf4jnsgd1na2vs0mg"},{"bike_id":"93b15bf0-4829-47c5-8a64-f7d5e35bd376","system_id":"levelo_inurba_marseille","lat":43.299724,"lon":5.371829,"is_reserved":false,"is_disabled":false,"rental_uris":{"android":"levelo://app?vid=93b15bf0-4829-47c5-8a64-f7d5e35bd376","ios":"levelo://app?vid=93b15bf0-4829-47c5-8a64-f7d5e35bd376"},"vehicle_type_id":"4","last_reported":1724091070,"current_range_meters":31200,"station_id":"ce4bgr92rcd13ifvqc7g","pricing_plan_id":"cebpf4jnsgd1na2vs0mg"},{"bike_id":"4c224ebd-f0d6-4104-a09e-8fc8b91d1db0","system_id":"levelo_inurba_marseille","lat":43.299243,"lon":5.374807,"is_reserved":false,"is_disabled":false,"rental_uris":{"android":"levelo://app?vid=4c224ebd-f0d6-4104-a09e-8fc8b91d1db0","ios":"levelo://app?vid=4c224ebd-f0d6-4104-a09e-8fc8b91d1db0"},"vehicle_type_id":"4","last_reported":1724091070,"current_range_meters":4400,"station_id":"ce4bgjh2rcd13ifvqbg0","pricing_plan_id":"cebpf4jnsgd1na2vs0mg"},{"bike_id":"62164eca-d92c-4d3f-806e-09e7a8cea333","system_id":"levelo_inurba_marseille","lat":43.311722,"lon":5.387247,"is_reserved":false,"is_disabled":false,"rental_uris":{"android":"levelo://app?vid=62164eca-d92c-4d3f-806e-09e7a8cea333","ios":"levelo://app?vid=62164eca-d92c-4d3f-806e-09e7a8cea333"},"vehicle_type_id":"4","last_reported":1724091070,"current_range_meters":26400,"station_id":"ce4bgv12rcd13ifvqcp0","pricing_plan_id":"cebpf4jnsgd1na2vs0mg"},{"bike_id":"15c2940c-244d-47b1-b1f7-53f445f58967","system_id":"levelo_inurba_marseille","lat":43.299243,"lon":5.374807,"is_reserved":false,"is_disabled":false,"rental_uris":{"android":"levelo://app?vid=15c2940c-244d-47b1-b1f7-53f445f58967","ios":"levelo://app?vid=15c2940c-244d-47b1-b1f7-53f445f58967"},"vehicle_type_id":"4","last_reported":1724091070,"current_range_meters":31200,"station_id":"ce4bgjh2rcd13ifvqbg0","pricing_plan_id":"cebpf4jnsgd1na2vs0mg"},{"bike_id":"c291b3ad-8cb4-42d9-800c-fd9a1a03497a","system_id":"levelo_inurba_marseille","lat":43.299243,"lon":5.37481,"is_reserved":false,"is_disabled":false,"rental_uris":{"android":"levelo://app?vid=c291b3ad-8cb4-42d9-800c-fd9a1a03497a","ios":"levelo://app?vid=c291b3ad-8cb4-42d9-800c-fd9a1a03497a"},"vehicle_type_id":"4","last_reported":1724091070,"current_range_meters":31600,"station_id":"ce4bgjh2rcd13ifvqbg0","pricing_plan_id":"cebpf4jnsgd1na2vs0mg"},{"bike_id":"f5756eed-ea1c-4ab7-b4f2-8ac9473fed35","system_id":"levelo_inurba_marseille","lat":43.32285,"lon":5.38264,"is_reserved":false,"is_disabled":false,"rental_uris":{"android":"levelo://app?vid=f5756eed-ea1c-4ab7-b4f2-8ac9473fed35","ios":"levelo://app?vid=f5756eed-ea1c-4ab7-b4f2-8ac9473fed35"},"vehicle_type_id":"4","last_reported":1724091070,"current_range_meters":26400,"station_id":"ce4bhr12rcd13ifvqhqg","pricing_plan_id":"cebpf4jnsgd1na2vs0mg"},{"bike_id":"61dd64be-b099-4cf9-92b5-fbad09e4c4c2","system_id":"levelo_inurba_marseille","lat":43.322872,"lon":5.382756,"is_reserved":false,"is_disabled":false,"rental_uris":{"android":"levelo://app?vid=61dd64be-b099-4cf9-92b5-fbad09e4c4c2","ios":"levelo://app?vid=61dd64be-b099-4cf9-92b5-fbad09e4c4c2"},"vehicle_type_id":"4","last_reported":1724091070,"current_range_meters":22400,"station_id":"ce4bhr12rcd13ifvqhqg","pricing_plan_id":"cebpf4jnsgd1na2vs0mg"},{"bike_id":"c5e86e01-88a0-4287-af61-f635a0263d21","system_id":"levelo_inurba_marseille","lat":43.322872,"lon":5.382756,"is_reserved":false,"is_disabled":false,"rental_uris":{"android":"levelo://app?vid=c5e86e01-88a0-4287-af61-f635a0263d21","ios":"levelo://app?vid=c5e86e01-88a0-4287-af61-f635a0263d21"},"vehicle_type_id":"4","last_reported":1724091070,"current_range_meters":31200,"station_id":"ce4bhr12rcd13ifvqhqg","pricing_plan_id":"cebpf4jnsgd1na2vs0mg"},{"bike_id":"4cdb609e-699d-4d39-b4c8-d2a028101125","system_id":"levelo_inurba_marseille","lat":43.29721,"lon":5.3688,"is_reserved":false,"is_disabled":false,"rental_uris":{"android":"levelo://app?vid=4cdb609e-699d-4d39-b4c8-d2a028101125","ios":"levelo://app?vid=4cdb609e-699d-4d39-b4c8-d2a028101125"},"vehicle_type_id":"4","last_reported":1724091070,"current_range_meters":0,"station_id":"","pricing_plan_id":"cebpf4jnsgd1na2vs0mg"},{"bike_id":"48252763-9303-4050-befc-82c53378535c","system_id":"levelo_inurba_marseille","lat":43.315,"lon":5.38869,"is_reserved":false,"is_disabled":false,"rental_uris":{"android":"levelo://app?vid=48252763-9303-4050-befc-82c53378535c","ios":"levelo://app?vid=48252763-9303-4050-befc-82c53378535c"},"vehicle_type_id":"4","last_reported":1724091070,"current_range_meters":8000,"station_id":"","pricing_plan_id":"cebpf4jnsgd1na2vs0mg"},{"bike_id":"1cc04190-8654-41c0-99d2-18238aec85cd","system_id":"levelo_inurba_marseille","lat":43.2968,"lon":5.37291,"is_reserved":false,"is_disabled":false,"rental_uris":{"android":"levelo://app?vid=1cc04190-8654-41c0-99d2-18238aec85cd","ios":"levelo://app?vid=1cc04190-8654-41c0-99d2-18238aec85cd"},"vehicle_type_id":"4","last_reported":1724091070,"current_range_meters":27600,"station_id":"ce4bgk12rcd13ifvqbj0","pricing_plan_id":"cebpf4jnsgd1na2vs0mg"},{"bike_id":"fc3367f3-d4bd-431d-b4ad-04a19fcb1ae2","system_id":"levelo_inurba_marseille","lat":43.296301,"lon":5.37149,"is_reserved":false,"is_disabled":false,"rental_uris":{"android":"levelo://app?vid=fc3367f3-d4bd-431d-b4ad-04a19fcb1ae2","ios":"levelo://app?vid=fc3367f3-d4bd-431d-b4ad-04a19fcb1ae2"},"vehicle_type_id":"4","last_reported":1724091070,"current_range_meters":0,"station_id":"ce4bgnh2rcd13ifvqc0g","pricing_plan_id":"cebpf4jnsgd1na2vs0mg"},{"bike_id":"23596a52-a9aa-432c-b384-7bf38d289114","system_id":"levelo_inurba_marseille","lat":43.296935,"lon":5.376544,"is_reserved":false,"is_disabled":false,"rental_uris":{"android":"levelo://app?vid=23596a52-a9aa-432c-b384-7bf38d289114","ios":"levelo://app?vid=23596a52-a9aa-432c-b384-7bf38d289114"},"vehicle_type_id":"4","last_reported":1724091070,"current_range_meters":30000,"station_id":"ce4bgkh2rcd13ifvqbl0","pricing_plan_id":"cebpf4jnsgd1na2vs0mg"},{"bike_id":"c8208328-c664-43c4-a5ce-928e37d3166f","system_id":"levelo_inurba_marseille","lat":43.309589,"lon":5.390258,"is_reserved":false,"is_disabled":false,"rental_uris":{"android":"levelo://app?vid=c8208328-c664-43c4-a5ce-928e37d3166f","ios":"levelo://app?vid=c8208328-c664-43c4-a5ce-928e37d3166f"},"vehicle_type_id":"4","last_reported":1724091070,"current_range_meters":6400,"station_id":"ce4bgup2rcd13ifvqco0","pricing_plan_id":"cebpf4jnsgd1na2vs0mg"},{"bike_id":"70a42058-70c0-437d-ae09-e694cf050d00","system_id":"levelo_inurba_marseille","lat":43.309589,"lon":5.390258,"is_reserved":false,"is_disabled":false,"rental_uris":{"android":"levelo://app?vid=70a42058-70c0-437d-ae09-e694cf050d00","ios":"levelo://app?vid=70a42058-70c0-437d-ae09-e694cf050d00"},"vehicle_type_id":"4","last_reported":1724091070,"current_range_meters":10000,"station_id":"ce4bgup2rcd13ifvqco0","pricing_plan_id":"cebpf4jnsgd1na2vs0mg"},{"bike_id":"2ce7b800-0944-41ec-a8cd-868ca2d912e7","system_id":"levelo_inurba_marseille","lat":43.317557,"lon":5.390173,"is_reserved":false,"is_disabled":false,"rental_uris":{"android":"levelo://app?vid=2ce7b800-0944-41ec-a8cd-868ca2d912e7","ios":"levelo://app?vid=2ce7b800-0944-41ec-a8cd-868ca2d912e7"},"vehicle_type_id":"4","last_reported":1724091070,"current_range_meters":400,"station_id":"ce4bhqp2rcd13ifvqhng","pricing_plan_id":"cebpf4jnsgd1na2vs0mg"},{"bike_id":"f6f6f9cb-fa9c-4956-9d6c-406ddd5a1c8d","system_id":"levelo_inurba_marseille","lat":43.304274,"lon":5.388873,"is_reserved":false,"is_disabled":false,"rental_uris":{"android":"levelo://app?vid=f6f6f9cb-fa9c-4956-9d6c-406ddd5a1c8d","ios":"levelo://app?vid=f6f6f9cb-fa9c-4956-9d6c-406ddd5a1c8d"},"vehicle_type_id":"4","last_reported":1724091070,"current_range_meters":6400,"station_id":"ce4bgk12rcd13ifvqbi0","pricing_plan_id":"cebpf4jnsgd1na2vs0mg"},{"bike_id":"a33aeb34-484b-41da-a6e7-61fa820a6452","system_id":"levelo_inurba_marseille","lat":43.298037,"lon":5.381066,"is_reserved":false,"is_disabled":false,"rental_uris":{"android":"levelo://app?vid=a33aeb34-484b-41da-a6e7-61fa820a6452","ios":"levelo://app?vid=a33aeb34-484b-41da-a6e7-61fa820a6452"},"vehicle_type_id":"4","last_reported":1724091070,"current_range_meters":28800,"station_id":"ce4bgip2rcd13ifvqbb0","pricing_plan_id":"cebpf4jnsgd1na2vs0mg"},{"bike_id":"64da862a-6d46-47cb-844e-a68cb24dcab2","system_id":"levelo_inurba_marseille","lat":43.298037,"lon":5.381066,"is_reserved":false,"is_disabled":false,"rental_uris":{"android":"levelo://app?vid=64da862a-6d46-47cb-844e-a68cb24dcab2","ios":"levelo://app?vid=64da862a-6d46-47cb-844e-a68cb24dcab2"},"vehicle_type_id":"4","last_reported":1724091070,"current_range_meters":18000,"station_id":"ce4bgip2rcd13ifvqbb0","pricing_plan_id":"cebpf4jnsgd1na2vs0mg"},{"bike_id":"d8a96d0b-1052-4ebb-af18-27a95774a5f9","system_id":"levelo_inurba_marseille","lat":43.31475,"lon":5.39161,"is_reserved":false,"is_disabled":false,"rental_uris":{"android":"levelo://app?vid=d8a96d0b-1052-4ebb-af18-27a95774a5f9","ios":"levelo://app?vid=d8a96d0b-1052-4ebb-af18-27a95774a5f9"},"vehicle_type_id":"4","last_reported":1724091070,"current_range_meters":14000,"station_id":"","pricing_plan_id":"cebpf4jnsgd1na2vs0mg"},{"bike_id":"04071a72-dfda-401a-b807-e6c2596955be","system_id":"levelo_inurba_marseille","lat":43.295748,"lon":5.37522,"is_reserved":false,"is_disabled":false,"rental_uris":{"android":"levelo://app?vid=04071a72-dfda-401a-b807-e6c2596955be","ios":"levelo://app?vid=04071a72-dfda-401a-b807-e6c2596955be"},"vehicle_type_id":"4","last_reported":1724091070,"current_range_meters":31600,"station_id":"ce4bgh92rcd13ifvqb50","pricing_plan_id":"cebpf4jnsgd1na2vs0mg"},{"bike_id":"e90d390a-e9d8-462e-aafa-daa29e1eaeec","system_id":"levelo_inurba_marseille","lat":43.29607,"lon":5.37711,"is_reserved":false,"is_disabled":false,"rental_uris":{"android":"levelo://app?vid=e90d390a-e9d8-462e-aafa-daa29e1eaeec","ios":"levelo://app?vid=e90d390a-e9d8-462e-aafa-daa29e1eaeec"},"vehicle_type_id":"4","last_reported":1724091070,"current_range_meters":31200,"station_id":"ce4bgi92rcd13ifvqb90","pricing_plan_id":"cebpf4jnsgd1na2vs0mg"},{"bike_id":"992a626c-5b9f-409d-abf3-287152374e08","system_id":"levelo_inurba_marseille","lat":43.295279,"lon":5.375048,"is_reserved":false,"is_disabled":false,"rental_uris":{"android":"levelo://app?vid=992a626c-5b9f-409d-abf3-287152374e08","ios":"levelo://app?vid=992a626c-5b9f-409d-abf3-287152374e08"},"vehicle_type_id":"4","last_reported":1724091070,"current_range_meters":30000,"station_id":"ce4bgkp2rcd13ifvqbmg","pricing_plan_id":"cebpf4jnsgd1na2vs0mg"},{"bike_id":"5c3ff156-44d6-43e4-b576-3169f266a2c3","system_id":"levelo_inurba_marseille","lat":43.29971,"lon":5.38487,"is_reserved":false,"is_disabled":false,"rental_uris":{"android":"levelo://app?vid=5c3ff156-44d6-43e4-b576-3169f266a2c3","ios":"levelo://app?vid=5c3ff156-44d6-43e4-b576-3169f266a2c3"},"vehicle_type_id":"4","last_reported":1724091070,"current_range_meters":0,"station_id":"ce4bgj92rcd13ifvqbd0","pricing_plan_id":"cebpf4jnsgd1na2vs0mg"},{"bike_id":"1bfc367c-6808-4343-9cac-d0d4cc946e1b","system_id":"levelo_inurba_marseille","lat":43.29971,"lon":5.38491,"is_reserved":false,"is_disabled":false,"rental_uris":{"android":"levelo://app?vid=1bfc367c-6808-4343-9cac-d0d4cc946e1b","ios":"levelo://app?vid=1bfc367c-6808-4343-9cac-d0d4cc946e1b"},"vehicle_type_id":"4","last_reported":1724091070,"current_range_meters":0,"station_id":"ce4bgj92rcd13ifvqbd0","pricing_plan_id":"cebpf4jnsgd1na2vs0mg"},{"bike_id":"48d4eeba-52e5-4f22-a650-3c0c60829602","system_id":"levelo_inurba_marseille","lat":43.299717,"lon":5.384845,"is_reserved":false,"is_disabled":false,"rental_uris":{"android":"levelo://app?vid=48d4eeba-52e5-4f22-a650-3c0c60829602","ios":"levelo://app?vid=48d4eeba-52e5-4f22-a650-3c0c60829602"},"vehicle_type_id":"4","last_reported":1724091070,"current_range_meters":400,"station_id":"ce4bgj92rcd13ifvqbd0","pricing_plan_id":"cebpf4jnsgd1na2vs0mg"},{"bike_id":"aeb8c2b4-c872-4157-a946-bee7d9802734","system_id":"levelo_inurba_marseille","lat":43.295279,"lon":5.375048,"is_reserved":false,"is_disabled":false,"rental_uris":{"android":"levelo://app?vid=aeb8c2b4-c872-4157-a946-bee7d9802734","ios":"levelo://app?vid=aeb8c2b4-c872-4157-a946-bee7d9802734"},"vehicle_type_id":"4","last_reported":1724091070,"current_range_meters":9600,"station_id":"ce4bgkp2rcd13ifvqbmg","pricing_plan_id":"cebpf4jnsgd1na2vs0mg"},{"bike_id":"daab8b5b-e62a-44a3-bca6-3f7a01217322","system_id":"levelo_inurba_marseille","lat":43.322437,"lon":5.389436,"is_reserved":false,"is_disabled":false,"rental_uris":{"android":"levelo://app?vid=daab8b5b-e62a-44a3-bca6-3f7a01217322","ios":"levelo://app?vid=daab8b5b-e62a-44a3-bca6-3f7a01217322"},"vehicle_type_id":"4","last_reported":1724091070,"current_range_meters":19600,"station_id":"","pricing_plan_id":"cebpf4jnsgd1na2vs0mg"},{"bike_id":"ae513f67-fce7-4142-aa4e-3f07a2237c78","system_id":"levelo_inurba_marseille","lat":43.301396,"lon":5.387812,"is_reserved":false,"is_disabled":false,"rental_uris":{"android":"levelo://app?vid=ae513f67-fce7-4142-aa4e-3f07a2237c78","ios":"levelo://app?vid=ae513f67-fce7-4142-aa4e-3f07a2237c78"},"vehicle_type_id":"4","last_reported":1724091070,"current_range_meters":0,"station_id":"ce4bghh2rcd13ifvqb60","pricing_plan_id":"cebpf4jnsgd1na2vs0mg"},{"bike_id":"412c24c6-e69f-4754-b446-39b9b95f6c53","system_id":"levelo_inurba_marseille","lat":43.32367,"lon":5.388836,"is_reserved":false,"is_disabled":false,"rental_uris":{"android":"levelo://app?vid=412c24c6-e69f-4754-b446-39b9b95f6c53","ios":"levelo://app?vid=412c24c6-e69f-4754-b446-39b9b95f6c53"},"vehicle_type_id":"4","last_reported":1724091070,"current_range_meters":22800,"station_id":"ce4bhqp2rcd13ifvqhog","pricing_plan_id":"cebpf4jnsgd1na2vs0mg"},{"bike_id":"f900f0da-fded-4229-a7f3-68bcdd9ecc8e","system_id":"levelo_inurba_marseille","lat":43.29602,"lon":5.381084,"is_reserved":false,"is_disabled":false,"rental_uris":{"android":"levelo://app?vid=f900f0da-fded-4229-a7f3-68bcdd9ecc8e","ios":"levelo://app?vid=f900f0da-fded-4229-a7f3-68bcdd9ecc8e"},"vehicle_type_id":"4","last_reported":1724091070,"current_range_meters":0,"station_id":"ce4bgl12rcd13ifvqbo0","pricing_plan_id":"cebpf4jnsgd1na2vs0mg"},{"bike_id":"705ebad3-3bae-4ffd-bc95-99b94981f690","system_id":"levelo_inurba_marseille","lat":43.29598,"lon":5.38105,"is_reserved":false,"is_disabled":false,"rental_uris":{"android":"levelo://app?vid=705ebad3-3bae-4ffd-bc95-99b94981f690","ios":"levelo://app?vid=705ebad3-3bae-4ffd-bc95-99b94981f690"},"vehicle_type_id":"4","last_reported":1724091070,"current_range_meters":18000,"station_id":"ce4bgl12rcd13ifvqbo0","pricing_plan_id":"cebpf4jnsgd1na2vs0mg"},{"bike_id":"fa99af1b-b9bb-4597-88f5-abbbdc19287c","system_id":"levelo_inurba_marseille","lat":43.295947,"lon":5.381003,"is_reserved":false,"is_disabled":false,"rental_uris":{"android":"levelo://app?vid=fa99af1b-b9bb-4597-88f5-abbbdc19287c","ios":"levelo://app?vid=fa99af1b-b9bb-4597-88f5-abbbdc19287c"},"vehicle_type_id":"4","last_reported":1724091070,"current_range_meters":0,"station_id":"ce4bgl12rcd13ifvqbo0","pricing_plan_id":"cebpf4jnsgd1na2vs0mg"},{"bike_id":"14af1328-b6ae-45f2-927c-3b617915fffe","system_id":"levelo_inurba_marseille","lat":43.29307,"lon":5.37166,"is_reserved":false,"is_disabled":false,"rental_uris":{"android":"levelo://app?vid=14af1328-b6ae-45f2-927c-3b617915fffe","ios":"levelo://app?vid=14af1328-b6ae-45f2-927c-3b617915fffe"},"vehicle_type_id":"4","last_reported":1724091070,"current_range_meters":30400,"station_id":"ce4bgh92rcd13ifvqb40","pricing_plan_id":"cebpf4jnsgd1na2vs0mg"},{"bike_id":"9c1c8df5-f8fb-4da3-98f3-4170eba2cd76","system_id":"levelo_inurba_marseille","lat":43.293259,"lon":5.371586,"is_reserved":false,"is_disabled":false,"rental_uris":{"android":"levelo://app?vid=9c1c8df5-f8fb-4da3-98f3-4170eba2cd76","ios":"levelo://app?vid=9c1c8df5-f8fb-4da3-98f3-4170eba2cd76"},"vehicle_type_id":"4","last_reported":1724091070,"current_range_meters":6000,"station_id":"ce4bgh92rcd13ifvqb40","pricing_plan_id":"cebpf4jnsgd1na2vs0mg"},{"bike_id":"94396321-f43b-42c0-a8b6-8f1b4d3de07b","system_id":"levelo_inurba_marseille","lat":43.29302,"lon":5.37174,"is_reserved":false,"is_disabled":false,"rental_uris":{"android":"levelo://app?vid=94396321-f43b-42c0-a8b6-8f1b4d3de07b","ios":"levelo://app?vid=94396321-f43b-42c0-a8b6-8f1b4d3de07b"},"vehicle_type_id":"4","last_reported":1724091070,"current_range_meters":0,"station_id":"ce4bgh92rcd13ifvqb40","pricing_plan_id":"cebpf4jnsgd1na2vs0mg"},{"bike_id":"ac029415-ae23-4e56-ab32-3270672e4d09","system_id":"levelo_inurba_marseille","lat":43.318216,"lon":5.39347,"is_reserved":false,"is_disabled":false,"rental_uris":{"android":"levelo://app?vid=ac029415-ae23-4e56-ab32-3270672e4d09","ios":"levelo://app?vid=ac029415-ae23-4e56-ab32-3270672e4d09"},"vehicle_type_id":"4","last_reported":1724091070,"current_range_meters":5600,"station_id":"","pricing_plan_id":"cebpf4jnsgd1na2vs0mg"},{"bike_id":"0f92af19-2f73-4495-9e39-29557a46668d","system_id":"levelo_inurba_marseille","lat":43.313953,"lon":5.394584,"is_reserved":false,"is_disabled":false,"rental_uris":{"android":"levelo://app?vid=0f92af19-2f73-4495-9e39-29557a46668d","ios":"levelo://app?vid=0f92af19-2f73-4495-9e39-29557a46668d"},"vehicle_type_id":"4","last_reported":1724091070,"current_range_meters":18800,"station_id":"","pricing_plan_id":"cebpf4jnsgd1na2vs0mg"},{"bike_id":"68f471f7-7d48-4503-9b44-10464d65f676","system_id":"levelo_inurba_marseille","lat":43.29245,"lon":5.36589,"is_reserved":false,"is_disabled":false,"rental_uris":{"android":"levelo://app?vid=68f471f7-7d48-4503-9b44-10464d65f676","ios":"levelo://app?vid=68f471f7-7d48-4503-9b44-10464d65f676"},"vehicle_type_id":"4","last_reported":1724091070,"current_range_meters":0,"station_id":"","pricing_plan_id":"cebpf4jnsgd1na2vs0mg"},{"bike_id":"13395fdb-14e0-4469-b1e4-39595498ea88","system_id":"levelo_inurba_marseille","lat":43.305994,"lon":5.393687,"is_reserved":false,"is_disabled":false,"rental_uris":{"android":"levelo://app?vid=13395fdb-14e0-4469-b1e4-39595498ea88","ios":"levelo://app?vid=13395fdb-14e0-4469-b1e4-39595498ea88"},"vehicle_type_id":"4","last_reported":1724091070,"current_range_meters":0,"station_id":"ce4bh0p2rcd13ifvqd80","pricing_plan_id":"cebpf4jnsgd1na2vs0mg"},{"bike_id":"ecb8d800-a22f-441f-954e-8ce1aefba09f","system_id":"levelo_inurba_marseille","lat":43.305994,"lon":5.393687,"is_reserved":false,"is_disabled":false,"rental_uris":{"android":"levelo://app?vid=ecb8d800-a22f-441f-954e-8ce1aefba09f","ios":"levelo://app?vid=ecb8d800-a22f-441f-954e-8ce1aefba09f"},"vehicle_type_id":"4","last_reported":1724091070,"current_range_meters":0,"station_id":"ce4bh0p2rcd13ifvqd80","pricing_plan_id":"cebpf4jnsgd1na2vs0mg"},{"bike_id":"eb91f7c7-aeb0-4b21-ad43-04c3fcb8067c","system_id":"levelo_inurba_marseille","lat":43.302992,"lon":5.392136,"is_reserved":false,"is_disabled":false,"rental_uris":{"android":"levelo://app?vid=eb91f7c7-aeb0-4b21-ad43-04c3fcb8067c","ios":"levelo://app?vid=eb91f7c7-aeb0-4b21-ad43-04c3fcb8067c"},"vehicle_type_id":"4","last_reported":1724091070,"current_range_meters":18400,"station_id":"ce4bgkh2rcd13ifvqbk0","pricing_plan_id":"cebpf4jnsgd1na2vs0mg"},{"bike_id":"cc013c9c-d3ce-479a-abe2-4a6c3c20b1cd","system_id":"levelo_inurba_marseille","lat":43.303002,"lon":5.392142,"is_reserved":false,"is_disabled":false,"rental_uris":{"android":"levelo://app?vid=cc013c9c-d3ce-479a-abe2-4a6c3c20b1cd","ios":"levelo://app?vid=cc013c9c-d3ce-479a-abe2-4a6c3c20b1cd"},"vehicle_type_id":"4","last_reported":1724091070,"current_range_meters":1600,"station_id":"ce4bgkh2rcd13ifvqbk0","pricing_plan_id":"cebpf4jnsgd1na2vs0mg"},{"bike_id":"44ce25ce-d647-4791-8037-6f0cc6b17220","system_id":"levelo_inurba_marseille","lat":43.303002,"lon":5.392142,"is_reserved":false,"is_disabled":false,"rental_uris":{"android":"levelo://app?vid=44ce25ce-d647-4791-8037-6f0cc6b17220","ios":"levelo://app?vid=44ce25ce-d647-4791-8037-6f0cc6b17220"},"vehicle_type_id":"4","last_reported":1724091070,"current_range_meters":22800,"station_id":"ce4bgkh2rcd13ifvqbk0","pricing_plan_id":"cebpf4jnsgd1na2vs0mg"},{"bike_id":"65a575e4-3260-47e0-87fb-ddc5fb930b1d","system_id":"levelo_inurba_marseille","lat":43.29224,"lon":5.36049,"is_reserved":false,"is_disabled":false,"rental_uris":{"android":"levelo://app?vid=65a575e4-3260-47e0-87fb-ddc5fb930b1d","ios":"levelo://app?vid=65a575e4-3260-47e0-87fb-ddc5fb930b1d"},"vehicle_type_id":"4","last_reported":1724091070,"current_range_meters":29200,"station_id":"ce4bhbh2rcd13ifvqeqg","pricing_plan_id":"cebpf4jnsgd1na2vs0mg"},{"bike_id":"0bbeeee4-1eed-4fac-9bde-9a302816523f","system_id":"levelo_inurba_marseille","lat":43.29221,"lon":5.36061,"is_reserved":false,"is_disabled":false,"rental_uris":{"android":"levelo://app?vid=0bbeeee4-1eed-4fac-9bde-9a302816523f","ios":"levelo://app?vid=0bbeeee4-1eed-4fac-9bde-9a302816523f"},"vehicle_type_id":"4","last_reported":1724091070,"current_range_meters":0,"station_id":"ce4bhbh2rcd13ifvqeqg","pricing_plan_id":"cebpf4jnsgd1na2vs0mg"},{"bike_id":"1c95d7c4-4ab7-495e-b476-7569e7bfd379","system_id":"levelo_inurba_marseille","lat":43.29217,"lon":5.36046,"is_reserved":false,"is_disabled":false,"rental_uris":{"android":"levelo://app?vid=1c95d7c4-4ab7-495e-b476-7569e7bfd379","ios":"levelo://app?vid=1c95d7c4-4ab7-495e-b476-7569e7bfd379"},"vehicle_type_id":"4","last_reported":1724091070,"current_range_meters":0,"station_id":"ce4bhbh2rcd13ifvqeqg","pricing_plan_id":"cebpf4jnsgd1na2vs0mg"},{"bike_id":"1bd94c61-8bcd-4bb7-a03e-a458105a02e0","system_id":"levelo_inurba_marseille","lat":43.292005,"lon":5.357875,"is_reserved":false,"is_disabled":false,"rental_uris":{"android":"levelo://app?vid=1bd94c61-8bcd-4bb7-a03e-a458105a02e0","ios":"levelo://app?vid=1bd94c61-8bcd-4bb7-a03e-a458105a02e0"},"vehicle_type_id":"4","last_reported":1724091070,"current_range_meters":0,"station_id":"ce4bhb12rcd13ifvqel0","pricing_plan_id":"cebpf4jnsgd1na2vs0mg"},{"bike_id":"9c169f8d-9638-4fb3-9530-01f53ba04841","system_id":"levelo_inurba_marseille","lat":43.313291,"lon":5.396838,"is_reserved":false,"is_disabled":false,"rental_uris":{"android":"levelo://app?vid=9c169f8d-9638-4fb3-9530-01f53ba04841","ios":"levelo://app?vid=9c169f8d-9638-4fb3-9530-01f53ba04841"},"vehicle_type_id":"4","last_reported":1724091070,"current_range_meters":3200,"station_id":"ce4bgvp2rcd13ifvqcu0","pricing_plan_id":"cebpf4jnsgd1na2vs0mg"},{"bike_id":"5f155c47-5aab-47ca-a02a-e7c98bb5f26b","system_id":"levelo_inurba_marseille","lat":43.313291,"lon":5.396838,"is_reserved":false,"is_disabled":false,"rental_uris":{"android":"levelo://app?vid=5f155c47-5aab-47ca-a02a-e7c98bb5f26b","ios":"levelo://app?vid=5f155c47-5aab-47ca-a02a-e7c98bb5f26b"},"vehicle_type_id":"4","last_reported":1724091070,"current_range_meters":4400,"station_id":"ce4bgvp2rcd13ifvqcu0","pricing_plan_id":"cebpf4jnsgd1na2vs0mg"},{"bike_id":"9855bd80-aa3b-4d33-9560-4db88f484dac","system_id":"levelo_inurba_marseille","lat":43.313291,"lon":5.396838,"is_reserved":false,"is_disabled":false,"rental_uris":{"android":"levelo://app?vid=9855bd80-aa3b-4d33-9560-4db88f484dac","ios":"levelo://app?vid=9855bd80-aa3b-4d33-9560-4db88f484dac"},"vehicle_type_id":"4","last_reported":1724091070,"current_range_meters":1600,"station_id":"ce4bgvp2rcd13ifvqcu0","pricing_plan_id":"cebpf4jnsgd1na2vs0mg"},{"bike_id":"f0b2bd71-c0ad-4213-8737-ae93538f1fdf","system_id":"levelo_inurba_marseille","lat":43.309038,"lon":5.396546,"is_reserved":false,"is_disabled":false,"rental_uris":{"android":"levelo://app?vid=f0b2bd71-c0ad-4213-8737-ae93538f1fdf","ios":"levelo://app?vid=f0b2bd71-c0ad-4213-8737-ae93538f1fdf"},"vehicle_type_id":"4","last_reported":1724091070,"current_range_meters":28400,"station_id":"ce4bh012rcd13ifvqcv0","pricing_plan_id":"cebpf4jnsgd1na2vs0mg"},{"bike_id":"5e86844a-70c4-4956-b78d-55da2fa485f4","system_id":"levelo_inurba_marseille","lat":43.309038,"lon":5.396546,"is_reserved":false,"is_disabled":false,"rental_uris":{"android":"levelo://app?vid=5e86844a-70c4-4956-b78d-55da2fa485f4","ios":"levelo://app?vid=5e86844a-70c4-4956-b78d-55da2fa485f4"},"vehicle_type_id":"4","last_reported":1724091070,"current_range_meters":10400,"station_id":"ce4bh012rcd13ifvqcv0","pricing_plan_id":"cebpf4jnsgd1na2vs0mg"},{"bike_id":"6eacbc7d-422f-4ea1-8c9a-9c4f1879148d","system_id":"levelo_inurba_marseille","lat":43.297553,"lon":5.388793,"is_reserved":false,"is_disabled":false,"rental_uris":{"android":"levelo://app?vid=6eacbc7d-422f-4ea1-8c9a-9c4f1879148d","ios":"levelo://app?vid=6eacbc7d-422f-4ea1-8c9a-9c4f1879148d"},"vehicle_type_id":"4","last_reported":1724091070,"current_range_meters":0,"station_id":"","pricing_plan_id":"cebpf4jnsgd1na2vs0mg"},{"bike_id":"3a6e09a4-4b85-4434-8d8b-50623c2291a3","system_id":"levelo_inurba_marseille","lat":43.29527,"lon":5.38536,"is_reserved":false,"is_disabled":false,"rental_uris":{"android":"levelo://app?vid=3a6e09a4-4b85-4434-8d8b-50623c2291a3","ios":"levelo://app?vid=3a6e09a4-4b85-4434-8d8b-50623c2291a3"},"vehicle_type_id":"4","last_reported":1724091070,"current_range_meters":1600,"station_id":"ce4bgih2rcd13ifvqba0","pricing_plan_id":"cebpf4jnsgd1na2vs0mg"},{"bike_id":"de5ace81-673a-4d72-b502-28cdac808a60","system_id":"levelo_inurba_marseille","lat":43.29529,"lon":5.385581,"is_reserved":false,"is_disabled":false,"rental_uris":{"android":"levelo://app?vid=de5ace81-673a-4d72-b502-28cdac808a60","ios":"levelo://app?vid=de5ace81-673a-4d72-b502-28cdac808a60"},"vehicle_type_id":"4","last_reported":1724091070,"current_range_meters":1200,"station_id":"ce4bgih2rcd13ifvqba0","pricing_plan_id":"cebpf4jnsgd1na2vs0mg"},{"bike_id":"8fb86080-39e0-498f-92b3-5d640e797380","system_id":"levelo_inurba_marseille","lat":43.290779,"lon":5.371482,"is_reserved":false,"is_disabled":false,"rental_uris":{"android":"levelo://app?vid=8fb86080-39e0-498f-92b3-5d640e797380","ios":"levelo://app?vid=8fb86080-39e0-498f-92b3-5d640e797380"},"vehicle_type_id":"4","last_reported":1724091070,"current_range_meters":3200,"station_id":"ce4bh5p2rcd13ifvqe4g","pricing_plan_id":"cebpf4jnsgd1na2vs0mg"},{"bike_id":"0ee840ee-19de-4e90-b3e3-d3acb8c8ffdb","system_id":"levelo_inurba_marseille","lat":43.29046,"lon":5.35908,"is_reserved":false,"is_disabled":false,"rental_uris":{"android":"levelo://app?vid=0ee840ee-19de-4e90-b3e3-d3acb8c8ffdb","ios":"levelo://app?vid=0ee840ee-19de-4e90-b3e3-d3acb8c8ffdb"},"vehicle_type_id":"4","last_reported":1724091070,"current_range_meters":19600,"station_id":"ce4bha92rcd13ifvqeg0","pricing_plan_id":"cebpf4jnsgd1na2vs0mg"},{"bike_id":"d2772b46-5159-493d-ad77-29e22916883a","system_id":"levelo_inurba_marseille","lat":43.290631,"lon":5.359244,"is_reserved":false,"is_disabled":false,"rental_uris":{"android":"levelo://app?vid=d2772b46-5159-493d-ad77-29e22916883a","ios":"levelo://app?vid=d2772b46-5159-493d-ad77-29e22916883a"},"vehicle_type_id":"4","last_reported":1724091070,"current_range_meters":400,"station_id":"ce4bha92rcd13ifvqeg0","pricing_plan_id":"cebpf4jnsgd1na2vs0mg"},{"bike_id":"9b3187f6-049b-4894-bb9c-9806b6e18d13","system_id":"levelo_inurba_marseille","lat":43.294153,"lon":5.386305,"is_reserved":false,"is_disabled":false,"rental_uris":{"android":"levelo://app?vid=9b3187f6-049b-4894-bb9c-9806b6e18d13","ios":"levelo://app?vid=9b3187f6-049b-4894-bb9c-9806b6e18d13"},"vehicle_type_id":"4","last_reported":1724091070,"current_range_meters":400,"station_id":"ce4bh2h2rcd13ifvqdh0","pricing_plan_id":"cebpf4jnsgd1na2vs0mg"},{"bike_id":"48ea179a-2cfc-47fe-90a2-57e7e2e5626e","system_id":"levelo_inurba_marseille","lat":43.294153,"lon":5.386305,"is_reserved":false,"is_disabled":false,"rental_uris":{"android":"levelo://app?vid=48ea179a-2cfc-47fe-90a2-57e7e2e5626e","ios":"levelo://app?vid=48ea179a-2cfc-47fe-90a2-57e7e2e5626e"},"vehicle_type_id":"4","last_reported":1724091070,"current_range_meters":14800,"station_id":"ce4bh2h2rcd13ifvqdh0","pricing_plan_id":"cebpf4jnsgd1na2vs0mg"},{"bike_id":"8380e0ef-1974-4104-be3c-6bd8bd41b4b2","system_id":"levelo_inurba_marseille","lat":43.28951,"lon":5.36636,"is_reserved":false,"is_disabled":false,"rental_uris":{"android":"levelo://app?vid=8380e0ef-1974-4104-be3c-6bd8bd41b4b2","ios":"levelo://app?vid=8380e0ef-1974-4104-be3c-6bd8bd41b4b2"},"vehicle_type_id":"4","last_reported":1724091070,"current_range_meters":15600,"station_id":"ce4bhap2rcd13ifvqek0","pricing_plan_id":"cebpf4jnsgd1na2vs0mg"},{"bike_id":"c81bc7e1-5ff1-4a5a-ac15-a3b2157cecb9","system_id":"levelo_inurba_marseille","lat":43.29419,"lon":5.38618,"is_reserved":false,"is_disabled":false,"rental_uris":{"android":"levelo://app?vid=c81bc7e1-5ff1-4a5a-ac15-a3b2157cecb9","ios":"levelo://app?vid=c81bc7e1-5ff1-4a5a-ac15-a3b2157cecb9"},"vehicle_type_id":"4","last_reported":1724091070,"current_range_meters":0,"station_id":"ce4bh2h2rcd13ifvqdh0","pricing_plan_id":"cebpf4jnsgd1na2vs0mg"},{"bike_id":"19e0a2eb-3cdd-4d42-9020-fc7b0bdb7dd5","system_id":"levelo_inurba_marseille","lat":43.29417,"lon":5.38618,"is_reserved":false,"is_disabled":false,"rental_uris":{"android":"levelo://app?vid=19e0a2eb-3cdd-4d42-9020-fc7b0bdb7dd5","ios":"levelo://app?vid=19e0a2eb-3cdd-4d42-9020-fc7b0bdb7dd5"},"vehicle_type_id":"4","last_reported":1724091070,"current_range_meters":23200,"station_id":"ce4bh2h2rcd13ifvqdh0","pricing_plan_id":"cebpf4jnsgd1na2vs0mg"},{"bike_id":"5de157cb-5f27-45ef-b401-5e0805ae2bc0","system_id":"levelo_inurba_marseille","lat":43.29416,"lon":5.38624,"is_reserved":false,"is_disabled":false,"rental_uris":{"android":"levelo://app?vid=5de157cb-5f27-45ef-b401-5e0805ae2bc0","ios":"levelo://app?vid=5de157cb-5f27-45ef-b401-5e0805ae2bc0"},"vehicle_type_id":"4","last_reported":1724091070,"current_range_meters":0,"station_id":"ce4bh2h2rcd13ifvqdh0","pricing_plan_id":"cebpf4jnsgd1na2vs0mg"},{"bike_id":"cb025e33-35e0-4bd3-b3a2-ec004b5cb028","system_id":"levelo_inurba_marseille","lat":43.29415,"lon":5.38626,"is_reserved":false,"is_disabled":false,"rental_uris":{"android":"levelo://app?vid=cb025e33-35e0-4bd3-b3a2-ec004b5cb028","ios":"levelo://app?vid=cb025e33-35e0-4bd3-b3a2-ec004b5cb028"},"vehicle_type_id":"4","last_reported":1724091070,"current_range_meters":3600,"station_id":"","pricing_plan_id":"cebpf4jnsgd1na2vs0mg"},{"bike_id":"63e2c24f-17a4-458d-903d-8c87938ab19d","system_id":"levelo_inurba_marseille","lat":43.294162,"lon":5.386292,"is_reserved":false,"is_disabled":false,"rental_uris":{"android":"levelo://app?vid=63e2c24f-17a4-458d-903d-8c87938ab19d","ios":"levelo://app?vid=63e2c24f-17a4-458d-903d-8c87938ab19d"},"vehicle_type_id":"4","last_reported":1724091070,"current_range_meters":10400,"station_id":"ce4bh2h2rcd13ifvqdh0","pricing_plan_id":"cebpf4jnsgd1na2vs0mg"},{"bike_id":"0e47680e-5b70-4e9c-b5be-1fc1f71c3489","system_id":"levelo_inurba_marseille","lat":43.2894,"lon":5.36635,"is_reserved":false,"is_disabled":false,"rental_uris":{"android":"levelo://app?vid=0e47680e-5b70-4e9c-b5be-1fc1f71c3489","ios":"levelo://app?vid=0e47680e-5b70-4e9c-b5be-1fc1f71c3489"},"vehicle_type_id":"4","last_reported":1724091070,"current_range_meters":0,"station_id":"ce4bhap2rcd13ifvqek0","pricing_plan_id":"cebpf4jnsgd1na2vs0mg"},{"bike_id":"ae9d3aaf-9614-4363-9636-46418d1dc355","system_id":"levelo_inurba_marseille","lat":43.294162,"lon":5.386292,"is_reserved":false,"is_disabled":false,"rental_uris":{"android":"levelo://app?vid=ae9d3aaf-9614-4363-9636-46418d1dc355","ios":"levelo://app?vid=ae9d3aaf-9614-4363-9636-46418d1dc355"},"vehicle_type_id":"4","last_reported":1724091070,"current_range_meters":0,"station_id":"ce4bh2h2rcd13ifvqdh0","pricing_plan_id":"cebpf4jnsgd1na2vs0mg"},{"bike_id":"199b2f7a-c08b-4cee-b35c-e645a14f8de8","system_id":"levelo_inurba_marseille","lat":43.289184,"lon":5.366408,"is_reserved":false,"is_disabled":false,"rental_uris":{"android":"levelo://app?vid=199b2f7a-c08b-4cee-b35c-e645a14f8de8","ios":"levelo://app?vid=199b2f7a-c08b-4cee-b35c-e645a14f8de8"},"vehicle_type_id":"4","last_reported":1724091070,"current_range_meters":1200,"station_id":"ce4bhap2rcd13ifvqek0","pricing_plan_id":"cebpf4jnsgd1na2vs0mg"},{"bike_id":"1111e986-4930-44ae-a61f-d2fbb1113de7","system_id":"levelo_inurba_marseille","lat":43.28937,"lon":5.3663,"is_reserved":false,"is_disabled":false,"rental_uris":{"android":"levelo://app?vid=1111e986-4930-44ae-a61f-d2fbb1113de7","ios":"levelo://app?vid=1111e986-4930-44ae-a61f-d2fbb1113de7"},"vehicle_type_id":"4","last_reported":1724091070,"current_range_meters":15600,"station_id":"ce4bhap2rcd13ifvqek0","pricing_plan_id":"cebpf4jnsgd1na2vs0mg"},{"bike_id":"53cc0377-d591-422c-b666-180cc5ea29eb","system_id":"levelo_inurba_marseille","lat":43.28936,"lon":5.36622,"is_reserved":false,"is_disabled":false,"rental_uris":{"android":"levelo://app?vid=53cc0377-d591-422c-b666-180cc5ea29eb","ios":"levelo://app?vid=53cc0377-d591-422c-b666-180cc5ea29eb"},"vehicle_type_id":"4","last_reported":1724091070,"current_range_meters":6000,"station_id":"ce4bhap2rcd13ifvqek0","pricing_plan_id":"cebpf4jnsgd1na2vs0mg"},{"bike_id":"4e066f76-5c49-478d-9959-c4fef4bd3e36","system_id":"levelo_inurba_marseille","lat":43.28934,"lon":5.36632,"is_reserved":false,"is_disabled":false,"rental_uris":{"android":"levelo://app?vid=4e066f76-5c49-478d-9959-c4fef4bd3e36","ios":"levelo://app?vid=4e066f76-5c49-478d-9959-c4fef4bd3e36"},"vehicle_type_id":"4","last_reported":1724091070,"current_range_meters":0,"station_id":"ce4bhap2rcd13ifvqek0","pricing_plan_id":"cebpf4jnsgd1na2vs0mg"},{"bike_id":"dc8c3631-a90a-48f4-b710-3c6f00d20971","system_id":"levelo_inurba_marseille","lat":43.28939,"lon":5.36414,"is_reserved":false,"is_disabled":false,"rental_uris":{"android":"levelo://app?vid=dc8c3631-a90a-48f4-b710-3c6f00d20971","ios":"levelo://app?vid=dc8c3631-a90a-48f4-b710-3c6f00d20971"},"vehicle_type_id":"4","last_reported":1724091070,"current_range_meters":0,"station_id":"ce4bhc92rcd13ifvqetg","pricing_plan_id":"cebpf4jnsgd1na2vs0mg"},{"bike_id":"6d737421-698a-4011-a456-745f6c22e053","system_id":"levelo_inurba_marseille","lat":43.289404,"lon":5.363866,"is_reserved":false,"is_disabled":false,"rental_uris":{"android":"levelo://app?vid=6d737421-698a-4011-a456-745f6c22e053","ios":"levelo://app?vid=6d737421-698a-4011-a456-745f6c22e053"},"vehicle_type_id":"4","last_reported":1724091070,"current_range_meters":26000,"station_id":"ce4bhc92rcd13ifvqetg","pricing_plan_id":"cebpf4jnsgd1na2vs0mg"},{"bike_id":"c1f87479-72cc-428e-85e6-bab81b3e6cb8","system_id":"levelo_inurba_marseille","lat":43.29269,"lon":5.38433,"is_reserved":false,"is_disabled":false,"rental_uris":{"android":"levelo://app?vid=c1f87479-72cc-428e-85e6-bab81b3e6cb8","ios":"levelo://app?vid=c1f87479-72cc-428e-85e6-bab81b3e6cb8"},"vehicle_type_id":"4","last_reported":1724091070,"current_range_meters":0,"station_id":"ce4bh692rcd13ifvqea0","pricing_plan_id":"cebpf4jnsgd1na2vs0mg"},{"bike_id":"57666181-1120-4c1d-aad4-6e7e1ddd9bec","system_id":"levelo_inurba_marseille","lat":43.292644,"lon":5.384257,"is_reserved":false,"is_disabled":false,"rental_uris":{"android":"levelo://app?vid=57666181-1120-4c1d-aad4-6e7e1ddd9bec","ios":"levelo://app?vid=57666181-1120-4c1d-aad4-6e7e1ddd9bec"},"vehicle_type_id":"4","last_reported":1724091070,"current_range_meters":3600,"station_id":"ce4bh692rcd13ifvqea0","pricing_plan_id":"cebpf4jnsgd1na2vs0mg"},{"bike_id":"7d3a5a09-d50a-45f2-8824-f91dfe2f8bf5","system_id":"levelo_inurba_marseille","lat":43.29267,"lon":5.38443,"is_reserved":false,"is_disabled":false,"rental_uris":{"android":"levelo://app?vid=7d3a5a09-d50a-45f2-8824-f91dfe2f8bf5","ios":"levelo://app?vid=7d3a5a09-d50a-45f2-8824-f91dfe2f8bf5"},"vehicle_type_id":"4","last_reported":1724091070,"current_range_meters":22000,"station_id":"ce4bh692rcd13ifvqea0","pricing_plan_id":"cebpf4jnsgd1na2vs0mg"},{"bike_id":"3abe3ff4-802a-4fcf-8d3e-6931c811feb1","system_id":"levelo_inurba_marseille","lat":43.292644,"lon":5.384257,"is_reserved":false,"is_disabled":false,"rental_uris":{"android":"levelo://app?vid=3abe3ff4-802a-4fcf-8d3e-6931c811feb1","ios":"levelo://app?vid=3abe3ff4-802a-4fcf-8d3e-6931c811feb1"},"vehicle_type_id":"4","last_reported":1724091070,"current_range_meters":22400,"station_id":"ce4bh692rcd13ifvqea0","pricing_plan_id":"cebpf4jnsgd1na2vs0mg"},{"bike_id":"8b06c9cf-56c2-4754-94a5-7a7a8620afaf","system_id":"levelo_inurba_marseille","lat":43.292644,"lon":5.384257,"is_reserved":false,"is_disabled":false,"rental_uris":{"android":"levelo://app?vid=8b06c9cf-56c2-4754-94a5-7a7a8620afaf","ios":"levelo://app?vid=8b06c9cf-56c2-4754-94a5-7a7a8620afaf"},"vehicle_type_id":"4","last_reported":1724091070,"current_range_meters":11200,"station_id":"ce4bh692rcd13ifvqea0","pricing_plan_id":"cebpf4jnsgd1na2vs0mg"},{"bike_id":"a8c567dd-b4ec-4f70-b5f1-a4fce782abc4","system_id":"levelo_inurba_marseille","lat":43.29527,"lon":5.38913,"is_reserved":false,"is_disabled":false,"rental_uris":{"android":"levelo://app?vid=a8c567dd-b4ec-4f70-b5f1-a4fce782abc4","ios":"levelo://app?vid=a8c567dd-b4ec-4f70-b5f1-a4fce782abc4"},"vehicle_type_id":"4","last_reported":1724091070,"current_range_meters":5200,"station_id":"","pricing_plan_id":"cebpf4jnsgd1na2vs0mg"},{"bike_id":"520b2a5d-2b20-42f7-971c-7689c88c1073","system_id":"levelo_inurba_marseille","lat":43.292662,"lon":5.384478,"is_reserved":false,"is_disabled":false,"rental_uris":{"android":"levelo://app?vid=520b2a5d-2b20-42f7-971c-7689c88c1073","ios":"levelo://app?vid=520b2a5d-2b20-42f7-971c-7689c88c1073"},"vehicle_type_id":"4","last_reported":1724091070,"current_range_meters":0,"station_id":"ce4bh692rcd13ifvqea0","pricing_plan_id":"cebpf4jnsgd1na2vs0mg"},{"bike_id":"270ec56c-0c4b-4938-88a9-a6ed536bfd2b","system_id":"levelo_inurba_marseille","lat":43.292642,"lon":5.384254,"is_reserved":false,"is_disabled":false,"rental_uris":{"android":"levelo://app?vid=270ec56c-0c4b-4938-88a9-a6ed536bfd2b","ios":"levelo://app?vid=270ec56c-0c4b-4938-88a9-a6ed536bfd2b"},"vehicle_type_id":"4","last_reported":1724091070,"current_range_meters":1200,"station_id":"ce4bh692rcd13ifvqea0","pricing_plan_id":"cebpf4jnsgd1na2vs0mg"},{"bike_id":"c6d9b532-56d9-4396-8422-43b511278138","system_id":"levelo_inurba_marseille","lat":43.292642,"lon":5.384254,"is_reserved":false,"is_disabled":false,"rental_uris":{"android":"levelo://app?vid=c6d9b532-56d9-4396-8422-43b511278138","ios":"levelo://app?vid=c6d9b532-56d9-4396-8422-43b511278138"},"vehicle_type_id":"4","last_reported":1724091070,"current_range_meters":21600,"station_id":"ce4bh692rcd13ifvqea0","pricing_plan_id":"cebpf4jnsgd1na2vs0mg"},{"bike_id":"b8734542-50b3-4c45-80a7-fed12626b2c5","system_id":"levelo_inurba_marseille","lat":43.292567,"lon":5.384377,"is_reserved":false,"is_disabled":false,"rental_uris":{"android":"levelo://app?vid=b8734542-50b3-4c45-80a7-fed12626b2c5","ios":"levelo://app?vid=b8734542-50b3-4c45-80a7-fed12626b2c5"},"vehicle_type_id":"4","last_reported":1724091070,"current_range_meters":0,"station_id":"ce4bh692rcd13ifvqea0","pricing_plan_id":"cebpf4jnsgd1na2vs0mg"},{"bike_id":"c0821ec4-ea69-40ff-b532-fe15fc477d6f","system_id":"levelo_inurba_marseille","lat":43.290104,"lon":5.356111,"is_reserved":false,"is_disabled":false,"rental_uris":{"android":"levelo://app?vid=c0821ec4-ea69-40ff-b532-fe15fc477d6f","ios":"levelo://app?vid=c0821ec4-ea69-40ff-b532-fe15fc477d6f"},"vehicle_type_id":"4","last_reported":1724091070,"current_range_meters":15600,"station_id":"ce4bhb92rcd13ifvqen0","pricing_plan_id":"cebpf4jnsgd1na2vs0mg"},{"bike_id":"8f979a9a-2966-4a26-a8bb-9bb9aa882d1b","system_id":"levelo_inurba_marseille","lat":43.292644,"lon":5.384257,"is_reserved":false,"is_disabled":false,"rental_uris":{"android":"levelo://app?vid=8f979a9a-2966-4a26-a8bb-9bb9aa882d1b","ios":"levelo://app?vid=8f979a9a-2966-4a26-a8bb-9bb9aa882d1b"},"vehicle_type_id":"4","last_reported":1724091070,"current_range_meters":20800,"station_id":"ce4bh692rcd13ifvqea0","pricing_plan_id":"cebpf4jnsgd1na2vs0mg"},{"bike_id":"4e30acf3-586f-4466-ab67-087200fe1ac5","system_id":"levelo_inurba_marseille","lat":43.29005,"lon":5.35623,"is_reserved":false,"is_disabled":false,"rental_uris":{"android":"levelo://app?vid=4e30acf3-586f-4466-ab67-087200fe1ac5","ios":"levelo://app?vid=4e30acf3-586f-4466-ab67-087200fe1ac5"},"vehicle_type_id":"4","last_reported":1724091070,"current_range_meters":23600,"station_id":"ce4bhb92rcd13ifvqen0","pricing_plan_id":"cebpf4jnsgd1na2vs0mg"},{"bike_id":"94c8019c-2f1d-4912-9de7-a84bd8c87712","system_id":"levelo_inurba_marseille","lat":43.290104,"lon":5.356111,"is_reserved":false,"is_disabled":false,"rental_uris":{"android":"levelo://app?vid=94c8019c-2f1d-4912-9de7-a84bd8c87712","ios":"levelo://app?vid=94c8019c-2f1d-4912-9de7-a84bd8c87712"},"vehicle_type_id":"4","last_reported":1724091070,"current_range_meters":31200,"station_id":"ce4bhb92rcd13ifvqen0","pricing_plan_id":"cebpf4jnsgd1na2vs0mg"},{"bike_id":"6c9a8f85-7ddc-46ca-84c0-c0d5478a0c11","system_id":"levelo_inurba_marseille","lat":43.29008,"lon":5.3561,"is_reserved":false,"is_disabled":false,"rental_uris":{"android":"levelo://app?vid=6c9a8f85-7ddc-46ca-84c0-c0d5478a0c11","ios":"levelo://app?vid=6c9a8f85-7ddc-46ca-84c0-c0d5478a0c11"},"vehicle_type_id":"4","last_reported":1724091070,"current_range_meters":0,"station_id":"ce4bhb92rcd13ifvqen0","pricing_plan_id":"cebpf4jnsgd1na2vs0mg"},{"bike_id":"3f956197-c604-4e06-9cb8-f7753e24cc37","system_id":"levelo_inurba_marseille","lat":43.290104,"lon":5.356111,"is_reserved":false,"is_disabled":false,"rental_uris":{"android":"levelo://app?vid=3f956197-c604-4e06-9cb8-f7753e24cc37","ios":"levelo://app?vid=3f956197-c604-4e06-9cb8-f7753e24cc37"},"vehicle_type_id":"4","last_reported":1724091070,"current_range_meters":400,"station_id":"ce4bhb92rcd13ifvqen0","pricing_plan_id":"cebpf4jnsgd1na2vs0mg"},{"bike_id":"0ba56349-89d5-42de-880c-b195c3acae40","system_id":"levelo_inurba_marseille","lat":43.290103,"lon":5.356114,"is_reserved":false,"is_disabled":false,"rental_uris":{"android":"levelo://app?vid=0ba56349-89d5-42de-880c-b195c3acae40","ios":"levelo://app?vid=0ba56349-89d5-42de-880c-b195c3acae40"},"vehicle_type_id":"4","last_reported":1724091070,"current_range_meters":0,"station_id":"ce4bhb92rcd13ifvqen0","pricing_plan_id":"cebpf4jnsgd1na2vs0mg"},{"bike_id":"473efb58-4f29-4f82-b870-29a67acf9d46","system_id":"levelo_inurba_marseille","lat":43.29005,"lon":5.35604,"is_reserved":false,"is_disabled":false,"rental_uris":{"android":"levelo://app?vid=473efb58-4f29-4f82-b870-29a67acf9d46","ios":"levelo://app?vid=473efb58-4f29-4f82-b870-29a67acf9d46"},"vehicle_type_id":"4","last_reported":1724091070,"current_range_meters":0,"station_id":"ce4bhb92rcd13ifvqen0","pricing_plan_id":"cebpf4jnsgd1na2vs0mg"},{"bike_id":"4cfc5d26-a4f2-41a0-820c-e610cc8fd719","system_id":"levelo_inurba_marseille","lat":43.29001,"lon":5.35619,"is_reserved":false,"is_disabled":false,"rental_uris":{"android":"levelo://app?vid=4cfc5d26-a4f2-41a0-820c-e610cc8fd719","ios":"levelo://app?vid=4cfc5d26-a4f2-41a0-820c-e610cc8fd719"},"vehicle_type_id":"4","last_reported":1724091070,"current_range_meters":22400,"station_id":"ce4bhb92rcd13ifvqen0","pricing_plan_id":"cebpf4jnsgd1na2vs0mg"},{"bike_id":"f7b523b4-0918-410b-9548-d787696a3ed3","system_id":"levelo_inurba_marseille","lat":43.290104,"lon":5.356111,"is_reserved":false,"is_disabled":false,"rental_uris":{"android":"levelo://app?vid=f7b523b4-0918-410b-9548-d787696a3ed3","ios":"levelo://app?vid=f7b523b4-0918-410b-9548-d787696a3ed3"},"vehicle_type_id":"4","last_reported":1724091070,"current_range_meters":1600,"station_id":"ce4bhb92rcd13ifvqen0","pricing_plan_id":"cebpf4jnsgd1na2vs0mg"},{"bike_id":"3e4d20a9-ffeb-4ebb-a7bd-1ee8c8eea99a","system_id":"levelo_inurba_marseille","lat":43.290995,"lon":5.381361,"is_reserved":false,"is_disabled":false,"rental_uris":{"android":"levelo://app?vid=3e4d20a9-ffeb-4ebb-a7bd-1ee8c8eea99a","ios":"levelo://app?vid=3e4d20a9-ffeb-4ebb-a7bd-1ee8c8eea99a"},"vehicle_type_id":"4","last_reported":1724091070,"current_range_meters":1600,"station_id":"ce4bh512rcd13ifvqe2g","pricing_plan_id":"cebpf4jnsgd1na2vs0mg"},{"bike_id":"5d2e945d-b4a9-481d-b794-7f79c8dabf53","system_id":"levelo_inurba_marseille","lat":43.290995,"lon":5.381361,"is_reserved":false,"is_disabled":false,"rental_uris":{"android":"levelo://app?vid=5d2e945d-b4a9-481d-b794-7f79c8dabf53","ios":"levelo://app?vid=5d2e945d-b4a9-481d-b794-7f79c8dabf53"},"vehicle_type_id":"4","last_reported":1724091070,"current_range_meters":30400,"station_id":"ce4bh512rcd13ifvqe2g","pricing_plan_id":"cebpf4jnsgd1na2vs0mg"},{"bike_id":"b0e9c51f-e69a-4a2c-b402-8be7de335a0d","system_id":"levelo_inurba_marseille","lat":43.290995,"lon":5.381361,"is_reserved":false,"is_disabled":false,"rental_uris":{"android":"levelo://app?vid=b0e9c51f-e69a-4a2c-b402-8be7de335a0d","ios":"levelo://app?vid=b0e9c51f-e69a-4a2c-b402-8be7de335a0d"},"vehicle_type_id":"4","last_reported":1724091070,"current_range_meters":800,"station_id":"ce4bh512rcd13ifvqe2g","pricing_plan_id":"cebpf4jnsgd1na2vs0mg"},{"bike_id":"822b333a-ad43-487c-b412-8c6dd1176a46","system_id":"levelo_inurba_marseille","lat":43.29085,"lon":5.38142,"is_reserved":false,"is_disabled":false,"rental_uris":{"android":"levelo://app?vid=822b333a-ad43-487c-b412-8c6dd1176a46","ios":"levelo://app?vid=822b333a-ad43-487c-b412-8c6dd1176a46"},"vehicle_type_id":"4","last_reported":1724091070,"current_range_meters":12400,"station_id":"ce4bh512rcd13ifvqe2g","pricing_plan_id":"cebpf4jnsgd1na2vs0mg"},{"bike_id":"c2ac57f1-ee9a-4d6a-b498-2ad5e661540b","system_id":"levelo_inurba_marseille","lat":43.297815,"lon":5.393548,"is_reserved":false,"is_disabled":false,"rental_uris":{"android":"levelo://app?vid=c2ac57f1-ee9a-4d6a-b498-2ad5e661540b","ios":"levelo://app?vid=c2ac57f1-ee9a-4d6a-b498-2ad5e661540b"},"vehicle_type_id":"4","last_reported":1724091070,"current_range_meters":0,"station_id":"chh1huq6cuj3fo74tm60","pricing_plan_id":"cebpf4jnsgd1na2vs0mg"},{"bike_id":"7a0f12fa-9403-4724-bcc6-28135ddbf4c4","system_id":"levelo_inurba_marseille","lat":43.297807,"lon":5.393533,"is_reserved":false,"is_disabled":false,"rental_uris":{"android":"levelo://app?vid=7a0f12fa-9403-4724-bcc6-28135ddbf4c4","ios":"levelo://app?vid=7a0f12fa-9403-4724-bcc6-28135ddbf4c4"},"vehicle_type_id":"4","last_reported":1724091070,"current_range_meters":0,"station_id":"chh1huq6cuj3fo74tm60","pricing_plan_id":"cebpf4jnsgd1na2vs0mg"},{"bike_id":"99adbfd8-7d31-48a2-ba37-c350bfaa9743","system_id":"levelo_inurba_marseille","lat":43.29523,"lon":5.39023,"is_reserved":false,"is_disabled":false,"rental_uris":{"android":"levelo://app?vid=99adbfd8-7d31-48a2-ba37-c350bfaa9743","ios":"levelo://app?vid=99adbfd8-7d31-48a2-ba37-c350bfaa9743"},"vehicle_type_id":"4","last_reported":1724091070,"current_range_meters":3200,"station_id":"ce4bh3p2rcd13ifvqdp0","pricing_plan_id":"cebpf4jnsgd1na2vs0mg"},{"bike_id":"c713fa35-4d62-4e3a-9e6e-1f822bda8196","system_id":"levelo_inurba_marseille","lat":43.295255,"lon":5.390287,"is_reserved":false,"is_disabled":false,"rental_uris":{"android":"levelo://app?vid=c713fa35-4d62-4e3a-9e6e-1f822bda8196","ios":"levelo://app?vid=c713fa35-4d62-4e3a-9e6e-1f822bda8196"},"vehicle_type_id":"4","last_reported":1724091070,"current_range_meters":10000,"station_id":"ce4bh3p2rcd13ifvqdp0","pricing_plan_id":"cebpf4jnsgd1na2vs0mg"},{"bike_id":"b7c339b4-d2c5-4259-b9d7-34229b58eb48","system_id":"levelo_inurba_marseille","lat":43.297807,"lon":5.393533,"is_reserved":false,"is_disabled":false,"rental_uris":{"android":"levelo://app?vid=b7c339b4-d2c5-4259-b9d7-34229b58eb48","ios":"levelo://app?vid=b7c339b4-d2c5-4259-b9d7-34229b58eb48"},"vehicle_type_id":"4","last_reported":1724091070,"current_range_meters":30000,"station_id":"chh1huq6cuj3fo74tm60","pricing_plan_id":"cebpf4jnsgd1na2vs0mg"},{"bike_id":"84142532-8aae-48de-8278-50aae15f87b2","system_id":"levelo_inurba_marseille","lat":43.330442,"lon":5.389148,"is_reserved":false,"is_disabled":false,"rental_uris":{"android":"levelo://app?vid=84142532-8aae-48de-8278-50aae15f87b2","ios":"levelo://app?vid=84142532-8aae-48de-8278-50aae15f87b2"},"vehicle_type_id":"4","last_reported":1724091070,"current_range_meters":23200,"station_id":"ce4bhr92rcd13ifvqhrg","pricing_plan_id":"cebpf4jnsgd1na2vs0mg"},{"bike_id":"5cb610bc-a0fe-4603-bb8f-c4cb3793b497","system_id":"levelo_inurba_marseille","lat":43.33023,"lon":5.39038,"is_reserved":false,"is_disabled":false,"rental_uris":{"android":"levelo://app?vid=5cb610bc-a0fe-4603-bb8f-c4cb3793b497","ios":"levelo://app?vid=5cb610bc-a0fe-4603-bb8f-c4cb3793b497"},"vehicle_type_id":"4","last_reported":1724091070,"current_range_meters":6800,"station_id":"ce4bhr92rcd13ifvqhrg","pricing_plan_id":"cebpf4jnsgd1na2vs0mg"},{"bike_id":"8b995eda-d792-4667-8e45-2a3b6bc9f8e8","system_id":"levelo_inurba_marseille","lat":43.33019,"lon":5.39044,"is_reserved":false,"is_disabled":false,"rental_uris":{"android":"levelo://app?vid=8b995eda-d792-4667-8e45-2a3b6bc9f8e8","ios":"levelo://app?vid=8b995eda-d792-4667-8e45-2a3b6bc9f8e8"},"vehicle_type_id":"4","last_reported":1724091070,"current_range_meters":30800,"station_id":"ce4bhr92rcd13ifvqhrg","pricing_plan_id":"cebpf4jnsgd1na2vs0mg"},{"bike_id":"904a4870-7a67-444e-936c-64e899f803e3","system_id":"levelo_inurba_marseille","lat":43.33023,"lon":5.3904,"is_reserved":false,"is_disabled":false,"rental_uris":{"android":"levelo://app?vid=904a4870-7a67-444e-936c-64e899f803e3","ios":"levelo://app?vid=904a4870-7a67-444e-936c-64e899f803e3"},"vehicle_type_id":"4","last_reported":1724091070,"current_range_meters":31200,"station_id":"ce4bhr92rcd13ifvqhrg","pricing_plan_id":"cebpf4jnsgd1na2vs0mg"},{"bike_id":"864a9688-380a-454b-bf6d-85255f4cbe06","system_id":"levelo_inurba_marseille","lat":43.33023,"lon":5.3904,"is_reserved":false,"is_disabled":false,"rental_uris":{"android":"levelo://app?vid=864a9688-380a-454b-bf6d-85255f4cbe06","ios":"levelo://app?vid=864a9688-380a-454b-bf6d-85255f4cbe06"},"vehicle_type_id":"4","last_reported":1724091070,"current_range_meters":27200,"station_id":"ce4bhr92rcd13ifvqhrg","pricing_plan_id":"cebpf4jnsgd1na2vs0mg"},{"bike_id":"bb76d034-b000-414e-af9e-0cf3d4922ed6","system_id":"levelo_inurba_marseille","lat":43.33024,"lon":5.39041,"is_reserved":false,"is_disabled":false,"rental_uris":{"android":"levelo://app?vid=bb76d034-b000-414e-af9e-0cf3d4922ed6","ios":"levelo://app?vid=bb76d034-b000-414e-af9e-0cf3d4922ed6"},"vehicle_type_id":"4","last_reported":1724091070,"current_range_meters":27200,"station_id":"ce4bhr92rcd13ifvqhrg","pricing_plan_id":"cebpf4jnsgd1na2vs0mg"},{"bike_id":"adb755f0-596a-484b-a14c-c563dd92c33e","system_id":"levelo_inurba_marseille","lat":43.33028,"lon":5.39036,"is_reserved":false,"is_disabled":false,"rental_uris":{"android":"levelo://app?vid=adb755f0-596a-484b-a14c-c563dd92c33e","ios":"levelo://app?vid=adb755f0-596a-484b-a14c-c563dd92c33e"},"vehicle_type_id":"4","last_reported":1724091070,"current_range_meters":30800,"station_id":"ce4bhr92rcd13ifvqhrg","pricing_plan_id":"cebpf4jnsgd1na2vs0mg"},{"bike_id":"ea188c12-63f1-4917-8115-0e3adf763a12","system_id":"levelo_inurba_marseille","lat":43.330277,"lon":5.390375,"is_reserved":false,"is_disabled":false,"rental_uris":{"android":"levelo://app?vid=ea188c12-63f1-4917-8115-0e3adf763a12","ios":"levelo://app?vid=ea188c12-63f1-4917-8115-0e3adf763a12"},"vehicle_type_id":"4","last_reported":1724091070,"current_range_meters":13200,"station_id":"ce4bhr92rcd13ifvqhrg","pricing_plan_id":"cebpf4jnsgd1na2vs0mg"},{"bike_id":"a1f77ca5-3240-4b1b-a07e-c4c4a5330094","system_id":"levelo_inurba_marseille","lat":43.33025,"lon":5.39043,"is_reserved":false,"is_disabled":false,"rental_uris":{"android":"levelo://app?vid=a1f77ca5-3240-4b1b-a07e-c4c4a5330094","ios":"levelo://app?vid=a1f77ca5-3240-4b1b-a07e-c4c4a5330094"},"vehicle_type_id":"4","last_reported":1724091070,"current_range_meters":4400,"station_id":"ce4bhr92rcd13ifvqhrg","pricing_plan_id":"cebpf4jnsgd1na2vs0mg"},{"bike_id":"b71eed40-b982-4749-9ce4-4aeeff8b9c63","system_id":"levelo_inurba_marseille","lat":43.31063,"lon":5.40066,"is_reserved":false,"is_disabled":false,"rental_uris":{"android":"levelo://app?vid=b71eed40-b982-4749-9ce4-4aeeff8b9c63","ios":"levelo://app?vid=b71eed40-b982-4749-9ce4-4aeeff8b9c63"},"vehicle_type_id":"4","last_reported":1724091070,"current_range_meters":6000,"station_id":"","pricing_plan_id":"cebpf4jnsgd1na2vs0mg"},{"bike_id":"ba175562-558a-48cd-a083-feeea47255f7","system_id":"levelo_inurba_marseille","lat":43.289741,"lon":5.378306,"is_reserved":false,"is_disabled":false,"rental_uris":{"android":"levelo://app?vid=ba175562-558a-48cd-a083-feeea47255f7","ios":"levelo://app?vid=ba175562-558a-48cd-a083-feeea47255f7"},"vehicle_type_id":"4","last_reported":1724091070,"current_range_meters":0,"station_id":"ce4bh9p2rcd13ifvqed0","pricing_plan_id":"cebpf4jnsgd1na2vs0mg"},{"bike_id":"9891b78a-7c5a-4aa9-a5f6-084efa2435c5","system_id":"levelo_inurba_marseille","lat":43.2901,"lon":5.381269,"is_reserved":false,"is_disabled":false,"rental_uris":{"android":"levelo://app?vid=9891b78a-7c5a-4aa9-a5f6-084efa2435c5","ios":"levelo://app?vid=9891b78a-7c5a-4aa9-a5f6-084efa2435c5"},"vehicle_type_id":"4","last_reported":1724091070,"current_range_meters":9200,"station_id":"ce4bh4p2rcd13ifvqe1g","pricing_plan_id":"cebpf4jnsgd1na2vs0mg"},{"bike_id":"5104a230-4524-40dc-aaf0-f7ee1a7c43d6","system_id":"levelo_inurba_marseille","lat":43.290094,"lon":5.381264,"is_reserved":false,"is_disabled":false,"rental_uris":{"android":"levelo://app?vid=5104a230-4524-40dc-aaf0-f7ee1a7c43d6","ios":"levelo://app?vid=5104a230-4524-40dc-aaf0-f7ee1a7c43d6"},"vehicle_type_id":"4","last_reported":1724091070,"current_range_meters":20400,"station_id":"ce4bh4p2rcd13ifvqe1g","pricing_plan_id":"cebpf4jnsgd1na2vs0mg"},{"bike_id":"f8f29ea7-67e9-465d-9c41-14d78a3272c2","system_id":"levelo_inurba_marseille","lat":43.28792,"lon":5.36347,"is_reserved":false,"is_disabled":false,"rental_uris":{"android":"levelo://app?vid=f8f29ea7-67e9-465d-9c41-14d78a3272c2","ios":"levelo://app?vid=f8f29ea7-67e9-465d-9c41-14d78a3272c2"},"vehicle_type_id":"4","last_reported":1724091070,"current_range_meters":14800,"station_id":"","pricing_plan_id":"cebpf4jnsgd1na2vs0mg"},{"bike_id":"84c35260-9b23-4672-bf21-5954b0189263","system_id":"levelo_inurba_marseille","lat":43.28856,"lon":5.358371,"is_reserved":false,"is_disabled":false,"rental_uris":{"android":"levelo://app?vid=84c35260-9b23-4672-bf21-5954b0189263","ios":"levelo://app?vid=84c35260-9b23-4672-bf21-5954b0189263"},"vehicle_type_id":"4","last_reported":1724091070,"current_range_meters":0,"station_id":"ce4bhb12rcd13ifvqem0","pricing_plan_id":"cebpf4jnsgd1na2vs0mg"},{"bike_id":"6d12b1b2-0fa4-40e2-808d-6410dabfac64","system_id":"levelo_inurba_marseille","lat":43.28856,"lon":5.358371,"is_reserved":false,"is_disabled":false,"rental_uris":{"android":"levelo://app?vid=6d12b1b2-0fa4-40e2-808d-6410dabfac64","ios":"levelo://app?vid=6d12b1b2-0fa4-40e2-808d-6410dabfac64"},"vehicle_type_id":"4","last_reported":1724091070,"current_range_meters":23200,"station_id":"ce4bhb12rcd13ifvqem0","pricing_plan_id":"cebpf4jnsgd1na2vs0mg"},{"bike_id":"1836cc79-05f9-4e7a-b5bb-2f4ade13265f","system_id":"levelo_inurba_marseille","lat":43.337188,"lon":5.374574,"is_reserved":false,"is_disabled":false,"rental_uris":{"android":"levelo://app?vid=1836cc79-05f9-4e7a-b5bb-2f4ade13265f","ios":"levelo://app?vid=1836cc79-05f9-4e7a-b5bb-2f4ade13265f"},"vehicle_type_id":"4","last_reported":1724091070,"current_range_meters":22800,"station_id":"","pricing_plan_id":"cebpf4jnsgd1na2vs0mg"},{"bike_id":"934e75eb-2ed0-48c4-93ed-e00e28f4eb2b","system_id":"levelo_inurba_marseille","lat":43.28856,"lon":5.358371,"is_reserved":false,"is_disabled":false,"rental_uris":{"android":"levelo://app?vid=934e75eb-2ed0-48c4-93ed-e00e28f4eb2b","ios":"levelo://app?vid=934e75eb-2ed0-48c4-93ed-e00e28f4eb2b"},"vehicle_type_id":"4","last_reported":1724091070,"current_range_meters":6800,"station_id":"ce4bhb12rcd13ifvqem0","pricing_plan_id":"cebpf4jnsgd1na2vs0mg"},{"bike_id":"799b87b2-c987-4960-a967-4bb27e2a8477","system_id":"levelo_inurba_marseille","lat":43.28767,"lon":5.369575,"is_reserved":false,"is_disabled":false,"rental_uris":{"android":"levelo://app?vid=799b87b2-c987-4960-a967-4bb27e2a8477","ios":"levelo://app?vid=799b87b2-c987-4960-a967-4bb27e2a8477"},"vehicle_type_id":"4","last_reported":1724091070,"current_range_meters":0,"station_id":"ce4bh412rcd13ifvqdr0","pricing_plan_id":"cebpf4jnsgd1na2vs0mg"},{"bike_id":"0e29bb4b-a142-468e-b1d8-2aad49f218eb","system_id":"levelo_inurba_marseille","lat":43.33733,"lon":5.37443,"is_reserved":false,"is_disabled":false,"rental_uris":{"android":"levelo://app?vid=0e29bb4b-a142-468e-b1d8-2aad49f218eb","ios":"levelo://app?vid=0e29bb4b-a142-468e-b1d8-2aad49f218eb"},"vehicle_type_id":"4","last_reported":1724091070,"current_range_meters":26400,"station_id":"","pricing_plan_id":"cebpf4jnsgd1na2vs0mg"},{"bike_id":"f05cdcad-3264-4dd8-a586-e4ef94ff04c2","system_id":"levelo_inurba_marseille","lat":43.312609,"lon":5.401662,"is_reserved":false,"is_disabled":false,"rental_uris":{"android":"levelo://app?vid=f05cdcad-3264-4dd8-a586-e4ef94ff04c2","ios":"levelo://app?vid=f05cdcad-3264-4dd8-a586-e4ef94ff04c2"},"vehicle_type_id":"4","last_reported":1724091070,"current_range_meters":18000,"station_id":"ce4bh092rcd13ifvqd30","pricing_plan_id":"cebpf4jnsgd1na2vs0mg"},{"bike_id":"b3bc95aa-c280-4f4d-b1b3-df60b5d859ec","system_id":"levelo_inurba_marseille","lat":43.337444,"lon":5.374475,"is_reserved":false,"is_disabled":false,"rental_uris":{"android":"levelo://app?vid=b3bc95aa-c280-4f4d-b1b3-df60b5d859ec","ios":"levelo://app?vid=b3bc95aa-c280-4f4d-b1b3-df60b5d859ec"},"vehicle_type_id":"3","last_reported":1724091070,"current_range_meters":24800,"station_id":"","pricing_plan_id":"cebpf4jnsgd1na2vs0mg"},{"bike_id":"c17ccc42-1af8-49ae-bfb4-baa3b2f5aa03","system_id":"levelo_inurba_marseille","lat":43.30933,"lon":5.4014,"is_reserved":false,"is_disabled":false,"rental_uris":{"android":"levelo://app?vid=c17ccc42-1af8-49ae-bfb4-baa3b2f5aa03","ios":"levelo://app?vid=c17ccc42-1af8-49ae-bfb4-baa3b2f5aa03"},"vehicle_type_id":"4","last_reported":1724091070,"current_range_meters":2800,"station_id":"ce4bgvp2rcd13ifvqct0","pricing_plan_id":"cebpf4jnsgd1na2vs0mg"},{"bike_id":"87878c88-4043-448e-b5b6-2d7a5db72fb6","system_id":"levelo_inurba_marseille","lat":43.309371,"lon":5.401449,"is_reserved":false,"is_disabled":false,"rental_uris":{"android":"levelo://app?vid=87878c88-4043-448e-b5b6-2d7a5db72fb6","ios":"levelo://app?vid=87878c88-4043-448e-b5b6-2d7a5db72fb6"},"vehicle_type_id":"4","last_reported":1724091070,"current_range_meters":2400,"station_id":"ce4bgvp2rcd13ifvqct0","pricing_plan_id":"cebpf4jnsgd1na2vs0mg"},{"bike_id":"a4b7e1fd-2346-44f3-bc03-fd0bcac7e0a2","system_id":"levelo_inurba_marseille","lat":43.309371,"lon":5.401449,"is_reserved":false,"is_disabled":false,"rental_uris":{"android":"levelo://app?vid=a4b7e1fd-2346-44f3-bc03-fd0bcac7e0a2","ios":"levelo://app?vid=a4b7e1fd-2346-44f3-bc03-fd0bcac7e0a2"},"vehicle_type_id":"4","last_reported":1724091070,"current_range_meters":2400,"station_id":"ce4bgvp2rcd13ifvqct0","pricing_plan_id":"cebpf4jnsgd1na2vs0mg"},{"bike_id":"1efa0b4a-e2bc-496e-a256-a2f14c3799dd","system_id":"levelo_inurba_marseille","lat":43.337462,"lon":5.374581,"is_reserved":false,"is_disabled":false,"rental_uris":{"android":"levelo://app?vid=1efa0b4a-e2bc-496e-a256-a2f14c3799dd","ios":"levelo://app?vid=1efa0b4a-e2bc-496e-a256-a2f14c3799dd"},"vehicle_type_id":"4","last_reported":1724091070,"current_range_meters":10400,"station_id":"","pricing_plan_id":"cebpf4jnsgd1na2vs0mg"},{"bike_id":"54fdf921-46c4-497a-93b1-cbec754b3d62","system_id":"levelo_inurba_marseille","lat":43.33749,"lon":5.37464,"is_reserved":false,"is_disabled":false,"rental_uris":{"android":"levelo://app?vid=54fdf921-46c4-497a-93b1-cbec754b3d62","ios":"levelo://app?vid=54fdf921-46c4-497a-93b1-cbec754b3d62"},"vehicle_type_id":"4","last_reported":1724091070,"current_range_meters":22400,"station_id":"","pricing_plan_id":"cebpf4jnsgd1na2vs0mg"},{"bike_id":"ea41c505-8828-4177-b2e6-7b8d9efa465b","system_id":"levelo_inurba_marseille","lat":43.30931,"lon":5.40149,"is_reserved":false,"is_disabled":false,"rental_uris":{"android":"levelo://app?vid=ea41c505-8828-4177-b2e6-7b8d9efa465b","ios":"levelo://app?vid=ea41c505-8828-4177-b2e6-7b8d9efa465b"},"vehicle_type_id":"4","last_reported":1724091070,"current_range_meters":26800,"station_id":"ce4bgvp2rcd13ifvqct0","pricing_plan_id":"cebpf4jnsgd1na2vs0mg"},{"bike_id":"b1423f14-babe-40c5-96b2-59888468e697","system_id":"levelo_inurba_marseille","lat":43.30928,"lon":5.40154,"is_reserved":false,"is_disabled":false,"rental_uris":{"android":"levelo://app?vid=b1423f14-babe-40c5-96b2-59888468e697","ios":"levelo://app?vid=b1423f14-babe-40c5-96b2-59888468e697"},"vehicle_type_id":"4","last_reported":1724091070,"current_range_meters":10800,"station_id":"ce4bgvp2rcd13ifvqct0","pricing_plan_id":"cebpf4jnsgd1na2vs0mg"},{"bike_id":"5f490b04-8ec8-49bd-9c24-398595aab77a","system_id":"levelo_inurba_marseille","lat":43.30642,"lon":5.401031,"is_reserved":false,"is_disabled":false,"rental_uris":{"android":"levelo://app?vid=5f490b04-8ec8-49bd-9c24-398595aab77a","ios":"levelo://app?vid=5f490b04-8ec8-49bd-9c24-398595aab77a"},"vehicle_type_id":"4","last_reported":1724091070,"current_range_meters":6000,"station_id":"ce4bh112rcd13ifvqda0","pricing_plan_id":"cebpf4jnsgd1na2vs0mg"},{"bike_id":"f7983fae-0445-49de-98fc-00f25bb00ba4","system_id":"levelo_inurba_marseille","lat":43.30648,"lon":5.40103,"is_reserved":false,"is_disabled":false,"rental_uris":{"android":"levelo://app?vid=f7983fae-0445-49de-98fc-00f25bb00ba4","ios":"levelo://app?vid=f7983fae-0445-49de-98fc-00f25bb00ba4"},"vehicle_type_id":"4","last_reported":1724091070,"current_range_meters":0,"station_id":"ce4bh112rcd13ifvqda0","pricing_plan_id":"cebpf4jnsgd1na2vs0mg"},{"bike_id":"f617c3b9-8612-4a18-9ba0-eb4387033ba9","system_id":"levelo_inurba_marseille","lat":43.28891,"lon":5.3539,"is_reserved":false,"is_disabled":false,"rental_uris":{"android":"levelo://app?vid=f617c3b9-8612-4a18-9ba0-eb4387033ba9","ios":"levelo://app?vid=f617c3b9-8612-4a18-9ba0-eb4387033ba9"},"vehicle_type_id":"4","last_reported":1724091070,"current_range_meters":14800,"station_id":"","pricing_plan_id":"cebpf4jnsgd1na2vs0mg"},{"bike_id":"643af8e8-ea13-4626-a006-792b9d098c53","system_id":"levelo_inurba_marseille","lat":43.301117,"lon":5.398795,"is_reserved":false,"is_disabled":false,"rental_uris":{"android":"levelo://app?vid=643af8e8-ea13-4626-a006-792b9d098c53","ios":"levelo://app?vid=643af8e8-ea13-4626-a006-792b9d098c53"},"vehicle_type_id":"4","last_reported":1724091070,"current_range_meters":0,"station_id":"ce4bh0h2rcd13ifvqd40","pricing_plan_id":"cebpf4jnsgd1na2vs0mg"},{"bike_id":"f4104b5f-d0fd-42c6-9c78-cba362a2f0ee","system_id":"levelo_inurba_marseille","lat":43.301117,"lon":5.398795,"is_reserved":false,"is_disabled":false,"rental_uris":{"android":"levelo://app?vid=f4104b5f-d0fd-42c6-9c78-cba362a2f0ee","ios":"levelo://app?vid=f4104b5f-d0fd-42c6-9c78-cba362a2f0ee"},"vehicle_type_id":"4","last_reported":1724091070,"current_range_meters":0,"station_id":"ce4bh0h2rcd13ifvqd40","pricing_plan_id":"cebpf4jnsgd1na2vs0mg"},{"bike_id":"7c569f6c-aa43-42bf-92c0-eccaf75dcfc5","system_id":"levelo_inurba_marseille","lat":43.28727,"lon":5.36078,"is_reserved":false,"is_disabled":false,"rental_uris":{"android":"levelo://app?vid=7c569f6c-aa43-42bf-92c0-eccaf75dcfc5","ios":"levelo://app?vid=7c569f6c-aa43-42bf-92c0-eccaf75dcfc5"},"vehicle_type_id":"4","last_reported":1724091070,"current_range_meters":21600,"station_id":"cki0cbj6b192h4jlfktg","pricing_plan_id":"cebpf4jnsgd1na2vs0mg"},{"bike_id":"e22937a7-7734-404e-8b35-2ea2167dfebe","system_id":"levelo_inurba_marseille","lat":43.28727,"lon":5.36078,"is_reserved":false,"is_disabled":false,"rental_uris":{"android":"levelo://app?vid=e22937a7-7734-404e-8b35-2ea2167dfebe","ios":"levelo://app?vid=e22937a7-7734-404e-8b35-2ea2167dfebe"},"vehicle_type_id":"4","last_reported":1724091070,"current_range_meters":0,"station_id":"cki0cbj6b192h4jlfktg","pricing_plan_id":"cebpf4jnsgd1na2vs0mg"},{"bike_id":"315d63dc-61c2-4ae7-986f-d06cbb9e00f8","system_id":"levelo_inurba_marseille","lat":43.298681,"lon":5.397225,"is_reserved":false,"is_disabled":false,"rental_uris":{"android":"levelo://app?vid=315d63dc-61c2-4ae7-986f-d06cbb9e00f8","ios":"levelo://app?vid=315d63dc-61c2-4ae7-986f-d06cbb9e00f8"},"vehicle_type_id":"4","last_reported":1724091070,"current_range_meters":10800,"station_id":"ce4bh0h2rcd13ifvqd50","pricing_plan_id":"cebpf4jnsgd1na2vs0mg"},{"bike_id":"1e90e5ed-e872-40fe-8fd2-3d15866737d2","system_id":"levelo_inurba_marseille","lat":43.28704,"lon":5.37386,"is_reserved":false,"is_disabled":false,"rental_uris":{"android":"levelo://app?vid=1e90e5ed-e872-40fe-8fd2-3d15866737d2","ios":"levelo://app?vid=1e90e5ed-e872-40fe-8fd2-3d15866737d2"},"vehicle_type_id":"4","last_reported":1724091070,"current_range_meters":14000,"station_id":"ce4bh3p2rcd13ifvqdq0","pricing_plan_id":"cebpf4jnsgd1na2vs0mg"},{"bike_id":"be501ff6-fa5c-4603-8fb3-43a95d1668ed","system_id":"levelo_inurba_marseille","lat":43.298681,"lon":5.397225,"is_reserved":false,"is_disabled":false,"rental_uris":{"android":"levelo://app?vid=be501ff6-fa5c-4603-8fb3-43a95d1668ed","ios":"levelo://app?vid=be501ff6-fa5c-4603-8fb3-43a95d1668ed"},"vehicle_type_id":"4","last_reported":1724091070,"current_range_meters":14800,"station_id":"ce4bh0h2rcd13ifvqd50","pricing_plan_id":"cebpf4jnsgd1na2vs0mg"},{"bike_id":"3cf1523d-4263-449a-94b1-31929bc9c2ed","system_id":"levelo_inurba_marseille","lat":43.286961,"lon":5.373785,"is_reserved":false,"is_disabled":false,"rental_uris":{"android":"levelo://app?vid=3cf1523d-4263-449a-94b1-31929bc9c2ed","ios":"levelo://app?vid=3cf1523d-4263-449a-94b1-31929bc9c2ed"},"vehicle_type_id":"4","last_reported":1724091070,"current_range_meters":11600,"station_id":"ce4bh3p2rcd13ifvqdq0","pricing_plan_id":"cebpf4jnsgd1na2vs0mg"},{"bike_id":"493fae07-cd7d-4669-99d8-d27f0fd0808d","system_id":"levelo_inurba_marseille","lat":43.28662,"lon":5.36353,"is_reserved":false,"is_disabled":false,"rental_uris":{"android":"levelo://app?vid=493fae07-cd7d-4669-99d8-d27f0fd0808d","ios":"levelo://app?vid=493fae07-cd7d-4669-99d8-d27f0fd0808d"},"vehicle_type_id":"4","last_reported":1724091070,"current_range_meters":4000,"station_id":"ce4bhah2rcd13ifvqej0","pricing_plan_id":"cebpf4jnsgd1na2vs0mg"},{"bike_id":"d1ef5aae-0259-4270-932b-0c0c0d62a477","system_id":"levelo_inurba_marseille","lat":43.302759,"lon":5.400793,"is_reserved":false,"is_disabled":false,"rental_uris":{"android":"levelo://app?vid=d1ef5aae-0259-4270-932b-0c0c0d62a477","ios":"levelo://app?vid=d1ef5aae-0259-4270-932b-0c0c0d62a477"},"vehicle_type_id":"4","last_reported":1724091070,"current_range_meters":4000,"station_id":"ce4bgvh2rcd13ifvqcs0","pricing_plan_id":"cebpf4jnsgd1na2vs0mg"},{"bike_id":"64a66495-caf7-4685-86c6-d7403961950e","system_id":"levelo_inurba_marseille","lat":43.290336,"lon":5.386425,"is_reserved":false,"is_disabled":false,"rental_uris":{"android":"levelo://app?vid=64a66495-caf7-4685-86c6-d7403961950e","ios":"levelo://app?vid=64a66495-caf7-4685-86c6-d7403961950e"},"vehicle_type_id":"4","last_reported":1724091070,"current_range_meters":22400,"station_id":"ce4bh4p2rcd13ifvqe0g","pricing_plan_id":"cebpf4jnsgd1na2vs0mg"},{"bike_id":"0df45873-4e30-408a-920f-a33f74045b11","system_id":"levelo_inurba_marseille","lat":43.289307,"lon":5.38406,"is_reserved":false,"is_disabled":false,"rental_uris":{"android":"levelo://app?vid=0df45873-4e30-408a-920f-a33f74045b11","ios":"levelo://app?vid=0df45873-4e30-408a-920f-a33f74045b11"},"vehicle_type_id":"4","last_reported":1724091070,"current_range_meters":8400,"station_id":"ce4bh612rcd13ifvqe6g","pricing_plan_id":"cebpf4jnsgd1na2vs0mg"},{"bike_id":"aaa343a2-5b73-45b5-a98f-d1cb5b0ccadc","system_id":"levelo_inurba_marseille","lat":43.290336,"lon":5.386425,"is_reserved":false,"is_disabled":false,"rental_uris":{"android":"levelo://app?vid=aaa343a2-5b73-45b5-a98f-d1cb5b0ccadc","ios":"levelo://app?vid=aaa343a2-5b73-45b5-a98f-d1cb5b0ccadc"},"vehicle_type_id":"4","last_reported":1724091070,"current_range_meters":0,"station_id":"ce4bh4p2rcd13ifvqe0g","pricing_plan_id":"cebpf4jnsgd1na2vs0mg"},{"bike_id":"5f4ea923-ea39-43e4-b43c-79422de22c07","system_id":"levelo_inurba_marseille","lat":43.290336,"lon":5.386425,"is_reserved":false,"is_disabled":false,"rental_uris":{"android":"levelo://app?vid=5f4ea923-ea39-43e4-b43c-79422de22c07","ios":"levelo://app?vid=5f4ea923-ea39-43e4-b43c-79422de22c07"},"vehicle_type_id":"4","last_reported":1724091070,"current_range_meters":6400,"station_id":"ce4bh4p2rcd13ifvqe0g","pricing_plan_id":"cebpf4jnsgd1na2vs0mg"},{"bike_id":"bb8a795b-35db-40fc-a314-f416de628dd3","system_id":"levelo_inurba_marseille","lat":43.28919,"lon":5.3839,"is_reserved":false,"is_disabled":false,"rental_uris":{"android":"levelo://app?vid=bb8a795b-35db-40fc-a314-f416de628dd3","ios":"levelo://app?vid=bb8a795b-35db-40fc-a314-f416de628dd3"},"vehicle_type_id":"4","last_reported":1724091070,"current_range_meters":26800,"station_id":"ce4bh612rcd13ifvqe6g","pricing_plan_id":"cebpf4jnsgd1na2vs0mg"},{"bike_id":"620f6d9a-1006-4ff5-b4e6-e4dfe9425c3e","system_id":"levelo_inurba_marseille","lat":43.302759,"lon":5.400793,"is_reserved":false,"is_disabled":false,"rental_uris":{"android":"levelo://app?vid=620f6d9a-1006-4ff5-b4e6-e4dfe9425c3e","ios":"levelo://app?vid=620f6d9a-1006-4ff5-b4e6-e4dfe9425c3e"},"vehicle_type_id":"4","last_reported":1724091070,"current_range_meters":12000,"station_id":"ce4bgvh2rcd13ifvqcs0","pricing_plan_id":"cebpf4jnsgd1na2vs0mg"},{"bike_id":"815a893f-e3e2-4fda-8054-06e13e07881e","system_id":"levelo_inurba_marseille","lat":43.30239,"lon":5.40066,"is_reserved":false,"is_disabled":false,"rental_uris":{"android":"levelo://app?vid=815a893f-e3e2-4fda-8054-06e13e07881e","ios":"levelo://app?vid=815a893f-e3e2-4fda-8054-06e13e07881e"},"vehicle_type_id":"4","last_reported":1724091070,"current_range_meters":0,"station_id":"ce4bgvh2rcd13ifvqcs0","pricing_plan_id":"cebpf4jnsgd1na2vs0mg"},{"bike_id":"28d7f4f0-540f-457f-b5c9-f96701938197","system_id":"levelo_inurba_marseille","lat":43.302759,"lon":5.400793,"is_reserved":false,"is_disabled":false,"rental_uris":{"android":"levelo://app?vid=28d7f4f0-540f-457f-b5c9-f96701938197","ios":"levelo://app?vid=28d7f4f0-540f-457f-b5c9-f96701938197"},"vehicle_type_id":"4","last_reported":1724091070,"current_range_meters":27600,"station_id":"ce4bgvh2rcd13ifvqcs0","pricing_plan_id":"cebpf4jnsgd1na2vs0mg"},{"bike_id":"3b3b8e41-72d0-4d17-a5fb-58c9a6e70238","system_id":"levelo_inurba_marseille","lat":43.286039,"lon":5.370679,"is_reserved":false,"is_disabled":false,"rental_uris":{"android":"levelo://app?vid=3b3b8e41-72d0-4d17-a5fb-58c9a6e70238","ios":"levelo://app?vid=3b3b8e41-72d0-4d17-a5fb-58c9a6e70238"},"vehicle_type_id":"4","last_reported":1724091070,"current_range_meters":7200,"station_id":"ce4bht12rcd13ifvqi60","pricing_plan_id":"cebpf4jnsgd1na2vs0mg"},{"bike_id":"cbb5b10d-87a2-496e-9a2c-a71ac8a51136","system_id":"levelo_inurba_marseille","lat":43.28613,"lon":5.3706,"is_reserved":false,"is_disabled":false,"rental_uris":{"android":"levelo://app?vid=cbb5b10d-87a2-496e-9a2c-a71ac8a51136","ios":"levelo://app?vid=cbb5b10d-87a2-496e-9a2c-a71ac8a51136"},"vehicle_type_id":"4","last_reported":1724091070,"current_range_meters":0,"station_id":"ce4bht12rcd13ifvqi60","pricing_plan_id":"cebpf4jnsgd1na2vs0mg"},{"bike_id":"785fde76-f9ea-43d4-940d-06881678668d","system_id":"levelo_inurba_marseille","lat":43.286039,"lon":5.370679,"is_reserved":false,"is_disabled":false,"rental_uris":{"android":"levelo://app?vid=785fde76-f9ea-43d4-940d-06881678668d","ios":"levelo://app?vid=785fde76-f9ea-43d4-940d-06881678668d"},"vehicle_type_id":"4","last_reported":1724091070,"current_range_meters":12000,"station_id":"ce4bht12rcd13ifvqi60","pricing_plan_id":"cebpf4jnsgd1na2vs0mg"},{"bike_id":"900f09cf-821f-43c8-9533-322a27ae3b99","system_id":"levelo_inurba_marseille","lat":43.28611,"lon":5.37057,"is_reserved":false,"is_disabled":false,"rental_uris":{"android":"levelo://app?vid=900f09cf-821f-43c8-9533-322a27ae3b99","ios":"levelo://app?vid=900f09cf-821f-43c8-9533-322a27ae3b99"},"vehicle_type_id":"4","last_reported":1724091070,"current_range_meters":0,"station_id":"ce4bht12rcd13ifvqi60","pricing_plan_id":"cebpf4jnsgd1na2vs0mg"},{"bike_id":"87561b49-1eb3-46d9-9c96-48a4e5319240","system_id":"levelo_inurba_marseille","lat":43.286039,"lon":5.370679,"is_reserved":false,"is_disabled":false,"rental_uris":{"android":"levelo://app?vid=87561b49-1eb3-46d9-9c96-48a4e5319240","ios":"levelo://app?vid=87561b49-1eb3-46d9-9c96-48a4e5319240"},"vehicle_type_id":"4","last_reported":1724091070,"current_range_meters":14400,"station_id":"ce4bht12rcd13ifvqi60","pricing_plan_id":"cebpf4jnsgd1na2vs0mg"},{"bike_id":"4d311b3c-904a-4fb3-9b5b-29afc3fcf5d2","system_id":"levelo_inurba_marseille","lat":43.286039,"lon":5.370679,"is_reserved":false,"is_disabled":false,"rental_uris":{"android":"levelo://app?vid=4d311b3c-904a-4fb3-9b5b-29afc3fcf5d2","ios":"levelo://app?vid=4d311b3c-904a-4fb3-9b5b-29afc3fcf5d2"},"vehicle_type_id":"4","last_reported":1724091070,"current_range_meters":16800,"station_id":"ce4bht12rcd13ifvqi60","pricing_plan_id":"cebpf4jnsgd1na2vs0mg"},{"bike_id":"940bec1a-fd50-49da-9984-5d618c4ffc6a","system_id":"levelo_inurba_marseille","lat":43.28611,"lon":5.37063,"is_reserved":false,"is_disabled":false,"rental_uris":{"android":"levelo://app?vid=940bec1a-fd50-49da-9984-5d618c4ffc6a","ios":"levelo://app?vid=940bec1a-fd50-49da-9984-5d618c4ffc6a"},"vehicle_type_id":"4","last_reported":1724091070,"current_range_meters":4000,"station_id":"ce4bht12rcd13ifvqi60","pricing_plan_id":"cebpf4jnsgd1na2vs0mg"},{"bike_id":"e0c0af7a-6d7f-4e0e-b9e7-001eb89c8a67","system_id":"levelo_inurba_marseille","lat":43.286039,"lon":5.370679,"is_reserved":false,"is_disabled":false,"rental_uris":{"android":"levelo://app?vid=e0c0af7a-6d7f-4e0e-b9e7-001eb89c8a67","ios":"levelo://app?vid=e0c0af7a-6d7f-4e0e-b9e7-001eb89c8a67"},"vehicle_type_id":"4","last_reported":1724091070,"current_range_meters":16800,"station_id":"ce4bht12rcd13ifvqi60","pricing_plan_id":"cebpf4jnsgd1na2vs0mg"},{"bike_id":"4ba9bc1b-d0bc-4240-823e-e93832157a9d","system_id":"levelo_inurba_marseille","lat":43.286039,"lon":5.370679,"is_reserved":false,"is_disabled":false,"rental_uris":{"android":"levelo://app?vid=4ba9bc1b-d0bc-4240-823e-e93832157a9d","ios":"levelo://app?vid=4ba9bc1b-d0bc-4240-823e-e93832157a9d"},"vehicle_type_id":"4","last_reported":1724091070,"current_range_meters":12400,"station_id":"ce4bht12rcd13ifvqi60","pricing_plan_id":"cebpf4jnsgd1na2vs0mg"},{"bike_id":"f2ab60cb-3ae6-432c-a621-a85dd7f1e006","system_id":"levelo_inurba_marseille","lat":43.286039,"lon":5.370679,"is_reserved":false,"is_disabled":false,"rental_uris":{"android":"levelo://app?vid=f2ab60cb-3ae6-432c-a621-a85dd7f1e006","ios":"levelo://app?vid=f2ab60cb-3ae6-432c-a621-a85dd7f1e006"},"vehicle_type_id":"4","last_reported":1724091070,"current_range_meters":18800,"station_id":"ce4bht12rcd13ifvqi60","pricing_plan_id":"cebpf4jnsgd1na2vs0mg"},{"bike_id":"ffd85651-01b2-4247-ba85-c1e811406317","system_id":"levelo_inurba_marseille","lat":43.286093,"lon":5.370695,"is_reserved":false,"is_disabled":false,"rental_uris":{"android":"levelo://app?vid=ffd85651-01b2-4247-ba85-c1e811406317","ios":"levelo://app?vid=ffd85651-01b2-4247-ba85-c1e811406317"},"vehicle_type_id":"4","last_reported":1724091070,"current_range_meters":5600,"station_id":"ce4bht12rcd13ifvqi60","pricing_plan_id":"cebpf4jnsgd1na2vs0mg"},{"bike_id":"cfb14d4b-7b96-4ab3-a3d8-ae18bfbaaef5","system_id":"levelo_inurba_marseille","lat":43.28608,"lon":5.37063,"is_reserved":false,"is_disabled":false,"rental_uris":{"android":"levelo://app?vid=cfb14d4b-7b96-4ab3-a3d8-ae18bfbaaef5","ios":"levelo://app?vid=cfb14d4b-7b96-4ab3-a3d8-ae18bfbaaef5"},"vehicle_type_id":"4","last_reported":1724091070,"current_range_meters":0,"station_id":"ce4bht12rcd13ifvqi60","pricing_plan_id":"cebpf4jnsgd1na2vs0mg"},{"bike_id":"16f472ef-a866-46af-9292-879d19f84242","system_id":"levelo_inurba_marseille","lat":43.28607,"lon":5.37066,"is_reserved":false,"is_disabled":false,"rental_uris":{"android":"levelo://app?vid=16f472ef-a866-46af-9292-879d19f84242","ios":"levelo://app?vid=16f472ef-a866-46af-9292-879d19f84242"},"vehicle_type_id":"4","last_reported":1724091070,"current_range_meters":5600,"station_id":"ce4bht12rcd13ifvqi60","pricing_plan_id":"cebpf4jnsgd1na2vs0mg"},{"bike_id":"0ea46160-a8b5-429c-aba8-b8540f63b45f","system_id":"levelo_inurba_marseille","lat":43.28606,"lon":5.37061,"is_reserved":false,"is_disabled":false,"rental_uris":{"android":"levelo://app?vid=0ea46160-a8b5-429c-aba8-b8540f63b45f","ios":"levelo://app?vid=0ea46160-a8b5-429c-aba8-b8540f63b45f"},"vehicle_type_id":"4","last_reported":1724091070,"current_range_meters":28800,"station_id":"ce4bht12rcd13ifvqi60","pricing_plan_id":"cebpf4jnsgd1na2vs0mg"},{"bike_id":"1887528a-e035-4605-80ac-ad215dc04104","system_id":"levelo_inurba_marseille","lat":43.286039,"lon":5.370679,"is_reserved":false,"is_disabled":false,"rental_uris":{"android":"levelo://app?vid=1887528a-e035-4605-80ac-ad215dc04104","ios":"levelo://app?vid=1887528a-e035-4605-80ac-ad215dc04104"},"vehicle_type_id":"4","last_reported":1724091070,"current_range_meters":400,"station_id":"ce4bht12rcd13ifvqi60","pricing_plan_id":"cebpf4jnsgd1na2vs0mg"},{"bike_id":"5b3d8ea1-3a5b-40cf-b485-10ea73716d07","system_id":"levelo_inurba_marseille","lat":43.286039,"lon":5.370679,"is_reserved":false,"is_disabled":false,"rental_uris":{"android":"levelo://app?vid=5b3d8ea1-3a5b-40cf-b485-10ea73716d07","ios":"levelo://app?vid=5b3d8ea1-3a5b-40cf-b485-10ea73716d07"},"vehicle_type_id":"4","last_reported":1724091070,"current_range_meters":15200,"station_id":"ce4bht12rcd13ifvqi60","pricing_plan_id":"cebpf4jnsgd1na2vs0mg"},{"bike_id":"f479e18d-2b12-4537-92f0-26d5c246ea54","system_id":"levelo_inurba_marseille","lat":43.28605,"lon":5.37059,"is_reserved":false,"is_disabled":false,"rental_uris":{"android":"levelo://app?vid=f479e18d-2b12-4537-92f0-26d5c246ea54","ios":"levelo://app?vid=f479e18d-2b12-4537-92f0-26d5c246ea54"},"vehicle_type_id":"4","last_reported":1724091070,"current_range_meters":2400,"station_id":"ce4bht12rcd13ifvqi60","pricing_plan_id":"cebpf4jnsgd1na2vs0mg"},{"bike_id":"bc64b6c7-2861-4095-b98b-7e140831cb95","system_id":"levelo_inurba_marseille","lat":43.28719,"lon":5.37937,"is_reserved":false,"is_disabled":false,"rental_uris":{"android":"levelo://app?vid=bc64b6c7-2861-4095-b98b-7e140831cb95","ios":"levelo://app?vid=bc64b6c7-2861-4095-b98b-7e140831cb95"},"vehicle_type_id":"4","last_reported":1724091070,"current_range_meters":0,"station_id":"ce4bh9p2rcd13ifvqec0","pricing_plan_id":"cebpf4jnsgd1na2vs0mg"},{"bike_id":"8a7dd363-4797-4925-b20c-1e03aa6cffbf","system_id":"levelo_inurba_marseille","lat":43.287134,"lon":5.379326,"is_reserved":false,"is_disabled":false,"rental_uris":{"android":"levelo://app?vid=8a7dd363-4797-4925-b20c-1e03aa6cffbf","ios":"levelo://app?vid=8a7dd363-4797-4925-b20c-1e03aa6cffbf"},"vehicle_type_id":"4","last_reported":1724091070,"current_range_meters":0,"station_id":"ce4bh9p2rcd13ifvqec0","pricing_plan_id":"cebpf4jnsgd1na2vs0mg"},{"bike_id":"fbfd7587-7214-4ab9-8eef-73a720beb269","system_id":"levelo_inurba_marseille","lat":43.316828,"lon":5.404723,"is_reserved":false,"is_disabled":false,"rental_uris":{"android":"levelo://app?vid=fbfd7587-7214-4ab9-8eef-73a720beb269","ios":"levelo://app?vid=fbfd7587-7214-4ab9-8eef-73a720beb269"},"vehicle_type_id":"4","last_reported":1724091070,"current_range_meters":7200,"station_id":"ce4bh012rcd13ifvqd00","pricing_plan_id":"cebpf4jnsgd1na2vs0mg"},{"bike_id":"c5a8e2c5-3eaa-4966-a944-e9e49fc1e9e6","system_id":"levelo_inurba_marseille","lat":43.316828,"lon":5.404723,"is_reserved":false,"is_disabled":false,"rental_uris":{"android":"levelo://app?vid=c5a8e2c5-3eaa-4966-a944-e9e49fc1e9e6","ios":"levelo://app?vid=c5a8e2c5-3eaa-4966-a944-e9e49fc1e9e6"},"vehicle_type_id":"4","last_reported":1724091070,"current_range_meters":0,"station_id":"ce4bh012rcd13ifvqd00","pricing_plan_id":"cebpf4jnsgd1na2vs0mg"},{"bike_id":"20d5bfe7-430e-43e4-89c9-d95982f85714","system_id":"levelo_inurba_marseille","lat":43.316821,"lon":5.404737,"is_reserved":false,"is_disabled":false,"rental_uris":{"android":"levelo://app?vid=20d5bfe7-430e-43e4-89c9-d95982f85714","ios":"levelo://app?vid=20d5bfe7-430e-43e4-89c9-d95982f85714"},"vehicle_type_id":"4","last_reported":1724091070,"current_range_meters":10400,"station_id":"ce4bh012rcd13ifvqd00","pricing_plan_id":"cebpf4jnsgd1na2vs0mg"},{"bike_id":"3bf05249-7a7d-4c78-8171-b88e27c84e28","system_id":"levelo_inurba_marseille","lat":43.31688,"lon":5.40472,"is_reserved":false,"is_disabled":false,"rental_uris":{"android":"levelo://app?vid=3bf05249-7a7d-4c78-8171-b88e27c84e28","ios":"levelo://app?vid=3bf05249-7a7d-4c78-8171-b88e27c84e28"},"vehicle_type_id":"4","last_reported":1724091070,"current_range_meters":18800,"station_id":"ce4bh012rcd13ifvqd00","pricing_plan_id":"cebpf4jnsgd1na2vs0mg"},{"bike_id":"e94a1868-f305-4cfe-ba45-f9b44dd2ab9c","system_id":"levelo_inurba_marseille","lat":43.291994,"lon":5.392907,"is_reserved":false,"is_disabled":false,"rental_uris":{"android":"levelo://app?vid=e94a1868-f305-4cfe-ba45-f9b44dd2ab9c","ios":"levelo://app?vid=e94a1868-f305-4cfe-ba45-f9b44dd2ab9c"},"vehicle_type_id":"4","last_reported":1724091070,"current_range_meters":4000,"station_id":"ce4bh192rcd13ifvqdd0","pricing_plan_id":"cebpf4jnsgd1na2vs0mg"},{"bike_id":"1a9db948-cf2d-456f-934a-ed8a8b0c0c0e","system_id":"levelo_inurba_marseille","lat":43.291994,"lon":5.392907,"is_reserved":false,"is_disabled":false,"rental_uris":{"android":"levelo://app?vid=1a9db948-cf2d-456f-934a-ed8a8b0c0c0e","ios":"levelo://app?vid=1a9db948-cf2d-456f-934a-ed8a8b0c0c0e"},"vehicle_type_id":"4","last_reported":1724091070,"current_range_meters":12000,"station_id":"ce4bh192rcd13ifvqdd0","pricing_plan_id":"cebpf4jnsgd1na2vs0mg"},{"bike_id":"e13f3dbd-a31e-4e6b-8fbf-ace055ca07e3","system_id":"levelo_inurba_marseille","lat":43.284923,"lon":5.359697,"is_reserved":false,"is_disabled":false,"rental_uris":{"android":"levelo://app?vid=e13f3dbd-a31e-4e6b-8fbf-ace055ca07e3","ios":"levelo://app?vid=e13f3dbd-a31e-4e6b-8fbf-ace055ca07e3"},"vehicle_type_id":"4","last_reported":1724091070,"current_range_meters":12000,"station_id":"","pricing_plan_id":"cebpf4jnsgd1na2vs0mg"},{"bike_id":"ee680949-cf6c-4bbf-913c-a62e1c7462f3","system_id":"levelo_inurba_marseille","lat":43.2919,"lon":5.39327,"is_reserved":false,"is_disabled":false,"rental_uris":{"android":"levelo://app?vid=ee680949-cf6c-4bbf-913c-a62e1c7462f3","ios":"levelo://app?vid=ee680949-cf6c-4bbf-913c-a62e1c7462f3"},