{"last_updated":1702076823,"ttl":30,"version":"2.2","data":{"bikes":[{"bike_id":"6e606b5a-9785-4a32-987f-9271e6bd673b","system_id":"levelo_inurba_marseille","lat":43.31232,"lon":5.3686,"is_reserved":false,"is_disabled":false,"rental_uris":{"android":"levelo://app?vid=6e606b5a-9785-4a32-987f-9271e6bd673b","ios":"levelo://app?vid=6e606b5a-9785-4a32-987f-9271e6bd673b"},"vehicle_type_id":"4","last_reported":1702076823,"current_range_meters":14800,"station_id":"ce4bgl92rcd13ifvqbq0","pricing_plan_id":"free"},{"bike_id":"2bd28858-a6f5-401d-9fe8-6c5471cd6abd","system_id":"levelo_inurba_marseille","lat":43.309039,"lon":5.371797,"is_reserved":false,"is_disabled":false,"rental_uris":{"android":"levelo://app?vid=2bd28858-a6f5-401d-9fe8-6c5471cd6abd","ios":"levelo://app?vid=2bd28858-a6f5-401d-9fe8-6c5471cd6abd"},"vehicle_type_id":"4","last_reported":1702076823,"current_range_meters":30000,"station_id":"ce4bguh2rcd13ifvqckg","pricing_plan_id":"free"},{"bike_id":"cdea5df7-f48f-4cc2-9cb5-80b0a70e8972","system_id":"levelo_inurba_marseille","lat":43.309039,"lon":5.371797,"is_reserved":false,"is_disabled":false,"rental_uris":{"android":"levelo://app?vid=cdea5df7-f48f-4cc2-9cb5-80b0a70e8972","ios":"levelo://app?vid=cdea5df7-f48f-4cc2-9cb5-80b0a70e8972"},"vehicle_type_id":"4","last_reported":1702076823,"current_range_meters":4000,"station_id":"ce4bguh2rcd13ifvqckg","pricing_plan_id":"free"},{"bike_id":"338b89b7-4523-4125-a825-71333ba209d2","system_id":"levelo_inurba_marseille","lat":43.305712,"lon":5.365641,"is_reserved":false,"is_disabled":false,"rental_uris":{"android":"levelo://app?vid=338b89b7-4523-4125-a825-71333ba209d2","ios":"levelo://app?vid=338b89b7-4523-4125-a825-71333ba209d2"},"vehicle_type_id":"4","last_reported":1702076823,"current_range_meters":8400,"station_id":"ce4bgs12rcd13ifvqcag","pricing_plan_id":"free"},{"bike_id":"7b3173fd-532e-4fa7-8b3a-868ad37da620","system_id":"levelo_inurba_marseille","lat":43.31122,"lon":5.37759,"is_reserved":false,"is_disabled":false,"rental_uris":{"android":"levelo://app?vid=7b3173fd-532e-4fa7-8b3a-868ad37da620","ios":"levelo://app?vid=7b3173fd-532e-4fa7-8b3a-868ad37da620"},"vehicle_type_id":"4","last_reported":1702076823,"current_range_meters":0,"station_id":"ce4bgt92rcd13ifvqcg0","pricing_plan_id":"free"},{"bike_id":"884158e6-8ed4-4fe3-9553-eb4fe8c63194","system_id":"levelo_inurba_marseille","lat":43.315307,"lon":5.380327,"is_reserved":false,"is_disabled":false,"rental_uris":{"android":"levelo://app?vid=884158e6-8ed4-4fe3-9553-eb4fe8c63194","ios":"levelo://app?vid=884158e6-8ed4-4fe3-9553-eb4fe8c63194"},"vehicle_type_id":"4","last_reported":1702076823,"current_range_meters":22800,"station_id":"ce4bhsp2rcd13ifvqi50","pricing_plan_id":"free"},{"bike_id":"47b8f5a0-681e-43e5-98a8-cb3af2d4d393","system_id":"levelo_inurba_marseille","lat":43.31535,"lon":5.38042,"is_reserved":false,"is_disabled":false,"rental_uris":{"android":"levelo://app?vid=47b8f5a0-681e-43e5-98a8-cb3af2d4d393","ios":"levelo://app?vid=47b8f5a0-681e-43e5-98a8-cb3af2d4d393"},"vehicle_type_id":"4","last_reported":1702076823,"current_range_meters":5600,"station_id":"ce4bhsp2rcd13ifvqi50","pricing_plan_id":"free"},{"bike_id":"1ea60f58-75f7-4484-b705-1156df4b02ad","system_id":"levelo_inurba_marseille","lat":43.30286,"lon":5.37342,"is_reserved":false,"is_disabled":false,"rental_uris":{"android":"levelo://app?vid=1ea60f58-75f7-4484-b705-1156df4b02ad","ios":"levelo://app?vid=1ea60f58-75f7-4484-b705-1156df4b02ad"},"vehicle_type_id":"4","last_reported":1702076823,"current_range_meters":0,"station_id":"","pricing_plan_id":"free"},{"bike_id":"e5f7cffa-3d5c-441e-adcb-f934b33ceb94","system_id":"levelo_inurba_marseille","lat":43.31977,"lon":5.38126,"is_reserved":false,"is_disabled":false,"rental_uris":{"android":"levelo://app?vid=e5f7cffa-3d5c-441e-adcb-f934b33ceb94","ios":"levelo://app?vid=e5f7cffa-3d5c-441e-adcb-f934b33ceb94"},"vehicle_type_id":"4","last_reported":1702076823,"current_range_meters":0,"station_id":"ce4bhr12rcd13ifvqhpg","pricing_plan_id":"free"},{"bike_id":"a7b1a588-ef04-40a4-a8bd-d5a5fb6bddbb","system_id":"levelo_inurba_marseille","lat":43.313571,"lon":5.384829,"is_reserved":false,"is_disabled":false,"rental_uris":{"android":"levelo://app?vid=a7b1a588-ef04-40a4-a8bd-d5a5fb6bddbb","ios":"levelo://app?vid=a7b1a588-ef04-40a4-a8bd-d5a5fb6bddbb"},"vehicle_type_id":"4","last_reported":1702076823,"current_range_meters":26000,"station_id":"ce4bgt92rcd13ifvqcf0","pricing_plan_id":"free"},{"bike_id":"ca7da67d-1747-4385-bf2a-1105455ce1b3","system_id":"levelo_inurba_marseille","lat":43.299724,"lon":5.371829,"is_reserved":false,"is_disabled":false,"rental_uris":{"android":"levelo://app?vid=ca7da67d-1747-4385-bf2a-1105455ce1b3","ios":"levelo://app?vid=ca7da67d-1747-4385-bf2a-1105455ce1b3"},"vehicle_type_id":"4","last_reported":1702076823,"current_range_meters":3200,"station_id":"ce4bgr92rcd13ifvqc7g","pricing_plan_id":"free"},{"bike_id":"e37744dc-9379-47c7-81ba-f56c76b97645","system_id":"levelo_inurba_marseille","lat":43.299724,"lon":5.371829,"is_reserved":false,"is_disabled":false,"rental_uris":{"android":"levelo://app?vid=e37744dc-9379-47c7-81ba-f56c76b97645","ios":"levelo://app?vid=e37744dc-9379-47c7-81ba-f56c76b97645"},"vehicle_type_id":"4","last_reported":1702076823,"current_range_meters":0,"station_id":"ce4bgr92rcd13ifvqc7g","pricing_plan_id":"free"},{"bike_id":"eeef520a-f04c-4284-847b-0a1740c5987f","system_id":"levelo_inurba_marseille","lat":43.305364,"lon":5.384119,"is_reserved":false,"is_disabled":false,"rental_uris":{"android":"levelo://app?vid=eeef520a-f04c-4284-847b-0a1740c5987f","ios":"levelo://app?vid=eeef520a-f04c-4284-847b-0a1740c5987f"},"vehicle_type_id":"4","last_reported":1702076823,"current_range_meters":15600,"station_id":"ce4bgg92rcd13ifvqb30","pricing_plan_id":"free"},{"bike_id":"3fe34d13-fbbe-4c00-a9de-528e603ec766","system_id":"levelo_inurba_marseille","lat":43.299243,"lon":5.37481,"is_reserved":false,"is_disabled":false,"rental_uris":{"android":"levelo://app?vid=3fe34d13-fbbe-4c00-a9de-528e603ec766","ios":"levelo://app?vid=3fe34d13-fbbe-4c00-a9de-528e603ec766"},"vehicle_type_id":"4","last_reported":1702076823,"current_range_meters":3200,"station_id":"ce4bgjh2rcd13ifvqbg0","pricing_plan_id":"free"},{"bike_id":"bc3847b0-7434-4742-83c7-a3d636a2f4a4","system_id":"levelo_inurba_marseille","lat":43.297794,"lon":5.370888,"is_reserved":false,"is_disabled":false,"rental_uris":{"android":"levelo://app?vid=bc3847b0-7434-4742-83c7-a3d636a2f4a4","ios":"levelo://app?vid=bc3847b0-7434-4742-83c7-a3d636a2f4a4"},"vehicle_type_id":"4","last_reported":1702076823,"current_range_meters":22000,"station_id":"ce4bgop2rcd13ifvqc1g","pricing_plan_id":"free"},{"bike_id":"38f1223e-a214-4eb0-9b54-a70de861d11b","system_id":"levelo_inurba_marseille","lat":43.32291,"lon":5.38268,"is_reserved":false,"is_disabled":false,"rental_uris":{"android":"levelo://app?vid=38f1223e-a214-4eb0-9b54-a70de861d11b","ios":"levelo://app?vid=38f1223e-a214-4eb0-9b54-a70de861d11b"},"vehicle_type_id":"4","last_reported":1702076823,"current_range_meters":25200,"station_id":"ce4bhr12rcd13ifvqhqg","pricing_plan_id":"free"},{"bike_id":"7b04c468-d67d-486d-aa31-b467eddee7c0","system_id":"levelo_inurba_marseille","lat":43.322997,"lon":5.382592,"is_reserved":false,"is_disabled":false,"rental_uris":{"android":"levelo://app?vid=7b04c468-d67d-486d-aa31-b467eddee7c0","ios":"levelo://app?vid=7b04c468-d67d-486d-aa31-b467eddee7c0"},"vehicle_type_id":"4","last_reported":1702076823,"current_range_meters":800,"station_id":"ce4bhr12rcd13ifvqhqg","pricing_plan_id":"free"},{"bike_id":"991448e4-6851-4d1a-aba1-4b6e7cd051db","system_id":"levelo_inurba_marseille","lat":43.323,"lon":5.382593,"is_reserved":false,"is_disabled":false,"rental_uris":{"android":"levelo://app?vid=991448e4-6851-4d1a-aba1-4b6e7cd051db","ios":"levelo://app?vid=991448e4-6851-4d1a-aba1-4b6e7cd051db"},"vehicle_type_id":"4","last_reported":1702076823,"current_range_meters":21200,"station_id":"ce4bhr12rcd13ifvqhqg","pricing_plan_id":"free"},{"bike_id":"a80312d7-2035-41c9-b519-92db02a72c60","system_id":"levelo_inurba_marseille","lat":43.32288,"lon":5.38282,"is_reserved":false,"is_disabled":false,"rental_uris":{"android":"levelo://app?vid=a80312d7-2035-41c9-b519-92db02a72c60","ios":"levelo://app?vid=a80312d7-2035-41c9-b519-92db02a72c60"},"vehicle_type_id":"4","last_reported":1702076823,"current_range_meters":26800,"station_id":"ce4bhr12rcd13ifvqhqg","pricing_plan_id":"free"},{"bike_id":"6ac675f1-e0be-498c-ad2f-b742a949d4b0","system_id":"levelo_inurba_marseille","lat":43.298218,"lon":5.374416,"is_reserved":false,"is_disabled":false,"rental_uris":{"android":"levelo://app?vid=6ac675f1-e0be-498c-ad2f-b742a949d4b0","ios":"levelo://app?vid=6ac675f1-e0be-498c-ad2f-b742a949d4b0"},"vehicle_type_id":"4","last_reported":1702076823,"current_range_meters":4400,"station_id":"","pricing_plan_id":"free"},{"bike_id":"90a5106b-97e9-466b-8c22-cd263e3e59cb","system_id":"levelo_inurba_marseille","lat":43.3082,"lon":5.387728,"is_reserved":false,"is_disabled":false,"rental_uris":{"android":"levelo://app?vid=90a5106b-97e9-466b-8c22-cd263e3e59cb","ios":"levelo://app?vid=90a5106b-97e9-466b-8c22-cd263e3e59cb"},"vehicle_type_id":"4","last_reported":1702076823,"current_range_meters":0,"station_id":"","pricing_plan_id":"free"},{"bike_id":"41e8f1e8-9f51-4acd-9e15-3dbe8de4a964","system_id":"levelo_inurba_marseille","lat":43.2968,"lon":5.37291,"is_reserved":false,"is_disabled":false,"rental_uris":{"android":"levelo://app?vid=41e8f1e8-9f51-4acd-9e15-3dbe8de4a964","ios":"levelo://app?vid=41e8f1e8-9f51-4acd-9e15-3dbe8de4a964"},"vehicle_type_id":"4","last_reported":1702076823,"current_range_meters":7200,"station_id":"ce4bgk12rcd13ifvqbj0","pricing_plan_id":"free"},{"bike_id":"0c36b66f-c435-491f-9e1c-abd1cf7e6d7b","system_id":"levelo_inurba_marseille","lat":43.29625,"lon":5.36776,"is_reserved":false,"is_disabled":false,"rental_uris":{"android":"levelo://app?vid=0c36b66f-c435-491f-9e1c-abd1cf7e6d7b","ios":"levelo://app?vid=0c36b66f-c435-491f-9e1c-abd1cf7e6d7b"},"vehicle_type_id":"4","last_reported":1702076823,"current_range_meters":25600,"station_id":"","pricing_plan_id":"free"},{"bike_id":"92dc65d6-6823-4de3-93d4-056f738f090c","system_id":"levelo_inurba_marseille","lat":43.316538,"lon":5.38954,"is_reserved":false,"is_disabled":false,"rental_uris":{"android":"levelo://app?vid=92dc65d6-6823-4de3-93d4-056f738f090c","ios":"levelo://app?vid=92dc65d6-6823-4de3-93d4-056f738f090c"},"vehicle_type_id":"4","last_reported":1702076823,"current_range_meters":0,"station_id":"","pricing_plan_id":"free"},{"bike_id":"60d6c84e-75da-42a6-9cbb-03e09441628d","system_id":"levelo_inurba_marseille","lat":43.299028,"lon":5.381509,"is_reserved":false,"is_disabled":false,"rental_uris":{"android":"levelo://app?vid=60d6c84e-75da-42a6-9cbb-03e09441628d","ios":"levelo://app?vid=60d6c84e-75da-42a6-9cbb-03e09441628d"},"vehicle_type_id":"4","last_reported":1702076823,"current_range_meters":11200,"station_id":"ce4bgj12rcd13ifvqbc0","pricing_plan_id":"free"},{"bike_id":"2ba3d187-866c-4a09-817b-c1c02eaa1f0f","system_id":"levelo_inurba_marseille","lat":43.317557,"lon":5.390173,"is_reserved":false,"is_disabled":false,"rental_uris":{"android":"levelo://app?vid=2ba3d187-866c-4a09-817b-c1c02eaa1f0f","ios":"levelo://app?vid=2ba3d187-866c-4a09-817b-c1c02eaa1f0f"},"vehicle_type_id":"4","last_reported":1702076823,"current_range_meters":26800,"station_id":"ce4bhqp2rcd13ifvqhng","pricing_plan_id":"free"},{"bike_id":"b1a3fe32-8cb7-43d2-9d8a-5ecbcc1955ef","system_id":"levelo_inurba_marseille","lat":43.309047,"lon":5.396551,"is_reserved":false,"is_disabled":false,"rental_uris":{"android":"levelo://app?vid=b1a3fe32-8cb7-43d2-9d8a-5ecbcc1955ef","ios":"levelo://app?vid=b1a3fe32-8cb7-43d2-9d8a-5ecbcc1955ef"},"vehicle_type_id":"4","last_reported":1702076823,"current_range_meters":12400,"station_id":"ce4bh012rcd13ifvqcv0","pricing_plan_id":"free"},{"bike_id":"f9af1888-8566-4e14-b341-968d61cbac37","system_id":"levelo_inurba_marseille","lat":43.304278,"lon":5.388868,"is_reserved":false,"is_disabled":false,"rental_uris":{"android":"levelo://app?vid=f9af1888-8566-4e14-b341-968d61cbac37","ios":"levelo://app?vid=f9af1888-8566-4e14-b341-968d61cbac37"},"vehicle_type_id":"4","last_reported":1702076823,"current_range_meters":10800,"station_id":"ce4bgk12rcd13ifvqbi0","pricing_plan_id":"free"},{"bike_id":"051fc8fe-94a2-4938-87a9-c537c25b51cb","system_id":"levelo_inurba_marseille","lat":43.299707,"lon":5.384859,"is_reserved":false,"is_disabled":false,"rental_uris":{"android":"levelo://app?vid=051fc8fe-94a2-4938-87a9-c537c25b51cb","ios":"levelo://app?vid=051fc8fe-94a2-4938-87a9-c537c25b51cb"},"vehicle_type_id":"4","last_reported":1702076823,"current_range_meters":30000,"station_id":"ce4bgj92rcd13ifvqbd0","pricing_plan_id":"free"},{"bike_id":"5a1f6bc8-e270-4ee1-b3a7-8b734b52a9ea","system_id":"levelo_inurba_marseille","lat":43.32367,"lon":5.388836,"is_reserved":false,"is_disabled":false,"rental_uris":{"android":"levelo://app?vid=5a1f6bc8-e270-4ee1-b3a7-8b734b52a9ea","ios":"levelo://app?vid=5a1f6bc8-e270-4ee1-b3a7-8b734b52a9ea"},"vehicle_type_id":"4","last_reported":1702076823,"current_range_meters":17200,"station_id":"ce4bhqp2rcd13ifvqhog","pricing_plan_id":"free"},{"bike_id":"ffe8e861-9583-46be-9da3-462d5c1037ee","system_id":"levelo_inurba_marseille","lat":43.29303,"lon":5.37451,"is_reserved":false,"is_disabled":false,"rental_uris":{"android":"levelo://app?vid=ffe8e861-9583-46be-9da3-462d5c1037ee","ios":"levelo://app?vid=ffe8e861-9583-46be-9da3-462d5c1037ee"},"vehicle_type_id":"4","last_reported":1702076823,"current_range_meters":14000,"station_id":"ce4bgi12rcd13ifvqb70","pricing_plan_id":"free"},{"bike_id":"f6b4496c-d7aa-4a66-950a-60c49f8ab300","system_id":"levelo_inurba_marseille","lat":43.29342,"lon":5.37933,"is_reserved":false,"is_disabled":false,"rental_uris":{"android":"levelo://app?vid=f6b4496c-d7aa-4a66-950a-60c49f8ab300","ios":"levelo://app?vid=f6b4496c-d7aa-4a66-950a-60c49f8ab300"},"vehicle_type_id":"4","last_reported":1702076823,"current_range_meters":10800,"station_id":"","pricing_plan_id":"free"},{"bike_id":"f54cce81-24e4-44b7-978b-713350a2404c","system_id":"levelo_inurba_marseille","lat":43.29881,"lon":5.38915,"is_reserved":false,"is_disabled":false,"rental_uris":{"android":"levelo://app?vid=f54cce81-24e4-44b7-978b-713350a2404c","ios":"levelo://app?vid=f54cce81-24e4-44b7-978b-713350a2404c"},"vehicle_type_id":"4","last_reported":1702076823,"current_range_meters":0,"station_id":"","pricing_plan_id":"free"},{"bike_id":"03af98f1-fdec-4d09-b30c-c9494f1594aa","system_id":"levelo_inurba_marseille","lat":43.29188,"lon":5.35817,"is_reserved":false,"is_disabled":false,"rental_uris":{"android":"levelo://app?vid=03af98f1-fdec-4d09-b30c-c9494f1594aa","ios":"levelo://app?vid=03af98f1-fdec-4d09-b30c-c9494f1594aa"},"vehicle_type_id":"4","last_reported":1702076823,"current_range_meters":29200,"station_id":"ce4bhb12rcd13ifvqel0","pricing_plan_id":"free"},{"bike_id":"4e243823-71ff-4201-a69e-10766f056885","system_id":"levelo_inurba_marseille","lat":43.313291,"lon":5.396838,"is_reserved":false,"is_disabled":false,"rental_uris":{"android":"levelo://app?vid=4e243823-71ff-4201-a69e-10766f056885","ios":"levelo://app?vid=4e243823-71ff-4201-a69e-10766f056885"},"vehicle_type_id":"4","last_reported":1702076823,"current_range_meters":6000,"station_id":"ce4bgvp2rcd13ifvqcu0","pricing_plan_id":"free"},{"bike_id":"9003a963-c534-42ee-9575-67c4073546b3","system_id":"levelo_inurba_marseille","lat":43.29187,"lon":5.35797,"is_reserved":false,"is_disabled":false,"rental_uris":{"android":"levelo://app?vid=9003a963-c534-42ee-9575-67c4073546b3","ios":"levelo://app?vid=9003a963-c534-42ee-9575-67c4073546b3"},"vehicle_type_id":"4","last_reported":1702076823,"current_range_meters":18800,"station_id":"ce4bhb12rcd13ifvqel0","pricing_plan_id":"free"},{"bike_id":"54b9269a-a4fc-4c67-8b7d-f7faa397f746","system_id":"levelo_inurba_marseille","lat":43.313291,"lon":5.396838,"is_reserved":false,"is_disabled":false,"rental_uris":{"android":"levelo://app?vid=54b9269a-a4fc-4c67-8b7d-f7faa397f746","ios":"levelo://app?vid=54b9269a-a4fc-4c67-8b7d-f7faa397f746"},"vehicle_type_id":"4","last_reported":1702076823,"current_range_meters":0,"station_id":"ce4bgvp2rcd13ifvqcu0","pricing_plan_id":"free"},{"bike_id":"1d9d88da-6d05-4a9a-a1a6-232e5f2fb4e5","system_id":"levelo_inurba_marseille","lat":43.309047,"lon":5.396551,"is_reserved":false,"is_disabled":false,"rental_uris":{"android":"levelo://app?vid=1d9d88da-6d05-4a9a-a1a6-232e5f2fb4e5","ios":"levelo://app?vid=1d9d88da-6d05-4a9a-a1a6-232e5f2fb4e5"},"vehicle_type_id":"4","last_reported":1702076823,"current_range_meters":13200,"station_id":"ce4bh012rcd13ifvqcv0","pricing_plan_id":"free"},{"bike_id":"f4c3046b-2c36-45fb-859a-49809fdb08f3","system_id":"levelo_inurba_marseille","lat":43.29523,"lon":5.38534,"is_reserved":false,"is_disabled":false,"rental_uris":{"android":"levelo://app?vid=f4c3046b-2c36-45fb-859a-49809fdb08f3","ios":"levelo://app?vid=f4c3046b-2c36-45fb-859a-49809fdb08f3"},"vehicle_type_id":"4","last_reported":1702076823,"current_range_meters":4400,"station_id":"ce4bgih2rcd13ifvqba0","pricing_plan_id":"free"},{"bike_id":"6fed5ad3-4447-4911-aed0-e0fcce0fa7ba","system_id":"levelo_inurba_marseille","lat":43.290779,"lon":5.371482,"is_reserved":false,"is_disabled":false,"rental_uris":{"android":"levelo://app?vid=6fed5ad3-4447-4911-aed0-e0fcce0fa7ba","ios":"levelo://app?vid=6fed5ad3-4447-4911-aed0-e0fcce0fa7ba"},"vehicle_type_id":"4","last_reported":1702076823,"current_range_meters":20800,"station_id":"ce4bh5p2rcd13ifvqe4g","pricing_plan_id":"free"},{"bike_id":"22cf65c1-43c7-4d39-9589-3e4abca212a1","system_id":"levelo_inurba_marseille","lat":43.290624,"lon":5.359245,"is_reserved":false,"is_disabled":false,"rental_uris":{"android":"levelo://app?vid=22cf65c1-43c7-4d39-9589-3e4abca212a1","ios":"levelo://app?vid=22cf65c1-43c7-4d39-9589-3e4abca212a1"},"vehicle_type_id":"4","last_reported":1702076823,"current_range_meters":20000,"station_id":"ce4bha92rcd13ifvqeg0","pricing_plan_id":"free"},{"bike_id":"156b02e8-0bc6-4b3b-ac4b-a85bc914224a","system_id":"levelo_inurba_marseille","lat":43.290631,"lon":5.359244,"is_reserved":false,"is_disabled":false,"rental_uris":{"android":"levelo://app?vid=156b02e8-0bc6-4b3b-ac4b-a85bc914224a","ios":"levelo://app?vid=156b02e8-0bc6-4b3b-ac4b-a85bc914224a"},"vehicle_type_id":"4","last_reported":1702076823,"current_range_meters":29200,"station_id":"ce4bha92rcd13ifvqeg0","pricing_plan_id":"free"},{"bike_id":"4fd0d779-8d70-4ee3-a36a-669c7f2ddffd","system_id":"levelo_inurba_marseille","lat":43.294162,"lon":5.386292,"is_reserved":false,"is_disabled":false,"rental_uris":{"android":"levelo://app?vid=4fd0d779-8d70-4ee3-a36a-669c7f2ddffd","ios":"levelo://app?vid=4fd0d779-8d70-4ee3-a36a-669c7f2ddffd"},"vehicle_type_id":"4","last_reported":1702076823,"current_range_meters":7600,"station_id":"ce4bh2h2rcd13ifvqdh0","pricing_plan_id":"free"},{"bike_id":"ea9052b0-e609-4786-b019-14b38d0067ce","system_id":"levelo_inurba_marseille","lat":43.28939,"lon":5.36645,"is_reserved":false,"is_disabled":false,"rental_uris":{"android":"levelo://app?vid=ea9052b0-e609-4786-b019-14b38d0067ce","ios":"levelo://app?vid=ea9052b0-e609-4786-b019-14b38d0067ce"},"vehicle_type_id":"4","last_reported":1702076823,"current_range_meters":0,"station_id":"ce4bhap2rcd13ifvqek0","pricing_plan_id":"free"},{"bike_id":"a02a1b20-1fb1-4951-988a-77389649024d","system_id":"levelo_inurba_marseille","lat":43.289259,"lon":5.366364,"is_reserved":false,"is_disabled":false,"rental_uris":{"android":"levelo://app?vid=a02a1b20-1fb1-4951-988a-77389649024d","ios":"levelo://app?vid=a02a1b20-1fb1-4951-988a-77389649024d"},"vehicle_type_id":"4","last_reported":1702076823,"current_range_meters":14400,"station_id":"","pricing_plan_id":"free"},{"bike_id":"d25e6f1b-bf28-4697-8663-54f49dfb54f7","system_id":"levelo_inurba_marseille","lat":43.29254,"lon":5.38446,"is_reserved":false,"is_disabled":false,"rental_uris":{"android":"levelo://app?vid=d25e6f1b-bf28-4697-8663-54f49dfb54f7","ios":"levelo://app?vid=d25e6f1b-bf28-4697-8663-54f49dfb54f7"},"vehicle_type_id":"4","last_reported":1702076823,"current_range_meters":0,"station_id":"ce4bh692rcd13ifvqea0","pricing_plan_id":"free"},{"bike_id":"ab7a69eb-e112-4b2e-9d6b-76fc86ce66d7","system_id":"levelo_inurba_marseille","lat":43.290104,"lon":5.356111,"is_reserved":false,"is_disabled":false,"rental_uris":{"android":"levelo://app?vid=ab7a69eb-e112-4b2e-9d6b-76fc86ce66d7","ios":"levelo://app?vid=ab7a69eb-e112-4b2e-9d6b-76fc86ce66d7"},"vehicle_type_id":"4","last_reported":1702076823,"current_range_meters":16000,"station_id":"ce4bhb92rcd13ifvqen0","pricing_plan_id":"free"},{"bike_id":"5c838dfd-efc2-4f53-9d5a-b908559da2c1","system_id":"levelo_inurba_marseille","lat":43.330414,"lon":5.389193,"is_reserved":false,"is_disabled":false,"rental_uris":{"android":"levelo://app?vid=5c838dfd-efc2-4f53-9d5a-b908559da2c1","ios":"levelo://app?vid=5c838dfd-efc2-4f53-9d5a-b908559da2c1"},"vehicle_type_id":"4","last_reported":1702076823,"current_range_meters":0,"station_id":"","pricing_plan_id":"free"},{"bike_id":"e6aa64d7-b2f8-4db9-98ca-c72ba001f222","system_id":"levelo_inurba_marseille","lat":43.290103,"lon":5.356114,"is_reserved":false,"is_disabled":false,"rental_uris":{"android":"levelo://app?vid=e6aa64d7-b2f8-4db9-98ca-c72ba001f222","ios":"levelo://app?vid=e6aa64d7-b2f8-4db9-98ca-c72ba001f222"},"vehicle_type_id":"4","last_reported":1702076823,"current_range_meters":16800,"station_id":"ce4bhb92rcd13ifvqen0","pricing_plan_id":"free"},{"bike_id":"f4c12303-054a-4794-9ee7-984b76bf6398","system_id":"levelo_inurba_marseille","lat":43.290104,"lon":5.356111,"is_reserved":false,"is_disabled":false,"rental_uris":{"android":"levelo://app?vid=f4c12303-054a-4794-9ee7-984b76bf6398","ios":"levelo://app?vid=f4c12303-054a-4794-9ee7-984b76bf6398"},"vehicle_type_id":"4","last_reported":1702076823,"current_range_meters":10400,"station_id":"ce4bhb92rcd13ifvqen0","pricing_plan_id":"free"},{"bike_id":"5e8c31f2-eafd-4041-b0b0-1f2f6069967d","system_id":"levelo_inurba_marseille","lat":43.297899,"lon":5.393409,"is_reserved":false,"is_disabled":false,"rental_uris":{"android":"levelo://app?vid=5e8c31f2-eafd-4041-b0b0-1f2f6069967d","ios":"levelo://app?vid=5e8c31f2-eafd-4041-b0b0-1f2f6069967d"},"vehicle_type_id":"4","last_reported":1702076823,"current_range_meters":17200,"station_id":"chh1huq6cuj3fo74tm60","pricing_plan_id":"free"},{"bike_id":"070d9f27-7855-4593-b33a-ea454b6a1325","system_id":"levelo_inurba_marseille","lat":43.29783,"lon":5.393375,"is_reserved":false,"is_disabled":false,"rental_uris":{"android":"levelo://app?vid=070d9f27-7855-4593-b33a-ea454b6a1325","ios":"levelo://app?vid=070d9f27-7855-4593-b33a-ea454b6a1325"},"vehicle_type_id":"4","last_reported":1702076823,"current_range_meters":20800,"station_id":"chh1huq6cuj3fo74tm60","pricing_plan_id":"free"},{"bike_id":"f5a8671d-77e3-4058-b8ec-1a2ddc607b1c","system_id":"levelo_inurba_marseille","lat":43.297815,"lon":5.393548,"is_reserved":false,"is_disabled":false,"rental_uris":{"android":"levelo://app?vid=f5a8671d-77e3-4058-b8ec-1a2ddc607b1c","ios":"levelo://app?vid=f5a8671d-77e3-4058-b8ec-1a2ddc607b1c"},"vehicle_type_id":"4","last_reported":1702076823,"current_range_meters":12400,"station_id":"chh1huq6cuj3fo74tm60","pricing_plan_id":"free"},{"bike_id":"adb3c8cf-e0a6-44ec-ab94-fb0b328db9a8","system_id":"levelo_inurba_marseille","lat":43.28858,"lon":5.35862,"is_reserved":false,"is_disabled":false,"rental_uris":{"android":"levelo://app?vid=adb3c8cf-e0a6-44ec-ab94-fb0b328db9a8","ios":"levelo://app?vid=adb3c8cf-e0a6-44ec-ab94-fb0b328db9a8"},"vehicle_type_id":"4","last_reported":1702076823,"current_range_meters":11600,"station_id":"ce4bhb12rcd13ifvqem0","pricing_plan_id":"free"},{"bike_id":"c37fb36a-5c1f-4270-b563-0eb219571323","system_id":"levelo_inurba_marseille","lat":43.312705,"lon":5.401635,"is_reserved":false,"is_disabled":false,"rental_uris":{"android":"levelo://app?vid=c37fb36a-5c1f-4270-b563-0eb219571323","ios":"levelo://app?vid=c37fb36a-5c1f-4270-b563-0eb219571323"},"vehicle_type_id":"4","last_reported":1702076823,"current_range_meters":8800,"station_id":"ce4bh092rcd13ifvqd30","pricing_plan_id":"free"},{"bike_id":"c31ea9b0-7f37-46a0-afc7-056aff548554","system_id":"levelo_inurba_marseille","lat":43.30931,"lon":5.401423,"is_reserved":false,"is_disabled":false,"rental_uris":{"android":"levelo://app?vid=c31ea9b0-7f37-46a0-afc7-056aff548554","ios":"levelo://app?vid=c31ea9b0-7f37-46a0-afc7-056aff548554"},"vehicle_type_id":"4","last_reported":1702076823,"current_range_meters":8000,"station_id":"ce4bgvp2rcd13ifvqct0","pricing_plan_id":"free"},{"bike_id":"b90c2c96-831c-4441-a25c-bb3b7ee5b006","system_id":"levelo_inurba_marseille","lat":43.309371,"lon":5.401449,"is_reserved":false,"is_disabled":false,"rental_uris":{"android":"levelo://app?vid=b90c2c96-831c-4441-a25c-bb3b7ee5b006","ios":"levelo://app?vid=b90c2c96-831c-4441-a25c-bb3b7ee5b006"},"vehicle_type_id":"4","last_reported":1702076823,"current_range_meters":6400,"station_id":"ce4bgvp2rcd13ifvqct0","pricing_plan_id":"free"},{"bike_id":"15f2b43a-5b2d-444e-9029-f062dbec75f6","system_id":"levelo_inurba_marseille","lat":43.30927,"lon":5.40151,"is_reserved":false,"is_disabled":false,"rental_uris":{"android":"levelo://app?vid=15f2b43a-5b2d-444e-9029-f062dbec75f6","ios":"levelo://app?vid=15f2b43a-5b2d-444e-9029-f062dbec75f6"},"vehicle_type_id":"4","last_reported":1702076823,"current_range_meters":16000,"station_id":"ce4bgvp2rcd13ifvqct0","pricing_plan_id":"free"},{"bike_id":"95881b84-d89f-4885-a3c1-bd37514f3d80","system_id":"levelo_inurba_marseille","lat":43.306412,"lon":5.401035,"is_reserved":false,"is_disabled":false,"rental_uris":{"android":"levelo://app?vid=95881b84-d89f-4885-a3c1-bd37514f3d80","ios":"levelo://app?vid=95881b84-d89f-4885-a3c1-bd37514f3d80"},"vehicle_type_id":"4","last_reported":1702076823,"current_range_meters":31200,"station_id":"ce4bh112rcd13ifvqda0","pricing_plan_id":"free"},{"bike_id":"066175bb-9259-4227-8cd4-78cd43f21020","system_id":"levelo_inurba_marseille","lat":43.28727,"lon":5.36078,"is_reserved":false,"is_disabled":false,"rental_uris":{"android":"levelo://app?vid=066175bb-9259-4227-8cd4-78cd43f21020","ios":"levelo://app?vid=066175bb-9259-4227-8cd4-78cd43f21020"},"vehicle_type_id":"4","last_reported":1702076823,"current_range_meters":30400,"station_id":"cki0cbj6b192h4jlfktg","pricing_plan_id":"free"},{"bike_id":"4ed05978-a9d3-406d-ad2e-c57b0ff4f0cf","system_id":"levelo_inurba_marseille","lat":43.28727,"lon":5.36078,"is_reserved":false,"is_disabled":false,"rental_uris":{"android":"levelo://app?vid=4ed05978-a9d3-406d-ad2e-c57b0ff4f0cf","ios":"levelo://app?vid=4ed05978-a9d3-406d-ad2e-c57b0ff4f0cf"},"vehicle_type_id":"4","last_reported":1702076823,"current_range_meters":31200,"station_id":"cki0cbj6b192h4jlfktg","pricing_plan_id":"free"},{"bike_id":"012845d2-4912-4d32-8f0a-626625e4641c","system_id":"levelo_inurba_marseille","lat":43.28727,"lon":5.36078,"is_reserved":false,"is_disabled":false,"rental_uris":{"android":"levelo://app?vid=012845d2-4912-4d32-8f0a-626625e4641c","ios":"levelo://app?vid=012845d2-4912-4d32-8f0a-626625e4641c"},"vehicle_type_id":"4","last_reported":1702076823,"current_range_meters":18800,"station_id":"cki0cbj6b192h4jlfktg","pricing_plan_id":"free"},{"bike_id":"00eb7162-a713-4469-9070-da7182e14e95","system_id":"levelo_inurba_marseille","lat":43.28727,"lon":5.36078,"is_reserved":false,"is_disabled":false,"rental_uris":{"android":"levelo://app?vid=00eb7162-a713-4469-9070-da7182e14e95","ios":"levelo://app?vid=00eb7162-a713-4469-9070-da7182e14e95"},"vehicle_type_id":"4","last_reported":1702076823,"current_range_meters":6000,"station_id":"cki0cbj6b192h4jlfktg","pricing_plan_id":"free"},{"bike_id":"fd919551-78db-46b7-beef-f10f4d540934","system_id":"levelo_inurba_marseille","lat":43.28727,"lon":5.36078,"is_reserved":false,"is_disabled":false,"rental_uris":{"android":"levelo://app?vid=fd919551-78db-46b7-beef-f10f4d540934","ios":"levelo://app?vid=fd919551-78db-46b7-beef-f10f4d540934"},"vehicle_type_id":"4","last_reported":1702076823,"current_range_meters":10400,"station_id":"cki0cbj6b192h4jlfktg","pricing_plan_id":"free"},{"bike_id":"6510e5db-3c5d-4f32-9d2d-07945b240686","system_id":"levelo_inurba_marseille","lat":43.301117,"lon":5.398795,"is_reserved":false,"is_disabled":false,"rental_uris":{"android":"levelo://app?vid=6510e5db-3c5d-4f32-9d2d-07945b240686","ios":"levelo://app?vid=6510e5db-3c5d-4f32-9d2d-07945b240686"},"vehicle_type_id":"4","last_reported":1702076823,"current_range_meters":0,"station_id":"ce4bh0h2rcd13ifvqd40","pricing_plan_id":"free"},{"bike_id":"72189b41-2d3a-43c6-94e7-8bf5b76788fd","system_id":"levelo_inurba_marseille","lat":43.286591,"lon":5.363346,"is_reserved":false,"is_disabled":false,"rental_uris":{"android":"levelo://app?vid=72189b41-2d3a-43c6-94e7-8bf5b76788fd","ios":"levelo://app?vid=72189b41-2d3a-43c6-94e7-8bf5b76788fd"},"vehicle_type_id":"4","last_reported":1702076823,"current_range_meters":25200,"station_id":"ce4bhah2rcd13ifvqej0","pricing_plan_id":"free"},{"bike_id":"a00c7844-0a3a-442a-994c-b60f142886b0","system_id":"levelo_inurba_marseille","lat":43.29512,"lon":5.39402,"is_reserved":false,"is_disabled":false,"rental_uris":{"android":"levelo://app?vid=a00c7844-0a3a-442a-994c-b60f142886b0","ios":"levelo://app?vid=a00c7844-0a3a-442a-994c-b60f142886b0"},"vehicle_type_id":"4","last_reported":1702076823,"current_range_meters":20400,"station_id":"ce4bh292rcd13ifvqdf0","pricing_plan_id":"free"},{"bike_id":"8cd19c89-9fa7-449c-bd77-660f6cd62db2","system_id":"levelo_inurba_marseille","lat":43.287184,"lon":5.37937,"is_reserved":false,"is_disabled":false,"rental_uris":{"android":"levelo://app?vid=8cd19c89-9fa7-449c-bd77-660f6cd62db2","ios":"levelo://app?vid=8cd19c89-9fa7-449c-bd77-660f6cd62db2"},"vehicle_type_id":"4","last_reported":1702076823,"current_range_meters":26000,"station_id":"ce4bh9p2rcd13ifvqec0","pricing_plan_id":"free"},{"bike_id":"74623b1a-23dc-403e-9a69-9693fa5afc46","system_id":"levelo_inurba_marseille","lat":43.287185,"lon":5.379373,"is_reserved":false,"is_disabled":false,"rental_uris":{"android":"levelo://app?vid=74623b1a-23dc-403e-9a69-9693fa5afc46","ios":"levelo://app?vid=74623b1a-23dc-403e-9a69-9693fa5afc46"},"vehicle_type_id":"4","last_reported":1702076823,"current_range_meters":25600,"station_id":"ce4bh9p2rcd13ifvqec0","pricing_plan_id":"free"},{"bike_id":"73ce1675-b31e-45c3-9d3d-065e73f6dca9","system_id":"levelo_inurba_marseille","lat":43.287184,"lon":5.37937,"is_reserved":false,"is_disabled":false,"rental_uris":{"android":"levelo://app?vid=73ce1675-b31e-45c3-9d3d-065e73f6dca9","ios":"levelo://app?vid=73ce1675-b31e-45c3-9d3d-065e73f6dca9"},"vehicle_type_id":"4","last_reported":1702076823,"current_range_meters":13600,"station_id":"ce4bh9p2rcd13ifvqec0","pricing_plan_id":"free"},{"bike_id":"591cb939-6b0a-4b19-83ff-445e61f6c1d6","system_id":"levelo_inurba_marseille","lat":43.284538,"lon":5.358657,"is_reserved":false,"is_disabled":false,"rental_uris":{"android":"levelo://app?vid=591cb939-6b0a-4b19-83ff-445e61f6c1d6","ios":"levelo://app?vid=591cb939-6b0a-4b19-83ff-445e61f6c1d6"},"vehicle_type_id":"4","last_reported":1702076823,"current_range_meters":13600,"station_id":"ce4bhah2rcd13ifvqei0","pricing_plan_id":"free"},{"bike_id":"139b5c27-953e-4eba-b438-40258d263d4d","system_id":"levelo_inurba_marseille","lat":43.284538,"lon":5.358657,"is_reserved":false,"is_disabled":false,"rental_uris":{"android":"levelo://app?vid=139b5c27-953e-4eba-b438-40258d263d4d","ios":"levelo://app?vid=139b5c27-953e-4eba-b438-40258d263d4d"},"vehicle_type_id":"4","last_reported":1702076823,"current_range_meters":20800,"station_id":"ce4bhah2rcd13ifvqei0","pricing_plan_id":"free"},{"bike_id":"56380940-1685-40ff-9442-5aea03747329","system_id":"levelo_inurba_marseille","lat":43.284538,"lon":5.358657,"is_reserved":false,"is_disabled":false,"rental_uris":{"android":"levelo://app?vid=56380940-1685-40ff-9442-5aea03747329","ios":"levelo://app?vid=56380940-1685-40ff-9442-5aea03747329"},"vehicle_type_id":"4","last_reported":1702076823,"current_range_meters":24800,"station_id":"ce4bhah2rcd13ifvqei0","pricing_plan_id":"free"},{"bike_id":"da9d09b5-e083-4e7c-a48b-860f81cb7df9","system_id":"levelo_inurba_marseille","lat":43.294314,"lon":5.397498,"is_reserved":false,"is_disabled":false,"rental_uris":{"android":"levelo://app?vid=da9d09b5-e083-4e7c-a48b-860f81cb7df9","ios":"levelo://app?vid=da9d09b5-e083-4e7c-a48b-860f81cb7df9"},"vehicle_type_id":"4","last_reported":1702076823,"current_range_meters":18800,"station_id":"ce4bh3h2rcd13ifvqdo0","pricing_plan_id":"free"},{"bike_id":"af4d33f9-4b1b-46f5-be1f-8153cd4ad79d","system_id":"levelo_inurba_marseille","lat":43.295713,"lon":5.399639,"is_reserved":false,"is_disabled":false,"rental_uris":{"android":"levelo://app?vid=af4d33f9-4b1b-46f5-be1f-8153cd4ad79d","ios":"levelo://app?vid=af4d33f9-4b1b-46f5-be1f-8153cd4ad79d"},"vehicle_type_id":"4","last_reported":1702076823,"current_range_meters":20800,"station_id":"ce4bh312rcd13ifvqdj0","pricing_plan_id":"free"},{"bike_id":"4e3a31d7-b24a-446e-aa33-f3248ef62338","system_id":"levelo_inurba_marseille","lat":43.286961,"lon":5.373785,"is_reserved":false,"is_disabled":false,"rental_uris":{"android":"levelo://app?vid=4e3a31d7-b24a-446e-aa33-f3248ef62338","ios":"levelo://app?vid=4e3a31d7-b24a-446e-aa33-f3248ef62338"},"vehicle_type_id":"4","last_reported":1702076823,"current_range_meters":400,"station_id":"ce4bh3p2rcd13ifvqdq0","pricing_plan_id":"free"},{"bike_id":"3b44b279-4508-4e90-b4ff-6cbec8acfee3","system_id":"levelo_inurba_marseille","lat":43.284725,"lon":5.380461,"is_reserved":false,"is_disabled":false,"rental_uris":{"android":"levelo://app?vid=3b44b279-4508-4e90-b4ff-6cbec8acfee3","ios":"levelo://app?vid=3b44b279-4508-4e90-b4ff-6cbec8acfee3"},"vehicle_type_id":"4","last_reported":1702076823,"current_range_meters":19200,"station_id":"","pricing_plan_id":"free"},{"bike_id":"c566ef8d-6ee5-4326-85e5-0b3f9e46b387","system_id":"levelo_inurba_marseille","lat":43.319179,"lon":5.407725,"is_reserved":false,"is_disabled":false,"rental_uris":{"android":"levelo://app?vid=c566ef8d-6ee5-4326-85e5-0b3f9e46b387","ios":"levelo://app?vid=c566ef8d-6ee5-4326-85e5-0b3f9e46b387"},"vehicle_type_id":"4","last_reported":1702076823,"current_range_meters":16400,"station_id":"ce4bhq12rcd13ifvqhig","pricing_plan_id":"free"},{"bike_id":"8e643d35-39df-4ed8-8972-ecb59e259871","system_id":"levelo_inurba_marseille","lat":43.323464,"lon":5.406297,"is_reserved":false,"is_disabled":false,"rental_uris":{"android":"levelo://app?vid=8e643d35-39df-4ed8-8972-ecb59e259871","ios":"levelo://app?vid=8e643d35-39df-4ed8-8972-ecb59e259871"},"vehicle_type_id":"4","last_reported":1702076823,"current_range_meters":27200,"station_id":"ce4bhq92rcd13ifvqhjg","pricing_plan_id":"free"},{"bike_id":"394e7ef0-8795-4b05-b68f-3db5b0a2f588","system_id":"levelo_inurba_marseille","lat":43.33717,"lon":5.391857,"is_reserved":false,"is_disabled":false,"rental_uris":{"android":"levelo://app?vid=394e7ef0-8795-4b05-b68f-3db5b0a2f588","ios":"levelo://app?vid=394e7ef0-8795-4b05-b68f-3db5b0a2f588"},"vehicle_type_id":"4","last_reported":1702076823,"current_range_meters":29200,"station_id":"ce4bhr92rcd13ifvqhsg","pricing_plan_id":"free"},{"bike_id":"efe9d2cc-d0eb-4e85-b313-6bf62b4d4d4c","system_id":"levelo_inurba_marseille","lat":43.33726,"lon":5.391922,"is_reserved":false,"is_disabled":false,"rental_uris":{"android":"levelo://app?vid=efe9d2cc-d0eb-4e85-b313-6bf62b4d4d4c","ios":"levelo://app?vid=efe9d2cc-d0eb-4e85-b313-6bf62b4d4d4c"},"vehicle_type_id":"4","last_reported":1702076823,"current_range_meters":2000,"station_id":"ce4bhr92rcd13ifvqhsg","pricing_plan_id":"free"},{"bike_id":"3f9afa5c-d30b-4b40-bd99-9256e3c7ba65","system_id":"levelo_inurba_marseille","lat":43.283494,"lon":5.380945,"is_reserved":false,"is_disabled":false,"rental_uris":{"android":"levelo://app?vid=3f9afa5c-d30b-4b40-bd99-9256e3c7ba65","ios":"levelo://app?vid=3f9afa5c-d30b-4b40-bd99-9256e3c7ba65"},"vehicle_type_id":"4","last_reported":1702076823,"current_range_meters":21600,"station_id":"ce4bh412rcd13ifvqdr0","pricing_plan_id":"free"},{"bike_id":"bcce3b25-1537-4198-b1da-695a0ed0517f","system_id":"levelo_inurba_marseille","lat":43.284214,"lon":5.349706,"is_reserved":false,"is_disabled":false,"rental_uris":{"android":"levelo://app?vid=bcce3b25-1537-4198-b1da-695a0ed0517f","ios":"levelo://app?vid=bcce3b25-1537-4198-b1da-695a0ed0517f"},"vehicle_type_id":"4","last_reported":1702076823,"current_range_meters":22000,"station_id":"ce4bhbh2rcd13ifvqepg","pricing_plan_id":"free"},{"bike_id":"4fcca0f6-58dd-47c0-9d91-6b6b9ef9c751","system_id":"levelo_inurba_marseille","lat":43.282744,"lon":5.350533,"is_reserved":false,"is_disabled":false,"rental_uris":{"android":"levelo://app?vid=4fcca0f6-58dd-47c0-9d91-6b6b9ef9c751","ios":"levelo://app?vid=4fcca0f6-58dd-47c0-9d91-6b6b9ef9c751"},"vehicle_type_id":"4","last_reported":1702076823,"current_range_meters":0,"station_id":"ce4bhbp2rcd13ifvqerg","pricing_plan_id":"free"},{"bike_id":"dbaa8d01-05e0-4778-b647-6d4af5354590","system_id":"levelo_inurba_marseille","lat":43.28039,"lon":5.369297,"is_reserved":false,"is_disabled":false,"rental_uris":{"android":"levelo://app?vid=dbaa8d01-05e0-4778-b647-6d4af5354590","ios":"levelo://app?vid=dbaa8d01-05e0-4778-b647-6d4af5354590"},"vehicle_type_id":"4","last_reported":1702076823,"current_range_meters":0,"station_id":"ce4bha12rcd13ifvqef0","pricing_plan_id":"free"},{"bike_id":"4639c003-e549-42b0-8c71-49f6e4113d86","system_id":"levelo_inurba_marseille","lat":43.28573,"lon":5.394992,"is_reserved":false,"is_disabled":false,"rental_uris":{"android":"levelo://app?vid=4639c003-e549-42b0-8c71-49f6e4113d86","ios":"levelo://app?vid=4639c003-e549-42b0-8c71-49f6e4113d86"},"vehicle_type_id":"4","last_reported":1702076823,"current_range_meters":20000,"station_id":"ce4bh292rcd13ifvqdg0","pricing_plan_id":"free"},{"bike_id":"c0763524-47cd-4818-80fc-1b29f8280dc8","system_id":"levelo_inurba_marseille","lat":43.326605,"lon":5.409903,"is_reserved":false,"is_disabled":false,"rental_uris":{"android":"levelo://app?vid=c0763524-47cd-4818-80fc-1b29f8280dc8","ios":"levelo://app?vid=c0763524-47cd-4818-80fc-1b29f8280dc8"},"vehicle_type_id":"4","last_reported":1702076823,"current_range_meters":30800,"station_id":"ce4bhpp2rcd13ifvqhgg","pricing_plan_id":"free"},{"bike_id":"c6edb2c0-fca4-4817-ac1a-8acfbd5f7de7","system_id":"levelo_inurba_marseille","lat":43.326605,"lon":5.409903,"is_reserved":false,"is_disabled":false,"rental_uris":{"android":"levelo://app?vid=c6edb2c0-fca4-4817-ac1a-8acfbd5f7de7","ios":"levelo://app?vid=c6edb2c0-fca4-4817-ac1a-8acfbd5f7de7"},"vehicle_type_id":"4","last_reported":1702076823,"current_range_meters":0,"station_id":"ce4bhpp2rcd13ifvqhgg","pricing_plan_id":"free"},{"bike_id":"e52ddfd6-0ddd-4c7b-ab34-3c7fe5c2aaef","system_id":"levelo_inurba_marseille","lat":43.326605,"lon":5.409903,"is_reserved":false,"is_disabled":false,"rental_uris":{"android":"levelo://app?vid=e52ddfd6-0ddd-4c7b-ab34-3c7fe5c2aaef","ios":"levelo://app?vid=e52ddfd6-0ddd-4c7b-ab34-3c7fe5c2aaef"},"vehicle_type_id":"4","last_reported":1702076823,"current_range_meters":20800,"station_id":"ce4bhpp2rcd13ifvqhgg","pricing_plan_id":"free"},{"bike_id":"8e72c163-1aa2-4a7b-94b7-81680a6273b6","system_id":"levelo_inurba_marseille","lat":43.326605,"lon":5.409903,"is_reserved":false,"is_disabled":false,"rental_uris":{"android":"levelo://app?vid=8e72c163-1aa2-4a7b-94b7-81680a6273b6","ios":"levelo://app?vid=8e72c163-1aa2-4a7b-94b7-81680a6273b6"},"vehicle_type_id":"4","last_reported":1702076823,"current_range_meters":10400,"station_id":"ce4bhpp2rcd13ifvqhgg","pricing_plan_id":"free"},{"bike_id":"b26c8630-323c-4045-8811-b7bc791c08ad","system_id":"levelo_inurba_marseille","lat":43.277949,"lon":5.362501,"is_reserved":false,"is_disabled":false,"rental_uris":{"android":"levelo://app?vid=b26c8630-323c-4045-8811-b7bc791c08ad","ios":"levelo://app?vid=b26c8630-323c-4045-8811-b7bc791c08ad"},"vehicle_type_id":"4","last_reported":1702076823,"current_range_meters":26000,"station_id":"","pricing_plan_id":"free"},{"bike_id":"7e446bce-ed70-4dd2-9638-d0e635f7d377","system_id":"levelo_inurba_marseille","lat":43.28709,"lon":5.39996,"is_reserved":false,"is_disabled":false,"rental_uris":{"android":"levelo://app?vid=7e446bce-ed70-4dd2-9638-d0e635f7d377","ios":"levelo://app?vid=7e446bce-ed70-4dd2-9638-d0e635f7d377"},"vehicle_type_id":"4","last_reported":1702076823,"current_range_meters":22800,"station_id":"ce4bho92rcd13ifvqh3g","pricing_plan_id":"free"},{"bike_id":"b3a68c60-1a49-4325-8270-7e3fbbb8e844","system_id":"levelo_inurba_marseille","lat":43.28701,"lon":5.39985,"is_reserved":false,"is_disabled":false,"rental_uris":{"android":"levelo://app?vid=b3a68c60-1a49-4325-8270-7e3fbbb8e844","ios":"levelo://app?vid=b3a68c60-1a49-4325-8270-7e3fbbb8e844"},"vehicle_type_id":"4","last_reported":1702076823,"current_range_meters":4800,"station_id":"ce4bho92rcd13ifvqh3g","pricing_plan_id":"free"},{"bike_id":"144462ef-1725-4549-981c-aa66c979a22c","system_id":"levelo_inurba_marseille","lat":43.28706,"lon":5.4001,"is_reserved":false,"is_disabled":false,"rental_uris":{"android":"levelo://app?vid=144462ef-1725-4549-981c-aa66c979a22c","ios":"levelo://app?vid=144462ef-1725-4549-981c-aa66c979a22c"},"vehicle_type_id":"4","last_reported":1702076823,"current_range_meters":5200,"station_id":"ce4bho92rcd13ifvqh3g","pricing_plan_id":"free"},{"bike_id":"548d74fd-6a24-41af-b299-407defab7957","system_id":"levelo_inurba_marseille","lat":43.292569,"lon":5.409107,"is_reserved":false,"is_disabled":false,"rental_uris":{"android":"levelo://app?vid=548d74fd-6a24-41af-b299-407defab7957","ios":"levelo://app?vid=548d74fd-6a24-41af-b299-407defab7957"},"vehicle_type_id":"4","last_reported":1702076823,"current_range_meters":25600,"station_id":"ce4bh192rcd13ifvqdc0","pricing_plan_id":"free"},{"bike_id":"c4b9b064-ce1f-478b-8e32-618733210bbc","system_id":"levelo_inurba_marseille","lat":43.27618,"lon":5.361009,"is_reserved":false,"is_disabled":false,"rental_uris":{"android":"levelo://app?vid=c4b9b064-ce1f-478b-8e32-618733210bbc","ios":"levelo://app?vid=c4b9b064-ce1f-478b-8e32-618733210bbc"},"vehicle_type_id":"4","last_reported":1702076823,"current_range_meters":1600,"station_id":"ce4bgj92rcd13ifvqbe0","pricing_plan_id":"free"},{"bike_id":"a38aeb50-e61c-4175-8b6c-ea2617d6def1","system_id":"levelo_inurba_marseille","lat":43.33612,"lon":5.410321,"is_reserved":false,"is_disabled":false,"rental_uris":{"android":"levelo://app?vid=a38aeb50-e61c-4175-8b6c-ea2617d6def1","ios":"levelo://app?vid=a38aeb50-e61c-4175-8b6c-ea2617d6def1"},"vehicle_type_id":"4","last_reported":1702076823,"current_range_meters":4400,"station_id":"ce4bhqh2rcd13ifvqhmg","pricing_plan_id":"free"},{"bike_id":"cad2aa93-1dd6-4f61-aed7-63bd8874b030","system_id":"levelo_inurba_marseille","lat":43.30359,"lon":5.41879,"is_reserved":false,"is_disabled":false,"rental_uris":{"android":"levelo://app?vid=cad2aa93-1dd6-4f61-aed7-63bd8874b030","ios":"levelo://app?vid=cad2aa93-1dd6-4f61-aed7-63bd8874b030"},"vehicle_type_id":"4","last_reported":1702076823,"current_range_meters":6000,"station_id":"ce4bhop2rcd13ifvqh7g","pricing_plan_id":"free"},{"bike_id":"e34501e0-4a80-4af1-b609-c137374da842","system_id":"levelo_inurba_marseille","lat":43.273613,"lon":5.362705,"is_reserved":false,"is_disabled":false,"rental_uris":{"android":"levelo://app?vid=e34501e0-4a80-4af1-b609-c137374da842","ios":"levelo://app?vid=e34501e0-4a80-4af1-b609-c137374da842"},"vehicle_type_id":"4","last_reported":1702076823,"current_range_meters":24000,"station_id":"ce4bhbh2rcd13ifvqeo0","pricing_plan_id":"free"},{"bike_id":"2710dfc2-476a-4822-a555-70ed69ef8124","system_id":"levelo_inurba_marseille","lat":43.275625,"lon":5.384392,"is_reserved":false,"is_disabled":false,"rental_uris":{"android":"levelo://app?vid=2710dfc2-476a-4822-a555-70ed69ef8124","ios":"levelo://app?vid=2710dfc2-476a-4822-a555-70ed69ef8124"},"vehicle_type_id":"4","last_reported":1702076823,"current_range_meters":26400,"station_id":"ce4bhh92rcd13ifvqfi0","pricing_plan_id":"free"},{"bike_id":"bd309c78-c820-47d6-8ca2-d32903baef91","system_id":"levelo_inurba_marseille","lat":43.276402,"lon":5.391865,"is_reserved":false,"is_disabled":false,"rental_uris":{"android":"levelo://app?vid=bd309c78-c820-47d6-8ca2-d32903baef91","ios":"levelo://app?vid=bd309c78-c820-47d6-8ca2-d32903baef91"},"vehicle_type_id":"4","last_reported":1702076823,"current_range_meters":10000,"station_id":"","pricing_plan_id":"free"},{"bike_id":"02791883-a925-42a0-9dd3-b7193f6a574b","system_id":"levelo_inurba_marseille","lat":43.31715,"lon":5.42392,"is_reserved":false,"is_disabled":false,"rental_uris":{"android":"levelo://app?vid=02791883-a925-42a0-9dd3-b7193f6a574b","ios":"levelo://app?vid=02791883-a925-42a0-9dd3-b7193f6a574b"},"vehicle_type_id":"4","last_reported":1702076823,"current_range_meters":6400,"station_id":"ce4bhp92rcd13ifvqhbg","pricing_plan_id":"free"},{"bike_id":"0f7a9644-c470-46e7-ae97-75a010349f8b","system_id":"levelo_inurba_marseille","lat":43.317121,"lon":5.423936,"is_reserved":false,"is_disabled":false,"rental_uris":{"android":"levelo://app?vid=0f7a9644-c470-46e7-ae97-75a010349f8b","ios":"levelo://app?vid=0f7a9644-c470-46e7-ae97-75a010349f8b"},"vehicle_type_id":"4","last_reported":1702076823,"current_range_meters":26400,"station_id":"ce4bhp92rcd13ifvqhbg","pricing_plan_id":"free"},{"bike_id":"fc4bcc5b-5f4e-42a1-8cca-78d5c651475f","system_id":"levelo_inurba_marseille","lat":43.317121,"lon":5.423936,"is_reserved":false,"is_disabled":false,"rental_uris":{"android":"levelo://app?vid=fc4bcc5b-5f4e-42a1-8cca-78d5c651475f","ios":"levelo://app?vid=fc4bcc5b-5f4e-42a1-8cca-78d5c651475f"},"vehicle_type_id":"4","last_reported":1702076823,"current_range_meters":0,"station_id":"ce4bhp92rcd13ifvqhbg","pricing_plan_id":"free"},{"bike_id":"c58024d2-cabc-4012-868c-d0b5976a6bb0","system_id":"levelo_inurba_marseille","lat":43.317121,"lon":5.423936,"is_reserved":false,"is_disabled":false,"rental_uris":{"android":"levelo://app?vid=c58024d2-cabc-4012-868c-d0b5976a6bb0","ios":"levelo://app?vid=c58024d2-cabc-4012-868c-d0b5976a6bb0"},"vehicle_type_id":"4","last_reported":1702076823,"current_range_meters":28800,"station_id":"ce4bhp92rcd13ifvqhbg","pricing_plan_id":"free"},{"bike_id":"80038031-3601-4c51-b66a-c6c9131d41d1","system_id":"levelo_inurba_marseille","lat":43.310785,"lon":5.424305,"is_reserved":false,"is_disabled":false,"rental_uris":{"android":"levelo://app?vid=80038031-3601-4c51-b66a-c6c9131d41d1","ios":"levelo://app?vid=80038031-3601-4c51-b66a-c6c9131d41d1"},"vehicle_type_id":"4","last_reported":1702076823,"current_range_meters":28400,"station_id":"ce4bhp92rcd13ifvqhag","pricing_plan_id":"free"},{"bike_id":"48e3df08-57dc-434d-a06c-f6f751cd351f","system_id":"levelo_inurba_marseille","lat":43.310785,"lon":5.424305,"is_reserved":false,"is_disabled":false,"rental_uris":{"android":"levelo://app?vid=48e3df08-57dc-434d-a06c-f6f751cd351f","ios":"levelo://app?vid=48e3df08-57dc-434d-a06c-f6f751cd351f"},"vehicle_type_id":"4","last_reported":1702076823,"current_range_meters":22400,"station_id":"ce4bhp92rcd13ifvqhag","pricing_plan_id":"free"},{"bike_id":"fe6596e6-baa8-4e45-9baf-7421815b8310","system_id":"levelo_inurba_marseille","lat":43.31082,"lon":5.42431,"is_reserved":false,"is_disabled":false,"rental_uris":{"android":"levelo://app?vid=fe6596e6-baa8-4e45-9baf-7421815b8310","ios":"levelo://app?vid=fe6596e6-baa8-4e45-9baf-7421815b8310"},"vehicle_type_id":"4","last_reported":1702076823,"current_range_meters":18000,"station_id":"ce4bhp92rcd13ifvqhag","pricing_plan_id":"free"},{"bike_id":"3382fddf-23bf-43e2-9be0-1a0233fdea3a","system_id":"levelo_inurba_marseille","lat":43.31082,"lon":5.42433,"is_reserved":false,"is_disabled":false,"rental_uris":{"android":"levelo://app?vid=3382fddf-23bf-43e2-9be0-1a0233fdea3a","ios":"levelo://app?vid=3382fddf-23bf-43e2-9be0-1a0233fdea3a"},"vehicle_type_id":"4","last_reported":1702076823,"current_range_meters":30800,"station_id":"ce4bhp92rcd13ifvqhag","pricing_plan_id":"free"},{"bike_id":"e6ff414d-6f05-44d2-b7c6-4a89a6fc64e2","system_id":"levelo_inurba_marseille","lat":43.310831,"lon":5.424338,"is_reserved":false,"is_disabled":false,"rental_uris":{"android":"levelo://app?vid=e6ff414d-6f05-44d2-b7c6-4a89a6fc64e2","ios":"levelo://app?vid=e6ff414d-6f05-44d2-b7c6-4a89a6fc64e2"},"vehicle_type_id":"4","last_reported":1702076823,"current_range_meters":7200,"station_id":"ce4bhp92rcd13ifvqhag","pricing_plan_id":"free"},{"bike_id":"63133364-316e-458e-b234-bbd4926c63fc","system_id":"levelo_inurba_marseille","lat":43.27583,"lon":5.39474,"is_reserved":false,"is_disabled":false,"rental_uris":{"android":"levelo://app?vid=63133364-316e-458e-b234-bbd4926c63fc","ios":"levelo://app?vid=63133364-316e-458e-b234-bbd4926c63fc"},"vehicle_type_id":"4","last_reported":1702076823,"current_range_meters":10400,"station_id":"","pricing_plan_id":"free"},{"bike_id":"b0ace1ee-48c1-47ff-b8ca-0f59683651a4","system_id":"levelo_inurba_marseille","lat":43.295523,"lon":5.422926,"is_reserved":false,"is_disabled":false,"rental_uris":{"android":"levelo://app?vid=b0ace1ee-48c1-47ff-b8ca-0f59683651a4","ios":"levelo://app?vid=b0ace1ee-48c1-47ff-b8ca-0f59683651a4"},"vehicle_type_id":"4","last_reported":1702076823,"current_range_meters":30400,"station_id":"ce4bhph2rcd13ifvqhdg","pricing_plan_id":"free"},{"bike_id":"5ed4ca3b-e38e-4196-acea-f278768787eb","system_id":"levelo_inurba_marseille","lat":43.295511,"lon":5.422926,"is_reserved":false,"is_disabled":false,"rental_uris":{"android":"levelo://app?vid=5ed4ca3b-e38e-4196-acea-f278768787eb","ios":"levelo://app?vid=5ed4ca3b-e38e-4196-acea-f278768787eb"},"vehicle_type_id":"4","last_reported":1702076823,"current_range_meters":26400,"station_id":"ce4bhph2rcd13ifvqhdg","pricing_plan_id":"free"},{"bike_id":"4f9e48a0-eacd-4e63-bd3c-330b19e5c041","system_id":"levelo_inurba_marseille","lat":43.295511,"lon":5.422926,"is_reserved":false,"is_disabled":false,"rental_uris":{"android":"levelo://app?vid=4f9e48a0-eacd-4e63-bd3c-330b19e5c041","ios":"levelo://app?vid=4f9e48a0-eacd-4e63-bd3c-330b19e5c041"},"vehicle_type_id":"4","last_reported":1702076823,"current_range_meters":25200,"station_id":"ce4bhph2rcd13ifvqhdg","pricing_plan_id":"free"},{"bike_id":"8f021145-48f8-459b-aef0-f8921e18b0a0","system_id":"levelo_inurba_marseille","lat":43.27214,"lon":5.3925,"is_reserved":false,"is_disabled":false,"rental_uris":{"android":"levelo://app?vid=8f021145-48f8-459b-aef0-f8921e18b0a0","ios":"levelo://app?vid=8f021145-48f8-459b-aef0-f8921e18b0a0"},"vehicle_type_id":"4","last_reported":1702076823,"current_range_meters":4000,"station_id":"","pricing_plan_id":"free"},{"bike_id":"0711f982-f633-4f94-a265-bcc999acbf29","system_id":"levelo_inurba_marseille","lat":43.27954,"lon":5.41052,"is_reserved":false,"is_disabled":false,"rental_uris":{"android":"levelo://app?vid=0711f982-f633-4f94-a265-bcc999acbf29","ios":"levelo://app?vid=0711f982-f633-4f94-a265-bcc999acbf29"},"vehicle_type_id":"4","last_reported":1702076823,"current_range_meters":3200,"station_id":"ce4bhnp2rcd13ifvqh0g","pricing_plan_id":"free"},{"bike_id":"e7af14ac-e900-47bf-9b93-221102189b72","system_id":"levelo_inurba_marseille","lat":43.27948,"lon":5.41048,"is_reserved":false,"is_disabled":false,"rental_uris":{"android":"levelo://app?vid=e7af14ac-e900-47bf-9b93-221102189b72","ios":"levelo://app?vid=e7af14ac-e900-47bf-9b93-221102189b72"},"vehicle_type_id":"4","last_reported":1702076823,"current_range_meters":21600,"station_id":"ce4bhnp2rcd13ifvqh0g","pricing_plan_id":"free"},{"bike_id":"cd97b237-fa6d-4c2f-96c7-283df00b2ccb","system_id":"levelo_inurba_marseille","lat":43.279468,"lon":5.410513,"is_reserved":false,"is_disabled":false,"rental_uris":{"android":"levelo://app?vid=cd97b237-fa6d-4c2f-96c7-283df00b2ccb","ios":"levelo://app?vid=cd97b237-fa6d-4c2f-96c7-283df00b2ccb"},"vehicle_type_id":"4","last_reported":1702076823,"current_range_meters":29200,"station_id":"ce4bhnp2rcd13ifvqh0g","pricing_plan_id":"free"},{"bike_id":"61ea6eb9-e672-4396-be09-5529b239716d","system_id":"levelo_inurba_marseille","lat":43.27944,"lon":5.41051,"is_reserved":false,"is_disabled":false,"rental_uris":{"android":"levelo://app?vid=61ea6eb9-e672-4396-be09-5529b239716d","ios":"levelo://app?vid=61ea6eb9-e672-4396-be09-5529b239716d"},"vehicle_type_id":"4","last_reported":1702076823,"current_range_meters":400,"station_id":"ce4bhnp2rcd13ifvqh0g","pricing_plan_id":"free"},{"bike_id":"ae16cee3-40dc-4f83-a36d-a46ac9aadc27","system_id":"levelo_inurba_marseille","lat":43.27942,"lon":5.41052,"is_reserved":false,"is_disabled":false,"rental_uris":{"android":"levelo://app?vid=ae16cee3-40dc-4f83-a36d-a46ac9aadc27","ios":"levelo://app?vid=ae16cee3-40dc-4f83-a36d-a46ac9aadc27"},"vehicle_type_id":"4","last_reported":1702076823,"current_range_meters":20000,"station_id":"ce4bhnp2rcd13ifvqh0g","pricing_plan_id":"free"},{"bike_id":"41b28f7c-ceef-4620-812f-50345aafc3b1","system_id":"levelo_inurba_marseille","lat":43.279373,"lon":5.410483,"is_reserved":false,"is_disabled":false,"rental_uris":{"android":"levelo://app?vid=41b28f7c-ceef-4620-812f-50345aafc3b1","ios":"levelo://app?vid=41b28f7c-ceef-4620-812f-50345aafc3b1"},"vehicle_type_id":"4","last_reported":1702076823,"current_range_meters":5600,"station_id":"ce4bhnp2rcd13ifvqh0g","pricing_plan_id":"free"},{"bike_id":"e58d203a-e57e-4f92-8a69-9165f8186aeb","system_id":"levelo_inurba_marseille","lat":43.27939,"lon":5.41053,"is_reserved":false,"is_disabled":false,"rental_uris":{"android":"levelo://app?vid=e58d203a-e57e-4f92-8a69-9165f8186aeb","ios":"levelo://app?vid=e58d203a-e57e-4f92-8a69-9165f8186aeb"},"vehicle_type_id":"4","last_reported":1702076823,"current_range_meters":1200,"station_id":"ce4bhnp2rcd13ifvqh0g","pricing_plan_id":"free"},{"bike_id":"1d43c362-e54d-4796-aff2-e30957d3d163","system_id":"levelo_inurba_marseille","lat":43.279375,"lon":5.410515,"is_reserved":false,"is_disabled":false,"rental_uris":{"android":"levelo://app?vid=1d43c362-e54d-4796-aff2-e30957d3d163","ios":"levelo://app?vid=1d43c362-e54d-4796-aff2-e30957d3d163"},"vehicle_type_id":"4","last_reported":1702076823,"current_range_meters":0,"station_id":"ce4bhnp2rcd13ifvqh0g","pricing_plan_id":"free"},{"bike_id":"933f1594-ac25-46a3-b7e8-7874465817c7","system_id":"levelo_inurba_marseille","lat":43.269319,"lon":5.389397,"is_reserved":false,"is_disabled":false,"rental_uris":{"android":"levelo://app?vid=933f1594-ac25-46a3-b7e8-7874465817c7","ios":"levelo://app?vid=933f1594-ac25-46a3-b7e8-7874465817c7"},"vehicle_type_id":"4","last_reported":1702076823,"current_range_meters":22400,"station_id":"ce4bhhh2rcd13ifvqfl0","pricing_plan_id":"free"},{"bike_id":"5934d825-14b1-42a1-9779-33d238710290","system_id":"levelo_inurba_marseille","lat":43.26681,"lon":5.382694,"is_reserved":false,"is_disabled":false,"rental_uris":{"android":"levelo://app?vid=5934d825-14b1-42a1-9779-33d238710290","ios":"levelo://app?vid=5934d825-14b1-42a1-9779-33d238710290"},"vehicle_type_id":"4","last_reported":1702076823,"current_range_meters":26800,"station_id":"ce4bhg92rcd13ifvqf90","pricing_plan_id":"free"},{"bike_id":"4ae748c3-01b4-4de9-81bb-63b22002ddce","system_id":"levelo_inurba_marseille","lat":43.27996,"lon":5.416624,"is_reserved":false,"is_disabled":false,"rental_uris":{"android":"levelo://app?vid=4ae748c3-01b4-4de9-81bb-63b22002ddce","ios":"levelo://app?vid=4ae748c3-01b4-4de9-81bb-63b22002ddce"},"vehicle_type_id":"4","last_reported":1702076823,"current_range_meters":17600,"station_id":"ce4bho12rcd13ifvqh1g","pricing_plan_id":"free"},{"bike_id":"c9162ee5-80af-47f7-9240-670664f92a7d","system_id":"levelo_inurba_marseille","lat":43.28,"lon":5.41664,"is_reserved":false,"is_disabled":false,"rental_uris":{"android":"levelo://app?vid=c9162ee5-80af-47f7-9240-670664f92a7d","ios":"levelo://app?vid=c9162ee5-80af-47f7-9240-670664f92a7d"},"vehicle_type_id":"4","last_reported":1702076823,"current_range_meters":21600,"station_id":"ce4bho12rcd13ifvqh1g","pricing_plan_id":"free"},{"bike_id":"5ca70da3-4ed9-454a-a322-e400d5d55f51","system_id":"levelo_inurba_marseille","lat":43.27997,"lon":5.416603,"is_reserved":false,"is_disabled":false,"rental_uris":{"android":"levelo://app?vid=5ca70da3-4ed9-454a-a322-e400d5d55f51","ios":"levelo://app?vid=5ca70da3-4ed9-454a-a322-e400d5d55f51"},"vehicle_type_id":"4","last_reported":1702076823,"current_range_meters":6400,"station_id":"ce4bho12rcd13ifvqh1g","pricing_plan_id":"free"},{"bike_id":"3315ff64-44e6-417a-b2e7-1e8925684364","system_id":"levelo_inurba_marseille","lat":43.279881,"lon":5.416579,"is_reserved":false,"is_disabled":false,"rental_uris":{"android":"levelo://app?vid=3315ff64-44e6-417a-b2e7-1e8925684364","ios":"levelo://app?vid=3315ff64-44e6-417a-b2e7-1e8925684364"},"vehicle_type_id":"4","last_reported":1702076823,"current_range_meters":5200,"station_id":"ce4bho12rcd13ifvqh1g","pricing_plan_id":"free"},{"bike_id":"6ee944d2-53b0-47e2-b4f4-624cb69640c9","system_id":"levelo_inurba_marseille","lat":43.27988,"lon":5.4166,"is_reserved":false,"is_disabled":false,"rental_uris":{"android":"levelo://app?vid=6ee944d2-53b0-47e2-b4f4-624cb69640c9","ios":"levelo://app?vid=6ee944d2-53b0-47e2-b4f4-624cb69640c9"},"vehicle_type_id":"4","last_reported":1702076823,"current_range_meters":23200,"station_id":"ce4bho12rcd13ifvqh1g","pricing_plan_id":"free"},{"bike_id":"04e4f190-194b-4d1f-b263-36ef342ebc21","system_id":"levelo_inurba_marseille","lat":43.27991,"lon":5.41666,"is_reserved":false,"is_disabled":false,"rental_uris":{"android":"levelo://app?vid=04e4f190-194b-4d1f-b263-36ef342ebc21","ios":"levelo://app?vid=04e4f190-194b-4d1f-b263-36ef342ebc21"},"vehicle_type_id":"4","last_reported":1702076823,"current_range_meters":8800,"station_id":"ce4bho12rcd13ifvqh1g","pricing_plan_id":"free"},{"bike_id":"d9c6606a-aae9-48fb-86e3-ddfd1f3bb3f2","system_id":"levelo_inurba_marseille","lat":43.267966,"lon":5.393976,"is_reserved":false,"is_disabled":false,"rental_uris":{"android":"levelo://app?vid=d9c6606a-aae9-48fb-86e3-ddfd1f3bb3f2","ios":"levelo://app?vid=d9c6606a-aae9-48fb-86e3-ddfd1f3bb3f2"},"vehicle_type_id":"4","last_reported":1702076823,"current_range_meters":6800,"station_id":"ce4bhh12rcd13ifvqfg0","pricing_plan_id":"free"},{"bike_id":"859e951f-a833-4355-bc60-cda240d34380","system_id":"levelo_inurba_marseille","lat":43.26566,"lon":5.39011,"is_reserved":false,"is_disabled":false,"rental_uris":{"android":"levelo://app?vid=859e951f-a833-4355-bc60-cda240d34380","ios":"levelo://app?vid=859e951f-a833-4355-bc60-cda240d34380"},"vehicle_type_id":"4","last_reported":1702076823,"current_range_meters":3600,"station_id":"ce4bhe12rcd13ifvqf30","pricing_plan_id":"free"},{"bike_id":"eddda5d0-7c83-4ea5-91e4-ba3efb04d862","system_id":"levelo_inurba_marseille","lat":43.26939,"lon":5.40255,"is_reserved":false,"is_disabled":false,"rental_uris":{"android":"levelo://app?vid=eddda5d0-7c83-4ea5-91e4-ba3efb04d862","ios":"levelo://app?vid=eddda5d0-7c83-4ea5-91e4-ba3efb04d862"},"vehicle_type_id":"4","last_reported":1702076823,"current_range_meters":24400,"station_id":"cjm6bp8fraef2m0cb0m0","pricing_plan_id":"free"},{"bike_id":"6e7b4200-1948-48d3-accd-666077fbbf44","system_id":"levelo_inurba_marseille","lat":43.26937,"lon":5.40252,"is_reserved":false,"is_disabled":false,"rental_uris":{"android":"levelo://app?vid=6e7b4200-1948-48d3-accd-666077fbbf44","ios":"levelo://app?vid=6e7b4200-1948-48d3-accd-666077fbbf44"},"vehicle_type_id":"4","last_reported":1702076823,"current_range_meters":11200,"station_id":"cjm6bp8fraef2m0cb0m0","pricing_plan_id":"free"},{"bike_id":"10bd98e0-d0a2-4a25-a407-cc97034aa68c","system_id":"levelo_inurba_marseille","lat":43.3171,"lon":5.43701,"is_reserved":false,"is_disabled":false,"rental_uris":{"android":"levelo://app?vid=10bd98e0-d0a2-4a25-a407-cc97034aa68c","ios":"levelo://app?vid=10bd98e0-d0a2-4a25-a407-cc97034aa68c"},"vehicle_type_id":"4","last_reported":1702076823,"current_range_meters":10800,"station_id":"ce4bhp92rcd13ifvqhcg","pricing_plan_id":"free"},{"bike_id":"951f740b-37b9-4d60-a638-e3a5b1e324f0","system_id":"levelo_inurba_marseille","lat":43.271388,"lon":5.409269,"is_reserved":false,"is_disabled":false,"rental_uris":{"android":"levelo://app?vid=951f740b-37b9-4d60-a638-e3a5b1e324f0","ios":"levelo://app?vid=951f740b-37b9-4d60-a638-e3a5b1e324f0"},"vehicle_type_id":"4","last_reported":1702076823,"current_range_meters":22800,"station_id":"ce4bhl12rcd13ifvqgf0","pricing_plan_id":"free"},{"bike_id":"26a316ce-cbd3-4799-8b70-99bfb6f0c11e","system_id":"levelo_inurba_marseille","lat":43.317104,"lon":5.436818,"is_reserved":false,"is_disabled":false,"rental_uris":{"android":"levelo://app?vid=26a316ce-cbd3-4799-8b70-99bfb6f0c11e","ios":"levelo://app?vid=26a316ce-cbd3-4799-8b70-99bfb6f0c11e"},"vehicle_type_id":"4","last_reported":1702076823,"current_range_meters":30800,"station_id":"ce4bhp92rcd13ifvqhcg","pricing_plan_id":"free"},{"bike_id":"2affc31e-3442-4a5f-9981-75a98ae97ad1","system_id":"levelo_inurba_marseille","lat":43.317104,"lon":5.436818,"is_reserved":false,"is_disabled":false,"rental_uris":{"android":"levelo://app?vid=2affc31e-3442-4a5f-9981-75a98ae97ad1","ios":"levelo://app?vid=2affc31e-3442-4a5f-9981-75a98ae97ad1"},"vehicle_type_id":"4","last_reported":1702076823,"current_range_meters":0,"station_id":"ce4bhp92rcd13ifvqhcg","pricing_plan_id":"free"},{"bike_id":"668edf61-6960-468f-942e-6a5cc5a21a93","system_id":"levelo_inurba_marseille","lat":43.271388,"lon":5.409269,"is_reserved":false,"is_disabled":false,"rental_uris":{"android":"levelo://app?vid=668edf61-6960-468f-942e-6a5cc5a21a93","ios":"levelo://app?vid=668edf61-6960-468f-942e-6a5cc5a21a93"},"vehicle_type_id":"4","last_reported":1702076823,"current_range_meters":30000,"station_id":"ce4bhl12rcd13ifvqgf0","pricing_plan_id":"free"},{"bike_id":"e682df97-8240-4ca3-aae3-148a900e0dc3","system_id":"levelo_inurba_marseille","lat":43.26202,"lon":5.379299,"is_reserved":false,"is_disabled":false,"rental_uris":{"android":"levelo://app?vid=e682df97-8240-4ca3-aae3-148a900e0dc3","ios":"levelo://app?vid=e682df97-8240-4ca3-aae3-148a900e0dc3"},"vehicle_type_id":"4","last_reported":1702076823,"current_range_meters":0,"station_id":"ce4bhjp2rcd13ifvqg90","pricing_plan_id":"free"},{"bike_id":"27e0bed9-11d2-4515-92f1-768e36978486","system_id":"levelo_inurba_marseille","lat":43.271388,"lon":5.409269,"is_reserved":false,"is_disabled":false,"rental_uris":{"android":"levelo://app?vid=27e0bed9-11d2-4515-92f1-768e36978486","ios":"levelo://app?vid=27e0bed9-11d2-4515-92f1-768e36978486"},"vehicle_type_id":"4","last_reported":1702076823,"current_range_meters":14400,"station_id":"ce4bhl12rcd13ifvqgf0","pricing_plan_id":"free"},{"bike_id":"4f68f183-a711-4386-a731-e8ea8e2f115e","system_id":"levelo_inurba_marseille","lat":43.298768,"lon":5.43643,"is_reserved":false,"is_disabled":false,"rental_uris":{"android":"levelo://app?vid=4f68f183-a711-4386-a731-e8ea8e2f115e","ios":"levelo://app?vid=4f68f183-a711-4386-a731-e8ea8e2f115e"},"vehicle_type_id":"4","last_reported":1702076823,"current_range_meters":26000,"station_id":"ce4bhpp2rcd13ifvqhfg","pricing_plan_id":"free"},{"bike_id":"83e2018e-7127-4415-8bbf-2e347a9c6750","system_id":"levelo_inurba_marseille","lat":43.298934,"lon":5.436606,"is_reserved":false,"is_disabled":false,"rental_uris":{"android":"levelo://app?vid=83e2018e-7127-4415-8bbf-2e347a9c6750","ios":"levelo://app?vid=83e2018e-7127-4415-8bbf-2e347a9c6750"},"vehicle_type_id":"4","last_reported":1702076823,"current_range_meters":1600,"station_id":"ce4bhpp2rcd13ifvqhfg","pricing_plan_id":"free"},{"bike_id":"6b17b896-99f2-456b-929e-df3811eeb274","system_id":"levelo_inurba_marseille","lat":43.298768,"lon":5.43643,"is_reserved":false,"is_disabled":false,"rental_uris":{"android":"levelo://app?vid=6b17b896-99f2-456b-929e-df3811eeb274","ios":"levelo://app?vid=6b17b896-99f2-456b-929e-df3811eeb274"},"vehicle_type_id":"4","last_reported":1702076823,"current_range_meters":28400,"station_id":"ce4bhpp2rcd13ifvqhfg","pricing_plan_id":"free"},{"bike_id":"5215ad78-0811-4492-88ee-04afc35bf3a5","system_id":"levelo_inurba_marseille","lat":43.298768,"lon":5.43643,"is_reserved":false,"is_disabled":false,"rental_uris":{"android":"levelo://app?vid=5215ad78-0811-4492-88ee-04afc35bf3a5","ios":"levelo://app?vid=5215ad78-0811-4492-88ee-04afc35bf3a5"},"vehicle_type_id":"4","last_reported":1702076823,"current_range_meters":31200,"station_id":"ce4bhpp2rcd13ifvqhfg","pricing_plan_id":"free"},{"bike_id":"ca4db8a8-5b98-4b78-bc3d-514f38028a3d","system_id":"levelo_inurba_marseille","lat":43.298768,"lon":5.43643,"is_reserved":false,"is_disabled":false,"rental_uris":{"android":"levelo://app?vid=ca4db8a8-5b98-4b78-bc3d-514f38028a3d","ios":"levelo://app?vid=ca4db8a8-5b98-4b78-bc3d-514f38028a3d"},"vehicle_type_id":"4","last_reported":1702076823,"current_range_meters":31200,"station_id":"ce4bhpp2rcd13ifvqhfg","pricing_plan_id":"free"},{"bike_id":"70c52fa1-91be-4fbd-9217-7a0c668f9310","system_id":"levelo_inurba_marseille","lat":43.29888,"lon":5.43667,"is_reserved":false,"is_disabled":false,"rental_uris":{"android":"levelo://app?vid=70c52fa1-91be-4fbd-9217-7a0c668f9310","ios":"levelo://app?vid=70c52fa1-91be-4fbd-9217-7a0c668f9310"},"vehicle_type_id":"4","last_reported":1702076823,"current_range_meters":28400,"station_id":"ce4bhpp2rcd13ifvqhfg","pricing_plan_id":"free"},{"bike_id":"c16ba598-e268-423a-ba8d-6002d2a98117","system_id":"levelo_inurba_marseille","lat":43.298768,"lon":5.43643,"is_reserved":false,"is_disabled":false,"rental_uris":{"android":"levelo://app?vid=c16ba598-e268-423a-ba8d-6002d2a98117","ios":"levelo://app?vid=c16ba598-e268-423a-ba8d-6002d2a98117"},"vehicle_type_id":"4","last_reported":1702076823,"current_range_meters":28400,"station_id":"ce4bhpp2rcd13ifvqhfg","pricing_plan_id":"free"},{"bike_id":"35808219-26b6-4380-82a5-b4564699733a","system_id":"levelo_inurba_marseille","lat":43.298992,"lon":5.436767,"is_reserved":false,"is_disabled":false,"rental_uris":{"android":"levelo://app?vid=35808219-26b6-4380-82a5-b4564699733a","ios":"levelo://app?vid=35808219-26b6-4380-82a5-b4564699733a"},"vehicle_type_id":"4","last_reported":1702076823,"current_range_meters":14000,"station_id":"","pricing_plan_id":"free"},{"bike_id":"2d70b9fc-8d42-4ce5-98c1-cdfca249cc2c","system_id":"levelo_inurba_marseille","lat":43.281548,"lon":5.42643,"is_reserved":false,"is_disabled":false,"rental_uris":{"android":"levelo://app?vid=2d70b9fc-8d42-4ce5-98c1-cdfca249cc2c","ios":"levelo://app?vid=2d70b9fc-8d42-4ce5-98c1-cdfca249cc2c"},"vehicle_type_id":"4","last_reported":1702076823,"current_range_meters":28400,"station_id":"ce4bhnh2rcd13ifvqgug","pricing_plan_id":"free"},{"bike_id":"f56607a5-8c0d-4214-a86e-b954d1fd309d","system_id":"levelo_inurba_marseille","lat":43.28153,"lon":5.42645,"is_reserved":false,"is_disabled":false,"rental_uris":{"android":"levelo://app?vid=f56607a5-8c0d-4214-a86e-b954d1fd309d","ios":"levelo://app?vid=f56607a5-8c0d-4214-a86e-b954d1fd309d"},"vehicle_type_id":"4","last_reported":1702076823,"current_range_meters":2400,"station_id":"ce4bhnh2rcd13ifvqgug","pricing_plan_id":"free"},{"bike_id":"bf0f85ca-5630-4c1a-b3f1-d0fc5f67252f","system_id":"levelo_inurba_marseille","lat":43.281548,"lon":5.42643,"is_reserved":false,"is_disabled":false,"rental_uris":{"android":"levelo://app?vid=bf0f85ca-5630-4c1a-b3f1-d0fc5f67252f","ios":"levelo://app?vid=bf0f85ca-5630-4c1a-b3f1-d0fc5f67252f"},"vehicle_type_id":"4","last_reported":1702076823,"current_range_meters":24000,"station_id":"ce4bhnh2rcd13ifvqgug","pricing_plan_id":"free"},{"bike_id":"9f7027d4-73f6-4d93-89d4-7e3f64185022","system_id":"levelo_inurba_marseille","lat":43.258224,"lon":5.394369,"is_reserved":false,"is_disabled":false,"rental_uris":{"android":"levelo://app?vid=9f7027d4-73f6-4d93-89d4-7e3f64185022","ios":"levelo://app?vid=9f7027d4-73f6-4d93-89d4-7e3f64185022"},"vehicle_type_id":"4","last_reported":1702076823,"current_range_meters":24800,"station_id":"ce4bhip2rcd13ifvqft0","pricing_plan_id":"free"},{"bike_id":"6ba654fd-0962-4a10-910c-7ee49fa88cc1","system_id":"levelo_inurba_marseille","lat":43.270721,"lon":5.422764,"is_reserved":false,"is_disabled":false,"rental_uris":{"android":"levelo://app?vid=6ba654fd-0962-4a10-910c-7ee49fa88cc1","ios":"levelo://app?vid=6ba654fd-0962-4a10-910c-7ee49fa88cc1"},"vehicle_type_id":"4","last_reported":1702076823,"current_range_meters":22800,"station_id":"ce4bhk92rcd13ifvqgb0","pricing_plan_id":"free"},{"bike_id":"b892416b-65d0-482e-a86c-e596080a2ad5","system_id":"levelo_inurba_marseille","lat":43.27069,"lon":5.42277,"is_reserved":false,"is_disabled":false,"rental_uris":{"android":"levelo://app?vid=b892416b-65d0-482e-a86c-e596080a2ad5","ios":"levelo://app?vid=b892416b-65d0-482e-a86c-e596080a2ad5"},"vehicle_type_id":"4","last_reported":1702076823,"current_range_meters":24800,"station_id":"ce4bhk92rcd13ifvqgb0","pricing_plan_id":"free"},{"bike_id":"a1b07b6a-2786-4711-a5ea-323143e1b562","system_id":"levelo_inurba_marseille","lat":43.270721,"lon":5.422764,"is_reserved":false,"is_disabled":false,"rental_uris":{"android":"levelo://app?vid=a1b07b6a-2786-4711-a5ea-323143e1b562","ios":"levelo://app?vid=a1b07b6a-2786-4711-a5ea-323143e1b562"},"vehicle_type_id":"4","last_reported":1702076823,"current_range_meters":4000,"station_id":"ce4bhk92rcd13ifvqgb0","pricing_plan_id":"free"},{"bike_id":"bca9cc40-1771-4266-9a81-e9666469cf1c","system_id":"levelo_inurba_marseille","lat":43.257079,"lon":5.411051,"is_reserved":false,"is_disabled":false,"rental_uris":{"android":"levelo://app?vid=bca9cc40-1771-4266-9a81-e9666469cf1c","ios":"levelo://app?vid=bca9cc40-1771-4266-9a81-e9666469cf1c"},"vehicle_type_id":"4","last_reported":1702076823,"current_range_meters":9600,"station_id":"ce4bhkp2rcd13ifvqgd0","pricing_plan_id":"free"},{"bike_id":"3029dce1-b5e1-4a93-964f-e286d4fbd784","system_id":"levelo_inurba_marseille","lat":43.250009,"lon":5.389195,"is_reserved":false,"is_disabled":false,"rental_uris":{"android":"levelo://app?vid=3029dce1-b5e1-4a93-964f-e286d4fbd784","ios":"levelo://app?vid=3029dce1-b5e1-4a93-964f-e286d4fbd784"},"vehicle_type_id":"4","last_reported":1702076823,"current_range_meters":25200,"station_id":"ce4bhgp2rcd13ifvqfd0","pricing_plan_id":"free"},{"bike_id":"8508fa21-fb93-4b49-a453-60acc70e61cc","system_id":"levelo_inurba_marseille","lat":43.24804,"lon":5.37455,"is_reserved":false,"is_disabled":false,"rental_uris":{"android":"levelo://app?vid=8508fa21-fb93-4b49-a453-60acc70e61cc","ios":"levelo://app?vid=8508fa21-fb93-4b49-a453-60acc70e61cc"},"vehicle_type_id":"4","last_reported":1702076823,"current_range_meters":19200,"station_id":"ce4bhgh2rcd13ifvqfb0","pricing_plan_id":"free"},{"bike_id":"54e234e9-f7bc-44bb-82b4-977ceb39dcd1","system_id":"levelo_inurba_marseille","lat":43.24693,"lon":5.382096,"is_reserved":false,"is_disabled":false,"rental_uris":{"android":"levelo://app?vid=54e234e9-f7bc-44bb-82b4-977ceb39dcd1","ios":"levelo://app?vid=54e234e9-f7bc-44bb-82b4-977ceb39dcd1"},"vehicle_type_id":"4","last_reported":1702076823,"current_range_meters":5200,"station_id":"ce4bhih2rcd13ifvqfr0","pricing_plan_id":"free"},{"bike_id":"8913cceb-d73f-4432-9e1f-266f1ce1367e","system_id":"levelo_inurba_marseille","lat":43.25102,"lon":5.403214,"is_reserved":false,"is_disabled":false,"rental_uris":{"android":"levelo://app?vid=8913cceb-d73f-4432-9e1f-266f1ce1367e","ios":"levelo://app?vid=8913cceb-d73f-4432-9e1f-266f1ce1367e"},"vehicle_type_id":"4","last_reported":1702076823,"current_range_meters":14400,"station_id":"ce4bhlh2rcd13ifvqgig","pricing_plan_id":"free"},{"bike_id":"9bdb7ab8-9ffd-4fd0-a254-22e705c6f751","system_id":"levelo_inurba_marseille","lat":43.243884,"lon":5.370736,"is_reserved":false,"is_disabled":false,"rental_uris":{"android":"levelo://app?vid=9bdb7ab8-9ffd-4fd0-a254-22e705c6f751","ios":"levelo://app?vid=9bdb7ab8-9ffd-4fd0-a254-22e705c6f751"},"vehicle_type_id":"4","last_reported":1702076823,"current_range_meters":27600,"station_id":"ce4bhhh2rcd13ifvqfk0","pricing_plan_id":"free"},{"bike_id":"b3705516-da65-4902-b345-4cc53e261fdf","system_id":"levelo_inurba_marseille","lat":43.2408,"lon":5.37759,"is_reserved":false,"is_disabled":false,"rental_uris":{"android":"levelo://app?vid=b3705516-da65-4902-b345-4cc53e261fdf","ios":"levelo://app?vid=b3705516-da65-4902-b345-4cc53e261fdf"},"vehicle_type_id":"4","last_reported":1702076823,"current_range_meters":20400,"station_id":"","pricing_plan_id":"free"},{"bike_id":"549f739b-1226-445d-b2da-b266488cad53","system_id":"levelo_inurba_marseille","lat":43.240623,"lon":5.377642,"is_reserved":false,"is_disabled":false,"rental_uris":{"android":"levelo://app?vid=549f739b-1226-445d-b2da-b266488cad53","ios":"levelo://app?vid=549f739b-1226-445d-b2da-b266488cad53"},"vehicle_type_id":"4","last_reported":1702076823,"current_range_meters":10800,"station_id":"ce4bhnp2rcd13ifvqgvg","pricing_plan_id":"free"},{"bike_id":"fc8a7774-7978-464f-bc39-ef33e8146288","system_id":"levelo_inurba_marseille","lat":43.239588,"lon":5.366238,"is_reserved":false,"is_disabled":false,"rental_uris":{"android":"levelo://app?vid=fc8a7774-7978-464f-bc39-ef33e8146288","ios":"levelo://app?vid=fc8a7774-7978-464f-bc39-ef33e8146288"},"vehicle_type_id":"4","last_reported":1702076823,"current_range_meters":5600,"station_id":"ce4bhi12rcd13ifvqfp0","pricing_plan_id":"free"},{"bike_id":"8a85123f-6586-4416-92fb-9dcad06747a1","system_id":"levelo_inurba_marseille","lat":43.239588,"lon":5.366238,"is_reserved":false,"is_disabled":false,"rental_uris":{"android":"levelo://app?vid=8a85123f-6586-4416-92fb-9dcad06747a1","ios":"levelo://app?vid=8a85123f-6586-4416-92fb-9dcad06747a1"},"vehicle_type_id":"4","last_reported":1702076823,"current_range_meters":6000,"station_id":"ce4bhi12rcd13ifvqfp0","pricing_plan_id":"free"},{"bike_id":"19de1d90-0ef7-4697-bd3a-3e98bd2bf2e7","system_id":"levelo_inurba_marseille","lat":43.239588,"lon":5.366238,"is_reserved":false,"is_disabled":false,"rental_uris":{"android":"levelo://app?vid=19de1d90-0ef7-4697-bd3a-3e98bd2bf2e7","ios":"levelo://app?vid=19de1d90-0ef7-4697-bd3a-3e98bd2bf2e7"},"vehicle_type_id":"4","last_reported":1702076823,"current_range_meters":31200,"station_id":"ce4bhi12rcd13ifvqfp0","pricing_plan_id":"free"},{"bike_id":"07f04f98-06c9-4309-b3fe-4415621f48f3","system_id":"levelo_inurba_marseille","lat":43.23964,"lon":5.36635,"is_reserved":false,"is_disabled":false,"rental_uris":{"android":"levelo://app?vid=07f04f98-06c9-4309-b3fe-4415621f48f3","ios":"levelo://app?vid=07f04f98-06c9-4309-b3fe-4415621f48f3"},"vehicle_type_id":"4","last_reported":1702076823,"current_range_meters":26400,"station_id":"ce4bhi12rcd13ifvqfp0","pricing_plan_id":"free"},{"bike_id":"93954539-37ab-42cb-8148-c6cd6174d0ce","system_id":"levelo_inurba_marseille","lat":43.23962,"lon":5.36632,"is_reserved":false,"is_disabled":false,"rental_uris":{"android":"levelo://app?vid=93954539-37ab-42cb-8148-c6cd6174d0ce","ios":"levelo://app?vid=93954539-37ab-42cb-8148-c6cd6174d0ce"},"vehicle_type_id":"4","last_reported":1702076823,"current_range_meters":31200,"station_id":"ce4bhi12rcd13ifvqfp0","pricing_plan_id":"free"},{"bike_id":"c044812f-23c8-40b9-9235-f3a1ed3758bf","system_id":"levelo_inurba_marseille","lat":43.239588,"lon":5.366238,"is_reserved":false,"is_disabled":false,"rental_uris":{"android":"levelo://app?vid=c044812f-23c8-40b9-9235-f3a1ed3758bf","ios":"levelo://app?vid=c044812f-23c8-40b9-9235-f3a1ed3758bf"},"vehicle_type_id":"4","last_reported":1702076823,"current_range_meters":17600,"station_id":"ce4bhi12rcd13ifvqfp0","pricing_plan_id":"free"},{"bike_id":"1d8e9bd7-e6ff-447e-b845-0049da0206d3","system_id":"levelo_inurba_marseille","lat":43.231919,"lon":5.355532,"is_reserved":false,"is_disabled":false,"rental_uris":{"android":"levelo://app?vid=1d8e9bd7-e6ff-447e-b845-0049da0206d3","ios":"levelo://app?vid=1d8e9bd7-e6ff-447e-b845-0049da0206d3"},"vehicle_type_id":"4","last_reported":1702076823,"current_range_meters":6000,"station_id":"ce4bhu92rcd13ifvqi70","pricing_plan_id":"free"},{"bike_id":"19ba5a50-7ba0-4da5-96be-2e26583e1f0f","system_id":"levelo_inurba_marseille","lat":43.231923,"lon":5.355545,"is_reserved":false,"is_disabled":false,"rental_uris":{"android":"levelo://app?vid=19ba5a50-7ba0-4da5-96be-2e26583e1f0f","ios":"levelo://app?vid=19ba5a50-7ba0-4da5-96be-2e26583e1f0f"},"vehicle_type_id":"4","last_reported":1702076823,"current_range_meters":16000,"station_id":"ce4bhu92rcd13ifvqi70","pricing_plan_id":"free"},{"bike_id":"c6004eb4-873a-4661-a0e7-ea9140f6bd61","system_id":"levelo_inurba_marseille","lat":43.231919,"lon":5.355532,"is_reserved":false,"is_disabled":false,"rental_uris":{"android":"levelo://app?vid=c6004eb4-873a-4661-a0e7-ea9140f6bd61","ios":"levelo://app?vid=c6004eb4-873a-4661-a0e7-ea9140f6bd61"},"vehicle_type_id":"4","last_reported":1702076823,"current_range_meters":30400,"station_id":"ce4bhu92rcd13ifvqi70","pricing_plan_id":"free"},{"bike_id":"d7354235-71f2-4aeb-aa26-9572f0d131ef","system_id":"levelo_inurba_marseille","lat":43.231876,"lon":5.399799,"is_reserved":false,"is_disabled":false,"rental_uris":{"android":"levelo://app?vid=d7354235-71f2-4aeb-aa26-9572f0d131ef","ios":"levelo://app?vid=d7354235-71f2-4aeb-aa26-9572f0d131ef"},"vehicle_type_id":"4","last_reported":1702076823,"current_range_meters":6000,"station_id":"ce4bhn12rcd13ifvqgqg","pricing_plan_id":"free"},{"bike_id":"be845917-f52e-4a9f-83ff-909546a09332","system_id":"levelo_inurba_marseille","lat":43.231794,"lon":5.400052,"is_reserved":false,"is_disabled":false,"rental_uris":{"android":"levelo://app?vid=be845917-f52e-4a9f-83ff-909546a09332","ios":"levelo://app?vid=be845917-f52e-4a9f-83ff-909546a09332"},"vehicle_type_id":"4","last_reported":1702076823,"current_range_meters":31200,"station_id":"ce4bhn12rcd13ifvqgqg","pricing_plan_id":"free"},{"bike_id":"6c4620c0-0d4d-493f-9950-4fd3c4457696","system_id":"levelo_inurba_marseille","lat":43.231794,"lon":5.400052,"is_reserved":false,"is_disabled":false,"rental_uris":{"android":"levelo://app?vid=6c4620c0-0d4d-493f-9950-4fd3c4457696","ios":"levelo://app?vid=6c4620c0-0d4d-493f-9950-4fd3c4457696"},"vehicle_type_id":"4","last_reported":1702076823,"current_range_meters":31200,"station_id":"ce4bhn12rcd13ifvqgqg","pricing_plan_id":"free"},{"bike_id":"1c690641-a72b-433d-b1af-d36beaec8f2e","system_id":"levelo_inurba_marseille","lat":43.231869,"lon":5.399906,"is_reserved":false,"is_disabled":false,"rental_uris":{"android":"levelo://app?vid=1c690641-a72b-433d-b1af-d36beaec8f2e","ios":"levelo://app?vid=1c690641-a72b-433d-b1af-d36beaec8f2e"},"vehicle_type_id":"4","last_reported":1702076823,"current_range_meters":29600,"station_id":"ce4bhn12rcd13ifvqgqg","pricing_plan_id":"free"},{"bike_id":"ff1109c9-6591-43d3-b5cd-adc2963d746c","system_id":"levelo_inurba_marseille","lat":43.23186,"lon":5.39988,"is_reserved":false,"is_disabled":false,"rental_uris":{"android":"levelo://app?vid=ff1109c9-6591-43d3-b5cd-adc2963d746c","ios":"levelo://app?vid=ff1109c9-6591-43d3-b5cd-adc2963d746c"},"vehicle_type_id":"4","last_reported":1702076823,"current_range_meters":10000,"station_id":"ce4bhn12rcd13ifvqgqg","pricing_plan_id":"free"},{"bike_id":"0ecf5d94-fb77-4683-9b33-b3a43c812fa1","system_id":"levelo_inurba_marseille","lat":43.23184,"lon":5.39989,"is_reserved":false,"is_disabled":false,"rental_uris":{"android":"levelo://app?vid=0ecf5d94-fb77-4683-9b33-b3a43c812fa1","ios":"levelo://app?vid=0ecf5d94-fb77-4683-9b33-b3a43c812fa1"},"vehicle_type_id":"4","last_reported":1702076823,"current_range_meters":19600,"station_id":"ce4bhn12rcd13ifvqgqg","pricing_plan_id":"free"},{"bike_id":"34665144-ce30-468a-b218-97ce329e0725","system_id":"levelo_inurba_marseille","lat":43.23182,"lon":5.39984,"is_reserved":false,"is_disabled":false,"rental_uris":{"android":"levelo://app?vid=34665144-ce30-468a-b218-97ce329e0725","ios":"levelo://app?vid=34665144-ce30-468a-b218-97ce329e0725"},"vehicle_type_id":"4","last_reported":1702076823,"current_range_meters":21200,"station_id":"ce4bhn12rcd13ifvqgqg","pricing_plan_id":"free"},{"bike_id":"5c4c14b0-15b0-4600-8dc6-cdbde00bef8b","system_id":"levelo_inurba_marseille","lat":43.23181,"lon":5.399869,"is_reserved":false,"is_disabled":false,"rental_uris":{"android":"levelo://app?vid=5c4c14b0-15b0-4600-8dc6-cdbde00bef8b","ios":"levelo://app?vid=5c4c14b0-15b0-4600-8dc6-cdbde00bef8b"},"vehicle_type_id":"4","last_reported":1702076823,"current_range_meters":5200,"station_id":"ce4bhn12rcd13ifvqgqg","pricing_plan_id":"free"},{"bike_id":"1364bb53-1feb-4c66-bc1b-fe1d777b1c2f","system_id":"levelo_inurba_marseille","lat":43.23181,"lon":5.39992,"is_reserved":false,"is_disabled":false,"rental_uris":{"android":"levelo://app?vid=1364bb53-1feb-4c66-bc1b-fe1d777b1c2f","ios":"levelo://app?vid=1364bb53-1feb-4c66-bc1b-fe1d777b1c2f"},"vehicle_type_id":"4","last_reported":1702076823,"current_range_meters":5200,"station_id":"ce4bhn12rcd13ifvqgqg","pricing_plan_id":"free"},{"bike_id":"18920ba5-4ce1-41cc-940f-647195c9ea38","system_id":"levelo_inurba_marseille","lat":43.23177,"lon":5.39989,"is_reserved":false,"is_disabled":false,"rental_uris":{"android":"levelo://app?vid=18920ba5-4ce1-41cc-940f-647195c9ea38","ios":"levelo://app?vid=18920ba5-4ce1-41cc-940f-647195c9ea38"},"vehicle_type_id":"4","last_reported":1702076823,"current_range_meters":18000,"station_id":"ce4bhn12rcd13ifvqgqg","pricing_plan_id":"free"}]}}