{"last_updated":1744953013,"ttl":60,"version":"2.2","data":{"bikes":[{"bike_id":"5969091c-3431-4fdb-a267-75928a912e19","system_id":"levelo_inurba_marseille","lat":43.27507,"lon":5.4132,"is_reserved":false,"is_disabled":false,"rental_uris":{"android":"levelo://app?vid=5969091c-3431-4fdb-a267-75928a912e19","ios":"levelo://app?vid=5969091c-3431-4fdb-a267-75928a912e19"},"vehicle_type_id":"4","last_reported":1744953013,"current_range_meters":2800,"station_id":"","pricing_plan_id":"cebpf4jnsgd1na2vs0mg"},{"bike_id":"33d45d8e-937b-4f19-bf54-20001f574233","system_id":"levelo_inurba_marseille","lat":43.243885,"lon":5.370628,"is_reserved":false,"is_disabled":false,"rental_uris":{"android":"levelo://app?vid=33d45d8e-937b-4f19-bf54-20001f574233","ios":"levelo://app?vid=33d45d8e-937b-4f19-bf54-20001f574233"},"vehicle_type_id":"4","last_reported":1744953013,"current_range_meters":2800,"station_id":"ce4bhhh2rcd13ifvqfk0","pricing_plan_id":"cebpf4jnsgd1na2vs0mg"},{"bike_id":"dba76eb4-eb72-4de4-a680-8dae2cacd891","system_id":"levelo_inurba_marseille","lat":43.30591,"lon":5.3935,"is_reserved":false,"is_disabled":false,"rental_uris":{"android":"levelo://app?vid=dba76eb4-eb72-4de4-a680-8dae2cacd891","ios":"levelo://app?vid=dba76eb4-eb72-4de4-a680-8dae2cacd891"},"vehicle_type_id":"4","last_reported":1744953013,"current_range_meters":2800,"station_id":"ce4bh0p2rcd13ifvqd80","pricing_plan_id":"cebpf4jnsgd1na2vs0mg"},{"bike_id":"78471c43-85b3-4f4f-9afc-a3bc5599ab7d","system_id":"levelo_inurba_marseille","lat":43.30279,"lon":5.377,"is_reserved":false,"is_disabled":false,"rental_uris":{"android":"levelo://app?vid=78471c43-85b3-4f4f-9afc-a3bc5599ab7d","ios":"levelo://app?vid=78471c43-85b3-4f4f-9afc-a3bc5599ab7d"},"vehicle_type_id":"4","last_reported":1744953013,"current_range_meters":3200,"station_id":"ce4bguh2rcd13ifvqcj0","pricing_plan_id":"cebpf4jnsgd1na2vs0mg"},{"bike_id":"2db2330c-d70d-466c-b90a-2c34aacd6558","system_id":"levelo_inurba_marseille","lat":43.2904,"lon":5.39959,"is_reserved":false,"is_disabled":false,"rental_uris":{"android":"levelo://app?vid=2db2330c-d70d-466c-b90a-2c34aacd6558","ios":"levelo://app?vid=2db2330c-d70d-466c-b90a-2c34aacd6558"},"vehicle_type_id":"4","last_reported":1744953013,"current_range_meters":7200,"station_id":"ce4bh392rcd13ifvqdm0","pricing_plan_id":"cebpf4jnsgd1na2vs0mg"},{"bike_id":"3c3e8e4c-b895-47db-a199-2a13a607a764","system_id":"levelo_inurba_marseille","lat":43.29728,"lon":5.36598,"is_reserved":false,"is_disabled":false,"rental_uris":{"android":"levelo://app?vid=3c3e8e4c-b895-47db-a199-2a13a607a764","ios":"levelo://app?vid=3c3e8e4c-b895-47db-a199-2a13a607a764"},"vehicle_type_id":"4","last_reported":1744953013,"current_range_meters":4400,"station_id":"ce4bgn12rcd13ifvqbt0","pricing_plan_id":"cebpf4jnsgd1na2vs0mg"},{"bike_id":"a1bd58e4-8e84-4096-8a2f-e7b497bcf64c","system_id":"levelo_inurba_marseille","lat":43.31518,"lon":5.37268,"is_reserved":false,"is_disabled":true,"rental_uris":{"android":"levelo://app?vid=a1bd58e4-8e84-4096-8a2f-e7b497bcf64c","ios":"levelo://app?vid=a1bd58e4-8e84-4096-8a2f-e7b497bcf64c"},"vehicle_type_id":"4","last_reported":1744953013,"current_range_meters":4400,"station_id":"","pricing_plan_id":"cebpf4jnsgd1na2vs0mg"},{"bike_id":"2eedcc99-f3db-4109-b8fb-24a5c12ef232","system_id":"levelo_inurba_marseille","lat":43.298484,"lon":5.363083,"is_reserved":false,"is_disabled":false,"rental_uris":{"android":"levelo://app?vid=2eedcc99-f3db-4109-b8fb-24a5c12ef232","ios":"levelo://app?vid=2eedcc99-f3db-4109-b8fb-24a5c12ef232"},"vehicle_type_id":"4","last_reported":1744953013,"current_range_meters":4800,"station_id":"ce4bgpp2rcd13ifvqc3g","pricing_plan_id":"cebpf4jnsgd1na2vs0mg"},{"bike_id":"af19ae59-4996-4279-8341-1452cd55c5a8","system_id":"levelo_inurba_marseille","lat":43.24665,"lon":5.38177,"is_reserved":false,"is_disabled":false,"rental_uris":{"android":"levelo://app?vid=af19ae59-4996-4279-8341-1452cd55c5a8","ios":"levelo://app?vid=af19ae59-4996-4279-8341-1452cd55c5a8"},"vehicle_type_id":"4","last_reported":1744953013,"current_range_meters":4800,"station_id":"ce4bhih2rcd13ifvqfr0","pricing_plan_id":"cebpf4jnsgd1na2vs0mg"},{"bike_id":"409a79ab-dcd7-4c74-9be6-a03c63711a18","system_id":"levelo_inurba_marseille","lat":43.281516,"lon":5.426351,"is_reserved":false,"is_disabled":false,"rental_uris":{"android":"levelo://app?vid=409a79ab-dcd7-4c74-9be6-a03c63711a18","ios":"levelo://app?vid=409a79ab-dcd7-4c74-9be6-a03c63711a18"},"vehicle_type_id":"4","last_reported":1744953013,"current_range_meters":4800,"station_id":"ce4bhnh2rcd13ifvqgug","pricing_plan_id":"cebpf4jnsgd1na2vs0mg"},{"bike_id":"0cb0ce16-9c3d-45a7-98bb-46531d1b45ec","system_id":"levelo_inurba_marseille","lat":43.29225,"lon":5.36063,"is_reserved":false,"is_disabled":false,"rental_uris":{"android":"levelo://app?vid=0cb0ce16-9c3d-45a7-98bb-46531d1b45ec","ios":"levelo://app?vid=0cb0ce16-9c3d-45a7-98bb-46531d1b45ec"},"vehicle_type_id":"4","last_reported":1744953013,"current_range_meters":5600,"station_id":"ce4bhbh2rcd13ifvqeqg","pricing_plan_id":"cebpf4jnsgd1na2vs0mg"},{"bike_id":"d356c79b-9952-4917-8c8b-b9dcbd13905a","system_id":"levelo_inurba_marseille","lat":43.246791,"lon":5.381651,"is_reserved":false,"is_disabled":false,"rental_uris":{"android":"levelo://app?vid=d356c79b-9952-4917-8c8b-b9dcbd13905a","ios":"levelo://app?vid=d356c79b-9952-4917-8c8b-b9dcbd13905a"},"vehicle_type_id":"4","last_reported":1744953013,"current_range_meters":5600,"station_id":"ce4bhih2rcd13ifvqfr0","pricing_plan_id":"cebpf4jnsgd1na2vs0mg"},{"bike_id":"857f2ddd-7ee5-4382-8a43-96654bba9ba2","system_id":"levelo_inurba_marseille","lat":43.23958,"lon":5.36641,"is_reserved":false,"is_disabled":false,"rental_uris":{"android":"levelo://app?vid=857f2ddd-7ee5-4382-8a43-96654bba9ba2","ios":"levelo://app?vid=857f2ddd-7ee5-4382-8a43-96654bba9ba2"},"vehicle_type_id":"4","last_reported":1744953013,"current_range_meters":6000,"station_id":"ce4bhi12rcd13ifvqfp0","pricing_plan_id":"cebpf4jnsgd1na2vs0mg"},{"bike_id":"c9b3ee47-754d-45be-b373-f7e6f894d809","system_id":"levelo_inurba_marseille","lat":43.31318,"lon":5.37506,"is_reserved":false,"is_disabled":false,"rental_uris":{"android":"levelo://app?vid=c9b3ee47-754d-45be-b373-f7e6f894d809","ios":"levelo://app?vid=c9b3ee47-754d-45be-b373-f7e6f894d809"},"vehicle_type_id":"4","last_reported":1744953013,"current_range_meters":6000,"station_id":"","pricing_plan_id":"cebpf4jnsgd1na2vs0mg"},{"bike_id":"593f200f-acc6-4515-9b2c-377663e6c433","system_id":"levelo_inurba_marseille","lat":43.21755,"lon":5.34604,"is_reserved":false,"is_disabled":false,"rental_uris":{"android":"levelo://app?vid=593f200f-acc6-4515-9b2c-377663e6c433","ios":"levelo://app?vid=593f200f-acc6-4515-9b2c-377663e6c433"},"vehicle_type_id":"4","last_reported":1744953013,"current_range_meters":6000,"station_id":"st_cvj6r9ubvosntc0bgbag","pricing_plan_id":"cebpf4jnsgd1na2vs0mg"},{"bike_id":"b104b93d-3486-4201-976f-3dc4f542d5a3","system_id":"levelo_inurba_marseille","lat":43.30108,"lon":5.39879,"is_reserved":false,"is_disabled":false,"rental_uris":{"android":"levelo://app?vid=b104b93d-3486-4201-976f-3dc4f542d5a3","ios":"levelo://app?vid=b104b93d-3486-4201-976f-3dc4f542d5a3"},"vehicle_type_id":"4","last_reported":1744953013,"current_range_meters":6400,"station_id":"ce4bh0h2rcd13ifvqd40","pricing_plan_id":"cebpf4jnsgd1na2vs0mg"},{"bike_id":"07dd6a7c-2ab4-4e0a-8438-0e7bda262b59","system_id":"levelo_inurba_marseille","lat":43.29329,"lon":5.37168,"is_reserved":false,"is_disabled":true,"rental_uris":{"android":"levelo://app?vid=07dd6a7c-2ab4-4e0a-8438-0e7bda262b59","ios":"levelo://app?vid=07dd6a7c-2ab4-4e0a-8438-0e7bda262b59"},"vehicle_type_id":"4","last_reported":1744953013,"current_range_meters":6800,"station_id":"ce4bgh92rcd13ifvqb40","pricing_plan_id":"cebpf4jnsgd1na2vs0mg"},{"bike_id":"7b09dfe8-4549-4e15-baf3-df132e32d464","system_id":"levelo_inurba_marseille","lat":43.24177,"lon":5.39737,"is_reserved":false,"is_disabled":false,"rental_uris":{"android":"levelo://app?vid=7b09dfe8-4549-4e15-baf3-df132e32d464","ios":"levelo://app?vid=7b09dfe8-4549-4e15-baf3-df132e32d464"},"vehicle_type_id":"4","last_reported":1744953013,"current_range_meters":6800,"station_id":"ce4bhn12rcd13ifvqgpg","pricing_plan_id":"cebpf4jnsgd1na2vs0mg"},{"bike_id":"df9b757d-c8c0-444d-9fc6-09bf61d6c670","system_id":"levelo_inurba_marseille","lat":43.305502,"lon":5.393388,"is_reserved":false,"is_disabled":false,"rental_uris":{"android":"levelo://app?vid=df9b757d-c8c0-444d-9fc6-09bf61d6c670","ios":"levelo://app?vid=df9b757d-c8c0-444d-9fc6-09bf61d6c670"},"vehicle_type_id":"4","last_reported":1744953013,"current_range_meters":6800,"station_id":"","pricing_plan_id":"cebpf4jnsgd1na2vs0mg"},{"bike_id":"683727aa-af5c-4a30-b620-923da0da034b","system_id":"levelo_inurba_marseille","lat":43.26882,"lon":5.40478,"is_reserved":false,"is_disabled":false,"rental_uris":{"android":"levelo://app?vid=683727aa-af5c-4a30-b620-923da0da034b","ios":"levelo://app?vid=683727aa-af5c-4a30-b620-923da0da034b"},"vehicle_type_id":"4","last_reported":1744953013,"current_range_meters":6800,"station_id":"ce4bgt92rcd13ifvqcf0","pricing_plan_id":"cebpf4jnsgd1na2vs0mg"},{"bike_id":"a31a49f5-1f5d-4e17-b115-f2a47d4c28a1","system_id":"levelo_inurba_marseille","lat":43.304675,"lon":5.379038,"is_reserved":false,"is_disabled":false,"rental_uris":{"android":"levelo://app?vid=a31a49f5-1f5d-4e17-b115-f2a47d4c28a1","ios":"levelo://app?vid=a31a49f5-1f5d-4e17-b115-f2a47d4c28a1"},"vehicle_type_id":"4","last_reported":1744953013,"current_range_meters":6800,"station_id":"ce4bgup2rcd13ifvqcn0","pricing_plan_id":"cebpf4jnsgd1na2vs0mg"},{"bike_id":"f57acb1a-2d22-481f-9311-39903e65c833","system_id":"levelo_inurba_marseille","lat":43.24642,"lon":5.38143,"is_reserved":false,"is_disabled":false,"rental_uris":{"android":"levelo://app?vid=f57acb1a-2d22-481f-9311-39903e65c833","ios":"levelo://app?vid=f57acb1a-2d22-481f-9311-39903e65c833"},"vehicle_type_id":"4","last_reported":1744953013,"current_range_meters":6800,"station_id":"ce4bhih2rcd13ifvqfr0","pricing_plan_id":"cebpf4jnsgd1na2vs0mg"},{"bike_id":"1bdba7a7-a82e-4252-906c-80db6beb180e","system_id":"levelo_inurba_marseille","lat":43.33762,"lon":5.37486,"is_reserved":false,"is_disabled":false,"rental_uris":{"android":"levelo://app?vid=1bdba7a7-a82e-4252-906c-80db6beb180e","ios":"levelo://app?vid=1bdba7a7-a82e-4252-906c-80db6beb180e"},"vehicle_type_id":"4","last_reported":1744953013,"current_range_meters":7200,"station_id":"","pricing_plan_id":"cebpf4jnsgd1na2vs0mg"},{"bike_id":"2a297b53-e6c9-4a44-8832-a1535085da75","system_id":"levelo_inurba_marseille","lat":43.31997,"lon":5.38155,"is_reserved":false,"is_disabled":true,"rental_uris":{"android":"levelo://app?vid=2a297b53-e6c9-4a44-8832-a1535085da75","ios":"levelo://app?vid=2a297b53-e6c9-4a44-8832-a1535085da75"},"vehicle_type_id":"4","last_reported":1744953013,"current_range_meters":7200,"station_id":"ce4bhr12rcd13ifvqhpg","pricing_plan_id":"cebpf4jnsgd1na2vs0mg"},{"bike_id":"b066ca97-ba3e-4e64-b79a-c11d1ef9416d","system_id":"levelo_inurba_marseille","lat":43.25566,"lon":5.38251,"is_reserved":false,"is_disabled":false,"rental_uris":{"android":"levelo://app?vid=b066ca97-ba3e-4e64-b79a-c11d1ef9416d","ios":"levelo://app?vid=b066ca97-ba3e-4e64-b79a-c11d1ef9416d"},"vehicle_type_id":"4","last_reported":1744953013,"current_range_meters":7200,"station_id":"ce4bhih2rcd13ifvqfs0","pricing_plan_id":"cebpf4jnsgd1na2vs0mg"},{"bike_id":"4ebbc7f8-fc72-4da5-b611-0baac0637024","system_id":"levelo_inurba_marseille","lat":43.2657,"lon":5.39036,"is_reserved":false,"is_disabled":false,"rental_uris":{"android":"levelo://app?vid=4ebbc7f8-fc72-4da5-b611-0baac0637024","ios":"levelo://app?vid=4ebbc7f8-fc72-4da5-b611-0baac0637024"},"vehicle_type_id":"4","last_reported":1744953013,"current_range_meters":7200,"station_id":"ce4bhe12rcd13ifvqf30","pricing_plan_id":"cebpf4jnsgd1na2vs0mg"},{"bike_id":"2df22311-bac1-4b8f-abff-11893969de63","system_id":"levelo_inurba_marseille","lat":43.310783,"lon":5.378273,"is_reserved":false,"is_disabled":false,"rental_uris":{"android":"levelo://app?vid=2df22311-bac1-4b8f-abff-11893969de63","ios":"levelo://app?vid=2df22311-bac1-4b8f-abff-11893969de63"},"vehicle_type_id":"4","last_reported":1744953013,"current_range_meters":7200,"station_id":"","pricing_plan_id":"cebpf4jnsgd1na2vs0mg"},{"bike_id":"ce90eeb4-f81d-4b80-9b35-94fd4698915f","system_id":"levelo_inurba_marseille","lat":43.284198,"lon":5.349978,"is_reserved":false,"is_disabled":false,"rental_uris":{"android":"levelo://app?vid=ce90eeb4-f81d-4b80-9b35-94fd4698915f","ios":"levelo://app?vid=ce90eeb4-f81d-4b80-9b35-94fd4698915f"},"vehicle_type_id":"4","last_reported":1744953013,"current_range_meters":7200,"station_id":"ce4bhbh2rcd13ifvqepg","pricing_plan_id":"cebpf4jnsgd1na2vs0mg"},{"bike_id":"6cbacff6-34bf-4bb2-a21f-2161bb295a70","system_id":"levelo_inurba_marseille","lat":43.29897,"lon":5.39739,"is_reserved":false,"is_disabled":false,"rental_uris":{"android":"levelo://app?vid=6cbacff6-34bf-4bb2-a21f-2161bb295a70","ios":"levelo://app?vid=6cbacff6-34bf-4bb2-a21f-2161bb295a70"},"vehicle_type_id":"4","last_reported":1744953013,"current_range_meters":7200,"station_id":"ce4bh0h2rcd13ifvqd50","pricing_plan_id":"cebpf4jnsgd1na2vs0mg"},{"bike_id":"6a52c25e-e42a-4237-a980-f6f82f2e061e","system_id":"levelo_inurba_marseille","lat":43.2118,"lon":5.3508,"is_reserved":false,"is_disabled":false,"rental_uris":{"android":"levelo://app?vid=6a52c25e-e42a-4237-a980-f6f82f2e061e","ios":"levelo://app?vid=6a52c25e-e42a-4237-a980-f6f82f2e061e"},"vehicle_type_id":"4","last_reported":1744953013,"current_range_meters":8000,"station_id":"st_cvj6sg6p6f1abm77japg","pricing_plan_id":"cebpf4jnsgd1na2vs0mg"},{"bike_id":"d03355fa-c7f9-4104-958e-81d7994c7f64","system_id":"levelo_inurba_marseille","lat":43.28164,"lon":5.42678,"is_reserved":false,"is_disabled":false,"rental_uris":{"android":"levelo://app?vid=d03355fa-c7f9-4104-958e-81d7994c7f64","ios":"levelo://app?vid=d03355fa-c7f9-4104-958e-81d7994c7f64"},"vehicle_type_id":"4","last_reported":1744953013,"current_range_meters":8000,"station_id":"ce4bhnh2rcd13ifvqgug","pricing_plan_id":"cebpf4jnsgd1na2vs0mg"},{"bike_id":"09e29c8d-0531-4ea0-befd-5427ca701da3","system_id":"levelo_inurba_marseille","lat":43.30566,"lon":5.37197,"is_reserved":false,"is_disabled":true,"rental_uris":{"android":"levelo://app?vid=09e29c8d-0531-4ea0-befd-5427ca701da3","ios":"levelo://app?vid=09e29c8d-0531-4ea0-befd-5427ca701da3"},"vehicle_type_id":"4","last_reported":1744953013,"current_range_meters":8000,"station_id":"ce4bgqh2rcd13ifvqc4g","pricing_plan_id":"cebpf4jnsgd1na2vs0mg"},{"bike_id":"8ee49884-4076-402b-bdc6-b1b75f8b478d","system_id":"levelo_inurba_marseille","lat":43.27906,"lon":5.39589,"is_reserved":false,"is_disabled":false,"rental_uris":{"android":"levelo://app?vid=8ee49884-4076-402b-bdc6-b1b75f8b478d","ios":"levelo://app?vid=8ee49884-4076-402b-bdc6-b1b75f8b478d"},"vehicle_type_id":"4","last_reported":1744953013,"current_range_meters":8000,"station_id":"ce4bhf92rcd13ifvqf40","pricing_plan_id":"cebpf4jnsgd1na2vs0mg"},{"bike_id":"ca6f3398-6101-4631-a909-933bc514938d","system_id":"levelo_inurba_marseille","lat":43.28701,"lon":5.37381,"is_reserved":false,"is_disabled":false,"rental_uris":{"android":"levelo://app?vid=ca6f3398-6101-4631-a909-933bc514938d","ios":"levelo://app?vid=ca6f3398-6101-4631-a909-933bc514938d"},"vehicle_type_id":"4","last_reported":1744953013,"current_range_meters":8000,"station_id":"ce4bh3p2rcd13ifvqdq0","pricing_plan_id":"cebpf4jnsgd1na2vs0mg"},{"bike_id":"88d80ac6-3462-4b2a-a1e1-3f7da1acd3d3","system_id":"levelo_inurba_marseille","lat":43.31182,"lon":5.38701,"is_reserved":false,"is_disabled":true,"rental_uris":{"android":"levelo://app?vid=88d80ac6-3462-4b2a-a1e1-3f7da1acd3d3","ios":"levelo://app?vid=88d80ac6-3462-4b2a-a1e1-3f7da1acd3d3"},"vehicle_type_id":"4","last_reported":1744953013,"current_range_meters":8000,"station_id":"ce4bgv12rcd13ifvqcp0","pricing_plan_id":"cebpf4jnsgd1na2vs0mg"},{"bike_id":"13b00410-bb9e-4396-a252-e1c023113219","system_id":"levelo_inurba_marseille","lat":43.31003,"lon":5.38468,"is_reserved":false,"is_disabled":false,"rental_uris":{"android":"levelo://app?vid=13b00410-bb9e-4396-a252-e1c023113219","ios":"levelo://app?vid=13b00410-bb9e-4396-a252-e1c023113219"},"vehicle_type_id":"4","last_reported":1744953013,"current_range_meters":8000,"station_id":"","pricing_plan_id":"cebpf4jnsgd1na2vs0mg"},{"bike_id":"6a42fdd6-075d-4748-811a-29f5845c8920","system_id":"levelo_inurba_marseille","lat":43.21757,"lon":5.34615,"is_reserved":false,"is_disabled":false,"rental_uris":{"android":"levelo://app?vid=6a42fdd6-075d-4748-811a-29f5845c8920","ios":"levelo://app?vid=6a42fdd6-075d-4748-811a-29f5845c8920"},"vehicle_type_id":"4","last_reported":1744953013,"current_range_meters":8400,"station_id":"st_cvj6r9ubvosntc0bgbag","pricing_plan_id":"cebpf4jnsgd1na2vs0mg"},{"bike_id":"2a2d2f92-39d4-4f65-84e0-3b880329f1c5","system_id":"levelo_inurba_marseille","lat":43.29578,"lon":5.39994,"is_reserved":false,"is_disabled":false,"rental_uris":{"android":"levelo://app?vid=2a2d2f92-39d4-4f65-84e0-3b880329f1c5","ios":"levelo://app?vid=2a2d2f92-39d4-4f65-84e0-3b880329f1c5"},"vehicle_type_id":"4","last_reported":1744953013,"current_range_meters":8400,"station_id":"ce4bh312rcd13ifvqdj0","pricing_plan_id":"cebpf4jnsgd1na2vs0mg"},{"bike_id":"1953ad5e-5f56-46f9-9358-ca08c41f1be4","system_id":"levelo_inurba_marseille","lat":43.31326,"lon":5.39713,"is_reserved":false,"is_disabled":false,"rental_uris":{"android":"levelo://app?vid=1953ad5e-5f56-46f9-9358-ca08c41f1be4","ios":"levelo://app?vid=1953ad5e-5f56-46f9-9358-ca08c41f1be4"},"vehicle_type_id":"4","last_reported":1744953013,"current_range_meters":8400,"station_id":"ce4bgvp2rcd13ifvqcu0","pricing_plan_id":"cebpf4jnsgd1na2vs0mg"},{"bike_id":"001a10ed-a7d7-4d8a-abb2-f7c03c8ff11f","system_id":"levelo_inurba_marseille","lat":43.262176,"lon":5.404611,"is_reserved":false,"is_disabled":false,"rental_uris":{"android":"levelo://app?vid=001a10ed-a7d7-4d8a-abb2-f7c03c8ff11f","ios":"levelo://app?vid=001a10ed-a7d7-4d8a-abb2-f7c03c8ff11f"},"vehicle_type_id":"4","last_reported":1744953013,"current_range_meters":8400,"station_id":"ce4bhmh2rcd13ifvqgmg","pricing_plan_id":"cebpf4jnsgd1na2vs0mg"},{"bike_id":"0a0b0a73-2b27-49fb-801a-3111dcebfbac","system_id":"levelo_inurba_marseille","lat":43.27496,"lon":5.42456,"is_reserved":false,"is_disabled":false,"rental_uris":{"android":"levelo://app?vid=0a0b0a73-2b27-49fb-801a-3111dcebfbac","ios":"levelo://app?vid=0a0b0a73-2b27-49fb-801a-3111dcebfbac"},"vehicle_type_id":"4","last_reported":1744953013,"current_range_meters":8400,"station_id":"ce4bhn92rcd13ifvqgrg","pricing_plan_id":"cebpf4jnsgd1na2vs0mg"},{"bike_id":"08545b9c-147f-4096-92e8-2af1c560447d","system_id":"levelo_inurba_marseille","lat":43.27494,"lon":5.42465,"is_reserved":false,"is_disabled":false,"rental_uris":{"android":"levelo://app?vid=08545b9c-147f-4096-92e8-2af1c560447d","ios":"levelo://app?vid=08545b9c-147f-4096-92e8-2af1c560447d"},"vehicle_type_id":"4","last_reported":1744953013,"current_range_meters":8400,"station_id":"ce4bhn92rcd13ifvqgrg","pricing_plan_id":"cebpf4jnsgd1na2vs0mg"},{"bike_id":"e4dd25b2-5182-454b-8ba4-58c5235d0cf2","system_id":"levelo_inurba_marseille","lat":43.310861,"lon":5.383464,"is_reserved":false,"is_disabled":false,"rental_uris":{"android":"levelo://app?vid=e4dd25b2-5182-454b-8ba4-58c5235d0cf2","ios":"levelo://app?vid=e4dd25b2-5182-454b-8ba4-58c5235d0cf2"},"vehicle_type_id":"4","last_reported":1744953013,"current_range_meters":8400,"station_id":"ce4bgv92rcd13ifvqcr0","pricing_plan_id":"cebpf4jnsgd1na2vs0mg"},{"bike_id":"706174a5-b367-48cd-8f47-742f4f05c9f3","system_id":"levelo_inurba_marseille","lat":43.31962,"lon":5.37114,"is_reserved":false,"is_disabled":false,"rental_uris":{"android":"levelo://app?vid=706174a5-b367-48cd-8f47-742f4f05c9f3","ios":"levelo://app?vid=706174a5-b367-48cd-8f47-742f4f05c9f3"},"vehicle_type_id":"4","last_reported":1744953013,"current_range_meters":8400,"station_id":"","pricing_plan_id":"cebpf4jnsgd1na2vs0mg"},{"bike_id":"a7a61861-d7ec-4293-a443-2039bd621d98","system_id":"levelo_inurba_marseille","lat":43.28473,"lon":5.38556,"is_reserved":false,"is_disabled":false,"rental_uris":{"android":"levelo://app?vid=a7a61861-d7ec-4293-a443-2039bd621d98","ios":"levelo://app?vid=a7a61861-d7ec-4293-a443-2039bd621d98"},"vehicle_type_id":"4","last_reported":1744953013,"current_range_meters":8800,"station_id":"ce4bh8p2rcd13ifvqeb0","pricing_plan_id":"cebpf4jnsgd1na2vs0mg"},{"bike_id":"585714ba-7cde-4313-a328-20a1e5862f2f","system_id":"levelo_inurba_marseille","lat":43.24654,"lon":5.38163,"is_reserved":false,"is_disabled":false,"rental_uris":{"android":"levelo://app?vid=585714ba-7cde-4313-a328-20a1e5862f2f","ios":"levelo://app?vid=585714ba-7cde-4313-a328-20a1e5862f2f"},"vehicle_type_id":"4","last_reported":1744953013,"current_range_meters":8800,"station_id":"ce4bhih2rcd13ifvqfr0","pricing_plan_id":"cebpf4jnsgd1na2vs0mg"},{"bike_id":"e3061286-add2-4bc6-a803-66a4d7d63e42","system_id":"levelo_inurba_marseille","lat":43.28598,"lon":5.35128,"is_reserved":false,"is_disabled":false,"rental_uris":{"android":"levelo://app?vid=e3061286-add2-4bc6-a803-66a4d7d63e42","ios":"levelo://app?vid=e3061286-add2-4bc6-a803-66a4d7d63e42"},"vehicle_type_id":"4","last_reported":1744953013,"current_range_meters":8800,"station_id":"ce4bhch2rcd13ifvqeug","pricing_plan_id":"cebpf4jnsgd1na2vs0mg"},{"bike_id":"54e3e55b-7492-48eb-a4a3-6f203a41345e","system_id":"levelo_inurba_marseille","lat":43.30703,"lon":5.38094,"is_reserved":false,"is_disabled":false,"rental_uris":{"android":"levelo://app?vid=54e3e55b-7492-48eb-a4a3-6f203a41345e","ios":"levelo://app?vid=54e3e55b-7492-48eb-a4a3-6f203a41345e"},"vehicle_type_id":"4","last_reported":1744953013,"current_range_meters":8800,"station_id":"","pricing_plan_id":"cebpf4jnsgd1na2vs0mg"},{"bike_id":"938a90e1-d240-42f9-a08d-d5f66f810f54","system_id":"levelo_inurba_marseille","lat":43.283275,"lon":5.398224,"is_reserved":false,"is_disabled":false,"rental_uris":{"android":"levelo://app?vid=938a90e1-d240-42f9-a08d-d5f66f810f54","ios":"levelo://app?vid=938a90e1-d240-42f9-a08d-d5f66f810f54"},"vehicle_type_id":"4","last_reported":1744953013,"current_range_meters":8800,"station_id":"","pricing_plan_id":"cebpf4jnsgd1na2vs0mg"},{"bike_id":"7b96111b-7974-4fe6-9610-4556870a2e07","system_id":"levelo_inurba_marseille","lat":43.243838,"lon":5.370525,"is_reserved":false,"is_disabled":false,"rental_uris":{"android":"levelo://app?vid=7b96111b-7974-4fe6-9610-4556870a2e07","ios":"levelo://app?vid=7b96111b-7974-4fe6-9610-4556870a2e07"},"vehicle_type_id":"4","last_reported":1744953013,"current_range_meters":8800,"station_id":"ce4bhhh2rcd13ifvqfk0","pricing_plan_id":"cebpf4jnsgd1na2vs0mg"},{"bike_id":"ff935f1c-246d-4e07-a399-40ad7e059de5","system_id":"levelo_inurba_marseille","lat":43.254901,"lon":5.376474,"is_reserved":false,"is_disabled":true,"rental_uris":{"android":"levelo://app?vid=ff935f1c-246d-4e07-a399-40ad7e059de5","ios":"levelo://app?vid=ff935f1c-246d-4e07-a399-40ad7e059de5"},"vehicle_type_id":"4","last_reported":1744953013,"current_range_meters":9200,"station_id":"ce4bhh12rcd13ifvqff0","pricing_plan_id":"cebpf4jnsgd1na2vs0mg"},{"bike_id":"47609ccd-53e0-4078-82db-70f12f07ba72","system_id":"levelo_inurba_marseille","lat":43.29174,"lon":5.35823,"is_reserved":false,"is_disabled":false,"rental_uris":{"android":"levelo://app?vid=47609ccd-53e0-4078-82db-70f12f07ba72","ios":"levelo://app?vid=47609ccd-53e0-4078-82db-70f12f07ba72"},"vehicle_type_id":"4","last_reported":1744953013,"current_range_meters":9200,"station_id":"ce4bhb12rcd13ifvqel0","pricing_plan_id":"cebpf4jnsgd1na2vs0mg"},{"bike_id":"9a2164c4-76e4-4703-bb0c-55cc0ef91084","system_id":"levelo_inurba_marseille","lat":43.306403,"lon":5.400653,"is_reserved":false,"is_disabled":false,"rental_uris":{"android":"levelo://app?vid=9a2164c4-76e4-4703-bb0c-55cc0ef91084","ios":"levelo://app?vid=9a2164c4-76e4-4703-bb0c-55cc0ef91084"},"vehicle_type_id":"4","last_reported":1744953013,"current_range_meters":9200,"station_id":"ce4bh112rcd13ifvqda0","pricing_plan_id":"cebpf4jnsgd1na2vs0mg"},{"bike_id":"36c537c0-9b36-4618-8842-93d9e38c3e86","system_id":"levelo_inurba_marseille","lat":43.31083,"lon":5.42432,"is_reserved":false,"is_disabled":false,"rental_uris":{"android":"levelo://app?vid=36c537c0-9b36-4618-8842-93d9e38c3e86","ios":"levelo://app?vid=36c537c0-9b36-4618-8842-93d9e38c3e86"},"vehicle_type_id":"4","last_reported":1744953013,"current_range_meters":9200,"station_id":"ce4bhp92rcd13ifvqhag","pricing_plan_id":"cebpf4jnsgd1na2vs0mg"},{"bike_id":"72823705-7f07-4adb-897d-e1709234e554","system_id":"levelo_inurba_marseille","lat":43.23185,"lon":5.39993,"is_reserved":false,"is_disabled":false,"rental_uris":{"android":"levelo://app?vid=72823705-7f07-4adb-897d-e1709234e554","ios":"levelo://app?vid=72823705-7f07-4adb-897d-e1709234e554"},"vehicle_type_id":"4","last_reported":1744953013,"current_range_meters":9200,"station_id":"ce4bhn12rcd13ifvqgqg","pricing_plan_id":"cebpf4jnsgd1na2vs0mg"},{"bike_id":"c2049a01-ad51-4cee-8597-b7ce16e48643","system_id":"levelo_inurba_marseille","lat":43.28158,"lon":5.42643,"is_reserved":false,"is_disabled":false,"rental_uris":{"android":"levelo://app?vid=c2049a01-ad51-4cee-8597-b7ce16e48643","ios":"levelo://app?vid=c2049a01-ad51-4cee-8597-b7ce16e48643"},"vehicle_type_id":"4","last_reported":1744953013,"current_range_meters":9200,"station_id":"ce4bhnh2rcd13ifvqgug","pricing_plan_id":"cebpf4jnsgd1na2vs0mg"},{"bike_id":"7a309602-af8f-4ea4-8e53-e755bdc0b888","system_id":"levelo_inurba_marseille","lat":43.29159,"lon":5.35821,"is_reserved":false,"is_disabled":false,"rental_uris":{"android":"levelo://app?vid=7a309602-af8f-4ea4-8e53-e755bdc0b888","ios":"levelo://app?vid=7a309602-af8f-4ea4-8e53-e755bdc0b888"},"vehicle_type_id":"4","last_reported":1744953013,"current_range_meters":9200,"station_id":"ce4bhb12rcd13ifvqel0","pricing_plan_id":"cebpf4jnsgd1na2vs0mg"},{"bike_id":"fc99a892-446d-4f29-bfbf-0fbc14f3834b","system_id":"levelo_inurba_marseille","lat":43.296035,"lon":5.377233,"is_reserved":false,"is_disabled":false,"rental_uris":{"android":"levelo://app?vid=fc99a892-446d-4f29-bfbf-0fbc14f3834b","ios":"levelo://app?vid=fc99a892-446d-4f29-bfbf-0fbc14f3834b"},"vehicle_type_id":"4","last_reported":1744953013,"current_range_meters":9600,"station_id":"ce4bhb92rcd13ifvqen0","pricing_plan_id":"cebpf4jnsgd1na2vs0mg"},{"bike_id":"2e3d1586-39b9-4f2e-a808-4f2fbc6116b5","system_id":"levelo_inurba_marseille","lat":43.28415,"lon":5.37521,"is_reserved":false,"is_disabled":false,"rental_uris":{"android":"levelo://app?vid=2e3d1586-39b9-4f2e-a808-4f2fbc6116b5","ios":"levelo://app?vid=2e3d1586-39b9-4f2e-a808-4f2fbc6116b5"},"vehicle_type_id":"4","last_reported":1744953013,"current_range_meters":9600,"station_id":"ce4bh412rcd13ifvqds0","pricing_plan_id":"cebpf4jnsgd1na2vs0mg"},{"bike_id":"c5ad34a5-de23-413d-9e8b-ec61ed7009c1","system_id":"levelo_inurba_marseille","lat":43.28624,"lon":5.35107,"is_reserved":false,"is_disabled":false,"rental_uris":{"android":"levelo://app?vid=c5ad34a5-de23-413d-9e8b-ec61ed7009c1","ios":"levelo://app?vid=c5ad34a5-de23-413d-9e8b-ec61ed7009c1"},"vehicle_type_id":"4","last_reported":1744953013,"current_range_meters":9600,"station_id":"ce4bhch2rcd13ifvqeug","pricing_plan_id":"cebpf4jnsgd1na2vs0mg"},{"bike_id":"51def45e-0e29-43bb-96c6-d78113afa6e6","system_id":"levelo_inurba_marseille","lat":43.30648,"lon":5.4011,"is_reserved":false,"is_disabled":false,"rental_uris":{"android":"levelo://app?vid=51def45e-0e29-43bb-96c6-d78113afa6e6","ios":"levelo://app?vid=51def45e-0e29-43bb-96c6-d78113afa6e6"},"vehicle_type_id":"4","last_reported":1744953013,"current_range_meters":9600,"station_id":"ce4bh112rcd13ifvqda0","pricing_plan_id":"cebpf4jnsgd1na2vs0mg"},{"bike_id":"cbf29fce-b821-4cbd-8ecd-022dab6930e8","system_id":"levelo_inurba_marseille","lat":43.28411,"lon":5.37527,"is_reserved":false,"is_disabled":false,"rental_uris":{"android":"levelo://app?vid=cbf29fce-b821-4cbd-8ecd-022dab6930e8","ios":"levelo://app?vid=cbf29fce-b821-4cbd-8ecd-022dab6930e8"},"vehicle_type_id":"4","last_reported":1744953013,"current_range_meters":9600,"station_id":"ce4bh412rcd13ifvqds0","pricing_plan_id":"cebpf4jnsgd1na2vs0mg"},{"bike_id":"fe7c7689-3731-4056-8d49-6381cc08a48b","system_id":"levelo_inurba_marseille","lat":43.29982,"lon":5.38509,"is_reserved":false,"is_disabled":true,"rental_uris":{"android":"levelo://app?vid=fe7c7689-3731-4056-8d49-6381cc08a48b","ios":"levelo://app?vid=fe7c7689-3731-4056-8d49-6381cc08a48b"},"vehicle_type_id":"4","last_reported":1744953013,"current_range_meters":10000,"station_id":"ce4bgj92rcd13ifvqbd0","pricing_plan_id":"cebpf4jnsgd1na2vs0mg"},{"bike_id":"4a17a27b-4979-4133-9ae1-996785f8fee4","system_id":"levelo_inurba_marseille","lat":43.230543,"lon":5.355026,"is_reserved":false,"is_disabled":false,"rental_uris":{"android":"levelo://app?vid=4a17a27b-4979-4133-9ae1-996785f8fee4","ios":"levelo://app?vid=4a17a27b-4979-4133-9ae1-996785f8fee4"},"vehicle_type_id":"4","last_reported":1744953013,"current_range_meters":10000,"station_id":"cpo3342slgdg3j2ifvpg","pricing_plan_id":"cebpf4jnsgd1na2vs0mg"},{"bike_id":"8033c8a6-9666-4125-9e17-3e7eaf5cf07f","system_id":"levelo_inurba_marseille","lat":43.25578,"lon":5.3823,"is_reserved":false,"is_disabled":false,"rental_uris":{"android":"levelo://app?vid=8033c8a6-9666-4125-9e17-3e7eaf5cf07f","ios":"levelo://app?vid=8033c8a6-9666-4125-9e17-3e7eaf5cf07f"},"vehicle_type_id":"4","last_reported":1744953013,"current_range_meters":10000,"station_id":"ce4bhih2rcd13ifvqfs0","pricing_plan_id":"cebpf4jnsgd1na2vs0mg"},{"bike_id":"04657881-18eb-45ab-8fbd-9926a7c863cf","system_id":"levelo_inurba_marseille","lat":43.2861,"lon":5.35113,"is_reserved":false,"is_disabled":false,"rental_uris":{"android":"levelo://app?vid=04657881-18eb-45ab-8fbd-9926a7c863cf","ios":"levelo://app?vid=04657881-18eb-45ab-8fbd-9926a7c863cf"},"vehicle_type_id":"4","last_reported":1744953013,"current_range_meters":10000,"station_id":"ce4bhch2rcd13ifvqeug","pricing_plan_id":"cebpf4jnsgd1na2vs0mg"},{"bike_id":"ec8c9ac7-1e95-4171-97f3-226ce1e3c951","system_id":"levelo_inurba_marseille","lat":43.32106,"lon":5.36793,"is_reserved":false,"is_disabled":false,"rental_uris":{"android":"levelo://app?vid=ec8c9ac7-1e95-4171-97f3-226ce1e3c951","ios":"levelo://app?vid=ec8c9ac7-1e95-4171-97f3-226ce1e3c951"},"vehicle_type_id":"4","last_reported":1744953013,"current_range_meters":10800,"station_id":"ce4bhrh2rcd13ifvqhug","pricing_plan_id":"cebpf4jnsgd1na2vs0mg"},{"bike_id":"98da1440-ddaf-41c4-ae43-8bc3e685a3bb","system_id":"levelo_inurba_marseille","lat":43.28422,"lon":5.34997,"is_reserved":false,"is_disabled":false,"rental_uris":{"android":"levelo://app?vid=98da1440-ddaf-41c4-ae43-8bc3e685a3bb","ios":"levelo://app?vid=98da1440-ddaf-41c4-ae43-8bc3e685a3bb"},"vehicle_type_id":"4","last_reported":1744953013,"current_range_meters":10800,"station_id":"ce4bhbh2rcd13ifvqepg","pricing_plan_id":"cebpf4jnsgd1na2vs0mg"},{"bike_id":"64a47f4a-f4e2-4e1b-949e-3e6cf7bc5e72","system_id":"levelo_inurba_marseille","lat":43.27198,"lon":5.41006,"is_reserved":false,"is_disabled":true,"rental_uris":{"android":"levelo://app?vid=64a47f4a-f4e2-4e1b-949e-3e6cf7bc5e72","ios":"levelo://app?vid=64a47f4a-f4e2-4e1b-949e-3e6cf7bc5e72"},"vehicle_type_id":"4","last_reported":1744953013,"current_range_meters":10800,"station_id":"ce4bhl12rcd13ifvqgf0","pricing_plan_id":"cebpf4jnsgd1na2vs0mg"},{"bike_id":"41fb0398-f2fe-4abb-ae37-a38f47615ea9","system_id":"levelo_inurba_marseille","lat":43.3235,"lon":5.36756,"is_reserved":false,"is_disabled":false,"rental_uris":{"android":"levelo://app?vid=41fb0398-f2fe-4abb-ae37-a38f47615ea9","ios":"levelo://app?vid=41fb0398-f2fe-4abb-ae37-a38f47615ea9"},"vehicle_type_id":"4","last_reported":1744953013,"current_range_meters":10800,"station_id":"ce4bhsh2rcd13ifvqi2g","pricing_plan_id":"cebpf4jnsgd1na2vs0mg"},{"bike_id":"ef7b2127-b01e-4dd6-83c3-864de2b44dff","system_id":"levelo_inurba_marseille","lat":43.24652,"lon":5.38184,"is_reserved":false,"is_disabled":false,"rental_uris":{"android":"levelo://app?vid=ef7b2127-b01e-4dd6-83c3-864de2b44dff","ios":"levelo://app?vid=ef7b2127-b01e-4dd6-83c3-864de2b44dff"},"vehicle_type_id":"4","last_reported":1744953013,"current_range_meters":10800,"station_id":"ce4bhih2rcd13ifvqfr0","pricing_plan_id":"cebpf4jnsgd1na2vs0mg"},{"bike_id":"adde4d5e-a6c8-47d4-bad6-4ab17d17ade1","system_id":"levelo_inurba_marseille","lat":43.279679,"lon":5.387363,"is_reserved":false,"is_disabled":false,"rental_uris":{"android":"levelo://app?vid=adde4d5e-a6c8-47d4-bad6-4ab17d17ade1","ios":"levelo://app?vid=adde4d5e-a6c8-47d4-bad6-4ab17d17ade1"},"vehicle_type_id":"4","last_reported":1744953013,"current_range_meters":10800,"station_id":"ce4bhg12rcd13ifvqf80","pricing_plan_id":"cebpf4jnsgd1na2vs0mg"},{"bike_id":"0d2d8f0a-89c5-4234-a9ef-f35eb9afe4e2","system_id":"levelo_inurba_marseille","lat":43.32468,"lon":5.36577,"is_reserved":false,"is_disabled":false,"rental_uris":{"android":"levelo://app?vid=0d2d8f0a-89c5-4234-a9ef-f35eb9afe4e2","ios":"levelo://app?vid=0d2d8f0a-89c5-4234-a9ef-f35eb9afe4e2"},"vehicle_type_id":"4","last_reported":1744953013,"current_range_meters":10800,"station_id":"ce4bhs12rcd13ifvqhvg","pricing_plan_id":"cebpf4jnsgd1na2vs0mg"},{"bike_id":"4b33f286-5cd5-4322-a997-29c53282b349","system_id":"levelo_inurba_marseille","lat":43.27223,"lon":5.40993,"is_reserved":false,"is_disabled":false,"rental_uris":{"android":"levelo://app?vid=4b33f286-5cd5-4322-a997-29c53282b349","ios":"levelo://app?vid=4b33f286-5cd5-4322-a997-29c53282b349"},"vehicle_type_id":"4","last_reported":1744953013,"current_range_meters":10800,"station_id":"ce4bhl12rcd13ifvqgf0","pricing_plan_id":"cebpf4jnsgd1na2vs0mg"},{"bike_id":"f348c235-69d5-41ec-b5f7-0a83dab5339a","system_id":"levelo_inurba_marseille","lat":43.28993,"lon":5.35602,"is_reserved":false,"is_disabled":true,"rental_uris":{"android":"levelo://app?vid=f348c235-69d5-41ec-b5f7-0a83dab5339a","ios":"levelo://app?vid=f348c235-69d5-41ec-b5f7-0a83dab5339a"},"vehicle_type_id":"4","last_reported":1744953013,"current_range_meters":10800,"station_id":"ce4bhb92rcd13ifvqen0","pricing_plan_id":"cebpf4jnsgd1na2vs0mg"},{"bike_id":"59fb3a06-5a0c-4f19-91c7-f9718e1b4a84","system_id":"levelo_inurba_marseille","lat":43.30455,"lon":5.37923,"is_reserved":false,"is_disabled":false,"rental_uris":{"android":"levelo://app?vid=59fb3a06-5a0c-4f19-91c7-f9718e1b4a84","ios":"levelo://app?vid=59fb3a06-5a0c-4f19-91c7-f9718e1b4a84"},"vehicle_type_id":"4","last_reported":1744953013,"current_range_meters":10800,"station_id":"ce4bgup2rcd13ifvqcn0","pricing_plan_id":"cebpf4jnsgd1na2vs0mg"},{"bike_id":"ae0e1566-e631-4bc5-9aed-0ebca70f0554","system_id":"levelo_inurba_marseille","lat":43.28596,"lon":5.35123,"is_reserved":false,"is_disabled":false,"rental_uris":{"android":"levelo://app?vid=ae0e1566-e631-4bc5-9aed-0ebca70f0554","ios":"levelo://app?vid=ae0e1566-e631-4bc5-9aed-0ebca70f0554"},"vehicle_type_id":"4","last_reported":1744953013,"current_range_meters":10800,"station_id":"ce4bhch2rcd13ifvqeug","pricing_plan_id":"cebpf4jnsgd1na2vs0mg"},{"bike_id":"633aa362-611c-4af7-b8d7-3ca322d5f5ea","system_id":"levelo_inurba_marseille","lat":43.24645,"lon":5.38165,"is_reserved":false,"is_disabled":false,"rental_uris":{"android":"levelo://app?vid=633aa362-611c-4af7-b8d7-3ca322d5f5ea","ios":"levelo://app?vid=633aa362-611c-4af7-b8d7-3ca322d5f5ea"},"vehicle_type_id":"4","last_reported":1744953013,"current_range_meters":10800,"station_id":"ce4bhih2rcd13ifvqfr0","pricing_plan_id":"cebpf4jnsgd1na2vs0mg"},{"bike_id":"d7e9d8be-e49c-45a8-80f8-1f65bfb83645","system_id":"levelo_inurba_marseille","lat":43.23588,"lon":5.40356,"is_reserved":false,"is_disabled":false,"rental_uris":{"android":"levelo://app?vid=d7e9d8be-e49c-45a8-80f8-1f65bfb83645","ios":"levelo://app?vid=d7e9d8be-e49c-45a8-80f8-1f65bfb83645"},"vehicle_type_id":"4","last_reported":1744953013,"current_range_meters":10800,"station_id":"","pricing_plan_id":"cebpf4jnsgd1na2vs0mg"},{"bike_id":"e78b3cbb-9f04-4a5e-99da-08052088f317","system_id":"levelo_inurba_marseille","lat":43.30598,"lon":5.37237,"is_reserved":false,"is_disabled":false,"rental_uris":{"android":"levelo://app?vid=e78b3cbb-9f04-4a5e-99da-08052088f317","ios":"levelo://app?vid=e78b3cbb-9f04-4a5e-99da-08052088f317"},"vehicle_type_id":"4","last_reported":1744953013,"current_range_meters":9600,"station_id":"ce4bgqh2rcd13ifvqc4g","pricing_plan_id":"cebpf4jnsgd1na2vs0mg"},{"bike_id":"9acabad9-bc9e-4bbd-a9e4-a8cb277530e3","system_id":"levelo_inurba_marseille","lat":43.30164,"lon":5.38102,"is_reserved":false,"is_disabled":false,"rental_uris":{"android":"levelo://app?vid=9acabad9-bc9e-4bbd-a9e4-a8cb277530e3","ios":"levelo://app?vid=9acabad9-bc9e-4bbd-a9e4-a8cb277530e3"},"vehicle_type_id":"4","last_reported":1744953013,"current_range_meters":11200,"station_id":"ce4bgjp2rcd13ifvqbh0","pricing_plan_id":"cebpf4jnsgd1na2vs0mg"},{"bike_id":"b0e1b825-ba82-4aba-838e-c05aa42c1c23","system_id":"levelo_inurba_marseille","lat":43.30954,"lon":5.39037,"is_reserved":false,"is_disabled":false,"rental_uris":{"android":"levelo://app?vid=b0e1b825-ba82-4aba-838e-c05aa42c1c23","ios":"levelo://app?vid=b0e1b825-ba82-4aba-838e-c05aa42c1c23"},"vehicle_type_id":"4","last_reported":1744953013,"current_range_meters":11200,"station_id":"ce4bgup2rcd13ifvqco0","pricing_plan_id":"cebpf4jnsgd1na2vs0mg"},{"bike_id":"1149d159-4fc9-44d2-ae4f-a73b54b03835","system_id":"levelo_inurba_marseille","lat":43.28746,"lon":5.37394,"is_reserved":false,"is_disabled":false,"rental_uris":{"android":"levelo://app?vid=1149d159-4fc9-44d2-ae4f-a73b54b03835","ios":"levelo://app?vid=1149d159-4fc9-44d2-ae4f-a73b54b03835"},"vehicle_type_id":"4","last_reported":1744953013,"current_range_meters":11200,"station_id":"","pricing_plan_id":"cebpf4jnsgd1na2vs0mg"},{"bike_id":"5fddd535-ab4d-402f-9080-0ad0b96c0735","system_id":"levelo_inurba_marseille","lat":43.30935,"lon":5.36757,"is_reserved":false,"is_disabled":false,"rental_uris":{"android":"levelo://app?vid=5fddd535-ab4d-402f-9080-0ad0b96c0735","ios":"levelo://app?vid=5fddd535-ab4d-402f-9080-0ad0b96c0735"},"vehicle_type_id":"4","last_reported":1744953013,"current_range_meters":11200,"station_id":"","pricing_plan_id":"cebpf4jnsgd1na2vs0mg"},{"bike_id":"f690738c-7184-40d0-8e24-653d6c176a31","system_id":"levelo_inurba_marseille","lat":43.29541,"lon":5.42289,"is_reserved":false,"is_disabled":false,"rental_uris":{"android":"levelo://app?vid=f690738c-7184-40d0-8e24-653d6c176a31","ios":"levelo://app?vid=f690738c-7184-40d0-8e24-653d6c176a31"},"vehicle_type_id":"4","last_reported":1744953013,"current_range_meters":11200,"station_id":"ce4bhph2rcd13ifvqhdg","pricing_plan_id":"cebpf4jnsgd1na2vs0mg"},{"bike_id":"21092c07-6713-4bda-93a0-0d1eb9144b1f","system_id":"levelo_inurba_marseille","lat":43.23188,"lon":5.39988,"is_reserved":false,"is_disabled":false,"rental_uris":{"android":"levelo://app?vid=21092c07-6713-4bda-93a0-0d1eb9144b1f","ios":"levelo://app?vid=21092c07-6713-4bda-93a0-0d1eb9144b1f"},"vehicle_type_id":"4","last_reported":1744953013,"current_range_meters":11200,"station_id":"ce4bhn12rcd13ifvqgqg","pricing_plan_id":"cebpf4jnsgd1na2vs0mg"},{"bike_id":"a8acab35-e8ef-4d3d-a4b5-67d71ab7687d","system_id":"levelo_inurba_marseille","lat":43.239642,"lon":5.366326,"is_reserved":false,"is_disabled":false,"rental_uris":{"android":"levelo://app?vid=a8acab35-e8ef-4d3d-a4b5-67d71ab7687d","ios":"levelo://app?vid=a8acab35-e8ef-4d3d-a4b5-67d71ab7687d"},"vehicle_type_id":"4","last_reported":1744953013,"current_range_meters":11600,"station_id":"ce4bhi12rcd13ifvqfp0","pricing_plan_id":"cebpf4jnsgd1na2vs0mg"},{"bike_id":"5c991962-d5a0-46ab-b8d3-7e26135894a2","system_id":"levelo_inurba_marseille","lat":43.26003,"lon":5.37576,"is_reserved":false,"is_disabled":true,"rental_uris":{"android":"levelo://app?vid=5c991962-d5a0-46ab-b8d3-7e26135894a2","ios":"levelo://app?vid=5c991962-d5a0-46ab-b8d3-7e26135894a2"},"vehicle_type_id":"4","last_reported":1744953013,"current_range_meters":11600,"station_id":"ce4bhgh2rcd13ifvqfa0","pricing_plan_id":"cebpf4jnsgd1na2vs0mg"},{"bike_id":"e14c265e-eca3-4791-a3e7-f534121ae166","system_id":"levelo_inurba_marseille","lat":43.229316,"lon":5.353854,"is_reserved":false,"is_disabled":false,"rental_uris":{"android":"levelo://app?vid=e14c265e-eca3-4791-a3e7-f534121ae166","ios":"levelo://app?vid=e14c265e-eca3-4791-a3e7-f534121ae166"},"vehicle_type_id":"4","last_reported":1744953013,"current_range_meters":11600,"station_id":"cpo3532slgdg3j2ikp40","pricing_plan_id":"cebpf4jnsgd1na2vs0mg"},{"bike_id":"c8dde701-3d7c-42ae-9a79-449af7d453ed","system_id":"levelo_inurba_marseille","lat":43.30509,"lon":5.36741,"is_reserved":false,"is_disabled":false,"rental_uris":{"android":"levelo://app?vid=c8dde701-3d7c-42ae-9a79-449af7d453ed","ios":"levelo://app?vid=c8dde701-3d7c-42ae-9a79-449af7d453ed"},"vehicle_type_id":"4","last_reported":1744953013,"current_range_meters":12000,"station_id":"ce4bgrp2rcd13ifvqc9g","pricing_plan_id":"cebpf4jnsgd1na2vs0mg"},{"bike_id":"1210dc72-37b8-49f7-b249-6faa54daba28","system_id":"levelo_inurba_marseille","lat":43.32323,"lon":5.36763,"is_reserved":false,"is_disabled":false,"rental_uris":{"android":"levelo://app?vid=1210dc72-37b8-49f7-b249-6faa54daba28","ios":"levelo://app?vid=1210dc72-37b8-49f7-b249-6faa54daba28"},"vehicle_type_id":"4","last_reported":1744953013,"current_range_meters":12000,"station_id":"ce4bhsh2rcd13ifvqi2g","pricing_plan_id":"cebpf4jnsgd1na2vs0mg"},{"bike_id":"94db8460-8919-43c5-b6c2-b1d73dbe3d16","system_id":"levelo_inurba_marseille","lat":43.2623,"lon":5.40453,"is_reserved":false,"is_disabled":false,"rental_uris":{"android":"levelo://app?vid=94db8460-8919-43c5-b6c2-b1d73dbe3d16","ios":"levelo://app?vid=94db8460-8919-43c5-b6c2-b1d73dbe3d16"},"vehicle_type_id":"4","last_reported":1744953013,"current_range_meters":12000,"station_id":"ce4bhmh2rcd13ifvqgmg","pricing_plan_id":"cebpf4jnsgd1na2vs0mg"},{"bike_id":"0e1fb191-e3b5-4084-98e6-2a5ee82426fc","system_id":"levelo_inurba_marseille","lat":43.31182,"lon":5.38728,"is_reserved":false,"is_disabled":false,"rental_uris":{"android":"levelo://app?vid=0e1fb191-e3b5-4084-98e6-2a5ee82426fc","ios":"levelo://app?vid=0e1fb191-e3b5-4084-98e6-2a5ee82426fc"},"vehicle_type_id":"4","last_reported":1744953013,"current_range_meters":12000,"station_id":"ce4bgv12rcd13ifvqcp0","pricing_plan_id":"cebpf4jnsgd1na2vs0mg"},{"bike_id":"e3dc88ef-8bac-4d7f-8d28-5ccb26305c61","system_id":"levelo_inurba_marseille","lat":43.26562,"lon":5.39044,"is_reserved":false,"is_disabled":false,"rental_uris":{"android":"levelo://app?vid=e3dc88ef-8bac-4d7f-8d28-5ccb26305c61","ios":"levelo://app?vid=e3dc88ef-8bac-4d7f-8d28-5ccb26305c61"},"vehicle_type_id":"4","last_reported":1744953013,"current_range_meters":12000,"station_id":"ce4bhe12rcd13ifvqf30","pricing_plan_id":"cebpf4jnsgd1na2vs0mg"},{"bike_id":"9a20f8b0-b7e7-49bc-8309-75a96a103c15","system_id":"levelo_inurba_marseille","lat":43.24067,"lon":5.377617,"is_reserved":false,"is_disabled":false,"rental_uris":{"android":"levelo://app?vid=9a20f8b0-b7e7-49bc-8309-75a96a103c15","ios":"levelo://app?vid=9a20f8b0-b7e7-49bc-8309-75a96a103c15"},"vehicle_type_id":"4","last_reported":1744953013,"current_range_meters":12000,"station_id":"ce4bhnp2rcd13ifvqgvg","pricing_plan_id":"cebpf4jnsgd1na2vs0mg"},{"bike_id":"0fb1a105-b046-4c66-baab-c2dec6ff86a2","system_id":"levelo_inurba_marseille","lat":43.28578,"lon":5.37069,"is_reserved":false,"is_disabled":false,"rental_uris":{"android":"levelo://app?vid=0fb1a105-b046-4c66-baab-c2dec6ff86a2","ios":"levelo://app?vid=0fb1a105-b046-4c66-baab-c2dec6ff86a2"},"vehicle_type_id":"4","last_reported":1744953013,"current_range_meters":12400,"station_id":"ce4bht12rcd13ifvqi60","pricing_plan_id":"cebpf4jnsgd1na2vs0mg"},{"bike_id":"23669a23-4f21-4d97-b2d3-d6a953fccb4f","system_id":"levelo_inurba_marseille","lat":43.286989,"lon":5.399931,"is_reserved":false,"is_disabled":false,"rental_uris":{"android":"levelo://app?vid=23669a23-4f21-4d97-b2d3-d6a953fccb4f","ios":"levelo://app?vid=23669a23-4f21-4d97-b2d3-d6a953fccb4f"},"vehicle_type_id":"4","last_reported":1744953013,"current_range_meters":12800,"station_id":"ce4bho92rcd13ifvqh3g","pricing_plan_id":"cebpf4jnsgd1na2vs0mg"},{"bike_id":"2daa1a4a-afb7-470b-9fac-d2f8da0290d5","system_id":"levelo_inurba_marseille","lat":43.2556,"lon":5.38248,"is_reserved":false,"is_disabled":false,"rental_uris":{"android":"levelo://app?vid=2daa1a4a-afb7-470b-9fac-d2f8da0290d5","ios":"levelo://app?vid=2daa1a4a-afb7-470b-9fac-d2f8da0290d5"},"vehicle_type_id":"4","last_reported":1744953013,"current_range_meters":12800,"station_id":"ce4bhih2rcd13ifvqfs0","pricing_plan_id":"cebpf4jnsgd1na2vs0mg"},{"bike_id":"b05102a8-8877-412e-aa52-3e7e2e12ebc2","system_id":"levelo_inurba_marseille","lat":43.27955,"lon":5.41048,"is_reserved":false,"is_disabled":false,"rental_uris":{"android":"levelo://app?vid=b05102a8-8877-412e-aa52-3e7e2e12ebc2","ios":"levelo://app?vid=b05102a8-8877-412e-aa52-3e7e2e12ebc2"},"vehicle_type_id":"4","last_reported":1744953013,"current_range_meters":12800,"station_id":"ce4bhnp2rcd13ifvqh0g","pricing_plan_id":"cebpf4jnsgd1na2vs0mg"},{"bike_id":"0b73279b-3544-425f-8ea6-2a11b8dc5e95","system_id":"levelo_inurba_marseille","lat":43.31333,"lon":5.3971,"is_reserved":false,"is_disabled":false,"rental_uris":{"android":"levelo://app?vid=0b73279b-3544-425f-8ea6-2a11b8dc5e95","ios":"levelo://app?vid=0b73279b-3544-425f-8ea6-2a11b8dc5e95"},"vehicle_type_id":"4","last_reported":1744953013,"current_range_meters":12800,"station_id":"ce4bgvp2rcd13ifvqcu0","pricing_plan_id":"cebpf4jnsgd1na2vs0mg"},{"bike_id":"383e77ed-c3ce-4784-bc3e-fcd4452b48f8","system_id":"levelo_inurba_marseille","lat":43.30937,"lon":5.36834,"is_reserved":false,"is_disabled":false,"rental_uris":{"android":"levelo://app?vid=383e77ed-c3ce-4784-bc3e-fcd4452b48f8","ios":"levelo://app?vid=383e77ed-c3ce-4784-bc3e-fcd4452b48f8"},"vehicle_type_id":"4","last_reported":1744953013,"current_range_meters":12800,"station_id":"ce4bgn92rcd13ifvqbvg","pricing_plan_id":"cebpf4jnsgd1na2vs0mg"},{"bike_id":"22fabcf5-95dd-455d-93b5-f6b2277dc77e","system_id":"levelo_inurba_marseille","lat":43.30926,"lon":5.40164,"is_reserved":false,"is_disabled":false,"rental_uris":{"android":"levelo://app?vid=22fabcf5-95dd-455d-93b5-f6b2277dc77e","ios":"levelo://app?vid=22fabcf5-95dd-455d-93b5-f6b2277dc77e"},"vehicle_type_id":"4","last_reported":1744953013,"current_range_meters":12800,"station_id":"ce4bgvp2rcd13ifvqct0","pricing_plan_id":"cebpf4jnsgd1na2vs0mg"},{"bike_id":"9ccc1250-0ff6-4acc-bd2f-67431ef76582","system_id":"levelo_inurba_marseille","lat":43.284089,"lon":5.349837,"is_reserved":false,"is_disabled":false,"rental_uris":{"android":"levelo://app?vid=9ccc1250-0ff6-4acc-bd2f-67431ef76582","ios":"levelo://app?vid=9ccc1250-0ff6-4acc-bd2f-67431ef76582"},"vehicle_type_id":"4","last_reported":1744953013,"current_range_meters":13600,"station_id":"ce4bhbh2rcd13ifvqepg","pricing_plan_id":"cebpf4jnsgd1na2vs0mg"},{"bike_id":"e39978a1-60d4-434d-bc36-806e34da6e2a","system_id":"levelo_inurba_marseille","lat":43.30778,"lon":5.37651,"is_reserved":false,"is_disabled":false,"rental_uris":{"android":"levelo://app?vid=e39978a1-60d4-434d-bc36-806e34da6e2a","ios":"levelo://app?vid=e39978a1-60d4-434d-bc36-806e34da6e2a"},"vehicle_type_id":"4","last_reported":1744953013,"current_range_meters":14000,"station_id":"ce4bgv92rcd13ifvqcq0","pricing_plan_id":"cebpf4jnsgd1na2vs0mg"},{"bike_id":"c41facca-8ed6-4772-99bb-68f11d75fa62","system_id":"levelo_inurba_marseille","lat":43.28393,"lon":5.37539,"is_reserved":false,"is_disabled":false,"rental_uris":{"android":"levelo://app?vid=c41facca-8ed6-4772-99bb-68f11d75fa62","ios":"levelo://app?vid=c41facca-8ed6-4772-99bb-68f11d75fa62"},"vehicle_type_id":"4","last_reported":1744953013,"current_range_meters":14000,"station_id":"ce4bh412rcd13ifvqds0","pricing_plan_id":"cebpf4jnsgd1na2vs0mg"},{"bike_id":"7e19d3d8-b4d8-4f4b-a2c3-14e968445fac","system_id":"levelo_inurba_marseille","lat":43.23186,"lon":5.39989,"is_reserved":false,"is_disabled":false,"rental_uris":{"android":"levelo://app?vid=7e19d3d8-b4d8-4f4b-a2c3-14e968445fac","ios":"levelo://app?vid=7e19d3d8-b4d8-4f4b-a2c3-14e968445fac"},"vehicle_type_id":"4","last_reported":1744953013,"current_range_meters":14400,"station_id":"ce4bhn12rcd13ifvqgqg","pricing_plan_id":"cebpf4jnsgd1na2vs0mg"},{"bike_id":"f67c914a-531e-4ad5-b41c-cc8fccfce3a3","system_id":"levelo_inurba_marseille","lat":43.260631,"lon":5.393969,"is_reserved":false,"is_disabled":false,"rental_uris":{"android":"levelo://app?vid=f67c914a-531e-4ad5-b41c-cc8fccfce3a3","ios":"levelo://app?vid=f67c914a-531e-4ad5-b41c-cc8fccfce3a3"},"vehicle_type_id":"4","last_reported":1744953013,"current_range_meters":14400,"station_id":"ce4bhh92rcd13ifvqfj0","pricing_plan_id":"cebpf4jnsgd1na2vs0mg"},{"bike_id":"fdb736b6-d23f-4fa0-8b91-7424bf67be26","system_id":"levelo_inurba_marseille","lat":43.34134,"lon":5.40935,"is_reserved":false,"is_disabled":false,"rental_uris":{"android":"levelo://app?vid=fdb736b6-d23f-4fa0-8b91-7424bf67be26","ios":"levelo://app?vid=fdb736b6-d23f-4fa0-8b91-7424bf67be26"},"vehicle_type_id":"4","last_reported":1744953013,"current_range_meters":14400,"station_id":"ce4bhqh2rcd13ifvqhlg","pricing_plan_id":"cebpf4jnsgd1na2vs0mg"},{"bike_id":"076355f1-ba05-4b14-94f8-7678f1392346","system_id":"levelo_inurba_marseille","lat":43.2841,"lon":5.34996,"is_reserved":false,"is_disabled":false,"rental_uris":{"android":"levelo://app?vid=076355f1-ba05-4b14-94f8-7678f1392346","ios":"levelo://app?vid=076355f1-ba05-4b14-94f8-7678f1392346"},"vehicle_type_id":"4","last_reported":1744953013,"current_range_meters":14400,"station_id":"ce4bhbh2rcd13ifvqepg","pricing_plan_id":"cebpf4jnsgd1na2vs0mg"},{"bike_id":"a0ddb0a5-f7f0-4281-aa27-9e82747cc573","system_id":"levelo_inurba_marseille","lat":43.33754,"lon":5.37491,"is_reserved":false,"is_disabled":false,"rental_uris":{"android":"levelo://app?vid=a0ddb0a5-f7f0-4281-aa27-9e82747cc573","ios":"levelo://app?vid=a0ddb0a5-f7f0-4281-aa27-9e82747cc573"},"vehicle_type_id":"4","last_reported":1744953013,"current_range_meters":14400,"station_id":"","pricing_plan_id":"cebpf4jnsgd1na2vs0mg"},{"bike_id":"9fe6b68c-b08e-4d81-8c7d-760938ace4d6","system_id":"levelo_inurba_marseille","lat":43.29216,"lon":5.36075,"is_reserved":false,"is_disabled":false,"rental_uris":{"android":"levelo://app?vid=9fe6b68c-b08e-4d81-8c7d-760938ace4d6","ios":"levelo://app?vid=9fe6b68c-b08e-4d81-8c7d-760938ace4d6"},"vehicle_type_id":"4","last_reported":1744953013,"current_range_meters":14800,"station_id":"ce4bhbh2rcd13ifvqeqg","pricing_plan_id":"cebpf4jnsgd1na2vs0mg"},{"bike_id":"5b42146a-9b65-4576-b6b1-ae6f85373419","system_id":"levelo_inurba_marseille","lat":43.29178,"lon":5.35812,"is_reserved":false,"is_disabled":false,"rental_uris":{"android":"levelo://app?vid=5b42146a-9b65-4576-b6b1-ae6f85373419","ios":"levelo://app?vid=5b42146a-9b65-4576-b6b1-ae6f85373419"},"vehicle_type_id":"4","last_reported":1744953013,"current_range_meters":14800,"station_id":"ce4bhb12rcd13ifvqel0","pricing_plan_id":"cebpf4jnsgd1na2vs0mg"},{"bike_id":"bbb1c662-cc65-4c72-8489-de78d2f0f12f","system_id":"levelo_inurba_marseille","lat":43.23058,"lon":5.35492,"is_reserved":false,"is_disabled":false,"rental_uris":{"android":"levelo://app?vid=bbb1c662-cc65-4c72-8489-de78d2f0f12f","ios":"levelo://app?vid=bbb1c662-cc65-4c72-8489-de78d2f0f12f"},"vehicle_type_id":"4","last_reported":1744953013,"current_range_meters":14800,"station_id":"cpo3342slgdg3j2ifvpg","pricing_plan_id":"cebpf4jnsgd1na2vs0mg"},{"bike_id":"bd492354-2d79-4427-82ee-84e4a12dea30","system_id":"levelo_inurba_marseille","lat":43.21183,"lon":5.35088,"is_reserved":false,"is_disabled":false,"rental_uris":{"android":"levelo://app?vid=bd492354-2d79-4427-82ee-84e4a12dea30","ios":"levelo://app?vid=bd492354-2d79-4427-82ee-84e4a12dea30"},"vehicle_type_id":"4","last_reported":1744953013,"current_range_meters":14800,"station_id":"st_cvj6sg6p6f1abm77japg","pricing_plan_id":"cebpf4jnsgd1na2vs0mg"},{"bike_id":"85042bc1-d954-4ae7-8b9b-4fd571d810a0","system_id":"levelo_inurba_marseille","lat":43.30419,"lon":5.39745,"is_reserved":false,"is_disabled":false,"rental_uris":{"android":"levelo://app?vid=85042bc1-d954-4ae7-8b9b-4fd571d810a0","ios":"levelo://app?vid=85042bc1-d954-4ae7-8b9b-4fd571d810a0"},"vehicle_type_id":"4","last_reported":1744953013,"current_range_meters":14800,"station_id":"ce4bh092rcd13ifvqd20","pricing_plan_id":"cebpf4jnsgd1na2vs0mg"},{"bike_id":"7ed91d22-3d5b-4254-83bf-64eb2a7d5481","system_id":"levelo_inurba_marseille","lat":43.22512,"lon":5.34785,"is_reserved":false,"is_disabled":false,"rental_uris":{"android":"levelo://app?vid=7ed91d22-3d5b-4254-83bf-64eb2a7d5481","ios":"levelo://app?vid=7ed91d22-3d5b-4254-83bf-64eb2a7d5481"},"vehicle_type_id":"4","last_reported":1744953013,"current_range_meters":14800,"station_id":"","pricing_plan_id":"cebpf4jnsgd1na2vs0mg"},{"bike_id":"001f7578-2809-4f13-b395-fda605716a8f","system_id":"levelo_inurba_marseille","lat":43.28424,"lon":5.34995,"is_reserved":false,"is_disabled":false,"rental_uris":{"android":"levelo://app?vid=001f7578-2809-4f13-b395-fda605716a8f","ios":"levelo://app?vid=001f7578-2809-4f13-b395-fda605716a8f"},"vehicle_type_id":"4","last_reported":1744953013,"current_range_meters":14800,"station_id":"ce4bhbh2rcd13ifvqepg","pricing_plan_id":"cebpf4jnsgd1na2vs0mg"},{"bike_id":"007ee9c7-c769-4de9-a218-517ff098b9cd","system_id":"levelo_inurba_marseille","lat":43.314505,"lon":5.373787,"is_reserved":false,"is_disabled":false,"rental_uris":{"android":"levelo://app?vid=007ee9c7-c769-4de9-a218-517ff098b9cd","ios":"levelo://app?vid=007ee9c7-c769-4de9-a218-517ff098b9cd"},"vehicle_type_id":"4","last_reported":1744953013,"current_range_meters":14800,"station_id":"","pricing_plan_id":"cebpf4jnsgd1na2vs0mg"},{"bike_id":"0ffafc47-74ff-4ddc-86e8-6f4cf8df5cd2","system_id":"levelo_inurba_marseille","lat":43.22906,"lon":5.35398,"is_reserved":false,"is_disabled":false,"rental_uris":{"android":"levelo://app?vid=0ffafc47-74ff-4ddc-86e8-6f4cf8df5cd2","ios":"levelo://app?vid=0ffafc47-74ff-4ddc-86e8-6f4cf8df5cd2"},"vehicle_type_id":"4","last_reported":1744953013,"current_range_meters":14800,"station_id":"cpo3532slgdg3j2ikp40","pricing_plan_id":"cebpf4jnsgd1na2vs0mg"},{"bike_id":"934a8fc0-98f8-4aaf-a145-d485dee937c7","system_id":"levelo_inurba_marseille","lat":43.32362,"lon":5.36764,"is_reserved":false,"is_disabled":false,"rental_uris":{"android":"levelo://app?vid=934a8fc0-98f8-4aaf-a145-d485dee937c7","ios":"levelo://app?vid=934a8fc0-98f8-4aaf-a145-d485dee937c7"},"vehicle_type_id":"4","last_reported":1744953013,"current_range_meters":14800,"station_id":"ce4bhsh2rcd13ifvqi2g","pricing_plan_id":"cebpf4jnsgd1na2vs0mg"},{"bike_id":"5cdbc4c1-0642-46e4-87cf-2386924265b5","system_id":"levelo_inurba_marseille","lat":43.26553,"lon":5.373147,"is_reserved":false,"is_disabled":false,"rental_uris":{"android":"levelo://app?vid=5cdbc4c1-0642-46e4-87cf-2386924265b5","ios":"levelo://app?vid=5cdbc4c1-0642-46e4-87cf-2386924265b5"},"vehicle_type_id":"4","last_reported":1744953013,"current_range_meters":14800,"station_id":"ce4bhg12rcd13ifvqf70","pricing_plan_id":"cebpf4jnsgd1na2vs0mg"},{"bike_id":"135f0758-d03d-42f1-a2d6-49e93dc7a634","system_id":"levelo_inurba_marseille","lat":43.298422,"lon":5.362761,"is_reserved":false,"is_disabled":false,"rental_uris":{"android":"levelo://app?vid=135f0758-d03d-42f1-a2d6-49e93dc7a634","ios":"levelo://app?vid=135f0758-d03d-42f1-a2d6-49e93dc7a634"},"vehicle_type_id":"4","last_reported":1744953013,"current_range_meters":14800,"station_id":"ce4bgpp2rcd13ifvqc3g","pricing_plan_id":"cebpf4jnsgd1na2vs0mg"},{"bike_id":"2b895cd1-63f9-4659-bbff-adf8a75ae1db","system_id":"levelo_inurba_marseille","lat":43.25865,"lon":5.39913,"is_reserved":false,"is_disabled":false,"rental_uris":{"android":"levelo://app?vid=2b895cd1-63f9-4659-bbff-adf8a75ae1db","ios":"levelo://app?vid=2b895cd1-63f9-4659-bbff-adf8a75ae1db"},"vehicle_type_id":"4","last_reported":1744953013,"current_range_meters":15200,"station_id":"ce4bhl92rcd13ifvqghg","pricing_plan_id":"cebpf4jnsgd1na2vs0mg"},{"bike_id":"51f32d2c-1879-464c-acba-93c57bc66ab6","system_id":"levelo_inurba_marseille","lat":43.29059,"lon":5.35918,"is_reserved":false,"is_disabled":true,"rental_uris":{"android":"levelo://app?vid=51f32d2c-1879-464c-acba-93c57bc66ab6","ios":"levelo://app?vid=51f32d2c-1879-464c-acba-93c57bc66ab6"},"vehicle_type_id":"4","last_reported":1744953013,"current_range_meters":15200,"station_id":"ce4bha92rcd13ifvqeg0","pricing_plan_id":"cebpf4jnsgd1na2vs0mg"},{"bike_id":"4cdeb94d-6b8c-4d5b-a59f-49def5ff14db","system_id":"levelo_inurba_marseille","lat":43.274934,"lon":5.424506,"is_reserved":false,"is_disabled":false,"rental_uris":{"android":"levelo://app?vid=4cdeb94d-6b8c-4d5b-a59f-49def5ff14db","ios":"levelo://app?vid=4cdeb94d-6b8c-4d5b-a59f-49def5ff14db"},"vehicle_type_id":"4","last_reported":1744953013,"current_range_meters":15200,"station_id":"ce4bhn92rcd13ifvqgrg","pricing_plan_id":"cebpf4jnsgd1na2vs0mg"},{"bike_id":"e323efaa-773b-4812-915d-cd7c52228b35","system_id":"levelo_inurba_marseille","lat":43.30666,"lon":5.4008,"is_reserved":false,"is_disabled":false,"rental_uris":{"android":"levelo://app?vid=e323efaa-773b-4812-915d-cd7c52228b35","ios":"levelo://app?vid=e323efaa-773b-4812-915d-cd7c52228b35"},"vehicle_type_id":"4","last_reported":1744953013,"current_range_meters":15200,"station_id":"ce4bh112rcd13ifvqda0","pricing_plan_id":"cebpf4jnsgd1na2vs0mg"},{"bike_id":"0318086b-603d-4065-a7b0-7a0a33e1efe8","system_id":"levelo_inurba_marseille","lat":43.30286,"lon":5.36893,"is_reserved":false,"is_disabled":false,"rental_uris":{"android":"levelo://app?vid=0318086b-603d-4065-a7b0-7a0a33e1efe8","ios":"levelo://app?vid=0318086b-603d-4065-a7b0-7a0a33e1efe8"},"vehicle_type_id":"4","last_reported":1744953013,"current_range_meters":15200,"station_id":"ce4bgqh2rcd13ifvqc5g","pricing_plan_id":"cebpf4jnsgd1na2vs0mg"},{"bike_id":"e3b9c86b-9e49-41d1-83da-e803d37c2cf4","system_id":"levelo_inurba_marseille","lat":43.301324,"lon":5.387835,"is_reserved":false,"is_disabled":true,"rental_uris":{"android":"levelo://app?vid=e3b9c86b-9e49-41d1-83da-e803d37c2cf4","ios":"levelo://app?vid=e3b9c86b-9e49-41d1-83da-e803d37c2cf4"},"vehicle_type_id":"4","last_reported":1744953013,"current_range_meters":16000,"station_id":"ce4bghh2rcd13ifvqb60","pricing_plan_id":"cebpf4jnsgd1na2vs0mg"},{"bike_id":"ecf1b2ce-6838-4d42-ab1f-fc94cebd3b05","system_id":"levelo_inurba_marseille","lat":43.32363,"lon":5.389,"is_reserved":false,"is_disabled":false,"rental_uris":{"android":"levelo://app?vid=ecf1b2ce-6838-4d42-ab1f-fc94cebd3b05","ios":"levelo://app?vid=ecf1b2ce-6838-4d42-ab1f-fc94cebd3b05"},"vehicle_type_id":"4","last_reported":1744953013,"current_range_meters":16000,"station_id":"ce4bhqp2rcd13ifvqhog","pricing_plan_id":"cebpf4jnsgd1na2vs0mg"},{"bike_id":"90a191a3-77b7-49f4-a6f6-fe4f1f55fcb7","system_id":"levelo_inurba_marseille","lat":43.30134,"lon":5.38092,"is_reserved":false,"is_disabled":false,"rental_uris":{"android":"levelo://app?vid=90a191a3-77b7-49f4-a6f6-fe4f1f55fcb7","ios":"levelo://app?vid=90a191a3-77b7-49f4-a6f6-fe4f1f55fcb7"},"vehicle_type_id":"4","last_reported":1744953013,"current_range_meters":16000,"station_id":"ce4bgjp2rcd13ifvqbh0","pricing_plan_id":"cebpf4jnsgd1na2vs0mg"},{"bike_id":"a6dcb6ae-662b-400d-8ae2-88fbfb71f5ea","system_id":"levelo_inurba_marseille","lat":43.30887,"lon":5.37185,"is_reserved":false,"is_disabled":false,"rental_uris":{"android":"levelo://app?vid=a6dcb6ae-662b-400d-8ae2-88fbfb71f5ea","ios":"levelo://app?vid=a6dcb6ae-662b-400d-8ae2-88fbfb71f5ea"},"vehicle_type_id":"4","last_reported":1744953013,"current_range_meters":16000,"station_id":"ce4bguh2rcd13ifvqckg","pricing_plan_id":"cebpf4jnsgd1na2vs0mg"},{"bike_id":"ef6e9c6f-8f69-4fcf-9727-b556a001e5bc","system_id":"levelo_inurba_marseille","lat":43.29557,"lon":5.42287,"is_reserved":false,"is_disabled":false,"rental_uris":{"android":"levelo://app?vid=ef6e9c6f-8f69-4fcf-9727-b556a001e5bc","ios":"levelo://app?vid=ef6e9c6f-8f69-4fcf-9727-b556a001e5bc"},"vehicle_type_id":"4","last_reported":1744953013,"current_range_meters":16000,"station_id":"ce4bhph2rcd13ifvqhdg","pricing_plan_id":"cebpf4jnsgd1na2vs0mg"},{"bike_id":"33efbe4e-e642-4271-be29-4926b421ca5b","system_id":"levelo_inurba_marseille","lat":43.24167,"lon":5.36399,"is_reserved":false,"is_disabled":false,"rental_uris":{"android":"levelo://app?vid=33efbe4e-e642-4271-be29-4926b421ca5b","ios":"levelo://app?vid=33efbe4e-e642-4271-be29-4926b421ca5b"},"vehicle_type_id":"4","last_reported":1744953013,"current_range_meters":16000,"station_id":"cpo36qri1sfpv3e86is0","pricing_plan_id":"cebpf4jnsgd1na2vs0mg"},{"bike_id":"e4b35dc3-1b44-4be5-945c-f23bf47f80d2","system_id":"levelo_inurba_marseille","lat":43.29908,"lon":5.39735,"is_reserved":false,"is_disabled":false,"rental_uris":{"android":"levelo://app?vid=e4b35dc3-1b44-4be5-945c-f23bf47f80d2","ios":"levelo://app?vid=e4b35dc3-1b44-4be5-945c-f23bf47f80d2"},"vehicle_type_id":"4","last_reported":1744953013,"current_range_meters":16000,"station_id":"ce4bh0h2rcd13ifvqd50","pricing_plan_id":"cebpf4jnsgd1na2vs0mg"},{"bike_id":"8f05c592-8cc0-48b3-abca-ba24955823de","system_id":"levelo_inurba_marseille","lat":43.29903,"lon":5.40388,"is_reserved":false,"is_disabled":false,"rental_uris":{"android":"levelo://app?vid=8f05c592-8cc0-48b3-abca-ba24955823de","ios":"levelo://app?vid=8f05c592-8cc0-48b3-abca-ba24955823de"},"vehicle_type_id":"4","last_reported":1744953013,"current_range_meters":16000,"station_id":"","pricing_plan_id":"cebpf4jnsgd1na2vs0mg"},{"bike_id":"d0c391d8-8b9b-440c-b68b-1528bb943556","system_id":"levelo_inurba_marseille","lat":43.284119,"lon":5.349983,"is_reserved":false,"is_disabled":false,"rental_uris":{"android":"levelo://app?vid=d0c391d8-8b9b-440c-b68b-1528bb943556","ios":"levelo://app?vid=d0c391d8-8b9b-440c-b68b-1528bb943556"},"vehicle_type_id":"4","last_reported":1744953013,"current_range_meters":16400,"station_id":"ce4bhbh2rcd13ifvqepg","pricing_plan_id":"cebpf4jnsgd1na2vs0mg"},{"bike_id":"b1ef82b0-7a77-4486-8ec7-83765358e14a","system_id":"levelo_inurba_marseille","lat":43.290232,"lon":5.386344,"is_reserved":false,"is_disabled":true,"rental_uris":{"android":"levelo://app?vid=b1ef82b0-7a77-4486-8ec7-83765358e14a","ios":"levelo://app?vid=b1ef82b0-7a77-4486-8ec7-83765358e14a"},"vehicle_type_id":"4","last_reported":1744953013,"current_range_meters":16400,"station_id":"ce4bh4p2rcd13ifvqe0g","pricing_plan_id":"cebpf4jnsgd1na2vs0mg"},{"bike_id":"68342d9f-f0b6-47e7-b690-b27078e67a77","system_id":"levelo_inurba_marseille","lat":43.241624,"lon":5.363995,"is_reserved":false,"is_disabled":false,"rental_uris":{"android":"levelo://app?vid=68342d9f-f0b6-47e7-b690-b27078e67a77","ios":"levelo://app?vid=68342d9f-f0b6-47e7-b690-b27078e67a77"},"vehicle_type_id":"4","last_reported":1744953013,"current_range_meters":16400,"station_id":"cpo36qri1sfpv3e86is0","pricing_plan_id":"cebpf4jnsgd1na2vs0mg"},{"bike_id":"32f253b2-7256-44fb-b26e-4c3d91068786","system_id":"levelo_inurba_marseille","lat":43.29248,"lon":5.43946,"is_reserved":false,"is_disabled":false,"rental_uris":{"android":"levelo://app?vid=32f253b2-7256-44fb-b26e-4c3d91068786","ios":"levelo://app?vid=32f253b2-7256-44fb-b26e-4c3d91068786"},"vehicle_type_id":"4","last_reported":1744953013,"current_range_meters":16400,"station_id":"","pricing_plan_id":"cebpf4jnsgd1na2vs0mg"},{"bike_id":"ae6f6bc3-b076-4713-869e-a7f6201bc7ea","system_id":"levelo_inurba_marseille","lat":43.24811,"lon":5.37458,"is_reserved":false,"is_disabled":false,"rental_uris":{"android":"levelo://app?vid=ae6f6bc3-b076-4713-869e-a7f6201bc7ea","ios":"levelo://app?vid=ae6f6bc3-b076-4713-869e-a7f6201bc7ea"},"vehicle_type_id":"4","last_reported":1744953013,"current_range_meters":16400,"station_id":"ce4bhgh2rcd13ifvqfb0","pricing_plan_id":"cebpf4jnsgd1na2vs0mg"},{"bike_id":"049be1b6-8659-4f3c-88bc-6323e7c1fc19","system_id":"levelo_inurba_marseille","lat":43.24653,"lon":5.38176,"is_reserved":false,"is_disabled":false,"rental_uris":{"android":"levelo://app?vid=049be1b6-8659-4f3c-88bc-6323e7c1fc19","ios":"levelo://app?vid=049be1b6-8659-4f3c-88bc-6323e7c1fc19"},"vehicle_type_id":"4","last_reported":1744953013,"current_range_meters":16400,"station_id":"ce4bhih2rcd13ifvqfr0","pricing_plan_id":"cebpf4jnsgd1na2vs0mg"},{"bike_id":"00845e1e-292e-4db5-9c9b-86ee55be5fc2","system_id":"levelo_inurba_marseille","lat":43.28724,"lon":5.36088,"is_reserved":false,"is_disabled":false,"rental_uris":{"android":"levelo://app?vid=00845e1e-292e-4db5-9c9b-86ee55be5fc2","ios":"levelo://app?vid=00845e1e-292e-4db5-9c9b-86ee55be5fc2"},"vehicle_type_id":"4","last_reported":1744953013,"current_range_meters":16400,"station_id":"cki0cbj6b192h4jlfktg","pricing_plan_id":"cebpf4jnsgd1na2vs0mg"},{"bike_id":"85ac49b9-718c-4937-ab2a-8e998e69b6ca","system_id":"levelo_inurba_marseille","lat":43.24395,"lon":5.37059,"is_reserved":false,"is_disabled":false,"rental_uris":{"android":"levelo://app?vid=85ac49b9-718c-4937-ab2a-8e998e69b6ca","ios":"levelo://app?vid=85ac49b9-718c-4937-ab2a-8e998e69b6ca"},"vehicle_type_id":"4","last_reported":1744953013,"current_range_meters":16400,"station_id":"ce4bhhh2rcd13ifvqfk0","pricing_plan_id":"cebpf4jnsgd1na2vs0mg"},{"bike_id":"7eb8853e-3665-40f5-8308-1299f0674652","system_id":"levelo_inurba_marseille","lat":43.30374,"lon":5.42489,"is_reserved":false,"is_disabled":false,"rental_uris":{"android":"levelo://app?vid=7eb8853e-3665-40f5-8308-1299f0674652","ios":"levelo://app?vid=7eb8853e-3665-40f5-8308-1299f0674652"},"vehicle_type_id":"4","last_reported":1744953013,"current_range_meters":16400,"station_id":"ce4bhoh2rcd13ifvqh6g","pricing_plan_id":"cebpf4jnsgd1na2vs0mg"},{"bike_id":"f9d3fbe6-73e5-424e-af02-f446d5b07152","system_id":"levelo_inurba_marseille","lat":43.21752,"lon":5.34601,"is_reserved":false,"is_disabled":false,"rental_uris":{"android":"levelo://app?vid=f9d3fbe6-73e5-424e-af02-f446d5b07152","ios":"levelo://app?vid=f9d3fbe6-73e5-424e-af02-f446d5b07152"},"vehicle_type_id":"4","last_reported":1744953013,"current_range_meters":16400,"station_id":"st_cvj6r9ubvosntc0bgbag","pricing_plan_id":"cebpf4jnsgd1na2vs0mg"},{"bike_id":"ddb81e49-3ca3-408e-bb7e-97e32c56d0f7","system_id":"levelo_inurba_marseille","lat":43.27901,"lon":5.38008,"is_reserved":false,"is_disabled":false,"rental_uris":{"android":"levelo://app?vid=ddb81e49-3ca3-408e-bb7e-97e32c56d0f7","ios":"levelo://app?vid=ddb81e49-3ca3-408e-bb7e-97e32c56d0f7"},"vehicle_type_id":"4","last_reported":1744953013,"current_range_meters":16400,"station_id":"ce4bhf92rcd13ifvqf50","pricing_plan_id":"cebpf4jnsgd1na2vs0mg"},{"bike_id":"1fb144bd-dbb4-489a-89db-cb0239e2536a","system_id":"levelo_inurba_marseille","lat":43.27952,"lon":5.41058,"is_reserved":false,"is_disabled":false,"rental_uris":{"android":"levelo://app?vid=1fb144bd-dbb4-489a-89db-cb0239e2536a","ios":"levelo://app?vid=1fb144bd-dbb4-489a-89db-cb0239e2536a"},"vehicle_type_id":"4","last_reported":1744953013,"current_range_meters":16400,"station_id":"ce4bhnp2rcd13ifvqh0g","pricing_plan_id":"cebpf4jnsgd1na2vs0mg"},{"bike_id":"db092bab-860c-4e5b-840d-945206939097","system_id":"levelo_inurba_marseille","lat":43.26555,"lon":5.37295,"is_reserved":false,"is_disabled":false,"rental_uris":{"android":"levelo://app?vid=db092bab-860c-4e5b-840d-945206939097","ios":"levelo://app?vid=db092bab-860c-4e5b-840d-945206939097"},"vehicle_type_id":"4","last_reported":1744953013,"current_range_meters":16800,"station_id":"ce4bhg12rcd13ifvqf70","pricing_plan_id":"cebpf4jnsgd1na2vs0mg"},{"bike_id":"3efba3c6-091f-42f0-a6b1-6019d320c613","system_id":"levelo_inurba_marseille","lat":43.3042,"lon":5.39763,"is_reserved":false,"is_disabled":true,"rental_uris":{"android":"levelo://app?vid=3efba3c6-091f-42f0-a6b1-6019d320c613","ios":"levelo://app?vid=3efba3c6-091f-42f0-a6b1-6019d320c613"},"vehicle_type_id":"4","last_reported":1744953013,"current_range_meters":16800,"station_id":"ce4bh092rcd13ifvqd20","pricing_plan_id":"cebpf4jnsgd1na2vs0mg"},{"bike_id":"5fba1097-d266-4f11-ba7e-0f0b630b3da9","system_id":"levelo_inurba_marseille","lat":43.30817,"lon":5.4354,"is_reserved":false,"is_disabled":false,"rental_uris":{"android":"levelo://app?vid=5fba1097-d266-4f11-ba7e-0f0b630b3da9","ios":"levelo://app?vid=5fba1097-d266-4f11-ba7e-0f0b630b3da9"},"vehicle_type_id":"4","last_reported":1744953013,"current_range_meters":16800,"station_id":"ce4bhph2rcd13ifvqheg","pricing_plan_id":"cebpf4jnsgd1na2vs0mg"},{"bike_id":"07006dad-1eac-4c5b-8e9f-977d282a6f86","system_id":"levelo_inurba_marseille","lat":43.30729,"lon":5.4244,"is_reserved":false,"is_disabled":false,"rental_uris":{"android":"levelo://app?vid=07006dad-1eac-4c5b-8e9f-977d282a6f86","ios":"levelo://app?vid=07006dad-1eac-4c5b-8e9f-977d282a6f86"},"vehicle_type_id":"4","last_reported":1744953013,"current_range_meters":16800,"station_id":"st_cvj6ca6bvosntc0bfgr0","pricing_plan_id":"cebpf4jnsgd1na2vs0mg"},{"bike_id":"b90acf1e-92f2-45e3-a0be-5f20323ea3d1","system_id":"levelo_inurba_marseille","lat":43.23181,"lon":5.40004,"is_reserved":false,"is_disabled":false,"rental_uris":{"android":"levelo://app?vid=b90acf1e-92f2-45e3-a0be-5f20323ea3d1","ios":"levelo://app?vid=b90acf1e-92f2-45e3-a0be-5f20323ea3d1"},"vehicle_type_id":"4","last_reported":1744953013,"current_range_meters":16800,"station_id":"ce4bhn12rcd13ifvqgqg","pricing_plan_id":"cebpf4jnsgd1na2vs0mg"},{"bike_id":"54c18ae4-fb9e-4f9c-8e98-a792665bc160","system_id":"levelo_inurba_marseille","lat":43.32113,"lon":5.36774,"is_reserved":false,"is_disabled":false,"rental_uris":{"android":"levelo://app?vid=54c18ae4-fb9e-4f9c-8e98-a792665bc160","ios":"levelo://app?vid=54c18ae4-fb9e-4f9c-8e98-a792665bc160"},"vehicle_type_id":"4","last_reported":1744953013,"current_range_meters":16800,"station_id":"ce4bhrh2rcd13ifvqhug","pricing_plan_id":"cebpf4jnsgd1na2vs0mg"},{"bike_id":"ecd9b5fe-4b17-4d30-a270-9ff21e0a9ad2","system_id":"levelo_inurba_marseille","lat":43.24171,"lon":5.364,"is_reserved":false,"is_disabled":false,"rental_uris":{"android":"levelo://app?vid=ecd9b5fe-4b17-4d30-a270-9ff21e0a9ad2","ios":"levelo://app?vid=ecd9b5fe-4b17-4d30-a270-9ff21e0a9ad2"},"vehicle_type_id":"4","last_reported":1744953013,"current_range_meters":16800,"station_id":"cpo36qri1sfpv3e86is0","pricing_plan_id":"cebpf4jnsgd1na2vs0mg"},{"bike_id":"19481d9b-6a00-4a11-8cb7-677b61ea5d1e","system_id":"levelo_inurba_marseille","lat":43.28148,"lon":5.42646,"is_reserved":false,"is_disabled":false,"rental_uris":{"android":"levelo://app?vid=19481d9b-6a00-4a11-8cb7-677b61ea5d1e","ios":"levelo://app?vid=19481d9b-6a00-4a11-8cb7-677b61ea5d1e"},"vehicle_type_id":"4","last_reported":1744953013,"current_range_meters":17200,"station_id":"ce4bhnh2rcd13ifvqgug","pricing_plan_id":"cebpf4jnsgd1na2vs0mg"},{"bike_id":"86145933-15c9-4b95-aa63-b53bce1dbf22","system_id":"levelo_inurba_marseille","lat":43.29877,"lon":5.39737,"is_reserved":false,"is_disabled":false,"rental_uris":{"android":"levelo://app?vid=86145933-15c9-4b95-aa63-b53bce1dbf22","ios":"levelo://app?vid=86145933-15c9-4b95-aa63-b53bce1dbf22"},"vehicle_type_id":"4","last_reported":1744953013,"current_range_meters":17200,"station_id":"ce4bh0h2rcd13ifvqd50","pricing_plan_id":"cebpf4jnsgd1na2vs0mg"},{"bike_id":"f11c1877-2531-4187-8a4e-82f9bf9c66d8","system_id":"levelo_inurba_marseille","lat":43.25019,"lon":5.3892,"is_reserved":false,"is_disabled":false,"rental_uris":{"android":"levelo://app?vid=f11c1877-2531-4187-8a4e-82f9bf9c66d8","ios":"levelo://app?vid=f11c1877-2531-4187-8a4e-82f9bf9c66d8"},"vehicle_type_id":"4","last_reported":1744953013,"current_range_meters":17200,"station_id":"ce4bhgp2rcd13ifvqfd0","pricing_plan_id":"cebpf4jnsgd1na2vs0mg"},{"bike_id":"789c3822-56ca-4769-bcd4-8845bdea2fda","system_id":"levelo_inurba_marseille","lat":43.24162,"lon":5.36386,"is_reserved":false,"is_disabled":false,"rental_uris":{"android":"levelo://app?vid=789c3822-56ca-4769-bcd4-8845bdea2fda","ios":"levelo://app?vid=789c3822-56ca-4769-bcd4-8845bdea2fda"},"vehicle_type_id":"4","last_reported":1744953013,"current_range_meters":17200,"station_id":"cpo36qri1sfpv3e86is0","pricing_plan_id":"cebpf4jnsgd1na2vs0mg"},{"bike_id":"5bfdd3ac-ac87-4124-a941-1bd318b8cd03","system_id":"levelo_inurba_marseille","lat":43.30469,"lon":5.37915,"is_reserved":false,"is_disabled":false,"rental_uris":{"android":"levelo://app?vid=5bfdd3ac-ac87-4124-a941-1bd318b8cd03","ios":"levelo://app?vid=5bfdd3ac-ac87-4124-a941-1bd318b8cd03"},"vehicle_type_id":"4","last_reported":1744953013,"current_range_meters":17200,"station_id":"ce4bgup2rcd13ifvqcn0","pricing_plan_id":"cebpf4jnsgd1na2vs0mg"},{"bike_id":"6632b523-de87-4e05-b378-3e50446f70a6","system_id":"levelo_inurba_marseille","lat":43.28434,"lon":5.35912,"is_reserved":false,"is_disabled":false,"rental_uris":{"android":"levelo://app?vid=6632b523-de87-4e05-b378-3e50446f70a6","ios":"levelo://app?vid=6632b523-de87-4e05-b378-3e50446f70a6"},"vehicle_type_id":"4","last_reported":1744953013,"current_range_meters":17200,"station_id":"ce4bhah2rcd13ifvqei0","pricing_plan_id":"cebpf4jnsgd1na2vs0mg"},{"bike_id":"6bd02a45-7bdd-4b11-8072-a0ac553628ff","system_id":"levelo_inurba_marseille","lat":43.25579,"lon":5.38228,"is_reserved":false,"is_disabled":false,"rental_uris":{"android":"levelo://app?vid=6bd02a45-7bdd-4b11-8072-a0ac553628ff","ios":"levelo://app?vid=6bd02a45-7bdd-4b11-8072-a0ac553628ff"},"vehicle_type_id":"4","last_reported":1744953013,"current_range_meters":18000,"station_id":"ce4bhih2rcd13ifvqfs0","pricing_plan_id":"cebpf4jnsgd1na2vs0mg"},{"bike_id":"5e6be620-a3d0-49c3-9ff0-b85332cde817","system_id":"levelo_inurba_marseille","lat":43.23189,"lon":5.35565,"is_reserved":false,"is_disabled":false,"rental_uris":{"android":"levelo://app?vid=5e6be620-a3d0-49c3-9ff0-b85332cde817","ios":"levelo://app?vid=5e6be620-a3d0-49c3-9ff0-b85332cde817"},"vehicle_type_id":"4","last_reported":1744953013,"current_range_meters":17200,"station_id":"ce4bhu92rcd13ifvqi70","pricing_plan_id":"cebpf4jnsgd1na2vs0mg"},{"bike_id":"d0dc4d00-ee87-4e75-8b2e-787c2027c4a4","system_id":"levelo_inurba_marseille","lat":43.27958,"lon":5.41055,"is_reserved":false,"is_disabled":false,"rental_uris":{"android":"levelo://app?vid=d0dc4d00-ee87-4e75-8b2e-787c2027c4a4","ios":"levelo://app?vid=d0dc4d00-ee87-4e75-8b2e-787c2027c4a4"},"vehicle_type_id":"4","last_reported":1744953013,"current_range_meters":17200,"station_id":"ce4bhnp2rcd13ifvqh0g","pricing_plan_id":"cebpf4jnsgd1na2vs0mg"},{"bike_id":"d8ed359f-b119-41a5-a7c7-15f875d7a3f7","system_id":"levelo_inurba_marseille","lat":43.323356,"lon":5.406255,"is_reserved":false,"is_disabled":false,"rental_uris":{"android":"levelo://app?vid=d8ed359f-b119-41a5-a7c7-15f875d7a3f7","ios":"levelo://app?vid=d8ed359f-b119-41a5-a7c7-15f875d7a3f7"},"vehicle_type_id":"4","last_reported":1744953013,"current_range_meters":17600,"station_id":"ce4bhq92rcd13ifvqhjg","pricing_plan_id":"cebpf4jnsgd1na2vs0mg"},{"bike_id":"9e6be64f-f795-43d2-bb10-c23f47531980","system_id":"levelo_inurba_marseille","lat":43.24375,"lon":5.37075,"is_reserved":false,"is_disabled":false,"rental_uris":{"android":"levelo://app?vid=9e6be64f-f795-43d2-bb10-c23f47531980","ios":"levelo://app?vid=9e6be64f-f795-43d2-bb10-c23f47531980"},"vehicle_type_id":"4","last_reported":1744953013,"current_range_meters":17600,"station_id":"ce4bhhh2rcd13ifvqfk0","pricing_plan_id":"cebpf4jnsgd1na2vs0mg"},{"bike_id":"9f45b2bf-53d1-4e39-9a64-fb391bdbd395","system_id":"levelo_inurba_marseille","lat":43.33759,"lon":5.392,"is_reserved":false,"is_disabled":false,"rental_uris":{"android":"levelo://app?vid=9f45b2bf-53d1-4e39-9a64-fb391bdbd395","ios":"levelo://app?vid=9f45b2bf-53d1-4e39-9a64-fb391bdbd395"},"vehicle_type_id":"4","last_reported":1744953013,"current_range_meters":17600,"station_id":"ce4bhr92rcd13ifvqhsg","pricing_plan_id":"cebpf4jnsgd1na2vs0mg"},{"bike_id":"a41817be-900b-4e4a-abf6-47505411e884","system_id":"levelo_inurba_marseille","lat":43.301425,"lon":5.380866,"is_reserved":false,"is_disabled":false,"rental_uris":{"android":"levelo://app?vid=a41817be-900b-4e4a-abf6-47505411e884","ios":"levelo://app?vid=a41817be-900b-4e4a-abf6-47505411e884"},"vehicle_type_id":"4","last_reported":1744953013,"current_range_meters":17600,"station_id":"ce4bgjp2rcd13ifvqbh0","pricing_plan_id":"cebpf4jnsgd1na2vs0mg"},{"bike_id":"030978cd-eddc-40be-b582-b7fe69c6a341","system_id":"levelo_inurba_marseille","lat":43.304671,"lon":5.379064,"is_reserved":false,"is_disabled":false,"rental_uris":{"android":"levelo://app?vid=030978cd-eddc-40be-b582-b7fe69c6a341","ios":"levelo://app?vid=030978cd-eddc-40be-b582-b7fe69c6a341"},"vehicle_type_id":"4","last_reported":1744953013,"current_range_meters":17600,"station_id":"ce4bgup2rcd13ifvqcn0","pricing_plan_id":"cebpf4jnsgd1na2vs0mg"},{"bike_id":"06c69cbf-f6a8-4497-b97f-4ec81764e0ec","system_id":"levelo_inurba_marseille","lat":43.25575,"lon":5.38234,"is_reserved":false,"is_disabled":false,"rental_uris":{"android":"levelo://app?vid=06c69cbf-f6a8-4497-b97f-4ec81764e0ec","ios":"levelo://app?vid=06c69cbf-f6a8-4497-b97f-4ec81764e0ec"},"vehicle_type_id":"4","last_reported":1744953013,"current_range_meters":17600,"station_id":"ce4bhih2rcd13ifvqfs0","pricing_plan_id":"cebpf4jnsgd1na2vs0mg"},{"bike_id":"8ceebc97-9c9d-492f-9325-378667f80c24","system_id":"levelo_inurba_marseille","lat":43.3087,"lon":5.3967,"is_reserved":false,"is_disabled":false,"rental_uris":{"android":"levelo://app?vid=8ceebc97-9c9d-492f-9325-378667f80c24","ios":"levelo://app?vid=8ceebc97-9c9d-492f-9325-378667f80c24"},"vehicle_type_id":"4","last_reported":1744953013,"current_range_meters":17600,"station_id":"ce4bh012rcd13ifvqcv0","pricing_plan_id":"cebpf4jnsgd1na2vs0mg"},{"bike_id":"36b90cff-40d2-47e2-985b-e09410752cc5","system_id":"levelo_inurba_marseille","lat":43.29904,"lon":5.43635,"is_reserved":false,"is_disabled":false,"rental_uris":{"android":"levelo://app?vid=36b90cff-40d2-47e2-985b-e09410752cc5","ios":"levelo://app?vid=36b90cff-40d2-47e2-985b-e09410752cc5"},"vehicle_type_id":"4","last_reported":1744953013,"current_range_meters":18000,"station_id":"ce4bhpp2rcd13ifvqhfg","pricing_plan_id":"cebpf4jnsgd1na2vs0mg"},{"bike_id":"a26a8c91-caba-4432-bb34-816ca7f76052","system_id":"levelo_inurba_marseille","lat":43.28268,"lon":5.35068,"is_reserved":false,"is_disabled":false,"rental_uris":{"android":"levelo://app?vid=a26a8c91-caba-4432-bb34-816ca7f76052","ios":"levelo://app?vid=a26a8c91-caba-4432-bb34-816ca7f76052"},"vehicle_type_id":"4","last_reported":1744953013,"current_range_meters":18000,"station_id":"ce4bhbp2rcd13ifvqerg","pricing_plan_id":"cebpf4jnsgd1na2vs0mg"},{"bike_id":"64163c3c-9cac-4e62-b366-cc96092eb1e7","system_id":"levelo_inurba_marseille","lat":43.26935,"lon":5.40261,"is_reserved":false,"is_disabled":false,"rental_uris":{"android":"levelo://app?vid=64163c3c-9cac-4e62-b366-cc96092eb1e7","ios":"levelo://app?vid=64163c3c-9cac-4e62-b366-cc96092eb1e7"},"vehicle_type_id":"4","last_reported":1744953013,"current_range_meters":18000,"station_id":"cjm6bp8fraef2m0cb0m0","pricing_plan_id":"cebpf4jnsgd1na2vs0mg"},{"bike_id":"6211aec8-84e1-429a-9c5e-37e175564678","system_id":"levelo_inurba_marseille","lat":43.28269,"lon":5.35088,"is_reserved":false,"is_disabled":false,"rental_uris":{"android":"levelo://app?vid=6211aec8-84e1-429a-9c5e-37e175564678","ios":"levelo://app?vid=6211aec8-84e1-429a-9c5e-37e175564678"},"vehicle_type_id":"4","last_reported":1744953013,"current_range_meters":18000,"station_id":"ce4bhbp2rcd13ifvqerg","pricing_plan_id":"cebpf4jnsgd1na2vs0mg"},{"bike_id":"cfe9931d-56cb-4982-ab24-0e4a7ddfbc18","system_id":"levelo_inurba_marseille","lat":43.29575,"lon":5.3999,"is_reserved":false,"is_disabled":false,"rental_uris":{"android":"levelo://app?vid=cfe9931d-56cb-4982-ab24-0e4a7ddfbc18","ios":"levelo://app?vid=cfe9931d-56cb-4982-ab24-0e4a7ddfbc18"},"vehicle_type_id":"4","last_reported":1744953013,"current_range_meters":18000,"station_id":"ce4bh312rcd13ifvqdj0","pricing_plan_id":"cebpf4jnsgd1na2vs0mg"},{"bike_id":"5ba68281-2a4d-44b9-a4b0-c49e0b08d425","system_id":"levelo_inurba_marseille","lat":43.28421,"lon":5.37505,"is_reserved":false,"is_disabled":false,"rental_uris":{"android":"levelo://app?vid=5ba68281-2a4d-44b9-a4b0-c49e0b08d425","ios":"levelo://app?vid=5ba68281-2a4d-44b9-a4b0-c49e0b08d425"},"vehicle_type_id":"4","last_reported":1744953013,"current_range_meters":18000,"station_id":"ce4bh412rcd13ifvqds0","pricing_plan_id":"cebpf4jnsgd1na2vs0mg"},{"bike_id":"4c05fc04-5a3e-4846-ae6c-06609c17f5be","system_id":"levelo_inurba_marseille","lat":43.26215,"lon":5.40473,"is_reserved":false,"is_disabled":false,"rental_uris":{"android":"levelo://app?vid=4c05fc04-5a3e-4846-ae6c-06609c17f5be","ios":"levelo://app?vid=4c05fc04-5a3e-4846-ae6c-06609c17f5be"},"vehicle_type_id":"4","last_reported":1744953013,"current_range_meters":18000,"station_id":"ce4bhmh2rcd13ifvqgmg","pricing_plan_id":"cebpf4jnsgd1na2vs0mg"},{"bike_id":"cf7c3680-f452-4084-8e92-20f914fb6ae3","system_id":"levelo_inurba_marseille","lat":43.2396,"lon":5.36624,"is_reserved":false,"is_disabled":false,"rental_uris":{"android":"levelo://app?vid=cf7c3680-f452-4084-8e92-20f914fb6ae3","ios":"levelo://app?vid=cf7c3680-f452-4084-8e92-20f914fb6ae3"},"vehicle_type_id":"4","last_reported":1744953013,"current_range_meters":18000,"station_id":"ce4bhi12rcd13ifvqfp0","pricing_plan_id":"cebpf4jnsgd1na2vs0mg"},{"bike_id":"f1d513e7-93f2-472b-b840-4c42490aad95","system_id":"levelo_inurba_marseille","lat":43.24169,"lon":5.36398,"is_reserved":false,"is_disabled":false,"rental_uris":{"android":"levelo://app?vid=f1d513e7-93f2-472b-b840-4c42490aad95","ios":"levelo://app?vid=f1d513e7-93f2-472b-b840-4c42490aad95"},"vehicle_type_id":"4","last_reported":1744953013,"current_range_meters":18000,"station_id":"cpo36qri1sfpv3e86is0","pricing_plan_id":"cebpf4jnsgd1na2vs0mg"},{"bike_id":"10229b60-ea9d-4ee7-a680-b72ab11dc1c6","system_id":"levelo_inurba_marseille","lat":43.301363,"lon":5.380913,"is_reserved":false,"is_disabled":false,"rental_uris":{"android":"levelo://app?vid=10229b60-ea9d-4ee7-a680-b72ab11dc1c6","ios":"levelo://app?vid=10229b60-ea9d-4ee7-a680-b72ab11dc1c6"},"vehicle_type_id":"4","last_reported":1744953013,"current_range_meters":18000,"station_id":"ce4bgjp2rcd13ifvqbh0","pricing_plan_id":"cebpf4jnsgd1na2vs0mg"},{"bike_id":"044f6785-0e94-4d33-b79a-26d70dd9d306","system_id":"levelo_inurba_marseille","lat":43.258574,"lon":5.399173,"is_reserved":false,"is_disabled":true,"rental_uris":{"android":"levelo://app?vid=044f6785-0e94-4d33-b79a-26d70dd9d306","ios":"levelo://app?vid=044f6785-0e94-4d33-b79a-26d70dd9d306"},"vehicle_type_id":"4","last_reported":1744953013,"current_range_meters":18800,"station_id":"ce4bhl92rcd13ifvqghg","pricing_plan_id":"cebpf4jnsgd1na2vs0mg"},{"bike_id":"91aa591a-3e56-4092-a295-ecb6aebe69eb","system_id":"levelo_inurba_marseille","lat":43.22498,"lon":5.34799,"is_reserved":false,"is_disabled":false,"rental_uris":{"android":"levelo://app?vid=91aa591a-3e56-4092-a295-ecb6aebe69eb","ios":"levelo://app?vid=91aa591a-3e56-4092-a295-ecb6aebe69eb"},"vehicle_type_id":"4","last_reported":1744953013,"current_range_meters":18800,"station_id":"st_cvj5dfep6f1abm77gieg","pricing_plan_id":"cebpf4jnsgd1na2vs0mg"},{"bike_id":"aea2afb6-112e-4c3a-968a-5eb5aa77e9be","system_id":"levelo_inurba_marseille","lat":43.21194,"lon":5.35076,"is_reserved":false,"is_disabled":false,"rental_uris":{"android":"levelo://app?vid=aea2afb6-112e-4c3a-968a-5eb5aa77e9be","ios":"levelo://app?vid=aea2afb6-112e-4c3a-968a-5eb5aa77e9be"},"vehicle_type_id":"4","last_reported":1744953013,"current_range_meters":18800,"station_id":"st_cvj6sg6p6f1abm77japg","pricing_plan_id":"cebpf4jnsgd1na2vs0mg"},{"bike_id":"82a001e1-327f-4a58-b355-bcf2e1a86bf6","system_id":"levelo_inurba_marseille","lat":43.30925,"lon":5.36685,"is_reserved":false,"is_disabled":false,"rental_uris":{"android":"levelo://app?vid=82a001e1-327f-4a58-b355-bcf2e1a86bf6","ios":"levelo://app?vid=82a001e1-327f-4a58-b355-bcf2e1a86bf6"},"vehicle_type_id":"4","last_reported":1744953013,"current_range_meters":18800,"station_id":"","pricing_plan_id":"cebpf4jnsgd1na2vs0mg"},{"bike_id":"5db7c5ab-73d5-47e4-9713-3ef31de4325c","system_id":"levelo_inurba_marseille","lat":43.30812,"lon":5.37315,"is_reserved":false,"is_disabled":false,"rental_uris":{"android":"levelo://app?vid=5db7c5ab-73d5-47e4-9713-3ef31de4325c","ios":"levelo://app?vid=5db7c5ab-73d5-47e4-9713-3ef31de4325c"},"vehicle_type_id":"4","last_reported":1744953013,"current_range_meters":18800,"station_id":"","pricing_plan_id":"cebpf4jnsgd1na2vs0mg"},{"bike_id":"2f780e0b-9d03-4b4a-ac09-62ac08b48f18","system_id":"levelo_inurba_marseille","lat":43.27964,"lon":5.38732,"is_reserved":false,"is_disabled":false,"rental_uris":{"android":"levelo://app?vid=2f780e0b-9d03-4b4a-ac09-62ac08b48f18","ios":"levelo://app?vid=2f780e0b-9d03-4b4a-ac09-62ac08b48f18"},"vehicle_type_id":"4","last_reported":1744953013,"current_range_meters":18000,"station_id":"ce4bhg12rcd13ifvqf80","pricing_plan_id":"cebpf4jnsgd1na2vs0mg"},{"bike_id":"9eb6738d-486c-4d0a-88f4-70b8d81983d1","system_id":"levelo_inurba_marseille","lat":43.21759,"lon":5.34611,"is_reserved":false,"is_disabled":false,"rental_uris":{"android":"levelo://app?vid=9eb6738d-486c-4d0a-88f4-70b8d81983d1","ios":"levelo://app?vid=9eb6738d-486c-4d0a-88f4-70b8d81983d1"},"vehicle_type_id":"4","last_reported":1744953013,"current_range_meters":18800,"station_id":"st_cvj6r9ubvosntc0bgbag","pricing_plan_id":"cebpf4jnsgd1na2vs0mg"},{"bike_id":"80bac1fe-218c-4068-937c-4aa733df023f","system_id":"levelo_inurba_marseille","lat":43.28614,"lon":5.3707,"is_reserved":false,"is_disabled":false,"rental_uris":{"android":"levelo://app?vid=80bac1fe-218c-4068-937c-4aa733df023f","ios":"levelo://app?vid=80bac1fe-218c-4068-937c-4aa733df023f"},"vehicle_type_id":"4","last_reported":1744953013,"current_range_meters":18800,"station_id":"ce4bht12rcd13ifvqi60","pricing_plan_id":"cebpf4jnsgd1na2vs0mg"},{"bike_id":"666c452f-bc61-4405-8374-62677582612f","system_id":"levelo_inurba_marseille","lat":43.258591,"lon":5.388989,"is_reserved":false,"is_disabled":false,"rental_uris":{"android":"levelo://app?vid=666c452f-bc61-4405-8374-62677582612f","ios":"levelo://app?vid=666c452f-bc61-4405-8374-62677582612f"},"vehicle_type_id":"4","last_reported":1744953013,"current_range_meters":19200,"station_id":"","pricing_plan_id":"cebpf4jnsgd1na2vs0mg"},{"bike_id":"7a8bb747-0123-4984-94ce-459804331708","system_id":"levelo_inurba_marseille","lat":43.29256,"lon":5.37614,"is_reserved":false,"is_disabled":false,"rental_uris":{"android":"levelo://app?vid=7a8bb747-0123-4984-94ce-459804331708","ios":"levelo://app?vid=7a8bb747-0123-4984-94ce-459804331708"},"vehicle_type_id":"4","last_reported":1744953013,"current_range_meters":19200,"station_id":"ce4bgi12rcd13ifvqb80","pricing_plan_id":"cebpf4jnsgd1na2vs0mg"},{"bike_id":"bb9cc5b6-0c7a-4871-8383-15ba04455dec","system_id":"levelo_inurba_marseille","lat":43.29889,"lon":5.4367,"is_reserved":false,"is_disabled":false,"rental_uris":{"android":"levelo://app?vid=bb9cc5b6-0c7a-4871-8383-15ba04455dec","ios":"levelo://app?vid=bb9cc5b6-0c7a-4871-8383-15ba04455dec"},"vehicle_type_id":"4","last_reported":1744953013,"current_range_meters":19600,"station_id":"ce4bhpp2rcd13ifvqhfg","pricing_plan_id":"cebpf4jnsgd1na2vs0mg"},{"bike_id":"e70eacac-d820-4193-9496-2437499a4465","system_id":"levelo_inurba_marseille","lat":43.29889,"lon":5.39732,"is_reserved":false,"is_disabled":false,"rental_uris":{"android":"levelo://app?vid=e70eacac-d820-4193-9496-2437499a4465","ios":"levelo://app?vid=e70eacac-d820-4193-9496-2437499a4465"},"vehicle_type_id":"4","last_reported":1744953013,"current_range_meters":19600,"station_id":"ce4bh0h2rcd13ifvqd50","pricing_plan_id":"cebpf4jnsgd1na2vs0mg"},{"bike_id":"17de6571-3c1c-4621-995b-d445cb9c6f14","system_id":"levelo_inurba_marseille","lat":43.211927,"lon":5.350716,"is_reserved":false,"is_disabled":false,"rental_uris":{"android":"levelo://app?vid=17de6571-3c1c-4621-995b-d445cb9c6f14","ios":"levelo://app?vid=17de6571-3c1c-4621-995b-d445cb9c6f14"},"vehicle_type_id":"4","last_reported":1744953013,"current_range_meters":19600,"station_id":"st_cvj6sg6p6f1abm77japg","pricing_plan_id":"cebpf4jnsgd1na2vs0mg"},{"bike_id":"ead9f013-8e5b-4b8f-85c4-4282ad4a7cae","system_id":"levelo_inurba_marseille","lat":43.243919,"lon":5.370537,"is_reserved":false,"is_disabled":false,"rental_uris":{"android":"levelo://app?vid=ead9f013-8e5b-4b8f-85c4-4282ad4a7cae","ios":"levelo://app?vid=ead9f013-8e5b-4b8f-85c4-4282ad4a7cae"},"vehicle_type_id":"4","last_reported":1744953013,"current_range_meters":19600,"station_id":"ce4bhhh2rcd13ifvqfk0","pricing_plan_id":"cebpf4jnsgd1na2vs0mg"},{"bike_id":"8f90d6b1-89e8-41eb-8c57-680f913206aa","system_id":"levelo_inurba_marseille","lat":43.30578,"lon":5.39353,"is_reserved":false,"is_disabled":false,"rental_uris":{"android":"levelo://app?vid=8f90d6b1-89e8-41eb-8c57-680f913206aa","ios":"levelo://app?vid=8f90d6b1-89e8-41eb-8c57-680f913206aa"},"vehicle_type_id":"4","last_reported":1744953013,"current_range_meters":19600,"station_id":"ce4bh0p2rcd13ifvqd80","pricing_plan_id":"cebpf4jnsgd1na2vs0mg"},{"bike_id":"882a5837-7eb0-4ced-9252-3d9ec2127229","system_id":"levelo_inurba_marseille","lat":43.30576,"lon":5.36734,"is_reserved":false,"is_disabled":false,"rental_uris":{"android":"levelo://app?vid=882a5837-7eb0-4ced-9252-3d9ec2127229","ios":"levelo://app?vid=882a5837-7eb0-4ced-9252-3d9ec2127229"},"vehicle_type_id":"4","last_reported":1744953013,"current_range_meters":19600,"station_id":"ce4bgrp2rcd13ifvqc9g","pricing_plan_id":"cebpf4jnsgd1na2vs0mg"},{"bike_id":"eb0220de-5641-4549-8ce6-f907772fde4d","system_id":"levelo_inurba_marseille","lat":43.26555,"lon":5.373,"is_reserved":false,"is_disabled":true,"rental_uris":{"android":"levelo://app?vid=eb0220de-5641-4549-8ce6-f907772fde4d","ios":"levelo://app?vid=eb0220de-5641-4549-8ce6-f907772fde4d"},"vehicle_type_id":"4","last_reported":1744953013,"current_range_meters":20000,"station_id":"ce4bhg12rcd13ifvqf70","pricing_plan_id":"cebpf4jnsgd1na2vs0mg"},{"bike_id":"d05b7cc4-f88b-4d02-ae6c-c344f22c0e5c","system_id":"levelo_inurba_marseille","lat":43.29761,"lon":5.36535,"is_reserved":false,"is_disabled":false,"rental_uris":{"android":"levelo://app?vid=d05b7cc4-f88b-4d02-ae6c-c344f22c0e5c","ios":"levelo://app?vid=d05b7cc4-f88b-4d02-ae6c-c344f22c0e5c"},"vehicle_type_id":"4","last_reported":1744953013,"current_range_meters":20000,"station_id":"","pricing_plan_id":"cebpf4jnsgd1na2vs0mg"},{"bike_id":"ed2bf1b7-dfe0-4af6-810a-6554c76886fe","system_id":"levelo_inurba_marseille","lat":43.284143,"lon":5.375165,"is_reserved":false,"is_disabled":false,"rental_uris":{"android":"levelo://app?vid=ed2bf1b7-dfe0-4af6-810a-6554c76886fe","ios":"levelo://app?vid=ed2bf1b7-dfe0-4af6-810a-6554c76886fe"},"vehicle_type_id":"4","last_reported":1744953013,"current_range_meters":20000,"station_id":"ce4bh412rcd13ifvqds0","pricing_plan_id":"cebpf4jnsgd1na2vs0mg"},{"bike_id":"f00ab9d4-4163-49a7-b58e-6a97fb8d3c6b","system_id":"levelo_inurba_marseille","lat":43.31237,"lon":5.36864,"is_reserved":false,"is_disabled":false,"rental_uris":{"android":"levelo://app?vid=f00ab9d4-4163-49a7-b58e-6a97fb8d3c6b","ios":"levelo://app?vid=f00ab9d4-4163-49a7-b58e-6a97fb8d3c6b"},"vehicle_type_id":"4","last_reported":1744953013,"current_range_meters":20000,"station_id":"ce4bgl92rcd13ifvqbq0","pricing_plan_id":"cebpf4jnsgd1na2vs0mg"},{"bike_id":"f7aa9c71-a8bf-4e0f-a09a-b87dba5b97f4","system_id":"levelo_inurba_marseille","lat":43.2789,"lon":5.37966,"is_reserved":false,"is_disabled":false,"rental_uris":{"android":"levelo://app?vid=f7aa9c71-a8bf-4e0f-a09a-b87dba5b97f4","ios":"levelo://app?vid=f7aa9c71-a8bf-4e0f-a09a-b87dba5b97f4"},"vehicle_type_id":"4","last_reported":1744953013,"current_range_meters":20000,"station_id":"ce4bhf92rcd13ifvqf50","pricing_plan_id":"cebpf4jnsgd1na2vs0mg"},{"bike_id":"056beed3-732b-4c15-871c-8c4749c0b234","system_id":"levelo_inurba_marseille","lat":43.26565,"lon":5.3903,"is_reserved":false,"is_disabled":false,"rental_uris":{"android":"levelo://app?vid=056beed3-732b-4c15-871c-8c4749c0b234","ios":"levelo://app?vid=056beed3-732b-4c15-871c-8c4749c0b234"},"vehicle_type_id":"4","last_reported":1744953013,"current_range_meters":20000,"station_id":"ce4bhe12rcd13ifvqf30","pricing_plan_id":"cebpf4jnsgd1na2vs0mg"},{"bike_id":"3bd36c81-7b6e-4b98-af81-cd557b5544b8","system_id":"levelo_inurba_marseille","lat":43.287199,"lon":5.399825,"is_reserved":false,"is_disabled":false,"rental_uris":{"android":"levelo://app?vid=3bd36c81-7b6e-4b98-af81-cd557b5544b8","ios":"levelo://app?vid=3bd36c81-7b6e-4b98-af81-cd557b5544b8"},"vehicle_type_id":"4","last_reported":1744953013,"current_range_meters":20000,"station_id":"ce4bho92rcd13ifvqh3g","pricing_plan_id":"cebpf4jnsgd1na2vs0mg"},{"bike_id":"24213b37-b766-4d9c-a174-f6bf34920497","system_id":"levelo_inurba_marseille","lat":43.28469,"lon":5.384178,"is_reserved":false,"is_disabled":false,"rental_uris":{"android":"levelo://app?vid=24213b37-b766-4d9c-a174-f6bf34920497","ios":"levelo://app?vid=24213b37-b766-4d9c-a174-f6bf34920497"},"vehicle_type_id":"4","last_reported":1744953013,"current_range_meters":20000,"station_id":"ce4bh512rcd13ifvqe3g","pricing_plan_id":"cebpf4jnsgd1na2vs0mg"},{"bike_id":"23f34c93-3c23-4198-9804-58821c48b076","system_id":"levelo_inurba_marseille","lat":43.30882,"lon":5.39673,"is_reserved":false,"is_disabled":false,"rental_uris":{"android":"levelo://app?vid=23f34c93-3c23-4198-9804-58821c48b076","ios":"levelo://app?vid=23f34c93-3c23-4198-9804-58821c48b076"},"vehicle_type_id":"4","last_reported":1744953013,"current_range_meters":20000,"station_id":"ce4bh012rcd13ifvqcv0","pricing_plan_id":"cebpf4jnsgd1na2vs0mg"},{"bike_id":"7d61685e-6150-40cc-9fee-865aea60477b","system_id":"levelo_inurba_marseille","lat":43.29094,"lon":5.38166,"is_reserved":false,"is_disabled":true,"rental_uris":{"android":"levelo://app?vid=7d61685e-6150-40cc-9fee-865aea60477b","ios":"levelo://app?vid=7d61685e-6150-40cc-9fee-865aea60477b"},"vehicle_type_id":"4","last_reported":1744953013,"current_range_meters":20000,"station_id":"ce4bh512rcd13ifvqe2g","pricing_plan_id":"cebpf4jnsgd1na2vs0mg"},{"bike_id":"4ee833ef-a7e6-4c85-866b-8f9376c35e7e","system_id":"levelo_inurba_marseille","lat":43.23189,"lon":5.39981,"is_reserved":false,"is_disabled":false,"rental_uris":{"android":"levelo://app?vid=4ee833ef-a7e6-4c85-866b-8f9376c35e7e","ios":"levelo://app?vid=4ee833ef-a7e6-4c85-866b-8f9376c35e7e"},"vehicle_type_id":"4","last_reported":1744953013,"current_range_meters":20000,"station_id":"ce4bhn12rcd13ifvqgqg","pricing_plan_id":"cebpf4jnsgd1na2vs0mg"},{"bike_id":"fe3e7798-fb4c-4b9a-8291-5bec09fd3f3a","system_id":"levelo_inurba_marseille","lat":43.28023,"lon":5.36952,"is_reserved":false,"is_disabled":false,"rental_uris":{"android":"levelo://app?vid=fe3e7798-fb4c-4b9a-8291-5bec09fd3f3a","ios":"levelo://app?vid=fe3e7798-fb4c-4b9a-8291-5bec09fd3f3a"},"vehicle_type_id":"4","last_reported":1744953013,"current_range_meters":20400,"station_id":"ce4bha12rcd13ifvqef0","pricing_plan_id":"cebpf4jnsgd1na2vs0mg"},{"bike_id":"e2fb8f13-893e-42f2-bc76-7e47ec81fcbb","system_id":"levelo_inurba_marseille","lat":43.24184,"lon":5.39738,"is_reserved":false,"is_disabled":false,"rental_uris":{"android":"levelo://app?vid=e2fb8f13-893e-42f2-bc76-7e47ec81fcbb","ios":"levelo://app?vid=e2fb8f13-893e-42f2-bc76-7e47ec81fcbb"},"vehicle_type_id":"4","last_reported":1744953013,"current_range_meters":20400,"station_id":"ce4bhn12rcd13ifvqgpg","pricing_plan_id":"cebpf4jnsgd1na2vs0mg"},{"bike_id":"056282bc-e4fa-4eaf-9cd4-e5ea7b9ea62e","system_id":"levelo_inurba_marseille","lat":43.30885,"lon":5.39657,"is_reserved":false,"is_disabled":false,"rental_uris":{"android":"levelo://app?vid=056282bc-e4fa-4eaf-9cd4-e5ea7b9ea62e","ios":"levelo://app?vid=056282bc-e4fa-4eaf-9cd4-e5ea7b9ea62e"},"vehicle_type_id":"4","last_reported":1744953013,"current_range_meters":20400,"station_id":"ce4bh012rcd13ifvqcv0","pricing_plan_id":"cebpf4jnsgd1na2vs0mg"},{"bike_id":"3c37d3ec-c1f3-47c3-9356-b25b0d14152b","system_id":"levelo_inurba_marseille","lat":43.28617,"lon":5.3707,"is_reserved":false,"is_disabled":false,"rental_uris":{"android":"levelo://app?vid=3c37d3ec-c1f3-47c3-9356-b25b0d14152b","ios":"levelo://app?vid=3c37d3ec-c1f3-47c3-9356-b25b0d14152b"},"vehicle_type_id":"4","last_reported":1744953013,"current_range_meters":20400,"station_id":"ce4bht12rcd13ifvqi60","pricing_plan_id":"cebpf4jnsgd1na2vs0mg"},{"bike_id":"e19797c2-1f12-4455-ad19-bbeb287ac8ad","system_id":"levelo_inurba_marseille","lat":43.28167,"lon":5.42636,"is_reserved":false,"is_disabled":false,"rental_uris":{"android":"levelo://app?vid=e19797c2-1f12-4455-ad19-bbeb287ac8ad","ios":"levelo://app?vid=e19797c2-1f12-4455-ad19-bbeb287ac8ad"},"vehicle_type_id":"4","last_reported":1744953013,"current_range_meters":20400,"station_id":"ce4bhnh2rcd13ifvqgug","pricing_plan_id":"cebpf4jnsgd1na2vs0mg"},{"bike_id":"0a5c9df6-7802-418e-b4ef-34567952719f","system_id":"levelo_inurba_marseille","lat":43.31118,"lon":5.37781,"is_reserved":false,"is_disabled":false,"rental_uris":{"android":"levelo://app?vid=0a5c9df6-7802-418e-b4ef-34567952719f","ios":"levelo://app?vid=0a5c9df6-7802-418e-b4ef-34567952719f"},"vehicle_type_id":"4","last_reported":1744953013,"current_range_meters":20400,"station_id":"ce4bgt92rcd13ifvqcg0","pricing_plan_id":"cebpf4jnsgd1na2vs0mg"},{"bike_id":"fe88f930-60ea-4b67-a049-58a9dbd74501","system_id":"levelo_inurba_marseille","lat":43.300968,"lon":5.390869,"is_reserved":false,"is_disabled":false,"rental_uris":{"android":"levelo://app?vid=fe88f930-60ea-4b67-a049-58a9dbd74501","ios":"levelo://app?vid=fe88f930-60ea-4b67-a049-58a9dbd74501"},"vehicle_type_id":"4","last_reported":1744953013,"current_range_meters":20400,"station_id":"ce4bhbh2rcd13ifvqeqg","pricing_plan_id":"cebpf4jnsgd1na2vs0mg"},{"bike_id":"c76ab7f1-9a5b-4de7-92d0-9656e4ec1c06","system_id":"levelo_inurba_marseille","lat":43.26213,"lon":5.40454,"is_reserved":false,"is_disabled":false,"rental_uris":{"android":"levelo://app?vid=c76ab7f1-9a5b-4de7-92d0-9656e4ec1c06","ios":"levelo://app?vid=c76ab7f1-9a5b-4de7-92d0-9656e4ec1c06"},"vehicle_type_id":"4","last_reported":1744953013,"current_range_meters":20400,"station_id":"ce4bhmh2rcd13ifvqgmg","pricing_plan_id":"cebpf4jnsgd1na2vs0mg"},{"bike_id":"97598666-c17c-40c0-9dfe-03cce10aa57a","system_id":"levelo_inurba_marseille","lat":43.30885,"lon":5.39661,"is_reserved":false,"is_disabled":false,"rental_uris":{"android":"levelo://app?vid=97598666-c17c-40c0-9dfe-03cce10aa57a","ios":"levelo://app?vid=97598666-c17c-40c0-9dfe-03cce10aa57a"},"vehicle_type_id":"4","last_reported":1744953013,"current_range_meters":20800,"station_id":"ce4bh012rcd13ifvqcv0","pricing_plan_id":"cebpf4jnsgd1na2vs0mg"},{"bike_id":"761fcdea-ab14-4485-92a7-6159fef8dc5a","system_id":"levelo_inurba_marseille","lat":43.33113,"lon":5.38225,"is_reserved":false,"is_disabled":false,"rental_uris":{"android":"levelo://app?vid=761fcdea-ab14-4485-92a7-6159fef8dc5a","ios":"levelo://app?vid=761fcdea-ab14-4485-92a7-6159fef8dc5a"},"vehicle_type_id":"4","last_reported":1744953013,"current_range_meters":20800,"station_id":"","pricing_plan_id":"cebpf4jnsgd1na2vs0mg"},{"bike_id":"d52be970-ec48-4545-bc59-de81d161700d","system_id":"levelo_inurba_marseille","lat":43.25576,"lon":5.38253,"is_reserved":false,"is_disabled":false,"rental_uris":{"android":"levelo://app?vid=d52be970-ec48-4545-bc59-de81d161700d","ios":"levelo://app?vid=d52be970-ec48-4545-bc59-de81d161700d"},"vehicle_type_id":"4","last_reported":1744953013,"current_range_meters":20800,"station_id":"ce4bhih2rcd13ifvqfs0","pricing_plan_id":"cebpf4jnsgd1na2vs0mg"},{"bike_id":"42dd028e-0432-4d4d-bf6a-c55cff40bc12","system_id":"levelo_inurba_marseille","lat":43.32321,"lon":5.40627,"is_reserved":false,"is_disabled":false,"rental_uris":{"android":"levelo://app?vid=42dd028e-0432-4d4d-bf6a-c55cff40bc12","ios":"levelo://app?vid=42dd028e-0432-4d4d-bf6a-c55cff40bc12"},"vehicle_type_id":"4","last_reported":1744953013,"current_range_meters":20800,"station_id":"ce4bhq92rcd13ifvqhjg","pricing_plan_id":"cebpf4jnsgd1na2vs0mg"},{"bike_id":"20dd2fb4-8e76-4164-aeb7-8c4771f432e4","system_id":"levelo_inurba_marseille","lat":43.28144,"lon":5.4265,"is_reserved":false,"is_disabled":true,"rental_uris":{"android":"levelo://app?vid=20dd2fb4-8e76-4164-aeb7-8c4771f432e4","ios":"levelo://app?vid=20dd2fb4-8e76-4164-aeb7-8c4771f432e4"},