{"last_updated":1700323647,"ttl":30,"version":"2.2","data":{"bikes":[{"bike_id":"ecb3723b-c5fe-4426-997d-4686aad16f17","system_id":"levelo_inurba_marseille","lat":43.312239,"lon":5.368562,"is_reserved":false,"is_disabled":false,"rental_uris":{"android":"levelo://app?vid=ecb3723b-c5fe-4426-997d-4686aad16f17","ios":"levelo://app?vid=ecb3723b-c5fe-4426-997d-4686aad16f17"},"vehicle_type_id":"4","last_reported":1700323648,"current_range_meters":400,"station_id":"ce4bgl92rcd13ifvqbq0","pricing_plan_id":"free"},{"bike_id":"943dfc2f-eec4-44b8-ae3a-bf8f278b58c3","system_id":"levelo_inurba_marseille","lat":43.311496,"lon":5.368931,"is_reserved":false,"is_disabled":false,"rental_uris":{"android":"levelo://app?vid=943dfc2f-eec4-44b8-ae3a-bf8f278b58c3","ios":"levelo://app?vid=943dfc2f-eec4-44b8-ae3a-bf8f278b58c3"},"vehicle_type_id":"4","last_reported":1700323648,"current_range_meters":0,"station_id":"","pricing_plan_id":"free"},{"bike_id":"534b72fd-8fb4-4fb5-a2da-c5932e2c0856","system_id":"levelo_inurba_marseille","lat":43.314811,"lon":5.373103,"is_reserved":false,"is_disabled":false,"rental_uris":{"android":"levelo://app?vid=534b72fd-8fb4-4fb5-a2da-c5932e2c0856","ios":"levelo://app?vid=534b72fd-8fb4-4fb5-a2da-c5932e2c0856"},"vehicle_type_id":"4","last_reported":1700323648,"current_range_meters":8000,"station_id":"ce4bgt12rcd13ifvqcd0","pricing_plan_id":"free"},{"bike_id":"e31417ec-55ab-4e22-a1df-55081c844662","system_id":"levelo_inurba_marseille","lat":43.314811,"lon":5.373103,"is_reserved":false,"is_disabled":false,"rental_uris":{"android":"levelo://app?vid=e31417ec-55ab-4e22-a1df-55081c844662","ios":"levelo://app?vid=e31417ec-55ab-4e22-a1df-55081c844662"},"vehicle_type_id":"4","last_reported":1700323648,"current_range_meters":12400,"station_id":"ce4bgt12rcd13ifvqcd0","pricing_plan_id":"free"},{"bike_id":"3475d204-43b6-43d9-b615-ca1d0d58200e","system_id":"levelo_inurba_marseille","lat":43.30679,"lon":5.3679,"is_reserved":false,"is_disabled":false,"rental_uris":{"android":"levelo://app?vid=3475d204-43b6-43d9-b615-ca1d0d58200e","ios":"levelo://app?vid=3475d204-43b6-43d9-b615-ca1d0d58200e"},"vehicle_type_id":"4","last_reported":1700323648,"current_range_meters":14000,"station_id":"","pricing_plan_id":"free"},{"bike_id":"c89b6022-0b04-44f0-bb8d-00b8bddaa14f","system_id":"levelo_inurba_marseille","lat":43.319483,"lon":5.3711,"is_reserved":false,"is_disabled":false,"rental_uris":{"android":"levelo://app?vid=c89b6022-0b04-44f0-bb8d-00b8bddaa14f","ios":"levelo://app?vid=c89b6022-0b04-44f0-bb8d-00b8bddaa14f"},"vehicle_type_id":"4","last_reported":1700323648,"current_range_meters":4800,"station_id":"","pricing_plan_id":"free"},{"bike_id":"32b84083-d2e3-4463-a198-ccb93bdc1818","system_id":"levelo_inurba_marseille","lat":43.305989,"lon":5.37225,"is_reserved":false,"is_disabled":false,"rental_uris":{"android":"levelo://app?vid=32b84083-d2e3-4463-a198-ccb93bdc1818","ios":"levelo://app?vid=32b84083-d2e3-4463-a198-ccb93bdc1818"},"vehicle_type_id":"4","last_reported":1700323648,"current_range_meters":26400,"station_id":"ce4bgqh2rcd13ifvqc4g","pricing_plan_id":"free"},{"bike_id":"2d49cb03-7339-4a21-98db-beedb60a2a4c","system_id":"levelo_inurba_marseille","lat":43.304958,"lon":5.370783,"is_reserved":false,"is_disabled":false,"rental_uris":{"android":"levelo://app?vid=2d49cb03-7339-4a21-98db-beedb60a2a4c","ios":"levelo://app?vid=2d49cb03-7339-4a21-98db-beedb60a2a4c"},"vehicle_type_id":"4","last_reported":1700323648,"current_range_meters":0,"station_id":"","pricing_plan_id":"free"},{"bike_id":"dcbf9c93-0758-41cf-8699-4ede01d69428","system_id":"levelo_inurba_marseille","lat":43.308184,"lon":5.376522,"is_reserved":false,"is_disabled":false,"rental_uris":{"android":"levelo://app?vid=dcbf9c93-0758-41cf-8699-4ede01d69428","ios":"levelo://app?vid=dcbf9c93-0758-41cf-8699-4ede01d69428"},"vehicle_type_id":"4","last_reported":1700323648,"current_range_meters":16000,"station_id":"ce4bgv92rcd13ifvqcq0","pricing_plan_id":"free"},{"bike_id":"77777428-d580-4237-86be-f2c1e144bea8","system_id":"levelo_inurba_marseille","lat":43.308012,"lon":5.381511,"is_reserved":false,"is_disabled":false,"rental_uris":{"android":"levelo://app?vid=77777428-d580-4237-86be-f2c1e144bea8","ios":"levelo://app?vid=77777428-d580-4237-86be-f2c1e144bea8"},"vehicle_type_id":"4","last_reported":1700323648,"current_range_meters":1600,"station_id":"ce4bgt12rcd13ifvqce0","pricing_plan_id":"free"},{"bike_id":"08db7734-5859-44b7-896e-d55890bbf1c3","system_id":"levelo_inurba_marseille","lat":43.30803,"lon":5.38147,"is_reserved":false,"is_disabled":false,"rental_uris":{"android":"levelo://app?vid=08db7734-5859-44b7-896e-d55890bbf1c3","ios":"levelo://app?vid=08db7734-5859-44b7-896e-d55890bbf1c3"},"vehicle_type_id":"4","last_reported":1700323648,"current_range_meters":25600,"station_id":"ce4bgt12rcd13ifvqce0","pricing_plan_id":"free"},{"bike_id":"46a7303e-6ea7-40fa-bb92-b94a8d7d9fcf","system_id":"levelo_inurba_marseille","lat":43.308012,"lon":5.381511,"is_reserved":false,"is_disabled":false,"rental_uris":{"android":"levelo://app?vid=46a7303e-6ea7-40fa-bb92-b94a8d7d9fcf","ios":"levelo://app?vid=46a7303e-6ea7-40fa-bb92-b94a8d7d9fcf"},"vehicle_type_id":"4","last_reported":1700323648,"current_range_meters":1200,"station_id":"ce4bgt12rcd13ifvqce0","pricing_plan_id":"free"},{"bike_id":"3ffc2083-e6e6-4a22-85fe-b1a300ee76f8","system_id":"levelo_inurba_marseille","lat":43.30804,"lon":5.3815,"is_reserved":false,"is_disabled":false,"rental_uris":{"android":"levelo://app?vid=3ffc2083-e6e6-4a22-85fe-b1a300ee76f8","ios":"levelo://app?vid=3ffc2083-e6e6-4a22-85fe-b1a300ee76f8"},"vehicle_type_id":"4","last_reported":1700323648,"current_range_meters":0,"station_id":"ce4bgt12rcd13ifvqce0","pricing_plan_id":"free"},{"bike_id":"2c8da651-230a-4e6c-888d-e1888d78dcf2","system_id":"levelo_inurba_marseille","lat":43.304606,"lon":5.379026,"is_reserved":false,"is_disabled":false,"rental_uris":{"android":"levelo://app?vid=2c8da651-230a-4e6c-888d-e1888d78dcf2","ios":"levelo://app?vid=2c8da651-230a-4e6c-888d-e1888d78dcf2"},"vehicle_type_id":"4","last_reported":1700323648,"current_range_meters":0,"station_id":"ce4bgup2rcd13ifvqcn0","pricing_plan_id":"free"},{"bike_id":"8582e63c-68af-4a5e-a41b-a2e2d4df8807","system_id":"levelo_inurba_marseille","lat":43.324771,"lon":5.36557,"is_reserved":false,"is_disabled":false,"rental_uris":{"android":"levelo://app?vid=8582e63c-68af-4a5e-a41b-a2e2d4df8807","ios":"levelo://app?vid=8582e63c-68af-4a5e-a41b-a2e2d4df8807"},"vehicle_type_id":"4","last_reported":1700323648,"current_range_meters":8400,"station_id":"ce4bhs12rcd13ifvqhvg","pricing_plan_id":"free"},{"bike_id":"b07df4dc-5dee-47d2-9384-cdf7d13ef59f","system_id":"levelo_inurba_marseille","lat":43.32182,"lon":5.3787,"is_reserved":false,"is_disabled":false,"rental_uris":{"android":"levelo://app?vid=b07df4dc-5dee-47d2-9384-cdf7d13ef59f","ios":"levelo://app?vid=b07df4dc-5dee-47d2-9384-cdf7d13ef59f"},"vehicle_type_id":"4","last_reported":1700323648,"current_range_meters":23200,"station_id":"","pricing_plan_id":"free"},{"bike_id":"5a6db0fc-cfe2-47a7-ae76-d4e0529428ab","system_id":"levelo_inurba_marseille","lat":43.319832,"lon":5.38105,"is_reserved":false,"is_disabled":false,"rental_uris":{"android":"levelo://app?vid=5a6db0fc-cfe2-47a7-ae76-d4e0529428ab","ios":"levelo://app?vid=5a6db0fc-cfe2-47a7-ae76-d4e0529428ab"},"vehicle_type_id":"4","last_reported":1700323648,"current_range_meters":17600,"station_id":"","pricing_plan_id":"free"},{"bike_id":"f432adad-4bf5-4f20-bad7-2596d23b23b6","system_id":"levelo_inurba_marseille","lat":43.3199,"lon":5.38167,"is_reserved":false,"is_disabled":false,"rental_uris":{"android":"levelo://app?vid=f432adad-4bf5-4f20-bad7-2596d23b23b6","ios":"levelo://app?vid=f432adad-4bf5-4f20-bad7-2596d23b23b6"},"vehicle_type_id":"4","last_reported":1700323648,"current_range_meters":19600,"station_id":"ce4bhr12rcd13ifvqhpg","pricing_plan_id":"free"},{"bike_id":"66963c79-9023-4e40-bef4-709c1b04f449","system_id":"levelo_inurba_marseille","lat":43.311583,"lon":5.386781,"is_reserved":false,"is_disabled":false,"rental_uris":{"android":"levelo://app?vid=66963c79-9023-4e40-bef4-709c1b04f449","ios":"levelo://app?vid=66963c79-9023-4e40-bef4-709c1b04f449"},"vehicle_type_id":"4","last_reported":1700323648,"current_range_meters":3200,"station_id":"ce4bgv12rcd13ifvqcp0","pricing_plan_id":"free"},{"bike_id":"7b7ea8af-ae18-49ed-9106-7d2d7ad971b6","system_id":"levelo_inurba_marseille","lat":43.298433,"lon":5.362774,"is_reserved":false,"is_disabled":false,"rental_uris":{"android":"levelo://app?vid=7b7ea8af-ae18-49ed-9106-7d2d7ad971b6","ios":"levelo://app?vid=7b7ea8af-ae18-49ed-9106-7d2d7ad971b6"},"vehicle_type_id":"4","last_reported":1700323648,"current_range_meters":0,"station_id":"ce4bgpp2rcd13ifvqc3g","pricing_plan_id":"free"},{"bike_id":"5da9dea2-bd9f-4746-b637-56e44ea9e587","system_id":"levelo_inurba_marseille","lat":43.298489,"lon":5.362942,"is_reserved":false,"is_disabled":false,"rental_uris":{"android":"levelo://app?vid=5da9dea2-bd9f-4746-b637-56e44ea9e587","ios":"levelo://app?vid=5da9dea2-bd9f-4746-b637-56e44ea9e587"},"vehicle_type_id":"4","last_reported":1700323648,"current_range_meters":0,"station_id":"","pricing_plan_id":"free"},{"bike_id":"0e2db0a9-e1c0-4ec7-a8b9-9c321ae2d58b","system_id":"levelo_inurba_marseille","lat":43.298433,"lon":5.362774,"is_reserved":false,"is_disabled":false,"rental_uris":{"android":"levelo://app?vid=0e2db0a9-e1c0-4ec7-a8b9-9c321ae2d58b","ios":"levelo://app?vid=0e2db0a9-e1c0-4ec7-a8b9-9c321ae2d58b"},"vehicle_type_id":"4","last_reported":1700323648,"current_range_meters":7600,"station_id":"ce4bgpp2rcd13ifvqc3g","pricing_plan_id":"free"},{"bike_id":"83b4a712-5deb-4185-a2eb-cf504fb97aa1","system_id":"levelo_inurba_marseille","lat":43.29908,"lon":5.37535,"is_reserved":false,"is_disabled":false,"rental_uris":{"android":"levelo://app?vid=83b4a712-5deb-4185-a2eb-cf504fb97aa1","ios":"levelo://app?vid=83b4a712-5deb-4185-a2eb-cf504fb97aa1"},"vehicle_type_id":"4","last_reported":1700323648,"current_range_meters":17200,"station_id":"","pricing_plan_id":"free"},{"bike_id":"1f2da3e8-3f46-41d7-86b2-b95f68370d20","system_id":"levelo_inurba_marseille","lat":43.297794,"lon":5.370888,"is_reserved":false,"is_disabled":false,"rental_uris":{"android":"levelo://app?vid=1f2da3e8-3f46-41d7-86b2-b95f68370d20","ios":"levelo://app?vid=1f2da3e8-3f46-41d7-86b2-b95f68370d20"},"vehicle_type_id":"4","last_reported":1700323648,"current_range_meters":3600,"station_id":"ce4bgop2rcd13ifvqc1g","pricing_plan_id":"free"},{"bike_id":"dadade26-8d95-44b2-86a8-a68427fdc33d","system_id":"levelo_inurba_marseille","lat":43.322872,"lon":5.382756,"is_reserved":false,"is_disabled":false,"rental_uris":{"android":"levelo://app?vid=dadade26-8d95-44b2-86a8-a68427fdc33d","ios":"levelo://app?vid=dadade26-8d95-44b2-86a8-a68427fdc33d"},"vehicle_type_id":"4","last_reported":1700323648,"current_range_meters":6000,"station_id":"ce4bhr12rcd13ifvqhqg","pricing_plan_id":"free"},{"bike_id":"b0bc5a2b-ee52-4745-9049-5d157e365412","system_id":"levelo_inurba_marseille","lat":43.328234,"lon":5.366898,"is_reserved":false,"is_disabled":false,"rental_uris":{"android":"levelo://app?vid=b0bc5a2b-ee52-4745-9049-5d157e365412","ios":"levelo://app?vid=b0bc5a2b-ee52-4745-9049-5d157e365412"},"vehicle_type_id":"4","last_reported":1700323648,"current_range_meters":11600,"station_id":"ce4bhs92rcd13ifvqi0g","pricing_plan_id":"free"},{"bike_id":"31682f68-9f19-4d8f-894c-c25c7ced512b","system_id":"levelo_inurba_marseille","lat":43.32827,"lon":5.36676,"is_reserved":false,"is_disabled":false,"rental_uris":{"android":"levelo://app?vid=31682f68-9f19-4d8f-894c-c25c7ced512b","ios":"levelo://app?vid=31682f68-9f19-4d8f-894c-c25c7ced512b"},"vehicle_type_id":"4","last_reported":1700323648,"current_range_meters":27600,"station_id":"ce4bhs92rcd13ifvqi0g","pricing_plan_id":"free"},{"bike_id":"6f461906-1734-4a2d-9c3e-a93c6064dfd5","system_id":"levelo_inurba_marseille","lat":43.32828,"lon":5.36684,"is_reserved":false,"is_disabled":false,"rental_uris":{"android":"levelo://app?vid=6f461906-1734-4a2d-9c3e-a93c6064dfd5","ios":"levelo://app?vid=6f461906-1734-4a2d-9c3e-a93c6064dfd5"},"vehicle_type_id":"4","last_reported":1700323648,"current_range_meters":24400,"station_id":"ce4bhs92rcd13ifvqi0g","pricing_plan_id":"free"},{"bike_id":"d447991a-59b4-4778-a190-7d2b0920a414","system_id":"levelo_inurba_marseille","lat":43.32215,"lon":5.38613,"is_reserved":false,"is_disabled":false,"rental_uris":{"android":"levelo://app?vid=d447991a-59b4-4778-a190-7d2b0920a414","ios":"levelo://app?vid=d447991a-59b4-4778-a190-7d2b0920a414"},"vehicle_type_id":"4","last_reported":1700323648,"current_range_meters":0,"station_id":"","pricing_plan_id":"free"},{"bike_id":"8971094b-05d7-496c-8e8c-748760a05739","system_id":"levelo_inurba_marseille","lat":43.296131,"lon":5.370773,"is_reserved":false,"is_disabled":false,"rental_uris":{"android":"levelo://app?vid=8971094b-05d7-496c-8e8c-748760a05739","ios":"levelo://app?vid=8971094b-05d7-496c-8e8c-748760a05739"},"vehicle_type_id":"4","last_reported":1700323648,"current_range_meters":6800,"station_id":"ce4bgnh2rcd13ifvqc0g","pricing_plan_id":"free"},{"bike_id":"42cb0035-94a9-44d8-bdd3-0f2a4dca3fa6","system_id":"levelo_inurba_marseille","lat":43.296129,"lon":5.370777,"is_reserved":false,"is_disabled":false,"rental_uris":{"android":"levelo://app?vid=42cb0035-94a9-44d8-bdd3-0f2a4dca3fa6","ios":"levelo://app?vid=42cb0035-94a9-44d8-bdd3-0f2a4dca3fa6"},"vehicle_type_id":"4","last_reported":1700323648,"current_range_meters":24000,"station_id":"ce4bgnh2rcd13ifvqc0g","pricing_plan_id":"free"},{"bike_id":"bab6e1e8-0726-4f51-8b18-d54941f080d7","system_id":"levelo_inurba_marseille","lat":43.2966,"lon":5.37463,"is_reserved":false,"is_disabled":false,"rental_uris":{"android":"levelo://app?vid=bab6e1e8-0726-4f51-8b18-d54941f080d7","ios":"levelo://app?vid=bab6e1e8-0726-4f51-8b18-d54941f080d7"},"vehicle_type_id":"4","last_reported":1700323648,"current_range_meters":0,"station_id":"","pricing_plan_id":"free"},{"bike_id":"afe7e8c6-d47e-4d05-90d3-6bae405e782f","system_id":"levelo_inurba_marseille","lat":43.298037,"lon":5.381066,"is_reserved":false,"is_disabled":false,"rental_uris":{"android":"levelo://app?vid=afe7e8c6-d47e-4d05-90d3-6bae405e782f","ios":"levelo://app?vid=afe7e8c6-d47e-4d05-90d3-6bae405e782f"},"vehicle_type_id":"4","last_reported":1700323648,"current_range_meters":0,"station_id":"ce4bgip2rcd13ifvqbb0","pricing_plan_id":"free"},{"bike_id":"67ffd28a-0325-489b-a10f-d90500122751","system_id":"levelo_inurba_marseille","lat":43.29576,"lon":5.3751,"is_reserved":false,"is_disabled":false,"rental_uris":{"android":"levelo://app?vid=67ffd28a-0325-489b-a10f-d90500122751","ios":"levelo://app?vid=67ffd28a-0325-489b-a10f-d90500122751"},"vehicle_type_id":"4","last_reported":1700323648,"current_range_meters":30000,"station_id":"ce4bgh92rcd13ifvqb50","pricing_plan_id":"free"},{"bike_id":"d2dced52-b7fb-4d11-ad33-56be009e3364","system_id":"levelo_inurba_marseille","lat":43.321847,"lon":5.388263,"is_reserved":false,"is_disabled":false,"rental_uris":{"android":"levelo://app?vid=d2dced52-b7fb-4d11-ad33-56be009e3364","ios":"levelo://app?vid=d2dced52-b7fb-4d11-ad33-56be009e3364"},"vehicle_type_id":"4","last_reported":1700323648,"current_range_meters":18400,"station_id":"","pricing_plan_id":"free"},{"bike_id":"77b35311-64f7-4e0a-b9ac-d303f698f472","system_id":"levelo_inurba_marseille","lat":43.295748,"lon":5.37522,"is_reserved":false,"is_disabled":false,"rental_uris":{"android":"levelo://app?vid=77b35311-64f7-4e0a-b9ac-d303f698f472","ios":"levelo://app?vid=77b35311-64f7-4e0a-b9ac-d303f698f472"},"vehicle_type_id":"4","last_reported":1700323648,"current_range_meters":0,"station_id":"ce4bgh92rcd13ifvqb50","pricing_plan_id":"free"},{"bike_id":"3e3e92fe-39b7-4933-99ff-3747b28b5d69","system_id":"levelo_inurba_marseille","lat":43.328154,"lon":5.380034,"is_reserved":false,"is_disabled":false,"rental_uris":{"android":"levelo://app?vid=3e3e92fe-39b7-4933-99ff-3747b28b5d69","ios":"levelo://app?vid=3e3e92fe-39b7-4933-99ff-3747b28b5d69"},"vehicle_type_id":"4","last_reported":1700323648,"current_range_meters":9200,"station_id":"","pricing_plan_id":"free"},{"bike_id":"e145a3f7-00ac-4f8f-bfe5-435bc38ccaf7","system_id":"levelo_inurba_marseille","lat":43.293801,"lon":5.363066,"is_reserved":false,"is_disabled":false,"rental_uris":{"android":"levelo://app?vid=e145a3f7-00ac-4f8f-bfe5-435bc38ccaf7","ios":"levelo://app?vid=e145a3f7-00ac-4f8f-bfe5-435bc38ccaf7"},"vehicle_type_id":"4","last_reported":1700323648,"current_range_meters":27200,"station_id":"","pricing_plan_id":"free"},{"bike_id":"dae44dcc-69ea-4165-b0a2-6ff7e39ae83d","system_id":"levelo_inurba_marseille","lat":43.29275,"lon":5.36839,"is_reserved":false,"is_disabled":false,"rental_uris":{"android":"levelo://app?vid=dae44dcc-69ea-4165-b0a2-6ff7e39ae83d","ios":"levelo://app?vid=dae44dcc-69ea-4165-b0a2-6ff7e39ae83d"},"vehicle_type_id":"4","last_reported":1700323648,"current_range_meters":31200,"station_id":"ce4bhbp2rcd13ifvqesg","pricing_plan_id":"free"},{"bike_id":"7c49749d-4c74-4af0-a55d-dc1d5a32baf3","system_id":"levelo_inurba_marseille","lat":43.292749,"lon":5.368402,"is_reserved":false,"is_disabled":false,"rental_uris":{"android":"levelo://app?vid=7c49749d-4c74-4af0-a55d-dc1d5a32baf3","ios":"levelo://app?vid=7c49749d-4c74-4af0-a55d-dc1d5a32baf3"},"vehicle_type_id":"4","last_reported":1700323648,"current_range_meters":0,"station_id":"ce4bhbp2rcd13ifvqesg","pricing_plan_id":"free"},{"bike_id":"4fe2211d-52c7-4966-81bb-e96a9748f284","system_id":"levelo_inurba_marseille","lat":43.3031,"lon":5.39217,"is_reserved":false,"is_disabled":false,"rental_uris":{"android":"levelo://app?vid=4fe2211d-52c7-4966-81bb-e96a9748f284","ios":"levelo://app?vid=4fe2211d-52c7-4966-81bb-e96a9748f284"},"vehicle_type_id":"4","last_reported":1700323648,"current_range_meters":0,"station_id":"ce4bgkh2rcd13ifvqbk0","pricing_plan_id":"free"},{"bike_id":"6788e918-c385-4f24-af5a-6b23fb0ff898","system_id":"levelo_inurba_marseille","lat":43.302992,"lon":5.392136,"is_reserved":false,"is_disabled":false,"rental_uris":{"android":"levelo://app?vid=6788e918-c385-4f24-af5a-6b23fb0ff898","ios":"levelo://app?vid=6788e918-c385-4f24-af5a-6b23fb0ff898"},"vehicle_type_id":"4","last_reported":1700323648,"current_range_meters":1600,"station_id":"ce4bgkh2rcd13ifvqbk0","pricing_plan_id":"free"},{"bike_id":"4eef38cc-64cf-4f4d-8d5b-99bd9d3b1b37","system_id":"levelo_inurba_marseille","lat":43.291675,"lon":5.371583,"is_reserved":false,"is_disabled":false,"rental_uris":{"android":"levelo://app?vid=4eef38cc-64cf-4f4d-8d5b-99bd9d3b1b37","ios":"levelo://app?vid=4eef38cc-64cf-4f4d-8d5b-99bd9d3b1b37"},"vehicle_type_id":"4","last_reported":1700323648,"current_range_meters":26400,"station_id":"ce4bha92rcd13ifvqeh0","pricing_plan_id":"free"},{"bike_id":"3797ce86-5e77-4a81-93ee-6dbd8ab8cde4","system_id":"levelo_inurba_marseille","lat":43.29175,"lon":5.37143,"is_reserved":false,"is_disabled":false,"rental_uris":{"android":"levelo://app?vid=3797ce86-5e77-4a81-93ee-6dbd8ab8cde4","ios":"levelo://app?vid=3797ce86-5e77-4a81-93ee-6dbd8ab8cde4"},"vehicle_type_id":"4","last_reported":1700323648,"current_range_meters":17200,"station_id":"ce4bha92rcd13ifvqeh0","pricing_plan_id":"free"},{"bike_id":"bd690556-966f-4325-a238-029dc5ea8197","system_id":"levelo_inurba_marseille","lat":43.2916,"lon":5.37169,"is_reserved":false,"is_disabled":false,"rental_uris":{"android":"levelo://app?vid=bd690556-966f-4325-a238-029dc5ea8197","ios":"levelo://app?vid=bd690556-966f-4325-a238-029dc5ea8197"},"vehicle_type_id":"4","last_reported":1700323648,"current_range_meters":0,"station_id":"ce4bha92rcd13ifvqeh0","pricing_plan_id":"free"},{"bike_id":"f81cc850-aec1-4119-94c7-407e9771cff0","system_id":"levelo_inurba_marseille","lat":43.309038,"lon":5.396546,"is_reserved":false,"is_disabled":false,"rental_uris":{"android":"levelo://app?vid=f81cc850-aec1-4119-94c7-407e9771cff0","ios":"levelo://app?vid=f81cc850-aec1-4119-94c7-407e9771cff0"},"vehicle_type_id":"4","last_reported":1700323648,"current_range_meters":0,"station_id":"ce4bh012rcd13ifvqcv0","pricing_plan_id":"free"},{"bike_id":"779e59d2-ae89-424c-a893-c6fb7ff09e03","system_id":"levelo_inurba_marseille","lat":43.29194,"lon":5.35797,"is_reserved":false,"is_disabled":false,"rental_uris":{"android":"levelo://app?vid=779e59d2-ae89-424c-a893-c6fb7ff09e03","ios":"levelo://app?vid=779e59d2-ae89-424c-a893-c6fb7ff09e03"},"vehicle_type_id":"4","last_reported":1700323648,"current_range_meters":31200,"station_id":"","pricing_plan_id":"free"},{"bike_id":"b4d71117-9819-41d5-81b5-34d71b83ca1d","system_id":"levelo_inurba_marseille","lat":43.313291,"lon":5.396838,"is_reserved":false,"is_disabled":false,"rental_uris":{"android":"levelo://app?vid=b4d71117-9819-41d5-81b5-34d71b83ca1d","ios":"levelo://app?vid=b4d71117-9819-41d5-81b5-34d71b83ca1d"},"vehicle_type_id":"4","last_reported":1700323648,"current_range_meters":0,"station_id":"ce4bgvp2rcd13ifvqcu0","pricing_plan_id":"free"},{"bike_id":"9666e8a1-9ea0-4a4e-a32e-fedb59e1042d","system_id":"levelo_inurba_marseille","lat":43.291994,"lon":5.357886,"is_reserved":false,"is_disabled":false,"rental_uris":{"android":"levelo://app?vid=9666e8a1-9ea0-4a4e-a32e-fedb59e1042d","ios":"levelo://app?vid=9666e8a1-9ea0-4a4e-a32e-fedb59e1042d"},"vehicle_type_id":"4","last_reported":1700323648,"current_range_meters":0,"station_id":"ce4bhb12rcd13ifvqel0","pricing_plan_id":"free"},{"bike_id":"d78d446c-f5ed-49a1-b280-7eebd5f23792","system_id":"levelo_inurba_marseille","lat":43.29529,"lon":5.385581,"is_reserved":false,"is_disabled":false,"rental_uris":{"android":"levelo://app?vid=d78d446c-f5ed-49a1-b280-7eebd5f23792","ios":"levelo://app?vid=d78d446c-f5ed-49a1-b280-7eebd5f23792"},"vehicle_type_id":"4","last_reported":1700323648,"current_range_meters":1200,"station_id":"ce4bgih2rcd13ifvqba0","pricing_plan_id":"free"},{"bike_id":"e1cfe02e-77f8-4808-b6f0-8614667fe91e","system_id":"levelo_inurba_marseille","lat":43.29529,"lon":5.385581,"is_reserved":false,"is_disabled":false,"rental_uris":{"android":"levelo://app?vid=e1cfe02e-77f8-4808-b6f0-8614667fe91e","ios":"levelo://app?vid=e1cfe02e-77f8-4808-b6f0-8614667fe91e"},"vehicle_type_id":"4","last_reported":1700323648,"current_range_meters":0,"station_id":"ce4bgih2rcd13ifvqba0","pricing_plan_id":"free"},{"bike_id":"a8b84d8d-caef-46c0-bad3-c6bc757b561b","system_id":"levelo_inurba_marseille","lat":43.304274,"lon":5.388873,"is_reserved":false,"is_disabled":false,"rental_uris":{"android":"levelo://app?vid=a8b84d8d-caef-46c0-bad3-c6bc757b561b","ios":"levelo://app?vid=a8b84d8d-caef-46c0-bad3-c6bc757b561b"},"vehicle_type_id":"4","last_reported":1700323648,"current_range_meters":4000,"station_id":"ce4bgk12rcd13ifvqbi0","pricing_plan_id":"free"},{"bike_id":"77d9e37e-5cba-4ff6-b090-bc6147194eba","system_id":"levelo_inurba_marseille","lat":43.302008,"lon":5.394694,"is_reserved":false,"is_disabled":false,"rental_uris":{"android":"levelo://app?vid=77d9e37e-5cba-4ff6-b090-bc6147194eba","ios":"levelo://app?vid=77d9e37e-5cba-4ff6-b090-bc6147194eba"},"vehicle_type_id":"4","last_reported":1700323648,"current_range_meters":1200,"station_id":"ce4bh0p2rcd13ifvqd70","pricing_plan_id":"free"},{"bike_id":"65845c99-3470-4249-8eef-10830705cb1b","system_id":"levelo_inurba_marseille","lat":43.290624,"lon":5.359245,"is_reserved":false,"is_disabled":false,"rental_uris":{"android":"levelo://app?vid=65845c99-3470-4249-8eef-10830705cb1b","ios":"levelo://app?vid=65845c99-3470-4249-8eef-10830705cb1b"},"vehicle_type_id":"4","last_reported":1700323648,"current_range_meters":31200,"station_id":"ce4bha92rcd13ifvqeg0","pricing_plan_id":"free"},{"bike_id":"fdd639be-581c-4764-b318-e06ead30ac16","system_id":"levelo_inurba_marseille","lat":43.292644,"lon":5.384257,"is_reserved":false,"is_disabled":false,"rental_uris":{"android":"levelo://app?vid=fdd639be-581c-4764-b318-e06ead30ac16","ios":"levelo://app?vid=fdd639be-581c-4764-b318-e06ead30ac16"},"vehicle_type_id":"4","last_reported":1700323648,"current_range_meters":3600,"station_id":"ce4bh692rcd13ifvqea0","pricing_plan_id":"free"},{"bike_id":"157f03ac-0d3a-45c2-810c-a796bf617993","system_id":"levelo_inurba_marseille","lat":43.292642,"lon":5.384254,"is_reserved":false,"is_disabled":false,"rental_uris":{"android":"levelo://app?vid=157f03ac-0d3a-45c2-810c-a796bf617993","ios":"levelo://app?vid=157f03ac-0d3a-45c2-810c-a796bf617993"},"vehicle_type_id":"4","last_reported":1700323648,"current_range_meters":3200,"station_id":"ce4bh692rcd13ifvqea0","pricing_plan_id":"free"},{"bike_id":"f867bbdc-3677-47f3-bcf0-694f7a5e86f4","system_id":"levelo_inurba_marseille","lat":43.290113,"lon":5.356073,"is_reserved":false,"is_disabled":false,"rental_uris":{"android":"levelo://app?vid=f867bbdc-3677-47f3-bcf0-694f7a5e86f4","ios":"levelo://app?vid=f867bbdc-3677-47f3-bcf0-694f7a5e86f4"},"vehicle_type_id":"4","last_reported":1700323648,"current_range_meters":0,"station_id":"ce4bhb92rcd13ifvqen0","pricing_plan_id":"free"},{"bike_id":"72431e60-f15e-49c3-a86d-32a7d914ba14","system_id":"levelo_inurba_marseille","lat":43.307385,"lon":5.39976,"is_reserved":false,"is_disabled":false,"rental_uris":{"android":"levelo://app?vid=72431e60-f15e-49c3-a86d-32a7d914ba14","ios":"levelo://app?vid=72431e60-f15e-49c3-a86d-32a7d914ba14"},"vehicle_type_id":"4","last_reported":1700323648,"current_range_meters":20400,"station_id":"","pricing_plan_id":"free"},{"bike_id":"07202f70-50d7-46f0-a5bd-59712659d6a0","system_id":"levelo_inurba_marseille","lat":43.31251,"lon":5.40162,"is_reserved":false,"is_disabled":false,"rental_uris":{"android":"levelo://app?vid=07202f70-50d7-46f0-a5bd-59712659d6a0","ios":"levelo://app?vid=07202f70-50d7-46f0-a5bd-59712659d6a0"},"vehicle_type_id":"4","last_reported":1700323648,"current_range_meters":14400,"station_id":"","pricing_plan_id":"free"},{"bike_id":"86e0791a-b9b9-414d-8fbe-b3dcafe00767","system_id":"levelo_inurba_marseille","lat":43.301117,"lon":5.398795,"is_reserved":false,"is_disabled":false,"rental_uris":{"android":"levelo://app?vid=86e0791a-b9b9-414d-8fbe-b3dcafe00767","ios":"levelo://app?vid=86e0791a-b9b9-414d-8fbe-b3dcafe00767"},"vehicle_type_id":"4","last_reported":1700323648,"current_range_meters":7200,"station_id":"ce4bh0h2rcd13ifvqd40","pricing_plan_id":"free"},{"bike_id":"c79efd10-4634-4060-b63c-f94ce7d075d8","system_id":"levelo_inurba_marseille","lat":43.301117,"lon":5.398795,"is_reserved":false,"is_disabled":false,"rental_uris":{"android":"levelo://app?vid=c79efd10-4634-4060-b63c-f94ce7d075d8","ios":"levelo://app?vid=c79efd10-4634-4060-b63c-f94ce7d075d8"},"vehicle_type_id":"4","last_reported":1700323648,"current_range_meters":14000,"station_id":"ce4bh0h2rcd13ifvqd40","pricing_plan_id":"free"},{"bike_id":"4c98682d-1773-495f-95f8-51c777012826","system_id":"levelo_inurba_marseille","lat":43.286593,"lon":5.363346,"is_reserved":false,"is_disabled":false,"rental_uris":{"android":"levelo://app?vid=4c98682d-1773-495f-95f8-51c777012826","ios":"levelo://app?vid=4c98682d-1773-495f-95f8-51c777012826"},"vehicle_type_id":"4","last_reported":1700323648,"current_range_meters":5600,"station_id":"ce4bhah2rcd13ifvqej0","pricing_plan_id":"free"},{"bike_id":"0b46b1b4-f42b-4e67-9aef-2797da64a2b5","system_id":"levelo_inurba_marseille","lat":43.331303,"lon":5.39692,"is_reserved":false,"is_disabled":false,"rental_uris":{"android":"levelo://app?vid=0b46b1b4-f42b-4e67-9aef-2797da64a2b5","ios":"levelo://app?vid=0b46b1b4-f42b-4e67-9aef-2797da64a2b5"},"vehicle_type_id":"4","last_reported":1700323648,"current_range_meters":18400,"station_id":"","pricing_plan_id":"free"},{"bike_id":"214b8b0d-99db-4fa0-960a-add03137458a","system_id":"levelo_inurba_marseille","lat":43.284534,"lon":5.358662,"is_reserved":false,"is_disabled":false,"rental_uris":{"android":"levelo://app?vid=214b8b0d-99db-4fa0-960a-add03137458a","ios":"levelo://app?vid=214b8b0d-99db-4fa0-960a-add03137458a"},"vehicle_type_id":"4","last_reported":1700323648,"current_range_meters":20400,"station_id":"ce4bhah2rcd13ifvqei0","pricing_plan_id":"free"},{"bike_id":"5ad3762e-98c7-4713-b667-13446714c1da","system_id":"levelo_inurba_marseille","lat":43.28613,"lon":5.35106,"is_reserved":false,"is_disabled":false,"rental_uris":{"android":"levelo://app?vid=5ad3762e-98c7-4713-b667-13446714c1da","ios":"levelo://app?vid=5ad3762e-98c7-4713-b667-13446714c1da"},"vehicle_type_id":"4","last_reported":1700323648,"current_range_meters":25600,"station_id":"ce4bhch2rcd13ifvqeug","pricing_plan_id":"free"},{"bike_id":"d94dfb15-e572-4e59-af3c-ee7cbd62cef5","system_id":"levelo_inurba_marseille","lat":43.295717,"lon":5.399697,"is_reserved":false,"is_disabled":false,"rental_uris":{"android":"levelo://app?vid=d94dfb15-e572-4e59-af3c-ee7cbd62cef5","ios":"levelo://app?vid=d94dfb15-e572-4e59-af3c-ee7cbd62cef5"},"vehicle_type_id":"4","last_reported":1700323648,"current_range_meters":13600,"station_id":"","pricing_plan_id":"free"},{"bike_id":"83817918-40fc-48a0-b4d2-4ca9f198594c","system_id":"levelo_inurba_marseille","lat":43.294538,"lon":5.39855,"is_reserved":false,"is_disabled":false,"rental_uris":{"android":"levelo://app?vid=83817918-40fc-48a0-b4d2-4ca9f198594c","ios":"levelo://app?vid=83817918-40fc-48a0-b4d2-4ca9f198594c"},"vehicle_type_id":"4","last_reported":1700323648,"current_range_meters":0,"station_id":"","pricing_plan_id":"free"},{"bike_id":"e758fe1f-a997-4b30-b9eb-7e6cd09e79a2","system_id":"levelo_inurba_marseille","lat":43.286595,"lon":5.386795,"is_reserved":false,"is_disabled":false,"rental_uris":{"android":"levelo://app?vid=e758fe1f-a997-4b30-b9eb-7e6cd09e79a2","ios":"levelo://app?vid=e758fe1f-a997-4b30-b9eb-7e6cd09e79a2"},"vehicle_type_id":"4","last_reported":1700323648,"current_range_meters":0,"station_id":"ce4bh492rcd13ifvqdug","pricing_plan_id":"free"},{"bike_id":"5974ad3b-da81-42ca-a08b-1b3632a47afa","system_id":"levelo_inurba_marseille","lat":43.33237,"lon":5.3985,"is_reserved":false,"is_disabled":false,"rental_uris":{"android":"levelo://app?vid=5974ad3b-da81-42ca-a08b-1b3632a47afa","ios":"levelo://app?vid=5974ad3b-da81-42ca-a08b-1b3632a47afa"},"vehicle_type_id":"4","last_reported":1700323648,"current_range_meters":4800,"station_id":"","pricing_plan_id":"free"},{"bike_id":"bcd544fe-f6b8-4315-8545-b2a251e7dd2d","system_id":"levelo_inurba_marseille","lat":43.284793,"lon":5.384119,"is_reserved":false,"is_disabled":false,"rental_uris":{"android":"levelo://app?vid=bcd544fe-f6b8-4315-8545-b2a251e7dd2d","ios":"levelo://app?vid=bcd544fe-f6b8-4315-8545-b2a251e7dd2d"},"vehicle_type_id":"4","last_reported":1700323648,"current_range_meters":0,"station_id":"ce4bh512rcd13ifvqe3g","pricing_plan_id":"free"},{"bike_id":"0fd7b4be-7126-40a2-873c-e229a07dbf20","system_id":"levelo_inurba_marseille","lat":43.297946,"lon":5.404063,"is_reserved":false,"is_disabled":false,"rental_uris":{"android":"levelo://app?vid=0fd7b4be-7126-40a2-873c-e229a07dbf20","ios":"levelo://app?vid=0fd7b4be-7126-40a2-873c-e229a07dbf20"},"vehicle_type_id":"4","last_reported":1700323648,"current_range_meters":2000,"station_id":"ce4bh112rcd13ifvqd90","pricing_plan_id":"free"},{"bike_id":"d3dd3e3d-57b0-4c9e-949f-fddd56c2349c","system_id":"levelo_inurba_marseille","lat":43.32521,"lon":5.40575,"is_reserved":false,"is_disabled":false,"rental_uris":{"android":"levelo://app?vid=d3dd3e3d-57b0-4c9e-949f-fddd56c2349c","ios":"levelo://app?vid=d3dd3e3d-57b0-4c9e-949f-fddd56c2349c"},"vehicle_type_id":"4","last_reported":1700323648,"current_range_meters":2000,"station_id":"","pricing_plan_id":"free"},{"bike_id":"0924baff-f88c-40ff-b08a-6543928f9726","system_id":"levelo_inurba_marseille","lat":43.288501,"lon":5.393087,"is_reserved":false,"is_disabled":false,"rental_uris":{"android":"levelo://app?vid=0924baff-f88c-40ff-b08a-6543928f9726","ios":"levelo://app?vid=0924baff-f88c-40ff-b08a-6543928f9726"},"vehicle_type_id":"4","last_reported":1700323648,"current_range_meters":0,"station_id":"ce4bh2p2rcd13ifvqdi0","pricing_plan_id":"free"},{"bike_id":"a4cb1f63-6008-495f-bb0f-9b85ad588a2a","system_id":"levelo_inurba_marseille","lat":43.288501,"lon":5.393087,"is_reserved":false,"is_disabled":false,"rental_uris":{"android":"levelo://app?vid=a4cb1f63-6008-495f-bb0f-9b85ad588a2a","ios":"levelo://app?vid=a4cb1f63-6008-495f-bb0f-9b85ad588a2a"},"vehicle_type_id":"4","last_reported":1700323648,"current_range_meters":4000,"station_id":"ce4bh2p2rcd13ifvqdi0","pricing_plan_id":"free"},{"bike_id":"446af31d-463e-4fdb-8f54-322b158aa649","system_id":"levelo_inurba_marseille","lat":43.28347,"lon":5.38103,"is_reserved":false,"is_disabled":false,"rental_uris":{"android":"levelo://app?vid=446af31d-463e-4fdb-8f54-322b158aa649","ios":"levelo://app?vid=446af31d-463e-4fdb-8f54-322b158aa649"},"vehicle_type_id":"4","last_reported":1700323648,"current_range_meters":29600,"station_id":"ce4bh412rcd13ifvqdr0","pricing_plan_id":"free"},{"bike_id":"4dca4d8d-0165-4dc8-9ad1-28e97278d7e0","system_id":"levelo_inurba_marseille","lat":43.283494,"lon":5.380945,"is_reserved":false,"is_disabled":false,"rental_uris":{"android":"levelo://app?vid=4dca4d8d-0165-4dc8-9ad1-28e97278d7e0","ios":"levelo://app?vid=4dca4d8d-0165-4dc8-9ad1-28e97278d7e0"},"vehicle_type_id":"4","last_reported":1700323648,"current_range_meters":12000,"station_id":"ce4bh412rcd13ifvqdr0","pricing_plan_id":"free"},{"bike_id":"b05fe590-4607-4146-aee1-c2075e6d7ddf","system_id":"levelo_inurba_marseille","lat":43.284219,"lon":5.3497,"is_reserved":false,"is_disabled":false,"rental_uris":{"android":"levelo://app?vid=b05fe590-4607-4146-aee1-c2075e6d7ddf","ios":"levelo://app?vid=b05fe590-4607-4146-aee1-c2075e6d7ddf"},"vehicle_type_id":"4","last_reported":1700323648,"current_range_meters":31200,"station_id":"ce4bhbh2rcd13ifvqepg","pricing_plan_id":"free"},{"bike_id":"ccf9b17e-2fb6-47d5-b5cb-73ea08fcb6e5","system_id":"levelo_inurba_marseille","lat":43.28575,"lon":5.39498,"is_reserved":false,"is_disabled":false,"rental_uris":{"android":"levelo://app?vid=ccf9b17e-2fb6-47d5-b5cb-73ea08fcb6e5","ios":"levelo://app?vid=ccf9b17e-2fb6-47d5-b5cb-73ea08fcb6e5"},"vehicle_type_id":"4","last_reported":1700323648,"current_range_meters":400,"station_id":"ce4bh292rcd13ifvqdg0","pricing_plan_id":"free"},{"bike_id":"3ddc7b7f-a7ff-451c-bbba-65bcd0bcd45d","system_id":"levelo_inurba_marseille","lat":43.28573,"lon":5.394992,"is_reserved":false,"is_disabled":false,"rental_uris":{"android":"levelo://app?vid=3ddc7b7f-a7ff-451c-bbba-65bcd0bcd45d","ios":"levelo://app?vid=3ddc7b7f-a7ff-451c-bbba-65bcd0bcd45d"},"vehicle_type_id":"4","last_reported":1700323648,"current_range_meters":6800,"station_id":"ce4bh292rcd13ifvqdg0","pricing_plan_id":"free"},{"bike_id":"8e9cebcc-1987-4348-87cf-10365cf07425","system_id":"levelo_inurba_marseille","lat":43.28077,"lon":5.38712,"is_reserved":false,"is_disabled":false,"rental_uris":{"android":"levelo://app?vid=8e9cebcc-1987-4348-87cf-10365cf07425","ios":"levelo://app?vid=8e9cebcc-1987-4348-87cf-10365cf07425"},"vehicle_type_id":"4","last_reported":1700323648,"current_range_meters":3200,"station_id":"","pricing_plan_id":"free"},{"bike_id":"feca28d2-7019-4e39-96be-d7938cc29597","system_id":"levelo_inurba_marseille","lat":43.32435,"lon":5.4137,"is_reserved":false,"is_disabled":false,"rental_uris":{"android":"levelo://app?vid=feca28d2-7019-4e39-96be-d7938cc29597","ios":"levelo://app?vid=feca28d2-7019-4e39-96be-d7938cc29597"},"vehicle_type_id":"4","last_reported":1700323648,"current_range_meters":0,"station_id":"","pricing_plan_id":"free"},{"bike_id":"69fb2cd3-8df2-49eb-aa81-81b1fcec5541","system_id":"levelo_inurba_marseille","lat":43.320045,"lon":5.415046,"is_reserved":false,"is_disabled":false,"rental_uris":{"android":"levelo://app?vid=69fb2cd3-8df2-49eb-aa81-81b1fcec5541","ios":"levelo://app?vid=69fb2cd3-8df2-49eb-aa81-81b1fcec5541"},"vehicle_type_id":"4","last_reported":1700323648,"current_range_meters":19600,"station_id":"ce4bhq92rcd13ifvqhkg","pricing_plan_id":"free"},{"bike_id":"9fb12d83-3a9f-4fd8-86f7-390f6145cf02","system_id":"levelo_inurba_marseille","lat":43.292569,"lon":5.409107,"is_reserved":false,"is_disabled":false,"rental_uris":{"android":"levelo://app?vid=9fb12d83-3a9f-4fd8-86f7-390f6145cf02","ios":"levelo://app?vid=9fb12d83-3a9f-4fd8-86f7-390f6145cf02"},"vehicle_type_id":"4","last_reported":1700323648,"current_range_meters":2000,"station_id":"ce4bh192rcd13ifvqdc0","pricing_plan_id":"free"},{"bike_id":"ce72723e-7be3-4c53-9393-21f7dffb67b1","system_id":"levelo_inurba_marseille","lat":43.292569,"lon":5.409107,"is_reserved":false,"is_disabled":false,"rental_uris":{"android":"levelo://app?vid=ce72723e-7be3-4c53-9393-21f7dffb67b1","ios":"levelo://app?vid=ce72723e-7be3-4c53-9393-21f7dffb67b1"},"vehicle_type_id":"4","last_reported":1700323648,"current_range_meters":18400,"station_id":"ce4bh192rcd13ifvqdc0","pricing_plan_id":"free"},{"bike_id":"1c131805-f10e-44c5-8b42-4f00292bcd46","system_id":"levelo_inurba_marseille","lat":43.280784,"lon":5.396622,"is_reserved":false,"is_disabled":false,"rental_uris":{"android":"levelo://app?vid=1c131805-f10e-44c5-8b42-4f00292bcd46","ios":"levelo://app?vid=1c131805-f10e-44c5-8b42-4f00292bcd46"},"vehicle_type_id":"4","last_reported":1700323648,"current_range_meters":30400,"station_id":"ce4bho12rcd13ifvqh2g","pricing_plan_id":"free"},{"bike_id":"092b42a2-b132-4e78-86a9-3e9c3149681e","system_id":"levelo_inurba_marseille","lat":43.275625,"lon":5.384392,"is_reserved":false,"is_disabled":false,"rental_uris":{"android":"levelo://app?vid=092b42a2-b132-4e78-86a9-3e9c3149681e","ios":"levelo://app?vid=092b42a2-b132-4e78-86a9-3e9c3149681e"},"vehicle_type_id":"4","last_reported":1700323648,"current_range_meters":23600,"station_id":"ce4bhh92rcd13ifvqfi0","pricing_plan_id":"free"},{"bike_id":"abe1834f-b9b3-4281-b760-4aa0f16a0aeb","system_id":"levelo_inurba_marseille","lat":43.336134,"lon":5.410341,"is_reserved":false,"is_disabled":false,"rental_uris":{"android":"levelo://app?vid=abe1834f-b9b3-4281-b760-4aa0f16a0aeb","ios":"levelo://app?vid=abe1834f-b9b3-4281-b760-4aa0f16a0aeb"},"vehicle_type_id":"4","last_reported":1700323648,"current_range_meters":20000,"station_id":"ce4bhqh2rcd13ifvqhmg","pricing_plan_id":"free"},{"bike_id":"e7b8116b-58de-462b-a330-18bfcf8d2ed9","system_id":"levelo_inurba_marseille","lat":43.279952,"lon":5.400085,"is_reserved":false,"is_disabled":false,"rental_uris":{"android":"levelo://app?vid=e7b8116b-58de-462b-a330-18bfcf8d2ed9","ios":"levelo://app?vid=e7b8116b-58de-462b-a330-18bfcf8d2ed9"},"vehicle_type_id":"4","last_reported":1700323648,"current_range_meters":16000,"station_id":"ce4bho92rcd13ifvqh4g","pricing_plan_id":"free"},{"bike_id":"18d269e8-2e40-4f1f-8cc3-732ff54d70ea","system_id":"levelo_inurba_marseille","lat":43.27998,"lon":5.40011,"is_reserved":false,"is_disabled":false,"rental_uris":{"android":"levelo://app?vid=18d269e8-2e40-4f1f-8cc3-732ff54d70ea","ios":"levelo://app?vid=18d269e8-2e40-4f1f-8cc3-732ff54d70ea"},"vehicle_type_id":"4","last_reported":1700323648,"current_range_meters":6000,"station_id":"ce4bho92rcd13ifvqh4g","pricing_plan_id":"free"},{"bike_id":"21a79381-c590-43fa-b57c-d9f763a4b9f0","system_id":"levelo_inurba_marseille","lat":43.279952,"lon":5.400085,"is_reserved":false,"is_disabled":false,"rental_uris":{"android":"levelo://app?vid=21a79381-c590-43fa-b57c-d9f763a4b9f0","ios":"levelo://app?vid=21a79381-c590-43fa-b57c-d9f763a4b9f0"},"vehicle_type_id":"4","last_reported":1700323648,"current_range_meters":31200,"station_id":"ce4bho92rcd13ifvqh4g","pricing_plan_id":"free"},{"bike_id":"1c489e8f-9c52-4563-a1a2-18535a1743aa","system_id":"levelo_inurba_marseille","lat":43.27995,"lon":5.40015,"is_reserved":false,"is_disabled":false,"rental_uris":{"android":"levelo://app?vid=1c489e8f-9c52-4563-a1a2-18535a1743aa","ios":"levelo://app?vid=1c489e8f-9c52-4563-a1a2-18535a1743aa"},"vehicle_type_id":"4","last_reported":1700323648,"current_range_meters":20400,"station_id":"ce4bho92rcd13ifvqh4g","pricing_plan_id":"free"},{"bike_id":"ef1c6620-0330-4606-96e5-6c5e1567f762","system_id":"levelo_inurba_marseille","lat":43.279952,"lon":5.400085,"is_reserved":false,"is_disabled":false,"rental_uris":{"android":"levelo://app?vid=ef1c6620-0330-4606-96e5-6c5e1567f762","ios":"levelo://app?vid=ef1c6620-0330-4606-96e5-6c5e1567f762"},"vehicle_type_id":"4","last_reported":1700323648,"current_range_meters":27600,"station_id":"ce4bho92rcd13ifvqh4g","pricing_plan_id":"free"},{"bike_id":"2eb9c8ea-eafc-4114-96e5-18995d764647","system_id":"levelo_inurba_marseille","lat":43.31083,"lon":5.4243,"is_reserved":false,"is_disabled":false,"rental_uris":{"android":"levelo://app?vid=2eb9c8ea-eafc-4114-96e5-18995d764647","ios":"levelo://app?vid=2eb9c8ea-eafc-4114-96e5-18995d764647"},"vehicle_type_id":"4","last_reported":1700323648,"current_range_meters":27200,"station_id":"ce4bhp92rcd13ifvqhag","pricing_plan_id":"free"},{"bike_id":"1f675464-1fc9-4eb9-949d-be8a1f26b9d4","system_id":"levelo_inurba_marseille","lat":43.31082,"lon":5.42432,"is_reserved":false,"is_disabled":false,"rental_uris":{"android":"levelo://app?vid=1f675464-1fc9-4eb9-949d-be8a1f26b9d4","ios":"levelo://app?vid=1f675464-1fc9-4eb9-949d-be8a1f26b9d4"},"vehicle_type_id":"4","last_reported":1700323648,"current_range_meters":29200,"station_id":"ce4bhp92rcd13ifvqhag","pricing_plan_id":"free"},{"bike_id":"3a7b98b9-7ee6-4352-b93c-93a226bec689","system_id":"levelo_inurba_marseille","lat":43.27782,"lon":5.39935,"is_reserved":false,"is_disabled":false,"rental_uris":{"android":"levelo://app?vid=3a7b98b9-7ee6-4352-b93c-93a226bec689","ios":"levelo://app?vid=3a7b98b9-7ee6-4352-b93c-93a226bec689"},"vehicle_type_id":"4","last_reported":1700323648,"current_range_meters":0,"station_id":"","pricing_plan_id":"free"},{"bike_id":"05e7cea8-afa1-4b13-939a-a9ef8d5ee9c9","system_id":"levelo_inurba_marseille","lat":43.27332,"lon":5.39068,"is_reserved":false,"is_disabled":false,"rental_uris":{"android":"levelo://app?vid=05e7cea8-afa1-4b13-939a-a9ef8d5ee9c9","ios":"levelo://app?vid=05e7cea8-afa1-4b13-939a-a9ef8d5ee9c9"},"vehicle_type_id":"4","last_reported":1700323648,"current_range_meters":20400,"station_id":"ce4bhgp2rcd13ifvqfe0","pricing_plan_id":"free"},{"bike_id":"2e2db063-a66a-4035-9fea-afc9797d1abd","system_id":"levelo_inurba_marseille","lat":43.273125,"lon":5.390731,"is_reserved":false,"is_disabled":false,"rental_uris":{"android":"levelo://app?vid=2e2db063-a66a-4035-9fea-afc9797d1abd","ios":"levelo://app?vid=2e2db063-a66a-4035-9fea-afc9797d1abd"},"vehicle_type_id":"4","last_reported":1700323648,"current_range_meters":5200,"station_id":"ce4bhgp2rcd13ifvqfe0","pricing_plan_id":"free"},{"bike_id":"3451b94e-2e7b-49e3-8823-fd338ca52580","system_id":"levelo_inurba_marseille","lat":43.274103,"lon":5.394016,"is_reserved":false,"is_disabled":false,"rental_uris":{"android":"levelo://app?vid=3451b94e-2e7b-49e3-8823-fd338ca52580","ios":"levelo://app?vid=3451b94e-2e7b-49e3-8823-fd338ca52580"},"vehicle_type_id":"4","last_reported":1700323648,"current_range_meters":13200,"station_id":"ce4bhdp2rcd13ifvqf20","pricing_plan_id":"free"},{"bike_id":"0ff389d8-fe83-4ef4-ac0f-5923bc10eb3e","system_id":"levelo_inurba_marseille","lat":43.273129,"lon":5.390725,"is_reserved":false,"is_disabled":false,"rental_uris":{"android":"levelo://app?vid=0ff389d8-fe83-4ef4-ac0f-5923bc10eb3e","ios":"levelo://app?vid=0ff389d8-fe83-4ef4-ac0f-5923bc10eb3e"},"vehicle_type_id":"4","last_reported":1700323648,"current_range_meters":20800,"station_id":"ce4bhgp2rcd13ifvqfe0","pricing_plan_id":"free"},{"bike_id":"7d1f97b9-ee6c-4ac2-832f-ccde09d82150","system_id":"levelo_inurba_marseille","lat":43.29551,"lon":5.42281,"is_reserved":false,"is_disabled":false,"rental_uris":{"android":"levelo://app?vid=7d1f97b9-ee6c-4ac2-832f-ccde09d82150","ios":"levelo://app?vid=7d1f97b9-ee6c-4ac2-832f-ccde09d82150"},"vehicle_type_id":"4","last_reported":1700323648,"current_range_meters":12000,"station_id":"ce4bhph2rcd13ifvqhdg","pricing_plan_id":"free"},{"bike_id":"8eca73a7-bce3-4b86-a555-f300db5c54bb","system_id":"levelo_inurba_marseille","lat":43.295523,"lon":5.422926,"is_reserved":false,"is_disabled":false,"rental_uris":{"android":"levelo://app?vid=8eca73a7-bce3-4b86-a555-f300db5c54bb","ios":"levelo://app?vid=8eca73a7-bce3-4b86-a555-f300db5c54bb"},"vehicle_type_id":"4","last_reported":1700323648,"current_range_meters":15200,"station_id":"ce4bhph2rcd13ifvqhdg","pricing_plan_id":"free"},{"bike_id":"fff3c005-d696-4583-a396-99635991127b","system_id":"levelo_inurba_marseille","lat":43.295523,"lon":5.422926,"is_reserved":false,"is_disabled":false,"rental_uris":{"android":"levelo://app?vid=fff3c005-d696-4583-a396-99635991127b","ios":"levelo://app?vid=fff3c005-d696-4583-a396-99635991127b"},"vehicle_type_id":"4","last_reported":1700323648,"current_range_meters":20000,"station_id":"ce4bhph2rcd13ifvqhdg","pricing_plan_id":"free"},{"bike_id":"f8f5619a-a183-461d-b100-453fb972fcd4","system_id":"levelo_inurba_marseille","lat":43.272118,"lon":5.391758,"is_reserved":false,"is_disabled":false,"rental_uris":{"android":"levelo://app?vid=f8f5619a-a183-461d-b100-453fb972fcd4","ios":"levelo://app?vid=f8f5619a-a183-461d-b100-453fb972fcd4"},"vehicle_type_id":"4","last_reported":1700323648,"current_range_meters":26800,"station_id":"ce4bhhp2rcd13ifvqfm0","pricing_plan_id":"free"},{"bike_id":"139753b1-0b83-4c3a-80f1-5052bac15461","system_id":"levelo_inurba_marseille","lat":43.2722,"lon":5.39237,"is_reserved":false,"is_disabled":false,"rental_uris":{"android":"levelo://app?vid=139753b1-0b83-4c3a-80f1-5052bac15461","ios":"levelo://app?vid=139753b1-0b83-4c3a-80f1-5052bac15461"},"vehicle_type_id":"4","last_reported":1700323648,"current_range_meters":9200,"station_id":"","pricing_plan_id":"free"},{"bike_id":"fe139271-7817-4645-9ec4-f7eee743e805","system_id":"levelo_inurba_marseille","lat":43.271896,"lon":5.392307,"is_reserved":false,"is_disabled":false,"rental_uris":{"android":"levelo://app?vid=fe139271-7817-4645-9ec4-f7eee743e805","ios":"levelo://app?vid=fe139271-7817-4645-9ec4-f7eee743e805"},"vehicle_type_id":"4","last_reported":1700323648,"current_range_meters":0,"station_id":"ce4bhhp2rcd13ifvqfm0","pricing_plan_id":"free"},{"bike_id":"f0ed4531-078e-42fb-a007-3ed80505eb54","system_id":"levelo_inurba_marseille","lat":43.271891,"lon":5.392412,"is_reserved":false,"is_disabled":false,"rental_uris":{"android":"levelo://app?vid=f0ed4531-078e-42fb-a007-3ed80505eb54","ios":"levelo://app?vid=f0ed4531-078e-42fb-a007-3ed80505eb54"},"vehicle_type_id":"4","last_reported":1700323648,"current_range_meters":6400,"station_id":"","pricing_plan_id":"free"},{"bike_id":"0e572fb0-2157-4848-bbe0-2673277b48dc","system_id":"levelo_inurba_marseille","lat":43.278128,"lon":5.407195,"is_reserved":false,"is_disabled":false,"rental_uris":{"android":"levelo://app?vid=0e572fb0-2157-4848-bbe0-2673277b48dc","ios":"levelo://app?vid=0e572fb0-2157-4848-bbe0-2673277b48dc"},"vehicle_type_id":"4","last_reported":1700323648,"current_range_meters":30400,"station_id":"ce4bhnh2rcd13ifvqgtg","pricing_plan_id":"free"},{"bike_id":"bdbd9aee-c006-4d79-a8df-e4053585127c","system_id":"levelo_inurba_marseille","lat":43.269467,"lon":5.386439,"is_reserved":false,"is_disabled":false,"rental_uris":{"android":"levelo://app?vid=bdbd9aee-c006-4d79-a8df-e4053585127c","ios":"levelo://app?vid=bdbd9aee-c006-4d79-a8df-e4053585127c"},"vehicle_type_id":"4","last_reported":1700323648,"current_range_meters":13200,"station_id":"ce4bhh92rcd13ifvqfh0","pricing_plan_id":"free"},{"bike_id":"462126be-b935-4202-aab0-db26edf447e2","system_id":"levelo_inurba_marseille","lat":43.326111,"lon":5.427105,"is_reserved":false,"is_disabled":false,"rental_uris":{"android":"levelo://app?vid=462126be-b935-4202-aab0-db26edf447e2","ios":"levelo://app?vid=462126be-b935-4202-aab0-db26edf447e2"},"vehicle_type_id":"4","last_reported":1700323648,"current_range_meters":11200,"station_id":"","pricing_plan_id":"free"},{"bike_id":"ea6ce6e0-304c-4ae8-9b07-37e5bf4e10d1","system_id":"levelo_inurba_marseille","lat":43.27946,"lon":5.41051,"is_reserved":false,"is_disabled":false,"rental_uris":{"android":"levelo://app?vid=ea6ce6e0-304c-4ae8-9b07-37e5bf4e10d1","ios":"levelo://app?vid=ea6ce6e0-304c-4ae8-9b07-37e5bf4e10d1"},"vehicle_type_id":"4","last_reported":1700323648,"current_range_meters":29600,"station_id":"ce4bhnp2rcd13ifvqh0g","pricing_plan_id":"free"},{"bike_id":"c36768c3-1072-4af1-8320-8292ffbf1f42","system_id":"levelo_inurba_marseille","lat":43.265714,"lon":5.372891,"is_reserved":false,"is_disabled":false,"rental_uris":{"android":"levelo://app?vid=c36768c3-1072-4af1-8320-8292ffbf1f42","ios":"levelo://app?vid=c36768c3-1072-4af1-8320-8292ffbf1f42"},"vehicle_type_id":"4","last_reported":1700323648,"current_range_meters":30000,"station_id":"ce4bhg12rcd13ifvqf70","pricing_plan_id":"free"},{"bike_id":"381a1fda-04c9-4584-b5b8-284c45bbe522","system_id":"levelo_inurba_marseille","lat":43.26551,"lon":5.372906,"is_reserved":false,"is_disabled":false,"rental_uris":{"android":"levelo://app?vid=381a1fda-04c9-4584-b5b8-284c45bbe522","ios":"levelo://app?vid=381a1fda-04c9-4584-b5b8-284c45bbe522"},"vehicle_type_id":"4","last_reported":1700323648,"current_range_meters":31200,"station_id":"ce4bhg12rcd13ifvqf70","pricing_plan_id":"free"},{"bike_id":"c7758cb2-2a45-4f89-aa5c-0e391d845c76","system_id":"levelo_inurba_marseille","lat":43.326053,"lon":5.429943,"is_reserved":false,"is_disabled":false,"rental_uris":{"android":"levelo://app?vid=c7758cb2-2a45-4f89-aa5c-0e391d845c76","ios":"levelo://app?vid=c7758cb2-2a45-4f89-aa5c-0e391d845c76"},"vehicle_type_id":"4","last_reported":1700323648,"current_range_meters":3600,"station_id":"","pricing_plan_id":"free"},{"bike_id":"42871d3b-8c03-490f-baf1-f4b57c44a331","system_id":"levelo_inurba_marseille","lat":43.326326,"lon":5.430845,"is_reserved":false,"is_disabled":false,"rental_uris":{"android":"levelo://app?vid=42871d3b-8c03-490f-baf1-f4b57c44a331","ios":"levelo://app?vid=42871d3b-8c03-490f-baf1-f4b57c44a331"},"vehicle_type_id":"4","last_reported":1700323648,"current_range_meters":17200,"station_id":"","pricing_plan_id":"free"},{"bike_id":"1fe1c6ed-2ba1-476e-a181-26954fa3da50","system_id":"levelo_inurba_marseille","lat":43.27996,"lon":5.416624,"is_reserved":false,"is_disabled":false,"rental_uris":{"android":"levelo://app?vid=1fe1c6ed-2ba1-476e-a181-26954fa3da50","ios":"levelo://app?vid=1fe1c6ed-2ba1-476e-a181-26954fa3da50"},"vehicle_type_id":"4","last_reported":1700323648,"current_range_meters":27600,"station_id":"ce4bho12rcd13ifvqh1g","pricing_plan_id":"free"},{"bike_id":"feb274bf-2222-4c9a-a323-facb810df282","system_id":"levelo_inurba_marseille","lat":43.265714,"lon":5.372891,"is_reserved":false,"is_disabled":false,"rental_uris":{"android":"levelo://app?vid=feb274bf-2222-4c9a-a323-facb810df282","ios":"levelo://app?vid=feb274bf-2222-4c9a-a323-facb810df282"},"vehicle_type_id":"4","last_reported":1700323648,"current_range_meters":15600,"station_id":"ce4bhg12rcd13ifvqf70","pricing_plan_id":"free"},{"bike_id":"f7590c1c-df45-40f0-bf0b-62ed9689b376","system_id":"levelo_inurba_marseille","lat":43.26569,"lon":5.39007,"is_reserved":false,"is_disabled":false,"rental_uris":{"android":"levelo://app?vid=f7590c1c-df45-40f0-bf0b-62ed9689b376","ios":"levelo://app?vid=f7590c1c-df45-40f0-bf0b-62ed9689b376"},"vehicle_type_id":"4","last_reported":1700323648,"current_range_meters":26400,"station_id":"ce4bhe12rcd13ifvqf30","pricing_plan_id":"free"},{"bike_id":"38611bac-534e-41ce-a432-e4cc344edcf7","system_id":"levelo_inurba_marseille","lat":43.26565,"lon":5.39014,"is_reserved":false,"is_disabled":false,"rental_uris":{"android":"levelo://app?vid=38611bac-534e-41ce-a432-e4cc344edcf7","ios":"levelo://app?vid=38611bac-534e-41ce-a432-e4cc344edcf7"},"vehicle_type_id":"4","last_reported":1700323648,"current_range_meters":17200,"station_id":"ce4bhe12rcd13ifvqf30","pricing_plan_id":"free"},{"bike_id":"b56a6d6f-8d83-4500-8a42-2e819ea77445","system_id":"levelo_inurba_marseille","lat":43.26546,"lon":5.39013,"is_reserved":false,"is_disabled":false,"rental_uris":{"android":"levelo://app?vid=b56a6d6f-8d83-4500-8a42-2e819ea77445","ios":"levelo://app?vid=b56a6d6f-8d83-4500-8a42-2e819ea77445"},"vehicle_type_id":"4","last_reported":1700323648,"current_range_meters":12400,"station_id":"ce4bhe12rcd13ifvqf30","pricing_plan_id":"free"},{"bike_id":"5c9955c0-8303-4a13-bb91-f6ce1376fcdd","system_id":"levelo_inurba_marseille","lat":43.269443,"lon":5.402487,"is_reserved":false,"is_disabled":false,"rental_uris":{"android":"levelo://app?vid=5c9955c0-8303-4a13-bb91-f6ce1376fcdd","ios":"levelo://app?vid=5c9955c0-8303-4a13-bb91-f6ce1376fcdd"},"vehicle_type_id":"4","last_reported":1700323648,"current_range_meters":3600,"station_id":"cjm6bp8fraef2m0cb0m0","pricing_plan_id":"free"},{"bike_id":"b8a01533-1e32-43bc-872c-8b6448cfa087","system_id":"levelo_inurba_marseille","lat":43.26941,"lon":5.40257,"is_reserved":false,"is_disabled":false,"rental_uris":{"android":"levelo://app?vid=b8a01533-1e32-43bc-872c-8b6448cfa087","ios":"levelo://app?vid=b8a01533-1e32-43bc-872c-8b6448cfa087"},"vehicle_type_id":"4","last_reported":1700323648,"current_range_meters":22000,"station_id":"cjm6bp8fraef2m0cb0m0","pricing_plan_id":"free"},{"bike_id":"a8cb9988-1f8b-421d-90f7-5dc0a2a0f0a5","system_id":"levelo_inurba_marseille","lat":43.261782,"lon":5.374515,"is_reserved":false,"is_disabled":false,"rental_uris":{"android":"levelo://app?vid=a8cb9988-1f8b-421d-90f7-5dc0a2a0f0a5","ios":"levelo://app?vid=a8cb9988-1f8b-421d-90f7-5dc0a2a0f0a5"},"vehicle_type_id":"4","last_reported":1700323648,"current_range_meters":18000,"station_id":"ce4bhgp2rcd13ifvqfc0","pricing_plan_id":"free"},{"bike_id":"d077710c-062f-4bb5-bc07-f925193fbbe9","system_id":"levelo_inurba_marseille","lat":43.31711,"lon":5.43706,"is_reserved":false,"is_disabled":false,"rental_uris":{"android":"levelo://app?vid=d077710c-062f-4bb5-bc07-f925193fbbe9","ios":"levelo://app?vid=d077710c-062f-4bb5-bc07-f925193fbbe9"},"vehicle_type_id":"4","last_reported":1700323648,"current_range_meters":6400,"station_id":"ce4bhp92rcd13ifvqhcg","pricing_plan_id":"free"},{"bike_id":"802ce0a4-d556-447b-bd93-4352fcbc5e24","system_id":"levelo_inurba_marseille","lat":43.317104,"lon":5.436818,"is_reserved":false,"is_disabled":false,"rental_uris":{"android":"levelo://app?vid=802ce0a4-d556-447b-bd93-4352fcbc5e24","ios":"levelo://app?vid=802ce0a4-d556-447b-bd93-4352fcbc5e24"},"vehicle_type_id":"4","last_reported":1700323648,"current_range_meters":30800,"station_id":"ce4bhp92rcd13ifvqhcg","pricing_plan_id":"free"},{"bike_id":"784d80d8-896e-47bd-b3d7-848c15221843","system_id":"levelo_inurba_marseille","lat":43.3171,"lon":5.43708,"is_reserved":false,"is_disabled":false,"rental_uris":{"android":"levelo://app?vid=784d80d8-896e-47bd-b3d7-848c15221843","ios":"levelo://app?vid=784d80d8-896e-47bd-b3d7-848c15221843"},"vehicle_type_id":"4","last_reported":1700323648,"current_range_meters":28800,"station_id":"ce4bhp92rcd13ifvqhcg","pricing_plan_id":"free"},{"bike_id":"8b76f50b-f6e2-47f0-a783-08b06ed997ea","system_id":"levelo_inurba_marseille","lat":43.31712,"lon":5.43709,"is_reserved":false,"is_disabled":false,"rental_uris":{"android":"levelo://app?vid=8b76f50b-f6e2-47f0-a783-08b06ed997ea","ios":"levelo://app?vid=8b76f50b-f6e2-47f0-a783-08b06ed997ea"},"vehicle_type_id":"4","last_reported":1700323648,"current_range_meters":4800,"station_id":"ce4bhp92rcd13ifvqhcg","pricing_plan_id":"free"},{"bike_id":"e23a717c-04cd-4d74-a2bb-c661e500bf2d","system_id":"levelo_inurba_marseille","lat":43.26168,"lon":5.374383,"is_reserved":false,"is_disabled":false,"rental_uris":{"android":"levelo://app?vid=e23a717c-04cd-4d74-a2bb-c661e500bf2d","ios":"levelo://app?vid=e23a717c-04cd-4d74-a2bb-c661e500bf2d"},"vehicle_type_id":"4","last_reported":1700323648,"current_range_meters":21600,"station_id":"ce4bhgp2rcd13ifvqfc0","pricing_plan_id":"free"},{"bike_id":"2899c8a7-7478-4ea3-8d7b-5bd3b56a78f3","system_id":"levelo_inurba_marseille","lat":43.262012,"lon":5.379307,"is_reserved":false,"is_disabled":false,"rental_uris":{"android":"levelo://app?vid=2899c8a7-7478-4ea3-8d7b-5bd3b56a78f3","ios":"levelo://app?vid=2899c8a7-7478-4ea3-8d7b-5bd3b56a78f3"},"vehicle_type_id":"4","last_reported":1700323648,"current_range_meters":5200,"station_id":"ce4bhjp2rcd13ifvqg90","pricing_plan_id":"free"},{"bike_id":"555c7a59-3825-4d1d-aa0c-d8563490d9db","system_id":"levelo_inurba_marseille","lat":43.271388,"lon":5.409269,"is_reserved":false,"is_disabled":false,"rental_uris":{"android":"levelo://app?vid=555c7a59-3825-4d1d-aa0c-d8563490d9db","ios":"levelo://app?vid=555c7a59-3825-4d1d-aa0c-d8563490d9db"},"vehicle_type_id":"4","last_reported":1700323648,"current_range_meters":28800,"station_id":"ce4bhl12rcd13ifvqgf0","pricing_plan_id":"free"},{"bike_id":"28ad5698-13b0-4e82-95e5-9812ed7514db","system_id":"levelo_inurba_marseille","lat":43.267959,"lon":5.402687,"is_reserved":false,"is_disabled":false,"rental_uris":{"android":"levelo://app?vid=28ad5698-13b0-4e82-95e5-9812ed7514db","ios":"levelo://app?vid=28ad5698-13b0-4e82-95e5-9812ed7514db"},"vehicle_type_id":"4","last_reported":1700323648,"current_range_meters":23600,"station_id":"ce501612rcd8frsf0b60","pricing_plan_id":"free"},{"bike_id":"74ce853b-0d8b-42c9-81c8-17a7564a4b34","system_id":"levelo_inurba_marseille","lat":43.31725,"lon":5.43786,"is_reserved":false,"is_disabled":false,"rental_uris":{"android":"levelo://app?vid=74ce853b-0d8b-42c9-81c8-17a7564a4b34","ios":"levelo://app?vid=74ce853b-0d8b-42c9-81c8-17a7564a4b34"},"vehicle_type_id":"4","last_reported":1700323648,"current_range_meters":18000,"station_id":"","pricing_plan_id":"free"},{"bike_id":"77d9b212-dad8-4802-ad2a-48d763a79185","system_id":"levelo_inurba_marseille","lat":43.260225,"lon":5.375455,"is_reserved":false,"is_disabled":false,"rental_uris":{"android":"levelo://app?vid=77d9b212-dad8-4802-ad2a-48d763a79185","ios":"levelo://app?vid=77d9b212-dad8-4802-ad2a-48d763a79185"},"vehicle_type_id":"4","last_reported":1700323648,"current_range_meters":21600,"station_id":"ce4bhgh2rcd13ifvqfa0","pricing_plan_id":"free"},{"bike_id":"a06cb32e-7c22-4608-93d5-5c6dd3866d59","system_id":"levelo_inurba_marseille","lat":43.260225,"lon":5.375455,"is_reserved":false,"is_disabled":false,"rental_uris":{"android":"levelo://app?vid=a06cb32e-7c22-4608-93d5-5c6dd3866d59","ios":"levelo://app?vid=a06cb32e-7c22-4608-93d5-5c6dd3866d59"},"vehicle_type_id":"4","last_reported":1700323648,"current_range_meters":27600,"station_id":"ce4bhgh2rcd13ifvqfa0","pricing_plan_id":"free"},{"bike_id":"4f6880f4-3164-4fc2-9cf7-3c1358040f10","system_id":"levelo_inurba_marseille","lat":43.290501,"lon":5.433305,"is_reserved":false,"is_disabled":false,"rental_uris":{"android":"levelo://app?vid=4f6880f4-3164-4fc2-9cf7-3c1358040f10","ios":"levelo://app?vid=4f6880f4-3164-4fc2-9cf7-3c1358040f10"},"vehicle_type_id":"4","last_reported":1700323648,"current_range_meters":0,"station_id":"","pricing_plan_id":"free"},{"bike_id":"e519433d-e174-46ac-866c-5aa69d990273","system_id":"levelo_inurba_marseille","lat":43.28152,"lon":5.42642,"is_reserved":false,"is_disabled":false,"rental_uris":{"android":"levelo://app?vid=e519433d-e174-46ac-866c-5aa69d990273","ios":"levelo://app?vid=e519433d-e174-46ac-866c-5aa69d990273"},"vehicle_type_id":"4","last_reported":1700323648,"current_range_meters":22800,"station_id":"ce4bhnh2rcd13ifvqgug","pricing_plan_id":"free"},{"bike_id":"8e6f5f20-81b8-452e-8169-214f97831e53","system_id":"levelo_inurba_marseille","lat":43.281548,"lon":5.42643,"is_reserved":false,"is_disabled":false,"rental_uris":{"android":"levelo://app?vid=8e6f5f20-81b8-452e-8169-214f97831e53","ios":"levelo://app?vid=8e6f5f20-81b8-452e-8169-214f97831e53"},"vehicle_type_id":"4","last_reported":1700323648,"current_range_meters":31200,"station_id":"ce4bhnh2rcd13ifvqgug","pricing_plan_id":"free"},{"bike_id":"0e7d9356-4c6d-4c5c-b8dd-3be851203d88","system_id":"levelo_inurba_marseille","lat":43.281548,"lon":5.42643,"is_reserved":false,"is_disabled":false,"rental_uris":{"android":"levelo://app?vid=0e7d9356-4c6d-4c5c-b8dd-3be851203d88","ios":"levelo://app?vid=0e7d9356-4c6d-4c5c-b8dd-3be851203d88"},"vehicle_type_id":"4","last_reported":1700323648,"current_range_meters":31200,"station_id":"ce4bhnh2rcd13ifvqgug","pricing_plan_id":"free"},{"bike_id":"ba343a96-b108-42f1-a93c-b6a851b91747","system_id":"levelo_inurba_marseille","lat":43.281548,"lon":5.42643,"is_reserved":false,"is_disabled":false,"rental_uris":{"android":"levelo://app?vid=ba343a96-b108-42f1-a93c-b6a851b91747","ios":"levelo://app?vid=ba343a96-b108-42f1-a93c-b6a851b91747"},"vehicle_type_id":"4","last_reported":1700323648,"current_range_meters":31200,"station_id":"ce4bhnh2rcd13ifvqgug","pricing_plan_id":"free"},{"bike_id":"8e47fb1c-8820-40c2-9716-703cc59fb835","system_id":"levelo_inurba_marseille","lat":43.28151,"lon":5.42649,"is_reserved":false,"is_disabled":false,"rental_uris":{"android":"levelo://app?vid=8e47fb1c-8820-40c2-9716-703cc59fb835","ios":"levelo://app?vid=8e47fb1c-8820-40c2-9716-703cc59fb835"},"vehicle_type_id":"4","last_reported":1700323648,"current_range_meters":31200,"station_id":"ce4bhnh2rcd13ifvqgug","pricing_plan_id":"free"},{"bike_id":"d88b6a73-531b-425a-9e55-b97c354f59a2","system_id":"levelo_inurba_marseille","lat":43.32276,"lon":5.43926,"is_reserved":false,"is_disabled":false,"rental_uris":{"android":"levelo://app?vid=d88b6a73-531b-425a-9e55-b97c354f59a2","ios":"levelo://app?vid=d88b6a73-531b-425a-9e55-b97c354f59a2"},"vehicle_type_id":"4","last_reported":1700323648,"current_range_meters":29200,"station_id":"","pricing_plan_id":"free"},{"bike_id":"52c2449e-ba19-42b2-a2b7-5e9532985598","system_id":"levelo_inurba_marseille","lat":43.32279,"lon":5.43926,"is_reserved":false,"is_disabled":false,"rental_uris":{"android":"levelo://app?vid=52c2449e-ba19-42b2-a2b7-5e9532985598","ios":"levelo://app?vid=52c2449e-ba19-42b2-a2b7-5e9532985598"},"vehicle_type_id":"4","last_reported":1700323648,"current_range_meters":16000,"station_id":"","pricing_plan_id":"free"},{"bike_id":"9a95e6bc-fcda-4506-812d-e368d36f4403","system_id":"levelo_inurba_marseille","lat":43.2607,"lon":5.393983,"is_reserved":false,"is_disabled":false,"rental_uris":{"android":"levelo://app?vid=9a95e6bc-fcda-4506-812d-e368d36f4403","ios":"levelo://app?vid=9a95e6bc-fcda-4506-812d-e368d36f4403"},"vehicle_type_id":"4","last_reported":1700323648,"current_range_meters":31200,"station_id":"ce4bhh92rcd13ifvqfj0","pricing_plan_id":"free"},{"bike_id":"cae35a94-0e5e-4232-b773-af2b76e121c9","system_id":"levelo_inurba_marseille","lat":43.275028,"lon":5.424534,"is_reserved":false,"is_disabled":false,"rental_uris":{"android":"levelo://app?vid=cae35a94-0e5e-4232-b773-af2b76e121c9","ios":"levelo://app?vid=cae35a94-0e5e-4232-b773-af2b76e121c9"},"vehicle_type_id":"4","last_reported":1700323648,"current_range_meters":17200,"station_id":"ce4bhn92rcd13ifvqgrg","pricing_plan_id":"free"},{"bike_id":"ea0812eb-3b2a-4a38-90fd-44e7eaa67156","system_id":"levelo_inurba_marseille","lat":43.27491,"lon":5.424535,"is_reserved":false,"is_disabled":false,"rental_uris":{"android":"levelo://app?vid=ea0812eb-3b2a-4a38-90fd-44e7eaa67156","ios":"levelo://app?vid=ea0812eb-3b2a-4a38-90fd-44e7eaa67156"},"vehicle_type_id":"4","last_reported":1700323648,"current_range_meters":29200,"station_id":"ce4bhn92rcd13ifvqgrg","pricing_plan_id":"free"},{"bike_id":"e7a68780-c3b4-4477-83f3-c50c683b4451","system_id":"levelo_inurba_marseille","lat":43.27492,"lon":5.42463,"is_reserved":false,"is_disabled":false,"rental_uris":{"android":"levelo://app?vid=e7a68780-c3b4-4477-83f3-c50c683b4451","ios":"levelo://app?vid=e7a68780-c3b4-4477-83f3-c50c683b4451"},"vehicle_type_id":"4","last_reported":1700323648,"current_range_meters":31200,"station_id":"ce4bhn92rcd13ifvqgrg","pricing_plan_id":"free"},{"bike_id":"c8894106-86e2-4ecc-a0eb-886db41257f1","system_id":"levelo_inurba_marseille","lat":43.25583,"lon":5.38231,"is_reserved":false,"is_disabled":false,"rental_uris":{"android":"levelo://app?vid=c8894106-86e2-4ecc-a0eb-886db41257f1","ios":"levelo://app?vid=c8894106-86e2-4ecc-a0eb-886db41257f1"},"vehicle_type_id":"4","last_reported":1700323648,"current_range_meters":11200,"station_id":"ce4bhih2rcd13ifvqfs0","pricing_plan_id":"free"},{"bike_id":"1fc93aaa-e6b4-49b7-a708-3eb584645577","system_id":"levelo_inurba_marseille","lat":43.25582,"lon":5.38237,"is_reserved":false,"is_disabled":false,"rental_uris":{"android":"levelo://app?vid=1fc93aaa-e6b4-49b7-a708-3eb584645577","ios":"levelo://app?vid=1fc93aaa-e6b4-49b7-a708-3eb584645577"},"vehicle_type_id":"4","last_reported":1700323648,"current_range_meters":31200,"station_id":"ce4bhih2rcd13ifvqfs0","pricing_plan_id":"free"},{"bike_id":"3a480770-ac23-4cce-bd78-fa12fa1a312a","system_id":"levelo_inurba_marseille","lat":43.25581,"lon":5.38232,"is_reserved":false,"is_disabled":false,"rental_uris":{"android":"levelo://app?vid=3a480770-ac23-4cce-bd78-fa12fa1a312a","ios":"levelo://app?vid=3a480770-ac23-4cce-bd78-fa12fa1a312a"},"vehicle_type_id":"4","last_reported":1700323648,"current_range_meters":31200,"station_id":"ce4bhih2rcd13ifvqfs0","pricing_plan_id":"free"},{"bike_id":"b3e4095c-5bba-4368-b472-761dfe145d39","system_id":"levelo_inurba_marseille","lat":43.2558,"lon":5.38231,"is_reserved":false,"is_disabled":false,"rental_uris":{"android":"levelo://app?vid=b3e4095c-5bba-4368-b472-761dfe145d39","ios":"levelo://app?vid=b3e4095c-5bba-4368-b472-761dfe145d39"},"vehicle_type_id":"4","last_reported":1700323648,"current_range_meters":27600,"station_id":"ce4bhih2rcd13ifvqfs0","pricing_plan_id":"free"},{"bike_id":"893e0dc0-d574-480c-a82b-93db070a51ce","system_id":"levelo_inurba_marseille","lat":43.25581,"lon":5.38238,"is_reserved":false,"is_disabled":false,"rental_uris":{"android":"levelo://app?vid=893e0dc0-d574-480c-a82b-93db070a51ce","ios":"levelo://app?vid=893e0dc0-d574-480c-a82b-93db070a51ce"},"vehicle_type_id":"4","last_reported":1700323648,"current_range_meters":31200,"station_id":"ce4bhih2rcd13ifvqfs0","pricing_plan_id":"free"},{"bike_id":"2feaa91c-84af-43f7-a74b-9f11dd26cdd6","system_id":"levelo_inurba_marseille","lat":43.2558,"lon":5.38233,"is_reserved":false,"is_disabled":false,"rental_uris":{"android":"levelo://app?vid=2feaa91c-84af-43f7-a74b-9f11dd26cdd6","ios":"levelo://app?vid=2feaa91c-84af-43f7-a74b-9f11dd26cdd6"},"vehicle_type_id":"4","last_reported":1700323648,"current_range_meters":30400,"station_id":"ce4bhih2rcd13ifvqfs0","pricing_plan_id":"free"},{"bike_id":"bdc2fd0b-f2c1-48a7-a9fa-38e63540b3e2","system_id":"levelo_inurba_marseille","lat":43.25578,"lon":5.38236,"is_reserved":false,"is_disabled":false,"rental_uris":{"android":"levelo://app?vid=bdc2fd0b-f2c1-48a7-a9fa-38e63540b3e2","ios":"levelo://app?vid=bdc2fd0b-f2c1-48a7-a9fa-38e63540b3e2"},"vehicle_type_id":"4","last_reported":1700323648,"current_range_meters":30800,"station_id":"ce4bhih2rcd13ifvqfs0","pricing_plan_id":"free"},{"bike_id":"6b2ee0bc-5c1f-4343-a356-b3f7feb7b9d3","system_id":"levelo_inurba_marseille","lat":43.25578,"lon":5.38238,"is_reserved":false,"is_disabled":false,"rental_uris":{"android":"levelo://app?vid=6b2ee0bc-5c1f-4343-a356-b3f7feb7b9d3","ios":"levelo://app?vid=6b2ee0bc-5c1f-4343-a356-b3f7feb7b9d3"},"vehicle_type_id":"4","last_reported":1700323648,"current_range_meters":31200,"station_id":"ce4bhih2rcd13ifvqfs0","pricing_plan_id":"free"},{"bike_id":"4b32d214-ff75-4fe9-a4b8-de1fde4b2ebb","system_id":"levelo_inurba_marseille","lat":43.255777,"lon":5.382367,"is_reserved":false,"is_disabled":false,"rental_uris":{"android":"levelo://app?vid=4b32d214-ff75-4fe9-a4b8-de1fde4b2ebb","ios":"levelo://app?vid=4b32d214-ff75-4fe9-a4b8-de1fde4b2ebb"},"vehicle_type_id":"4","last_reported":1700323648,"current_range_meters":31200,"station_id":"ce4bhih2rcd13ifvqfs0","pricing_plan_id":"free"},{"bike_id":"5dcb7927-6e26-40e2-a185-48ea171d11bb","system_id":"levelo_inurba_marseille","lat":43.255773,"lon":5.382363,"is_reserved":false,"is_disabled":false,"rental_uris":{"android":"levelo://app?vid=5dcb7927-6e26-40e2-a185-48ea171d11bb","ios":"levelo://app?vid=5dcb7927-6e26-40e2-a185-48ea171d11bb"},"vehicle_type_id":"4","last_reported":1700323648,"current_range_meters":17600,"station_id":"ce4bhih2rcd13ifvqfs0","pricing_plan_id":"free"},{"bike_id":"c46cebae-98e1-48c7-97ff-74a102b553e8","system_id":"levelo_inurba_marseille","lat":43.258224,"lon":5.394369,"is_reserved":false,"is_disabled":false,"rental_uris":{"android":"levelo://app?vid=c46cebae-98e1-48c7-97ff-74a102b553e8","ios":"levelo://app?vid=c46cebae-98e1-48c7-97ff-74a102b553e8"},"vehicle_type_id":"4","last_reported":1700323648,"current_range_meters":0,"station_id":"ce4bhip2rcd13ifvqft0","pricing_plan_id":"free"},{"bike_id":"040ddc83-c8ad-4ed7-9404-44656bc082d4","system_id":"levelo_inurba_marseille","lat":43.25565,"lon":5.38243,"is_reserved":false,"is_disabled":false,"rental_uris":{"android":"levelo://app?vid=040ddc83-c8ad-4ed7-9404-44656bc082d4","ios":"levelo://app?vid=040ddc83-c8ad-4ed7-9404-44656bc082d4"},"vehicle_type_id":"4","last_reported":1700323648,"current_range_meters":30800,"station_id":"ce4bhih2rcd13ifvqfs0","pricing_plan_id":"free"},{"bike_id":"557aae57-e3a0-4e05-a6b4-0c8a44f7a640","system_id":"levelo_inurba_marseille","lat":43.254947,"lon":5.376454,"is_reserved":false,"is_disabled":false,"rental_uris":{"android":"levelo://app?vid=557aae57-e3a0-4e05-a6b4-0c8a44f7a640","ios":"levelo://app?vid=557aae57-e3a0-4e05-a6b4-0c8a44f7a640"},"vehicle_type_id":"4","last_reported":1700323648,"current_range_meters":31200,"station_id":"ce4bhh12rcd13ifvqff0","pricing_plan_id":"free"},{"bike_id":"ed943514-3ed9-4dc4-870a-f4da10624a32","system_id":"levelo_inurba_marseille","lat":43.270721,"lon":5.422764,"is_reserved":false,"is_disabled":false,"rental_uris":{"android":"levelo://app?vid=ed943514-3ed9-4dc4-870a-f4da10624a32","ios":"levelo://app?vid=ed943514-3ed9-4dc4-870a-f4da10624a32"},"vehicle_type_id":"4","last_reported":1700323648,"current_range_meters":29200,"station_id":"ce4bhk92rcd13ifvqgb0","pricing_plan_id":"free"},{"bike_id":"6d777f2a-1406-48b5-86a3-c3c6a6466486","system_id":"levelo_inurba_marseille","lat":43.270721,"lon":5.422764,"is_reserved":false,"is_disabled":false,"rental_uris":{"android":"levelo://app?vid=6d777f2a-1406-48b5-86a3-c3c6a6466486","ios":"levelo://app?vid=6d777f2a-1406-48b5-86a3-c3c6a6466486"},"vehicle_type_id":"4","last_reported":1700323648,"current_range_meters":27600,"station_id":"ce4bhk92rcd13ifvqgb0","pricing_plan_id":"free"},{"bike_id":"9b117fa5-3326-4eb8-8f57-8defd1af168d","system_id":"levelo_inurba_marseille","lat":43.258658,"lon":5.398935,"is_reserved":false,"is_disabled":false,"rental_uris":{"android":"levelo://app?vid=9b117fa5-3326-4eb8-8f57-8defd1af168d","ios":"levelo://app?vid=9b117fa5-3326-4eb8-8f57-8defd1af168d"},"vehicle_type_id":"4","last_reported":1700323648,"current_range_meters":0,"station_id":"ce4bhl92rcd13ifvqghg","pricing_plan_id":"free"},{"bike_id":"c66db659-d6cc-43b1-9f95-d0316a0b18bc","system_id":"levelo_inurba_marseille","lat":43.258658,"lon":5.398935,"is_reserved":false,"is_disabled":false,"rental_uris":{"android":"levelo://app?vid=c66db659-d6cc-43b1-9f95-d0316a0b18bc","ios":"levelo://app?vid=c66db659-d6cc-43b1-9f95-d0316a0b18bc"},"vehicle_type_id":"4","last_reported":1700323648,"current_range_meters":9200,"station_id":"ce4bhl92rcd13ifvqghg","pricing_plan_id":"free"},{"bike_id":"4497bd3f-58b9-4c53-a33e-d23593111a30","system_id":"levelo_inurba_marseille","lat":43.25929,"lon":5.40909,"is_reserved":false,"is_disabled":false,"rental_uris":{"android":"levelo://app?vid=4497bd3f-58b9-4c53-a33e-d23593111a30","ios":"levelo://app?vid=4497bd3f-58b9-4c53-a33e-d23593111a30"},"vehicle_type_id":"4","last_reported":1700323648,"current_range_meters":31200,"station_id":"ce4bhm92rcd13ifvqglg","pricing_plan_id":"free"},{"bike_id":"d5620412-5458-4b78-a3f3-1f873ef7887b","system_id":"levelo_inurba_marseille","lat":43.25929,"lon":5.40914,"is_reserved":false,"is_disabled":false,"rental_uris":{"android":"levelo://app?vid=d5620412-5458-4b78-a3f3-1f873ef7887b","ios":"levelo://app?vid=d5620412-5458-4b78-a3f3-1f873ef7887b"},"vehicle_type_id":"4","last_reported":1700323648,"current_range_meters":31200,"station_id":"ce4bhm92rcd13ifvqglg","pricing_plan_id":"free"},{"bike_id":"b07713ab-8a38-4416-a771-754da87afc04","system_id":"levelo_inurba_marseille","lat":43.257079,"lon":5.411051,"is_reserved":false,"is_disabled":false,"rental_uris":{"android":"levelo://app?vid=b07713ab-8a38-4416-a771-754da87afc04","ios":"levelo://app?vid=b07713ab-8a38-4416-a771-754da87afc04"},"vehicle_type_id":"4","last_reported":1700323648,"current_range_meters":29600,"station_id":"ce4bhkp2rcd13ifvqgd0","pricing_plan_id":"free"},{"bike_id":"51ee53e8-7089-4ff8-9d41-f51e2102918f","system_id":"levelo_inurba_marseille","lat":43.257079,"lon":5.411051,"is_reserved":false,"is_disabled":false,"rental_uris":{"android":"levelo://app?vid=51ee53e8-7089-4ff8-9d41-f51e2102918f","ios":"levelo://app?vid=51ee53e8-7089-4ff8-9d41-f51e2102918f"},"vehicle_type_id":"4","last_reported":1700323648,"current_range_meters":25200,"station_id":"ce4bhkp2rcd13ifvqgd0","pricing_plan_id":"free"},{"bike_id":"d4034abc-f6cf-4e8c-882d-ba54165c7e87","system_id":"levelo_inurba_marseille","lat":43.257079,"lon":5.411051,"is_reserved":false,"is_disabled":false,"rental_uris":{"android":"levelo://app?vid=d4034abc-f6cf-4e8c-882d-ba54165c7e87","ios":"levelo://app?vid=d4034abc-f6cf-4e8c-882d-ba54165c7e87"},"vehicle_type_id":"4","last_reported":1700323648,"current_range_meters":20800,"station_id":"ce4bhkp2rcd13ifvqgd0","pricing_plan_id":"free"},{"bike_id":"72e518f0-3b81-422b-a9f1-a8c04a0baf04","system_id":"levelo_inurba_marseille","lat":43.250009,"lon":5.389195,"is_reserved":false,"is_disabled":false,"rental_uris":{"android":"levelo://app?vid=72e518f0-3b81-422b-a9f1-a8c04a0baf04","ios":"levelo://app?vid=72e518f0-3b81-422b-a9f1-a8c04a0baf04"},"vehicle_type_id":"4","last_reported":1700323648,"current_range_meters":30400,"station_id":"ce4bhgp2rcd13ifvqfd0","pricing_plan_id":"free"},{"bike_id":"456dfb46-ab30-4080-a542-d5407aa81f16","system_id":"levelo_inurba_marseille","lat":43.2479,"lon":5.374457,"is_reserved":false,"is_disabled":false,"rental_uris":{"android":"levelo://app?vid=456dfb46-ab30-4080-a542-d5407aa81f16","ios":"levelo://app?vid=456dfb46-ab30-4080-a542-d5407aa81f16"},"vehicle_type_id":"4","last_reported":1700323648,"current_range_meters":6000,"station_id":"ce4bhgh2rcd13ifvqfb0","pricing_plan_id":"free"},{"bike_id":"0a971f4d-998b-4069-a54f-774336481cee","system_id":"levelo_inurba_marseille","lat":43.25089,"lon":5.39513,"is_reserved":false,"is_disabled":false,"rental_uris":{"android":"levelo://app?vid=0a971f4d-998b-4069-a54f-774336481cee","ios":"levelo://app?vid=0a971f4d-998b-4069-a54f-774336481cee"},"vehicle_type_id":"4","last_reported":1700323648,"current_range_meters":31200,"station_id":"ce4bhm12rcd13ifvqgkg","pricing_plan_id":"free"},{"bike_id":"1148c283-85af-481b-8ced-e78c3ee0fec4","system_id":"levelo_inurba_marseille","lat":43.25119,"lon":5.40322,"is_reserved":false,"is_disabled":false,"rental_uris":{"android":"levelo://app?vid=1148c283-85af-481b-8ced-e78c3ee0fec4","ios":"levelo://app?vid=1148c283-85af-481b-8ced-e78c3ee0fec4"},"vehicle_type_id":"4","last_reported":1700323648,"current_range_meters":13200,"station_id":"ce4bhlh2rcd13ifvqgig","pricing_plan_id":"free"},{"bike_id":"09ec1a87-fb7a-46a6-ae86-c6a2c929d07d","system_id":"levelo_inurba_marseille","lat":43.251053,"lon":5.403217,"is_reserved":false,"is_disabled":false,"rental_uris":{"android":"levelo://app?vid=09ec1a87-fb7a-46a6-ae86-c6a2c929d07d","ios":"levelo://app?vid=09ec1a87-fb7a-46a6-ae86-c6a2c929d07d"},"vehicle_type_id":"4","last_reported":1700323648,"current_range_meters":0,"station_id":"ce4bhlh2rcd13ifvqgig","pricing_plan_id":"free"},{"bike_id":"cc3f81e2-68c7-4ca1-bd1c-922e154c2369","system_id":"levelo_inurba_marseille","lat":43.243884,"lon":5.370737,"is_reserved":false,"is_disabled":false,"rental_uris":{"android":"levelo://app?vid=cc3f81e2-68c7-4ca1-bd1c-922e154c2369","ios":"levelo://app?vid=cc3f81e2-68c7-4ca1-bd1c-922e154c2369"},"vehicle_type_id":"4","last_reported":1700323648,"current_range_meters":25200,"station_id":"ce4bhhh2rcd13ifvqfk0","pricing_plan_id":"free"},{"bike_id":"61964f84-c7f7-432b-a064-8ecc06e40e42","system_id":"levelo_inurba_marseille","lat":43.243884,"lon":5.370736,"is_reserved":false,"is_disabled":false,"rental_uris":{"android":"levelo://app?vid=61964f84-c7f7-432b-a064-8ecc06e40e42","ios":"levelo://app?vid=61964f84-c7f7-432b-a064-8ecc06e40e42"},"vehicle_type_id":"4","last_reported":1700323648,"current_range_meters":0,"station_id":"ce4bhhh2rcd13ifvqfk0","pricing_plan_id":"free"},{"bike_id":"f05c1314-e6a3-4ea7-a801-960403bad923","system_id":"levelo_inurba_marseille","lat":43.243884,"lon":5.370736,"is_reserved":false,"is_disabled":false,"rental_uris":{"android":"levelo://app?vid=f05c1314-e6a3-4ea7-a801-960403bad923","ios":"levelo://app?vid=f05c1314-e6a3-4ea7-a801-960403bad923"},"vehicle_type_id":"4","last_reported":1700323648,"current_range_meters":4000,"station_id":"ce4bhhh2rcd13ifvqfk0","pricing_plan_id":"free"},{"bike_id":"242e4ec9-12c9-432d-9c60-a4a642209794","system_id":"levelo_inurba_marseille","lat":43.245581,"lon":5.395069,"is_reserved":false,"is_disabled":false,"rental_uris":{"android":"levelo://app?vid=242e4ec9-12c9-432d-9c60-a4a642209794","ios":"levelo://app?vid=242e4ec9-12c9-432d-9c60-a4a642209794"},"vehicle_type_id":"4","last_reported":1700323648,"current_range_meters":4400,"station_id":"ce4bhlp2rcd13ifvqgjg","pricing_plan_id":"free"},{"bike_id":"54050992-516d-4c60-93ee-7b47798c7371","system_id":"levelo_inurba_marseille","lat":43.245581,"lon":5.395069,"is_reserved":false,"is_disabled":false,"rental_uris":{"android":"levelo://app?vid=54050992-516d-4c60-93ee-7b47798c7371","ios":"levelo://app?vid=54050992-516d-4c60-93ee-7b47798c7371"},"vehicle_type_id":"4","last_reported":1700323648,"current_range_meters":12000,"station_id":"ce4bhlp2rcd13ifvqgjg","pricing_plan_id":"free"},{"bike_id":"8aff7ba2-5a7e-4da1-963f-49ebc4eec3a0","system_id":"levelo_inurba_marseille","lat":43.245581,"lon":5.395069,"is_reserved":false,"is_disabled":false,"rental_uris":{"android":"levelo://app?vid=8aff7ba2-5a7e-4da1-963f-49ebc4eec3a0","ios":"levelo://app?vid=8aff7ba2-5a7e-4da1-963f-49ebc4eec3a0"},"vehicle_type_id":"4","last_reported":1700323648,"current_range_meters":6000,"station_id":"ce4bhlp2rcd13ifvqgjg","pricing_plan_id":"free"},{"bike_id":"e372efd2-f8e1-4612-9524-d2f55833dd19","system_id":"levelo_inurba_marseille","lat":43.24075,"lon":5.37761,"is_reserved":false,"is_disabled":false,"rental_uris":{"android":"levelo://app?vid=e372efd2-f8e1-4612-9524-d2f55833dd19","ios":"levelo://app?vid=e372efd2-f8e1-4612-9524-d2f55833dd19"},"vehicle_type_id":"4","last_reported":1700323648,"current_range_meters":18800,"station_id":"ce4bhnp2rcd13ifvqgvg","pricing_plan_id":"free"},{"bike_id":"b7ad8b76-3a1b-4631-a1f8-cbd38dd30c19","system_id":"levelo_inurba_marseille","lat":43.24073,"lon":5.37762,"is_reserved":false,"is_disabled":false,"rental_uris":{"android":"levelo://app?vid=b7ad8b76-3a1b-4631-a1f8-cbd38dd30c19","ios":"levelo://app?vid=b7ad8b76-3a1b-4631-a1f8-cbd38dd30c19"},"vehicle_type_id":"4","last_reported":1700323648,"current_range_meters":24000,"station_id":"ce4bhnp2rcd13ifvqgvg","pricing_plan_id":"free"},{"bike_id":"5a980be7-c7ae-42db-bd64-63cc5cf9e0f6","system_id":"levelo_inurba_marseille","lat":43.240727,"lon":5.377615,"is_reserved":false,"is_disabled":false,"rental_uris":{"android":"levelo://app?vid=5a980be7-c7ae-42db-bd64-63cc5cf9e0f6","ios":"levelo://app?vid=5a980be7-c7ae-42db-bd64-63cc5cf9e0f6"},"vehicle_type_id":"4","last_reported":1700323648,"current_range_meters":31200,"station_id":"ce4bhnp2rcd13ifvqgvg","pricing_plan_id":"free"},{"bike_id":"ed419b13-266f-407c-bf9b-711a3ecbb865","system_id":"levelo_inurba_marseille","lat":43.24072,"lon":5.37759,"is_reserved":false,"is_disabled":false,"rental_uris":{"android":"levelo://app?vid=ed419b13-266f-407c-bf9b-711a3ecbb865","ios":"levelo://app?vid=ed419b13-266f-407c-bf9b-711a3ecbb865"},"vehicle_type_id":"4","last_reported":1700323648,"current_range_meters":24000,"station_id":"ce4bhnp2rcd13ifvqgvg","pricing_plan_id":"free"},{"bike_id":"a759d4ef-ae01-4e76-9f99-0530261038e0","system_id":"levelo_inurba_marseille","lat":43.24072,"lon":5.37763,"is_reserved":false,"is_disabled":false,"rental_uris":{"android":"levelo://app?vid=a759d4ef-ae01-4e76-9f99-0530261038e0","ios":"levelo://app?vid=a759d4ef-ae01-4e76-9f99-0530261038e0"},"vehicle_type_id":"4","last_reported":1700323648,"current_range_meters":4400,"station_id":"ce4bhnp2rcd13ifvqgvg","pricing_plan_id":"free"},{"bike_id":"b17abfb9-7775-45d9-aa1e-bf036e6fdf06","system_id":"levelo_inurba_marseille","lat":43.24071,"lon":5.37759,"is_reserved":false,"is_disabled":false,"rental_uris":{"android":"levelo://app?vid=b17abfb9-7775-45d9-aa1e-bf036e6fdf06","ios":"levelo://app?vid=b17abfb9-7775-45d9-aa1e-bf036e6fdf06"},"vehicle_type_id":"4","last_reported":1700323648,"current_range_meters":27200,"station_id":"ce4bhnp2rcd13ifvqgvg","pricing_plan_id":"free"},{"bike_id":"86a0aa5a-5652-467d-92bf-bfd0f3f5294a","system_id":"levelo_inurba_marseille","lat":43.240701,"lon":5.377669,"is_reserved":false,"is_disabled":false,"rental_uris":{"android":"levelo://app?vid=86a0aa5a-5652-467d-92bf-bfd0f3f5294a","ios":"levelo://app?vid=86a0aa5a-5652-467d-92bf-bfd0f3f5294a"},"vehicle_type_id":"4","last_reported":1700323648,"current_range_meters":30400,"station_id":"ce4bhnp2rcd13ifvqgvg","pricing_plan_id":"free"},{"bike_id":"bbb0cba3-039d-4319-a1a1-60395705f334","system_id":"levelo_inurba_marseille","lat":43.240623,"lon":5.377642,"is_reserved":false,"is_disabled":false,"rental_uris":{"android":"levelo://app?vid=bbb0cba3-039d-4319-a1a1-60395705f334","ios":"levelo://app?vid=bbb0cba3-039d-4319-a1a1-60395705f334"},"vehicle_type_id":"4","last_reported":1700323648,"current_range_meters":26400,"station_id":"ce4bhnp2rcd13ifvqgvg","pricing_plan_id":"free"},{"bike_id":"abebece1-d35d-428e-b450-5f70fc7deb45","system_id":"levelo_inurba_marseille","lat":43.240623,"lon":5.377642,"is_reserved":false,"is_disabled":false,"rental_uris":{"android":"levelo://app?vid=abebece1-d35d-428e-b450-5f70fc7deb45","ios":"levelo://app?vid=abebece1-d35d-428e-b450-5f70fc7deb45"},"vehicle_type_id":"4","last_reported":1700323648,"current_range_meters":25600,"station_id":"ce4bhnp2rcd13ifvqgvg","pricing_plan_id":"free"},{"bike_id":"3c262c6f-8661-491e-bc48-b7580b833189","system_id":"levelo_inurba_marseille","lat":43.24069,"lon":5.37765,"is_reserved":false,"is_disabled":false,"rental_uris":{"android":"levelo://app?vid=3c262c6f-8661-491e-bc48-b7580b833189","ios":"levelo://app?vid=3c262c6f-8661-491e-bc48-b7580b833189"},"vehicle_type_id":"4","last_reported":1700323648,"current_range_meters":25200,"station_id":"ce4bhnp2rcd13ifvqgvg","pricing_plan_id":"free"},{"bike_id":"8f3a5da5-e450-44c1-b7f2-7006197e8e0e","system_id":"levelo_inurba_marseille","lat":43.240623,"lon":5.377642,"is_reserved":false,"is_disabled":false,"rental_uris":{"android":"levelo://app?vid=8f3a5da5-e450-44c1-b7f2-7006197e8e0e","ios":"levelo://app?vid=8f3a5da5-e450-44c1-b7f2-7006197e8e0e"},"vehicle_type_id":"4","last_reported":1700323648,"current_range_meters":31200,"station_id":"ce4bhnp2rcd13ifvqgvg","pricing_plan_id":"free"},{"bike_id":"3cc5da47-2ffd-4e24-8283-b9644a8e09df","system_id":"levelo_inurba_marseille","lat":43.240623,"lon":5.377642,"is_reserved":false,"is_disabled":false,"rental_uris":{"android":"levelo://app?vid=3cc5da47-2ffd-4e24-8283-b9644a8e09df","ios":"levelo://app?vid=3cc5da47-2ffd-4e24-8283-b9644a8e09df"},"vehicle_type_id":"4","last_reported":1700323648,"current_range_meters":30000,"station_id":"ce4bhnp2rcd13ifvqgvg","pricing_plan_id":"free"},{"bike_id":"4370869b-0c59-4e1b-b4c7-59bf3a7bc50e","system_id":"levelo_inurba_marseille","lat":43.24188,"lon":5.39726,"is_reserved":false,"is_disabled":false,"rental_uris":{"android":"levelo://app?vid=4370869b-0c59-4e1b-b4c7-59bf3a7bc50e","ios":"levelo://app?vid=4370869b-0c59-4e1b-b4c7-59bf3a7bc50e"},"vehicle_type_id":"4","last_reported":1700323648,"current_range_meters":18400,"station_id":"ce4bhn12rcd13ifvqgpg","pricing_plan_id":"free"},{"bike_id":"99cc6b38-3aad-4c65-a2a0-1c4ce9965de4","system_id":"levelo_inurba_marseille","lat":43.241782,"lon":5.397261,"is_reserved":false,"is_disabled":false,"rental_uris":{"android":"levelo://app?vid=99cc6b38-3aad-4c65-a2a0-1c4ce9965de4","ios":"levelo://app?vid=99cc6b38-3aad-4c65-a2a0-1c4ce9965de4"},"vehicle_type_id":"4","last_reported":1700323648,"current_range_meters":14400,"station_id":"ce4bhn12rcd13ifvqgpg","pricing_plan_id":"free"},{"bike_id":"07e8793f-b5c8-4815-95b2-cfd73adfc584","system_id":"levelo_inurba_marseille","lat":43.241782,"lon":5.397261,"is_reserved":false,"is_disabled":false,"rental_uris":{"android":"levelo://app?vid=07e8793f-b5c8-4815-95b2-cfd73adfc584","ios":"levelo://app?vid=07e8793f-b5c8-4815-95b2-cfd73adfc584"},"vehicle_type_id":"4","last_reported":1700323648,"current_range_meters":28000,"station_id":"ce4bhn12rcd13ifvqgpg","pricing_plan_id":"free"},{"bike_id":"4f5534b5-aefd-49d1-810b-7263e1241940","system_id":"levelo_inurba_marseille","lat":43.241782,"lon":5.397261,"is_reserved":false,"is_disabled":false,"rental_uris":{"android":"levelo://app?vid=4f5534b5-aefd-49d1-810b-7263e1241940","ios":"levelo://app?vid=4f5534b5-aefd-49d1-810b-7263e1241940"},"vehicle_type_id":"4","last_reported":1700323648,"current_range_meters":28400,"station_id":"ce4bhn12rcd13ifvqgpg","pricing_plan_id":"free"},{"bike_id":"4343156f-f762-485a-b725-bd4393bfc855","system_id":"levelo_inurba_marseille","lat":43.231923,"lon":5.355545,"is_reserved":false,"is_disabled":false,"rental_uris":{"android":"levelo://app?vid=4343156f-f762-485a-b725-bd4393bfc855","ios":"levelo://app?vid=4343156f-f762-485a-b725-bd4393bfc855"},"vehicle_type_id":"4","last_reported":1700323648,"current_range_meters":27600,"station_id":"ce4bhu92rcd13ifvqi70","pricing_plan_id":"free"},{"bike_id":"ffb77762-5589-4ab4-9369-7b5deaee8cb2","system_id":"levelo_inurba_marseille","lat":43.231919,"lon":5.355532,"is_reserved":false,"is_disabled":false,"rental_uris":{"android":"levelo://app?vid=ffb77762-5589-4ab4-9369-7b5deaee8cb2","ios":"levelo://app?vid=ffb77762-5589-4ab4-9369-7b5deaee8cb2"},"vehicle_type_id":"4","last_reported":1700323648,"current_range_meters":31200,"station_id":"ce4bhu92rcd13ifvqi70","pricing_plan_id":"free"},{"bike_id":"fa9cc91c-c78c-4cb3-ab2e-3cc3c66a937c","system_id":"levelo_inurba_marseille","lat":43.231793,"lon":5.400044,"is_reserved":false,"is_disabled":false,"rental_uris":{"android":"levelo://app?vid=fa9cc91c-c78c-4cb3-ab2e-3cc3c66a937c","ios":"levelo://app?vid=fa9cc91c-c78c-4cb3-ab2e-3cc3c66a937c"},"vehicle_type_id":"4","last_reported":1700323648,"current_range_meters":22000,"station_id":"ce4bhn12rcd13ifvqgqg","pricing_plan_id":"free"},{"bike_id":"486fecf0-765d-4eee-9a85-898f8aa27175","system_id":"levelo_inurba_marseille","lat":43.231793,"lon":5.400044,"is_reserved":false,"is_disabled":false,"rental_uris":{"android":"levelo://app?vid=486fecf0-765d-4eee-9a85-898f8aa27175","ios":"levelo://app?vid=486fecf0-765d-4eee-9a85-898f8aa27175"},"vehicle_type_id":"4","last_reported":1700323648,"current_range_meters":31200,"station_id":"ce4bhn12rcd13ifvqgqg","pricing_plan_id":"free"},{"bike_id":"fb647ab6-bdfe-4d43-8021-469b840e3f01","system_id":"levelo_inurba_marseille","lat":43.231794,"lon":5.400052,"is_reserved":false,"is_disabled":false,"rental_uris":{"android":"levelo://app?vid=fb647ab6-bdfe-4d43-8021-469b840e3f01","ios":"levelo://app?vid=fb647ab6-bdfe-4d43-8021-469b840e3f01"},"vehicle_type_id":"4","last_reported":1700323648,"current_range_meters":29200,"station_id":"ce4bhn12rcd13ifvqgqg","pricing_plan_id":"free"},{"bike_id":"5d8316f4-9b3b-4f22-8b0a-d975b6faa1c0","system_id":"levelo_inurba_marseille","lat":43.231793,"lon":5.400044,"is_reserved":false,"is_disabled":false,"rental_uris":{"android":"levelo://app?vid=5d8316f4-9b3b-4f22-8b0a-d975b6faa1c0","ios":"levelo://app?vid=5d8316f4-9b3b-4f22-8b0a-d975b6faa1c0"},"vehicle_type_id":"4","last_reported":1700323648,"current_range_meters":18800,"station_id":"ce4bhn12rcd13ifvqgqg","pricing_plan_id":"free"},{"bike_id":"efc139d5-8bb1-4a6b-b437-01d31830d455","system_id":"levelo_inurba_marseille","lat":43.231794,"lon":5.400052,"is_reserved":false,"is_disabled":false,"rental_uris":{"android":"levelo://app?vid=efc139d5-8bb1-4a6b-b437-01d31830d455","ios":"levelo://app?vid=efc139d5-8bb1-4a6b-b437-01d31830d455"},"vehicle_type_id":"4","last_reported":1700323648,"current_range_meters":31200,"station_id":"ce4bhn12rcd13ifvqgqg","pricing_plan_id":"free"},{"bike_id":"f4a8cd9e-70db-4af1-b4c0-7aa0a7fac3fa","system_id":"levelo_inurba_marseille","lat":43.231793,"lon":5.400044,"is_reserved":false,"is_disabled":false,"rental_uris":{"android":"levelo://app?vid=f4a8cd9e-70db-4af1-b4c0-7aa0a7fac3fa","ios":"levelo://app?vid=f4a8cd9e-70db-4af1-b4c0-7aa0a7fac3fa"},"vehicle_type_id":"4","last_reported":1700323648,"current_range_meters":31200,"station_id":"ce4bhn12rcd13ifvqgqg","pricing_plan_id":"free"},{"bike_id":"21503f80-a737-42c9-80ac-41d5f021fc9e","system_id":"levelo_inurba_marseille","lat":43.231794,"lon":5.400052,"is_reserved":false,"is_disabled":false,"rental_uris":{"android":"levelo://app?vid=21503f80-a737-42c9-80ac-41d5f021fc9e","ios":"levelo://app?vid=21503f80-a737-42c9-80ac-41d5f021fc9e"},"vehicle_type_id":"4","last_reported":1700323648,"current_range_meters":12400,"station_id":"ce4bhn12rcd13ifvqgqg","pricing_plan_id":"free"},{"bike_id":"7f10c40d-a28f-435c-a517-41012b005fc5","system_id":"levelo_inurba_marseille","lat":43.231794,"lon":5.400052,"is_reserved":false,"is_disabled":false,"rental_uris":{"android":"levelo://app?vid=7f10c40d-a28f-435c-a517-41012b005fc5","ios":"levelo://app?vid=7f10c40d-a28f-435c-a517-41012b005fc5"},"vehicle_type_id":"4","last_reported":1700323648,"current_range_meters":0,"station_id":"ce4bhn12rcd13ifvqgqg","pricing_plan_id":"free"},{"bike_id":"a77536b5-5a4a-4d26-b9d3-350ffe3416bd","system_id":"levelo_inurba_marseille","lat":43.231793,"lon":5.400044,"is_reserved":false,"is_disabled":false,"rental_uris":{"android":"levelo://app?vid=a77536b5-5a4a-4d26-b9d3-350ffe3416bd","ios":"levelo://app?vid=a77536b5-5a4a-4d26-b9d3-350ffe3416bd"},"vehicle_type_id":"4","last_reported":1700323648,"current_range_meters":11600,"station_id":"ce4bhn12rcd13ifvqgqg","pricing_plan_id":"free"},{"bike_id":"2505e511-a53b-41b7-9604-bb65ae8b3f97","system_id":"levelo_inurba_marseille","lat":43.231793,"lon":5.400044,"is_reserved":false,"is_disabled":false,"rental_uris":{"android":"levelo://app?vid=2505e511-a53b-41b7-9604-bb65ae8b3f97","ios":"levelo://app?vid=2505e511-a53b-41b7-9604-bb65ae8b3f97"},"vehicle_type_id":"4","last_reported":1700323648,"current_range_meters":12800,"station_id":"ce4bhn12rcd13ifvqgqg","pricing_plan_id":"free"},{"bike_id":"ad9d26be-fd61-4954-b04a-614ee9d33f7d","system_id":"levelo_inurba_marseille","lat":43.231794,"lon":5.400052,"is_reserved":false,"is_disabled":false,"rental_uris":{"android":"levelo://app?vid=ad9d26be-fd61-4954-b04a-614ee9d33f7d","ios":"levelo://app?vid=ad9d26be-fd61-4954-b04a-614ee9d33f7d"},"vehicle_type_id":"4","last_reported":1700323648,"current_range_meters":31600,"station_id":"ce4bhn12rcd13ifvqgqg","pricing_plan_id":"free"},{"bike_id":"7bc95a0e-72f8-4232-b877-46fe8e7f9e0c","system_id":"levelo_inurba_marseille","lat":43.231794,"lon":5.400052,"is_reserved":false,"is_disabled":false,"rental_uris":{"android":"levelo://app?vid=7bc95a0e-72f8-4232-b877-46fe8e7f9e0c","ios":"levelo://app?vid=7bc95a0e-72f8-4232-b877-46fe8e7f9e0c"},"vehicle_type_id":"4","last_reported":1700323648,"current_range_meters":31600,"station_id":"ce4bhn12rcd13ifvqgqg","pricing_plan_id":"free"},{"bike_id":"adac1971-5e73-41e6-9ade-b5ded0f026e7","system_id":"levelo_inurba_marseille","lat":43.231793,"lon":5.400044,"is_reserved":false,"is_disabled":false,"rental_uris":{"android":"levelo://app?vid=adac1971-5e73-41e6-9ade-b5ded0f026e7","ios":"levelo://app?vid=adac1971-5e73-41e6-9ade-b5ded0f026e7"},"vehicle_type_id":"4","last_reported":1700323648,"current_range_meters":30800,"station_id":"ce4bhn12rcd13ifvqgqg","pricing_plan_id":"free"},{"bike_id":"2740bc0a-943d-4810-853f-0053f51c0cac","system_id":"levelo_inurba_marseille","lat":43.231794,"lon":5.400052,"is_reserved":false,"is_disabled":false,"rental_uris":{"android":"levelo://app?vid=2740bc0a-943d-4810-853f-0053f51c0cac","ios":"levelo://app?vid=2740bc0a-943d-4810-853f-0053f51c0cac"},"vehicle_type_id":"4","last_reported":1700323648,"current_range_meters":27600,"station_id":"ce4bhn12rcd13ifvqgqg","pricing_plan_id":"free"},{"bike_id":"9c708561-3c6f-4756-a396-0fe474a6510d","system_id":"levelo_inurba_marseille","lat":43.231794,"lon":5.400052,"is_reserved":false,"is_disabled":false,"rental_uris":{"android":"levelo://app?vid=9c708561-3c6f-4756-a396-0fe474a6510d","ios":"levelo://app?vid=9c708561-3c6f-4756-a396-0fe474a6510d"},"vehicle_type_id":"4","last_reported":1700323648,"current_range_meters":27200,"station_id":"ce4bhn12rcd13ifvqgqg","pricing_plan_id":"free"},{"bike_id":"558d829c-c4b7-44ca-bed9-6d33da1eadc9","system_id":"levelo_inurba_marseille","lat":43.231562,"lon":5.436933,"is_reserved":false,"is_disabled":false,"rental_uris":{"android":"levelo://app?vid=558d829c-c4b7-44ca-bed9-6d33da1eadc9","ios":"levelo://app?vid=558d829c-c4b7-44ca-bed9-6d33da1eadc9"},"vehicle_type_id":"4","last_reported":1700323648,"current_range_meters":12000,"station_id":"ce4bhmp2rcd13ifvqgog","pricing_plan_id":"free"},{"bike_id":"66ead0ab-927a-4724-9cb3-8290ae35586f","system_id":"levelo_inurba_marseille","lat":43.231562,"lon":5.436933,"is_reserved":false,"is_disabled":false,"rental_uris":{"android":"levelo://app?vid=66ead0ab-927a-4724-9cb3-8290ae35586f","ios":"levelo://app?vid=66ead0ab-927a-4724-9cb3-8290ae35586f"},"vehicle_type_id":"4","last_reported":1700323648,"current_range_meters":15600,"station_id":"ce4bhmp2rcd13ifvqgog","pricing_plan_id":"free"},{"bike_id":"1bc69d77-3f74-4614-b796-9dae948e5e8a","system_id":"levelo_inurba_marseille","lat":43.231562,"lon":5.436933,"is_reserved":false,"is_disabled":false,"rental_uris":{"android":"levelo://app?vid=1bc69d77-3f74-4614-b796-9dae948e5e8a","ios":"levelo://app?vid=1bc69d77-3f74-4614-b796-9dae948e5e8a"},"vehicle_type_id":"4","last_reported":1700323648,"current_range_meters":21200,"station_id":"ce4bhmp2rcd13ifvqgog","pricing_plan_id":"free"}]}}