{"last_updated":1731285958,"ttl":60,"version":"2.2","data":{"bikes":[{"bike_id":"5cccdad3-9b8d-4a72-bdfd-b1daf1dc0d4d","system_id":"levelo_inurba_marseille","lat":43.27819,"lon":5.40709,"is_reserved":false,"is_disabled":false,"rental_uris":{"android":"levelo://app?vid=5cccdad3-9b8d-4a72-bdfd-b1daf1dc0d4d","ios":"levelo://app?vid=5cccdad3-9b8d-4a72-bdfd-b1daf1dc0d4d"},"vehicle_type_id":"4","last_reported":1731285958,"current_range_meters":39200,"station_id":"ce4bhnh2rcd13ifvqgtg","pricing_plan_id":"cebpf4jnsgd1na2vs0mg"},{"bike_id":"55f338da-564d-4339-bcb5-5d0a4b68c4e6","system_id":"levelo_inurba_marseille","lat":43.3106,"lon":5.40072,"is_reserved":false,"is_disabled":false,"rental_uris":{"android":"levelo://app?vid=55f338da-564d-4339-bcb5-5d0a4b68c4e6","ios":"levelo://app?vid=55f338da-564d-4339-bcb5-5d0a4b68c4e6"},"vehicle_type_id":"4","last_reported":1731285958,"current_range_meters":6000,"station_id":"","pricing_plan_id":"cebpf4jnsgd1na2vs0mg"},{"bike_id":"4a9b720d-8670-4831-85df-c88003ccc28b","system_id":"levelo_inurba_marseille","lat":43.30456,"lon":5.38876,"is_reserved":false,"is_disabled":false,"rental_uris":{"android":"levelo://app?vid=4a9b720d-8670-4831-85df-c88003ccc28b","ios":"levelo://app?vid=4a9b720d-8670-4831-85df-c88003ccc28b"},"vehicle_type_id":"4","last_reported":1731285958,"current_range_meters":38800,"station_id":"ce4bgk12rcd13ifvqbi0","pricing_plan_id":"cebpf4jnsgd1na2vs0mg"},{"bike_id":"8da2dc0f-286a-4a7c-bf69-4912bbd6400e","system_id":"levelo_inurba_marseille","lat":43.2467,"lon":5.38157,"is_reserved":false,"is_disabled":false,"rental_uris":{"android":"levelo://app?vid=8da2dc0f-286a-4a7c-bf69-4912bbd6400e","ios":"levelo://app?vid=8da2dc0f-286a-4a7c-bf69-4912bbd6400e"},"vehicle_type_id":"4","last_reported":1731285958,"current_range_meters":24400,"station_id":"ce4bhih2rcd13ifvqfr0","pricing_plan_id":"cebpf4jnsgd1na2vs0mg"},{"bike_id":"f903ea29-30fe-46ae-8eeb-7a1975d030a7","system_id":"levelo_inurba_marseille","lat":43.31708,"lon":5.37727,"is_reserved":false,"is_disabled":false,"rental_uris":{"android":"levelo://app?vid=f903ea29-30fe-46ae-8eeb-7a1975d030a7","ios":"levelo://app?vid=f903ea29-30fe-46ae-8eeb-7a1975d030a7"},"vehicle_type_id":"4","last_reported":1731285958,"current_range_meters":22000,"station_id":"ce4bgth2rcd13ifvqch0","pricing_plan_id":"cebpf4jnsgd1na2vs0mg"},{"bike_id":"5daf7e81-adca-4c69-ac49-7439dac41928","system_id":"levelo_inurba_marseille","lat":43.29561,"lon":5.42293,"is_reserved":false,"is_disabled":false,"rental_uris":{"android":"levelo://app?vid=5daf7e81-adca-4c69-ac49-7439dac41928","ios":"levelo://app?vid=5daf7e81-adca-4c69-ac49-7439dac41928"},"vehicle_type_id":"4","last_reported":1731285958,"current_range_meters":38800,"station_id":"ce4bhph2rcd13ifvqhdg","pricing_plan_id":"cebpf4jnsgd1na2vs0mg"},{"bike_id":"0d1fda9b-5e44-4ddf-8abc-e992f1e8622a","system_id":"levelo_inurba_marseille","lat":43.28468,"lon":5.35881,"is_reserved":false,"is_disabled":false,"rental_uris":{"android":"levelo://app?vid=0d1fda9b-5e44-4ddf-8abc-e992f1e8622a","ios":"levelo://app?vid=0d1fda9b-5e44-4ddf-8abc-e992f1e8622a"},"vehicle_type_id":"4","last_reported":1731285958,"current_range_meters":26000,"station_id":"ce4bhah2rcd13ifvqei0","pricing_plan_id":"cebpf4jnsgd1na2vs0mg"},{"bike_id":"8514f4d7-58a5-4183-a265-5e9a0d6124f7","system_id":"levelo_inurba_marseille","lat":43.25114,"lon":5.40314,"is_reserved":false,"is_disabled":false,"rental_uris":{"android":"levelo://app?vid=8514f4d7-58a5-4183-a265-5e9a0d6124f7","ios":"levelo://app?vid=8514f4d7-58a5-4183-a265-5e9a0d6124f7"},"vehicle_type_id":"4","last_reported":1731285958,"current_range_meters":4400,"station_id":"ce4bhlh2rcd13ifvqgig","pricing_plan_id":"cebpf4jnsgd1na2vs0mg"},{"bike_id":"2300ca5b-3406-4406-93d4-bb2eafdfc83d","system_id":"levelo_inurba_marseille","lat":43.28363,"lon":5.38638,"is_reserved":false,"is_disabled":false,"rental_uris":{"android":"levelo://app?vid=2300ca5b-3406-4406-93d4-bb2eafdfc83d","ios":"levelo://app?vid=2300ca5b-3406-4406-93d4-bb2eafdfc83d"},"vehicle_type_id":"4","last_reported":1731285958,"current_range_meters":38800,"station_id":"ce4bh492rcd13ifvqdvg","pricing_plan_id":"cebpf4jnsgd1na2vs0mg"},{"bike_id":"f3d63f4d-eadc-455d-b402-115d199e3de1","system_id":"levelo_inurba_marseille","lat":43.31082,"lon":5.42427,"is_reserved":false,"is_disabled":false,"rental_uris":{"android":"levelo://app?vid=f3d63f4d-eadc-455d-b402-115d199e3de1","ios":"levelo://app?vid=f3d63f4d-eadc-455d-b402-115d199e3de1"},"vehicle_type_id":"4","last_reported":1731285958,"current_range_meters":39200,"station_id":"ce4bhp92rcd13ifvqhag","pricing_plan_id":"cebpf4jnsgd1na2vs0mg"},{"bike_id":"b0436c84-a4da-4a3d-a57d-7a1a7366a2ae","system_id":"levelo_inurba_marseille","lat":43.27999,"lon":5.40012,"is_reserved":false,"is_disabled":false,"rental_uris":{"android":"levelo://app?vid=b0436c84-a4da-4a3d-a57d-7a1a7366a2ae","ios":"levelo://app?vid=b0436c84-a4da-4a3d-a57d-7a1a7366a2ae"},"vehicle_type_id":"4","last_reported":1731285958,"current_range_meters":38800,"station_id":"ce4bho92rcd13ifvqh4g","pricing_plan_id":"cebpf4jnsgd1na2vs0mg"},{"bike_id":"921708b5-acdf-4387-81df-b8a3576276ae","system_id":"levelo_inurba_marseille","lat":43.26488,"lon":5.39547,"is_reserved":false,"is_disabled":false,"rental_uris":{"android":"levelo://app?vid=921708b5-acdf-4387-81df-b8a3576276ae","ios":"levelo://app?vid=921708b5-acdf-4387-81df-b8a3576276ae"},"vehicle_type_id":"4","last_reported":1731285958,"current_range_meters":8400,"station_id":"ce4bhi12rcd13ifvqfq0","pricing_plan_id":"cebpf4jnsgd1na2vs0mg"},{"bike_id":"d010d249-1311-4f59-b3f0-0e75b992b647","system_id":"levelo_inurba_marseille","lat":43.2564,"lon":5.40422,"is_reserved":false,"is_disabled":false,"rental_uris":{"android":"levelo://app?vid=d010d249-1311-4f59-b3f0-0e75b992b647","ios":"levelo://app?vid=d010d249-1311-4f59-b3f0-0e75b992b647"},"vehicle_type_id":"4","last_reported":1731285958,"current_range_meters":24800,"station_id":"","pricing_plan_id":"cebpf4jnsgd1na2vs0mg"},{"bike_id":"ad8c5293-23e8-4181-89e6-c66778d08992","system_id":"levelo_inurba_marseille","lat":43.318836,"lon":5.407407,"is_reserved":false,"is_disabled":false,"rental_uris":{"android":"levelo://app?vid=ad8c5293-23e8-4181-89e6-c66778d08992","ios":"levelo://app?vid=ad8c5293-23e8-4181-89e6-c66778d08992"},"vehicle_type_id":"4","last_reported":1731285958,"current_range_meters":33600,"station_id":"ce4bguh2rcd13ifvqckg","pricing_plan_id":"cebpf4jnsgd1na2vs0mg"},{"bike_id":"6d0d5526-2b6c-4eee-93d6-42c07dbe7b80","system_id":"levelo_inurba_marseille","lat":43.25502,"lon":5.37648,"is_reserved":false,"is_disabled":false,"rental_uris":{"android":"levelo://app?vid=6d0d5526-2b6c-4eee-93d6-42c07dbe7b80","ios":"levelo://app?vid=6d0d5526-2b6c-4eee-93d6-42c07dbe7b80"},"vehicle_type_id":"4","last_reported":1731285958,"current_range_meters":38000,"station_id":"ce4bhh12rcd13ifvqff0","pricing_plan_id":"cebpf4jnsgd1na2vs0mg"},{"bike_id":"0127d6b2-e8ca-44ea-a042-e15f538e1c04","system_id":"levelo_inurba_marseille","lat":43.28475,"lon":5.35886,"is_reserved":false,"is_disabled":false,"rental_uris":{"android":"levelo://app?vid=0127d6b2-e8ca-44ea-a042-e15f538e1c04","ios":"levelo://app?vid=0127d6b2-e8ca-44ea-a042-e15f538e1c04"},"vehicle_type_id":"4","last_reported":1731285958,"current_range_meters":40000,"station_id":"ce4bhah2rcd13ifvqei0","pricing_plan_id":"cebpf4jnsgd1na2vs0mg"},{"bike_id":"56787d84-a549-4d99-a053-5f0579c51891","system_id":"levelo_inurba_marseille","lat":43.24655,"lon":5.38901,"is_reserved":false,"is_disabled":false,"rental_uris":{"android":"levelo://app?vid=56787d84-a549-4d99-a053-5f0579c51891","ios":"levelo://app?vid=56787d84-a549-4d99-a053-5f0579c51891"},"vehicle_type_id":"4","last_reported":1731285958,"current_range_meters":3600,"station_id":"ce4bhg12rcd13ifvqf60","pricing_plan_id":"cebpf4jnsgd1na2vs0mg"},{"bike_id":"40c39cd5-329e-440d-9a14-414f60fb6853","system_id":"levelo_inurba_marseille","lat":43.3171,"lon":5.37757,"is_reserved":false,"is_disabled":false,"rental_uris":{"android":"levelo://app?vid=40c39cd5-329e-440d-9a14-414f60fb6853","ios":"levelo://app?vid=40c39cd5-329e-440d-9a14-414f60fb6853"},"vehicle_type_id":"4","last_reported":1731285958,"current_range_meters":38800,"station_id":"ce4bgth2rcd13ifvqch0","pricing_plan_id":"cebpf4jnsgd1na2vs0mg"},{"bike_id":"40bb36ac-b81d-4072-b50a-ec192a9b6bfc","system_id":"levelo_inurba_marseille","lat":43.31226,"lon":5.36858,"is_reserved":false,"is_disabled":false,"rental_uris":{"android":"levelo://app?vid=40bb36ac-b81d-4072-b50a-ec192a9b6bfc","ios":"levelo://app?vid=40bb36ac-b81d-4072-b50a-ec192a9b6bfc"},"vehicle_type_id":"4","last_reported":1731285958,"current_range_meters":23200,"station_id":"ce4bgl92rcd13ifvqbq0","pricing_plan_id":"cebpf4jnsgd1na2vs0mg"},{"bike_id":"294704fb-8f95-4b35-8862-e42d43f15506","system_id":"levelo_inurba_marseille","lat":43.287155,"lon":5.37949,"is_reserved":false,"is_disabled":false,"rental_uris":{"android":"levelo://app?vid=294704fb-8f95-4b35-8862-e42d43f15506","ios":"levelo://app?vid=294704fb-8f95-4b35-8862-e42d43f15506"},"vehicle_type_id":"4","last_reported":1731285958,"current_range_meters":38800,"station_id":"ce4bh9p2rcd13ifvqec0","pricing_plan_id":"cebpf4jnsgd1na2vs0mg"},{"bike_id":"211370b9-fa11-4043-9839-d2de480f75ec","system_id":"levelo_inurba_marseille","lat":43.30784,"lon":5.37658,"is_reserved":false,"is_disabled":false,"rental_uris":{"android":"levelo://app?vid=211370b9-fa11-4043-9839-d2de480f75ec","ios":"levelo://app?vid=211370b9-fa11-4043-9839-d2de480f75ec"},"vehicle_type_id":"4","last_reported":1731285958,"current_range_meters":38800,"station_id":"ce4bgv92rcd13ifvqcq0","pricing_plan_id":"cebpf4jnsgd1na2vs0mg"},{"bike_id":"9919db7a-8b4f-4220-becb-f54e10b5b1b8","system_id":"levelo_inurba_marseille","lat":43.23058,"lon":5.35489,"is_reserved":false,"is_disabled":false,"rental_uris":{"android":"levelo://app?vid=9919db7a-8b4f-4220-becb-f54e10b5b1b8","ios":"levelo://app?vid=9919db7a-8b4f-4220-becb-f54e10b5b1b8"},"vehicle_type_id":"4","last_reported":1731285958,"current_range_meters":38000,"station_id":"cpo3342slgdg3j2ifvpg","pricing_plan_id":"cebpf4jnsgd1na2vs0mg"},{"bike_id":"b6dea35e-6994-4bc9-8df0-6e8080714556","system_id":"levelo_inurba_marseille","lat":43.28078,"lon":5.39658,"is_reserved":false,"is_disabled":false,"rental_uris":{"android":"levelo://app?vid=b6dea35e-6994-4bc9-8df0-6e8080714556","ios":"levelo://app?vid=b6dea35e-6994-4bc9-8df0-6e8080714556"},"vehicle_type_id":"4","last_reported":1731285958,"current_range_meters":21600,"station_id":"ce4bho12rcd13ifvqh2g","pricing_plan_id":"cebpf4jnsgd1na2vs0mg"},{"bike_id":"bb785616-26a0-4eb0-931b-17957df5cea3","system_id":"levelo_inurba_marseille","lat":43.29553,"lon":5.42286,"is_reserved":false,"is_disabled":false,"rental_uris":{"android":"levelo://app?vid=bb785616-26a0-4eb0-931b-17957df5cea3","ios":"levelo://app?vid=bb785616-26a0-4eb0-931b-17957df5cea3"},"vehicle_type_id":"4","last_reported":1731285958,"current_range_meters":28800,"station_id":"ce4bhph2rcd13ifvqhdg","pricing_plan_id":"cebpf4jnsgd1na2vs0mg"},{"bike_id":"3b87dcfb-1a59-4717-86a1-4f8b3263c521","system_id":"levelo_inurba_marseille","lat":43.30594,"lon":5.39348,"is_reserved":false,"is_disabled":false,"rental_uris":{"android":"levelo://app?vid=3b87dcfb-1a59-4717-86a1-4f8b3263c521","ios":"levelo://app?vid=3b87dcfb-1a59-4717-86a1-4f8b3263c521"},"vehicle_type_id":"4","last_reported":1731285958,"current_range_meters":38400,"station_id":"ce4bh0p2rcd13ifvqd80","pricing_plan_id":"cebpf4jnsgd1na2vs0mg"},{"bike_id":"956ee059-f365-458a-adda-a49994936714","system_id":"levelo_inurba_marseille","lat":43.30183,"lon":5.36628,"is_reserved":false,"is_disabled":false,"rental_uris":{"android":"levelo://app?vid=956ee059-f365-458a-adda-a49994936714","ios":"levelo://app?vid=956ee059-f365-458a-adda-a49994936714"},"vehicle_type_id":"4","last_reported":1731285958,"current_range_meters":38000,"station_id":"ce4bgrh2rcd13ifvqc8g","pricing_plan_id":"cebpf4jnsgd1na2vs0mg"},{"bike_id":"2cfd6c68-b0ed-4ae3-9fae-dfd166b591a0","system_id":"levelo_inurba_marseille","lat":43.29663,"lon":5.37009,"is_reserved":false,"is_disabled":false,"rental_uris":{"android":"levelo://app?vid=2cfd6c68-b0ed-4ae3-9fae-dfd166b591a0","ios":"levelo://app?vid=2cfd6c68-b0ed-4ae3-9fae-dfd166b591a0"},"vehicle_type_id":"4","last_reported":1731285958,"current_range_meters":20000,"station_id":"","pricing_plan_id":"cebpf4jnsgd1na2vs0mg"},{"bike_id":"932b5973-f5a0-40e3-bfe1-f20853ec25d5","system_id":"levelo_inurba_marseille","lat":43.3171,"lon":5.43703,"is_reserved":false,"is_disabled":false,"rental_uris":{"android":"levelo://app?vid=932b5973-f5a0-40e3-bfe1-f20853ec25d5","ios":"levelo://app?vid=932b5973-f5a0-40e3-bfe1-f20853ec25d5"},"vehicle_type_id":"4","last_reported":1731285958,"current_range_meters":38800,"station_id":"ce4bhp92rcd13ifvqhcg","pricing_plan_id":"cebpf4jnsgd1na2vs0mg"},{"bike_id":"8b949a42-149c-4b95-8499-b2f5cd111d1a","system_id":"levelo_inurba_marseille","lat":43.32351,"lon":5.40619,"is_reserved":false,"is_disabled":false,"rental_uris":{"android":"levelo://app?vid=8b949a42-149c-4b95-8499-b2f5cd111d1a","ios":"levelo://app?vid=8b949a42-149c-4b95-8499-b2f5cd111d1a"},"vehicle_type_id":"4","last_reported":1731285958,"current_range_meters":8800,"station_id":"ce4bhq92rcd13ifvqhjg","pricing_plan_id":"cebpf4jnsgd1na2vs0mg"},{"bike_id":"721ffa07-5205-4352-bf52-79247567bace","system_id":"levelo_inurba_marseille","lat":43.24819,"lon":5.37461,"is_reserved":false,"is_disabled":false,"rental_uris":{"android":"levelo://app?vid=721ffa07-5205-4352-bf52-79247567bace","ios":"levelo://app?vid=721ffa07-5205-4352-bf52-79247567bace"},"vehicle_type_id":"4","last_reported":1731285958,"current_range_meters":38000,"station_id":"ce4bhgh2rcd13ifvqfb0","pricing_plan_id":"cebpf4jnsgd1na2vs0mg"},{"bike_id":"d46cca38-ed3b-48b1-86da-4f669b2e379e","system_id":"levelo_inurba_marseille","lat":43.24392,"lon":5.37061,"is_reserved":false,"is_disabled":false,"rental_uris":{"android":"levelo://app?vid=d46cca38-ed3b-48b1-86da-4f669b2e379e","ios":"levelo://app?vid=d46cca38-ed3b-48b1-86da-4f669b2e379e"},"vehicle_type_id":"4","last_reported":1731285958,"current_range_meters":22800,"station_id":"ce4bhhh2rcd13ifvqfk0","pricing_plan_id":"cebpf4jnsgd1na2vs0mg"},{"bike_id":"53842b0b-662f-45de-89f4-2ac07b1eadcf","system_id":"levelo_inurba_marseille","lat":43.28107,"lon":5.37839,"is_reserved":false,"is_disabled":false,"rental_uris":{"android":"levelo://app?vid=53842b0b-662f-45de-89f4-2ac07b1eadcf","ios":"levelo://app?vid=53842b0b-662f-45de-89f4-2ac07b1eadcf"},"vehicle_type_id":"4","last_reported":1731285958,"current_range_meters":22800,"station_id":"ce4bha12rcd13ifvqee0","pricing_plan_id":"cebpf4jnsgd1na2vs0mg"},{"bike_id":"659f7423-2cbb-4e17-8758-d57f133051ba","system_id":"levelo_inurba_marseille","lat":43.28102,"lon":5.37843,"is_reserved":false,"is_disabled":false,"rental_uris":{"android":"levelo://app?vid=659f7423-2cbb-4e17-8758-d57f133051ba","ios":"levelo://app?vid=659f7423-2cbb-4e17-8758-d57f133051ba"},"vehicle_type_id":"4","last_reported":1731285958,"current_range_meters":35200,"station_id":"ce4bha12rcd13ifvqee0","pricing_plan_id":"cebpf4jnsgd1na2vs0mg"},{"bike_id":"c8d91525-1ae3-436d-89fc-f20985c98c61","system_id":"levelo_inurba_marseille","lat":43.265767,"lon":5.39027,"is_reserved":false,"is_disabled":false,"rental_uris":{"android":"levelo://app?vid=c8d91525-1ae3-436d-89fc-f20985c98c61","ios":"levelo://app?vid=c8d91525-1ae3-436d-89fc-f20985c98c61"},"vehicle_type_id":"4","last_reported":1731285958,"current_range_meters":36000,"station_id":"ce4bhe12rcd13ifvqf30","pricing_plan_id":"cebpf4jnsgd1na2vs0mg"},{"bike_id":"30e346e6-71d5-4935-973d-c9a61e3a2f99","system_id":"levelo_inurba_marseille","lat":43.30338,"lon":5.435,"is_reserved":false,"is_disabled":false,"rental_uris":{"android":"levelo://app?vid=30e346e6-71d5-4935-973d-c9a61e3a2f99","ios":"levelo://app?vid=30e346e6-71d5-4935-973d-c9a61e3a2f99"},"vehicle_type_id":"4","last_reported":1731285958,"current_range_meters":17600,"station_id":"","pricing_plan_id":"cebpf4jnsgd1na2vs0mg"},{"bike_id":"b101c052-f815-4d93-a3a9-fa872f005f65","system_id":"levelo_inurba_marseille","lat":43.30785,"lon":5.38476,"is_reserved":false,"is_disabled":false,"rental_uris":{"android":"levelo://app?vid=b101c052-f815-4d93-a3a9-fa872f005f65","ios":"levelo://app?vid=b101c052-f815-4d93-a3a9-fa872f005f65"},"vehicle_type_id":"4","last_reported":1731285958,"current_range_meters":38800,"station_id":"ce4bgg92rcd13ifvqb30","pricing_plan_id":"cebpf4jnsgd1na2vs0mg"},{"bike_id":"f3d00c04-ef69-40fc-a4d6-2239e4af165d","system_id":"levelo_inurba_marseille","lat":43.29037,"lon":5.35918,"is_reserved":false,"is_disabled":false,"rental_uris":{"android":"levelo://app?vid=f3d00c04-ef69-40fc-a4d6-2239e4af165d","ios":"levelo://app?vid=f3d00c04-ef69-40fc-a4d6-2239e4af165d"},"vehicle_type_id":"4","last_reported":1731285958,"current_range_meters":28000,"station_id":"ce4bha92rcd13ifvqeg0","pricing_plan_id":"cebpf4jnsgd1na2vs0mg"},{"bike_id":"8b98e6af-c3a0-4f14-9185-4db3640f02e5","system_id":"levelo_inurba_marseille","lat":43.28725,"lon":5.36074,"is_reserved":false,"is_disabled":false,"rental_uris":{"android":"levelo://app?vid=8b98e6af-c3a0-4f14-9185-4db3640f02e5","ios":"levelo://app?vid=8b98e6af-c3a0-4f14-9185-4db3640f02e5"},"vehicle_type_id":"4","last_reported":1731285958,"current_range_meters":33600,"station_id":"cki0cbj6b192h4jlfktg","pricing_plan_id":"cebpf4jnsgd1na2vs0mg"},{"bike_id":"b079ea28-1615-441e-9a0f-5be72eba61d6","system_id":"levelo_inurba_marseille","lat":43.26946,"lon":5.40257,"is_reserved":false,"is_disabled":false,"rental_uris":{"android":"levelo://app?vid=b079ea28-1615-441e-9a0f-5be72eba61d6","ios":"levelo://app?vid=b079ea28-1615-441e-9a0f-5be72eba61d6"},"vehicle_type_id":"4","last_reported":1731285958,"current_range_meters":6400,"station_id":"cjm6bp8fraef2m0cb0m0","pricing_plan_id":"cebpf4jnsgd1na2vs0mg"},{"bike_id":"c221efe7-efcb-49b8-a1b0-1dd8d171a453","system_id":"levelo_inurba_marseille","lat":43.33723,"lon":5.39198,"is_reserved":false,"is_disabled":false,"rental_uris":{"android":"levelo://app?vid=c221efe7-efcb-49b8-a1b0-1dd8d171a453","ios":"levelo://app?vid=c221efe7-efcb-49b8-a1b0-1dd8d171a453"},"vehicle_type_id":"4","last_reported":1731285958,"current_range_meters":38800,"station_id":"ce4bhr92rcd13ifvqhsg","pricing_plan_id":"cebpf4jnsgd1na2vs0mg"},{"bike_id":"b798777d-3520-45a5-a7f7-ea61f9eff27a","system_id":"levelo_inurba_marseille","lat":43.26058,"lon":5.39398,"is_reserved":false,"is_disabled":false,"rental_uris":{"android":"levelo://app?vid=b798777d-3520-45a5-a7f7-ea61f9eff27a","ios":"levelo://app?vid=b798777d-3520-45a5-a7f7-ea61f9eff27a"},"vehicle_type_id":"4","last_reported":1731285958,"current_range_meters":38800,"station_id":"ce4bhh92rcd13ifvqfj0","pricing_plan_id":"cebpf4jnsgd1na2vs0mg"},{"bike_id":"69b05dc1-5376-472f-a35d-b50c76a10800","system_id":"levelo_inurba_marseille","lat":43.24811,"lon":5.37458,"is_reserved":false,"is_disabled":false,"rental_uris":{"android":"levelo://app?vid=69b05dc1-5376-472f-a35d-b50c76a10800","ios":"levelo://app?vid=69b05dc1-5376-472f-a35d-b50c76a10800"},"vehicle_type_id":"4","last_reported":1731285958,"current_range_meters":38400,"station_id":"ce4bhgh2rcd13ifvqfb0","pricing_plan_id":"cebpf4jnsgd1na2vs0mg"},{"bike_id":"1bf2372b-a93d-4486-9e26-7b3eb15b2634","system_id":"levelo_inurba_marseille","lat":43.2481,"lon":5.37454,"is_reserved":false,"is_disabled":false,"rental_uris":{"android":"levelo://app?vid=1bf2372b-a93d-4486-9e26-7b3eb15b2634","ios":"levelo://app?vid=1bf2372b-a93d-4486-9e26-7b3eb15b2634"},"vehicle_type_id":"4","last_reported":1731285958,"current_range_meters":38800,"station_id":"ce4bhgh2rcd13ifvqfb0","pricing_plan_id":"cebpf4jnsgd1na2vs0mg"},{"bike_id":"ef731a02-0b1a-424d-939d-7bf74d8a297f","system_id":"levelo_inurba_marseille","lat":43.29534,"lon":5.38544,"is_reserved":false,"is_disabled":false,"rental_uris":{"android":"levelo://app?vid=ef731a02-0b1a-424d-939d-7bf74d8a297f","ios":"levelo://app?vid=ef731a02-0b1a-424d-939d-7bf74d8a297f"},"vehicle_type_id":"4","last_reported":1731285958,"current_range_meters":36000,"station_id":"ce4bgih2rcd13ifvqba0","pricing_plan_id":"cebpf4jnsgd1na2vs0mg"},{"bike_id":"2fe64070-675b-46be-9d93-6c8ed825cc13","system_id":"levelo_inurba_marseille","lat":43.31328,"lon":5.39696,"is_reserved":false,"is_disabled":false,"rental_uris":{"android":"levelo://app?vid=2fe64070-675b-46be-9d93-6c8ed825cc13","ios":"levelo://app?vid=2fe64070-675b-46be-9d93-6c8ed825cc13"},"vehicle_type_id":"4","last_reported":1731285958,"current_range_meters":26000,"station_id":"ce4bgvp2rcd13ifvqcu0","pricing_plan_id":"cebpf4jnsgd1na2vs0mg"},{"bike_id":"14ccbaba-cf1f-4790-b10b-e5a2f71db694","system_id":"levelo_inurba_marseille","lat":43.28432,"lon":5.39214,"is_reserved":false,"is_disabled":false,"rental_uris":{"android":"levelo://app?vid=14ccbaba-cf1f-4790-b10b-e5a2f71db694","ios":"levelo://app?vid=14ccbaba-cf1f-4790-b10b-e5a2f71db694"},"vehicle_type_id":"4","last_reported":1731285958,"current_range_meters":36400,"station_id":"ce4bhoh2rcd13ifvqh5g","pricing_plan_id":"cebpf4jnsgd1na2vs0mg"},{"bike_id":"1264fbec-4891-49d8-8db8-4f4ff8f5e1bc","system_id":"levelo_inurba_marseille","lat":43.30438,"lon":5.38885,"is_reserved":false,"is_disabled":false,"rental_uris":{"android":"levelo://app?vid=1264fbec-4891-49d8-8db8-4f4ff8f5e1bc","ios":"levelo://app?vid=1264fbec-4891-49d8-8db8-4f4ff8f5e1bc"},"vehicle_type_id":"4","last_reported":1731285958,"current_range_meters":17200,"station_id":"ce4bgk12rcd13ifvqbi0","pricing_plan_id":"cebpf4jnsgd1na2vs0mg"},{"bike_id":"1b801f9e-f843-4459-baf9-f66996adf626","system_id":"levelo_inurba_marseille","lat":43.32364,"lon":5.38873,"is_reserved":false,"is_disabled":false,"rental_uris":{"android":"levelo://app?vid=1b801f9e-f843-4459-baf9-f66996adf626","ios":"levelo://app?vid=1b801f9e-f843-4459-baf9-f66996adf626"},"vehicle_type_id":"4","last_reported":1731285958,"current_range_meters":22400,"station_id":"ce4bhqp2rcd13ifvqhog","pricing_plan_id":"cebpf4jnsgd1na2vs0mg"},{"bike_id":"625135ef-eb66-4925-a831-5af26ab17ace","system_id":"levelo_inurba_marseille","lat":43.304474,"lon":5.36761,"is_reserved":false,"is_disabled":false,"rental_uris":{"android":"levelo://app?vid=625135ef-eb66-4925-a831-5af26ab17ace","ios":"levelo://app?vid=625135ef-eb66-4925-a831-5af26ab17ace"},"vehicle_type_id":"4","last_reported":1731285958,"current_range_meters":37600,"station_id":"ce4bgrp2rcd13ifvqc9g","pricing_plan_id":"cebpf4jnsgd1na2vs0mg"},{"bike_id":"2972f759-c98e-4fe7-9758-85d215895273","system_id":"levelo_inurba_marseille","lat":43.2396,"lon":5.36632,"is_reserved":false,"is_disabled":false,"rental_uris":{"android":"levelo://app?vid=2972f759-c98e-4fe7-9758-85d215895273","ios":"levelo://app?vid=2972f759-c98e-4fe7-9758-85d215895273"},"vehicle_type_id":"4","last_reported":1731285958,"current_range_meters":33600,"station_id":"ce4bhi12rcd13ifvqfp0","pricing_plan_id":"cebpf4jnsgd1na2vs0mg"},{"bike_id":"e760937c-84fb-45b7-a500-463bd870cd74","system_id":"levelo_inurba_marseille","lat":43.28709,"lon":5.37944,"is_reserved":false,"is_disabled":false,"rental_uris":{"android":"levelo://app?vid=e760937c-84fb-45b7-a500-463bd870cd74","ios":"levelo://app?vid=e760937c-84fb-45b7-a500-463bd870cd74"},"vehicle_type_id":"4","last_reported":1731285958,"current_range_meters":25600,"station_id":"ce4bh9p2rcd13ifvqec0","pricing_plan_id":"cebpf4jnsgd1na2vs0mg"},{"bike_id":"4769bc6f-dec8-41e8-9b0a-570d8bc7583c","system_id":"levelo_inurba_marseille","lat":43.313578,"lon":5.367246,"is_reserved":false,"is_disabled":false,"rental_uris":{"android":"levelo://app?vid=4769bc6f-dec8-41e8-9b0a-570d8bc7583c","ios":"levelo://app?vid=4769bc6f-dec8-41e8-9b0a-570d8bc7583c"},"vehicle_type_id":"4","last_reported":1731285958,"current_range_meters":38800,"station_id":"ce4bgr92rcd13ifvqc6g","pricing_plan_id":"cebpf4jnsgd1na2vs0mg"},{"bike_id":"9330ba64-e8ac-48b5-95c4-35c2d0e50f70","system_id":"levelo_inurba_marseille","lat":43.25125,"lon":5.40319,"is_reserved":false,"is_disabled":false,"rental_uris":{"android":"levelo://app?vid=9330ba64-e8ac-48b5-95c4-35c2d0e50f70","ios":"levelo://app?vid=9330ba64-e8ac-48b5-95c4-35c2d0e50f70"},"vehicle_type_id":"4","last_reported":1731285958,"current_range_meters":28000,"station_id":"ce4bhlh2rcd13ifvqgig","pricing_plan_id":"cebpf4jnsgd1na2vs0mg"},{"bike_id":"0b0a755d-c63f-4ec7-9494-303c23789b84","system_id":"levelo_inurba_marseille","lat":43.31163,"lon":5.38731,"is_reserved":false,"is_disabled":false,"rental_uris":{"android":"levelo://app?vid=0b0a755d-c63f-4ec7-9494-303c23789b84","ios":"levelo://app?vid=0b0a755d-c63f-4ec7-9494-303c23789b84"},"vehicle_type_id":"4","last_reported":1731285958,"current_range_meters":28800,"station_id":"ce4bgv12rcd13ifvqcp0","pricing_plan_id":"cebpf4jnsgd1na2vs0mg"},{"bike_id":"f0810896-1e05-418a-bfdf-2350a695cef6","system_id":"levelo_inurba_marseille","lat":43.27618,"lon":5.36101,"is_reserved":false,"is_disabled":false,"rental_uris":{"android":"levelo://app?vid=f0810896-1e05-418a-bfdf-2350a695cef6","ios":"levelo://app?vid=f0810896-1e05-418a-bfdf-2350a695cef6"},"vehicle_type_id":"4","last_reported":1731285958,"current_range_meters":2800,"station_id":"ce4bgj92rcd13ifvqbe0","pricing_plan_id":"cebpf4jnsgd1na2vs0mg"},{"bike_id":"10dbd38b-1598-4db5-82f8-224c526f7a15","system_id":"levelo_inurba_marseille","lat":43.31055,"lon":5.38342,"is_reserved":false,"is_disabled":false,"rental_uris":{"android":"levelo://app?vid=10dbd38b-1598-4db5-82f8-224c526f7a15","ios":"levelo://app?vid=10dbd38b-1598-4db5-82f8-224c526f7a15"},"vehicle_type_id":"4","last_reported":1731285958,"current_range_meters":22800,"station_id":"ce4bgv92rcd13ifvqcr0","pricing_plan_id":"cebpf4jnsgd1na2vs0mg"},{"bike_id":"0d621820-1eb1-4a0c-a6f4-8bab4e792ea8","system_id":"levelo_inurba_marseille","lat":43.30467,"lon":5.37902,"is_reserved":false,"is_disabled":false,"rental_uris":{"android":"levelo://app?vid=0d621820-1eb1-4a0c-a6f4-8bab4e792ea8","ios":"levelo://app?vid=0d621820-1eb1-4a0c-a6f4-8bab4e792ea8"},"vehicle_type_id":"4","last_reported":1731285958,"current_range_meters":38800,"station_id":"ce4bgup2rcd13ifvqcn0","pricing_plan_id":"cebpf4jnsgd1na2vs0mg"},{"bike_id":"b48c52a9-7fcd-4530-afe3-d36407912ee6","system_id":"levelo_inurba_marseille","lat":43.29372,"lon":5.37859,"is_reserved":false,"is_disabled":false,"rental_uris":{"android":"levelo://app?vid=b48c52a9-7fcd-4530-afe3-d36407912ee6","ios":"levelo://app?vid=b48c52a9-7fcd-4530-afe3-d36407912ee6"},"vehicle_type_id":"4","last_reported":1731285958,"current_range_meters":38000,"station_id":"ce4bgjh2rcd13ifvqbf0","pricing_plan_id":"cebpf4jnsgd1na2vs0mg"},{"bike_id":"4c4b1438-0e32-4ef2-94c5-21cf434d843d","system_id":"levelo_inurba_marseille","lat":43.31722,"lon":5.42398,"is_reserved":false,"is_disabled":false,"rental_uris":{"android":"levelo://app?vid=4c4b1438-0e32-4ef2-94c5-21cf434d843d","ios":"levelo://app?vid=4c4b1438-0e32-4ef2-94c5-21cf434d843d"},"vehicle_type_id":"4","last_reported":1731285958,"current_range_meters":20800,"station_id":"ce4bhp92rcd13ifvqhbg","pricing_plan_id":"cebpf4jnsgd1na2vs0mg"},{"bike_id":"f5e15a2f-e8a2-4d92-b750-56640dcc1ec0","system_id":"levelo_inurba_marseille","lat":43.33025,"lon":5.39041,"is_reserved":false,"is_disabled":false,"rental_uris":{"android":"levelo://app?vid=f5e15a2f-e8a2-4d92-b750-56640dcc1ec0","ios":"levelo://app?vid=f5e15a2f-e8a2-4d92-b750-56640dcc1ec0"},"vehicle_type_id":"4","last_reported":1731285958,"current_range_meters":30000,"station_id":"ce4bhr92rcd13ifvqhrg","pricing_plan_id":"cebpf4jnsgd1na2vs0mg"},{"bike_id":"c961734d-c5ad-44f3-a7ab-a999312fe292","system_id":"levelo_inurba_marseille","lat":43.28621,"lon":5.35099,"is_reserved":false,"is_disabled":false,"rental_uris":{"android":"levelo://app?vid=c961734d-c5ad-44f3-a7ab-a999312fe292","ios":"levelo://app?vid=c961734d-c5ad-44f3-a7ab-a999312fe292"},"vehicle_type_id":"4","last_reported":1731285958,"current_range_meters":15200,"station_id":"ce4bhch2rcd13ifvqeug","pricing_plan_id":"cebpf4jnsgd1na2vs0mg"},{"bike_id":"b9478b1d-79e3-44c9-ae60-496dd5151f62","system_id":"levelo_inurba_marseille","lat":43.29167,"lon":5.37146,"is_reserved":false,"is_disabled":false,"rental_uris":{"android":"levelo://app?vid=b9478b1d-79e3-44c9-ae60-496dd5151f62","ios":"levelo://app?vid=b9478b1d-79e3-44c9-ae60-496dd5151f62"},"vehicle_type_id":"4","last_reported":1731285958,"current_range_meters":28400,"station_id":"ce4bha92rcd13ifvqeh0","pricing_plan_id":"cebpf4jnsgd1na2vs0mg"},{"bike_id":"47d7337d-6e6e-4043-ac8b-68ee7acc1ec7","system_id":"levelo_inurba_marseille","lat":43.25085,"lon":5.39523,"is_reserved":false,"is_disabled":false,"rental_uris":{"android":"levelo://app?vid=47d7337d-6e6e-4043-ac8b-68ee7acc1ec7","ios":"levelo://app?vid=47d7337d-6e6e-4043-ac8b-68ee7acc1ec7"},"vehicle_type_id":"4","last_reported":1731285958,"current_range_meters":20000,"station_id":"ce4bhm12rcd13ifvqgkg","pricing_plan_id":"cebpf4jnsgd1na2vs0mg"},{"bike_id":"eb7f2906-b458-476c-9daa-9e60c1ee4455","system_id":"levelo_inurba_marseille","lat":43.2815,"lon":5.42643,"is_reserved":false,"is_disabled":false,"rental_uris":{"android":"levelo://app?vid=eb7f2906-b458-476c-9daa-9e60c1ee4455","ios":"levelo://app?vid=eb7f2906-b458-476c-9daa-9e60c1ee4455"},"vehicle_type_id":"4","last_reported":1731285958,"current_range_meters":38800,"station_id":"ce4bhnh2rcd13ifvqgug","pricing_plan_id":"cebpf4jnsgd1na2vs0mg"},{"bike_id":"9fe48acf-6a1b-404d-b918-a38e9e9af4b5","system_id":"levelo_inurba_marseille","lat":43.27894,"lon":5.38004,"is_reserved":false,"is_disabled":false,"rental_uris":{"android":"levelo://app?vid=9fe48acf-6a1b-404d-b918-a38e9e9af4b5","ios":"levelo://app?vid=9fe48acf-6a1b-404d-b918-a38e9e9af4b5"},"vehicle_type_id":"4","last_reported":1731285958,"current_range_meters":35200,"station_id":"ce4bhf92rcd13ifvqf50","pricing_plan_id":"cebpf4jnsgd1na2vs0mg"},{"bike_id":"606120ec-c12c-47f4-b7e9-0220feacd55e","system_id":"levelo_inurba_marseille","lat":43.25872,"lon":5.39903,"is_reserved":false,"is_disabled":false,"rental_uris":{"android":"levelo://app?vid=606120ec-c12c-47f4-b7e9-0220feacd55e","ios":"levelo://app?vid=606120ec-c12c-47f4-b7e9-0220feacd55e"},"vehicle_type_id":"4","last_reported":1731285958,"current_range_meters":38800,"station_id":"ce4bhl92rcd13ifvqghg","pricing_plan_id":"cebpf4jnsgd1na2vs0mg"},{"bike_id":"f32c9343-b753-4b4c-9313-033fb01441d1","system_id":"levelo_inurba_marseille","lat":43.29761,"lon":5.37793,"is_reserved":false,"is_disabled":false,"rental_uris":{"android":"levelo://app?vid=f32c9343-b753-4b4c-9313-033fb01441d1","ios":"levelo://app?vid=f32c9343-b753-4b4c-9313-033fb01441d1"},"vehicle_type_id":"4","last_reported":1731285958,"current_range_meters":18000,"station_id":"","pricing_plan_id":"cebpf4jnsgd1na2vs0mg"},{"bike_id":"334282a0-6cf0-4206-bb4e-2c52f48e6183","system_id":"levelo_inurba_marseille","lat":43.29627,"lon":5.40599,"is_reserved":false,"is_disabled":false,"rental_uris":{"android":"levelo://app?vid=334282a0-6cf0-4206-bb4e-2c52f48e6183","ios":"levelo://app?vid=334282a0-6cf0-4206-bb4e-2c52f48e6183"},"vehicle_type_id":"4","last_reported":1731285958,"current_range_meters":8400,"station_id":"ce4bh0h2rcd13ifvqd60","pricing_plan_id":"cebpf4jnsgd1na2vs0mg"},{"bike_id":"c853d64b-97bb-4172-a6fa-f2cf9b1d8cd6","system_id":"levelo_inurba_marseille","lat":43.30425,"lon":5.39758,"is_reserved":false,"is_disabled":false,"rental_uris":{"android":"levelo://app?vid=c853d64b-97bb-4172-a6fa-f2cf9b1d8cd6","ios":"levelo://app?vid=c853d64b-97bb-4172-a6fa-f2cf9b1d8cd6"},"vehicle_type_id":"4","last_reported":1731285958,"current_range_meters":38800,"station_id":"ce4bh092rcd13ifvqd20","pricing_plan_id":"cebpf4jnsgd1na2vs0mg"},{"bike_id":"a8411e45-d741-49af-bae3-6b83ebf0b203","system_id":"levelo_inurba_marseille","lat":43.27496,"lon":5.42451,"is_reserved":false,"is_disabled":false,"rental_uris":{"android":"levelo://app?vid=a8411e45-d741-49af-bae3-6b83ebf0b203","ios":"levelo://app?vid=a8411e45-d741-49af-bae3-6b83ebf0b203"},"vehicle_type_id":"4","last_reported":1731285958,"current_range_meters":38800,"station_id":"ce4bhn92rcd13ifvqgrg","pricing_plan_id":"cebpf4jnsgd1na2vs0mg"},{"bike_id":"84032cfd-f507-4ffb-bfcd-2961831b6f3d","system_id":"levelo_inurba_marseille","lat":43.28711,"lon":5.37942,"is_reserved":false,"is_disabled":false,"rental_uris":{"android":"levelo://app?vid=84032cfd-f507-4ffb-bfcd-2961831b6f3d","ios":"levelo://app?vid=84032cfd-f507-4ffb-bfcd-2961831b6f3d"},"vehicle_type_id":"4","last_reported":1731285958,"current_range_meters":33200,"station_id":"ce4bh9p2rcd13ifvqec0","pricing_plan_id":"cebpf4jnsgd1na2vs0mg"},{"bike_id":"e60cacc4-ae87-489f-ae4e-597f8ac99365","system_id":"levelo_inurba_marseille","lat":43.28158,"lon":5.4264,"is_reserved":false,"is_disabled":false,"rental_uris":{"android":"levelo://app?vid=e60cacc4-ae87-489f-ae4e-597f8ac99365","ios":"levelo://app?vid=e60cacc4-ae87-489f-ae4e-597f8ac99365"},"vehicle_type_id":"4","last_reported":1731285958,"current_range_meters":33200,"station_id":"ce4bhnh2rcd13ifvqgug","pricing_plan_id":"cebpf4jnsgd1na2vs0mg"},{"bike_id":"94621a1c-bab9-47a5-929b-5762bc81479b","system_id":"levelo_inurba_marseille","lat":43.29907,"lon":5.37476,"is_reserved":false,"is_disabled":false,"rental_uris":{"android":"levelo://app?vid=94621a1c-bab9-47a5-929b-5762bc81479b","ios":"levelo://app?vid=94621a1c-bab9-47a5-929b-5762bc81479b"},"vehicle_type_id":"4","last_reported":1731285958,"current_range_meters":37600,"station_id":"ce4bgjh2rcd13ifvqbg0","pricing_plan_id":"cebpf4jnsgd1na2vs0mg"},{"bike_id":"489b672c-9f71-4c7e-abe4-e6dc15515dd7","system_id":"levelo_inurba_marseille","lat":43.31326,"lon":5.39701,"is_reserved":false,"is_disabled":false,"rental_uris":{"android":"levelo://app?vid=489b672c-9f71-4c7e-abe4-e6dc15515dd7","ios":"levelo://app?vid=489b672c-9f71-4c7e-abe4-e6dc15515dd7"},"vehicle_type_id":"4","last_reported":1731285958,"current_range_meters":33600,"station_id":"ce4bgvp2rcd13ifvqcu0","pricing_plan_id":"cebpf4jnsgd1na2vs0mg"},{"bike_id":"c6a7e4b3-e7df-4998-bd75-49aa058b4773","system_id":"levelo_inurba_marseille","lat":43.30595,"lon":5.39362,"is_reserved":false,"is_disabled":false,"rental_uris":{"android":"levelo://app?vid=c6a7e4b3-e7df-4998-bd75-49aa058b4773","ios":"levelo://app?vid=c6a7e4b3-e7df-4998-bd75-49aa058b4773"},"vehicle_type_id":"4","last_reported":1731285958,"current_range_meters":16000,"station_id":"ce4bgjh2rcd13ifvqbg0","pricing_plan_id":"cebpf4jnsgd1na2vs0mg"},{"bike_id":"aa20706e-8c7a-437d-8991-ef06613a0f1c","system_id":"levelo_inurba_marseille","lat":43.29196,"lon":5.39324,"is_reserved":false,"is_disabled":false,"rental_uris":{"android":"levelo://app?vid=aa20706e-8c7a-437d-8991-ef06613a0f1c","ios":"levelo://app?vid=aa20706e-8c7a-437d-8991-ef06613a0f1c"},"vehicle_type_id":"4","last_reported":1731285958,"current_range_meters":36000,"station_id":"ce4bh192rcd13ifvqdd0","pricing_plan_id":"cebpf4jnsgd1na2vs0mg"},{"bike_id":"465ef657-63c6-4af2-8920-28c4dcb4d943","system_id":"levelo_inurba_marseille","lat":43.29032,"lon":5.39972,"is_reserved":false,"is_disabled":false,"rental_uris":{"android":"levelo://app?vid=465ef657-63c6-4af2-8920-28c4dcb4d943","ios":"levelo://app?vid=465ef657-63c6-4af2-8920-28c4dcb4d943"},"vehicle_type_id":"4","last_reported":1731285958,"current_range_meters":39200,"station_id":"ce4bh392rcd13ifvqdm0","pricing_plan_id":"cebpf4jnsgd1na2vs0mg"},{"bike_id":"0845e7cd-2a20-421e-b3c5-0522b6ef9837","system_id":"levelo_inurba_marseille","lat":43.30804,"lon":5.38162,"is_reserved":false,"is_disabled":false,"rental_uris":{"android":"levelo://app?vid=0845e7cd-2a20-421e-b3c5-0522b6ef9837","ios":"levelo://app?vid=0845e7cd-2a20-421e-b3c5-0522b6ef9837"},"vehicle_type_id":"4","last_reported":1731285958,"current_range_meters":38800,"station_id":"ce4bgt12rcd13ifvqce0","pricing_plan_id":"cebpf4jnsgd1na2vs0mg"},{"bike_id":"f1c64ce5-248f-4955-8b9f-2a336ccdbe36","system_id":"levelo_inurba_marseille","lat":43.30095,"lon":5.39086,"is_reserved":false,"is_disabled":false,"rental_uris":{"android":"levelo://app?vid=f1c64ce5-248f-4955-8b9f-2a336ccdbe36","ios":"levelo://app?vid=f1c64ce5-248f-4955-8b9f-2a336ccdbe36"},"vehicle_type_id":"4","last_reported":1731285958,"current_range_meters":34000,"station_id":"ce4bh192rcd13ifvqdb0","pricing_plan_id":"cebpf4jnsgd1na2vs0mg"},{"bike_id":"85e2f4f3-6aa2-4c02-8cb0-3f10017cc61a","system_id":"levelo_inurba_marseille","lat":43.25084,"lon":5.39518,"is_reserved":false,"is_disabled":false,"rental_uris":{"android":"levelo://app?vid=85e2f4f3-6aa2-4c02-8cb0-3f10017cc61a","ios":"levelo://app?vid=85e2f4f3-6aa2-4c02-8cb0-3f10017cc61a"},"vehicle_type_id":"4","last_reported":1731285958,"current_range_meters":39200,"station_id":"ce4bhm12rcd13ifvqgkg","pricing_plan_id":"cebpf4jnsgd1na2vs0mg"},{"bike_id":"010f34fa-5fe4-441f-a433-65d10dd050db","system_id":"levelo_inurba_marseille","lat":43.29546,"lon":5.42286,"is_reserved":false,"is_disabled":false,"rental_uris":{"android":"levelo://app?vid=010f34fa-5fe4-441f-a433-65d10dd050db","ios":"levelo://app?vid=010f34fa-5fe4-441f-a433-65d10dd050db"},"vehicle_type_id":"4","last_reported":1731285958,"current_range_meters":38000,"station_id":"ce4bhph2rcd13ifvqhdg","pricing_plan_id":"cebpf4jnsgd1na2vs0mg"},{"bike_id":"66aad50d-29b7-4c87-a666-47475f7dc35f","system_id":"levelo_inurba_marseille","lat":43.30787,"lon":5.37652,"is_reserved":false,"is_disabled":false,"rental_uris":{"android":"levelo://app?vid=66aad50d-29b7-4c87-a666-47475f7dc35f","ios":"levelo://app?vid=66aad50d-29b7-4c87-a666-47475f7dc35f"},"vehicle_type_id":"4","last_reported":1731285958,"current_range_meters":38800,"station_id":"ce4bgv92rcd13ifvqcq0","pricing_plan_id":"cebpf4jnsgd1na2vs0mg"},{"bike_id":"02e5dafe-fcef-4405-9cf5-47651341713d","system_id":"levelo_inurba_marseille","lat":43.24171,"lon":5.36395,"is_reserved":false,"is_disabled":false,"rental_uris":{"android":"levelo://app?vid=02e5dafe-fcef-4405-9cf5-47651341713d","ios":"levelo://app?vid=02e5dafe-fcef-4405-9cf5-47651341713d"},"vehicle_type_id":"4","last_reported":1731285958,"current_range_meters":6800,"station_id":"cpo36qri1sfpv3e86is0","pricing_plan_id":"cebpf4jnsgd1na2vs0mg"},{"bike_id":"1738d94f-8cb1-44cf-affb-0b3bc5528744","system_id":"levelo_inurba_marseille","lat":43.31724,"lon":5.42392,"is_reserved":false,"is_disabled":false,"rental_uris":{"android":"levelo://app?vid=1738d94f-8cb1-44cf-affb-0b3bc5528744","ios":"levelo://app?vid=1738d94f-8cb1-44cf-affb-0b3bc5528744"},"vehicle_type_id":"4","last_reported":1731285958,"current_range_meters":24000,"station_id":"ce4bhp92rcd13ifvqhbg","pricing_plan_id":"cebpf4jnsgd1na2vs0mg"},{"bike_id":"f8cfdd82-8d04-4431-ab55-2f120a65a0f5","system_id":"levelo_inurba_marseille","lat":43.29865,"lon":5.39741,"is_reserved":false,"is_disabled":false,"rental_uris":{"android":"levelo://app?vid=f8cfdd82-8d04-4431-ab55-2f120a65a0f5","ios":"levelo://app?vid=f8cfdd82-8d04-4431-ab55-2f120a65a0f5"},"vehicle_type_id":"4","last_reported":1731285958,"current_range_meters":27200,"station_id":"ce4bh0h2rcd13ifvqd50","pricing_plan_id":"cebpf4jnsgd1na2vs0mg"},{"bike_id":"cbbf72bb-7106-410a-baec-4c97b8ecaa3c","system_id":"levelo_inurba_marseille","lat":43.31529,"lon":5.37334,"is_reserved":false,"is_disabled":false,"rental_uris":{"android":"levelo://app?vid=cbbf72bb-7106-410a-baec-4c97b8ecaa3c","ios":"levelo://app?vid=cbbf72bb-7106-410a-baec-4c97b8ecaa3c"},"vehicle_type_id":"4","last_reported":1731285958,"current_range_meters":38800,"station_id":"","pricing_plan_id":"cebpf4jnsgd1na2vs0mg"},{"bike_id":"29474779-dc90-4ba2-b48c-911f6e0c5c08","system_id":"levelo_inurba_marseille","lat":43.30426,"lon":5.38894,"is_reserved":false,"is_disabled":false,"rental_uris":{"android":"levelo://app?vid=29474779-dc90-4ba2-b48c-911f6e0c5c08","ios":"levelo://app?vid=29474779-dc90-4ba2-b48c-911f6e0c5c08"},"vehicle_type_id":"4","last_reported":1731285958,"current_range_meters":26800,"station_id":"ce4bgk12rcd13ifvqbi0","pricing_plan_id":"cebpf4jnsgd1na2vs0mg"},{"bike_id":"47c8651c-41a7-4b07-b3d0-de53e215e982","system_id":"levelo_inurba_marseille","lat":43.33604,"lon":5.41026,"is_reserved":false,"is_disabled":false,"rental_uris":{"android":"levelo://app?vid=47c8651c-41a7-4b07-b3d0-de53e215e982","ios":"levelo://app?vid=47c8651c-41a7-4b07-b3d0-de53e215e982"},"vehicle_type_id":"4","last_reported":1731285958,"current_range_meters":14800,"station_id":"ce4bhqh2rcd13ifvqhmg","pricing_plan_id":"cebpf4jnsgd1na2vs0mg"},{"bike_id":"8bac9053-3887-4a8c-beaf-c9a3ca84e1f9","system_id":"levelo_inurba_marseille","lat":43.29911,"lon":5.37439,"is_reserved":false,"is_disabled":false,"rental_uris":{"android":"levelo://app?vid=8bac9053-3887-4a8c-beaf-c9a3ca84e1f9","ios":"levelo://app?vid=8bac9053-3887-4a8c-beaf-c9a3ca84e1f9"},"vehicle_type_id":"4","last_reported":1731285958,"current_range_meters":36800,"station_id":"ce4bgjh2rcd13ifvqbg0","pricing_plan_id":"cebpf4jnsgd1na2vs0mg"},{"bike_id":"7c4f5f1c-61d2-4950-845d-ba73306a290c","system_id":"levelo_inurba_marseille","lat":43.284626,"lon":5.358881,"is_reserved":false,"is_disabled":false,"rental_uris":{"android":"levelo://app?vid=7c4f5f1c-61d2-4950-845d-ba73306a290c","ios":"levelo://app?vid=7c4f5f1c-61d2-4950-845d-ba73306a290c"},"vehicle_type_id":"4","last_reported":1731285958,"current_range_meters":24800,"station_id":"ce4bhah2rcd13ifvqei0","pricing_plan_id":"cebpf4jnsgd1na2vs0mg"},{"bike_id":"13ffe9c4-6949-472d-af45-8d12943493b7","system_id":"levelo_inurba_marseille","lat":43.2466,"lon":5.3816,"is_reserved":false,"is_disabled":false,"rental_uris":{"android":"levelo://app?vid=13ffe9c4-6949-472d-af45-8d12943493b7","ios":"levelo://app?vid=13ffe9c4-6949-472d-af45-8d12943493b7"},"vehicle_type_id":"4","last_reported":1731285958,"current_range_meters":8400,"station_id":"ce4bhih2rcd13ifvqfr0","pricing_plan_id":"cebpf4jnsgd1na2vs0mg"},{"bike_id":"61ebae1e-7e43-4156-bc77-b929042392dc","system_id":"levelo_inurba_marseille","lat":43.29167,"lon":5.37145,"is_reserved":false,"is_disabled":false,"rental_uris":{"android":"levelo://app?vid=61ebae1e-7e43-4156-bc77-b929042392dc","ios":"levelo://app?vid=61ebae1e-7e43-4156-bc77-b929042392dc"},"vehicle_type_id":"4","last_reported":1731285958,"current_range_meters":36800,"station_id":"ce4bha92rcd13ifvqeh0","pricing_plan_id":"cebpf4jnsgd1na2vs0mg"},{"bike_id":"22dd4144-58a7-41da-8ce7-7bbdff661f8f","system_id":"levelo_inurba_marseille","lat":43.30638,"lon":5.40084,"is_reserved":false,"is_disabled":false,"rental_uris":{"android":"levelo://app?vid=22dd4144-58a7-41da-8ce7-7bbdff661f8f","ios":"levelo://app?vid=22dd4144-58a7-41da-8ce7-7bbdff661f8f"},"vehicle_type_id":"4","last_reported":1731285958,"current_range_meters":33200,"station_id":"ce4bh112rcd13ifvqda0","pricing_plan_id":"cebpf4jnsgd1na2vs0mg"},{"bike_id":"88d3f98d-5593-457e-b86b-279db7794a34","system_id":"levelo_inurba_marseille","lat":43.33023,"lon":5.39044,"is_reserved":false,"is_disabled":false,"rental_uris":{"android":"levelo://app?vid=88d3f98d-5593-457e-b86b-279db7794a34","ios":"levelo://app?vid=88d3f98d-5593-457e-b86b-279db7794a34"},"vehicle_type_id":"4","last_reported":1731285958,"current_range_meters":39200,"station_id":"ce4bhr92rcd13ifvqhrg","pricing_plan_id":"cebpf4jnsgd1na2vs0mg"},{"bike_id":"ff5eba47-f448-475d-b524-e9477f18a564","system_id":"levelo_inurba_marseille","lat":43.28389,"lon":5.37533,"is_reserved":false,"is_disabled":false,"rental_uris":{"android":"levelo://app?vid=ff5eba47-f448-475d-b524-e9477f18a564","ios":"levelo://app?vid=ff5eba47-f448-475d-b524-e9477f18a564"},"vehicle_type_id":"4","last_reported":1731285958,"current_range_meters":12800,"station_id":"ce4bh412rcd13ifvqds0","pricing_plan_id":"cebpf4jnsgd1na2vs0mg"},{"bike_id":"290f68a1-8ec1-403d-b59a-20fe2755ec72","system_id":"levelo_inurba_marseille","lat":43.27205,"lon":5.39186,"is_reserved":false,"is_disabled":false,"rental_uris":{"android":"levelo://app?vid=290f68a1-8ec1-403d-b59a-20fe2755ec72","ios":"levelo://app?vid=290f68a1-8ec1-403d-b59a-20fe2755ec72"},"vehicle_type_id":"4","last_reported":1731285958,"current_range_meters":38800,"station_id":"ce4bhhp2rcd13ifvqfm0","pricing_plan_id":"cebpf4jnsgd1na2vs0mg"},{"bike_id":"41ed6bb9-c2dc-4fdb-81de-0d1d0083b405","system_id":"levelo_inurba_marseille","lat":43.27319,"lon":5.3909,"is_reserved":false,"is_disabled":false,"rental_uris":{"android":"levelo://app?vid=41ed6bb9-c2dc-4fdb-81de-0d1d0083b405","ios":"levelo://app?vid=41ed6bb9-c2dc-4fdb-81de-0d1d0083b405"},"vehicle_type_id":"4","last_reported":1731285958,"current_range_meters":38800,"station_id":"ce4bhgp2rcd13ifvqfe0","pricing_plan_id":"cebpf4jnsgd1na2vs0mg"},{"bike_id":"25f2aab5-1c14-47cc-acc5-4aeebede3bf6","system_id":"levelo_inurba_marseille","lat":43.29257,"lon":5.40908,"is_reserved":false,"is_disabled":false,"rental_uris":{"android":"levelo://app?vid=25f2aab5-1c14-47cc-acc5-4aeebede3bf6","ios":"levelo://app?vid=25f2aab5-1c14-47cc-acc5-4aeebede3bf6"},"vehicle_type_id":"4","last_reported":1731285958,"current_range_meters":32000,"station_id":"ce4bh192rcd13ifvqdc0","pricing_plan_id":"cebpf4jnsgd1na2vs0mg"},{"bike_id":"ff826d5f-1eb1-45da-a41f-ba2e15664aa6","system_id":"levelo_inurba_marseille","lat":43.25821,"lon":5.39431,"is_reserved":false,"is_disabled":false,"rental_uris":{"android":"levelo://app?vid=ff826d5f-1eb1-45da-a41f-ba2e15664aa6","ios":"levelo://app?vid=ff826d5f-1eb1-45da-a41f-ba2e15664aa6"},"vehicle_type_id":"4","last_reported":1731285958,"current_range_meters":7200,"station_id":"ce4bhip2rcd13ifvqft0","pricing_plan_id":"cebpf4jnsgd1na2vs0mg"},{"bike_id":"1ee9f643-eb82-4de4-8408-716174a84576","system_id":"levelo_inurba_marseille","lat":43.31074,"lon":5.38355,"is_reserved":false,"is_disabled":false,"rental_uris":{"android":"levelo://app?vid=1ee9f643-eb82-4de4-8408-716174a84576","ios":"levelo://app?vid=1ee9f643-eb82-4de4-8408-716174a84576"},"vehicle_type_id":"4","last_reported":1731285958,"current_range_meters":23200,"station_id":"ce4bgv92rcd13ifvqcr0","pricing_plan_id":"cebpf4jnsgd1na2vs0mg"},{"bike_id":"b8cdbc72-fb69-4a3a-8350-1fcbc7da926b","system_id":"levelo_inurba_marseille","lat":43.25871,"lon":5.39901,"is_reserved":false,"is_disabled":false,"rental_uris":{"android":"levelo://app?vid=b8cdbc72-fb69-4a3a-8350-1fcbc7da926b","ios":"levelo://app?vid=b8cdbc72-fb69-4a3a-8350-1fcbc7da926b"},"vehicle_type_id":"4","last_reported":1731285958,"current_range_meters":38800,"station_id":"ce4bhl92rcd13ifvqghg","pricing_plan_id":"cebpf4jnsgd1na2vs0mg"},{"bike_id":"ca6bc757-afb2-47ae-8348-d50290e625d2","system_id":"levelo_inurba_marseille","lat":43.24811,"lon":5.37462,"is_reserved":false,"is_disabled":false,"rental_uris":{"android":"levelo://app?vid=ca6bc757-afb2-47ae-8348-d50290e625d2","ios":"levelo://app?vid=ca6bc757-afb2-47ae-8348-d50290e625d2"},"vehicle_type_id":"4","last_reported":1731285958,"current_range_meters":32400,"station_id":"ce4bhgh2rcd13ifvqfb0","pricing_plan_id":"cebpf4jnsgd1na2vs0mg"},{"bike_id":"da77c34d-7889-4891-a3fb-3bbc62c64651","system_id":"levelo_inurba_marseille","lat":43.25117,"lon":5.40318,"is_reserved":false,"is_disabled":false,"rental_uris":{"android":"levelo://app?vid=da77c34d-7889-4891-a3fb-3bbc62c64651","ios":"levelo://app?vid=da77c34d-7889-4891-a3fb-3bbc62c64651"},"vehicle_type_id":"4","last_reported":1731285958,"current_range_meters":8000,"station_id":"ce4bhlh2rcd13ifvqgig","pricing_plan_id":"cebpf4jnsgd1na2vs0mg"},{"bike_id":"7c0cb028-e14a-4ce8-9521-fd167b9559e4","system_id":"levelo_inurba_marseille","lat":43.2925,"lon":5.40909,"is_reserved":false,"is_disabled":false,"rental_uris":{"android":"levelo://app?vid=7c0cb028-e14a-4ce8-9521-fd167b9559e4","ios":"levelo://app?vid=7c0cb028-e14a-4ce8-9521-fd167b9559e4"},"vehicle_type_id":"4","last_reported":1731285958,"current_range_meters":28800,"station_id":"ce4bh192rcd13ifvqdc0","pricing_plan_id":"cebpf4jnsgd1na2vs0mg"},{"bike_id":"e50300dd-a5fd-457f-bdfb-d648184a3057","system_id":"levelo_inurba_marseille","lat":43.30439,"lon":5.38888,"is_reserved":false,"is_disabled":false,"rental_uris":{"android":"levelo://app?vid=e50300dd-a5fd-457f-bdfb-d648184a3057","ios":"levelo://app?vid=e50300dd-a5fd-457f-bdfb-d648184a3057"},"vehicle_type_id":"4","last_reported":1731285958,"current_range_meters":32800,"station_id":"ce4bgk12rcd13ifvqbi0","pricing_plan_id":"cebpf4jnsgd1na2vs0mg"},{"bike_id":"c248e6ea-a25f-4c63-bbcb-77234e8dbe04","system_id":"levelo_inurba_marseille","lat":43.28709,"lon":5.37943,"is_reserved":false,"is_disabled":false,"rental_uris":{"android":"levelo://app?vid=c248e6ea-a25f-4c63-bbcb-77234e8dbe04","ios":"levelo://app?vid=c248e6ea-a25f-4c63-bbcb-77234e8dbe04"},"vehicle_type_id":"4","last_reported":1731285958,"current_range_meters":28800,"station_id":"ce4bh9p2rcd13ifvqec0","pricing_plan_id":"cebpf4jnsgd1na2vs0mg"},{"bike_id":"e738de8b-a66f-4c15-a663-5e44be3697c6","system_id":"levelo_inurba_marseille","lat":43.27324,"lon":5.39088,"is_reserved":false,"is_disabled":false,"rental_uris":{"android":"levelo://app?vid=e738de8b-a66f-4c15-a663-5e44be3697c6","ios":"levelo://app?vid=e738de8b-a66f-4c15-a663-5e44be3697c6"},"vehicle_type_id":"4","last_reported":1731285958,"current_range_meters":37600,"station_id":"ce4bhgp2rcd13ifvqfe0","pricing_plan_id":"cebpf4jnsgd1na2vs0mg"},{"bike_id":"d5349297-e0f7-440a-abba-c2504a87c7b8","system_id":"levelo_inurba_marseille","lat":43.30937,"lon":5.40144,"is_reserved":false,"is_disabled":false,"rental_uris":{"android":"levelo://app?vid=d5349297-e0f7-440a-abba-c2504a87c7b8","ios":"levelo://app?vid=d5349297-e0f7-440a-abba-c2504a87c7b8"},"vehicle_type_id":"4","last_reported":1731285958,"current_range_meters":38800,"station_id":"ce4bgvp2rcd13ifvqct0","pricing_plan_id":"cebpf4jnsgd1na2vs0mg"},{"bike_id":"677ac035-8000-41aa-9513-47cb01ad048c","system_id":"levelo_inurba_marseille","lat":43.29441,"lon":5.39756,"is_reserved":false,"is_disabled":false,"rental_uris":{"android":"levelo://app?vid=677ac035-8000-41aa-9513-47cb01ad048c","ios":"levelo://app?vid=677ac035-8000-41aa-9513-47cb01ad048c"},"vehicle_type_id":"4","last_reported":1731285958,"current_range_meters":38800,"station_id":"ce4bh3h2rcd13ifvqdo0","pricing_plan_id":"cebpf4jnsgd1na2vs0mg"},{"bike_id":"6e437b1e-b003-45f0-8ca3-93ff649327af","system_id":"levelo_inurba_marseille","lat":43.27952,"lon":5.41037,"is_reserved":false,"is_disabled":false,"rental_uris":{"android":"levelo://app?vid=6e437b1e-b003-45f0-8ca3-93ff649327af","ios":"levelo://app?vid=6e437b1e-b003-45f0-8ca3-93ff649327af"},"vehicle_type_id":"4","last_reported":1731285958,"current_range_meters":38800,"station_id":"ce4bhnp2rcd13ifvqh0g","pricing_plan_id":"cebpf4jnsgd1na2vs0mg"},{"bike_id":"7861581a-cdb5-44de-a95a-5c779ebd5422","system_id":"levelo_inurba_marseille","lat":43.31219,"lon":5.36858,"is_reserved":false,"is_disabled":false,"rental_uris":{"android":"levelo://app?vid=7861581a-cdb5-44de-a95a-5c779ebd5422","ios":"levelo://app?vid=7861581a-cdb5-44de-a95a-5c779ebd5422"},"vehicle_type_id":"4","last_reported":1731285958,"current_range_meters":20800,"station_id":"ce4bgl92rcd13ifvqbq0","pricing_plan_id":"cebpf4jnsgd1na2vs0mg"},{"bike_id":"f204905c-7b94-45eb-bd5e-9b72157ae1f2","system_id":"levelo_inurba_marseille","lat":43.23184,"lon":5.39981,"is_reserved":false,"is_disabled":false,"rental_uris":{"android":"levelo://app?vid=f204905c-7b94-45eb-bd5e-9b72157ae1f2","ios":"levelo://app?vid=f204905c-7b94-45eb-bd5e-9b72157ae1f2"},"vehicle_type_id":"4","last_reported":1731285958,"current_range_meters":37600,"station_id":"ce4bhn12rcd13ifvqgqg","pricing_plan_id":"cebpf4jnsgd1na2vs0mg"},{"bike_id":"d088e21c-5930-4768-8086-cf979e55d33e","system_id":"levelo_inurba_marseille","lat":43.296692,"lon":5.400161,"is_reserved":false,"is_disabled":false,"rental_uris":{"android":"levelo://app?vid=d088e21c-5930-4768-8086-cf979e55d33e","ios":"levelo://app?vid=d088e21c-5930-4768-8086-cf979e55d33e"},"vehicle_type_id":"4","last_reported":1731285958,"current_range_meters":32000,"station_id":"","pricing_plan_id":"cebpf4jnsgd1na2vs0mg"},{"bike_id":"feffc8ab-2e7b-4bb0-84fc-9bb951b4758b","system_id":"levelo_inurba_marseille","lat":43.311419,"lon":5.423943,"is_reserved":false,"is_disabled":false,"rental_uris":{"android":"levelo://app?vid=feffc8ab-2e7b-4bb0-84fc-9bb951b4758b","ios":"levelo://app?vid=feffc8ab-2e7b-4bb0-84fc-9bb951b4758b"},"vehicle_type_id":"4","last_reported":1731285958,"current_range_meters":18800,"station_id":"ce4bhp92rcd13ifvqhag","pricing_plan_id":"cebpf4jnsgd1na2vs0mg"},{"bike_id":"4b53c73b-555f-42e8-90ce-4cd91ba65607","system_id":"levelo_inurba_marseille","lat":43.31761,"lon":5.39006,"is_reserved":false,"is_disabled":false,"rental_uris":{"android":"levelo://app?vid=4b53c73b-555f-42e8-90ce-4cd91ba65607","ios":"levelo://app?vid=4b53c73b-555f-42e8-90ce-4cd91ba65607"},"vehicle_type_id":"4","last_reported":1731285958,"current_range_meters":38800,"station_id":"ce4bhqp2rcd13ifvqhng","pricing_plan_id":"cebpf4jnsgd1na2vs0mg"},{"bike_id":"7c040458-0d9d-4dba-8be9-eb133f22a51b","system_id":"levelo_inurba_marseille","lat":43.31166,"lon":5.38727,"is_reserved":false,"is_disabled":false,"rental_uris":{"android":"levelo://app?vid=7c040458-0d9d-4dba-8be9-eb133f22a51b","ios":"levelo://app?vid=7c040458-0d9d-4dba-8be9-eb133f22a51b"},"vehicle_type_id":"4","last_reported":1731285958,"current_range_meters":39200,"station_id":"ce4bgv12rcd13ifvqcp0","pricing_plan_id":"cebpf4jnsgd1na2vs0mg"},{"bike_id":"820a30a6-4b5c-45ec-9763-3d0da061e275","system_id":"levelo_inurba_marseille","lat":43.3081,"lon":5.38156,"is_reserved":false,"is_disabled":false,"rental_uris":{"android":"levelo://app?vid=820a30a6-4b5c-45ec-9763-3d0da061e275","ios":"levelo://app?vid=820a30a6-4b5c-45ec-9763-3d0da061e275"},"vehicle_type_id":"4","last_reported":1731285958,"current_range_meters":36000,"station_id":"ce4bgt12rcd13ifvqce0","pricing_plan_id":"cebpf4jnsgd1na2vs0mg"},{"bike_id":"3415faaa-c111-4a6c-a879-a8c962906233","system_id":"levelo_inurba_marseille","lat":43.27052,"lon":5.40259,"is_reserved":false,"is_disabled":false,"rental_uris":{"android":"levelo://app?vid=3415faaa-c111-4a6c-a879-a8c962906233","ios":"levelo://app?vid=3415faaa-c111-4a6c-a879-a8c962906233"},"vehicle_type_id":"4","last_reported":1731285958,"current_range_meters":38800,"station_id":"ce4bhk92rcd13ifvqgc0","pricing_plan_id":"cebpf4jnsgd1na2vs0mg"},{"bike_id":"181fa628-fd06-4339-88f4-5d411c857699","system_id":"levelo_inurba_marseille","lat":43.27073,"lon":5.42277,"is_reserved":false,"is_disabled":false,"rental_uris":{"android":"levelo://app?vid=181fa628-fd06-4339-88f4-5d411c857699","ios":"levelo://app?vid=181fa628-fd06-4339-88f4-5d411c857699"},"vehicle_type_id":"4","last_reported":1731285958,"current_range_meters":6400,"station_id":"ce4bhk92rcd13ifvqgb0","pricing_plan_id":"cebpf4jnsgd1na2vs0mg"},{"bike_id":"f054ca35-33b8-4b86-b110-2f02434cfd09","system_id":"levelo_inurba_marseille","lat":43.29627,"lon":5.40603,"is_reserved":false,"is_disabled":false,"rental_uris":{"android":"levelo://app?vid=f054ca35-33b8-4b86-b110-2f02434cfd09","ios":"levelo://app?vid=f054ca35-33b8-4b86-b110-2f02434cfd09"},"vehicle_type_id":"4","last_reported":1731285958,"current_range_meters":38000,"station_id":"ce4bh0h2rcd13ifvqd60","pricing_plan_id":"cebpf4jnsgd1na2vs0mg"},{"bike_id":"22931996-5e95-4c2e-a240-6c53909b536c","system_id":"levelo_inurba_marseille","lat":43.26216,"lon":5.37436,"is_reserved":false,"is_disabled":false,"rental_uris":{"android":"levelo://app?vid=22931996-5e95-4c2e-a240-6c53909b536c","ios":"levelo://app?vid=22931996-5e95-4c2e-a240-6c53909b536c"},"vehicle_type_id":"4","last_reported":1731285958,"current_range_meters":22800,"station_id":"ce4bhgp2rcd13ifvqfc0","pricing_plan_id":"cebpf4jnsgd1na2vs0mg"},{"bike_id":"e193da84-3188-45b5-9fe0-86924a122ac2","system_id":"levelo_inurba_marseille","lat":43.25124,"lon":5.40319,"is_reserved":false,"is_disabled":false,"rental_uris":{"android":"levelo://app?vid=e193da84-3188-45b5-9fe0-86924a122ac2","ios":"levelo://app?vid=e193da84-3188-45b5-9fe0-86924a122ac2"},"vehicle_type_id":"4","last_reported":1731285958,"current_range_meters":38800,"station_id":"ce4bhlh2rcd13ifvqgig","pricing_plan_id":"cebpf4jnsgd1na2vs0mg"},{"bike_id":"9a5eb101-92a2-4eeb-93bd-8d070d90c1ea","system_id":"levelo_inurba_marseille","lat":43.30439,"lon":5.42537,"is_reserved":false,"is_disabled":false,"rental_uris":{"android":"levelo://app?vid=9a5eb101-92a2-4eeb-93bd-8d070d90c1ea","ios":"levelo://app?vid=9a5eb101-92a2-4eeb-93bd-8d070d90c1ea"},"vehicle_type_id":"4","last_reported":1731285958,"current_range_meters":9200,"station_id":"","pricing_plan_id":"cebpf4jnsgd1na2vs0mg"},{"bike_id":"4de74ec0-48a2-4451-a65d-5ac6f613a308","system_id":"levelo_inurba_marseille","lat":43.24812,"lon":5.37454,"is_reserved":false,"is_disabled":false,"rental_uris":{"android":"levelo://app?vid=4de74ec0-48a2-4451-a65d-5ac6f613a308","ios":"levelo://app?vid=4de74ec0-48a2-4451-a65d-5ac6f613a308"},"vehicle_type_id":"4","last_reported":1731285958,"current_range_meters":37600,"station_id":"ce4bhgh2rcd13ifvqfb0","pricing_plan_id":"cebpf4jnsgd1na2vs0mg"},{"bike_id":"5574c5c0-6884-4d99-8cb9-177fa8d343fc","system_id":"levelo_inurba_marseille","lat":43.30415,"lon":5.41286,"is_reserved":false,"is_disabled":false,"rental_uris":{"android":"levelo://app?vid=5574c5c0-6884-4d99-8cb9-177fa8d343fc","ios":"levelo://app?vid=5574c5c0-6884-4d99-8cb9-177fa8d343fc"},"vehicle_type_id":"4","last_reported":1731285958,"current_range_meters":4000,"station_id":"ce4bhop2rcd13ifvqh8g","pricing_plan_id":"cebpf4jnsgd1na2vs0mg"},{"bike_id":"32814224-bb9d-4e01-8ff4-51a08a384423","system_id":"levelo_inurba_marseille","lat":43.30587,"lon":5.37224,"is_reserved":false,"is_disabled":false,"rental_uris":{"android":"levelo://app?vid=32814224-bb9d-4e01-8ff4-51a08a384423","ios":"levelo://app?vid=32814224-bb9d-4e01-8ff4-51a08a384423"},"vehicle_type_id":"4","last_reported":1731285958,"current_range_meters":38400,"station_id":"ce4bgqh2rcd13ifvqc4g","pricing_plan_id":"cebpf4jnsgd1na2vs0mg"},{"bike_id":"df1a0c9f-5c99-4cc6-8e61-e78185fcde03","system_id":"levelo_inurba_marseille","lat":43.25084,"lon":5.39509,"is_reserved":false,"is_disabled":false,"rental_uris":{"android":"levelo://app?vid=df1a0c9f-5c99-4cc6-8e61-e78185fcde03","ios":"levelo://app?vid=df1a0c9f-5c99-4cc6-8e61-e78185fcde03"},"vehicle_type_id":"4","last_reported":1731285958,"current_range_meters":10000,"station_id":"ce4bhm12rcd13ifvqgkg","pricing_plan_id":"cebpf4jnsgd1na2vs0mg"},{"bike_id":"de74e5d6-266e-4837-8def-696d0fbea764","system_id":"levelo_inurba_marseille","lat":43.303,"lon":5.39213,"is_reserved":false,"is_disabled":false,"rental_uris":{"android":"levelo://app?vid=de74e5d6-266e-4837-8def-696d0fbea764","ios":"levelo://app?vid=de74e5d6-266e-4837-8def-696d0fbea764"},"vehicle_type_id":"4","last_reported":1731285958,"current_range_meters":37600,"station_id":"ce4bgkh2rcd13ifvqbk0","pricing_plan_id":"cebpf4jnsgd1na2vs0mg"},{"bike_id":"4c39aa19-0c48-4846-ae4a-17bcc31d5e1d","system_id":"levelo_inurba_marseille","lat":43.32366,"lon":5.38879,"is_reserved":false,"is_disabled":false,"rental_uris":{"android":"levelo://app?vid=4c39aa19-0c48-4846-ae4a-17bcc31d5e1d","ios":"levelo://app?vid=4c39aa19-0c48-4846-ae4a-17bcc31d5e1d"},"vehicle_type_id":"4","last_reported":1731285958,"current_range_meters":10000,"station_id":"ce4bhqp2rcd13ifvqhog","pricing_plan_id":"cebpf4jnsgd1na2vs0mg"},{"bike_id":"7aed7d18-f422-442e-a36e-6f60682f6903","system_id":"levelo_inurba_marseille","lat":43.28441,"lon":5.39187,"is_reserved":false,"is_disabled":false,"rental_uris":{"android":"levelo://app?vid=7aed7d18-f422-442e-a36e-6f60682f6903","ios":"levelo://app?vid=7aed7d18-f422-442e-a36e-6f60682f6903"},"vehicle_type_id":"4","last_reported":1731285958,"current_range_meters":38800,"station_id":"ce4bhoh2rcd13ifvqh5g","pricing_plan_id":"cebpf4jnsgd1na2vs0mg"},{"bike_id":"d1d7a58c-6198-42c5-91ce-d708d38d99a2","system_id":"levelo_inurba_marseille","lat":43.3088,"lon":5.39652,"is_reserved":false,"is_disabled":false,"rental_uris":{"android":"levelo://app?vid=d1d7a58c-6198-42c5-91ce-d708d38d99a2","ios":"levelo://app?vid=d1d7a58c-6198-42c5-91ce-d708d38d99a2"},"vehicle_type_id":"4","last_reported":1731285958,"current_range_meters":38800,"station_id":"ce4bh012rcd13ifvqcv0","pricing_plan_id":"cebpf4jnsgd1na2vs0mg"},{"bike_id":"e7201826-80f7-490b-93a0-25d91f0a9986","system_id":"levelo_inurba_marseille","lat":43.29846,"lon":5.36273,"is_reserved":false,"is_disabled":false,"rental_uris":{"android":"levelo://app?vid=e7201826-80f7-490b-93a0-25d91f0a9986","ios":"levelo://app?vid=e7201826-80f7-490b-93a0-25d91f0a9986"},"vehicle_type_id":"4","last_reported":1731285958,"current_range_meters":38800,"station_id":"ce4bgpp2rcd13ifvqc3g","pricing_plan_id":"cebpf4jnsgd1na2vs0mg"},{"bike_id":"1e7fd650-28c5-42ee-9922-4070c0acdb85","system_id":"levelo_inurba_marseille","lat":43.27492,"lon":5.42454,"is_reserved":false,"is_disabled":false,"rental_uris":{"android":"levelo://app?vid=1e7fd650-28c5-42ee-9922-4070c0acdb85","ios":"levelo://app?vid=1e7fd650-28c5-42ee-9922-4070c0acdb85"},"vehicle_type_id":"4","last_reported":1731285958,"current_range_meters":36800,"station_id":"ce4bhn92rcd13ifvqgrg","pricing_plan_id":"cebpf4jnsgd1na2vs0mg"},{"bike_id":"a0c7ccd2-4ee1-482d-96e8-0a58feb4eeb1","system_id":"levelo_inurba_marseille","lat":43.25121,"lon":5.40314,"is_reserved":false,"is_disabled":false,"rental_uris":{"android":"levelo://app?vid=a0c7ccd2-4ee1-482d-96e8-0a58feb4eeb1","ios":"levelo://app?vid=a0c7ccd2-4ee1-482d-96e8-0a58feb4eeb1"},"vehicle_type_id":"4","last_reported":1731285958,"current_range_meters":38800,"station_id":"ce4bhlh2rcd13ifvqgig","pricing_plan_id":"cebpf4jnsgd1na2vs0mg"},{"bike_id":"a83a36a4-9bfa-4d89-b35d-a4d64766c566","system_id":"levelo_inurba_marseille","lat":43.29436,"lon":5.39754,"is_reserved":false,"is_disabled":false,"rental_uris":{"android":"levelo://app?vid=a83a36a4-9bfa-4d89-b35d-a4d64766c566","ios":"levelo://app?vid=a83a36a4-9bfa-4d89-b35d-a4d64766c566"},"vehicle_type_id":"4","last_reported":1731285958,"current_range_meters":38800,"station_id":"ce4bh3h2rcd13ifvqdo0","pricing_plan_id":"cebpf4jnsgd1na2vs0mg"},{"bike_id":"0fbff871-faec-4856-9eae-856706ec94f1","system_id":"levelo_inurba_marseille","lat":43.2757,"lon":5.38436,"is_reserved":false,"is_disabled":false,"rental_uris":{"android":"levelo://app?vid=0fbff871-faec-4856-9eae-856706ec94f1","ios":"levelo://app?vid=0fbff871-faec-4856-9eae-856706ec94f1"},"vehicle_type_id":"4","last_reported":1731285958,"current_range_meters":14800,"station_id":"ce4bhh92rcd13ifvqfi0","pricing_plan_id":"cebpf4jnsgd1na2vs0mg"},{"bike_id":"ada9c1c5-a5a1-4aea-9fb9-213fda53ee37","system_id":"levelo_inurba_marseille","lat":43.30963,"lon":5.39029,"is_reserved":false,"is_disabled":false,"rental_uris":{"android":"levelo://app?vid=ada9c1c5-a5a1-4aea-9fb9-213fda53ee37","ios":"levelo://app?vid=ada9c1c5-a5a1-4aea-9fb9-213fda53ee37"},"vehicle_type_id":"4","last_reported":1731285958,"current_range_meters":38800,"station_id":"ce4bgup2rcd13ifvqco0","pricing_plan_id":"cebpf4jnsgd1na2vs0mg"},{"bike_id":"c86f9753-23bf-4b0b-99f7-a3303d896d97","system_id":"levelo_inurba_marseille","lat":43.23186,"lon":5.39985,"is_reserved":false,"is_disabled":false,"rental_uris":{"android":"levelo://app?vid=c86f9753-23bf-4b0b-99f7-a3303d896d97","ios":"levelo://app?vid=c86f9753-23bf-4b0b-99f7-a3303d896d97"},"vehicle_type_id":"4","last_reported":1731285958,"current_range_meters":7200,"station_id":"ce4bhn12rcd13ifvqgqg","pricing_plan_id":"cebpf4jnsgd1na2vs0mg"},{"bike_id":"5ab9d430-3d2b-4a66-870b-567fac89b27f","system_id":"levelo_inurba_marseille","lat":43.31326,"lon":5.3969,"is_reserved":false,"is_disabled":false,"rental_uris":{"android":"levelo://app?vid=5ab9d430-3d2b-4a66-870b-567fac89b27f","ios":"levelo://app?vid=5ab9d430-3d2b-4a66-870b-567fac89b27f"},"vehicle_type_id":"4","last_reported":1731285958,"current_range_meters":39200,"station_id":"ce4bgvp2rcd13ifvqcu0","pricing_plan_id":"cebpf4jnsgd1na2vs0mg"},{"bike_id":"6a748616-373e-479c-abc1-afb22301214a","system_id":"levelo_inurba_marseille","lat":43.287,"lon":5.39982,"is_reserved":false,"is_disabled":false,"rental_uris":{"android":"levelo://app?vid=6a748616-373e-479c-abc1-afb22301214a","ios":"levelo://app?vid=6a748616-373e-479c-abc1-afb22301214a"},"vehicle_type_id":"4","last_reported":1731285958,"current_range_meters":17600,"station_id":"ce4bho92rcd13ifvqh3g","pricing_plan_id":"cebpf4jnsgd1na2vs0mg"},{"bike_id":"07704a86-dbed-425a-854d-11b1a4e3d84c","system_id":"levelo_inurba_marseille","lat":43.33752,"lon":5.37452,"is_reserved":false,"is_disabled":false,"rental_uris":{"android":"levelo://app?vid=07704a86-dbed-425a-854d-11b1a4e3d84c","ios":"levelo://app?vid=07704a86-dbed-425a-854d-11b1a4e3d84c"},"vehicle_type_id":"4","last_reported":1731285958,"current_range_meters":28000,"station_id":"","pricing_plan_id":"cebpf4jnsgd1na2vs0mg"},{"bike_id":"db7f20f0-d04b-4e4d-8592-7305cc479d0c","system_id":"levelo_inurba_marseille","lat":43.29981,"lon":5.37192,"is_reserved":false,"is_disabled":false,"rental_uris":{"android":"levelo://app?vid=db7f20f0-d04b-4e4d-8592-7305cc479d0c","ios":"levelo://app?vid=db7f20f0-d04b-4e4d-8592-7305cc479d0c"},"vehicle_type_id":"4","last_reported":1731285958,"current_range_meters":38400,"station_id":"ce4bgr92rcd13ifvqc7g","pricing_plan_id":"cebpf4jnsgd1na2vs0mg"},{"bike_id":"3937b7ab-3518-4666-aab1-233738354c10","system_id":"levelo_inurba_marseille","lat":43.30889,"lon":5.37196,"is_reserved":false,"is_disabled":false,"rental_uris":{"android":"levelo://app?vid=3937b7ab-3518-4666-aab1-233738354c10","ios":"levelo://app?vid=3937b7ab-3518-4666-aab1-233738354c10"},"vehicle_type_id":"4","last_reported":1731285958,"current_range_meters":10000,"station_id":"ce4bguh2rcd13ifvqckg","pricing_plan_id":"cebpf4jnsgd1na2vs0mg"},{"bike_id":"0b74ce83-e6b1-4485-8ca6-3897f29a426e","system_id":"levelo_inurba_marseille","lat":43.2396,"lon":5.3663,"is_reserved":false,"is_disabled":false,"rental_uris":{"android":"levelo://app?vid=0b74ce83-e6b1-4485-8ca6-3897f29a426e","ios":"levelo://app?vid=0b74ce83-e6b1-4485-8ca6-3897f29a426e"},"vehicle_type_id":"4","last_reported":1731285958,"current_range_meters":6400,"station_id":"ce4bhi12rcd13ifvqfp0","pricing_plan_id":"cebpf4jnsgd1na2vs0mg"},{"bike_id":"0651e938-1c66-49f6-b919-1a33e9626503","system_id":"levelo_inurba_marseille","lat":43.31117,"lon":5.37772,"is_reserved":false,"is_disabled":false,"rental_uris":{"android":"levelo://app?vid=0651e938-1c66-49f6-b919-1a33e9626503","ios":"levelo://app?vid=0651e938-1c66-49f6-b919-1a33e9626503"},"vehicle_type_id":"4","last_reported":1731285958,"current_range_meters":37600,"station_id":"ce4bgt92rcd13ifvqcg0","pricing_plan_id":"cebpf4jnsgd1na2vs0mg"},{"bike_id":"6a1a5935-385d-4baa-b1a0-aaf8e0d922fa","system_id":"levelo_inurba_marseille","lat":43.23185,"lon":5.39986,"is_reserved":false,"is_disabled":false,"rental_uris":{"android":"levelo://app?vid=6a1a5935-385d-4baa-b1a0-aaf8e0d922fa","ios":"levelo://app?vid=6a1a5935-385d-4baa-b1a0-aaf8e0d922fa"},"vehicle_type_id":"4","last_reported":1731285958,"current_range_meters":10800,"station_id":"ce4bhn12rcd13ifvqgqg","pricing_plan_id":"cebpf4jnsgd1na2vs0mg"},{"bike_id":"2652cfa3-a49a-4930-812f-281e2fd93595","system_id":"levelo_inurba_marseille","lat":43.31881,"lon":5.40743,"is_reserved":false,"is_disabled":false,"rental_uris":{"android":"levelo://app?vid=2652cfa3-a49a-4930-812f-281e2fd93595","ios":"levelo://app?vid=2652cfa3-a49a-4930-812f-281e2fd93595"},"vehicle_type_id":"4","last_reported":1731285958,"current_range_meters":4800,"station_id":"ce4bhq12rcd13ifvqhig","pricing_plan_id":"cebpf4jnsgd1na2vs0mg"},{"bike_id":"e8ba0b51-9b96-4e09-bf52-7a0da55cd7db","system_id":"levelo_inurba_marseille","lat":43.31999,"lon":5.38159,"is_reserved":false,"is_disabled":false,"rental_uris":{"android":"levelo://app?vid=e8ba0b51-9b96-4e09-bf52-7a0da55cd7db","ios":"levelo://app?vid=e8ba0b51-9b96-4e09-bf52-7a0da55cd7db"},"vehicle_type_id":"4","last_reported":1731285958,"current_range_meters":26800,"station_id":"ce4bhr12rcd13ifvqhpg","pricing_plan_id":"cebpf4jnsgd1na2vs0mg"},{"bike_id":"3d39d700-7173-4a12-8921-aec2f5a130a7","system_id":"levelo_inurba_marseille","lat":43.304169,"lon":5.39745,"is_reserved":false,"is_disabled":false,"rental_uris":{"android":"levelo://app?vid=3d39d700-7173-4a12-8921-aec2f5a130a7","ios":"levelo://app?vid=3d39d700-7173-4a12-8921-aec2f5a130a7"},"vehicle_type_id":"4","last_reported":1731285958,"current_range_meters":12800,"station_id":"ce4bh092rcd13ifvqd20","pricing_plan_id":"cebpf4jnsgd1na2vs0mg"},{"bike_id":"471c24df-c195-43ad-89b8-0d470fc104ba","system_id":"levelo_inurba_marseille","lat":43.31884,"lon":5.40738,"is_reserved":false,"is_disabled":false,"rental_uris":{"android":"levelo://app?vid=471c24df-c195-43ad-89b8-0d470fc104ba","ios":"levelo://app?vid=471c24df-c195-43ad-89b8-0d470fc104ba"},"vehicle_type_id":"4","last_reported":1731285958,"current_range_meters":19600,"station_id":"ce4bhq12rcd13ifvqhig","pricing_plan_id":"cebpf4jnsgd1na2vs0mg"},{"bike_id":"00d5f030-c61b-4aa4-82f8-32bd79521653","system_id":"levelo_inurba_marseille","lat":43.2972,"lon":5.37688,"is_reserved":false,"is_disabled":false,"rental_uris":{"android":"levelo://app?vid=00d5f030-c61b-4aa4-82f8-32bd79521653","ios":"levelo://app?vid=00d5f030-c61b-4aa4-82f8-32bd79521653"},"vehicle_type_id":"4","last_reported":1731285958,"current_range_meters":34800,"station_id":"ce4bgkh2rcd13ifvqbl0","pricing_plan_id":"cebpf4jnsgd1na2vs0mg"},{"bike_id":"baac3be3-010c-4ab7-b814-2af962c842f8","system_id":"levelo_inurba_marseille","lat":43.28364,"lon":5.37527,"is_reserved":false,"is_disabled":false,"rental_uris":{"android":"levelo://app?vid=baac3be3-010c-4ab7-b814-2af962c842f8","ios":"levelo://app?vid=baac3be3-010c-4ab7-b814-2af962c842f8"},"vehicle_type_id":"4","last_reported":1731285958,"current_range_meters":24400,"station_id":"ce4bh412rcd13ifvqds0","pricing_plan_id":"cebpf4jnsgd1na2vs0mg"},{"bike_id":"353821ec-a05a-438e-812f-949d644cdf6b","system_id":"levelo_inurba_marseille","lat":43.29937,"lon":5.36543,"is_reserved":false,"is_disabled":false,"rental_uris":{"android":"levelo://app?vid=353821ec-a05a-438e-812f-949d644cdf6b","ios":"levelo://app?vid=353821ec-a05a-438e-812f-949d644cdf6b"},"vehicle_type_id":"4","last_reported":1731285958,"current_range_meters":16000,"station_id":"ce4bgm92rcd13ifvqbr0","pricing_plan_id":"cebpf4jnsgd1na2vs0mg"},{"bike_id":"f0235109-590b-484a-84ac-e33c050c0124","system_id":"levelo_inurba_marseille","lat":43.25109,"lon":5.4032,"is_reserved":false,"is_disabled":false,"rental_uris":{"android":"levelo://app?vid=f0235109-590b-484a-84ac-e33c050c0124","ios":"levelo://app?vid=f0235109-590b-484a-84ac-e33c050c0124"},"vehicle_type_id":"4","last_reported":1731285958,"current_range_meters":25600,"station_id":"ce4bhlh2rcd13ifvqgig","pricing_plan_id":"cebpf4jnsgd1na2vs0mg"},{"bike_id":"969227a2-98bf-4ab5-b6d3-e479d8b3607b","system_id":"levelo_inurba_marseille","lat":43.31528,"lon":5.38028,"is_reserved":false,"is_disabled":false,"rental_uris":{"android":"levelo://app?vid=969227a2-98bf-4ab5-b6d3-e479d8b3607b","ios":"levelo://app?vid=969227a2-98bf-4ab5-b6d3-e479d8b3607b"},"vehicle_type_id":"4","last_reported":1731285958,"current_range_meters":25200,"station_id":"ce4bhsp2rcd13ifvqi50","pricing_plan_id":"cebpf4jnsgd1na2vs0mg"},{"bike_id":"f5293701-df9b-4a3c-bf61-d686249e5d80","system_id":"levelo_inurba_marseille","lat":43.25865,"lon":5.39902,"is_reserved":false,"is_disabled":false,"rental_uris":{"android":"levelo://app?vid=f5293701-df9b-4a3c-bf61-d686249e5d80","ios":"levelo://app?vid=f5293701-df9b-4a3c-bf61-d686249e5d80"},"vehicle_type_id":"4","last_reported":1731285958,"current_range_meters":36000,"station_id":"ce4bhl92rcd13ifvqghg","pricing_plan_id":"cebpf4jnsgd1na2vs0mg"},{"bike_id":"c7991350-f502-47da-856b-da455b7bdad1","system_id":"levelo_inurba_marseille","lat":43.23153,"lon":5.43723,"is_reserved":false,"is_disabled":false,"rental_uris":{"android":"levelo://app?vid=c7991350-f502-47da-856b-da455b7bdad1","ios":"levelo://app?vid=c7991350-f502-47da-856b-da455b7bdad1"},"vehicle_type_id":"4","last_reported":1731285958,"current_range_meters":38800,"station_id":"ce4bhmp2rcd13ifvqgog","pricing_plan_id":"cebpf4jnsgd1na2vs0mg"},{"bike_id":"6cde4c04-b0af-4388-b53d-81ed2ec25717","system_id":"levelo_inurba_marseille","lat":43.31885,"lon":5.40733,"is_reserved":false,"is_disabled":false,"rental_uris":{"android":"levelo://app?vid=6cde4c04-b0af-4388-b53d-81ed2ec25717","ios":"levelo://app?vid=6cde4c04-b0af-4388-b53d-81ed2ec25717"},"vehicle_type_id":"4","last_reported":1731285958,"current_range_meters":38400,"station_id":"ce4bhq12rcd13ifvqhig","pricing_plan_id":"cebpf4jnsgd1na2vs0mg"},{"bike_id":"8bc1e43e-b37b-49c8-8367-5379902b4936","system_id":"levelo_inurba_marseille","lat":43.3093,"lon":5.40142,"is_reserved":false,"is_disabled":false,"rental_uris":{"android":"levelo://app?vid=8bc1e43e-b37b-49c8-8367-5379902b4936","ios":"levelo://app?vid=8bc1e43e-b37b-49c8-8367-5379902b4936"},"vehicle_type_id":"4","last_reported":1731285958,"current_range_meters":38800,"station_id":"ce4bgvp2rcd13ifvqct0","pricing_plan_id":"cebpf4jnsgd1na2vs0mg"},{"bike_id":"7c59c113-339d-4f9b-b12b-18190bdaf895","system_id":"levelo_inurba_marseille","lat":43.25082,"lon":5.39528,"is_reserved":false,"is_disabled":false,"rental_uris":{"android":"levelo://app?vid=7c59c113-339d-4f9b-b12b-18190bdaf895","ios":"levelo://app?vid=7c59c113-339d-4f9b-b12b-18190bdaf895"},"vehicle_type_id":"4","last_reported":1731285958,"current_range_meters":39200,"station_id":"ce4bhm12rcd13ifvqgkg","pricing_plan_id":"cebpf4jnsgd1na2vs0mg"},{"bike_id":"f231988b-c677-4d61-8d18-d58a52fe96b5","system_id":"levelo_inurba_marseille","lat":43.25506,"lon":5.37653,"is_reserved":false,"is_disabled":false,"rental_uris":{"android":"levelo://app?vid=f231988b-c677-4d61-8d18-d58a52fe96b5","ios":"levelo://app?vid=f231988b-c677-4d61-8d18-d58a52fe96b5"},"vehicle_type_id":"4","last_reported":1731285958,"current_range_meters":38000,"station_id":"ce4bhh12rcd13ifvqff0","pricing_plan_id":"cebpf4jnsgd1na2vs0mg"},{"bike_id":"a2a4cf47-31fa-4fcc-9655-0f590765a862","system_id":"levelo_inurba_marseille","lat":43.30297,"lon":5.39216,"is_reserved":false,"is_disabled":false,"rental_uris":{"android":"levelo://app?vid=a2a4cf47-31fa-4fcc-9655-0f590765a862","ios":"levelo://app?vid=a2a4cf47-31fa-4fcc-9655-0f590765a862"},"vehicle_type_id":"4","last_reported":1731285958,"current_range_meters":28000,"station_id":"ce4bgkh2rcd13ifvqbk0","pricing_plan_id":"cebpf4jnsgd1na2vs0mg"},{"bike_id":"ea77615d-eb29-4dcb-adde-5a0e7526e07c","system_id":"levelo_inurba_marseille","lat":43.2572,"lon":5.41114,"is_reserved":false,"is_disabled":false,"rental_uris":{"android":"levelo://app?vid=ea77615d-eb29-4dcb-adde-5a0e7526e07c","ios":"levelo://app?vid=ea77615d-eb29-4dcb-adde-5a0e7526e07c"},"vehicle_type_id":"4","last_reported":1731285958,"current_range_meters":32000,"station_id":"ce4bhkp2rcd13ifvqgd0","pricing_plan_id":"cebpf4jnsgd1na2vs0mg"},{"bike_id":"ab88d134-9b82-458a-a8c5-5574dab0724b","system_id":"levelo_inurba_marseille","lat":43.30307,"lon":5.36898,"is_reserved":false,"is_disabled":false,"rental_uris":{"android":"levelo://app?vid=ab88d134-9b82-458a-a8c5-5574dab0724b","ios":"levelo://app?vid=ab88d134-9b82-458a-a8c5-5574dab0724b"},"vehicle_type_id":"4","last_reported":1731285958,"current_range_meters":16000,"station_id":"ce4bgqh2rcd13ifvqc5g","pricing_plan_id":"cebpf4jnsgd1na2vs0mg"},{"bike_id":"2247684c-edc2-405a-aa03-95b9e51392c0","system_id":"levelo_inurba_marseille","lat":43.29248,"lon":5.409,"is_reserved":false,"is_disabled":false,"rental_uris":{"android":"levelo://app?vid=2247684c-edc2-405a-aa03-95b9e51392c0","ios":"levelo://app?vid=2247684c-edc2-405a-aa03-95b9e51392c0"},"vehicle_type_id":"4","last_reported":1731285958,"current_range_meters":38400,"station_id":"ce4bh192rcd13ifvqdc0","pricing_plan_id":"cebpf4jnsgd1na2vs0mg"},{"bike_id":"85f3ddc3-1af9-4244-a6e8-4949da19964c","system_id":"levelo_inurba_marseille","lat":43.27063,"lon":5.42269,"is_reserved":false,"is_disabled":false,"rental_uris":{"android":"levelo://app?vid=85f3ddc3-1af9-4244-a6e8-4949da19964c","ios":"levelo://app?vid=85f3ddc3-1af9-4244-a6e8-4949da19964c"},"vehicle_type_id":"4","last_reported":1731285958,"current_range_meters":38800,"station_id":"ce4bhk92rcd13ifvqgb0","pricing_plan_id":"cebpf4jnsgd1na2vs0mg"},{"bike_id":"c51379d8-4ea9-46bf-a61b-9108abbdf7d2","system_id":"levelo_inurba_marseille","lat":43.2836,"lon":5.38639,"is_reserved":false,"is_disabled":false,"rental_uris":{"android":"levelo://app?vid=c51379d8-4ea9-46bf-a61b-9108abbdf7d2","ios":"levelo://app?vid=c51379d8-4ea9-46bf-a61b-9108abbdf7d2"},"vehicle_type_id":"4","last_reported":1731285958,"current_range_meters":16800,"station_id":"ce4bh492rcd13ifvqdvg","pricing_plan_id":"cebpf4jnsgd1na2vs0mg"},{"bike_id":"e550835f-6ecd-4a76-9b7c-29cc81fd1c2e","system_id":"levelo_inurba_marseille","lat":43.28704,"lon":5.37387,"is_reserved":false,"is_disabled":false,"rental_uris":{"android":"levelo://app?vid=e550835f-6ecd-4a76-9b7c-29cc81fd1c2e","ios":"levelo://app?vid=e550835f-6ecd-4a76-9b7c-29cc81fd1c2e"},"vehicle_type_id":"4","last_reported":1731285958,"current_range_meters":36000,"station_id":"ce4bh3p2rcd13ifvqdq0","pricing_plan_id":"cebpf4jnsgd1na2vs0mg"},{"bike_id":"47f79014-5ee0-4634-9d6f-fdfa56d5bfeb","system_id":"levelo_inurba_marseille","lat":43.30961,"lon":5.39032,"is_reserved":false,"is_disabled":false,"rental_uris":{"android":"levelo://app?vid=47f79014-5ee0-4634-9d6f-fdfa56d5bfeb","ios":"levelo://app?vid=47f79014-5ee0-4634-9d6f-fdfa56d5bfeb"},"vehicle_type_id":"4","last_reported":1731285958,"current_range_meters":31200,"station_id":"ce4bgup2rcd13ifvqco0","pricing_plan_id":"cebpf4jnsgd1na2vs0mg"},{"bike_id":"8dcf02e1-fbf0-4847-8c74-d48888faa266","system_id":"levelo_inurba_marseille","lat":43.30432,"lon":5.38878,"is_reserved":false,"is_disabled":false,"rental_uris":{"android":"levelo://app?vid=8dcf02e1-fbf0-4847-8c74-d48888faa266","ios":"levelo://app?vid=8dcf02e1-fbf0-4847-8c74-d48888faa266"},"vehicle_type_id":"4","last_reported":1731285958,"current_range_meters":36800,"station_id":"ce4bgk12rcd13ifvqbi0","pricing_plan_id":"cebpf4jnsgd1na2vs0mg"},{"bike_id":"e89d6ba5-505d-48b6-a958-6c9465b76c98","system_id":"levelo_inurba_marseille","lat":43.27941,"lon":5.41047,"is_reserved":false,"is_disabled":false,"rental_uris":{"android":"levelo://app?vid=e89d6ba5-505d-48b6-a958-6c9465b76c98","ios":"levelo://app?vid=e89d6ba5-505d-48b6-a958-6c9465b76c98"},"vehicle_type_id":"4","last_reported":1731285958,"current_range_meters":23200,"station_id":"ce4bhnp2rcd13ifvqh0g","pricing_plan_id":"cebpf4jnsgd1na2vs0mg"},{"bike_id":"e4fa8573-ade7-4c29-a9a6-6377a8c68851","system_id":"levelo_inurba_marseille","lat":43.30419,"lon":5.41275,"is_reserved":false,"is_disabled":false,"rental_uris":{"android":"levelo://app?vid=e4fa8573-ade7-4c29-a9a6-6377a8c68851","ios":"levelo://app?vid=e4fa8573-ade7-4c29-a9a6-6377a8c68851"},"vehicle_type_id":"4","last_reported":1731285958,"current_range_meters":28400,"station_id":"ce4bhop2rcd13ifvqh8g","pricing_plan_id":"cebpf4jnsgd1na2vs0mg"},{"bike_id":"dac021be-548c-4b6a-9a70-535acb3e6011","system_id":"levelo_inurba_marseille","lat":43.29893,"lon":5.4367,"is_reserved":false,"is_disabled":false,"rental_uris":{"android":"levelo://app?vid=dac021be-548c-4b6a-9a70-535acb3e6011","ios":"levelo://app?vid=dac021be-548c-4b6a-9a70-535acb3e6011"},"vehicle_type_id":"4","last_reported":1731285958,"current_range_meters":25600,"station_id":"ce4bhpp2rcd13ifvqhfg","pricing_plan_id":"cebpf4jnsgd1na2vs0mg"},{"bike_id":"bc1f8083-69e6-4682-ac5c-20386c9ae2ee","system_id":"levelo_inurba_marseille","lat":43.25724,"lon":5.41107,"is_reserved":false,"is_disabled":false,"rental_uris":{"android":"levelo://app?vid=bc1f8083-69e6-4682-ac5c-20386c9ae2ee","ios":"levelo://app?vid=bc1f8083-69e6-4682-ac5c-20386c9ae2ee"},"vehicle_type_id":"4","last_reported":1731285958,"current_range_meters":9600,"station_id":"ce4bhkp2rcd13ifvqgd0","pricing_plan_id":"cebpf4jnsgd1na2vs0mg"},{"bike_id":"6da06f85-e08e-4d62-b03d-37391773fb47","system_id":"levelo_inurba_marseille","lat":43.32479,"lon":5.36562,"is_reserved":false,"is_disabled":false,"rental_uris":{"android":"levelo://app?vid=6da06f85-e08e-4d62-b03d-37391773fb47","ios":"levelo://app?vid=6da06f85-e08e-4d62-b03d-37391773fb47"},"vehicle_type_id":"4","last_reported":1731285958,"current_range_meters":39200,"station_id":"ce4bhs12rcd13ifvqhvg","pricing_plan_id":"cebpf4jnsgd1na2vs0mg"},{"bike_id":"76cb7de1-c6cf-46f4-817f-a13daaf098d0","system_id":"levelo_inurba_marseille","lat":43.31536,"lon":5.38026,"is_reserved":false,"is_disabled":false,"rental_uris":{"android":"levelo://app?vid=76cb7de1-c6cf-46f4-817f-a13daaf098d0","ios":"levelo://app?vid=76cb7de1-c6cf-46f4-817f-a13daaf098d0"},"vehicle_type_id":"4","last_reported":1731285958,"current_range_meters":38800,"station_id":"ce4bhsp2rcd13ifvqi50","pricing_plan_id":"cebpf4jnsgd1na2vs0mg"},{"bike_id":"65602cb3-86cf-4913-8a65-8420040fc777","system_id":"levelo_inurba_marseille","lat":43.28716,"lon":5.4,"is_reserved":false,"is_disabled":false,"rental_uris":{"android":"levelo://app?vid=65602cb3-86cf-4913-8a65-8420040fc777","ios":"levelo://app?vid=65602cb3-86cf-4913-8a65-8420040fc777"},"vehicle_type_id":"4","last_reported":1731285958,"current_range_meters":24000,"station_id":"ce4bho92rcd13ifvqh3g","pricing_plan_id":"cebpf4jnsgd1na2vs0mg"},{"bike_id":"1352b73a-19d2-4a1a-96ee-28d66df7ddee","system_id":"levelo_inurba_marseille","lat":43.27838,"lon":5.39208,"is_reserved":false,"is_disabled":false,"rental_uris":{"android":"levelo://app?vid=1352b73a-19d2-4a1a-96ee-28d66df7ddee","ios":"levelo://app?vid=1352b73a-19d2-4a1a-96ee-28d66df7ddee"},"vehicle_type_id":"4","last_reported":1731285958,"current_range_meters":38400,"station_id":"ce4bhjp2rcd13ifvqga0","pricing_plan_id":"cebpf4jnsgd1na2vs0mg"},{"bike_id":"a09b38a1-decd-415a-9b42-f45745940871","system_id":"levelo_inurba_marseille","lat":43.30447,"lon":5.38904,"is_reserved":false,"is_disabled":false,"rental_uris":{"android":"levelo://app?vid=a09b38a1-decd-415a-9b42-f45745940871","ios":"levelo://app?vid=a09b38a1-decd-415a-9b42-f45745940871"},"vehicle_type_id":"4","last_reported":1731285958,"current_range_meters":18000,"station_id":"ce4bgk12rcd13ifvqbi0","pricing_plan_id":"cebpf4jnsgd1na2vs0mg"},{"bike_id":"b085bf05-4012-4af0-91c2-493e112ef1f8","system_id":"levelo_inurba_marseille","lat":43.28418,"lon":5.37515,"is_reserved":false,"is_disabled":false,"rental_uris":{"android":"levelo://app?vid=b085bf05-4012-4af0-91c2-493e112ef1f8","ios":"levelo://app?vid=b085bf05-4012-4af0-91c2-493e112ef1f8"},"vehicle_type_id":"4","last_reported":1731285958,"current_range_meters":30800,"station_id":"ce4bh412rcd13ifvqds0","pricing_plan_id":"cebpf4jnsgd1na2vs0mg"},{"bike_id":"d9f1cef8-0c3d-43d7-b3fe-f32a215ca8d7","system_id":"levelo_inurba_marseille","lat":43.30921,"lon":5.4014,"is_reserved":false,"is_disabled":false,"rental_uris":{"android":"levelo://app?vid=d9f1cef8-0c3d-43d7-b3fe-f32a215ca8d7","ios":"levelo://app?vid=d9f1cef8-0c3d-43d7-b3fe-f32a215ca8d7"},"vehicle_type_id":"4","last_reported":1731285958,"current_range_meters":25200,"station_id":"ce4bgvp2rcd13ifvqct0","pricing_plan_id":"cebpf4jnsgd1na2vs0mg"},{"bike_id":"d5990e19-0551-4ad3-8c2a-d80513ba61ae","system_id":"levelo_inurba_marseille","lat":43.23189,"lon":5.3555,"is_reserved":false,"is_disabled":false,"rental_uris":{"android":"levelo://app?vid=d5990e19-0551-4ad3-8c2a-d80513ba61ae","ios":"levelo://app?vid=d5990e19-0551-4ad3-8c2a-d80513ba61ae"},"vehicle_type_id":"4","last_reported":1731285958,"current_range_meters":10800,"station_id":"ce4bhu92rcd13ifvqi70","pricing_plan_id":"cebpf4jnsgd1na2vs0mg"},{"bike_id":"9946aa26-6457-42d1-9487-09066fab49dc","system_id":"levelo_inurba_marseille","lat":43.31167,"lon":5.38721,"is_reserved":false,"is_disabled":false,"rental_uris":{"android":"levelo://app?vid=9946aa26-6457-42d1-9487-09066fab49dc","ios":"levelo://app?vid=9946aa26-6457-42d1-9487-09066fab49dc"},"vehicle_type_id":"4","last_reported":1731285958,"current_range_meters":38000,"station_id":"ce4bgv12rcd13ifvqcp0","pricing_plan_id":"cebpf4jnsgd1na2vs0mg"},{"bike_id":"67ffc1e7-b9f0-4355-84e9-ce9125ee48de","system_id":"levelo_inurba_marseille","lat":43.31996,"lon":5.38152,"is_reserved":false,"is_disabled":false,"rental_uris":{"android":"levelo://app?vid=67ffc1e7-b9f0-4355-84e9-ce9125ee48de","ios":"levelo://app?vid=67ffc1e7-b9f0-4355-84e9-ce9125ee48de"},"vehicle_type_id":"4","last_reported":1731285958,"current_range_meters":38800,"station_id":"ce4bhr12rcd13ifvqhpg","pricing_plan_id":"cebpf4jnsgd1na2vs0mg"},{"bike_id":"c318665b-22d1-4dd0-93d5-afcbdf1ec912","system_id":"levelo_inurba_marseille","lat":43.27206,"lon":5.39187,"is_reserved":false,"is_disabled":false,"rental_uris":{"android":"levelo://app?vid=c318665b-22d1-4dd0-93d5-afcbdf1ec912","ios":"levelo://app?vid=c318665b-22d1-4dd0-93d5-afcbdf1ec912"},"vehicle_type_id":"4","last_reported":1731285958,"current_range_meters":38800,"station_id":"ce4bhhp2rcd13ifvqfm0","pricing_plan_id":"cebpf4jnsgd1na2vs0mg"},{"bike_id":"f8a80f2d-b549-46ec-a2ef-7f7a2490b738","system_id":"levelo_inurba_marseille","lat":43.26793,"lon":5.39407,"is_reserved":false,"is_disabled":false,"rental_uris":{"android":"levelo://app?vid=f8a80f2d-b549-46ec-a2ef-7f7a2490b738","ios":"levelo://app?vid=f8a80f2d-b549-46ec-a2ef-7f7a2490b738"},"vehicle_type_id":"4","last_reported":1731285958,"current_range_meters":36000,"station_id":"ce4bhh12rcd13ifvqfg0","pricing_plan_id":"cebpf4jnsgd1na2vs0mg"},{"bike_id":"73ae6848-5f67-4151-95f7-52ff0eee278d","system_id":"levelo_inurba_marseille","lat":43.3089,"lon":5.37198,"is_reserved":false,"is_disabled":false,"rental_uris":{"android":"levelo://app?vid=73ae6848-5f67-4151-95f7-52ff0eee278d","ios":"levelo://app?vid=73ae6848-5f67-4151-95f7-52ff0eee278d"},"vehicle_type_id":"4","last_reported":1731285958,"current_range_meters":32400,"station_id":"ce4bguh2rcd13ifvqckg","pricing_plan_id":"cebpf4jnsgd1na2vs0mg"},{"bike_id":"8148020f-1c2c-4fe4-8adc-b4b937986edf","system_id":"levelo_inurba_marseille","lat":43.34064,"lon":5.40972,"is_reserved":false,"is_disabled":false,"rental_uris":{"android":"levelo://app?vid=8148020f-1c2c-4fe4-8adc-b4b937986edf","ios":"levelo://app?vid=8148020f-1c2c-4fe4-8adc-b4b937986edf"},"vehicle_type_id":"4","last_reported":1731285958,"current_range_meters":38000,"station_id":"","pricing_plan_id":"cebpf4jnsgd1na2vs0mg"},{"bike_id":"a4a63e3d-ff54-4ff1-abba-5e07e77c0f6e","system_id":"levelo_inurba_marseille","lat":43.30798,"lon":5.38157,"is_reserved":false,"is_disabled":false,"rental_uris":{"android":"levelo://app?vid=a4a63e3d-ff54-4ff1-abba-5e07e77c0f6e","ios":"levelo://app?vid=a4a63e3d-ff54-4ff1-abba-5e07e77c0f6e"},"vehicle_type_id":"4","last_reported":1731285958,"current_range_meters":38800,"station_id":"ce4bgt12rcd13ifvqce0","pricing_plan_id":"cebpf4jnsgd1na2vs0mg"},{"bike_id":"0720132e-7bdf-43b1-9783-11d9414873d5","system_id":"levelo_inurba_marseille","lat":43.26033,"lon":5.37551,"is_reserved":false,"is_disabled":false,"rental_uris":{"android":"levelo://app?vid=0720132e-7bdf-43b1-9783-11d9414873d5","ios":"levelo://app?vid=0720132e-7bdf-43b1-9783-11d9414873d5"},"vehicle_type_id":"4","last_reported":1731285958,"current_range_meters":38000,"station_id":"ce4bhgh2rcd13ifvqfa0","pricing_plan_id":"cebpf4jnsgd1na2vs0mg"},{"bike_id":"15126981-6d35-42cb-954b-f5f1f52e3d20","system_id":"levelo_inurba_marseille","lat":43.30211,"lon":5.38953,"is_reserved":false,"is_disabled":false,"rental_uris":{"android":"levelo://app?vid=15126981-6d35-42cb-954b-f5f1f52e3d20","ios":"levelo://app?vid=15126981-6d35-42cb-954b-f5f1f52e3d20"},"vehicle_type_id":"4","last_reported":1731285958,"current_range_meters":33600,"station_id":"","pricing_plan_id":"cebpf4jnsgd1na2vs0mg"},{"bike_id":"203a15c9-60df-4940-9b77-9de40b0c35c9","system_id":"levelo_inurba_marseille","lat":43.287152,"lon":5.379421,"is_reserved":false,"is_disabled":false,"rental_uris":{"android":"levelo://app?vid=203a15c9-60df-4940-9b77-9de40b0c35c9","ios":"levelo://app?vid=203a15c9-60df-4940-9b77-9de40b0c35c9"},"vehicle_type_id":"4","last_reported":1731285958,"current_range_meters":36400,"station_id":"ce4bh9p2rcd13ifvqec0","pricing_plan_id":"cebpf4jnsgd1na2vs0mg"},{"bike_id":"ecb2a974-e4b0-4ec6-9a12-c0201c9679b2","system_id":"levelo_inurba_marseille","lat":43.24655,"lon":5.389,"is_reserved":false,"is_disabled":false,"rental_uris":{"android":"levelo://app?vid=ecb2a974-e4b0-4ec6-9a12-c0201c9679b2","ios":"levelo://app?vid=ecb2a974-e4b0-4ec6-9a12-c0201c9679b2"},"vehicle_type_id":"4","last_reported":1731285958,"current_range_meters":12800,"station_id":"ce4bhg12rcd13ifvqf60","pricing_plan_id":"cebpf4jnsgd1na2vs0mg"},{"bike_id":"1fd38c58-71ed-4c76-9880-1f474d0cab1f","system_id":"levelo_inurba_marseille","lat":43.29708,"lon":5.36606,"is_reserved":false,"is_disabled":false,"rental_uris":{"android":"levelo://app?vid=1fd38c58-71ed-4c76-9880-1f474d0cab1f","ios":"levelo://app?vid=1fd38c58-71ed-4c76-9880-1f474d0cab1f"},"vehicle_type_id":"4","last_reported":1731285958,"current_range_meters":28400,"station_id":"ce4bgn12rcd13ifvqbt0","pricing_plan_id":"cebpf4jnsgd1na2vs0mg"},{"bike_id":"9ab3b81e-4cd0-44e1-aa28-4461d425e0c0","system_id":"levelo_inurba_marseille","lat":43.32657,"lon":5.4098,"is_reserved":false,"is_disabled":false,"rental_uris":{"android":"levelo://app?vid=9ab3b81e-4cd0-44e1-aa28-4461d425e0c0","ios":"levelo://app?vid=9ab3b81e-4cd0-44e1-aa28-4461d425e0c0"},"vehicle_type_id":"4","last_reported":1731285958,"current_range_meters":36000,"station_id":"ce4bhpp2rcd13ifvqhgg","pricing_plan_id":"cebpf4jnsgd1na2vs0mg"},{"bike_id":"1f445bdb-6cba-4bc4-a07e-aa67ee26774c","system_id":"levelo_inurba_marseille","lat":43.30882,"lon":5.39645,"is_reserved":false,"is_disabled":false,"rental_uris":{"android":"levelo://app?vid=1f445bdb-6cba-4bc4-a07e-aa67ee26774c","ios":"levelo://app?vid=1f445bdb-6cba-4bc4-a07e-aa67ee26774c"},"vehicle_type_id":"4","last_reported":1731285958,"current_range_meters":40000,"station_id":"ce4bh012rcd13ifvqcv0","pricing_plan_id":"cebpf4jnsgd1na2vs0mg"},{"bike_id":"bedfe257-ec8e-44aa-a6ac-c456d43815ff","system_id":"levelo_inurba_marseille","lat":43.33609,"lon":5.41013,"is_reserved":false,"is_disabled":false,"rental_uris":{"android":"levelo://app?vid=bedfe257-ec8e-44aa-a6ac-c456d43815ff","ios":"levelo://app?vid=bedfe257-ec8e-44aa-a6ac-c456d43815ff"},"vehicle_type_id":"4","last_reported":1731285958,"current_range_meters":37600,"station_id":"ce4bhqh2rcd13ifvqhmg","pricing_plan_id":"cebpf4jnsgd1na2vs0mg"},{"bike_id":"ac659186-70a1-4190-99a4-216b54d87779","system_id":"levelo_inurba_marseille","lat":43.23152,"lon":5.437,"is_reserved":false,"is_disabled":false,"rental_uris":{"android":"levelo://app?vid=ac659186-70a1-4190-99a4-216b54d87779","ios":"levelo://app?vid=ac659186-70a1-4190-99a4-216b54d87779"},"vehicle_type_id":"4","last_reported":1731285958,"current_range_meters":38800,"station_id":"ce4bhmp2rcd13ifvqgog","pricing_plan_id":"cebpf4jnsgd1na2vs0mg"},{"bike_id":"147e98c8-cfbc-409b-b1d4-630c22736e97","system_id":"levelo_inurba_marseille","lat":43.27993,"lon":5.41656,"is_reserved":false,"is_disabled":false,"rental_uris":{"android":"levelo://app?vid=147e98c8-cfbc-409b-b1d4-630c22736e97","ios":"levelo://app?vid=147e98c8-cfbc-409b-b1d4-630c22736e97"},"vehicle_type_id":"4","last_reported":1731285958,"current_range_meters":28800,"station_id":"ce4bho12rcd13ifvqh1g","pricing_plan_id":"cebpf4jnsgd1na2vs0mg"},{"bike_id":"b72ca6e7-47e9-42be-9a97-b74e22acdc0e","system_id":"levelo_inurba_marseille","lat":43.321057,"lon":5.367797,"is_reserved":false,"is_disabled":false,"rental_uris":{"android":"levelo://app?vid=b72ca6e7-47e9-42be-9a97-b74e22acdc0e","ios":"levelo://app?vid=b72ca6e7-47e9-42be-9a97-b74e22acdc0e"},"vehicle_type_id":"4","last_reported":1731285958,"current_range_meters":34800,"station_id":"ce4bhrh2rcd13ifvqhug","pricing_plan_id":"cebpf4jnsgd1na2vs0mg"},{"bike_id":"85ea89d3-b126-44b1-b7aa-fac5307d151f","system_id":"levelo_inurba_marseille","lat":43.2871,"lon":5.37941,"is_reserved":false,"is_disabled":false,"rental_uris":{"android":"levelo://app?vid=85ea89d3-b126-44b1-b7aa-fac5307d151f","ios":"levelo://app?vid=85ea89d3-b126-44b1-b7aa-fac5307d151f"},"vehicle_type_id":"4","last_reported":1731285958,"current_range_meters":34000,"station_id":"ce4bh9p2rcd13ifvqec0","pricing_plan_id":"cebpf4jnsgd1na2vs0mg"},{"bike_id":"cba560a9-225e-4f01-8c18-fb95478c098b","system_id":"levelo_inurba_marseille","lat":43.264636,"lon":5.380511,"is_reserved":false,"is_disabled":false,"rental_uris":{"android":"levelo://app?vid=cba560a9-225e-4f01-8c18-fb95478c098b","ios":"levelo://app?vid=cba560a9-225e-4f01-8c18-fb95478c098b"},"vehicle_type_id":"4","last_reported":1731285958,"current_range_meters":32400,"station_id":"","pricing_plan_id":"cebpf4jnsgd1na2vs0mg"},{"bike_id":"293a36bf-54a5-4d24-979e-5fcee2691167","system_id":"levelo_inurba_marseille","lat":43.27947,"lon":5.41055,"is_reserved":false,"is_disabled":false,"rental_uris":{"android":"levelo://app?vid=293a36bf-54a5-4d24-979e-5fcee2691167","ios":"levelo://app?vid=293a36bf-54a5-4d24-979e-5fcee2691167"},"vehicle_type_id":"4","last_reported":1731285958,"current_range_meters":21600,"station_id":"ce4bhnp2rcd13ifvqh0g","pricing_plan_id":"cebpf4jnsgd1na2vs0mg"},{"bike_id":"25136b8c-4160-47a0-9a16-a82bcb7db187","system_id":"levelo_inurba_marseille","lat":43.27426,"lon":5.39411,"is_reserved":false,"is_disabled":false,"rental_uris":{"android":"levelo://app?vid=25136b8c-4160-47a0-9a16-a82bcb7db187","ios":"levelo://app?vid=25136b8c-4160-47a0-9a16-a82bcb7db187"},"vehicle_type_id":"4","last_reported":1731285958,"current_range_meters":28400,"station_id":"ce4bhdp2rcd13ifvqf20","pricing_plan_id":"cebpf4jnsgd1na2vs0mg"},{"bike_id":"c0adf7cc-ad53-4b30-988f-c0e3f3eb38b8","system_id":"levelo_inurba_marseille","lat":43.2811,"lon":5.3784,"is_reserved":false,"is_disabled":false,"rental_uris":{"android":"levelo://app?vid=c0adf7cc-ad53-4b30-988f-c0e3f3eb38b8","ios":"levelo://app?vid=c0adf7cc-ad53-4b30-988f-c0e3f3eb38b8"},"vehicle_type_id":"4","last_reported":1731285958,"current_range_meters":39200,"station_id":"ce4bha12rcd13ifvqee0","pricing_plan_id":"cebpf4jnsgd1na2vs0mg"},{"bike_id":"3bc699be-d107-4989-8d28-d8ecfe5f1c37","system_id":"levelo_inurba_marseille","lat":43.27814,"lon":5.40713,"is_reserved":false,"is_disabled":false,"rental_uris":{"android":"levelo://app?vid=3bc699be-d107-4989-8d28-d8ecfe5f1c37","ios":"levelo://app?vid=3bc699be-d107-4989-8d28-d8ecfe5f1c37"},"vehicle_type_id":"4","last_reported":1731285958,"current_range_meters":12000,"station_id":"ce4bhnh2rcd13ifvqgtg","pricing_plan_id":"cebpf4jnsgd1na2vs0mg"},{"bike_id":"978b27a1-ff5f-4e80-946e-a015e21a600f","system_id":"levelo_inurba_marseille","lat":43.28697,"lon":5.39987,"is_reserved":false,"is_disabled":false,"rental_uris":{"android":"levelo://app?vid=978b27a1-ff5f-4e80-946e-a015e21a600f","ios":"levelo://app?vid=978b27a1-ff5f-4e80-946e-a015e21a600f"},"vehicle_type_id":"4","last_reported":1731285958,"current_range_meters":15200,"station_id":"ce4bho92rcd13ifvqh3g","pricing_plan_id":"cebpf4jnsgd1na2vs0mg"},{"bike_id":"ecf991fb-272f-48ac-bfd3-028c5c875379","system_id":"levelo_inurba_marseille","lat":43.32661,"lon":5.40993,"is_reserved":false,"is_disabled":false,"rental_uris":{"android":"levelo://app?vid=ecf991fb-272f-48ac-bfd3-028c5c875379","ios":"levelo://app?vid=ecf991fb-272f-48ac-bfd3-028c5c875379"},"vehicle_type_id":"4","last_reported":1731285958,"current_range_meters":22800,"station_id":"ce4bhpp2rcd13ifvqhgg","pricing_plan_id":"cebpf4jnsgd1na2vs0mg"},{"bike_id":"d3160cd6-15d5-476f-ad94-5086581d96d7","system_id":"levelo_inurba_marseille","lat":43.25725,"lon":5.41109,"is_reserved":false,"is_disabled":false,"rental_uris":{"android":"levelo://app?vid=d3160cd6-15d5-476f-ad94-5086581d96d7","ios":"levelo://app?vid=d3160cd6-15d5-476f-ad94-5086581d96d7"},"vehicle_type_id":"4","last_reported":1731285958,"current_range_meters":38800,"station_id":"ce4bhkp2rcd13ifvqgd0","pricing_plan_id":"cebpf4jnsgd1na2vs0mg"},{"bike_id":"901a8ee9-a86a-49aa-b9b0-44d3ae03326a","system_id":"levelo_inurba_marseille","lat":43.31713,"lon":5.43703,"is_reserved":false,"is_disabled":false,"rental_uris":{"android":"levelo://app?vid=901a8ee9-a86a-49aa-b9b0-44d3ae03326a","ios":"levelo://app?vid=901a8ee9-a86a-49aa-b9b0-44d3ae03326a"},"vehicle_type_id":"4","last_reported":1731285958,"current_range_meters":9600,"station_id":"ce4bhp92rcd13ifvqhcg","pricing_plan_id":"cebpf4jnsgd1na2vs0mg"},{"bike_id":"52a71ef5-8ef7-4a13-9edb-b931936b8cfb","system_id":"levelo_inurba_marseille","lat":43.33722,"lon":5.39186,"is_reserved":false,"is_disabled":false,"rental_uris":{"android":"levelo://app?vid=52a71ef5-8ef7-4a13-9edb-b931936b8cfb","ios":"levelo://app?vid=52a71ef5-8ef7-4a13-9edb-b931936b8cfb"},"vehicle_type_id":"4","last_reported":1731285958,"current_range_meters":33200,"station_id":"ce4bhr92rcd13ifvqhsg","pricing_plan_id":"cebpf4jnsgd1na2vs0mg"},{"bike_id":"f23d7e81-bd37-43fe-a9a9-a09f7a4dfad6","system_id":"levelo_inurba_marseille","lat":43.30095,"lon":5.3908,"is_reserved":false,"is_disabled":false,"rental_uris":{"android":"levelo://app?vid=f23d7e81-bd37-43fe-a9a9-a09f7a4dfad6","ios":"levelo://app?vid=f23d7e81-bd37-43fe-a9a9-a09f7a4dfad6"},"vehicle_type_id":"4","last_reported":1731285958,"current_range_meters":39200,"station_id":"ce4bh192rcd13ifvqdb0","pricing_plan_id":"cebpf4jnsgd1na2vs0mg"},{"bike_id":"f51901d5-f297-4260-8491-7be7250cd569","system_id":"levelo_inurba_marseille","lat":43.26563,"lon":5.39014,"is_reserved":false,"is_disabled":false,"rental_uris":{"android":"levelo://app?vid=f51901d5-f297-4260-8491-7be7250cd569","ios":"levelo://app?vid=f51901d5-f297-4260-8491-7be7250cd569"},"vehicle_type_id":"4","last_reported":1731285958,"current_range_meters":26000,"station_id":"ce4bhe12rcd13ifvqf30","pricing_plan_id":"cebpf4jnsgd1na2vs0mg"},{"bike_id":"2d420221-7a70-45a1-be01-ee2e0fd7c609","system_id":"levelo_inurba_marseille","lat":43.29734,"lon":5.37688,"is_reserved":false,"is_disabled":false,"rental_uris":{"android":"levelo://app?vid=2d420221-7a70-45a1-be01-ee2e0fd7c609","ios":"levelo://app?vid=2d420221-7a70-45a1-be01-ee2e0fd7c609"},"vehicle_type_id":"4","last_reported":1731285958,"current_range_meters":32000,"station_id":"ce4bgkh2rcd13ifvqbl0","pricing_plan_id":"cebpf4jnsgd1na2vs0mg"},{"bike_id":"cf678ceb-3446-4937-b2e7-921edbcce60b","system_id":"levelo_inurba_marseille","lat":43.32292,"lon":5.38266,"is_reserved":false,"is_disabled":false,"rental_uris":{"android":"levelo://app?vid=cf678ceb-3446-4937-b2e7-921edbcce60b","ios":"levelo://app?vid=cf678ceb-3446-4937-b2e7-921edbcce60b"},"vehicle_type_id":"4","last_reported":1731285958,"current_range_meters":31200,"station_id":"ce4bhr12rcd13ifvqhqg","pricing_plan_id":"cebpf4jnsgd1na2vs0mg"},{"bike_id":"eb9cb10e-745b-47a6-af79-eeb9d713d382","system_id":"levelo_inurba_marseille","lat":43.25729,"lon":5.41108,"is_reserved":false,"is_disabled":false,"rental_uris":{"android":"levelo://app?vid=eb9cb10e-745b-47a6-af79-eeb9d713d382","ios":"levelo://app?vid=eb9cb10e-745b-47a6-af79-eeb9d713d382"},"vehicle_type_id":"4","last_reported":1731285958,"current_range_meters":8000,"station_id":"ce4bhkp2rcd13ifvqgd0","pricing_plan_id":"cebpf4jnsgd1na2vs0mg"},{"bike_id":"ac0c247f-afb1-4fde-8602-a85a4e1a48cc","system_id":"levelo_inurba_marseille","lat":43.32656,"lon":5.40994,"is_reserved":false,"is_disabled":false,"rental_uris":{"android":"levelo://app?vid=ac0c247f-afb1-4fde-8602-a85a4e1a48cc","ios":"levelo://app?vid=ac0c247f-afb1-4fde-8602-a85a4e1a48cc"},"vehicle_type_id":"4","last_reported":1731285958,"current_range_meters":38800,"station_id":"ce4bhpp2rcd13ifvqhgg","pricing_plan_id":"cebpf4jnsgd1na2vs0mg"},{"bike_id":"7688bd19-3d11-406e-84d9-9c8cd611bb73","system_id":"levelo_inurba_marseille","lat":43.28157,"lon":5.42638,"is_reserved":false,"is_disabled":false,"rental_uris":{"android":"levelo://app?vid=7688bd19-3d11-406e-84d9-9c8cd611bb73","ios":"levelo://app?vid=7688bd19-3d11-406e-84d9-9c8cd611bb73"},"vehicle_type_id":"4","last_reported":1731285958,"current_range_meters":38800,"station_id":"ce4bhnh2rcd13ifvqgug","pricing_plan_id":"cebpf4jnsgd1na2vs0mg"},{"bike_id":"c74a236a-3f2a-4617-8ca8-47c166434983","system_id":"levelo_inurba_marseille","lat":43.2816,"lon":5.42647,"is_reserved":false,"is_disabled":false,"rental_uris":{"android":"levelo://app?vid=c74a236a-3f2a-4617-8ca8-47c166434983","ios":"levelo://app?vid=c74a236a-3f2a-4617-8ca8-47c166434983"},"vehicle_type_id":"4","last_reported":1731285958,"current_range_meters":20400,"station_id":"ce4bhnh2rcd13ifvqgug","pricing_plan_id":"cebpf4jnsgd1na2vs0mg"},