{"last_updated":1750500631,"ttl":60,"version":"2.2","data":{"bikes":[{"bike_id":"3da29fb8-fc97-44c6-b9ac-31dd456b2fd4","system_id":"levelo_inurba_marseille","lat":43.33771,"lon":5.37424,"is_reserved":false,"is_disabled":true,"rental_uris":{"android":"levelo://app?vid=3da29fb8-fc97-44c6-b9ac-31dd456b2fd4","ios":"levelo://app?vid=3da29fb8-fc97-44c6-b9ac-31dd456b2fd4"},"vehicle_type_id":"4","last_reported":1750500631,"current_range_meters":0,"station_id":"","pricing_plan_id":"cebpf4jnsgd1na2vs0mg"},{"bike_id":"01861ad8-a8d7-4be6-816e-651927c87584","system_id":"levelo_inurba_marseille","lat":43.33751,"lon":5.37456,"is_reserved":false,"is_disabled":true,"rental_uris":{"android":"levelo://app?vid=01861ad8-a8d7-4be6-816e-651927c87584","ios":"levelo://app?vid=01861ad8-a8d7-4be6-816e-651927c87584"},"vehicle_type_id":"4","last_reported":1750500631,"current_range_meters":0,"station_id":"","pricing_plan_id":"cebpf4jnsgd1na2vs0mg"},{"bike_id":"62a493c7-4534-4419-ad43-0582de34a72a","system_id":"levelo_inurba_marseille","lat":43.21366,"lon":5.355183,"is_reserved":false,"is_disabled":true,"rental_uris":{"android":"levelo://app?vid=62a493c7-4534-4419-ad43-0582de34a72a","ios":"levelo://app?vid=62a493c7-4534-4419-ad43-0582de34a72a"},"vehicle_type_id":"4","last_reported":1750500631,"current_range_meters":0,"station_id":"","pricing_plan_id":"cebpf4jnsgd1na2vs0mg"},{"bike_id":"a8315c18-574e-4aa9-b81b-8a92eadf75d6","system_id":"levelo_inurba_marseille","lat":43.30126,"lon":5.38004,"is_reserved":false,"is_disabled":true,"rental_uris":{"android":"levelo://app?vid=a8315c18-574e-4aa9-b81b-8a92eadf75d6","ios":"levelo://app?vid=a8315c18-574e-4aa9-b81b-8a92eadf75d6"},"vehicle_type_id":"4","last_reported":1750500631,"current_range_meters":0,"station_id":"","pricing_plan_id":"cebpf4jnsgd1na2vs0mg"},{"bike_id":"d6609b4f-333b-43c1-9ebe-8726f5e76e88","system_id":"levelo_inurba_marseille","lat":43.337444,"lon":5.374475,"is_reserved":false,"is_disabled":true,"rental_uris":{"android":"levelo://app?vid=d6609b4f-333b-43c1-9ebe-8726f5e76e88","ios":"levelo://app?vid=d6609b4f-333b-43c1-9ebe-8726f5e76e88"},"vehicle_type_id":"4","last_reported":1750500631,"current_range_meters":0,"station_id":"","pricing_plan_id":"cebpf4jnsgd1na2vs0mg"},{"bike_id":"45bbf0a9-fb71-4554-b265-a4213254df71","system_id":"levelo_inurba_marseille","lat":43.291958,"lon":5.357966,"is_reserved":false,"is_disabled":true,"rental_uris":{"android":"levelo://app?vid=45bbf0a9-fb71-4554-b265-a4213254df71","ios":"levelo://app?vid=45bbf0a9-fb71-4554-b265-a4213254df71"},"vehicle_type_id":"4","last_reported":1750500631,"current_range_meters":0,"station_id":"ce4bgip2rcd13ifvqbb0","pricing_plan_id":"cebpf4jnsgd1na2vs0mg"},{"bike_id":"90fa2b86-4171-4938-a169-e02006bff019","system_id":"levelo_inurba_marseille","lat":43.29844,"lon":5.36275,"is_reserved":false,"is_disabled":true,"rental_uris":{"android":"levelo://app?vid=90fa2b86-4171-4938-a169-e02006bff019","ios":"levelo://app?vid=90fa2b86-4171-4938-a169-e02006bff019"},"vehicle_type_id":"4","last_reported":1750500631,"current_range_meters":0,"station_id":"ce4bgpp2rcd13ifvqc3g","pricing_plan_id":"cebpf4jnsgd1na2vs0mg"},{"bike_id":"2049a15f-8275-45de-8415-8952bb4be634","system_id":"levelo_inurba_marseille","lat":43.28703,"lon":5.3738,"is_reserved":false,"is_disabled":true,"rental_uris":{"android":"levelo://app?vid=2049a15f-8275-45de-8415-8952bb4be634","ios":"levelo://app?vid=2049a15f-8275-45de-8415-8952bb4be634"},"vehicle_type_id":"4","last_reported":1750500631,"current_range_meters":0,"station_id":"ce4bh3p2rcd13ifvqdq0","pricing_plan_id":"cebpf4jnsgd1na2vs0mg"},{"bike_id":"2c4f8843-ee3c-4417-853b-cde77bade11e","system_id":"levelo_inurba_marseille","lat":43.28947,"lon":5.36646,"is_reserved":false,"is_disabled":true,"rental_uris":{"android":"levelo://app?vid=2c4f8843-ee3c-4417-853b-cde77bade11e","ios":"levelo://app?vid=2c4f8843-ee3c-4417-853b-cde77bade11e"},"vehicle_type_id":"4","last_reported":1750500631,"current_range_meters":0,"station_id":"ce4bhap2rcd13ifvqek0","pricing_plan_id":"cebpf4jnsgd1na2vs0mg"},{"bike_id":"fa210222-7894-43e9-9c0b-12046f1ba5ec","system_id":"levelo_inurba_marseille","lat":43.29266,"lon":5.36842,"is_reserved":false,"is_disabled":true,"rental_uris":{"android":"levelo://app?vid=fa210222-7894-43e9-9c0b-12046f1ba5ec","ios":"levelo://app?vid=fa210222-7894-43e9-9c0b-12046f1ba5ec"},"vehicle_type_id":"4","last_reported":1750500631,"current_range_meters":0,"station_id":"ce4bhbp2rcd13ifvqesg","pricing_plan_id":"cebpf4jnsgd1na2vs0mg"},{"bike_id":"19e25e12-46ff-4402-91b1-69fe60af316d","system_id":"levelo_inurba_marseille","lat":43.27909,"lon":5.39582,"is_reserved":false,"is_disabled":true,"rental_uris":{"android":"levelo://app?vid=19e25e12-46ff-4402-91b1-69fe60af316d","ios":"levelo://app?vid=19e25e12-46ff-4402-91b1-69fe60af316d"},"vehicle_type_id":"4","last_reported":1750500631,"current_range_meters":0,"station_id":"ce4bhf92rcd13ifvqf40","pricing_plan_id":"cebpf4jnsgd1na2vs0mg"},{"bike_id":"0cb83704-6128-43cd-be34-0a95c201a7d9","system_id":"levelo_inurba_marseille","lat":43.2791,"lon":5.38017,"is_reserved":false,"is_disabled":true,"rental_uris":{"android":"levelo://app?vid=0cb83704-6128-43cd-be34-0a95c201a7d9","ios":"levelo://app?vid=0cb83704-6128-43cd-be34-0a95c201a7d9"},"vehicle_type_id":"4","last_reported":1750500631,"current_range_meters":0,"station_id":"ce4bhf92rcd13ifvqf50","pricing_plan_id":"cebpf4jnsgd1na2vs0mg"},{"bike_id":"7818cb94-7d83-4e04-8489-f3b0a7cad57d","system_id":"levelo_inurba_marseille","lat":43.24812,"lon":5.37458,"is_reserved":false,"is_disabled":true,"rental_uris":{"android":"levelo://app?vid=7818cb94-7d83-4e04-8489-f3b0a7cad57d","ios":"levelo://app?vid=7818cb94-7d83-4e04-8489-f3b0a7cad57d"},"vehicle_type_id":"4","last_reported":1750500631,"current_range_meters":0,"station_id":"ce4bhgh2rcd13ifvqfb0","pricing_plan_id":"cebpf4jnsgd1na2vs0mg"},{"bike_id":"15a19d89-5b57-4bae-ae6f-603065982728","system_id":"levelo_inurba_marseille","lat":43.25491,"lon":5.37645,"is_reserved":false,"is_disabled":true,"rental_uris":{"android":"levelo://app?vid=15a19d89-5b57-4bae-ae6f-603065982728","ios":"levelo://app?vid=15a19d89-5b57-4bae-ae6f-603065982728"},"vehicle_type_id":"4","last_reported":1750500631,"current_range_meters":0,"station_id":"ce4bhh12rcd13ifvqff0","pricing_plan_id":"cebpf4jnsgd1na2vs0mg"},{"bike_id":"22fc0cd4-03e6-4046-9be9-b0065f0e0d6d","system_id":"levelo_inurba_marseille","lat":43.23189,"lon":5.39981,"is_reserved":false,"is_disabled":true,"rental_uris":{"android":"levelo://app?vid=22fc0cd4-03e6-4046-9be9-b0065f0e0d6d","ios":"levelo://app?vid=22fc0cd4-03e6-4046-9be9-b0065f0e0d6d"},"vehicle_type_id":"4","last_reported":1750500631,"current_range_meters":0,"station_id":"ce4bhn12rcd13ifvqgqg","pricing_plan_id":"cebpf4jnsgd1na2vs0mg"},{"bike_id":"c9040045-be59-4aae-9590-5c3c37a93cc9","system_id":"levelo_inurba_marseille","lat":43.21197,"lon":5.35059,"is_reserved":false,"is_disabled":true,"rental_uris":{"android":"levelo://app?vid=c9040045-be59-4aae-9590-5c3c37a93cc9","ios":"levelo://app?vid=c9040045-be59-4aae-9590-5c3c37a93cc9"},"vehicle_type_id":"4","last_reported":1750500631,"current_range_meters":0,"station_id":"st_cvj6sg6p6f1abm77japg","pricing_plan_id":"cebpf4jnsgd1na2vs0mg"},{"bike_id":"156717d9-5d82-4226-a389-e52555e7069b","system_id":"levelo_inurba_marseille","lat":43.306103,"lon":5.376371,"is_reserved":false,"is_disabled":true,"rental_uris":{"android":"levelo://app?vid=156717d9-5d82-4226-a389-e52555e7069b","ios":"levelo://app?vid=156717d9-5d82-4226-a389-e52555e7069b"},"vehicle_type_id":"4","last_reported":1750500631,"current_range_meters":1200,"station_id":"","pricing_plan_id":"cebpf4jnsgd1na2vs0mg"},{"bike_id":"22b62481-9cdb-4cc5-875d-bd0c5a924c2f","system_id":"levelo_inurba_marseille","lat":43.29547,"lon":5.37504,"is_reserved":false,"is_disabled":true,"rental_uris":{"android":"levelo://app?vid=22b62481-9cdb-4cc5-875d-bd0c5a924c2f","ios":"levelo://app?vid=22b62481-9cdb-4cc5-875d-bd0c5a924c2f"},"vehicle_type_id":"4","last_reported":1750500631,"current_range_meters":1600,"station_id":"ce4bgkp2rcd13ifvqbmg","pricing_plan_id":"cebpf4jnsgd1na2vs0mg"},{"bike_id":"3902edc7-28da-4426-a555-df313f64fc7a","system_id":"levelo_inurba_marseille","lat":43.29003,"lon":5.35606,"is_reserved":false,"is_disabled":true,"rental_uris":{"android":"levelo://app?vid=3902edc7-28da-4426-a555-df313f64fc7a","ios":"levelo://app?vid=3902edc7-28da-4426-a555-df313f64fc7a"},"vehicle_type_id":"4","last_reported":1750500631,"current_range_meters":1600,"station_id":"ce4bhb92rcd13ifvqen0","pricing_plan_id":"cebpf4jnsgd1na2vs0mg"},{"bike_id":"beee863f-0f30-4ff8-b29b-418baa2a1bd4","system_id":"levelo_inurba_marseille","lat":43.2826,"lon":5.35059,"is_reserved":false,"is_disabled":true,"rental_uris":{"android":"levelo://app?vid=beee863f-0f30-4ff8-b29b-418baa2a1bd4","ios":"levelo://app?vid=beee863f-0f30-4ff8-b29b-418baa2a1bd4"},"vehicle_type_id":"4","last_reported":1750500631,"current_range_meters":1600,"station_id":"ce4bhbp2rcd13ifvqerg","pricing_plan_id":"cebpf4jnsgd1na2vs0mg"},{"bike_id":"fb90f752-6bae-4fbc-9bae-c2850b0a08b5","system_id":"levelo_inurba_marseille","lat":43.265885,"lon":5.39004,"is_reserved":false,"is_disabled":true,"rental_uris":{"android":"levelo://app?vid=fb90f752-6bae-4fbc-9bae-c2850b0a08b5","ios":"levelo://app?vid=fb90f752-6bae-4fbc-9bae-c2850b0a08b5"},"vehicle_type_id":"4","last_reported":1750500631,"current_range_meters":1600,"station_id":"ce4bhe12rcd13ifvqf30","pricing_plan_id":"cebpf4jnsgd1na2vs0mg"},{"bike_id":"0ca2f6dd-dde7-4b7f-b05f-a1b8fdcc1df1","system_id":"levelo_inurba_marseille","lat":43.25491,"lon":5.37644,"is_reserved":false,"is_disabled":true,"rental_uris":{"android":"levelo://app?vid=0ca2f6dd-dde7-4b7f-b05f-a1b8fdcc1df1","ios":"levelo://app?vid=0ca2f6dd-dde7-4b7f-b05f-a1b8fdcc1df1"},"vehicle_type_id":"4","last_reported":1750500631,"current_range_meters":1600,"station_id":"ce4bhh12rcd13ifvqff0","pricing_plan_id":"cebpf4jnsgd1na2vs0mg"},{"bike_id":"05e51855-0442-479b-98e5-ba9c6499bab0","system_id":"levelo_inurba_marseille","lat":43.23143,"lon":5.43707,"is_reserved":false,"is_disabled":true,"rental_uris":{"android":"levelo://app?vid=05e51855-0442-479b-98e5-ba9c6499bab0","ios":"levelo://app?vid=05e51855-0442-479b-98e5-ba9c6499bab0"},"vehicle_type_id":"4","last_reported":1750500631,"current_range_meters":1600,"station_id":"ce4bhmp2rcd13ifvqgog","pricing_plan_id":"cebpf4jnsgd1na2vs0mg"},{"bike_id":"db1d33bd-e8a4-40cf-b36e-45ad2c638221","system_id":"levelo_inurba_marseille","lat":43.26954,"lon":5.38618,"is_reserved":false,"is_disabled":false,"rental_uris":{"android":"levelo://app?vid=db1d33bd-e8a4-40cf-b36e-45ad2c638221","ios":"levelo://app?vid=db1d33bd-e8a4-40cf-b36e-45ad2c638221"},"vehicle_type_id":"4","last_reported":1750500631,"current_range_meters":2800,"station_id":"ce4bhh92rcd13ifvqfh0","pricing_plan_id":"cebpf4jnsgd1na2vs0mg"},{"bike_id":"769d1b59-0dde-418c-a967-5b1d19857941","system_id":"levelo_inurba_marseille","lat":43.21194,"lon":5.35065,"is_reserved":false,"is_disabled":false,"rental_uris":{"android":"levelo://app?vid=769d1b59-0dde-418c-a967-5b1d19857941","ios":"levelo://app?vid=769d1b59-0dde-418c-a967-5b1d19857941"},"vehicle_type_id":"4","last_reported":1750500631,"current_range_meters":2800,"station_id":"st_cvj6sg6p6f1abm77japg","pricing_plan_id":"cebpf4jnsgd1na2vs0mg"},{"bike_id":"6300fd29-d3ee-4b20-8e56-a8f44ac847e6","system_id":"levelo_inurba_marseille","lat":43.293902,"lon":5.379241,"is_reserved":false,"is_disabled":false,"rental_uris":{"android":"levelo://app?vid=6300fd29-d3ee-4b20-8e56-a8f44ac847e6","ios":"levelo://app?vid=6300fd29-d3ee-4b20-8e56-a8f44ac847e6"},"vehicle_type_id":"4","last_reported":1750500631,"current_range_meters":3200,"station_id":"ce4bgkp2rcd13ifvqbmg","pricing_plan_id":"cebpf4jnsgd1na2vs0mg"},{"bike_id":"e4475f8f-fb2b-4e5b-8aa5-66af21e6431f","system_id":"levelo_inurba_marseille","lat":43.24787,"lon":5.37485,"is_reserved":false,"is_disabled":false,"rental_uris":{"android":"levelo://app?vid=e4475f8f-fb2b-4e5b-8aa5-66af21e6431f","ios":"levelo://app?vid=e4475f8f-fb2b-4e5b-8aa5-66af21e6431f"},"vehicle_type_id":"4","last_reported":1750500631,"current_range_meters":3600,"station_id":"","pricing_plan_id":"cebpf4jnsgd1na2vs0mg"},{"bike_id":"e8b2899a-4211-4f31-b803-6ec5b4d26202","system_id":"levelo_inurba_marseille","lat":43.27596,"lon":5.39696,"is_reserved":false,"is_disabled":false,"rental_uris":{"android":"levelo://app?vid=e8b2899a-4211-4f31-b803-6ec5b4d26202","ios":"levelo://app?vid=e8b2899a-4211-4f31-b803-6ec5b4d26202"},"vehicle_type_id":"4","last_reported":1750500631,"current_range_meters":3600,"station_id":"","pricing_plan_id":"cebpf4jnsgd1na2vs0mg"},{"bike_id":"a9b23212-b22e-484a-99c6-8918a74098c3","system_id":"levelo_inurba_marseille","lat":43.23152,"lon":5.43706,"is_reserved":false,"is_disabled":false,"rental_uris":{"android":"levelo://app?vid=a9b23212-b22e-484a-99c6-8918a74098c3","ios":"levelo://app?vid=a9b23212-b22e-484a-99c6-8918a74098c3"},"vehicle_type_id":"4","last_reported":1750500631,"current_range_meters":3600,"station_id":"ce4bhmp2rcd13ifvqgog","pricing_plan_id":"cebpf4jnsgd1na2vs0mg"},{"bike_id":"dd45b830-666c-4c76-b06e-9938bffa2cad","system_id":"levelo_inurba_marseille","lat":43.31985,"lon":5.37539,"is_reserved":false,"is_disabled":false,"rental_uris":{"android":"levelo://app?vid=dd45b830-666c-4c76-b06e-9938bffa2cad","ios":"levelo://app?vid=dd45b830-666c-4c76-b06e-9938bffa2cad"},"vehicle_type_id":"4","last_reported":1750500631,"current_range_meters":4000,"station_id":"","pricing_plan_id":"cebpf4jnsgd1na2vs0mg"},{"bike_id":"df735c88-ae0a-4f8e-9723-d29eb27d80b9","system_id":"levelo_inurba_marseille","lat":43.299219,"lon":5.376293,"is_reserved":false,"is_disabled":false,"rental_uris":{"android":"levelo://app?vid=df735c88-ae0a-4f8e-9723-d29eb27d80b9","ios":"levelo://app?vid=df735c88-ae0a-4f8e-9723-d29eb27d80b9"},"vehicle_type_id":"4","last_reported":1750500631,"current_range_meters":4000,"station_id":"","pricing_plan_id":"cebpf4jnsgd1na2vs0mg"},{"bike_id":"f025e0b0-8595-426c-b214-cb9b74c5fcfd","system_id":"levelo_inurba_marseille","lat":43.322012,"lon":5.405718,"is_reserved":false,"is_disabled":false,"rental_uris":{"android":"levelo://app?vid=f025e0b0-8595-426c-b214-cb9b74c5fcfd","ios":"levelo://app?vid=f025e0b0-8595-426c-b214-cb9b74c5fcfd"},"vehicle_type_id":"4","last_reported":1750500631,"current_range_meters":4400,"station_id":"","pricing_plan_id":"cebpf4jnsgd1na2vs0mg"},{"bike_id":"655e5a89-f00e-4002-b947-a1d59b470d54","system_id":"levelo_inurba_marseille","lat":43.295685,"lon":5.399722,"is_reserved":false,"is_disabled":false,"rental_uris":{"android":"levelo://app?vid=655e5a89-f00e-4002-b947-a1d59b470d54","ios":"levelo://app?vid=655e5a89-f00e-4002-b947-a1d59b470d54"},"vehicle_type_id":"4","last_reported":1750500631,"current_range_meters":4400,"station_id":"ce4bh312rcd13ifvqdj0","pricing_plan_id":"cebpf4jnsgd1na2vs0mg"},{"bike_id":"89afb2ee-d2cf-46fd-badc-11db70e42443","system_id":"levelo_inurba_marseille","lat":43.2827,"lon":5.3506,"is_reserved":false,"is_disabled":false,"rental_uris":{"android":"levelo://app?vid=89afb2ee-d2cf-46fd-badc-11db70e42443","ios":"levelo://app?vid=89afb2ee-d2cf-46fd-badc-11db70e42443"},"vehicle_type_id":"4","last_reported":1750500631,"current_range_meters":4800,"station_id":"ce4bhbp2rcd13ifvqerg","pricing_plan_id":"cebpf4jnsgd1na2vs0mg"},{"bike_id":"2d9cd306-f0e6-4b47-9011-26d7fa79b2a5","system_id":"levelo_inurba_marseille","lat":43.249996,"lon":5.389269,"is_reserved":false,"is_disabled":false,"rental_uris":{"android":"levelo://app?vid=2d9cd306-f0e6-4b47-9011-26d7fa79b2a5","ios":"levelo://app?vid=2d9cd306-f0e6-4b47-9011-26d7fa79b2a5"},"vehicle_type_id":"4","last_reported":1750500631,"current_range_meters":4800,"station_id":"ce4bhgp2rcd13ifvqfd0","pricing_plan_id":"cebpf4jnsgd1na2vs0mg"},{"bike_id":"e70c95ec-0e87-4cac-95e3-ef9dc06482da","system_id":"levelo_inurba_marseille","lat":43.24389,"lon":5.37053,"is_reserved":false,"is_disabled":false,"rental_uris":{"android":"levelo://app?vid=e70c95ec-0e87-4cac-95e3-ef9dc06482da","ios":"levelo://app?vid=e70c95ec-0e87-4cac-95e3-ef9dc06482da"},"vehicle_type_id":"4","last_reported":1750500631,"current_range_meters":4800,"station_id":"ce4bhhh2rcd13ifvqfk0","pricing_plan_id":"cebpf4jnsgd1na2vs0mg"},{"bike_id":"c8af5794-a712-4938-87b5-d6133a905b10","system_id":"levelo_inurba_marseille","lat":43.2418,"lon":5.39724,"is_reserved":false,"is_disabled":false,"rental_uris":{"android":"levelo://app?vid=c8af5794-a712-4938-87b5-d6133a905b10","ios":"levelo://app?vid=c8af5794-a712-4938-87b5-d6133a905b10"},"vehicle_type_id":"4","last_reported":1750500631,"current_range_meters":4800,"station_id":"ce4bhn12rcd13ifvqgpg","pricing_plan_id":"cebpf4jnsgd1na2vs0mg"},{"bike_id":"0ae0a5e2-4172-42fc-b67e-dcb70ad4d289","system_id":"levelo_inurba_marseille","lat":43.26733,"lon":5.42204,"is_reserved":false,"is_disabled":false,"rental_uris":{"android":"levelo://app?vid=0ae0a5e2-4172-42fc-b67e-dcb70ad4d289","ios":"levelo://app?vid=0ae0a5e2-4172-42fc-b67e-dcb70ad4d289"},"vehicle_type_id":"4","last_reported":1750500631,"current_range_meters":5600,"station_id":"","pricing_plan_id":"cebpf4jnsgd1na2vs0mg"},{"bike_id":"177d2ec5-b02c-424f-ab87-73902ee5708e","system_id":"levelo_inurba_marseille","lat":43.28613,"lon":5.35097,"is_reserved":false,"is_disabled":false,"rental_uris":{"android":"levelo://app?vid=177d2ec5-b02c-424f-ab87-73902ee5708e","ios":"levelo://app?vid=177d2ec5-b02c-424f-ab87-73902ee5708e"},"vehicle_type_id":"4","last_reported":1750500631,"current_range_meters":5600,"station_id":"ce4bhch2rcd13ifvqeug","pricing_plan_id":"cebpf4jnsgd1na2vs0mg"},{"bike_id":"29ad955b-1a94-4237-bf63-f67c4b3126c8","system_id":"levelo_inurba_marseille","lat":43.31716,"lon":5.42411,"is_reserved":false,"is_disabled":false,"rental_uris":{"android":"levelo://app?vid=29ad955b-1a94-4237-bf63-f67c4b3126c8","ios":"levelo://app?vid=29ad955b-1a94-4237-bf63-f67c4b3126c8"},"vehicle_type_id":"4","last_reported":1750500631,"current_range_meters":5600,"station_id":"ce4bhp92rcd13ifvqhbg","pricing_plan_id":"cebpf4jnsgd1na2vs0mg"},{"bike_id":"db7f7512-c361-460d-984a-c7320754ec1a","system_id":"levelo_inurba_marseille","lat":43.30794,"lon":5.43524,"is_reserved":false,"is_disabled":false,"rental_uris":{"android":"levelo://app?vid=db7f7512-c361-460d-984a-c7320754ec1a","ios":"levelo://app?vid=db7f7512-c361-460d-984a-c7320754ec1a"},"vehicle_type_id":"4","last_reported":1750500631,"current_range_meters":6000,"station_id":"ce4bhph2rcd13ifvqheg","pricing_plan_id":"cebpf4jnsgd1na2vs0mg"},{"bike_id":"abf78148-2ce5-43ab-82c0-3457fb384565","system_id":"levelo_inurba_marseille","lat":43.30532,"lon":5.36547,"is_reserved":false,"is_disabled":false,"rental_uris":{"android":"levelo://app?vid=abf78148-2ce5-43ab-82c0-3457fb384565","ios":"levelo://app?vid=abf78148-2ce5-43ab-82c0-3457fb384565"},"vehicle_type_id":"4","last_reported":1750500631,"current_range_meters":6400,"station_id":"ce4bgs12rcd13ifvqcag","pricing_plan_id":"cebpf4jnsgd1na2vs0mg"},{"bike_id":"75af853c-a3a7-4ec7-86b8-1f4676d60466","system_id":"levelo_inurba_marseille","lat":43.28263,"lon":5.35065,"is_reserved":false,"is_disabled":false,"rental_uris":{"android":"levelo://app?vid=75af853c-a3a7-4ec7-86b8-1f4676d60466","ios":"levelo://app?vid=75af853c-a3a7-4ec7-86b8-1f4676d60466"},"vehicle_type_id":"4","last_reported":1750500631,"current_range_meters":6400,"station_id":"ce4bhbp2rcd13ifvqerg","pricing_plan_id":"cebpf4jnsgd1na2vs0mg"},{"bike_id":"f2169430-8ab5-4f68-846f-87f05b34d076","system_id":"levelo_inurba_marseille","lat":43.21206,"lon":5.35067,"is_reserved":false,"is_disabled":false,"rental_uris":{"android":"levelo://app?vid=f2169430-8ab5-4f68-846f-87f05b34d076","ios":"levelo://app?vid=f2169430-8ab5-4f68-846f-87f05b34d076"},"vehicle_type_id":"4","last_reported":1750500631,"current_range_meters":6400,"station_id":"st_cvj6sg6p6f1abm77japg","pricing_plan_id":"cebpf4jnsgd1na2vs0mg"},{"bike_id":"33893335-fbcb-43e3-9e2f-95cb467b1bcb","system_id":"levelo_inurba_marseille","lat":43.306,"lon":5.37623,"is_reserved":false,"is_disabled":false,"rental_uris":{"android":"levelo://app?vid=33893335-fbcb-43e3-9e2f-95cb467b1bcb","ios":"levelo://app?vid=33893335-fbcb-43e3-9e2f-95cb467b1bcb"},"vehicle_type_id":"4","last_reported":1750500631,"current_range_meters":6800,"station_id":"","pricing_plan_id":"cebpf4jnsgd1na2vs0mg"},{"bike_id":"fbe532e7-2f52-46dc-822c-1466686be8c5","system_id":"levelo_inurba_marseille","lat":43.30093,"lon":5.40548,"is_reserved":false,"is_disabled":false,"rental_uris":{"android":"levelo://app?vid=fbe532e7-2f52-46dc-822c-1466686be8c5","ios":"levelo://app?vid=fbe532e7-2f52-46dc-822c-1466686be8c5"},"vehicle_type_id":"4","last_reported":1750500631,"current_range_meters":6800,"station_id":"","pricing_plan_id":"cebpf4jnsgd1na2vs0mg"},{"bike_id":"1af8cc20-b4be-40a0-952b-b9221d26e0d7","system_id":"levelo_inurba_marseille","lat":43.29861,"lon":5.3766,"is_reserved":false,"is_disabled":false,"rental_uris":{"android":"levelo://app?vid=1af8cc20-b4be-40a0-952b-b9221d26e0d7","ios":"levelo://app?vid=1af8cc20-b4be-40a0-952b-b9221d26e0d7"},"vehicle_type_id":"4","last_reported":1750500631,"current_range_meters":7200,"station_id":"","pricing_plan_id":"cebpf4jnsgd1na2vs0mg"},{"bike_id":"b8f5e2c8-941a-4d61-af56-189bc037200f","system_id":"levelo_inurba_marseille","lat":43.27948,"lon":5.41038,"is_reserved":false,"is_disabled":false,"rental_uris":{"android":"levelo://app?vid=b8f5e2c8-941a-4d61-af56-189bc037200f","ios":"levelo://app?vid=b8f5e2c8-941a-4d61-af56-189bc037200f"},"vehicle_type_id":"4","last_reported":1750500631,"current_range_meters":7200,"station_id":"ce4bhnp2rcd13ifvqh0g","pricing_plan_id":"cebpf4jnsgd1na2vs0mg"},{"bike_id":"ba22f88e-8695-41ce-b7a3-7d5656601e8e","system_id":"levelo_inurba_marseille","lat":43.3108,"lon":5.38356,"is_reserved":false,"is_disabled":false,"rental_uris":{"android":"levelo://app?vid=ba22f88e-8695-41ce-b7a3-7d5656601e8e","ios":"levelo://app?vid=ba22f88e-8695-41ce-b7a3-7d5656601e8e"},"vehicle_type_id":"4","last_reported":1750500631,"current_range_meters":8000,"station_id":"ce4bgv92rcd13ifvqcr0","pricing_plan_id":"cebpf4jnsgd1na2vs0mg"},{"bike_id":"040977a8-13c0-45f8-878b-41dbebdc1a7e","system_id":"levelo_inurba_marseille","lat":43.29901,"lon":5.43638,"is_reserved":false,"is_disabled":false,"rental_uris":{"android":"levelo://app?vid=040977a8-13c0-45f8-878b-41dbebdc1a7e","ios":"levelo://app?vid=040977a8-13c0-45f8-878b-41dbebdc1a7e"},"vehicle_type_id":"4","last_reported":1750500631,"current_range_meters":8000,"station_id":"ce4bhpp2rcd13ifvqhfg","pricing_plan_id":"cebpf4jnsgd1na2vs0mg"},{"bike_id":"178fea52-5c46-4383-9a8d-cae388a2eff0","system_id":"levelo_inurba_marseille","lat":43.321039,"lon":5.367719,"is_reserved":false,"is_disabled":false,"rental_uris":{"android":"levelo://app?vid=178fea52-5c46-4383-9a8d-cae388a2eff0","ios":"levelo://app?vid=178fea52-5c46-4383-9a8d-cae388a2eff0"},"vehicle_type_id":"4","last_reported":1750500631,"current_range_meters":8000,"station_id":"ce4bhrh2rcd13ifvqhug","pricing_plan_id":"cebpf4jnsgd1na2vs0mg"},{"bike_id":"c595d0e1-c778-4abe-9c79-a9dd74f54e27","system_id":"levelo_inurba_marseille","lat":43.24471,"lon":5.37225,"is_reserved":false,"is_disabled":false,"rental_uris":{"android":"levelo://app?vid=c595d0e1-c778-4abe-9c79-a9dd74f54e27","ios":"levelo://app?vid=c595d0e1-c778-4abe-9c79-a9dd74f54e27"},"vehicle_type_id":"4","last_reported":1750500631,"current_range_meters":8400,"station_id":"","pricing_plan_id":"cebpf4jnsgd1na2vs0mg"},{"bike_id":"7f63adf2-d987-4272-b8e9-b090e9b97ebf","system_id":"levelo_inurba_marseille","lat":43.29301,"lon":5.374615,"is_reserved":false,"is_disabled":false,"rental_uris":{"android":"levelo://app?vid=7f63adf2-d987-4272-b8e9-b090e9b97ebf","ios":"levelo://app?vid=7f63adf2-d987-4272-b8e9-b090e9b97ebf"},"vehicle_type_id":"4","last_reported":1750500631,"current_range_meters":8400,"station_id":"ce4bgg92rcd13ifvqb30","pricing_plan_id":"cebpf4jnsgd1na2vs0mg"},{"bike_id":"cc554f2f-8737-4971-881e-eff8120e96eb","system_id":"levelo_inurba_marseille","lat":43.323593,"lon":5.367579,"is_reserved":false,"is_disabled":false,"rental_uris":{"android":"levelo://app?vid=cc554f2f-8737-4971-881e-eff8120e96eb","ios":"levelo://app?vid=cc554f2f-8737-4971-881e-eff8120e96eb"},"vehicle_type_id":"4","last_reported":1750500631,"current_range_meters":8400,"station_id":"ce4bhsh2rcd13ifvqi2g","pricing_plan_id":"cebpf4jnsgd1na2vs0mg"},{"bike_id":"3230f2ce-4de6-4775-8f3b-9e1495ded005","system_id":"levelo_inurba_marseille","lat":43.2465,"lon":5.37809,"is_reserved":false,"is_disabled":false,"rental_uris":{"android":"levelo://app?vid=3230f2ce-4de6-4775-8f3b-9e1495ded005","ios":"levelo://app?vid=3230f2ce-4de6-4775-8f3b-9e1495ded005"},"vehicle_type_id":"4","last_reported":1750500631,"current_range_meters":8800,"station_id":"","pricing_plan_id":"cebpf4jnsgd1na2vs0mg"},{"bike_id":"b50ed994-fd88-4dd1-8846-dc2bf2666662","system_id":"levelo_inurba_marseille","lat":43.305636,"lon":5.400963,"is_reserved":false,"is_disabled":false,"rental_uris":{"android":"levelo://app?vid=b50ed994-fd88-4dd1-8846-dc2bf2666662","ios":"levelo://app?vid=b50ed994-fd88-4dd1-8846-dc2bf2666662"},"vehicle_type_id":"4","last_reported":1750500631,"current_range_meters":8800,"station_id":"","pricing_plan_id":"cebpf4jnsgd1na2vs0mg"},{"bike_id":"bfb5813c-f2a6-4c90-8fc7-5ca0e4b24ddc","system_id":"levelo_inurba_marseille","lat":43.23151,"lon":5.43691,"is_reserved":false,"is_disabled":false,"rental_uris":{"android":"levelo://app?vid=bfb5813c-f2a6-4c90-8fc7-5ca0e4b24ddc","ios":"levelo://app?vid=bfb5813c-f2a6-4c90-8fc7-5ca0e4b24ddc"},"vehicle_type_id":"4","last_reported":1750500631,"current_range_meters":8800,"station_id":"ce4bhmp2rcd13ifvqgog","pricing_plan_id":"cebpf4jnsgd1na2vs0mg"},{"bike_id":"16967bbf-d622-4ac5-86f0-4604527523fa","system_id":"levelo_inurba_marseille","lat":43.24154,"lon":5.39729,"is_reserved":false,"is_disabled":false,"rental_uris":{"android":"levelo://app?vid=16967bbf-d622-4ac5-86f0-4604527523fa","ios":"levelo://app?vid=16967bbf-d622-4ac5-86f0-4604527523fa"},"vehicle_type_id":"4","last_reported":1750500631,"current_range_meters":8800,"station_id":"ce4bhn12rcd13ifvqgpg","pricing_plan_id":"cebpf4jnsgd1na2vs0mg"},{"bike_id":"07316e55-8af8-40c8-bbd1-27b18547adb5","system_id":"levelo_inurba_marseille","lat":43.241602,"lon":5.364033,"is_reserved":false,"is_disabled":false,"rental_uris":{"android":"levelo://app?vid=07316e55-8af8-40c8-bbd1-27b18547adb5","ios":"levelo://app?vid=07316e55-8af8-40c8-bbd1-27b18547adb5"},"vehicle_type_id":"4","last_reported":1750500631,"current_range_meters":8800,"station_id":"cpo36qri1sfpv3e86is0","pricing_plan_id":"cebpf4jnsgd1na2vs0mg"},{"bike_id":"db9d0e32-7912-4ec7-b3de-e38fc277a165","system_id":"levelo_inurba_marseille","lat":43.27624,"lon":5.36107,"is_reserved":false,"is_disabled":false,"rental_uris":{"android":"levelo://app?vid=db9d0e32-7912-4ec7-b3de-e38fc277a165","ios":"levelo://app?vid=db9d0e32-7912-4ec7-b3de-e38fc277a165"},"vehicle_type_id":"4","last_reported":1750500631,"current_range_meters":9200,"station_id":"ce4bgj92rcd13ifvqbe0","pricing_plan_id":"cebpf4jnsgd1na2vs0mg"},{"bike_id":"c1d2924e-bc9e-4002-9b6b-15250c02ffc2","system_id":"levelo_inurba_marseille","lat":43.29852,"lon":5.36269,"is_reserved":false,"is_disabled":false,"rental_uris":{"android":"levelo://app?vid=c1d2924e-bc9e-4002-9b6b-15250c02ffc2","ios":"levelo://app?vid=c1d2924e-bc9e-4002-9b6b-15250c02ffc2"},"vehicle_type_id":"4","last_reported":1750500631,"current_range_meters":9200,"station_id":"ce4bgpp2rcd13ifvqc3g","pricing_plan_id":"cebpf4jnsgd1na2vs0mg"},{"bike_id":"86b6d371-7b10-434c-9519-7b571f875242","system_id":"levelo_inurba_marseille","lat":43.3133,"lon":5.39688,"is_reserved":false,"is_disabled":false,"rental_uris":{"android":"levelo://app?vid=86b6d371-7b10-434c-9519-7b571f875242","ios":"levelo://app?vid=86b6d371-7b10-434c-9519-7b571f875242"},"vehicle_type_id":"4","last_reported":1750500631,"current_range_meters":9200,"station_id":"ce4bgvp2rcd13ifvqcu0","pricing_plan_id":"cebpf4jnsgd1na2vs0mg"},{"bike_id":"27468cc4-2804-4d59-bbfb-2dbddef4af1b","system_id":"levelo_inurba_marseille","lat":43.28279,"lon":5.35075,"is_reserved":false,"is_disabled":false,"rental_uris":{"android":"levelo://app?vid=27468cc4-2804-4d59-bbfb-2dbddef4af1b","ios":"levelo://app?vid=27468cc4-2804-4d59-bbfb-2dbddef4af1b"},"vehicle_type_id":"4","last_reported":1750500631,"current_range_meters":9200,"station_id":"ce4bhbp2rcd13ifvqerg","pricing_plan_id":"cebpf4jnsgd1na2vs0mg"},{"bike_id":"d9a1e2fa-383b-4564-9266-4929dab6933f","system_id":"levelo_inurba_marseille","lat":43.24394,"lon":5.37062,"is_reserved":false,"is_disabled":false,"rental_uris":{"android":"levelo://app?vid=d9a1e2fa-383b-4564-9266-4929dab6933f","ios":"levelo://app?vid=d9a1e2fa-383b-4564-9266-4929dab6933f"},"vehicle_type_id":"4","last_reported":1750500631,"current_range_meters":9200,"station_id":"ce4bhhh2rcd13ifvqfk0","pricing_plan_id":"cebpf4jnsgd1na2vs0mg"},{"bike_id":"1ce0e88e-d695-4fa0-a417-7b99c428309c","system_id":"levelo_inurba_marseille","lat":43.31893,"lon":5.40726,"is_reserved":false,"is_disabled":false,"rental_uris":{"android":"levelo://app?vid=1ce0e88e-d695-4fa0-a417-7b99c428309c","ios":"levelo://app?vid=1ce0e88e-d695-4fa0-a417-7b99c428309c"},"vehicle_type_id":"4","last_reported":1750500631,"current_range_meters":9200,"station_id":"ce4bhq12rcd13ifvqhig","pricing_plan_id":"cebpf4jnsgd1na2vs0mg"},{"bike_id":"199c2831-e081-4bc0-9b94-19503817091d","system_id":"levelo_inurba_marseille","lat":43.24899,"lon":5.40659,"is_reserved":false,"is_disabled":false,"rental_uris":{"android":"levelo://app?vid=199c2831-e081-4bc0-9b94-19503817091d","ios":"levelo://app?vid=199c2831-e081-4bc0-9b94-19503817091d"},"vehicle_type_id":"4","last_reported":1750500631,"current_range_meters":9600,"station_id":"","pricing_plan_id":"cebpf4jnsgd1na2vs0mg"},{"bike_id":"69880a08-8607-4455-93ef-65dfe3aacaad","system_id":"levelo_inurba_marseille","lat":43.31709,"lon":5.377322,"is_reserved":false,"is_disabled":false,"rental_uris":{"android":"levelo://app?vid=69880a08-8607-4455-93ef-65dfe3aacaad","ios":"levelo://app?vid=69880a08-8607-4455-93ef-65dfe3aacaad"},"vehicle_type_id":"4","last_reported":1750500631,"current_range_meters":9600,"station_id":"ce4bgth2rcd13ifvqch0","pricing_plan_id":"cebpf4jnsgd1na2vs0mg"},{"bike_id":"193ef74f-8949-49ee-acaf-d72c06669666","system_id":"levelo_inurba_marseille","lat":43.27938,"lon":5.41051,"is_reserved":false,"is_disabled":false,"rental_uris":{"android":"levelo://app?vid=193ef74f-8949-49ee-acaf-d72c06669666","ios":"levelo://app?vid=193ef74f-8949-49ee-acaf-d72c06669666"},"vehicle_type_id":"4","last_reported":1750500631,"current_range_meters":9600,"station_id":"ce4bhnp2rcd13ifvqh0g","pricing_plan_id":"cebpf4jnsgd1na2vs0mg"},{"bike_id":"a91667c8-9d9b-4267-80b6-c6c85a0895dc","system_id":"levelo_inurba_marseille","lat":43.32338,"lon":5.4062,"is_reserved":false,"is_disabled":false,"rental_uris":{"android":"levelo://app?vid=a91667c8-9d9b-4267-80b6-c6c85a0895dc","ios":"levelo://app?vid=a91667c8-9d9b-4267-80b6-c6c85a0895dc"},"vehicle_type_id":"4","last_reported":1750500631,"current_range_meters":9600,"station_id":"ce4bhq92rcd13ifvqhjg","pricing_plan_id":"cebpf4jnsgd1na2vs0mg"},{"bike_id":"8300812b-c3f4-4460-a462-0c10590e5460","system_id":"levelo_inurba_marseille","lat":43.32974,"lon":5.40547,"is_reserved":false,"is_disabled":false,"rental_uris":{"android":"levelo://app?vid=8300812b-c3f4-4460-a462-0c10590e5460","ios":"levelo://app?vid=8300812b-c3f4-4460-a462-0c10590e5460"},"vehicle_type_id":"4","last_reported":1750500631,"current_range_meters":10000,"station_id":"","pricing_plan_id":"cebpf4jnsgd1na2vs0mg"},{"bike_id":"0c3c1a1e-accc-48fd-8dff-9e6a62eb7e59","system_id":"levelo_inurba_marseille","lat":43.32342,"lon":5.40543,"is_reserved":false,"is_disabled":false,"rental_uris":{"android":"levelo://app?vid=0c3c1a1e-accc-48fd-8dff-9e6a62eb7e59","ios":"levelo://app?vid=0c3c1a1e-accc-48fd-8dff-9e6a62eb7e59"},"vehicle_type_id":"4","last_reported":1750500631,"current_range_meters":10000,"station_id":"","pricing_plan_id":"cebpf4jnsgd1na2vs0mg"},{"bike_id":"563dcdd3-9bed-441e-881e-9d7f1273d018","system_id":"levelo_inurba_marseille","lat":43.29716,"lon":5.36617,"is_reserved":false,"is_disabled":false,"rental_uris":{"android":"levelo://app?vid=563dcdd3-9bed-441e-881e-9d7f1273d018","ios":"levelo://app?vid=563dcdd3-9bed-441e-881e-9d7f1273d018"},"vehicle_type_id":"4","last_reported":1750500631,"current_range_meters":10000,"station_id":"ce4bgn12rcd13ifvqbt0","pricing_plan_id":"cebpf4jnsgd1na2vs0mg"},{"bike_id":"93679375-1f63-4540-997d-38dc43bcb576","system_id":"levelo_inurba_marseille","lat":43.25109,"lon":5.40318,"is_reserved":false,"is_disabled":false,"rental_uris":{"android":"levelo://app?vid=93679375-1f63-4540-997d-38dc43bcb576","ios":"levelo://app?vid=93679375-1f63-4540-997d-38dc43bcb576"},"vehicle_type_id":"4","last_reported":1750500631,"current_range_meters":10000,"station_id":"ce4bhlh2rcd13ifvqgig","pricing_plan_id":"cebpf4jnsgd1na2vs0mg"},{"bike_id":"ee762a49-83ad-4fcd-811f-1fa20f226852","system_id":"levelo_inurba_marseille","lat":43.30379,"lon":5.42486,"is_reserved":false,"is_disabled":false,"rental_uris":{"android":"levelo://app?vid=ee762a49-83ad-4fcd-811f-1fa20f226852","ios":"levelo://app?vid=ee762a49-83ad-4fcd-811f-1fa20f226852"},"vehicle_type_id":"4","last_reported":1750500631,"current_range_meters":10000,"station_id":"ce4bhoh2rcd13ifvqh6g","pricing_plan_id":"cebpf4jnsgd1na2vs0mg"},{"bike_id":"e910fada-1683-4a92-b080-1a3123477b1d","system_id":"levelo_inurba_marseille","lat":43.28604,"lon":5.37062,"is_reserved":false,"is_disabled":false,"rental_uris":{"android":"levelo://app?vid=e910fada-1683-4a92-b080-1a3123477b1d","ios":"levelo://app?vid=e910fada-1683-4a92-b080-1a3123477b1d"},"vehicle_type_id":"4","last_reported":1750500631,"current_range_meters":10000,"station_id":"ce4bht12rcd13ifvqi60","pricing_plan_id":"cebpf4jnsgd1na2vs0mg"},{"bike_id":"9c25f9bc-f225-4354-85b2-ec6ab9724717","system_id":"levelo_inurba_marseille","lat":43.29308,"lon":5.37166,"is_reserved":false,"is_disabled":false,"rental_uris":{"android":"levelo://app?vid=9c25f9bc-f225-4354-85b2-ec6ab9724717","ios":"levelo://app?vid=9c25f9bc-f225-4354-85b2-ec6ab9724717"},"vehicle_type_id":"4","last_reported":1750500631,"current_range_meters":10800,"station_id":"ce4bgh92rcd13ifvqb40","pricing_plan_id":"cebpf4jnsgd1na2vs0mg"},{"bike_id":"f441ed1f-ba52-4f65-8de2-eb8d85d35f2c","system_id":"levelo_inurba_marseille","lat":43.27381,"lon":5.36259,"is_reserved":false,"is_disabled":false,"rental_uris":{"android":"levelo://app?vid=f441ed1f-ba52-4f65-8de2-eb8d85d35f2c","ios":"levelo://app?vid=f441ed1f-ba52-4f65-8de2-eb8d85d35f2c"},"vehicle_type_id":"4","last_reported":1750500631,"current_range_meters":10800,"station_id":"ce4bhbh2rcd13ifvqeo0","pricing_plan_id":"cebpf4jnsgd1na2vs0mg"},{"bike_id":"7a5babc2-1b6c-4f42-af65-e41db234c19d","system_id":"levelo_inurba_marseille","lat":43.231792,"lon":5.39992,"is_reserved":false,"is_disabled":false,"rental_uris":{"android":"levelo://app?vid=7a5babc2-1b6c-4f42-af65-e41db234c19d","ios":"levelo://app?vid=7a5babc2-1b6c-4f42-af65-e41db234c19d"},"vehicle_type_id":"4","last_reported":1750500631,"current_range_meters":10800,"station_id":"ce4bhn12rcd13ifvqgqg","pricing_plan_id":"cebpf4jnsgd1na2vs0mg"},{"bike_id":"d19f0b63-adc7-497a-9a2d-789d0e9472ab","system_id":"levelo_inurba_marseille","lat":43.28108,"lon":5.37835,"is_reserved":false,"is_disabled":false,"rental_uris":{"android":"levelo://app?vid=d19f0b63-adc7-497a-9a2d-789d0e9472ab","ios":"levelo://app?vid=d19f0b63-adc7-497a-9a2d-789d0e9472ab"},"vehicle_type_id":"4","last_reported":1750500631,"current_range_meters":11200,"station_id":"ce4bha12rcd13ifvqee0","pricing_plan_id":"cebpf4jnsgd1na2vs0mg"},{"bike_id":"bd27fe72-6fbc-453f-8b77-bee10ab3b13c","system_id":"levelo_inurba_marseille","lat":43.29552,"lon":5.42336,"is_reserved":false,"is_disabled":false,"rental_uris":{"android":"levelo://app?vid=bd27fe72-6fbc-453f-8b77-bee10ab3b13c","ios":"levelo://app?vid=bd27fe72-6fbc-453f-8b77-bee10ab3b13c"},"vehicle_type_id":"4","last_reported":1750500631,"current_range_meters":11200,"station_id":"ce4bhph2rcd13ifvqhdg","pricing_plan_id":"cebpf4jnsgd1na2vs0mg"},{"bike_id":"dc540ba2-fb63-45eb-b83a-1826fb3d30b7","system_id":"levelo_inurba_marseille","lat":43.245979,"lon":5.392451,"is_reserved":false,"is_disabled":false,"rental_uris":{"android":"levelo://app?vid=dc540ba2-fb63-45eb-b83a-1826fb3d30b7","ios":"levelo://app?vid=dc540ba2-fb63-45eb-b83a-1826fb3d30b7"},"vehicle_type_id":"4","last_reported":1750500631,"current_range_meters":11600,"station_id":"","pricing_plan_id":"cebpf4jnsgd1na2vs0mg"},{"bike_id":"8d5eeb77-60a3-4d69-9687-b8e6b551b11c","system_id":"levelo_inurba_marseille","lat":43.278237,"lon":5.414398,"is_reserved":false,"is_disabled":false,"rental_uris":{"android":"levelo://app?vid=8d5eeb77-60a3-4d69-9687-b8e6b551b11c","ios":"levelo://app?vid=8d5eeb77-60a3-4d69-9687-b8e6b551b11c"},"vehicle_type_id":"4","last_reported":1750500631,"current_range_meters":11600,"station_id":"","pricing_plan_id":"cebpf4jnsgd1na2vs0mg"},{"bike_id":"a9ce9b34-05fe-4628-9f27-d23b1b5f7a34","system_id":"levelo_inurba_marseille","lat":43.28619,"lon":5.35099,"is_reserved":false,"is_disabled":false,"rental_uris":{"android":"levelo://app?vid=a9ce9b34-05fe-4628-9f27-d23b1b5f7a34","ios":"levelo://app?vid=a9ce9b34-05fe-4628-9f27-d23b1b5f7a34"},"vehicle_type_id":"4","last_reported":1750500631,"current_range_meters":11600,"station_id":"ce4bhch2rcd13ifvqeug","pricing_plan_id":"cebpf4jnsgd1na2vs0mg"},{"bike_id":"8fd94bfe-b0a3-4509-a3c9-0f6e3f8eed78","system_id":"levelo_inurba_marseille","lat":43.24172,"lon":5.3639,"is_reserved":false,"is_disabled":false,"rental_uris":{"android":"levelo://app?vid=8fd94bfe-b0a3-4509-a3c9-0f6e3f8eed78","ios":"levelo://app?vid=8fd94bfe-b0a3-4509-a3c9-0f6e3f8eed78"},"vehicle_type_id":"4","last_reported":1750500631,"current_range_meters":11600,"station_id":"cpo36qri1sfpv3e86is0","pricing_plan_id":"cebpf4jnsgd1na2vs0mg"},{"bike_id":"8ef11a45-504d-45b0-a2b5-97fef9594218","system_id":"levelo_inurba_marseille","lat":43.295682,"lon":5.381408,"is_reserved":false,"is_disabled":false,"rental_uris":{"android":"levelo://app?vid=8ef11a45-504d-45b0-a2b5-97fef9594218","ios":"levelo://app?vid=8ef11a45-504d-45b0-a2b5-97fef9594218"},"vehicle_type_id":"4","last_reported":1750500631,"current_range_meters":12000,"station_id":"ce4bgl12rcd13ifvqbo0","pricing_plan_id":"cebpf4jnsgd1na2vs0mg"},{"bike_id":"73190b84-2273-4cae-88b1-95fc4e2bf89a","system_id":"levelo_inurba_marseille","lat":43.30517,"lon":5.36678,"is_reserved":false,"is_disabled":false,"rental_uris":{"android":"levelo://app?vid=73190b84-2273-4cae-88b1-95fc4e2bf89a","ios":"levelo://app?vid=73190b84-2273-4cae-88b1-95fc4e2bf89a"},"vehicle_type_id":"4","last_reported":1750500631,"current_range_meters":12000,"station_id":"ce4bgrp2rcd13ifvqc9g","pricing_plan_id":"cebpf4jnsgd1na2vs0mg"},{"bike_id":"e4bbe03c-04ac-4286-89f5-b55783ea9b9a","system_id":"levelo_inurba_marseille","lat":43.26676,"lon":5.38266,"is_reserved":false,"is_disabled":false,"rental_uris":{"android":"levelo://app?vid=e4bbe03c-04ac-4286-89f5-b55783ea9b9a","ios":"levelo://app?vid=e4bbe03c-04ac-4286-89f5-b55783ea9b9a"},"vehicle_type_id":"4","last_reported":1750500631,"current_range_meters":12000,"station_id":"ce4bhg92rcd13ifvqf90","pricing_plan_id":"cebpf4jnsgd1na2vs0mg"},{"bike_id":"5f91e688-16fe-48a6-82b7-78d151b9ca64","system_id":"levelo_inurba_marseille","lat":43.26193,"lon":5.374477,"is_reserved":false,"is_disabled":false,"rental_uris":{"android":"levelo://app?vid=5f91e688-16fe-48a6-82b7-78d151b9ca64","ios":"levelo://app?vid=5f91e688-16fe-48a6-82b7-78d151b9ca64"},"vehicle_type_id":"4","last_reported":1750500631,"current_range_meters":12000,"station_id":"ce4bhgp2rcd13ifvqfc0","pricing_plan_id":"cebpf4jnsgd1na2vs0mg"},{"bike_id":"959f0c62-9761-4a35-9c23-557e23ca2679","system_id":"levelo_inurba_marseille","lat":43.24684,"lon":5.38156,"is_reserved":false,"is_disabled":false,"rental_uris":{"android":"levelo://app?vid=959f0c62-9761-4a35-9c23-557e23ca2679","ios":"levelo://app?vid=959f0c62-9761-4a35-9c23-557e23ca2679"},"vehicle_type_id":"4","last_reported":1750500631,"current_range_meters":12000,"station_id":"ce4bhih2rcd13ifvqfr0","pricing_plan_id":"cebpf4jnsgd1na2vs0mg"},{"bike_id":"d2ec3d1b-4885-429e-be35-dd09a36e7f83","system_id":"levelo_inurba_marseille","lat":43.26201,"lon":5.37929,"is_reserved":false,"is_disabled":false,"rental_uris":{"android":"levelo://app?vid=d2ec3d1b-4885-429e-be35-dd09a36e7f83","ios":"levelo://app?vid=d2ec3d1b-4885-429e-be35-dd09a36e7f83"},"vehicle_type_id":"4","last_reported":1750500631,"current_range_meters":12000,"station_id":"ce4bhjp2rcd13ifvqg90","pricing_plan_id":"cebpf4jnsgd1na2vs0mg"},{"bike_id":"55ff0caa-22b9-47ac-9c56-51bc6959d208","system_id":"levelo_inurba_marseille","lat":43.28725,"lon":5.3608,"is_reserved":false,"is_disabled":false,"rental_uris":{"android":"levelo://app?vid=55ff0caa-22b9-47ac-9c56-51bc6959d208","ios":"levelo://app?vid=55ff0caa-22b9-47ac-9c56-51bc6959d208"},"vehicle_type_id":"4","last_reported":1750500631,"current_range_meters":12000,"station_id":"cki0cbj6b192h4jlfktg","pricing_plan_id":"cebpf4jnsgd1na2vs0mg"},{"bike_id":"d40af265-11b5-43a6-9bb6-f910f57901ba","system_id":"levelo_inurba_marseille","lat":43.33033,"lon":5.38002,"is_reserved":false,"is_disabled":false,"rental_uris":{"android":"levelo://app?vid=d40af265-11b5-43a6-9bb6-f910f57901ba","ios":"levelo://app?vid=d40af265-11b5-43a6-9bb6-f910f57901ba"},"vehicle_type_id":"4","last_reported":1750500631,"current_range_meters":12400,"station_id":"","pricing_plan_id":"cebpf4jnsgd1na2vs0mg"},{"bike_id":"30bc3149-44eb-4108-b720-a99c41aee631","system_id":"levelo_inurba_marseille","lat":43.24764,"lon":5.37588,"is_reserved":false,"is_disabled":false,"rental_uris":{"android":"levelo://app?vid=30bc3149-44eb-4108-b720-a99c41aee631","ios":"levelo://app?vid=30bc3149-44eb-4108-b720-a99c41aee631"},"vehicle_type_id":"4","last_reported":1750500631,"current_range_meters":12400,"station_id":"","pricing_plan_id":"cebpf4jnsgd1na2vs0mg"},{"bike_id":"433be858-1e0b-4837-8914-1eb909d23fe5","system_id":"levelo_inurba_marseille","lat":43.28659,"lon":5.36343,"is_reserved":false,"is_disabled":false,"rental_uris":{"android":"levelo://app?vid=433be858-1e0b-4837-8914-1eb909d23fe5","ios":"levelo://app?vid=433be858-1e0b-4837-8914-1eb909d23fe5"},"vehicle_type_id":"4","last_reported":1750500631,"current_range_meters":12400,"station_id":"ce4bhah2rcd13ifvqej0","pricing_plan_id":"cebpf4jnsgd1na2vs0mg"},{"bike_id":"df5adf3e-7d37-4081-a364-ae052d641ff3","system_id":"levelo_inurba_marseille","lat":43.283826,"lon":5.349998,"is_reserved":false,"is_disabled":false,"rental_uris":{"android":"levelo://app?vid=df5adf3e-7d37-4081-a364-ae052d641ff3","ios":"levelo://app?vid=df5adf3e-7d37-4081-a364-ae052d641ff3"},"vehicle_type_id":"4","last_reported":1750500631,"current_range_meters":12400,"station_id":"ce4bhbh2rcd13ifvqepg","pricing_plan_id":"cebpf4jnsgd1na2vs0mg"},{"bike_id":"6e13b40c-e2fd-4295-968d-e293e86b47b2","system_id":"levelo_inurba_marseille","lat":43.262093,"lon":5.3745,"is_reserved":false,"is_disabled":false,"rental_uris":{"android":"levelo://app?vid=6e13b40c-e2fd-4295-968d-e293e86b47b2","ios":"levelo://app?vid=6e13b40c-e2fd-4295-968d-e293e86b47b2"},"vehicle_type_id":"4","last_reported":1750500631,"current_range_meters":12400,"station_id":"ce4bhgp2rcd13ifvqfc0","pricing_plan_id":"cebpf4jnsgd1na2vs0mg"},{"bike_id":"a22aa312-0025-4f42-88e2-b1e95e79340f","system_id":"levelo_inurba_marseille","lat":43.316549,"lon":5.383405,"is_reserved":false,"is_disabled":false,"rental_uris":{"android":"levelo://app?vid=a22aa312-0025-4f42-88e2-b1e95e79340f","ios":"levelo://app?vid=a22aa312-0025-4f42-88e2-b1e95e79340f"},"vehicle_type_id":"4","last_reported":1750500631,"current_range_meters":12800,"station_id":"","pricing_plan_id":"cebpf4jnsgd1na2vs0mg"},{"bike_id":"be9bb991-ac03-45a5-94b6-b45fddd7d7dc","system_id":"levelo_inurba_marseille","lat":43.323426,"lon":5.406098,"is_reserved":false,"is_disabled":false,"rental_uris":{"android":"levelo://app?vid=be9bb991-ac03-45a5-94b6-b45fddd7d7dc","ios":"levelo://app?vid=be9bb991-ac03-45a5-94b6-b45fddd7d7dc"},"vehicle_type_id":"4","last_reported":1750500631,"current_range_meters":12800,"station_id":"ce4bh092rcd13ifvqd20","pricing_plan_id":"cebpf4jnsgd1na2vs0mg"},{"bike_id":"db271b3d-33bd-47a5-b4ad-a862b19a1c7d","system_id":"levelo_inurba_marseille","lat":43.229315,"lon":5.353727,"is_reserved":false,"is_disabled":false,"rental_uris":{"android":"levelo://app?vid=db271b3d-33bd-47a5-b4ad-a862b19a1c7d","ios":"levelo://app?vid=db271b3d-33bd-47a5-b4ad-a862b19a1c7d"},"vehicle_type_id":"4","last_reported":1750500631,"current_range_meters":12800,"station_id":"cpo3532slgdg3j2ikp40","pricing_plan_id":"cebpf4jnsgd1na2vs0mg"},{"bike_id":"4643bc90-1bac-4c4b-98b1-e2d500830573","system_id":"levelo_inurba_marseille","lat":43.31336,"lon":5.37676,"is_reserved":false,"is_disabled":false,"rental_uris":{"android":"levelo://app?vid=4643bc90-1bac-4c4b-98b1-e2d500830573","ios":"levelo://app?vid=4643bc90-1bac-4c4b-98b1-e2d500830573"},"vehicle_type_id":"4","last_reported":1750500631,"current_range_meters":13600,"station_id":"","pricing_plan_id":"cebpf4jnsgd1na2vs0mg"},{"bike_id":"1d3f4a8c-e7ae-43d9-bde7-a8b9b2e230a1","system_id":"levelo_inurba_marseille","lat":43.314988,"lon":5.373026,"is_reserved":false,"is_disabled":false,"rental_uris":{"android":"levelo://app?vid=1d3f4a8c-e7ae-43d9-bde7-a8b9b2e230a1","ios":"levelo://app?vid=1d3f4a8c-e7ae-43d9-bde7-a8b9b2e230a1"},"vehicle_type_id":"4","last_reported":1750500631,"current_range_meters":13600,"station_id":"ce4bgt12rcd13ifvqcd0","pricing_plan_id":"cebpf4jnsgd1na2vs0mg"},{"bike_id":"1b1b7e6d-4b35-42cd-9b75-5d1bd4d3e70b","system_id":"levelo_inurba_marseille","lat":43.25118,"lon":5.4031,"is_reserved":false,"is_disabled":false,"rental_uris":{"android":"levelo://app?vid=1b1b7e6d-4b35-42cd-9b75-5d1bd4d3e70b","ios":"levelo://app?vid=1b1b7e6d-4b35-42cd-9b75-5d1bd4d3e70b"},"vehicle_type_id":"4","last_reported":1750500631,"current_range_meters":13600,"station_id":"ce4bhlh2rcd13ifvqgig","pricing_plan_id":"cebpf4jnsgd1na2vs0mg"},{"bike_id":"4f7c8824-48d1-4b68-bcdd-8965aff5286d","system_id":"levelo_inurba_marseille","lat":43.2904,"lon":5.39959,"is_reserved":false,"is_disabled":false,"rental_uris":{"android":"levelo://app?vid=4f7c8824-48d1-4b68-bcdd-8965aff5286d","ios":"levelo://app?vid=4f7c8824-48d1-4b68-bcdd-8965aff5286d"},"vehicle_type_id":"4","last_reported":1750500631,"current_range_meters":14000,"station_id":"ce4bh392rcd13ifvqdm0","pricing_plan_id":"cebpf4jnsgd1na2vs0mg"},{"bike_id":"3811b391-6c52-4551-8b85-a391e135ccd7","system_id":"levelo_inurba_marseille","lat":43.28733,"lon":5.37936,"is_reserved":false,"is_disabled":false,"rental_uris":{"android":"levelo://app?vid=3811b391-6c52-4551-8b85-a391e135ccd7","ios":"levelo://app?vid=3811b391-6c52-4551-8b85-a391e135ccd7"},"vehicle_type_id":"4","last_reported":1750500631,"current_range_meters":14000,"station_id":"ce4bh9p2rcd13ifvqec0","pricing_plan_id":"cebpf4jnsgd1na2vs0mg"},{"bike_id":"ff562e59-2a56-41e8-9f36-3a9a20a0cc07","system_id":"levelo_inurba_marseille","lat":43.31764,"lon":5.39011,"is_reserved":false,"is_disabled":false,"rental_uris":{"android":"levelo://app?vid=ff562e59-2a56-41e8-9f36-3a9a20a0cc07","ios":"levelo://app?vid=ff562e59-2a56-41e8-9f36-3a9a20a0cc07"},"vehicle_type_id":"4","last_reported":1750500631,"current_range_meters":14000,"station_id":"ce4bhqp2rcd13ifvqhng","pricing_plan_id":"cebpf4jnsgd1na2vs0mg"},{"bike_id":"5010a676-ff43-491b-bc56-633baa4fb06e","system_id":"levelo_inurba_marseille","lat":43.25,"lon":5.38922,"is_reserved":false,"is_disabled":false,"rental_uris":{"android":"levelo://app?vid=5010a676-ff43-491b-bc56-633baa4fb06e","ios":"levelo://app?vid=5010a676-ff43-491b-bc56-633baa4fb06e"},"vehicle_type_id":"4","last_reported":1750500631,"current_range_meters":14400,"station_id":"ce4bhgp2rcd13ifvqfd0","pricing_plan_id":"cebpf4jnsgd1na2vs0mg"},{"bike_id":"e737f46a-172b-4ff3-a1b6-2286848bbf58","system_id":"levelo_inurba_marseille","lat":43.26198,"lon":5.37929,"is_reserved":false,"is_disabled":false,"rental_uris":{"android":"levelo://app?vid=e737f46a-172b-4ff3-a1b6-2286848bbf58","ios":"levelo://app?vid=e737f46a-172b-4ff3-a1b6-2286848bbf58"},"vehicle_type_id":"4","last_reported":1750500631,"current_range_meters":14400,"station_id":"ce4bhjp2rcd13ifvqg90","pricing_plan_id":"cebpf4jnsgd1na2vs0mg"},{"bike_id":"55faab8b-166c-40fa-a212-715724d79d7d","system_id":"levelo_inurba_marseille","lat":43.27947,"lon":5.4103,"is_reserved":false,"is_disabled":false,"rental_uris":{"android":"levelo://app?vid=55faab8b-166c-40fa-a212-715724d79d7d","ios":"levelo://app?vid=55faab8b-166c-40fa-a212-715724d79d7d"},"vehicle_type_id":"4","last_reported":1750500631,"current_range_meters":14400,"station_id":"ce4bhnp2rcd13ifvqh0g","pricing_plan_id":"cebpf4jnsgd1na2vs0mg"},{"bike_id":"057da24a-0f9d-4b17-8473-a483706d72c2","system_id":"levelo_inurba_marseille","lat":43.29846,"lon":5.36265,"is_reserved":false,"is_disabled":false,"rental_uris":{"android":"levelo://app?vid=057da24a-0f9d-4b17-8473-a483706d72c2","ios":"levelo://app?vid=057da24a-0f9d-4b17-8473-a483706d72c2"},"vehicle_type_id":"4","last_reported":1750500631,"current_range_meters":14800,"station_id":"ce4bgpp2rcd13ifvqc3g","pricing_plan_id":"cebpf4jnsgd1na2vs0mg"},{"bike_id":"19267c63-bfb8-4e4b-a2b6-3c766dbbe094","system_id":"levelo_inurba_marseille","lat":43.292556,"lon":5.40901,"is_reserved":false,"is_disabled":false,"rental_uris":{"android":"levelo://app?vid=19267c63-bfb8-4e4b-a2b6-3c766dbbe094","ios":"levelo://app?vid=19267c63-bfb8-4e4b-a2b6-3c766dbbe094"},"vehicle_type_id":"4","last_reported":1750500631,"current_range_meters":14800,"station_id":"ce4bh192rcd13ifvqdc0","pricing_plan_id":"cebpf4jnsgd1na2vs0mg"},{"bike_id":"5a2f929b-3388-44df-beb6-9c517e08e0e5","system_id":"levelo_inurba_marseille","lat":43.2603,"lon":5.37546,"is_reserved":false,"is_disabled":false,"rental_uris":{"android":"levelo://app?vid=5a2f929b-3388-44df-beb6-9c517e08e0e5","ios":"levelo://app?vid=5a2f929b-3388-44df-beb6-9c517e08e0e5"},"vehicle_type_id":"4","last_reported":1750500631,"current_range_meters":14800,"station_id":"ce4bhgh2rcd13ifvqfa0","pricing_plan_id":"cebpf4jnsgd1na2vs0mg"},{"bike_id":"1e91849d-a6d0-4b6f-9e7e-9504985e57ae","system_id":"levelo_inurba_marseille","lat":43.2319,"lon":5.39977,"is_reserved":false,"is_disabled":false,"rental_uris":{"android":"levelo://app?vid=1e91849d-a6d0-4b6f-9e7e-9504985e57ae","ios":"levelo://app?vid=1e91849d-a6d0-4b6f-9e7e-9504985e57ae"},"vehicle_type_id":"4","last_reported":1750500631,"current_range_meters":14800,"station_id":"ce4bhn12rcd13ifvqgqg","pricing_plan_id":"cebpf4jnsgd1na2vs0mg"},{"bike_id":"ef119b9f-74f5-4323-bd7b-10725bc86e56","system_id":"levelo_inurba_marseille","lat":43.24172,"lon":5.36396,"is_reserved":false,"is_disabled":false,"rental_uris":{"android":"levelo://app?vid=ef119b9f-74f5-4323-bd7b-10725bc86e56","ios":"levelo://app?vid=ef119b9f-74f5-4323-bd7b-10725bc86e56"},"vehicle_type_id":"4","last_reported":1750500631,"current_range_meters":14800,"station_id":"cpo36qri1sfpv3e86is0","pricing_plan_id":"cebpf4jnsgd1na2vs0mg"},{"bike_id":"f9ca4847-d365-4e0f-8316-ed5436430a26","system_id":"levelo_inurba_marseille","lat":43.28421,"lon":5.34975,"is_reserved":false,"is_disabled":false,"rental_uris":{"android":"levelo://app?vid=f9ca4847-d365-4e0f-8316-ed5436430a26","ios":"levelo://app?vid=f9ca4847-d365-4e0f-8316-ed5436430a26"},"vehicle_type_id":"4","last_reported":1750500631,"current_range_meters":15200,"station_id":"ce4bhbh2rcd13ifvqepg","pricing_plan_id":"cebpf4jnsgd1na2vs0mg"},{"bike_id":"f8b269da-f453-49d4-96d3-4c19244008c4","system_id":"levelo_inurba_marseille","lat":43.25123,"lon":5.40316,"is_reserved":false,"is_disabled":false,"rental_uris":{"android":"levelo://app?vid=f8b269da-f453-49d4-96d3-4c19244008c4","ios":"levelo://app?vid=f8b269da-f453-49d4-96d3-4c19244008c4"},"vehicle_type_id":"4","last_reported":1750500631,"current_range_meters":15200,"station_id":"ce4bhlh2rcd13ifvqgig","pricing_plan_id":"cebpf4jnsgd1na2vs0mg"},{"bike_id":"903ca471-d5b4-4007-8e1b-88ccdb3a1359","system_id":"levelo_inurba_marseille","lat":43.231524,"lon":5.437037,"is_reserved":false,"is_disabled":false,"rental_uris":{"android":"levelo://app?vid=903ca471-d5b4-4007-8e1b-88ccdb3a1359","ios":"levelo://app?vid=903ca471-d5b4-4007-8e1b-88ccdb3a1359"},"vehicle_type_id":"4","last_reported":1750500631,"current_range_meters":15200,"station_id":"ce4bhmp2rcd13ifvqgog","pricing_plan_id":"cebpf4jnsgd1na2vs0mg"},{"bike_id":"9d8cea9e-5dc3-4979-89db-1e9a7449f475","system_id":"levelo_inurba_marseille","lat":43.2315,"lon":5.43721,"is_reserved":false,"is_disabled":false,"rental_uris":{"android":"levelo://app?vid=9d8cea9e-5dc3-4979-89db-1e9a7449f475","ios":"levelo://app?vid=9d8cea9e-5dc3-4979-89db-1e9a7449f475"},"vehicle_type_id":"4","last_reported":1750500631,"current_range_meters":15200,"station_id":"ce4bhmp2rcd13ifvqgog","pricing_plan_id":"cebpf4jnsgd1na2vs0mg"},{"bike_id":"9436b3f7-e71d-4814-81fe-95d1af5df695","system_id":"levelo_inurba_marseille","lat":43.21198,"lon":5.35073,"is_reserved":false,"is_disabled":false,"rental_uris":{"android":"levelo://app?vid=9436b3f7-e71d-4814-81fe-95d1af5df695","ios":"levelo://app?vid=9436b3f7-e71d-4814-81fe-95d1af5df695"},"vehicle_type_id":"4","last_reported":1750500631,"current_range_meters":15200,"station_id":"st_cvj6sg6p6f1abm77japg","pricing_plan_id":"cebpf4jnsgd1na2vs0mg"},{"bike_id":"b5826738-818a-4c47-930a-9b762018aeaf","system_id":"levelo_inurba_marseille","lat":43.3203,"lon":5.40817,"is_reserved":false,"is_disabled":false,"rental_uris":{"android":"levelo://app?vid=b5826738-818a-4c47-930a-9b762018aeaf","ios":"levelo://app?vid=b5826738-818a-4c47-930a-9b762018aeaf"},"vehicle_type_id":"4","last_reported":1750500631,"current_range_meters":16000,"station_id":"","pricing_plan_id":"cebpf4jnsgd1na2vs0mg"},{"bike_id":"2a0e16d5-55d2-4c16-a4c9-b0b86c57f985","system_id":"levelo_inurba_marseille","lat":43.30144,"lon":5.38083,"is_reserved":false,"is_disabled":false,"rental_uris":{"android":"levelo://app?vid=2a0e16d5-55d2-4c16-a4c9-b0b86c57f985","ios":"levelo://app?vid=2a0e16d5-55d2-4c16-a4c9-b0b86c57f985"},"vehicle_type_id":"4","last_reported":1750500631,"current_range_meters":16000,"station_id":"ce4bgjp2rcd13ifvqbh0","pricing_plan_id":"cebpf4jnsgd1na2vs0mg"},{"bike_id":"9ec17fc8-5dfd-41af-a491-787994afcc36","system_id":"levelo_inurba_marseille","lat":43.29848,"lon":5.36282,"is_reserved":false,"is_disabled":false,"rental_uris":{"android":"levelo://app?vid=9ec17fc8-5dfd-41af-a491-787994afcc36","ios":"levelo://app?vid=9ec17fc8-5dfd-41af-a491-787994afcc36"},"vehicle_type_id":"4","last_reported":1750500631,"current_range_meters":16000,"station_id":"ce4bgpp2rcd13ifvqc3g","pricing_plan_id":"cebpf4jnsgd1na2vs0mg"},{"bike_id":"399f1953-2bea-49fa-99d4-dce45aabeeb9","system_id":"levelo_inurba_marseille","lat":43.31703,"lon":5.40459,"is_reserved":false,"is_disabled":false,"rental_uris":{"android":"levelo://app?vid=399f1953-2bea-49fa-99d4-dce45aabeeb9","ios":"levelo://app?vid=399f1953-2bea-49fa-99d4-dce45aabeeb9"},"vehicle_type_id":"4","last_reported":1750500631,"current_range_meters":16000,"station_id":"ce4bh012rcd13ifvqd00","pricing_plan_id":"cebpf4jnsgd1na2vs0mg"},{"bike_id":"28f00b04-2300-4d77-a379-8cb0766422a4","system_id":"levelo_inurba_marseille","lat":43.28269,"lon":5.35059,"is_reserved":false,"is_disabled":false,"rental_uris":{"android":"levelo://app?vid=28f00b04-2300-4d77-a379-8cb0766422a4","ios":"levelo://app?vid=28f00b04-2300-4d77-a379-8cb0766422a4"},"vehicle_type_id":"4","last_reported":1750500631,"current_range_meters":16000,"station_id":"ce4bhbp2rcd13ifvqerg","pricing_plan_id":"cebpf4jnsgd1na2vs0mg"},{"bike_id":"d8b2f8d4-5b3b-4ba1-905e-3d59d08e8b06","system_id":"levelo_inurba_marseille","lat":43.246506,"lon":5.388922,"is_reserved":false,"is_disabled":false,"rental_uris":{"android":"levelo://app?vid=d8b2f8d4-5b3b-4ba1-905e-3d59d08e8b06","ios":"levelo://app?vid=d8b2f8d4-5b3b-4ba1-905e-3d59d08e8b06"},"vehicle_type_id":"4","last_reported":1750500631,"current_range_meters":16000,"station_id":"ce4bhg12rcd13ifvqf60","pricing_plan_id":"cebpf4jnsgd1na2vs0mg"},{"bike_id":"abfe99d9-5193-4465-bb87-8c50a29b18c9","system_id":"levelo_inurba_marseille","lat":43.26208,"lon":5.37439,"is_reserved":false,"is_disabled":false,"rental_uris":{"android":"levelo://app?vid=abfe99d9-5193-4465-bb87-8c50a29b18c9","ios":"levelo://app?vid=abfe99d9-5193-4465-bb87-8c50a29b18c9"},"vehicle_type_id":"4","last_reported":1750500631,"current_range_meters":16000,"station_id":"ce4bhgp2rcd13ifvqfc0","pricing_plan_id":"cebpf4jnsgd1na2vs0mg"},{"bike_id":"c3949640-595f-42df-8c03-c9185a47962b","system_id":"levelo_inurba_marseille","lat":43.23967,"lon":5.36653,"is_reserved":false,"is_disabled":false,"rental_uris":{"android":"levelo://app?vid=c3949640-595f-42df-8c03-c9185a47962b","ios":"levelo://app?vid=c3949640-595f-42df-8c03-c9185a47962b"},"vehicle_type_id":"4","last_reported":1750500631,"current_range_meters":16000,"station_id":"ce4bhi12rcd13ifvqfp0","pricing_plan_id":"cebpf4jnsgd1na2vs0mg"},{"bike_id":"3d2d6044-6185-4c45-8ef2-14dfc8377c45","system_id":"levelo_inurba_marseille","lat":43.32103,"lon":5.36773,"is_reserved":false,"is_disabled":false,"rental_uris":{"android":"levelo://app?vid=3d2d6044-6185-4c45-8ef2-14dfc8377c45","ios":"levelo://app?vid=3d2d6044-6185-4c45-8ef2-14dfc8377c45"},"vehicle_type_id":"4","last_reported":1750500631,"current_range_meters":16000,"station_id":"ce4bhrh2rcd13ifvqhug","pricing_plan_id":"cebpf4jnsgd1na2vs0mg"},{"bike_id":"37d0aeda-c720-4bbf-bb11-226117dd1a00","system_id":"levelo_inurba_marseille","lat":43.29306,"lon":5.37463,"is_reserved":false,"is_disabled":false,"rental_uris":{"android":"levelo://app?vid=37d0aeda-c720-4bbf-bb11-226117dd1a00","ios":"levelo://app?vid=37d0aeda-c720-4bbf-bb11-226117dd1a00"},"vehicle_type_id":"4","last_reported":1750500631,"current_range_meters":16400,"station_id":"ce4bgi12rcd13ifvqb70","pricing_plan_id":"cebpf4jnsgd1na2vs0mg"},{"bike_id":"36ae665f-031d-4e34-8fb7-1d53bd0aa866","system_id":"levelo_inurba_marseille","lat":43.284222,"lon":5.349884,"is_reserved":false,"is_disabled":false,"rental_uris":{"android":"levelo://app?vid=36ae665f-031d-4e34-8fb7-1d53bd0aa866","ios":"levelo://app?vid=36ae665f-031d-4e34-8fb7-1d53bd0aa866"},"vehicle_type_id":"4","last_reported":1750500631,"current_range_meters":16400,"station_id":"ce4bhbh2rcd13ifvqepg","pricing_plan_id":"cebpf4jnsgd1na2vs0mg"},{"bike_id":"5f42f629-91e9-467b-ac2c-49ebd77a7195","system_id":"levelo_inurba_marseille","lat":43.24178,"lon":5.39733,"is_reserved":false,"is_disabled":false,"rental_uris":{"android":"levelo://app?vid=5f42f629-91e9-467b-ac2c-49ebd77a7195","ios":"levelo://app?vid=5f42f629-91e9-467b-ac2c-49ebd77a7195"},"vehicle_type_id":"4","last_reported":1750500631,"current_range_meters":16400,"station_id":"ce4bhn12rcd13ifvqgpg","pricing_plan_id":"cebpf4jnsgd1na2vs0mg"},{"bike_id":"138f0ab1-f7fa-45e7-b2f5-d55c38983321","system_id":"levelo_inurba_marseille","lat":43.2293,"lon":5.35374,"is_reserved":false,"is_disabled":false,"rental_uris":{"android":"levelo://app?vid=138f0ab1-f7fa-45e7-b2f5-d55c38983321","ios":"levelo://app?vid=138f0ab1-f7fa-45e7-b2f5-d55c38983321"},"vehicle_type_id":"4","last_reported":1750500631,"current_range_meters":16400,"station_id":"cpo3532slgdg3j2ikp40","pricing_plan_id":"cebpf4jnsgd1na2vs0mg"},{"bike_id":"b4b9f165-9b30-462c-875b-bb8dde06fcb2","system_id":"levelo_inurba_marseille","lat":43.21751,"lon":5.34601,"is_reserved":false,"is_disabled":false,"rental_uris":{"android":"levelo://app?vid=b4b9f165-9b30-462c-875b-bb8dde06fcb2","ios":"levelo://app?vid=b4b9f165-9b30-462c-875b-bb8dde06fcb2"},"vehicle_type_id":"4","last_reported":1750500631,"current_range_meters":16400,"station_id":"st_cvj6r9ubvosntc0bgbag","pricing_plan_id":"cebpf4jnsgd1na2vs0mg"},{"bike_id":"69c5e76a-214b-449a-8b82-34cb799ca7b7","system_id":"levelo_inurba_marseille","lat":43.21755,"lon":5.34602,"is_reserved":false,"is_disabled":false,"rental_uris":{"android":"levelo://app?vid=69c5e76a-214b-449a-8b82-34cb799ca7b7","ios":"levelo://app?vid=69c5e76a-214b-449a-8b82-34cb799ca7b7"},"vehicle_type_id":"4","last_reported":1750500631,"current_range_meters":16400,"station_id":"st_cvj6r9ubvosntc0bgbag","pricing_plan_id":"cebpf4jnsgd1na2vs0mg"},{"bike_id":"38b4578b-d322-4ae7-86ef-2a7e9839b4fd","system_id":"levelo_inurba_marseille","lat":43.21188,"lon":5.35062,"is_reserved":false,"is_disabled":false,"rental_uris":{"android":"levelo://app?vid=38b4578b-d322-4ae7-86ef-2a7e9839b4fd","ios":"levelo://app?vid=38b4578b-d322-4ae7-86ef-2a7e9839b4fd"},"vehicle_type_id":"4","last_reported":1750500631,"current_range_meters":16400,"station_id":"st_cvj6sg6p6f1abm77japg","pricing_plan_id":"cebpf4jnsgd1na2vs0mg"},{"bike_id":"45d778e6-aa0b-40ba-a4de-a6c941762022","system_id":"levelo_inurba_marseille","lat":43.24384,"lon":5.36953,"is_reserved":false,"is_disabled":false,"rental_uris":{"android":"levelo://app?vid=45d778e6-aa0b-40ba-a4de-a6c941762022","ios":"levelo://app?vid=45d778e6-aa0b-40ba-a4de-a6c941762022"},"vehicle_type_id":"4","last_reported":1750500631,"current_range_meters":16800,"station_id":"","pricing_plan_id":"cebpf4jnsgd1na2vs0mg"},{"bike_id":"6a4b59b0-64b7-4950-ae73-2324ba55dcce","system_id":"levelo_inurba_marseille","lat":43.330167,"lon":5.381494,"is_reserved":false,"is_disabled":false,"rental_uris":{"android":"levelo://app?vid=6a4b59b0-64b7-4950-ae73-2324ba55dcce","ios":"levelo://app?vid=6a4b59b0-64b7-4950-ae73-2324ba55dcce"},"vehicle_type_id":"4","last_reported":1750500631,"current_range_meters":16800,"station_id":"","pricing_plan_id":"cebpf4jnsgd1na2vs0mg"},{"bike_id":"e027c74d-1962-483a-84e7-7fc299e599a5","system_id":"levelo_inurba_marseille","lat":43.30348,"lon":5.40094,"is_reserved":false,"is_disabled":false,"rental_uris":{"android":"levelo://app?vid=e027c74d-1962-483a-84e7-7fc299e599a5","ios":"levelo://app?vid=e027c74d-1962-483a-84e7-7fc299e599a5"},"vehicle_type_id":"4","last_reported":1750500631,"current_range_meters":16800,"station_id":"","pricing_plan_id":"cebpf4jnsgd1na2vs0mg"},{"bike_id":"f6069a5d-a2bc-44cc-bc6f-f26f79591d92","system_id":"levelo_inurba_marseille","lat":43.30784,"lon":5.37383,"is_reserved":false,"is_disabled":false,"rental_uris":{"android":"levelo://app?vid=f6069a5d-a2bc-44cc-bc6f-f26f79591d92","ios":"levelo://app?vid=f6069a5d-a2bc-44cc-bc6f-f26f79591d92"},"vehicle_type_id":"4","last_reported":1750500631,"current_range_meters":16800,"station_id":"","pricing_plan_id":"cebpf4jnsgd1na2vs0mg"},{"bike_id":"147bcf62-dea6-41d9-92c4-0d2f105ab93e","system_id":"levelo_inurba_marseille","lat":43.3017,"lon":5.380825,"is_reserved":false,"is_disabled":false,"rental_uris":{"android":"levelo://app?vid=147bcf62-dea6-41d9-92c4-0d2f105ab93e","ios":"levelo://app?vid=147bcf62-dea6-41d9-92c4-0d2f105ab93e"},"vehicle_type_id":"4","last_reported":1750500631,"current_range_meters":16800,"station_id":"ce4bgjp2rcd13ifvqbh0","pricing_plan_id":"cebpf4jnsgd1na2vs0mg"},{"bike_id":"09f2d9b0-de02-49ac-8e42-7940a1f6b86f","system_id":"levelo_inurba_marseille","lat":43.2811,"lon":5.37836,"is_reserved":false,"is_disabled":false,"rental_uris":{"android":"levelo://app?vid=09f2d9b0-de02-49ac-8e42-7940a1f6b86f","ios":"levelo://app?vid=09f2d9b0-de02-49ac-8e42-7940a1f6b86f"},"vehicle_type_id":"4","last_reported":1750500631,"current_range_meters":16800,"station_id":"ce4bha12rcd13ifvqee0","pricing_plan_id":"cebpf4jnsgd1na2vs0mg"},{"bike_id":"e551cf74-3876-4b6b-8bb0-91d39b510740","system_id":"levelo_inurba_marseille","lat":43.26031,"lon":5.37545,"is_reserved":false,"is_disabled":false,"rental_uris":{"android":"levelo://app?vid=e551cf74-3876-4b6b-8bb0-91d39b510740","ios":"levelo://app?vid=e551cf74-3876-4b6b-8bb0-91d39b510740"},"vehicle_type_id":"4","last_reported":1750500631,"current_range_meters":16800,"station_id":"ce4bhgh2rcd13ifvqfa0","pricing_plan_id":"cebpf4jnsgd1na2vs0mg"},{"bike_id":"d580f51c-9c0b-4360-af03-44d51cbc1727","system_id":"levelo_inurba_marseille","lat":43.24394,"lon":5.37058,"is_reserved":false,"is_disabled":false,"rental_uris":{"android":"levelo://app?vid=d580f51c-9c0b-4360-af03-44d51cbc1727","ios":"levelo://app?vid=d580f51c-9c0b-4360-af03-44d51cbc1727"},"vehicle_type_id":"4","last_reported":1750500631,"current_range_meters":16800,"station_id":"ce4bhhh2rcd13ifvqfk0","pricing_plan_id":"cebpf4jnsgd1na2vs0mg"},{"bike_id":"5a444312-ea58-41ad-8601-9a326005dcb0","system_id":"levelo_inurba_marseille","lat":43.21747,"lon":5.34599,"is_reserved":false,"is_disabled":false,"rental_uris":{"android":"levelo://app?vid=5a444312-ea58-41ad-8601-9a326005dcb0","ios":"levelo://app?vid=5a444312-ea58-41ad-8601-9a326005dcb0"},"vehicle_type_id":"4","last_reported":1750500631,"current_range_meters":16800,"station_id":"st_cvj6r9ubvosntc0bgbag","pricing_plan_id":"cebpf4jnsgd1na2vs0mg"},{"bike_id":"7c3434e7-ecd7-4565-9a0f-952b018128a9","system_id":"levelo_inurba_marseille","lat":43.21189,"lon":5.35073,"is_reserved":false,"is_disabled":false,"rental_uris":{"android":"levelo://app?vid=7c3434e7-ecd7-4565-9a0f-952b018128a9","ios":"levelo://app?vid=7c3434e7-ecd7-4565-9a0f-952b018128a9"},"vehicle_type_id":"4","last_reported":1750500631,"current_range_meters":16800,"station_id":"st_cvj6sg6p6f1abm77japg","pricing_plan_id":"cebpf4jnsgd1na2vs0mg"},{"bike_id":"2b61d59f-a015-44d2-94f2-b3f4e4edbae6","system_id":"levelo_inurba_marseille","lat":43.27608,"lon":5.36113,"is_reserved":false,"is_disabled":false,"rental_uris":{"android":"levelo://app?vid=2b61d59f-a015-44d2-94f2-b3f4e4edbae6","ios":"levelo://app?vid=2b61d59f-a015-44d2-94f2-b3f4e4edbae6"},"vehicle_type_id":"4","last_reported":1750500631,"current_range_meters":17200,"station_id":"ce4bgj92rcd13ifvqbe0","pricing_plan_id":"cebpf4jnsgd1na2vs0mg"},{"bike_id":"3977a6ff-97af-43e0-af79-32f3171530fc","system_id":"levelo_inurba_marseille","lat":43.26224,"lon":5.40444,"is_reserved":false,"is_disabled":false,"rental_uris":{"android":"levelo://app?vid=3977a6ff-97af-43e0-af79-32f3171530fc","ios":"levelo://app?vid=3977a6ff-97af-43e0-af79-32f3171530fc"},"vehicle_type_id":"4","last_reported":1750500631,"current_range_meters":17200,"station_id":"ce4bhmh2rcd13ifvqgmg","pricing_plan_id":"cebpf4jnsgd1na2vs0mg"},{"bike_id":"1c6eee43-889f-4cff-bc8c-307447a31830","system_id":"levelo_inurba_marseille","lat":43.3079,"lon":5.43519,"is_reserved":false,"is_disabled":false,"rental_uris":{"android":"levelo://app?vid=1c6eee43-889f-4cff-bc8c-307447a31830","ios":"levelo://app?vid=1c6eee43-889f-4cff-bc8c-307447a31830"},"vehicle_type_id":"4","last_reported":1750500631,"current_range_meters":17200,"station_id":"ce4bhph2rcd13ifvqheg","pricing_plan_id":"cebpf4jnsgd1na2vs0mg"},{"bike_id":"afedd2a1-dc9b-4450-8c9a-1171ed3d8dc8","system_id":"levelo_inurba_marseille","lat":43.26939,"lon":5.40247,"is_reserved":false,"is_disabled":false,"rental_uris":{"android":"levelo://app?vid=afedd2a1-dc9b-4450-8c9a-1171ed3d8dc8","ios":"levelo://app?vid=afedd2a1-dc9b-4450-8c9a-1171ed3d8dc8"},"vehicle_type_id":"4","last_reported":1750500631,"current_range_meters":17200,"station_id":"cjm6bp8fraef2m0cb0m0","pricing_plan_id":"cebpf4jnsgd1na2vs0mg"},{"bike_id":"e6de794e-6028-4a11-be8e-524a66b44be6","system_id":"levelo_inurba_marseille","lat":43.21757,"lon":5.34598,"is_reserved":false,"is_disabled":false,"rental_uris":{"android":"levelo://app?vid=e6de794e-6028-4a11-be8e-524a66b44be6","ios":"levelo://app?vid=e6de794e-6028-4a11-be8e-524a66b44be6"},"vehicle_type_id":"4","last_reported":1750500631,"current_range_meters":17200,"station_id":"st_cvj6r9ubvosntc0bgbag","pricing_plan_id":"cebpf4jnsgd1na2vs0mg"},{"bike_id":"d05e7d29-814e-4e1e-90ef-1ebb8b70492b","system_id":"levelo_inurba_marseille","lat":43.21752,"lon":5.34593,"is_reserved":false,"is_disabled":false,"rental_uris":{"android":"levelo://app?vid=d05e7d29-814e-4e1e-90ef-1ebb8b70492b","ios":"levelo://app?vid=d05e7d29-814e-4e1e-90ef-1ebb8b70492b"},"vehicle_type_id":"4","last_reported":1750500631,"current_range_meters":17200,"station_id":"st_cvj6r9ubvosntc0bgbag","pricing_plan_id":"cebpf4jnsgd1na2vs0mg"},{"bike_id":"51924496-d375-43d1-9f3c-2086be022a83","system_id":"levelo_inurba_marseille","lat":43.25997,"lon":5.38673,"is_reserved":false,"is_disabled":false,"rental_uris":{"android":"levelo://app?vid=51924496-d375-43d1-9f3c-2086be022a83","ios":"levelo://app?vid=51924496-d375-43d1-9f3c-2086be022a83"},"vehicle_type_id":"4","last_reported":1750500631,"current_range_meters":17600,"station_id":"","pricing_plan_id":"cebpf4jnsgd1na2vs0mg"},{"bike_id":"3c090d12-c690-4c6c-be78-01fa5651f377","system_id":"levelo_inurba_marseille","lat":43.295288,"lon":5.385374,"is_reserved":false,"is_disabled":false,"rental_uris":{"android":"levelo://app?vid=3c090d12-c690-4c6c-be78-01fa5651f377","ios":"levelo://app?vid=3c090d12-c690-4c6c-be78-01fa5651f377"},"vehicle_type_id":"4","last_reported":1750500631,"current_range_meters":17600,"station_id":"ce4bgih2rcd13ifvqba0","pricing_plan_id":"cebpf4jnsgd1na2vs0mg"},{"bike_id":"2b64736a-f8e9-4b1a-8084-b04b2aef8271","system_id":"levelo_inurba_marseille","lat":43.284089,"lon":5.349821,"is_reserved":false,"is_disabled":false,"rental_uris":{"android":"levelo://app?vid=2b64736a-f8e9-4b1a-8084-b04b2aef8271","ios":"levelo://app?vid=2b64736a-f8e9-4b1a-8084-b04b2aef8271"},"vehicle_type_id":"4","last_reported":1750500631,"current_range_meters":17600,"station_id":"ce4bhbh2rcd13ifvqepg","pricing_plan_id":"cebpf4jnsgd1na2vs0mg"},{"bike_id":"741968b1-40d7-42cd-b044-cd5e37194ad2","system_id":"levelo_inurba_marseille","lat":43.25001,"lon":5.38926,"is_reserved":false,"is_disabled":false,"rental_uris":{"android":"levelo://app?vid=741968b1-40d7-42cd-b044-cd5e37194ad2","ios":"levelo://app?vid=741968b1-40d7-42cd-b044-cd5e37194ad2"},"vehicle_type_id":"4","last_reported":1750500631,"current_range_meters":17600,"station_id":"ce4bhgp2rcd13ifvqfd0","pricing_plan_id":"cebpf4jnsgd1na2vs0mg"},{"bike_id":"269c3bdf-af5e-4656-89f5-602080b8a3e4","system_id":"levelo_inurba_marseille","lat":43.23972,"lon":5.36628,"is_reserved":false,"is_disabled":false,"rental_uris":{"android":"levelo://app?vid=269c3bdf-af5e-4656-89f5-602080b8a3e4","ios":"levelo://app?vid=269c3bdf-af5e-4656-89f5-602080b8a3e4"},"vehicle_type_id":"4","last_reported":1750500631,"current_range_meters":17600,"station_id":"ce4bhi12rcd13ifvqfp0","pricing_plan_id":"cebpf4jnsgd1na2vs0mg"},{"bike_id":"82b609eb-4bb1-412b-8dd3-ab5548ecab23","system_id":"levelo_inurba_marseille","lat":43.27035,"lon":5.42265,"is_reserved":false,"is_disabled":false,"rental_uris":{"android":"levelo://app?vid=82b609eb-4bb1-412b-8dd3-ab5548ecab23","ios":"levelo://app?vid=82b609eb-4bb1-412b-8dd3-ab5548ecab23"},"vehicle_type_id":"4","last_reported":1750500631,"current_range_meters":17600,"station_id":"ce4bhk92rcd13ifvqgb0","pricing_plan_id":"cebpf4jnsgd1na2vs0mg"},{"bike_id":"cf077cfc-8295-4c86-b208-4d8963e12e17","system_id":"levelo_inurba_marseille","lat":43.270671,"lon":5.422794,"is_reserved":false,"is_disabled":false,"rental_uris":{"android":"levelo://app?vid=cf077cfc-8295-4c86-b208-4d8963e12e17","ios":"levelo://app?vid=cf077cfc-8295-4c86-b208-4d8963e12e17"},"vehicle_type_id":"4","last_reported":1750500631,"current_range_meters":17600,"station_id":"ce4bhk92rcd13ifvqgb0","pricing_plan_id":"cebpf4jnsgd1na2vs0mg"},{"bike_id":"9140ee3e-3bf6-4e99-9e49-500aebc61051","system_id":"levelo_inurba_marseille","lat":43.317117,"lon":5.437112,"is_reserved":false,"is_disabled":false,"rental_uris":{"android":"levelo://app?vid=9140ee3e-3bf6-4e99-9e49-500aebc61051","ios":"levelo://app?vid=9140ee3e-3bf6-4e99-9e49-500aebc61051"},"vehicle_type_id":"4","last_reported":1750500631,"current_range_meters":17600,"station_id":"ce4bhp92rcd13ifvqhcg","pricing_plan_id":"cebpf4jnsgd1na2vs0mg"},{"bike_id":"51a10ac8-4a7d-4bb7-aa46-ee1fc97a585c","system_id":"levelo_inurba_marseille","lat":43.21748,"lon":5.34609,"is_reserved":false,"is_disabled":false,"rental_uris":{"android":"levelo://app?vid=51a10ac8-4a7d-4bb7-aa46-ee1fc97a585c","ios":"levelo://app?vid=51a10ac8-4a7d-4bb7-aa46-ee1fc97a585c"},"vehicle_type_id":"4","last_reported":1750500631,"current_range_meters":17600,"station_id":"st_cvj6r9ubvosntc0bgbag","pricing_plan_id":"cebpf4jnsgd1na2vs0mg"},{"bike_id":"4d80d21e-3dc9-4004-a3c0-eb7b371a8ccf","system_id":"levelo_inurba_marseille","lat":43.33021,"lon":5.39419,"is_reserved":false,"is_disabled":false,"rental_uris":{"android":"levelo://app?vid=4d80d21e-3dc9-4004-a3c0-eb7b371a8ccf","ios":"levelo://app?vid=4d80d21e-3dc9-4004-a3c0-eb7b371a8ccf"},"vehicle_type_id":"4","last_reported":1750500631,"current_range_meters":18000,"station_id":"","pricing_plan_id":"cebpf4jnsgd1na2vs0mg"},{"bike_id":"ffbb0c22-3f4e-4cdb-a0e5-79e3b9f3e1a2","system_id":"levelo_inurba_marseille","lat":43.33769,"lon":5.37469,"is_reserved":false,"is_disabled":false,"rental_uris":{"android":"levelo://app?vid=ffbb0c22-3f4e-4cdb-a0e5-79e3b9f3e1a2","ios":"levelo://app?vid=ffbb0c22-3f4e-4cdb-a0e5-79e3b9f3e1a2"},"vehicle_type_id":"4","last_reported":1750500631,"current_range_meters":18000,"station_id":"","pricing_plan_id":"cebpf4jnsgd1na2vs0mg"},{"bike_id":"19d28c8f-5421-4087-a03c-a21f0650d31f","system_id":"levelo_inurba_marseille","lat":43.29845,"lon":5.36275,"is_reserved":false,"is_disabled":false,"rental_uris":{"android":"levelo://app?vid=19d28c8f-5421-4087-a03c-a21f0650d31f","ios":"levelo://app?vid=19d28c8f-5421-4087-a03c-a21f0650d31f"},"vehicle_type_id":"4","last_reported":1750500631,"current_range_meters":18000,"station_id":"ce4bgpp2rcd13ifvqc3g","pricing_plan_id":"cebpf4jnsgd1na2vs0mg"},{"bike_id":"acbf082d-6e0a-4b46-9784-e5594c9d4f6b","system_id":"levelo_inurba_marseille","lat":43.30561,"lon":5.36715,"is_reserved":false,"is_disabled":false,"rental_uris":{"android":"levelo://app?vid=acbf082d-6e0a-4b46-9784-e5594c9d4f6b","ios":"levelo://app?vid=acbf082d-6e0a-4b46-9784-e5594c9d4f6b"},"vehicle_type_id":"4","last_reported":1750500631,"current_range_meters":18000,"station_id":"ce4bgrp2rcd13ifvqc9g","pricing_plan_id":"cebpf4jnsgd1na2vs0mg"},{"bike_id":"a1ebf9a7-4747-483e-845d-a7fdc7cd01b0","system_id":"levelo_inurba_marseille","lat":43.29265,"lon":5.38445,"is_reserved":false,"is_disabled":false,"rental_uris":{"android":"levelo://app?vid=a1ebf9a7-4747-483e-845d-a7fdc7cd01b0","ios":"levelo://app?vid=a1ebf9a7-4747-483e-845d-a7fdc7cd01b0"},"vehicle_type_id":"4","last_reported":1750500631,"current_range_meters":18000,"station_id":"ce4bh4p2rcd13ifvqe0g","pricing_plan_id":"cebpf4jnsgd1na2vs0mg"},{"bike_id":"258f993f-3d0c-4534-96a5-68425800633f","system_id":"levelo_inurba_marseille","lat":43.28861,"lon":5.35837,"is_reserved":false,"is_disabled":false,"rental_uris":{"android":"levelo://app?vid=258f993f-3d0c-4534-96a5-68425800633f","ios":"levelo://app?vid=258f993f-3d0c-4534-96a5-68425800633f"},"vehicle_type_id":"4","last_reported":1750500631,"current_range_meters":18000,"station_id":"ce4bhb12rcd13ifvqem0","pricing_plan_id":"cebpf4jnsgd1na2vs0mg"},{"bike_id":"569cba6f-6767-430a-ae76-1fa7fe580a74","system_id":"levelo_inurba_marseille","lat":43.28411,"lon":5.34993,"is_reserved":false,"is_disabled":false,"rental_uris":{"android":"levelo://app?vid=569cba6f-6767-430a-ae76-1fa7fe580a74","ios":"levelo://app?vid=569cba6f-6767-430a-ae76-1fa7fe580a74"},"vehicle_type_id":"4","last_reported":1750500631,"current_range_meters":18000,"station_id":"ce4bhbh2rcd13ifvqepg","pricing_plan_id":"cebpf4jnsgd1na2vs0mg"},{"bike_id":"dc3ccbb4-781f-4099-985e-2edfb73503c6","system_id":"levelo_inurba_marseille","lat":43.23963,"lon":5.36629,"is_reserved":false,"is_disabled":false,"rental_uris":{"android":"levelo://app?vid=dc3ccbb4-781f-4099-985e-2edfb73503c6","ios":"levelo://app?vid=dc3ccbb4-781f-4099-985e-2edfb73503c6"},"vehicle_type_id":"4","last_reported":1750500631,"current_range_meters":18000,"station_id":"ce4bhi12rcd13ifvqfp0","pricing_plan_id":"cebpf4jnsgd1na2vs0mg"},{"bike_id":"4d4df371-4a07-4078-b66c-0646e04ad4bf","system_id":"levelo_inurba_marseille","lat":43.298981,"lon":5.436581,"is_reserved":false,"is_disabled":false,"rental_uris":{"android":"levelo://app?vid=4d4df371-4a07-4078-b66c-0646e04ad4bf","ios":"levelo://app?vid=4d4df371-4a07-4078-b66c-0646e04ad4bf"},"vehicle_type_id":"4","last_reported":1750500631,"current_range_meters":18000,"station_id":"ce4bhpp2rcd13ifvqhfg","pricing_plan_id":"cebpf4jnsgd1na2vs0mg"},{"bike_id":"dc1db63d-5468-44d8-958f-b819dd58751d","system_id":"levelo_inurba_marseille","lat":43.32345,"lon":5.40613,"is_reserved":false,"is_disabled":false,"rental_uris":{"android":"levelo://app?vid=dc1db63d-5468-44d8-958f-b819dd58751d","ios":"levelo://app?vid=dc1db63d-5468-44d8-958f-b819dd58751d"},"vehicle_type_id":"4","last_reported":1750500631,"current_range_meters":18000,"station_id":"ce4bhq92rcd13ifvqhjg","pricing_plan_id":"cebpf4jnsgd1na2vs0mg"},{"bike_id":"af5b12d7-0905-4de0-a573-1d3a18c8db80","system_id":"levelo_inurba_marseille","lat":43.28078,"lon":5.37832,"is_reserved":false,"is_disabled":false,"rental_uris":{"android":"levelo://app?vid=af5b12d7-0905-4de0-a573-1d3a18c8db80","ios":"levelo://app?vid=af5b12d7-0905-4de0-a573-1d3a18c8db80"},"vehicle_type_id":"4","last_reported":1750500631,"current_range_meters":18800,"station_id":"","pricing_plan_id":"cebpf4jnsgd1na2vs0mg"},{"bike_id":"c9ff4e05-dfce-4865-a3a1-4a675042ca24","system_id":"levelo_inurba_marseille","lat":43.24884,"lon":5.37492,"is_reserved":false,"is_disabled":false,"rental_uris":{"android":"levelo://app?vid=c9ff4e05-dfce-4865-a3a1-4a675042ca24","ios":"levelo://app?vid=c9ff4e05-dfce-4865-a3a1-4a675042ca24"},"vehicle_type_id":"4","last_reported":1750500631,"current_range_meters":19200,"station_id":"","pricing_plan_id":"cebpf4jnsgd1na2vs0mg"},{"bike_id":"ee489f67-bdc3-49f6-8d37-27be8ebfe23e","system_id":"levelo_inurba_marseille","lat":43.297982,"lon":5.363163,"is_reserved":false,"is_disabled":false,"rental_uris":{"android":"levelo://app?vid=ee489f67-bdc3-49f6-8d37-27be8ebfe23e","ios":"levelo://app?vid=ee489f67-bdc3-49f6-8d37-27be8ebfe23e"},"vehicle_type_id":"4","last_reported":1750500631,"current_range_meters":19200,"station_id":"","pricing_plan_id":"cebpf4jnsgd1na2vs0mg"},{"bike_id":"0ee7f766-62b8-44c7-b1a7-01977dc65c8b","system_id":"levelo_inurba_marseille","lat":43.23327,"lon":5.35758,"is_reserved":false,"is_disabled":false,"rental_uris":{"android":"levelo://app?vid=0ee7f766-62b8-44c7-b1a7-01977dc65c8b","ios":"levelo://app?vid=0ee7f766-62b8-44c7-b1a7-01977dc65c8b"},"vehicle_type_id":"4","last_reported":1750500631,"current_range_meters":19200,"station_id":"","pricing_plan_id":"cebpf4jnsgd1na2vs0mg"},{"bike_id":"2081cdd4-13bd-4b25-b57c-7a35097bc24e","system_id":"levelo_inurba_marseille","lat":43.28254,"lon":5.35076,"is_reserved":false,"is_disabled":false,"rental_uris":{"android":"levelo://app?vid=2081cdd4-13bd-4b25-b57c-7a35097bc24e","ios":"levelo://app?vid=2081cdd4-13bd-4b25-b57c-7a35097bc24e"},"vehicle_type_id":"4","last_reported":1750500631,"current_range_meters":19200,"station_id":"ce4bh9p2rcd13ifvqed0","pricing_plan_id":"cebpf4jnsgd1na2vs0mg"},{"bike_id":"e9eb657c-400f-41ee-97de-58790aa5151d","system_id":"levelo_inurba_marseille","lat":43.26219,"lon":5.40451,"is_reserved":false,"is_disabled":false,"rental_uris":{"android":"levelo://app?vid=e9eb657c-400f-41ee-97de-58790aa5151d","ios":"levelo://app?vid=e9eb657c-400f-41ee-97de-58790aa5151d"},"vehicle_type_id":"4","last_reported":1750500631,"current_range_meters":19200,"station_id":"ce4bhmh2rcd13ifvqgmg","pricing_plan_id":"cebpf4jnsgd1na2vs0mg"},{"bike_id":"5e372528-2077-476b-a84f-f2201c11536d","system_id":"levelo_inurba_marseille","lat":43.28156,"lon":5.42633,"is_reserved":false,"is_disabled":false,"rental_uris":{"android":"levelo://app?vid=5e372528-2077-476b-a84f-f2201c11536d","ios":"levelo://app?vid=5e372528-2077-476b-a84f-f2201c11536d"},"vehicle_type_id":"4","last_reported":1750500631,"current_range_meters":19200,"station_id":"ce4bhnh2rcd13ifvqgug","pricing_plan_id":"cebpf4jnsgd1na2vs0mg"},{"bike_id":"44f91d9d-a072-4666-b130-0587846c0cfd","system_id":"levelo_inurba_marseille","lat":43.31887,"lon":5.407286,"is_reserved":false,"is_disabled":false,"rental_uris":{"android":"levelo://app?vid=44f91d9d-a072-4666-b130-0587846c0cfd","ios":"levelo://app?vid=44f91d9d-a072-4666-b130-0587846c0cfd"},"vehicle_type_id":"4","last_reported":1750500631,"current_range_meters":19200,"station_id":"ce4bhq12rcd13ifvqhig","pricing_plan_id":"cebpf4jnsgd1na2vs0mg"},{"bike_id":"3c3eec08-81be-420f-9ff6-3a63ea6eefca","system_id":"levelo_inurba_marseille","lat":43.21637,"lon":5.344583,"is_reserved":false,"is_disabled":false,"rental_uris":{"android":"levelo://app?vid=3c3eec08-81be-420f-9ff6-3a63ea6eefca","ios":"levelo://app?vid=3c3eec08-81be-420f-9ff6-3a63ea6eefca"},"vehicle_type_id":"4","last_reported":1750500631,"current_range_meters":19200,"station_id":"st_cvj6r9ubvosntc0bgbag","pricing_plan_id":"cebpf4jnsgd1na2vs0mg"},{"bike_id":"9d6cb5f2-9500-47e9-89e0-12e8782cc92d","system_id":"levelo_inurba_marseille","lat":43.29302,"lon":5.37178,"is_reserved":false,"is_disabled":false,"rental_uris":{"android":"levelo://app?vid=9d6cb5f2-9500-47e9-89e0-12e8782cc92d","ios":"levelo://app?vid=9d6cb5f2-9500-47e9-89e0-12e8782cc92d"},"vehicle_type_id":"4","last_reported":1750500631,"current_range_meters":19600,"station_id":"ce4bgh92rcd13ifvqb40","pricing_plan_id":"cebpf4jnsgd1na2vs0mg"},{"bike_id":"c4c5121c-618c-4aa5-86d0-f528733178f1","system_id":"levelo_inurba_marseille","lat":43.28978,"lon":5.37827,"is_reserved":false,"is_disabled":false,"rental_uris":{"android":"levelo://app?vid=c4c5121c-618c-4aa5-86d0-f528733178f1","ios":"levelo://app?vid=c4c5121c-618c-4aa5-86d0-f528733178f1"},"vehicle_type_id":"4","last_reported":1750500631,"current_range_meters":19600,"station_id":"ce4bh9p2rcd13ifvqed0","pricing_plan_id":"cebpf4jnsgd1na2vs0mg"},{"bike_id":"22447ce9-225c-4c80-8b14-81d3665f1a3a","system_id":"levelo_inurba_marseille","lat":43.273781,"lon":5.362584,"is_reserved":false,"is_disabled":false,"rental_uris":{"android":"levelo://app?vid=22447ce9-225c-4c80-8b14-81d3665f1a3a","ios":"levelo://app?vid=22447ce9-225c-4c80-8b14-81d3665f1a3a"},"vehicle_type_id":"4","last_reported":1750500631,"current_range_meters":19600,"station_id":"ce4bhbh2rcd13ifvqeo0","pricing_plan_id":"cebpf4jnsgd1na2vs0mg"},{"bike_id":"dd9ba67f-165a-4d35-b146-b937636800e1","system_id":"levelo_inurba_marseille","lat":43.24801,"lon":5.3745,"is_reserved":false,"is_disabled":false,"rental_uris":{"android":"levelo://app?vid=dd9ba67f-165a-4d35-b146-b937636800e1","ios":"levelo://app?vid=dd9ba67f-165a-4d35-b146-b937636800e1"},"vehicle_type_id":"4","last_reported":1750500631,"current_range_meters":19600,"station_id":"ce4bhgh2rcd13ifvqfb0","pricing_plan_id":"cebpf4jnsgd1na2vs0mg"},{"bike_id":"fe7ff49d-f73c-4d4a-b369-9bc703c18401","system_id":"levelo_inurba_marseille","lat":43.243854,"lon":5.370522,"is_reserved":false,"is_disabled":false,"rental_uris":{"android":"levelo://app?vid=fe7ff49d-f73c-4d4a-b369-9bc703c18401","ios":"levelo://app?vid=fe7ff49d-f73c-4d4a-b369-9bc703c18401"},"vehicle_type_id":"4","last_reported":1750500631,"current_range_meters":19600,"station_id":"ce4bhhh2rcd13ifvqfk0","pricing_plan_id":"cebpf4jnsgd1na2vs0mg"},{"bike_id":"ff245b77-bc9f-4cfd-ad80-e76392da4d18","system_id":"levelo_inurba_marseille","lat":43.231438,"lon":5.43703,"is_reserved":false,"is_disabled":false,"rental_uris":{"android":"levelo://app?vid=ff245b77-bc9f-4cfd-ad80-e76392da4d18","ios":"levelo://app?vid=ff245b77-bc9f-4cfd-ad80-e76392da4d18"},"vehicle_type_id":"4","last_reported":1750500631,"current_range_meters":19600,"station_id":"ce4bhmp2rcd13ifvqgog","pricing_plan_id":"cebpf4jnsgd1na2vs0mg"},{"bike_id":"37967699-9626-41b5-a5f9-8419eeae5de5","system_id":"levelo_inurba_marseille","lat":43.24167,"lon":5.39721,"is_reserved":false,"is_disabled":false,"rental_uris":{"android":"levelo://app?vid=37967699-9626-41b5-a5f9-8419eeae5de5","ios":"levelo://app?vid=37967699-9626-41b5-a5f9-8419eeae5de5"},"vehicle_type_id":"4","last_reported":1750500631,"current_range_meters":19600,"station_id":"ce4bhn12rcd13ifvqgpg","pricing_plan_id":"cebpf4jnsgd1na2vs0mg"},{"bike_id":"eb261963-157b-45bc-b18c-98058120f078","system_id":"levelo_inurba_marseille","lat":43.274713,"lon":5.423909,"is_reserved":false,"is_disabled":false,"rental_uris":{"android":"levelo://app?vid=eb261963-157b-45bc-b18c-98058120f078","ios":"levelo://app?vid=eb261963-157b-45bc-b18c-98058120f078"},"vehicle_type_id":"4","last_reported":1750500631,"current_range_meters":19600,"station_id":"ce4bhn92rcd13ifvqgrg","pricing_plan_id":"cebpf4jnsgd1na2vs0mg"},{"bike_id":"348caee6-3db3-4b3a-a689-66d52af6e9a6","system_id":"levelo_inurba_marseille","lat":43.23188,"lon":5.35547,"is_reserved":false,"is_disabled":false,"rental_uris":{"android":"levelo://app?vid=348caee6-3db3-4b3a-a689-66d52af6e9a6","ios":"levelo://app?vid=348caee6-3db3-4b3a-a689-66d52af6e9a6"},"vehicle_type_id":"4","last_reported":1750500631,"current_range_meters":19600,"station_id":"ce4bhu92rcd13ifvqi70","pricing_plan_id":"cebpf4jnsgd1na2vs0mg"},{"bike_id":"f4b80fd2-ce4b-4e7b-8912-b621febfd3e5","system_id":"levelo_inurba_marseille","lat":43.22932,"lon":5.35372,"is_reserved":false,"is_disabled":false,"rental_uris":{"android":"levelo://app?vid=f4b80fd2-ce4b-4e7b-8912-b621febfd3e5","ios":"levelo://app?vid=f4b80fd2-ce4b-4e7b-8912-b621febfd3e5"},"vehicle_type_id":"4","last_reported":1750500631,"current_range_meters":19600,"station_id":"cpo3532slgdg3j2ikp40","pricing_plan_id":"cebpf4jnsgd1na2vs0mg"},{"bike_id":"b954ad20-8866-4808-9736-0e481591598c","system_id":"levelo_inurba_marseille","lat":43.32598,"lon":5.37755,"is_reserved":false,"is_disabled":false,"rental_uris":{"android":"levelo://app?vid=b954ad20-8866-4808-9736-0e481591598c","ios":"levelo://app?vid=b954ad20-8866-4808-9736-0e481591598c"},"vehicle_type_id":"4","last_reported":1750500631,"current_range_meters":20000,"station_id":"","pricing_plan_id":"cebpf4jnsgd1na2vs0mg"},{"bike_id":"1d7ac05d-4ed9-498f-b7c9-d606306c0081","system_id":"levelo_inurba_marseille","lat":43.30589,"lon":5.39355,"is_reserved":false,"is_disabled":false,"rental_uris":{"android":"levelo://app?vid=1d7ac05d-4ed9-498f-b7c9-d606306c0081","ios":"levelo://app?vid=1d7ac05d-4ed9-498f-b7c9-d606306c0081"},"vehicle_type_id":"4","last_reported":1750500631,"current_range_meters":20000,"station_id":"ce4bh0p2rcd13ifvqd80","pricing_plan_id":"cebpf4jnsgd1na2vs0mg"},{"bike_id":"4bbea0da-7cbb-47e3-97b4-3ee60fae52ce","system_id":"levelo_inurba_marseille","lat":43.28456,"lon":5.35889,"is_reserved":false,"is_disabled":false,"rental_uris":{"android":"levelo://app?vid=4bbea0da-7cbb-47e3-97b4-3ee60fae52ce","ios":"levelo://app?vid=4bbea0da-7cbb-47e3-97b4-3ee60fae52ce"},"vehicle_type_id":"4","last_reported":1750500631,"current_range_meters":20000,"station_id":"ce4bhah2rcd13ifvqei0","pricing_plan_id":"cebpf4jnsgd1na2vs0mg"},{"bike_id":"1bfabdcd-63ed-484c-af6a-6dc52b8da00e","system_id":"levelo_inurba_marseille","lat":43.27369,"lon":5.3626,"is_reserved":false,"is_disabled":false,"rental_uris":{"android":"levelo://app?vid=1bfabdcd-63ed-484c-af6a-6dc52b8da00e","ios":"levelo://app?vid=1bfabdcd-63ed-484c-af6a-6dc52b8da00e"},"vehicle_type_id":"4","last_reported":1750500631,"current_range_meters":20000,"station_id":"ce4bhbh2rcd13ifvqeo0","pricing_plan_id":"cebpf4jnsgd1na2vs0mg"},{"bike_id":"d5d4ea08-5286-42f6-8cc4-138a5180b07c","system_id":"levelo_inurba_marseille","lat":43.250174,"lon":5.389104,"is_reserved":false,"is_disabled":false,"rental_uris":{"android":"levelo://app?vid=d5d4ea08-5286-42f6-8cc4-138a5180b07c","ios":"levelo://app?vid=d5d4ea08-5286-42f6-8cc4-138a5180b07c"},"vehicle_type_id":"4","last_reported":1750500631,"current_range_meters":20000,"station_id":"ce4bhgp2rcd13ifvqfd0","pricing_plan_id":"cebpf4jnsgd1na2vs0mg"},{"bike_id":"d00e7843-ed41-443b-b6b6-0063db77b564","system_id":"levelo_inurba_marseille","lat":43.27058,"lon":5.40256,"is_reserved":false,"is_disabled":false,"rental_uris":{"android":"levelo://app?vid=d00e7843-ed41-443b-b6b6-0063db77b564","ios":"levelo://app?vid=d00e7843-ed41-443b-b6b6-0063db77b564"},"vehicle_type_id":"4","last_reported":1750500631,"current_range_meters":20000,"station_id":"ce4bhk92rcd13ifvqgc0","pricing_plan_id":"cebpf4jnsgd1na2vs0mg"},{"bike_id":"922be354-b1cf-4e08-9245-1d8e0c3996e5","system_id":"levelo_inurba_marseille","lat":43.27807,"lon":5.40705,"is_reserved":false,"is_disabled":false,"rental_uris":{"android":"levelo://app?vid=922be354-b1cf-4e08-9245-1d8e0c3996e5","ios":"levelo://app?vid=922be354-b1cf-4e08-9245-1d8e0c3996e5"},"vehicle_type_id":"4","last_reported":1750500631,"current_range_meters":20000,"station_id":"ce4bhnh2rcd13ifvqgtg","pricing_plan_id":"cebpf4jnsgd1na2vs0mg"},{"bike_id":"b15d48be-15ba-4f8b-b711-e317e1fa43b5","system_id":"levelo_inurba_marseille","lat":43.2293,"lon":5.35379,"is_reserved":false,"is_disabled":false,"rental_uris":{"android":"levelo://app?vid=b15d48be-15ba-4f8b-b711-e317e1fa43b5","ios":"levelo://app?vid=b15d48be-15ba-4f8b-b711-e317e1fa43b5"},"vehicle_type_id":"4","last_reported":1750500631,"current_range_meters":20000,"station_id":"cpo3532slgdg3j2ikp40","pricing_plan_id":"cebpf4jnsgd1na2vs0mg"},{"bike_id":"0ddbcc5f-ca25-473e-8264-8a85e24b7b0a","system_id":"levelo_inurba_marseille","lat":43.21752,"lon":5.34602,"is_reserved":false,"is_disabled":false,"rental_uris":{"android":"levelo://app?vid=0ddbcc5f-ca25-473e-8264-8a85e24b7b0a","ios":"levelo://app?vid=0ddbcc5f-ca25-473e-8264-8a85e24b7b0a"},"vehicle_type_id":"4","last_reported":1750500631,"current_range_meters":20000,"station_id":"st_cvj6r9ubvosntc0bgbag","pricing_plan_id":"cebpf4jnsgd1na2vs0mg"},{"bike_id":"377ec864-6a07-4987-8844-392b5fb8234b","system_id":"levelo_inurba_marseille","lat":43.31766,"lon":5.387971,"is_reserved":false,"is_disabled":false,"rental_uris":{"android":"levelo://app?vid=377ec864-6a07-4987-8844-392b5fb8234b","ios":"levelo://app?vid=377ec864-6a07-4987-8844-392b5fb8234b"},"vehicle_type_id":"4","last_reported":1750500631,"current_range_meters":20400,"station_id":"","pricing_plan_id":"cebpf4jnsgd1na2vs0mg"},{"bike_id":"c1bfe059-dc8b-4a59-9d74-d550781388b9","system_id":"levelo_inurba_marseille","lat":43.295313,"lon":5.385461,"is_reserved":false,"is_disabled":false,"rental_uris":{"android":"levelo://app?vid=c1bfe059-dc8b-4a59-9d74-d550781388b9","ios":"levelo://app?vid=c1bfe059-dc8b-4a59-9d74-d550781388b9"},"vehicle_type_id":"4","last_reported":1750500631,"current_range_meters":20400,"station_id":"","pricing_plan_id":"cebpf4jnsgd1na2vs0mg"},{"bike_id":"4aa9d3a9-b8c2-479b-b83b-dfb9584a2388","system_id":"levelo_inurba_marseille","lat":43.29676,"lon":5.37304,"is_reserved":false,"is_disabled":false,"rental_uris":{"android":"levelo://app?vid=4aa9d3a9-b8c2-479b-b83b-dfb9584a2388","ios":"levelo://app?vid=4aa9d3a9-b8c2-479b-b83b-dfb9584a2388"},"vehicle_type_id":"4","last_reported":1750500631,"current_range_meters":20400,"station_id":"ce4bgk12rcd13ifvqbj0","pricing_plan_id":"cebpf4jnsgd1na2vs0mg"},{"bike_id":"ef0f7d2c-a318-4ab7-b330-5d5a1cd3e9dd","system_id":"levelo_inurba_marseille","lat":43.28032,"lon":5.36947,"is_reserved":false,"is_disabled":false,"rental_uris":{"android":"levelo://app?vid=ef0f7d2c-a318-4ab7-b330-5d5a1cd3e9dd","ios":"levelo://app?vid=ef0f7d2c-a318-4ab7-b330-5d5a1cd3e9dd"},"vehicle_type_id":"4","last_reported":1750500631,"current_range_meters":20400,"station_id":"ce4bha12rcd13ifvqef0","pricing_plan_id":"cebpf4jnsgd1na2vs0mg"},{"bike_id":"47f7d92c-0fb5-403e-8e28-4c21992a4c88","system_id":"levelo_inurba_marseille","lat":43.28409,"lon":5.34981,"is_reserved":false,"is_disabled":false,"rental_uris":{"android":"levelo://app?vid=47f7d92c-0fb5-403e-8e28-4c21992a4c88","ios":"levelo://app?vid=47f7d92c-0fb5-403e-8e28-4c21992a4c88"},"vehicle_type_id":"4","last_reported":1750500631,"current_range_meters":20400,"station_id":"ce4bhbh2rcd13ifvqepg","pricing_plan_id":"cebpf4jnsgd1na2vs0mg"},{"bike_id":"6b4edd1f-2b9f-40fa-afbd-2006b70529df","system_id":"levelo_inurba_marseille","lat":43.254915,"lon":5.376444,"is_reserved":false,"is_disabled":false,"rental_uris":{"android":"levelo://app?vid=6b4edd1f-2b9f-40fa-afbd-2006b70529df","ios":"levelo://app?vid=6b4edd1f-2b9f-40fa-afbd-2006b70529df"},"vehicle_type_id":"4","last_reported":1750500631,"current_range_meters":20400,"station_id":"ce4bhh12rcd13ifvqff0","pricing_plan_id":"cebpf4jnsgd1na2vs0mg"},{"bike_id":"d17dfa65-3223-4d45-807a-c0a52bb205ee","system_id":"levelo_inurba_marseille","lat":43.23966,"lon":5.3664,"is_reserved":false,"is_disabled":false,"rental_uris":{"android":"levelo://app?vid=d17dfa65-3223-4d45-807a-c0a52bb205ee","ios":"levelo://app?vid=d17dfa65-3223-4d45-807a-c0a52bb205ee"},"vehicle_type_id":"4","last_reported":1750500631,"current_range_meters":20400,"station_id":"ce4bhi12rcd13ifvqfp0","pricing_plan_id":"cebpf4jnsgd1na2vs0mg"},{"bike_id":"e9e34d80-2f67-4aa6-ba88-1b07fc44405a","system_id":"levelo_inurba_marseille","lat":43.23969,"lon":5.36626,"is_reserved":false,"is_disabled":false,"rental_uris":{"android":"levelo://app?vid=e9e34d80-2f67-4aa6-ba88-1b07fc44405a","ios":"levelo://app?vid=e9e34d80-2f67-4aa6-ba88-1b07fc44405a"},"vehicle_type_id":"4","last_reported":1750500631,"current_range_meters":20400,"station_id":"ce4bhi12rcd13ifvqfp0","pricing_plan_id":"cebpf4jnsgd1na2vs0mg"},{"bike_id":"9133bd38-9834-4bf5-aead-c4f396f165ac","system_id":"levelo_inurba_marseille","lat":43.21195,"lon":5.35067,"is_reserved":false,"is_disabled":false,"rental_uris":{"android":"levelo://app?vid=9133bd38-9834-4bf5-aead-c4f396f165ac","ios":"levelo://app?vid=9133bd38-9834-4bf5-aead-c4f396f165ac"},"vehicle_type_id":"4","last_reported":1750500631,"current_range_meters":20400,"station_id":"st_cvj6sg6p6f1abm77japg","pricing_plan_id":"cebpf4jnsgd1na2vs0mg"},{"bike_id":"f2179d0b-1c70-4d25-bd73-51c51b3f9580","system_id":"levelo_inurba_marseille","lat":43.2466,"lon":5.37863,"is_reserved":false,"is_disabled":false,"rental_uris":{"android":"levelo://app?vid=f2179d0b-1c70-4d25-bd73-51c51b3f9580","ios":"levelo://app?vid=f2179d0b-1c70-4d25-bd73-51c51b3f9580"},"vehicle_type_id":"4","last_reported":1750500631,"current_range_meters":20800,"station_id":"","pricing_plan_id":"cebpf4jnsgd1na2vs0mg"},{"bike_id":"56ae7983-8a3b-4349-b166-789921242c31","system_id":"levelo_inurba_marseille","lat":43.211924,"lon":5.350744,"is_reserved":false,"is_disabled":false,"rental_uris":{"android":"levelo://app?vid=56ae7983-8a3b-4349-b166-789921242c31","ios":"levelo://app?vid=56ae7983-8a3b-4349-b166-789921242c31"},"vehicle_type_id":"4","last_reported":1750500631,"current_range_meters":20800,"station_id":"","pricing_plan_id":"cebpf4jnsgd1na2vs0mg"},{"bike_id":"b10476c2-2e64-4a41-a4df-6fd21c65643b","system_id":"levelo_inurba_marseille","lat":43.29695,"lon":5.37781,"is_reserved":false,"is_disabled":false,"rental_uris":{"android":"levelo://app?vid=b10476c2-2e64-4a41-a4df-6fd21c65643b","ios":"levelo://app?vid=b10476c2-2e64-4a41-a4df-6fd21c65643b"},"vehicle_type_id":"4","last_reported":1750500631,"current_range_meters":20800,"station_id":"","pricing_plan_id":"cebpf4jnsgd1na2vs0mg"},{"bike_id":"a3ad56e7-7a91-4aa3-ab02-df0b7f94c034","system_id":"levelo_inurba_marseille","lat":43.29128,"lon":5.3558,"is_reserved":false,"is_disabled":false,"rental_uris":{"android":"levelo://app?vid=a3ad56e7-7a91-4aa3-ab02-df0b7f94c034","ios":"levelo://app?vid=a3ad56e7-7a91-4aa3-ab02-df0b7f94c034"},"vehicle_type_id":"4","last_reported":1750500631,"current_range_meters":20800,"station_id":"","pricing_plan_id":"cebpf4jnsgd1na2vs0mg"},{"bike_id":"90c5c271-3d71-43fe-ab25-2f7ae3acd67c","system_id":"levelo_inurba_marseille","lat":43.2985,"lon":5.36282,"is_reserved":false,"is_disabled":false,"rental_uris":{"android":"levelo://app?vid=90c5c271-3d71-43fe-ab25-2f7ae3acd67c","ios":"levelo://app?vid=90c5c271-3d71-43fe-ab25-2f7ae3acd67c"},"vehicle_type_id":"4","last_reported":1750500631,"current_range_meters":20800,"station_id":"ce4bgpp2rcd13ifvqc3g","pricing_plan_id":"cebpf4jnsgd1na2vs0mg"},{"bike_id":"6b89d204-fddb-451a-959b-3d398e27b366","system_id":"levelo_inurba_marseille","lat":43.31481,"lon":5.37304,"is_reserved":false,"is_disabled":false,"rental_uris":{"android":"levelo://app?vid=6b89d204-fddb-451a-959b-3d398e27b366","ios":"levelo://app?vid=6b89d204-fddb-451a-959b-3d398e27b366"},"vehicle_type_id":"4","last_reported":1750500631,"current_range_meters":20800,"station_id":"ce4bgt12rcd13ifvqcd0","pricing_plan_id":"cebpf4jnsgd1na2vs0mg"},{"bike_id":"616bdf05-4dca-4332-aae7-500b25fe5e49","system_id":"levelo_inurba_marseille","lat":43.26214,"lon":5.37436,"is_reserved":false,"is_disabled":false,"rental_uris":{"android":"levelo://app?vid=616bdf05-4dca-4332-aae7-500b25fe5e49","ios":"levelo://app?vid=616bdf05-4dca-4332-aae7-500b25fe5e49"},"vehicle_type_id":"4","last_reported":1750500631,"current_range_meters":20800,"station_id":"ce4bhgp2rcd13ifvqfc0","pricing_plan_id":"cebpf4jnsgd1na2vs0mg"},{"bike_id":"75c66e6c-531b-4e17-b68e-3ad0391e02e8","system_id":"levelo_inurba_marseille","lat":43.243908,"lon":5.370635,"is_reserved":false,"is_disabled":false,"rental_uris":{"android":"levelo://app?vid=75c66e6c-531b-4e17-b68e-3ad0391e02e8","ios":"levelo://app?vid=75c66e6c-531b-4e17-b68e-3ad0391e02e8"},"vehicle_type_id":"4","last_reported":1750500631,"current_range_meters":20800,"station_id":"ce4bhhh2rcd13ifvqfk0","pricing_plan_id":"cebpf4jnsgd1na2vs0mg"},{"bike_id":"e3e3f500-479f-408a-a7f0-0204a533e0b9","system_id":"levelo_inurba_marseille","lat":43.24565,"lon":5.39535,"is_reserved":false,"is_disabled":false,"rental_uris":{"android":"levelo://app?vid=e3e3f500-479f-408a-a7f0-0204a533e0b9","ios":"levelo://app?vid=e3e3f500-479f-408a-a7f0-0204a533e0b9"},"vehicle_type_id":"4","last_reported":1750500631,"current_range_meters":20800,"station_id":"ce4bhlp2rcd13ifvqgjg","pricing_plan_id":"cebpf4jnsgd1na2vs0mg"},{"bike_id":"8836d84a-ad66-406a-8556-64f7b08f871b","system_id":"levelo_inurba_marseille","lat":43.24553,"lon":5.39516,"is_reserved":false,"is_disabled":false,"rental_uris":{"android":"levelo://app?vid=8836d84a-ad66-406a-8556-64f7b08f871b","ios":"levelo://app?vid=8836d84a-ad66-406a-8556-64f7b08f871b"},"vehicle_type_id":"4","last_reported":1750500631,"current_range_meters":20800,"station_id":"ce4bhlp2rcd13ifvqgjg","pricing_plan_id":"cebpf4jnsgd1na2vs0mg"},{"bike_id":"21633650-ff40-4dd0-8597-022ce4ff5a67","system_id":"levelo_inurba_marseille","lat":43.30509,"lon":5.36524,"is_reserved":false,"is_disabled":false,"rental_uris":{"android":"levelo://app?vid=21633650-ff40-4dd0-8597-022ce4ff5a67","ios":"levelo://app?vid=21633650-ff40-4dd0-8597-022ce4ff5a67"},"vehicle_type_id":"4","last_reported":1750500631,"current_range_meters":21600,"station_id":"","pricing_plan_id":"cebpf4jnsgd1na2vs0mg"},{"bike_id":"c6cbae16-3ce5-4d77-8942-2ad6d6b3c555","system_id":"levelo_inurba_marseille","lat":43.2944,"lon":5.38119,"is_reserved":false,"is_disabled":false,"rental_uris":{"android":"levelo://app?vid=c6cbae16-3ce5-4d77-8942-2ad6d6b3c555","ios":"levelo://app?vid=c6cbae16-3ce5-4d77-8942-2ad6d6b3c555"},"vehicle_type_id":"4","last_reported":1750500631,"current_range_meters":21600,"station_id":"","pricing_plan_id":"cebpf4jnsgd1na2vs0mg"},{"bike_id":"af760fd1-fa84-488b-b018-69b9b494ad54","system_id":"levelo_inurba_marseille","lat":43.27616,"lon":5.36114,"is_reserved":false,"is_disabled":false,"rental_uris":{"android":"levelo://app?vid=af760fd1-fa84-488b-b018-69b9b494ad54","ios":"levelo://app?vid=af760fd1-fa84-488b-b018-69b9b494ad54"},"vehicle_type_id":"4","last_reported":1750500631,"current_range_meters":21600,"station_id":"ce4bgj92rcd13ifvqbe0","pricing_plan_id":"cebpf4jnsgd1na2vs0mg"},{"bike_id":"1c1ab546-6740-4886-919d-b1145d69ceac","system_id":"levelo_inurba_marseille","lat":43.284263,"lon":5.349853,"is_reserved":false,"is_disabled":false,"rental_uris":{"android":"levelo://app?vid=1c1ab546-6740-4886-919d-b1145d69ceac","ios":"levelo://app?vid=1c1ab546-6740-4886-919d-b1145d69ceac"},"vehicle_type_id":"4","last_reported":1750500631,"current_range_meters":21600,"station_id":"ce4bhbh2rcd13ifvqepg","pricing_plan_id":"cebpf4jnsgd1na2vs0mg"},{"bike_id":"9566d025-f4a1-49e5-a0c6-f4cde624a8aa","system_id":"levelo_inurba_marseille","lat":43.28618,"lon":5.35098,"is_reserved":false,"is_disabled":false,"rental_uris":{"android":"levelo://app?vid=9566d025-f4a1-49e5-a0c6-f4cde624a8aa","ios":"levelo://app?vid=9566d025-f4a1-49e5-a0c6-f4cde624a8aa"},