{"last_updated":1730732986,"ttl":60,"version":"2.2","data":{"bikes":[{"bike_id":"1a3b96cf-391a-4373-9298-3534921eecf0","system_id":"levelo_inurba_marseille","lat":43.2991,"lon":5.38141,"is_reserved":false,"is_disabled":false,"rental_uris":{"android":"levelo://app?vid=1a3b96cf-391a-4373-9298-3534921eecf0","ios":"levelo://app?vid=1a3b96cf-391a-4373-9298-3534921eecf0"},"vehicle_type_id":"4","last_reported":1730732986,"current_range_meters":33600,"station_id":"ce4bgj12rcd13ifvqbc0","pricing_plan_id":"cebpf4jnsgd1na2vs0mg"},{"bike_id":"5e902bc6-c428-4e92-856e-9de5d9b0d0bb","system_id":"levelo_inurba_marseille","lat":43.29535,"lon":5.39389,"is_reserved":false,"is_disabled":false,"rental_uris":{"android":"levelo://app?vid=5e902bc6-c428-4e92-856e-9de5d9b0d0bb","ios":"levelo://app?vid=5e902bc6-c428-4e92-856e-9de5d9b0d0bb"},"vehicle_type_id":"4","last_reported":1730732986,"current_range_meters":28400,"station_id":"ce4bh292rcd13ifvqdf0","pricing_plan_id":"cebpf4jnsgd1na2vs0mg"},{"bike_id":"92fae405-9ce6-4d9c-a2b8-8fc85de559bd","system_id":"levelo_inurba_marseille","lat":43.30239,"lon":5.40056,"is_reserved":false,"is_disabled":false,"rental_uris":{"android":"levelo://app?vid=92fae405-9ce6-4d9c-a2b8-8fc85de559bd","ios":"levelo://app?vid=92fae405-9ce6-4d9c-a2b8-8fc85de559bd"},"vehicle_type_id":"4","last_reported":1730732986,"current_range_meters":37600,"station_id":"ce4bgvh2rcd13ifvqcs0","pricing_plan_id":"cebpf4jnsgd1na2vs0mg"},{"bike_id":"2b6c8443-1848-4bd1-a5f7-cb79fbd151e5","system_id":"levelo_inurba_marseille","lat":43.28623,"lon":5.36164,"is_reserved":false,"is_disabled":false,"rental_uris":{"android":"levelo://app?vid=2b6c8443-1848-4bd1-a5f7-cb79fbd151e5","ios":"levelo://app?vid=2b6c8443-1848-4bd1-a5f7-cb79fbd151e5"},"vehicle_type_id":"4","last_reported":1730732986,"current_range_meters":35200,"station_id":"ce4bhah2rcd13ifvqei0","pricing_plan_id":"cebpf4jnsgd1na2vs0mg"},{"bike_id":"706e52b1-7ba2-4758-92da-fc4e558e4415","system_id":"levelo_inurba_marseille","lat":43.26792,"lon":5.39409,"is_reserved":false,"is_disabled":false,"rental_uris":{"android":"levelo://app?vid=706e52b1-7ba2-4758-92da-fc4e558e4415","ios":"levelo://app?vid=706e52b1-7ba2-4758-92da-fc4e558e4415"},"vehicle_type_id":"4","last_reported":1730732986,"current_range_meters":7200,"station_id":"ce4bhh12rcd13ifvqfg0","pricing_plan_id":"cebpf4jnsgd1na2vs0mg"},{"bike_id":"c4888259-0fcf-41f9-ae46-2103d07f306f","system_id":"levelo_inurba_marseille","lat":43.31758,"lon":5.39012,"is_reserved":false,"is_disabled":false,"rental_uris":{"android":"levelo://app?vid=c4888259-0fcf-41f9-ae46-2103d07f306f","ios":"levelo://app?vid=c4888259-0fcf-41f9-ae46-2103d07f306f"},"vehicle_type_id":"4","last_reported":1730732986,"current_range_meters":8000,"station_id":"ce4bhqp2rcd13ifvqhng","pricing_plan_id":"cebpf4jnsgd1na2vs0mg"},{"bike_id":"d458e245-edbc-494d-a84e-0cd740e6144f","system_id":"levelo_inurba_marseille","lat":43.25943,"lon":5.40903,"is_reserved":false,"is_disabled":false,"rental_uris":{"android":"levelo://app?vid=d458e245-edbc-494d-a84e-0cd740e6144f","ios":"levelo://app?vid=d458e245-edbc-494d-a84e-0cd740e6144f"},"vehicle_type_id":"4","last_reported":1730732986,"current_range_meters":22400,"station_id":"ce4bhm92rcd13ifvqglg","pricing_plan_id":"cebpf4jnsgd1na2vs0mg"},{"bike_id":"6b50b699-42bc-438e-ad22-dc1eec7ee64e","system_id":"levelo_inurba_marseille","lat":43.30088,"lon":5.3908,"is_reserved":false,"is_disabled":false,"rental_uris":{"android":"levelo://app?vid=6b50b699-42bc-438e-ad22-dc1eec7ee64e","ios":"levelo://app?vid=6b50b699-42bc-438e-ad22-dc1eec7ee64e"},"vehicle_type_id":"4","last_reported":1730732986,"current_range_meters":9200,"station_id":"ce4bh192rcd13ifvqdb0","pricing_plan_id":"cebpf4jnsgd1na2vs0mg"},{"bike_id":"b45d93e2-137e-40d9-b8b9-f9ceab009d23","system_id":"levelo_inurba_marseille","lat":43.24179,"lon":5.39736,"is_reserved":false,"is_disabled":false,"rental_uris":{"android":"levelo://app?vid=b45d93e2-137e-40d9-b8b9-f9ceab009d23","ios":"levelo://app?vid=b45d93e2-137e-40d9-b8b9-f9ceab009d23"},"vehicle_type_id":"4","last_reported":1730732986,"current_range_meters":38800,"station_id":"ce4bhn12rcd13ifvqgpg","pricing_plan_id":"cebpf4jnsgd1na2vs0mg"},{"bike_id":"590c6b6d-ad6c-405a-9fff-0b30a089b1b0","system_id":"levelo_inurba_marseille","lat":43.26498,"lon":5.39546,"is_reserved":false,"is_disabled":false,"rental_uris":{"android":"levelo://app?vid=590c6b6d-ad6c-405a-9fff-0b30a089b1b0","ios":"levelo://app?vid=590c6b6d-ad6c-405a-9fff-0b30a089b1b0"},"vehicle_type_id":"4","last_reported":1730732986,"current_range_meters":39200,"station_id":"ce4bhi12rcd13ifvqfq0","pricing_plan_id":"cebpf4jnsgd1na2vs0mg"},{"bike_id":"601de3e7-c621-461e-921f-ec8dbdf105c4","system_id":"levelo_inurba_marseille","lat":43.28411,"lon":5.34996,"is_reserved":false,"is_disabled":false,"rental_uris":{"android":"levelo://app?vid=601de3e7-c621-461e-921f-ec8dbdf105c4","ios":"levelo://app?vid=601de3e7-c621-461e-921f-ec8dbdf105c4"},"vehicle_type_id":"4","last_reported":1730732986,"current_range_meters":19200,"station_id":"ce4bhbh2rcd13ifvqepg","pricing_plan_id":"cebpf4jnsgd1na2vs0mg"},{"bike_id":"2a39fee9-2e1a-4506-90a5-52fa3c1e7f62","system_id":"levelo_inurba_marseille","lat":43.24076,"lon":5.3775,"is_reserved":false,"is_disabled":false,"rental_uris":{"android":"levelo://app?vid=2a39fee9-2e1a-4506-90a5-52fa3c1e7f62","ios":"levelo://app?vid=2a39fee9-2e1a-4506-90a5-52fa3c1e7f62"},"vehicle_type_id":"4","last_reported":1730732986,"current_range_meters":38800,"station_id":"ce4bhnp2rcd13ifvqgvg","pricing_plan_id":"cebpf4jnsgd1na2vs0mg"},{"bike_id":"4147bbfb-4b14-4aca-b782-8ec6c0473609","system_id":"levelo_inurba_marseille","lat":43.23602,"lon":5.40349,"is_reserved":false,"is_disabled":false,"rental_uris":{"android":"levelo://app?vid=4147bbfb-4b14-4aca-b782-8ec6c0473609","ios":"levelo://app?vid=4147bbfb-4b14-4aca-b782-8ec6c0473609"},"vehicle_type_id":"4","last_reported":1730732986,"current_range_meters":14000,"station_id":"","pricing_plan_id":"cebpf4jnsgd1na2vs0mg"},{"bike_id":"862c176c-dd7b-45ba-a8b8-3dc61591d878","system_id":"levelo_inurba_marseille","lat":43.3056,"lon":5.36545,"is_reserved":false,"is_disabled":false,"rental_uris":{"android":"levelo://app?vid=862c176c-dd7b-45ba-a8b8-3dc61591d878","ios":"levelo://app?vid=862c176c-dd7b-45ba-a8b8-3dc61591d878"},"vehicle_type_id":"4","last_reported":1730732986,"current_range_meters":36000,"station_id":"ce4bgs12rcd13ifvqcag","pricing_plan_id":"cebpf4jnsgd1na2vs0mg"},{"bike_id":"60188e7c-41b8-413d-9179-e9013c688863","system_id":"levelo_inurba_marseille","lat":43.26568,"lon":5.3902,"is_reserved":false,"is_disabled":false,"rental_uris":{"android":"levelo://app?vid=60188e7c-41b8-413d-9179-e9013c688863","ios":"levelo://app?vid=60188e7c-41b8-413d-9179-e9013c688863"},"vehicle_type_id":"4","last_reported":1730732986,"current_range_meters":10000,"station_id":"ce4bhe12rcd13ifvqf30","pricing_plan_id":"cebpf4jnsgd1na2vs0mg"},{"bike_id":"9f410113-da45-46ac-b90d-c25805adb157","system_id":"levelo_inurba_marseille","lat":43.27999,"lon":5.4003,"is_reserved":false,"is_disabled":false,"rental_uris":{"android":"levelo://app?vid=9f410113-da45-46ac-b90d-c25805adb157","ios":"levelo://app?vid=9f410113-da45-46ac-b90d-c25805adb157"},"vehicle_type_id":"4","last_reported":1730732986,"current_range_meters":2800,"station_id":"ce4bho92rcd13ifvqh4g","pricing_plan_id":"cebpf4jnsgd1na2vs0mg"},{"bike_id":"054f52ec-59c1-4313-ae6c-01ba1e9d0203","system_id":"levelo_inurba_marseille","lat":43.23147,"lon":5.43713,"is_reserved":false,"is_disabled":false,"rental_uris":{"android":"levelo://app?vid=054f52ec-59c1-4313-ae6c-01ba1e9d0203","ios":"levelo://app?vid=054f52ec-59c1-4313-ae6c-01ba1e9d0203"},"vehicle_type_id":"4","last_reported":1730732986,"current_range_meters":23200,"station_id":"ce501612rcd8frsf0b60","pricing_plan_id":"cebpf4jnsgd1na2vs0mg"},{"bike_id":"f004bb40-0c97-4961-ae2c-b0211cfc0184","system_id":"levelo_inurba_marseille","lat":43.31231,"lon":5.36855,"is_reserved":false,"is_disabled":false,"rental_uris":{"android":"levelo://app?vid=f004bb40-0c97-4961-ae2c-b0211cfc0184","ios":"levelo://app?vid=f004bb40-0c97-4961-ae2c-b0211cfc0184"},"vehicle_type_id":"4","last_reported":1730732986,"current_range_meters":39200,"station_id":"ce4bgl92rcd13ifvqbq0","pricing_plan_id":"cebpf4jnsgd1na2vs0mg"},{"bike_id":"a805ec4f-6d11-4069-a9d1-e1dfb861469e","system_id":"levelo_inurba_marseille","lat":43.25113,"lon":5.40318,"is_reserved":false,"is_disabled":false,"rental_uris":{"android":"levelo://app?vid=a805ec4f-6d11-4069-a9d1-e1dfb861469e","ios":"levelo://app?vid=a805ec4f-6d11-4069-a9d1-e1dfb861469e"},"vehicle_type_id":"4","last_reported":1730732986,"current_range_meters":13600,"station_id":"ce4bhlh2rcd13ifvqgig","pricing_plan_id":"cebpf4jnsgd1na2vs0mg"},{"bike_id":"76b8d797-d314-4451-a891-341320b006ff","system_id":"levelo_inurba_marseille","lat":43.29934,"lon":5.365441,"is_reserved":false,"is_disabled":false,"rental_uris":{"android":"levelo://app?vid=76b8d797-d314-4451-a891-341320b006ff","ios":"levelo://app?vid=76b8d797-d314-4451-a891-341320b006ff"},"vehicle_type_id":"4","last_reported":1730732986,"current_range_meters":22800,"station_id":"ce4bgm92rcd13ifvqbr0","pricing_plan_id":"cebpf4jnsgd1na2vs0mg"},{"bike_id":"13a31c8b-3468-43f9-84ec-7699d1c25b60","system_id":"levelo_inurba_marseille","lat":43.32529,"lon":5.4143,"is_reserved":false,"is_disabled":false,"rental_uris":{"android":"levelo://app?vid=13a31c8b-3468-43f9-84ec-7699d1c25b60","ios":"levelo://app?vid=13a31c8b-3468-43f9-84ec-7699d1c25b60"},"vehicle_type_id":"4","last_reported":1730732986,"current_range_meters":38400,"station_id":"ce4bhq12rcd13ifvqhhg","pricing_plan_id":"cebpf4jnsgd1na2vs0mg"},{"bike_id":"d496fb41-48dd-4cdc-98c1-6f73ad79cd66","system_id":"levelo_inurba_marseille","lat":43.2826,"lon":5.35073,"is_reserved":false,"is_disabled":false,"rental_uris":{"android":"levelo://app?vid=d496fb41-48dd-4cdc-98c1-6f73ad79cd66","ios":"levelo://app?vid=d496fb41-48dd-4cdc-98c1-6f73ad79cd66"},"vehicle_type_id":"4","last_reported":1730732986,"current_range_meters":8000,"station_id":"ce4bhbp2rcd13ifvqerg","pricing_plan_id":"cebpf4jnsgd1na2vs0mg"},{"bike_id":"4457c172-acf7-466f-bf1d-ad3069f6ef15","system_id":"levelo_inurba_marseille","lat":43.29939,"lon":5.36566,"is_reserved":false,"is_disabled":false,"rental_uris":{"android":"levelo://app?vid=4457c172-acf7-466f-bf1d-ad3069f6ef15","ios":"levelo://app?vid=4457c172-acf7-466f-bf1d-ad3069f6ef15"},"vehicle_type_id":"4","last_reported":1730732986,"current_range_meters":11600,"station_id":"ce4bgm92rcd13ifvqbr0","pricing_plan_id":"cebpf4jnsgd1na2vs0mg"},{"bike_id":"2378f453-72a7-4eb2-ab3b-946285d406fd","system_id":"levelo_inurba_marseille","lat":43.292317,"lon":5.377233,"is_reserved":false,"is_disabled":false,"rental_uris":{"android":"levelo://app?vid=2378f453-72a7-4eb2-ab3b-946285d406fd","ios":"levelo://app?vid=2378f453-72a7-4eb2-ab3b-946285d406fd"},"vehicle_type_id":"4","last_reported":1730732986,"current_range_meters":8000,"station_id":"","pricing_plan_id":"cebpf4jnsgd1na2vs0mg"},{"bike_id":"6835ce42-1d11-4f61-b843-822a3e4af133","system_id":"levelo_inurba_marseille","lat":43.25127,"lon":5.40317,"is_reserved":false,"is_disabled":false,"rental_uris":{"android":"levelo://app?vid=6835ce42-1d11-4f61-b843-822a3e4af133","ios":"levelo://app?vid=6835ce42-1d11-4f61-b843-822a3e4af133"},"vehicle_type_id":"4","last_reported":1730732986,"current_range_meters":12800,"station_id":"ce4bhlh2rcd13ifvqgig","pricing_plan_id":"cebpf4jnsgd1na2vs0mg"},{"bike_id":"d3c1ed79-dc69-4b35-abea-16d37ab5bf8c","system_id":"levelo_inurba_marseille","lat":43.284536,"lon":5.35882,"is_reserved":false,"is_disabled":false,"rental_uris":{"android":"levelo://app?vid=d3c1ed79-dc69-4b35-abea-16d37ab5bf8c","ios":"levelo://app?vid=d3c1ed79-dc69-4b35-abea-16d37ab5bf8c"},"vehicle_type_id":"4","last_reported":1730732986,"current_range_meters":22800,"station_id":"ce4bhah2rcd13ifvqei0","pricing_plan_id":"cebpf4jnsgd1na2vs0mg"},{"bike_id":"61dbaa79-fb29-4ce6-ad78-01486dfbbfff","system_id":"levelo_inurba_marseille","lat":43.23961,"lon":5.3665,"is_reserved":false,"is_disabled":false,"rental_uris":{"android":"levelo://app?vid=61dbaa79-fb29-4ce6-ad78-01486dfbbfff","ios":"levelo://app?vid=61dbaa79-fb29-4ce6-ad78-01486dfbbfff"},"vehicle_type_id":"4","last_reported":1730732986,"current_range_meters":40000,"station_id":"ce4bhi12rcd13ifvqfp0","pricing_plan_id":"cebpf4jnsgd1na2vs0mg"},{"bike_id":"290d3d25-9b1b-47d0-b7c8-fc45ce503746","system_id":"levelo_inurba_marseille","lat":43.28414,"lon":5.34978,"is_reserved":false,"is_disabled":false,"rental_uris":{"android":"levelo://app?vid=290d3d25-9b1b-47d0-b7c8-fc45ce503746","ios":"levelo://app?vid=290d3d25-9b1b-47d0-b7c8-fc45ce503746"},"vehicle_type_id":"4","last_reported":1730732986,"current_range_meters":30400,"station_id":"ce4bhbh2rcd13ifvqepg","pricing_plan_id":"cebpf4jnsgd1na2vs0mg"},{"bike_id":"f7328e64-9c01-4c37-921c-66a2817f91ee","system_id":"levelo_inurba_marseille","lat":43.2916,"lon":5.37152,"is_reserved":false,"is_disabled":false,"rental_uris":{"android":"levelo://app?vid=f7328e64-9c01-4c37-921c-66a2817f91ee","ios":"levelo://app?vid=f7328e64-9c01-4c37-921c-66a2817f91ee"},"vehicle_type_id":"4","last_reported":1730732986,"current_range_meters":8800,"station_id":"ce4bha92rcd13ifvqeh0","pricing_plan_id":"cebpf4jnsgd1na2vs0mg"},{"bike_id":"3f4e5430-93f0-48f4-aaf3-9771df138fff","system_id":"levelo_inurba_marseille","lat":43.31361,"lon":5.38493,"is_reserved":false,"is_disabled":false,"rental_uris":{"android":"levelo://app?vid=3f4e5430-93f0-48f4-aaf3-9771df138fff","ios":"levelo://app?vid=3f4e5430-93f0-48f4-aaf3-9771df138fff"},"vehicle_type_id":"4","last_reported":1730732986,"current_range_meters":38000,"station_id":"ce4bgt92rcd13ifvqcf0","pricing_plan_id":"cebpf4jnsgd1na2vs0mg"},{"bike_id":"970b87e3-a483-44b6-a8ad-0ecd59bb4cf3","system_id":"levelo_inurba_marseille","lat":43.2927,"lon":5.36837,"is_reserved":false,"is_disabled":false,"rental_uris":{"android":"levelo://app?vid=970b87e3-a483-44b6-a8ad-0ecd59bb4cf3","ios":"levelo://app?vid=970b87e3-a483-44b6-a8ad-0ecd59bb4cf3"},"vehicle_type_id":"4","last_reported":1730732986,"current_range_meters":17600,"station_id":"ce4bhbp2rcd13ifvqesg","pricing_plan_id":"cebpf4jnsgd1na2vs0mg"},{"bike_id":"2b00b054-dcdc-4b1e-bbde-ed82890bbf9b","system_id":"levelo_inurba_marseille","lat":43.2989,"lon":5.39759,"is_reserved":false,"is_disabled":false,"rental_uris":{"android":"levelo://app?vid=2b00b054-dcdc-4b1e-bbde-ed82890bbf9b","ios":"levelo://app?vid=2b00b054-dcdc-4b1e-bbde-ed82890bbf9b"},"vehicle_type_id":"4","last_reported":1730732986,"current_range_meters":24000,"station_id":"ce4bh0h2rcd13ifvqd50","pricing_plan_id":"cebpf4jnsgd1na2vs0mg"},{"bike_id":"75c294e6-66fb-4326-9d7e-a194bc1363c1","system_id":"levelo_inurba_marseille","lat":43.28271,"lon":5.35068,"is_reserved":false,"is_disabled":false,"rental_uris":{"android":"levelo://app?vid=75c294e6-66fb-4326-9d7e-a194bc1363c1","ios":"levelo://app?vid=75c294e6-66fb-4326-9d7e-a194bc1363c1"},"vehicle_type_id":"4","last_reported":1730732986,"current_range_meters":24000,"station_id":"ce4bhbp2rcd13ifvqerg","pricing_plan_id":"cebpf4jnsgd1na2vs0mg"},{"bike_id":"5f182c0f-58e8-4d44-8169-760b9016320b","system_id":"levelo_inurba_marseille","lat":43.28153,"lon":5.42643,"is_reserved":false,"is_disabled":false,"rental_uris":{"android":"levelo://app?vid=5f182c0f-58e8-4d44-8169-760b9016320b","ios":"levelo://app?vid=5f182c0f-58e8-4d44-8169-760b9016320b"},"vehicle_type_id":"4","last_reported":1730732986,"current_range_meters":28800,"station_id":"ce4bhnh2rcd13ifvqgug","pricing_plan_id":"cebpf4jnsgd1na2vs0mg"},{"bike_id":"729ed762-2084-40cb-ba5b-e8d2d89903cd","system_id":"levelo_inurba_marseille","lat":43.25935,"lon":5.40914,"is_reserved":false,"is_disabled":false,"rental_uris":{"android":"levelo://app?vid=729ed762-2084-40cb-ba5b-e8d2d89903cd","ios":"levelo://app?vid=729ed762-2084-40cb-ba5b-e8d2d89903cd"},"vehicle_type_id":"4","last_reported":1730732986,"current_range_meters":16400,"station_id":"ce4bhm92rcd13ifvqglg","pricing_plan_id":"cebpf4jnsgd1na2vs0mg"},{"bike_id":"260920be-0ae8-431a-91de-8ee47ce59452","system_id":"levelo_inurba_marseille","lat":43.31071,"lon":5.3836,"is_reserved":false,"is_disabled":false,"rental_uris":{"android":"levelo://app?vid=260920be-0ae8-431a-91de-8ee47ce59452","ios":"levelo://app?vid=260920be-0ae8-431a-91de-8ee47ce59452"},"vehicle_type_id":"4","last_reported":1730732986,"current_range_meters":31200,"station_id":"ce4bgv92rcd13ifvqcr0","pricing_plan_id":"cebpf4jnsgd1na2vs0mg"},{"bike_id":"cb5813e8-1fb6-403f-8933-68b6265f44d7","system_id":"levelo_inurba_marseille","lat":43.31222,"lon":5.36859,"is_reserved":false,"is_disabled":false,"rental_uris":{"android":"levelo://app?vid=cb5813e8-1fb6-403f-8933-68b6265f44d7","ios":"levelo://app?vid=cb5813e8-1fb6-403f-8933-68b6265f44d7"},"vehicle_type_id":"4","last_reported":1730732986,"current_range_meters":19200,"station_id":"ce4bgl92rcd13ifvqbq0","pricing_plan_id":"cebpf4jnsgd1na2vs0mg"},{"bike_id":"ad50ee3b-6a75-4b44-9968-4a01a2f3163e","system_id":"levelo_inurba_marseille","lat":43.29699,"lon":5.36624,"is_reserved":false,"is_disabled":false,"rental_uris":{"android":"levelo://app?vid=ad50ee3b-6a75-4b44-9968-4a01a2f3163e","ios":"levelo://app?vid=ad50ee3b-6a75-4b44-9968-4a01a2f3163e"},"vehicle_type_id":"4","last_reported":1730732986,"current_range_meters":36800,"station_id":"ce4bgn12rcd13ifvqbt0","pricing_plan_id":"cebpf4jnsgd1na2vs0mg"},{"bike_id":"31534473-df4e-4d67-b291-ba9afb836af9","system_id":"levelo_inurba_marseille","lat":43.29312,"lon":5.37453,"is_reserved":false,"is_disabled":false,"rental_uris":{"android":"levelo://app?vid=31534473-df4e-4d67-b291-ba9afb836af9","ios":"levelo://app?vid=31534473-df4e-4d67-b291-ba9afb836af9"},"vehicle_type_id":"4","last_reported":1730732986,"current_range_meters":37600,"station_id":"ce4bgi12rcd13ifvqb70","pricing_plan_id":"cebpf4jnsgd1na2vs0mg"},{"bike_id":"c5f8c5e3-de80-41eb-8a1b-32becacf2d96","system_id":"levelo_inurba_marseille","lat":43.30562,"lon":5.36539,"is_reserved":false,"is_disabled":false,"rental_uris":{"android":"levelo://app?vid=c5f8c5e3-de80-41eb-8a1b-32becacf2d96","ios":"levelo://app?vid=c5f8c5e3-de80-41eb-8a1b-32becacf2d96"},"vehicle_type_id":"4","last_reported":1730732986,"current_range_meters":36000,"station_id":"ce4bgs12rcd13ifvqcag","pricing_plan_id":"cebpf4jnsgd1na2vs0mg"},{"bike_id":"de1918ae-8501-4e8f-95fd-959e8eaca972","system_id":"levelo_inurba_marseille","lat":43.30139,"lon":5.38785,"is_reserved":false,"is_disabled":false,"rental_uris":{"android":"levelo://app?vid=de1918ae-8501-4e8f-95fd-959e8eaca972","ios":"levelo://app?vid=de1918ae-8501-4e8f-95fd-959e8eaca972"},"vehicle_type_id":"4","last_reported":1730732986,"current_range_meters":12400,"station_id":"ce4bghh2rcd13ifvqb60","pricing_plan_id":"cebpf4jnsgd1na2vs0mg"},{"bike_id":"d210a74f-5805-443b-9506-c32dbfd1a149","system_id":"levelo_inurba_marseille","lat":43.29879,"lon":5.39737,"is_reserved":false,"is_disabled":false,"rental_uris":{"android":"levelo://app?vid=d210a74f-5805-443b-9506-c32dbfd1a149","ios":"levelo://app?vid=d210a74f-5805-443b-9506-c32dbfd1a149"},"vehicle_type_id":"4","last_reported":1730732986,"current_range_meters":36400,"station_id":"ce4bh0h2rcd13ifvqd50","pricing_plan_id":"cebpf4jnsgd1na2vs0mg"},{"bike_id":"c2d4133c-888e-4c9d-854a-1df6dc6b0ea8","system_id":"levelo_inurba_marseille","lat":43.27622,"lon":5.3612,"is_reserved":false,"is_disabled":false,"rental_uris":{"android":"levelo://app?vid=c2d4133c-888e-4c9d-854a-1df6dc6b0ea8","ios":"levelo://app?vid=c2d4133c-888e-4c9d-854a-1df6dc6b0ea8"},"vehicle_type_id":"4","last_reported":1730732986,"current_range_meters":38000,"station_id":"ce4bgj92rcd13ifvqbe0","pricing_plan_id":"cebpf4jnsgd1na2vs0mg"},{"bike_id":"a7c7ea76-0aff-42d0-9070-6e2314792605","system_id":"levelo_inurba_marseille","lat":43.24546,"lon":5.39524,"is_reserved":false,"is_disabled":false,"rental_uris":{"android":"levelo://app?vid=a7c7ea76-0aff-42d0-9070-6e2314792605","ios":"levelo://app?vid=a7c7ea76-0aff-42d0-9070-6e2314792605"},"vehicle_type_id":"4","last_reported":1730732986,"current_range_meters":6800,"station_id":"ce4bhlp2rcd13ifvqgjg","pricing_plan_id":"cebpf4jnsgd1na2vs0mg"},{"bike_id":"b32b7556-10cc-4d3a-8c12-df987a6243de","system_id":"levelo_inurba_marseille","lat":43.28422,"lon":5.34995,"is_reserved":false,"is_disabled":false,"rental_uris":{"android":"levelo://app?vid=b32b7556-10cc-4d3a-8c12-df987a6243de","ios":"levelo://app?vid=b32b7556-10cc-4d3a-8c12-df987a6243de"},"vehicle_type_id":"4","last_reported":1730732986,"current_range_meters":38800,"station_id":"ce4bhbh2rcd13ifvqepg","pricing_plan_id":"cebpf4jnsgd1na2vs0mg"},{"bike_id":"bfb4e9f1-502b-4eee-ad84-0c905afe5629","system_id":"levelo_inurba_marseille","lat":43.324811,"lon":5.365703,"is_reserved":false,"is_disabled":false,"rental_uris":{"android":"levelo://app?vid=bfb4e9f1-502b-4eee-ad84-0c905afe5629","ios":"levelo://app?vid=bfb4e9f1-502b-4eee-ad84-0c905afe5629"},"vehicle_type_id":"4","last_reported":1730732986,"current_range_meters":28400,"station_id":"ce4bhs12rcd13ifvqhvg","pricing_plan_id":"cebpf4jnsgd1na2vs0mg"},{"bike_id":"512ddf6d-33d9-4932-9b37-b059ab20f67d","system_id":"levelo_inurba_marseille","lat":43.3136,"lon":5.36714,"is_reserved":false,"is_disabled":false,"rental_uris":{"android":"levelo://app?vid=512ddf6d-33d9-4932-9b37-b059ab20f67d","ios":"levelo://app?vid=512ddf6d-33d9-4932-9b37-b059ab20f67d"},"vehicle_type_id":"4","last_reported":1730732986,"current_range_meters":25600,"station_id":"ce4bgr92rcd13ifvqc6g","pricing_plan_id":"cebpf4jnsgd1na2vs0mg"},{"bike_id":"1ffe9f47-19fe-4317-a897-31837241ff59","system_id":"levelo_inurba_marseille","lat":43.33023,"lon":5.39042,"is_reserved":false,"is_disabled":false,"rental_uris":{"android":"levelo://app?vid=1ffe9f47-19fe-4317-a897-31837241ff59","ios":"levelo://app?vid=1ffe9f47-19fe-4317-a897-31837241ff59"},"vehicle_type_id":"4","last_reported":1730732986,"current_range_meters":30800,"station_id":"ce4bhr92rcd13ifvqhrg","pricing_plan_id":"cebpf4jnsgd1na2vs0mg"},{"bike_id":"0688e1f9-1bf1-4863-9a6f-f01b30b1aed3","system_id":"levelo_inurba_marseille","lat":43.2846,"lon":5.35888,"is_reserved":false,"is_disabled":false,"rental_uris":{"android":"levelo://app?vid=0688e1f9-1bf1-4863-9a6f-f01b30b1aed3","ios":"levelo://app?vid=0688e1f9-1bf1-4863-9a6f-f01b30b1aed3"},"vehicle_type_id":"4","last_reported":1730732986,"current_range_meters":6800,"station_id":"ce4bhah2rcd13ifvqei0","pricing_plan_id":"cebpf4jnsgd1na2vs0mg"},{"bike_id":"7833a730-f7be-4542-83be-093944561442","system_id":"levelo_inurba_marseille","lat":43.27999,"lon":5.40017,"is_reserved":false,"is_disabled":false,"rental_uris":{"android":"levelo://app?vid=7833a730-f7be-4542-83be-093944561442","ios":"levelo://app?vid=7833a730-f7be-4542-83be-093944561442"},"vehicle_type_id":"4","last_reported":1730732986,"current_range_meters":36800,"station_id":"ce4bho92rcd13ifvqh4g","pricing_plan_id":"cebpf4jnsgd1na2vs0mg"},{"bike_id":"649a33b6-61e9-46c5-9348-72ec547830cb","system_id":"levelo_inurba_marseille","lat":43.27178,"lon":5.40997,"is_reserved":false,"is_disabled":false,"rental_uris":{"android":"levelo://app?vid=649a33b6-61e9-46c5-9348-72ec547830cb","ios":"levelo://app?vid=649a33b6-61e9-46c5-9348-72ec547830cb"},"vehicle_type_id":"4","last_reported":1730732986,"current_range_meters":20000,"station_id":"ce4bhl12rcd13ifvqgf0","pricing_plan_id":"cebpf4jnsgd1na2vs0mg"},{"bike_id":"0518bf7c-6e44-434c-9918-35544ae00dc9","system_id":"levelo_inurba_marseille","lat":43.30886,"lon":5.39659,"is_reserved":false,"is_disabled":false,"rental_uris":{"android":"levelo://app?vid=0518bf7c-6e44-434c-9918-35544ae00dc9","ios":"levelo://app?vid=0518bf7c-6e44-434c-9918-35544ae00dc9"},"vehicle_type_id":"4","last_reported":1730732986,"current_range_meters":36800,"station_id":"ce4bh012rcd13ifvqcv0","pricing_plan_id":"cebpf4jnsgd1na2vs0mg"},{"bike_id":"162aa6f4-2b60-4330-816c-5cfedc6aeade","system_id":"levelo_inurba_marseille","lat":43.309265,"lon":5.390615,"is_reserved":false,"is_disabled":false,"rental_uris":{"android":"levelo://app?vid=162aa6f4-2b60-4330-816c-5cfedc6aeade","ios":"levelo://app?vid=162aa6f4-2b60-4330-816c-5cfedc6aeade"},"vehicle_type_id":"4","last_reported":1730732986,"current_range_meters":38800,"station_id":"ce4bgup2rcd13ifvqco0","pricing_plan_id":"cebpf4jnsgd1na2vs0mg"},{"bike_id":"589bd2b8-9799-4d5d-a4f3-b0f27fef0139","system_id":"levelo_inurba_marseille","lat":43.30882,"lon":5.39642,"is_reserved":false,"is_disabled":false,"rental_uris":{"android":"levelo://app?vid=589bd2b8-9799-4d5d-a4f3-b0f27fef0139","ios":"levelo://app?vid=589bd2b8-9799-4d5d-a4f3-b0f27fef0139"},"vehicle_type_id":"4","last_reported":1730732986,"current_range_meters":31200,"station_id":"ce4bh012rcd13ifvqcv0","pricing_plan_id":"cebpf4jnsgd1na2vs0mg"},{"bike_id":"d499ff9d-0d91-4731-b1f0-ac7d3a6569a2","system_id":"levelo_inurba_marseille","lat":43.29616,"lon":5.37727,"is_reserved":false,"is_disabled":false,"rental_uris":{"android":"levelo://app?vid=d499ff9d-0d91-4731-b1f0-ac7d3a6569a2","ios":"levelo://app?vid=d499ff9d-0d91-4731-b1f0-ac7d3a6569a2"},"vehicle_type_id":"4","last_reported":1730732986,"current_range_meters":38800,"station_id":"ce4bgi92rcd13ifvqb90","pricing_plan_id":"cebpf4jnsgd1na2vs0mg"},{"bike_id":"136a1de0-b521-43ec-849c-fa6fcfcf9676","system_id":"levelo_inurba_marseille","lat":43.28446,"lon":5.39194,"is_reserved":false,"is_disabled":false,"rental_uris":{"android":"levelo://app?vid=136a1de0-b521-43ec-849c-fa6fcfcf9676","ios":"levelo://app?vid=136a1de0-b521-43ec-849c-fa6fcfcf9676"},"vehicle_type_id":"4","last_reported":1730732986,"current_range_meters":16800,"station_id":"ce4bhoh2rcd13ifvqh5g","pricing_plan_id":"cebpf4jnsgd1na2vs0mg"},{"bike_id":"7ce77be2-28e6-467f-9494-16f057502bba","system_id":"levelo_inurba_marseille","lat":43.28148,"lon":5.42641,"is_reserved":false,"is_disabled":false,"rental_uris":{"android":"levelo://app?vid=7ce77be2-28e6-467f-9494-16f057502bba","ios":"levelo://app?vid=7ce77be2-28e6-467f-9494-16f057502bba"},"vehicle_type_id":"4","last_reported":1730732986,"current_range_meters":28400,"station_id":"ce4bhnh2rcd13ifvqgug","pricing_plan_id":"cebpf4jnsgd1na2vs0mg"},{"bike_id":"f63dafc9-8402-4cec-b685-af517b1923d7","system_id":"levelo_inurba_marseille","lat":43.29916,"lon":5.37472,"is_reserved":false,"is_disabled":false,"rental_uris":{"android":"levelo://app?vid=f63dafc9-8402-4cec-b685-af517b1923d7","ios":"levelo://app?vid=f63dafc9-8402-4cec-b685-af517b1923d7"},"vehicle_type_id":"4","last_reported":1730732986,"current_range_meters":38800,"station_id":"ce4bgjh2rcd13ifvqbg0","pricing_plan_id":"cebpf4jnsgd1na2vs0mg"},{"bike_id":"7b3ae219-1ff5-4524-b2b5-d742948597b1","system_id":"levelo_inurba_marseille","lat":43.28931,"lon":5.36636,"is_reserved":false,"is_disabled":false,"rental_uris":{"android":"levelo://app?vid=7b3ae219-1ff5-4524-b2b5-d742948597b1","ios":"levelo://app?vid=7b3ae219-1ff5-4524-b2b5-d742948597b1"},"vehicle_type_id":"4","last_reported":1730732986,"current_range_meters":22800,"station_id":"ce4bhap2rcd13ifvqek0","pricing_plan_id":"cebpf4jnsgd1na2vs0mg"},{"bike_id":"496d1592-f444-4219-9dc2-55373938e639","system_id":"levelo_inurba_marseille","lat":43.28155,"lon":5.42637,"is_reserved":false,"is_disabled":false,"rental_uris":{"android":"levelo://app?vid=496d1592-f444-4219-9dc2-55373938e639","ios":"levelo://app?vid=496d1592-f444-4219-9dc2-55373938e639"},"vehicle_type_id":"4","last_reported":1730732986,"current_range_meters":34800,"station_id":"ce4bhnh2rcd13ifvqgug","pricing_plan_id":"cebpf4jnsgd1na2vs0mg"},{"bike_id":"14232ff8-21e4-4bc1-a726-757f951f7500","system_id":"levelo_inurba_marseille","lat":43.25498,"lon":5.37649,"is_reserved":false,"is_disabled":false,"rental_uris":{"android":"levelo://app?vid=14232ff8-21e4-4bc1-a726-757f951f7500","ios":"levelo://app?vid=14232ff8-21e4-4bc1-a726-757f951f7500"},"vehicle_type_id":"4","last_reported":1730732986,"current_range_meters":39200,"station_id":"ce4bhh12rcd13ifvqff0","pricing_plan_id":"cebpf4jnsgd1na2vs0mg"},{"bike_id":"fe864fa1-a6be-40ac-9a7b-08fc0771f32d","system_id":"levelo_inurba_marseille","lat":43.28607,"lon":5.37071,"is_reserved":false,"is_disabled":false,"rental_uris":{"android":"levelo://app?vid=fe864fa1-a6be-40ac-9a7b-08fc0771f32d","ios":"levelo://app?vid=fe864fa1-a6be-40ac-9a7b-08fc0771f32d"},"vehicle_type_id":"4","last_reported":1730732986,"current_range_meters":27200,"station_id":"ce4bht12rcd13ifvqi60","pricing_plan_id":"cebpf4jnsgd1na2vs0mg"},{"bike_id":"8f52b134-c156-4606-adb9-e5dbccebc043","system_id":"levelo_inurba_marseille","lat":43.31325,"lon":5.39688,"is_reserved":false,"is_disabled":false,"rental_uris":{"android":"levelo://app?vid=8f52b134-c156-4606-adb9-e5dbccebc043","ios":"levelo://app?vid=8f52b134-c156-4606-adb9-e5dbccebc043"},"vehicle_type_id":"4","last_reported":1730732986,"current_range_meters":36400,"station_id":"ce4bgvp2rcd13ifvqcu0","pricing_plan_id":"cebpf4jnsgd1na2vs0mg"},{"bike_id":"9dc3374b-0b85-4a8b-88a8-db8ad8f687c8","system_id":"levelo_inurba_marseille","lat":43.24515,"lon":5.3873,"is_reserved":false,"is_disabled":false,"rental_uris":{"android":"levelo://app?vid=9dc3374b-0b85-4a8b-88a8-db8ad8f687c8","ios":"levelo://app?vid=9dc3374b-0b85-4a8b-88a8-db8ad8f687c8"},"vehicle_type_id":"4","last_reported":1730732986,"current_range_meters":8000,"station_id":"","pricing_plan_id":"cebpf4jnsgd1na2vs0mg"},{"bike_id":"1e9b88ab-5dad-4500-ab23-bfc24d806cd1","system_id":"levelo_inurba_marseille","lat":43.27669,"lon":5.38889,"is_reserved":false,"is_disabled":false,"rental_uris":{"android":"levelo://app?vid=1e9b88ab-5dad-4500-ab23-bfc24d806cd1","ios":"levelo://app?vid=1e9b88ab-5dad-4500-ab23-bfc24d806cd1"},"vehicle_type_id":"4","last_reported":1730732986,"current_range_meters":4400,"station_id":"ce4bhi12rcd13ifvqfo0","pricing_plan_id":"cebpf4jnsgd1na2vs0mg"},{"bike_id":"1cd29538-4c23-4f37-9705-54967db088b7","system_id":"levelo_inurba_marseille","lat":43.29578,"lon":5.36738,"is_reserved":false,"is_disabled":false,"rental_uris":{"android":"levelo://app?vid=1cd29538-4c23-4f37-9705-54967db088b7","ios":"levelo://app?vid=1cd29538-4c23-4f37-9705-54967db088b7"},"vehicle_type_id":"4","last_reported":1730732986,"current_range_meters":11600,"station_id":"ce4bgph2rcd13ifvqc2g","pricing_plan_id":"cebpf4jnsgd1na2vs0mg"},{"bike_id":"ae1d3dee-6f8b-491f-9ccd-fa32ad3b9f31","system_id":"levelo_inurba_marseille","lat":43.27367,"lon":5.36255,"is_reserved":false,"is_disabled":false,"rental_uris":{"android":"levelo://app?vid=ae1d3dee-6f8b-491f-9ccd-fa32ad3b9f31","ios":"levelo://app?vid=ae1d3dee-6f8b-491f-9ccd-fa32ad3b9f31"},"vehicle_type_id":"4","last_reported":1730732986,"current_range_meters":38800,"station_id":"ce4bhbh2rcd13ifvqeo0","pricing_plan_id":"cebpf4jnsgd1na2vs0mg"},{"bike_id":"f9662ece-88c7-445d-b4a0-485e3c8aa550","system_id":"levelo_inurba_marseille","lat":43.299593,"lon":5.384921,"is_reserved":false,"is_disabled":false,"rental_uris":{"android":"levelo://app?vid=f9662ece-88c7-445d-b4a0-485e3c8aa550","ios":"levelo://app?vid=f9662ece-88c7-445d-b4a0-485e3c8aa550"},"vehicle_type_id":"4","last_reported":1730732986,"current_range_meters":1600,"station_id":"ce4bh3p2rcd13ifvqdp0","pricing_plan_id":"cebpf4jnsgd1na2vs0mg"},{"bike_id":"778e839f-a43f-40d4-be5c-9f8db47e5925","system_id":"levelo_inurba_marseille","lat":43.2756,"lon":5.38428,"is_reserved":false,"is_disabled":false,"rental_uris":{"android":"levelo://app?vid=778e839f-a43f-40d4-be5c-9f8db47e5925","ios":"levelo://app?vid=778e839f-a43f-40d4-be5c-9f8db47e5925"},"vehicle_type_id":"4","last_reported":1730732986,"current_range_meters":18800,"station_id":"ce4bhh92rcd13ifvqfi0","pricing_plan_id":"cebpf4jnsgd1na2vs0mg"},{"bike_id":"60147ccd-b133-48a9-a6d5-d5c28a43669e","system_id":"levelo_inurba_marseille","lat":43.31359,"lon":5.36714,"is_reserved":false,"is_disabled":false,"rental_uris":{"android":"levelo://app?vid=60147ccd-b133-48a9-a6d5-d5c28a43669e","ios":"levelo://app?vid=60147ccd-b133-48a9-a6d5-d5c28a43669e"},"vehicle_type_id":"4","last_reported":1730732986,"current_range_meters":37600,"station_id":"ce4bgr92rcd13ifvqc6g","pricing_plan_id":"cebpf4jnsgd1na2vs0mg"},{"bike_id":"878421bc-e426-4b28-babf-d596ddfab673","system_id":"levelo_inurba_marseille","lat":43.304281,"lon":5.397404,"is_reserved":false,"is_disabled":false,"rental_uris":{"android":"levelo://app?vid=878421bc-e426-4b28-babf-d596ddfab673","ios":"levelo://app?vid=878421bc-e426-4b28-babf-d596ddfab673"},"vehicle_type_id":"4","last_reported":1730732986,"current_range_meters":8000,"station_id":"ce4bh092rcd13ifvqd20","pricing_plan_id":"cebpf4jnsgd1na2vs0mg"},{"bike_id":"f4520195-bb64-41aa-a417-a30b55020a47","system_id":"levelo_inurba_marseille","lat":43.29279,"lon":5.36852,"is_reserved":false,"is_disabled":false,"rental_uris":{"android":"levelo://app?vid=f4520195-bb64-41aa-a417-a30b55020a47","ios":"levelo://app?vid=f4520195-bb64-41aa-a417-a30b55020a47"},"vehicle_type_id":"4","last_reported":1730732986,"current_range_meters":23200,"station_id":"ce4bhbp2rcd13ifvqesg","pricing_plan_id":"cebpf4jnsgd1na2vs0mg"},{"bike_id":"2e1cbddc-1f65-49d1-b100-7b5fa0691434","system_id":"levelo_inurba_marseille","lat":43.2974,"lon":5.3768,"is_reserved":false,"is_disabled":false,"rental_uris":{"android":"levelo://app?vid=2e1cbddc-1f65-49d1-b100-7b5fa0691434","ios":"levelo://app?vid=2e1cbddc-1f65-49d1-b100-7b5fa0691434"},"vehicle_type_id":"4","last_reported":1730732986,"current_range_meters":38800,"station_id":"ce4bgkh2rcd13ifvqbl0","pricing_plan_id":"cebpf4jnsgd1na2vs0mg"},{"bike_id":"c60670a7-dfe0-4520-9a35-552c19e78a50","system_id":"levelo_inurba_marseille","lat":43.25584,"lon":5.38227,"is_reserved":false,"is_disabled":false,"rental_uris":{"android":"levelo://app?vid=c60670a7-dfe0-4520-9a35-552c19e78a50","ios":"levelo://app?vid=c60670a7-dfe0-4520-9a35-552c19e78a50"},"vehicle_type_id":"4","last_reported":1730732986,"current_range_meters":19200,"station_id":"ce4bhih2rcd13ifvqfs0","pricing_plan_id":"cebpf4jnsgd1na2vs0mg"},{"bike_id":"623e531d-6577-4856-a89c-453eed77ce59","system_id":"levelo_inurba_marseille","lat":43.25501,"lon":5.37652,"is_reserved":false,"is_disabled":false,"rental_uris":{"android":"levelo://app?vid=623e531d-6577-4856-a89c-453eed77ce59","ios":"levelo://app?vid=623e531d-6577-4856-a89c-453eed77ce59"},"vehicle_type_id":"4","last_reported":1730732986,"current_range_meters":25200,"station_id":"ce4bhh12rcd13ifvqff0","pricing_plan_id":"cebpf4jnsgd1na2vs0mg"},{"bike_id":"d4472d20-9c4b-4c70-ad00-3a005519a429","system_id":"levelo_inurba_marseille","lat":43.35368,"lon":5.35732,"is_reserved":false,"is_disabled":false,"rental_uris":{"android":"levelo://app?vid=d4472d20-9c4b-4c70-ad00-3a005519a429","ios":"levelo://app?vid=d4472d20-9c4b-4c70-ad00-3a005519a429"},"vehicle_type_id":"4","last_reported":1730732986,"current_range_meters":9600,"station_id":"","pricing_plan_id":"cebpf4jnsgd1na2vs0mg"},{"bike_id":"fb437164-89ce-44dd-9275-778bfe119013","system_id":"levelo_inurba_marseille","lat":43.262244,"lon":5.379043,"is_reserved":false,"is_disabled":false,"rental_uris":{"android":"levelo://app?vid=fb437164-89ce-44dd-9275-778bfe119013","ios":"levelo://app?vid=fb437164-89ce-44dd-9275-778bfe119013"},"vehicle_type_id":"4","last_reported":1730732986,"current_range_meters":6800,"station_id":"ce4bhjp2rcd13ifvqg90","pricing_plan_id":"cebpf4jnsgd1na2vs0mg"},{"bike_id":"683a8cd1-c1e1-4c7f-9ebd-2e1a712bb734","system_id":"levelo_inurba_marseille","lat":43.30105,"lon":5.39088,"is_reserved":false,"is_disabled":false,"rental_uris":{"android":"levelo://app?vid=683a8cd1-c1e1-4c7f-9ebd-2e1a712bb734","ios":"levelo://app?vid=683a8cd1-c1e1-4c7f-9ebd-2e1a712bb734"},"vehicle_type_id":"4","last_reported":1730732986,"current_range_meters":10800,"station_id":"ce4bh192rcd13ifvqdb0","pricing_plan_id":"cebpf4jnsgd1na2vs0mg"},{"bike_id":"950661e8-0595-470a-9ddd-41f041c4f5e5","system_id":"levelo_inurba_marseille","lat":43.32291,"lon":5.38264,"is_reserved":false,"is_disabled":false,"rental_uris":{"android":"levelo://app?vid=950661e8-0595-470a-9ddd-41f041c4f5e5","ios":"levelo://app?vid=950661e8-0595-470a-9ddd-41f041c4f5e5"},"vehicle_type_id":"4","last_reported":1730732986,"current_range_meters":17600,"station_id":"ce4bhr12rcd13ifvqhqg","pricing_plan_id":"cebpf4jnsgd1na2vs0mg"},{"bike_id":"cd774888-43f1-48a5-aa4b-07f054c97ab4","system_id":"levelo_inurba_marseille","lat":43.29917,"lon":5.37475,"is_reserved":false,"is_disabled":false,"rental_uris":{"android":"levelo://app?vid=cd774888-43f1-48a5-aa4b-07f054c97ab4","ios":"levelo://app?vid=cd774888-43f1-48a5-aa4b-07f054c97ab4"},"vehicle_type_id":"4","last_reported":1730732986,"current_range_meters":38800,"station_id":"ce4bgjh2rcd13ifvqbg0","pricing_plan_id":"cebpf4jnsgd1na2vs0mg"},{"bike_id":"255a3061-1362-41f1-8c13-ee9fca9da59e","system_id":"levelo_inurba_marseille","lat":43.23055,"lon":5.35502,"is_reserved":false,"is_disabled":false,"rental_uris":{"android":"levelo://app?vid=255a3061-1362-41f1-8c13-ee9fca9da59e","ios":"levelo://app?vid=255a3061-1362-41f1-8c13-ee9fca9da59e"},"vehicle_type_id":"4","last_reported":1730732986,"current_range_meters":25600,"station_id":"cpo3342slgdg3j2ifvpg","pricing_plan_id":"cebpf4jnsgd1na2vs0mg"},{"bike_id":"3998dd2e-5fdd-499d-8b6d-6161abf2dc93","system_id":"levelo_inurba_marseille","lat":43.30305,"lon":5.39211,"is_reserved":false,"is_disabled":false,"rental_uris":{"android":"levelo://app?vid=3998dd2e-5fdd-499d-8b6d-6161abf2dc93","ios":"levelo://app?vid=3998dd2e-5fdd-499d-8b6d-6161abf2dc93"},"vehicle_type_id":"4","last_reported":1730732986,"current_range_meters":32000,"station_id":"ce4bgkh2rcd13ifvqbk0","pricing_plan_id":"cebpf4jnsgd1na2vs0mg"},{"bike_id":"930d43cc-ce58-42b2-90cf-2769ef2665bc","system_id":"levelo_inurba_marseille","lat":43.30305,"lon":5.3921,"is_reserved":false,"is_disabled":false,"rental_uris":{"android":"levelo://app?vid=930d43cc-ce58-42b2-90cf-2769ef2665bc","ios":"levelo://app?vid=930d43cc-ce58-42b2-90cf-2769ef2665bc"},"vehicle_type_id":"4","last_reported":1730732986,"current_range_meters":19600,"station_id":"ce4bgkh2rcd13ifvqbk0","pricing_plan_id":"cebpf4jnsgd1na2vs0mg"},{"bike_id":"8692c708-6749-4cff-a161-ad26fb2f62aa","system_id":"levelo_inurba_marseille","lat":43.30606,"lon":5.37222,"is_reserved":false,"is_disabled":false,"rental_uris":{"android":"levelo://app?vid=8692c708-6749-4cff-a161-ad26fb2f62aa","ios":"levelo://app?vid=8692c708-6749-4cff-a161-ad26fb2f62aa"},"vehicle_type_id":"4","last_reported":1730732986,"current_range_meters":39200,"station_id":"ce4bgqh2rcd13ifvqc4g","pricing_plan_id":"cebpf4jnsgd1na2vs0mg"},{"bike_id":"b14cb5d2-a3a0-4560-ac96-25061beacbf8","system_id":"levelo_inurba_marseille","lat":43.26032,"lon":5.37545,"is_reserved":false,"is_disabled":false,"rental_uris":{"android":"levelo://app?vid=b14cb5d2-a3a0-4560-ac96-25061beacbf8","ios":"levelo://app?vid=b14cb5d2-a3a0-4560-ac96-25061beacbf8"},"vehicle_type_id":"4","last_reported":1730732986,"current_range_meters":20800,"station_id":"ce4bhgh2rcd13ifvqfa0","pricing_plan_id":"cebpf4jnsgd1na2vs0mg"},{"bike_id":"688cd58a-9095-47ee-9c89-3c6b1c9ca164","system_id":"levelo_inurba_marseille","lat":43.301271,"lon":5.398612,"is_reserved":false,"is_disabled":false,"rental_uris":{"android":"levelo://app?vid=688cd58a-9095-47ee-9c89-3c6b1c9ca164","ios":"levelo://app?vid=688cd58a-9095-47ee-9c89-3c6b1c9ca164"},"vehicle_type_id":"4","last_reported":1730732986,"current_range_meters":34000,"station_id":"ce4bh0h2rcd13ifvqd40","pricing_plan_id":"cebpf4jnsgd1na2vs0mg"},{"bike_id":"2dd40e8a-347a-4069-9f04-901c41b0a3c7","system_id":"levelo_inurba_marseille","lat":43.32108,"lon":5.36779,"is_reserved":false,"is_disabled":false,"rental_uris":{"android":"levelo://app?vid=2dd40e8a-347a-4069-9f04-901c41b0a3c7","ios":"levelo://app?vid=2dd40e8a-347a-4069-9f04-901c41b0a3c7"},"vehicle_type_id":"4","last_reported":1730732986,"current_range_meters":38800,"station_id":"ce4bhrh2rcd13ifvqhug","pricing_plan_id":"cebpf4jnsgd1na2vs0mg"},{"bike_id":"f07885a3-8955-4286-8b6c-1a2efd4c9e63","system_id":"levelo_inurba_marseille","lat":43.29259,"lon":5.40908,"is_reserved":false,"is_disabled":false,"rental_uris":{"android":"levelo://app?vid=f07885a3-8955-4286-8b6c-1a2efd4c9e63","ios":"levelo://app?vid=f07885a3-8955-4286-8b6c-1a2efd4c9e63"},"vehicle_type_id":"4","last_reported":1730732986,"current_range_meters":20800,"station_id":"ce4bh192rcd13ifvqdc0","pricing_plan_id":"cebpf4jnsgd1na2vs0mg"},{"bike_id":"dd1c653e-07c5-4669-ab2e-46f8e79ef3d2","system_id":"levelo_inurba_marseille","lat":43.32364,"lon":5.38884,"is_reserved":false,"is_disabled":false,"rental_uris":{"android":"levelo://app?vid=dd1c653e-07c5-4669-ab2e-46f8e79ef3d2","ios":"levelo://app?vid=dd1c653e-07c5-4669-ab2e-46f8e79ef3d2"},"vehicle_type_id":"4","last_reported":1730732986,"current_range_meters":32000,"station_id":"ce4bhqp2rcd13ifvqhog","pricing_plan_id":"cebpf4jnsgd1na2vs0mg"},{"bike_id":"121b7412-96a8-4851-b4bd-555f2b815b3f","system_id":"levelo_inurba_marseille","lat":43.30352,"lon":5.41877,"is_reserved":false,"is_disabled":false,"rental_uris":{"android":"levelo://app?vid=121b7412-96a8-4851-b4bd-555f2b815b3f","ios":"levelo://app?vid=121b7412-96a8-4851-b4bd-555f2b815b3f"},"vehicle_type_id":"4","last_reported":1730732986,"current_range_meters":27200,"station_id":"ce4bhop2rcd13ifvqh7g","pricing_plan_id":"cebpf4jnsgd1na2vs0mg"},{"bike_id":"b9cc143b-cd5e-4efe-9e51-43c4469f9ec3","system_id":"levelo_inurba_marseille","lat":43.30252,"lon":5.40061,"is_reserved":false,"is_disabled":false,"rental_uris":{"android":"levelo://app?vid=b9cc143b-cd5e-4efe-9e51-43c4469f9ec3","ios":"levelo://app?vid=b9cc143b-cd5e-4efe-9e51-43c4469f9ec3"},"vehicle_type_id":"4","last_reported":1730732986,"current_range_meters":9600,"station_id":"ce4bgvh2rcd13ifvqcs0","pricing_plan_id":"cebpf4jnsgd1na2vs0mg"},{"bike_id":"e20b044a-569c-44a1-90cf-80306a150e1e","system_id":"levelo_inurba_marseille","lat":43.26565,"lon":5.39032,"is_reserved":false,"is_disabled":false,"rental_uris":{"android":"levelo://app?vid=e20b044a-569c-44a1-90cf-80306a150e1e","ios":"levelo://app?vid=e20b044a-569c-44a1-90cf-80306a150e1e"},"vehicle_type_id":"4","last_reported":1730732986,"current_range_meters":37600,"station_id":"ce4bhe12rcd13ifvqf30","pricing_plan_id":"cebpf4jnsgd1na2vs0mg"},{"bike_id":"575820e0-f183-4408-be6c-ff75a4e3a4aa","system_id":"levelo_inurba_marseille","lat":43.26783,"lon":5.39415,"is_reserved":false,"is_disabled":false,"rental_uris":{"android":"levelo://app?vid=575820e0-f183-4408-be6c-ff75a4e3a4aa","ios":"levelo://app?vid=575820e0-f183-4408-be6c-ff75a4e3a4aa"},"vehicle_type_id":"4","last_reported":1730732986,"current_range_meters":16400,"station_id":"ce4bhh12rcd13ifvqfg0","pricing_plan_id":"cebpf4jnsgd1na2vs0mg"},{"bike_id":"a0a44a7f-fc0e-493c-85ef-5208307547f0","system_id":"levelo_inurba_marseille","lat":43.31485,"lon":5.37313,"is_reserved":false,"is_disabled":false,"rental_uris":{"android":"levelo://app?vid=a0a44a7f-fc0e-493c-85ef-5208307547f0","ios":"levelo://app?vid=a0a44a7f-fc0e-493c-85ef-5208307547f0"},"vehicle_type_id":"4","last_reported":1730732986,"current_range_meters":5600,"station_id":"ce4bgt12rcd13ifvqcd0","pricing_plan_id":"cebpf4jnsgd1na2vs0mg"},{"bike_id":"fdbb64f7-fdc6-4863-af24-b46c1c9b7ff0","system_id":"levelo_inurba_marseille","lat":43.29913,"lon":5.37475,"is_reserved":false,"is_disabled":false,"rental_uris":{"android":"levelo://app?vid=fdbb64f7-fdc6-4863-af24-b46c1c9b7ff0","ios":"levelo://app?vid=fdbb64f7-fdc6-4863-af24-b46c1c9b7ff0"},"vehicle_type_id":"4","last_reported":1730732986,"current_range_meters":36400,"station_id":"ce4bgjh2rcd13ifvqbg0","pricing_plan_id":"cebpf4jnsgd1na2vs0mg"},{"bike_id":"7d1bc146-2b7b-4aa9-9940-05f74ef5aad1","system_id":"levelo_inurba_marseille","lat":43.23964,"lon":5.36629,"is_reserved":false,"is_disabled":false,"rental_uris":{"android":"levelo://app?vid=7d1bc146-2b7b-4aa9-9940-05f74ef5aad1","ios":"levelo://app?vid=7d1bc146-2b7b-4aa9-9940-05f74ef5aad1"},"vehicle_type_id":"4","last_reported":1730732986,"current_range_meters":34800,"station_id":"ce4bhi12rcd13ifvqfp0","pricing_plan_id":"cebpf4jnsgd1na2vs0mg"},{"bike_id":"ea14ba1e-15bf-4de6-8146-fa1d4fa18917","system_id":"levelo_inurba_marseille","lat":43.28412,"lon":5.34975,"is_reserved":false,"is_disabled":false,"rental_uris":{"android":"levelo://app?vid=ea14ba1e-15bf-4de6-8146-fa1d4fa18917","ios":"levelo://app?vid=ea14ba1e-15bf-4de6-8146-fa1d4fa18917"},"vehicle_type_id":"4","last_reported":1730732986,"current_range_meters":20800,"station_id":"ce4bhbh2rcd13ifvqepg","pricing_plan_id":"cebpf4jnsgd1na2vs0mg"},{"bike_id":"cfceb85a-8c7b-4241-b2ee-fb768a9758e3","system_id":"levelo_inurba_marseille","lat":43.27997,"lon":5.41674,"is_reserved":false,"is_disabled":false,"rental_uris":{"android":"levelo://app?vid=cfceb85a-8c7b-4241-b2ee-fb768a9758e3","ios":"levelo://app?vid=cfceb85a-8c7b-4241-b2ee-fb768a9758e3"},"vehicle_type_id":"4","last_reported":1730732986,"current_range_meters":36400,"station_id":"ce4bho12rcd13ifvqh1g","pricing_plan_id":"cebpf4jnsgd1na2vs0mg"},{"bike_id":"c2374e86-aeb9-4ef8-be4b-94daf6e39bd1","system_id":"levelo_inurba_marseille","lat":43.3108,"lon":5.38357,"is_reserved":false,"is_disabled":false,"rental_uris":{"android":"levelo://app?vid=c2374e86-aeb9-4ef8-be4b-94daf6e39bd1","ios":"levelo://app?vid=c2374e86-aeb9-4ef8-be4b-94daf6e39bd1"},"vehicle_type_id":"4","last_reported":1730732986,"current_range_meters":24000,"station_id":"ce4bgv92rcd13ifvqcr0","pricing_plan_id":"cebpf4jnsgd1na2vs0mg"},{"bike_id":"4adb7e65-e18e-4ef1-be00-3ea3c7f6dd44","system_id":"levelo_inurba_marseille","lat":43.24082,"lon":5.37741,"is_reserved":false,"is_disabled":false,"rental_uris":{"android":"levelo://app?vid=4adb7e65-e18e-4ef1-be00-3ea3c7f6dd44","ios":"levelo://app?vid=4adb7e65-e18e-4ef1-be00-3ea3c7f6dd44"},"vehicle_type_id":"4","last_reported":1730732986,"current_range_meters":26800,"station_id":"ce4bhnp2rcd13ifvqgvg","pricing_plan_id":"cebpf4jnsgd1na2vs0mg"},{"bike_id":"98296e3d-4091-4ff0-b3df-e96994bd43fd","system_id":"levelo_inurba_marseille","lat":43.30971,"lon":5.39015,"is_reserved":false,"is_disabled":false,"rental_uris":{"android":"levelo://app?vid=98296e3d-4091-4ff0-b3df-e96994bd43fd","ios":"levelo://app?vid=98296e3d-4091-4ff0-b3df-e96994bd43fd"},"vehicle_type_id":"4","last_reported":1730732986,"current_range_meters":8800,"station_id":"ce4bgup2rcd13ifvqco0","pricing_plan_id":"cebpf4jnsgd1na2vs0mg"},{"bike_id":"ee3dccf9-22bf-4760-8927-68d482635c84","system_id":"levelo_inurba_marseille","lat":43.30548,"lon":5.36544,"is_reserved":false,"is_disabled":false,"rental_uris":{"android":"levelo://app?vid=ee3dccf9-22bf-4760-8927-68d482635c84","ios":"levelo://app?vid=ee3dccf9-22bf-4760-8927-68d482635c84"},"vehicle_type_id":"4","last_reported":1730732986,"current_range_meters":38800,"station_id":"ce4bgs12rcd13ifvqcag","pricing_plan_id":"cebpf4jnsgd1na2vs0mg"},{"bike_id":"ba8f5d9a-4861-4465-b828-23e2245ef053","system_id":"levelo_inurba_marseille","lat":43.23182,"lon":5.39987,"is_reserved":false,"is_disabled":false,"rental_uris":{"android":"levelo://app?vid=ba8f5d9a-4861-4465-b828-23e2245ef053","ios":"levelo://app?vid=ba8f5d9a-4861-4465-b828-23e2245ef053"},"vehicle_type_id":"4","last_reported":1730732986,"current_range_meters":28000,"station_id":"ce4bhn12rcd13ifvqgqg","pricing_plan_id":"cebpf4jnsgd1na2vs0mg"},{"bike_id":"93129c9d-046f-4034-8b52-f0c5ac3954fc","system_id":"levelo_inurba_marseille","lat":43.32364,"lon":5.38885,"is_reserved":false,"is_disabled":false,"rental_uris":{"android":"levelo://app?vid=93129c9d-046f-4034-8b52-f0c5ac3954fc","ios":"levelo://app?vid=93129c9d-046f-4034-8b52-f0c5ac3954fc"},"vehicle_type_id":"4","last_reported":1730732986,"current_range_meters":38400,"station_id":"ce4bhqp2rcd13ifvqhog","pricing_plan_id":"cebpf4jnsgd1na2vs0mg"},{"bike_id":"b22fc8a8-32a4-43b7-b65e-504387286a24","system_id":"levelo_inurba_marseille","lat":43.2781,"lon":5.40702,"is_reserved":false,"is_disabled":false,"rental_uris":{"android":"levelo://app?vid=b22fc8a8-32a4-43b7-b65e-504387286a24","ios":"levelo://app?vid=b22fc8a8-32a4-43b7-b65e-504387286a24"},"vehicle_type_id":"4","last_reported":1730732986,"current_range_meters":38800,"station_id":"ce4bhnh2rcd13ifvqgtg","pricing_plan_id":"cebpf4jnsgd1na2vs0mg"},{"bike_id":"3a2d294c-d931-4343-a368-97018df950ad","system_id":"levelo_inurba_marseille","lat":43.29689,"lon":5.37286,"is_reserved":false,"is_disabled":false,"rental_uris":{"android":"levelo://app?vid=3a2d294c-d931-4343-a368-97018df950ad","ios":"levelo://app?vid=3a2d294c-d931-4343-a368-97018df950ad"},"vehicle_type_id":"4","last_reported":1730732986,"current_range_meters":37600,"station_id":"ce4bgk12rcd13ifvqbj0","pricing_plan_id":"cebpf4jnsgd1na2vs0mg"},{"bike_id":"28b67a96-919a-46df-a5d6-b40fc5f7ef16","system_id":"levelo_inurba_marseille","lat":43.29554,"lon":5.42293,"is_reserved":false,"is_disabled":false,"rental_uris":{"android":"levelo://app?vid=28b67a96-919a-46df-a5d6-b40fc5f7ef16","ios":"levelo://app?vid=28b67a96-919a-46df-a5d6-b40fc5f7ef16"},"vehicle_type_id":"4","last_reported":1730732986,"current_range_meters":8800,"station_id":"ce4bhph2rcd13ifvqhdg","pricing_plan_id":"cebpf4jnsgd1na2vs0mg"},{"bike_id":"b6e46383-b60e-454e-8cf3-ada952bced88","system_id":"levelo_inurba_marseille","lat":43.32659,"lon":5.40996,"is_reserved":false,"is_disabled":false,"rental_uris":{"android":"levelo://app?vid=b6e46383-b60e-454e-8cf3-ada952bced88","ios":"levelo://app?vid=b6e46383-b60e-454e-8cf3-ada952bced88"},"vehicle_type_id":"4","last_reported":1730732986,"current_range_meters":33200,"station_id":"ce4bhpp2rcd13ifvqhgg","pricing_plan_id":"cebpf4jnsgd1na2vs0mg"},{"bike_id":"beeef4e4-0d45-4dfa-9ccc-aedb2ce31115","system_id":"levelo_inurba_marseille","lat":43.32109,"lon":5.36779,"is_reserved":false,"is_disabled":false,"rental_uris":{"android":"levelo://app?vid=beeef4e4-0d45-4dfa-9ccc-aedb2ce31115","ios":"levelo://app?vid=beeef4e4-0d45-4dfa-9ccc-aedb2ce31115"},"vehicle_type_id":"4","last_reported":1730732986,"current_range_meters":30000,"station_id":"ce4bhrh2rcd13ifvqhug","pricing_plan_id":"cebpf4jnsgd1na2vs0mg"},{"bike_id":"c4b4de27-f4f3-4ed4-a1df-62e4207ff633","system_id":"levelo_inurba_marseille","lat":43.26568,"lon":5.3902,"is_reserved":false,"is_disabled":false,"rental_uris":{"android":"levelo://app?vid=c4b4de27-f4f3-4ed4-a1df-62e4207ff633","ios":"levelo://app?vid=c4b4de27-f4f3-4ed4-a1df-62e4207ff633"},"vehicle_type_id":"4","last_reported":1730732986,"current_range_meters":19600,"station_id":"ce4bhe12rcd13ifvqf30","pricing_plan_id":"cebpf4jnsgd1na2vs0mg"},{"bike_id":"2e1d0cd1-8441-4ba8-b68e-cd7faa70a2e3","system_id":"levelo_inurba_marseille","lat":43.30544,"lon":5.36537,"is_reserved":false,"is_disabled":false,"rental_uris":{"android":"levelo://app?vid=2e1d0cd1-8441-4ba8-b68e-cd7faa70a2e3","ios":"levelo://app?vid=2e1d0cd1-8441-4ba8-b68e-cd7faa70a2e3"},"vehicle_type_id":"4","last_reported":1730732986,"current_range_meters":34000,"station_id":"ce4bgs12rcd13ifvqcag","pricing_plan_id":"cebpf4jnsgd1na2vs0mg"},{"bike_id":"71721fe2-35d7-41f2-9225-983e1943836f","system_id":"levelo_inurba_marseille","lat":43.33755,"lon":5.37472,"is_reserved":false,"is_disabled":false,"rental_uris":{"android":"levelo://app?vid=71721fe2-35d7-41f2-9225-983e1943836f","ios":"levelo://app?vid=71721fe2-35d7-41f2-9225-983e1943836f"},"vehicle_type_id":"4","last_reported":1730732986,"current_range_meters":38000,"station_id":"","pricing_plan_id":"cebpf4jnsgd1na2vs0mg"},{"bike_id":"aedeb29d-462a-4096-be19-58bc79cbbc12","system_id":"levelo_inurba_marseille","lat":43.2841,"lon":5.34991,"is_reserved":false,"is_disabled":false,"rental_uris":{"android":"levelo://app?vid=aedeb29d-462a-4096-be19-58bc79cbbc12","ios":"levelo://app?vid=aedeb29d-462a-4096-be19-58bc79cbbc12"},"vehicle_type_id":"4","last_reported":1730732986,"current_range_meters":36400,"station_id":"ce4bhbh2rcd13ifvqepg","pricing_plan_id":"cebpf4jnsgd1na2vs0mg"},{"bike_id":"697dd118-268c-406e-bad8-371dfe74ed47","system_id":"levelo_inurba_marseille","lat":43.31755,"lon":5.39015,"is_reserved":false,"is_disabled":false,"rental_uris":{"android":"levelo://app?vid=697dd118-268c-406e-bad8-371dfe74ed47","ios":"levelo://app?vid=697dd118-268c-406e-bad8-371dfe74ed47"},"vehicle_type_id":"4","last_reported":1730732986,"current_range_meters":38000,"station_id":"ce4bhqp2rcd13ifvqhng","pricing_plan_id":"cebpf4jnsgd1na2vs0mg"},{"bike_id":"edaaa422-0edc-4ce4-9f2b-9f6fb82b34d3","system_id":"levelo_inurba_marseille","lat":43.30302,"lon":5.36894,"is_reserved":false,"is_disabled":false,"rental_uris":{"android":"levelo://app?vid=edaaa422-0edc-4ce4-9f2b-9f6fb82b34d3","ios":"levelo://app?vid=edaaa422-0edc-4ce4-9f2b-9f6fb82b34d3"},"vehicle_type_id":"4","last_reported":1730732986,"current_range_meters":24400,"station_id":"ce4bgqh2rcd13ifvqc5g","pricing_plan_id":"cebpf4jnsgd1na2vs0mg"},{"bike_id":"64a09596-b72a-4c2c-b2d4-4d18f2310608","system_id":"levelo_inurba_marseille","lat":43.30912,"lon":5.36859,"is_reserved":false,"is_disabled":false,"rental_uris":{"android":"levelo://app?vid=64a09596-b72a-4c2c-b2d4-4d18f2310608","ios":"levelo://app?vid=64a09596-b72a-4c2c-b2d4-4d18f2310608"},"vehicle_type_id":"4","last_reported":1730732986,"current_range_meters":36400,"station_id":"ce4bgn92rcd13ifvqbvg","pricing_plan_id":"cebpf4jnsgd1na2vs0mg"},{"bike_id":"1404153c-9867-4e3f-81ae-208d5089b55d","system_id":"levelo_inurba_marseille","lat":43.29726,"lon":5.37694,"is_reserved":false,"is_disabled":false,"rental_uris":{"android":"levelo://app?vid=1404153c-9867-4e3f-81ae-208d5089b55d","ios":"levelo://app?vid=1404153c-9867-4e3f-81ae-208d5089b55d"},"vehicle_type_id":"4","last_reported":1730732986,"current_range_meters":38000,"station_id":"ce4bgkh2rcd13ifvqbl0","pricing_plan_id":"cebpf4jnsgd1na2vs0mg"},{"bike_id":"ad0b1c47-3b42-4ef4-b760-c7106501c60b","system_id":"levelo_inurba_marseille","lat":43.29799,"lon":5.38102,"is_reserved":false,"is_disabled":false,"rental_uris":{"android":"levelo://app?vid=ad0b1c47-3b42-4ef4-b760-c7106501c60b","ios":"levelo://app?vid=ad0b1c47-3b42-4ef4-b760-c7106501c60b"},"vehicle_type_id":"4","last_reported":1730732986,"current_range_meters":37600,"station_id":"ce4bgip2rcd13ifvqbb0","pricing_plan_id":"cebpf4jnsgd1na2vs0mg"},{"bike_id":"ba21ef20-5e7b-41b5-b91d-bece39556bba","system_id":"levelo_inurba_marseille","lat":43.23193,"lon":5.35556,"is_reserved":false,"is_disabled":false,"rental_uris":{"android":"levelo://app?vid=ba21ef20-5e7b-41b5-b91d-bece39556bba","ios":"levelo://app?vid=ba21ef20-5e7b-41b5-b91d-bece39556bba"},"vehicle_type_id":"4","last_reported":1730732986,"current_range_meters":8800,"station_id":"ce4bhu92rcd13ifvqi70","pricing_plan_id":"cebpf4jnsgd1na2vs0mg"},{"bike_id":"7580d83e-3d7c-46be-82b1-25f013a114af","system_id":"levelo_inurba_marseille","lat":43.3105,"lon":5.40099,"is_reserved":false,"is_disabled":false,"rental_uris":{"android":"levelo://app?vid=7580d83e-3d7c-46be-82b1-25f013a114af","ios":"levelo://app?vid=7580d83e-3d7c-46be-82b1-25f013a114af"},"vehicle_type_id":"4","last_reported":1730732986,"current_range_meters":21600,"station_id":"","pricing_plan_id":"cebpf4jnsgd1na2vs0mg"},{"bike_id":"0beee424-e81f-4821-93f8-913a6e29e82e","system_id":"levelo_inurba_marseille","lat":43.2306,"lon":5.35489,"is_reserved":false,"is_disabled":false,"rental_uris":{"android":"levelo://app?vid=0beee424-e81f-4821-93f8-913a6e29e82e","ios":"levelo://app?vid=0beee424-e81f-4821-93f8-913a6e29e82e"},"vehicle_type_id":"4","last_reported":1730732986,"current_range_meters":15200,"station_id":"cpo3342slgdg3j2ifvpg","pricing_plan_id":"cebpf4jnsgd1na2vs0mg"},{"bike_id":"7e3f7e2b-f01f-42bb-b62b-db0ff9b1b42a","system_id":"levelo_inurba_marseille","lat":43.30103,"lon":5.39086,"is_reserved":false,"is_disabled":false,"rental_uris":{"android":"levelo://app?vid=7e3f7e2b-f01f-42bb-b62b-db0ff9b1b42a","ios":"levelo://app?vid=7e3f7e2b-f01f-42bb-b62b-db0ff9b1b42a"},"vehicle_type_id":"4","last_reported":1730732986,"current_range_meters":30400,"station_id":"ce4bh192rcd13ifvqdb0","pricing_plan_id":"cebpf4jnsgd1na2vs0mg"},{"bike_id":"20776b46-775c-4274-b1bb-17617b49f6ee","system_id":"levelo_inurba_marseille","lat":43.29277,"lon":5.36855,"is_reserved":false,"is_disabled":false,"rental_uris":{"android":"levelo://app?vid=20776b46-775c-4274-b1bb-17617b49f6ee","ios":"levelo://app?vid=20776b46-775c-4274-b1bb-17617b49f6ee"},"vehicle_type_id":"4","last_reported":1730732986,"current_range_meters":27600,"station_id":"ce4bhbp2rcd13ifvqesg","pricing_plan_id":"cebpf4jnsgd1na2vs0mg"},{"bike_id":"77c279c2-b4e7-4ad5-bb1b-8767695daf0c","system_id":"levelo_inurba_marseille","lat":43.283552,"lon":5.386479,"is_reserved":false,"is_disabled":false,"rental_uris":{"android":"levelo://app?vid=77c279c2-b4e7-4ad5-bb1b-8767695daf0c","ios":"levelo://app?vid=77c279c2-b4e7-4ad5-bb1b-8767695daf0c"},"vehicle_type_id":"4","last_reported":1730732986,"current_range_meters":8400,"station_id":"ce4bh492rcd13ifvqdvg","pricing_plan_id":"cebpf4jnsgd1na2vs0mg"},{"bike_id":"be7aabf2-8d71-4b4c-ab6d-1b248a204c09","system_id":"levelo_inurba_marseille","lat":43.30899,"lon":5.37197,"is_reserved":false,"is_disabled":false,"rental_uris":{"android":"levelo://app?vid=be7aabf2-8d71-4b4c-ab6d-1b248a204c09","ios":"levelo://app?vid=be7aabf2-8d71-4b4c-ab6d-1b248a204c09"},"vehicle_type_id":"4","last_reported":1730732986,"current_range_meters":33600,"station_id":"ce4bguh2rcd13ifvqckg","pricing_plan_id":"cebpf4jnsgd1na2vs0mg"},{"bike_id":"23b46b90-b3ee-45fd-9980-2cfc8c1baa04","system_id":"levelo_inurba_marseille","lat":43.30187,"lon":5.36623,"is_reserved":false,"is_disabled":false,"rental_uris":{"android":"levelo://app?vid=23b46b90-b3ee-45fd-9980-2cfc8c1baa04","ios":"levelo://app?vid=23b46b90-b3ee-45fd-9980-2cfc8c1baa04"},"vehicle_type_id":"4","last_reported":1730732986,"current_range_meters":39200,"station_id":"ce4bgrh2rcd13ifvqc8g","pricing_plan_id":"cebpf4jnsgd1na2vs0mg"},{"bike_id":"a5975bf1-e924-4cd5-b161-96639ddc7956","system_id":"levelo_inurba_marseille","lat":43.259983,"lon":5.375144,"is_reserved":false,"is_disabled":false,"rental_uris":{"android":"levelo://app?vid=a5975bf1-e924-4cd5-b161-96639ddc7956","ios":"levelo://app?vid=a5975bf1-e924-4cd5-b161-96639ddc7956"},"vehicle_type_id":"4","last_reported":1730732986,"current_range_meters":34800,"station_id":"ce4bgjh2rcd13ifvqbg0","pricing_plan_id":"cebpf4jnsgd1na2vs0mg"},{"bike_id":"89549fb5-98d9-4611-ad87-48575e4e75fe","system_id":"levelo_inurba_marseille","lat":43.31713,"lon":5.43711,"is_reserved":false,"is_disabled":false,"rental_uris":{"android":"levelo://app?vid=89549fb5-98d9-4611-ad87-48575e4e75fe","ios":"levelo://app?vid=89549fb5-98d9-4611-ad87-48575e4e75fe"},"vehicle_type_id":"4","last_reported":1730732986,"current_range_meters":37600,"station_id":"ce4bhp92rcd13ifvqhcg","pricing_plan_id":"cebpf4jnsgd1na2vs0mg"},{"bike_id":"819340a6-562b-46a4-9301-df7b52968f6c","system_id":"levelo_inurba_marseille","lat":43.25112,"lon":5.40319,"is_reserved":false,"is_disabled":false,"rental_uris":{"android":"levelo://app?vid=819340a6-562b-46a4-9301-df7b52968f6c","ios":"levelo://app?vid=819340a6-562b-46a4-9301-df7b52968f6c"},"vehicle_type_id":"4","last_reported":1730732986,"current_range_meters":10800,"station_id":"ce4bhlh2rcd13ifvqgig","pricing_plan_id":"cebpf4jnsgd1na2vs0mg"},{"bike_id":"a035d7c0-002e-4c1c-aa57-136bdfe10c4c","system_id":"levelo_inurba_marseille","lat":43.27995,"lon":5.41669,"is_reserved":false,"is_disabled":false,"rental_uris":{"android":"levelo://app?vid=a035d7c0-002e-4c1c-aa57-136bdfe10c4c","ios":"levelo://app?vid=a035d7c0-002e-4c1c-aa57-136bdfe10c4c"},"vehicle_type_id":"4","last_reported":1730732986,"current_range_meters":17200,"station_id":"ce4bho12rcd13ifvqh1g","pricing_plan_id":"cebpf4jnsgd1na2vs0mg"},{"bike_id":"84826187-31ec-4949-bd9b-654531a44675","system_id":"levelo_inurba_marseille","lat":43.23155,"lon":5.43699,"is_reserved":false,"is_disabled":false,"rental_uris":{"android":"levelo://app?vid=84826187-31ec-4949-bd9b-654531a44675","ios":"levelo://app?vid=84826187-31ec-4949-bd9b-654531a44675"},"vehicle_type_id":"4","last_reported":1730732986,"current_range_meters":23200,"station_id":"ce4bhmp2rcd13ifvqgog","pricing_plan_id":"cebpf4jnsgd1na2vs0mg"},{"bike_id":"00cfba8d-c12d-4c96-889d-6e07a2141dda","system_id":"levelo_inurba_marseille","lat":43.30884,"lon":5.39645,"is_reserved":false,"is_disabled":false,"rental_uris":{"android":"levelo://app?vid=00cfba8d-c12d-4c96-889d-6e07a2141dda","ios":"levelo://app?vid=00cfba8d-c12d-4c96-889d-6e07a2141dda"},"vehicle_type_id":"4","last_reported":1730732986,"current_range_meters":39200,"station_id":"ce4bh012rcd13ifvqcv0","pricing_plan_id":"cebpf4jnsgd1na2vs0mg"},{"bike_id":"dc95cb76-e093-4d96-b931-136ca659f89b","system_id":"levelo_inurba_marseille","lat":43.25933,"lon":5.4091,"is_reserved":false,"is_disabled":false,"rental_uris":{"android":"levelo://app?vid=dc95cb76-e093-4d96-b931-136ca659f89b","ios":"levelo://app?vid=dc95cb76-e093-4d96-b931-136ca659f89b"},"vehicle_type_id":"4","last_reported":1730732986,"current_range_meters":8800,"station_id":"ce4bhm92rcd13ifvqglg","pricing_plan_id":"cebpf4jnsgd1na2vs0mg"},{"bike_id":"909fd824-d8fe-4d38-b958-5046d8c9169b","system_id":"levelo_inurba_marseille","lat":43.32485,"lon":5.36561,"is_reserved":false,"is_disabled":false,"rental_uris":{"android":"levelo://app?vid=909fd824-d8fe-4d38-b958-5046d8c9169b","ios":"levelo://app?vid=909fd824-d8fe-4d38-b958-5046d8c9169b"},"vehicle_type_id":"4","last_reported":1730732986,"current_range_meters":38800,"station_id":"ce4bhs12rcd13ifvqhvg","pricing_plan_id":"cebpf4jnsgd1na2vs0mg"},{"bike_id":"62586ee7-732e-4ef4-a2d4-24dec49e55b5","system_id":"levelo_inurba_marseille","lat":43.29796,"lon":5.38099,"is_reserved":false,"is_disabled":false,"rental_uris":{"android":"levelo://app?vid=62586ee7-732e-4ef4-a2d4-24dec49e55b5","ios":"levelo://app?vid=62586ee7-732e-4ef4-a2d4-24dec49e55b5"},"vehicle_type_id":"4","last_reported":1730732986,"current_range_meters":36400,"station_id":"ce4bgip2rcd13ifvqbb0","pricing_plan_id":"cebpf4jnsgd1na2vs0mg"},{"bike_id":"14d5433a-9b52-4d98-94be-1fdcb521a294","system_id":"levelo_inurba_marseille","lat":43.25497,"lon":5.37648,"is_reserved":false,"is_disabled":false,"rental_uris":{"android":"levelo://app?vid=14d5433a-9b52-4d98-94be-1fdcb521a294","ios":"levelo://app?vid=14d5433a-9b52-4d98-94be-1fdcb521a294"},"vehicle_type_id":"4","last_reported":1730732986,"current_range_meters":23200,"station_id":"ce4bhh12rcd13ifvqff0","pricing_plan_id":"cebpf4jnsgd1na2vs0mg"},{"bike_id":"ce599b26-6a13-488a-942a-a75ab2c90250","system_id":"levelo_inurba_marseille","lat":43.23196,"lon":5.35548,"is_reserved":false,"is_disabled":false,"rental_uris":{"android":"levelo://app?vid=ce599b26-6a13-488a-942a-a75ab2c90250","ios":"levelo://app?vid=ce599b26-6a13-488a-942a-a75ab2c90250"},"vehicle_type_id":"4","last_reported":1730732986,"current_range_meters":36000,"station_id":"ce4bhu92rcd13ifvqi70","pricing_plan_id":"cebpf4jnsgd1na2vs0mg"},{"bike_id":"99cd7339-1074-48b7-a379-4e9f7702e72a","system_id":"levelo_inurba_marseille","lat":43.23681,"lon":5.36268,"is_reserved":false,"is_disabled":false,"rental_uris":{"android":"levelo://app?vid=99cd7339-1074-48b7-a379-4e9f7702e72a","ios":"levelo://app?vid=99cd7339-1074-48b7-a379-4e9f7702e72a"},"vehicle_type_id":"4","last_reported":1730732986,"current_range_meters":19200,"station_id":"","pricing_plan_id":"cebpf4jnsgd1na2vs0mg"},{"bike_id":"00fa663e-ca43-453d-afb5-fe8b2d7b7459","system_id":"levelo_inurba_marseille","lat":43.30543,"lon":5.36534,"is_reserved":false,"is_disabled":false,"rental_uris":{"android":"levelo://app?vid=00fa663e-ca43-453d-afb5-fe8b2d7b7459","ios":"levelo://app?vid=00fa663e-ca43-453d-afb5-fe8b2d7b7459"},"vehicle_type_id":"4","last_reported":1730732986,"current_range_meters":38800,"station_id":"ce4bgs12rcd13ifvqcag","pricing_plan_id":"cebpf4jnsgd1na2vs0mg"},{"bike_id":"06cdb889-2e53-4522-9cb4-d51192d7df18","system_id":"levelo_inurba_marseille","lat":43.27914,"lon":5.3958,"is_reserved":false,"is_disabled":false,"rental_uris":{"android":"levelo://app?vid=06cdb889-2e53-4522-9cb4-d51192d7df18","ios":"levelo://app?vid=06cdb889-2e53-4522-9cb4-d51192d7df18"},"vehicle_type_id":"4","last_reported":1730732986,"current_range_meters":14000,"station_id":"ce4bhf92rcd13ifvqf40","pricing_plan_id":"cebpf4jnsgd1na2vs0mg"},{"bike_id":"858fe4a2-47a1-4be7-a61c-f8a32fae1bf2","system_id":"levelo_inurba_marseille","lat":43.25113,"lon":5.40323,"is_reserved":false,"is_disabled":false,"rental_uris":{"android":"levelo://app?vid=858fe4a2-47a1-4be7-a61c-f8a32fae1bf2","ios":"levelo://app?vid=858fe4a2-47a1-4be7-a61c-f8a32fae1bf2"},"vehicle_type_id":"4","last_reported":1730732986,"current_range_meters":12800,"station_id":"ce4bhlh2rcd13ifvqgig","pricing_plan_id":"cebpf4jnsgd1na2vs0mg"},{"bike_id":"7b026c2c-af94-48bb-8e64-355014faf4cc","system_id":"levelo_inurba_marseille","lat":43.3136,"lon":5.36726,"is_reserved":false,"is_disabled":false,"rental_uris":{"android":"levelo://app?vid=7b026c2c-af94-48bb-8e64-355014faf4cc","ios":"levelo://app?vid=7b026c2c-af94-48bb-8e64-355014faf4cc"},"vehicle_type_id":"4","last_reported":1730732986,"current_range_meters":38400,"station_id":"ce4bgr92rcd13ifvqc6g","pricing_plan_id":"cebpf4jnsgd1na2vs0mg"},{"bike_id":"a5df0f9a-a782-4c62-b213-01b3cf0175ee","system_id":"levelo_inurba_marseille","lat":43.29044,"lon":5.35913,"is_reserved":false,"is_disabled":false,"rental_uris":{"android":"levelo://app?vid=a5df0f9a-a782-4c62-b213-01b3cf0175ee","ios":"levelo://app?vid=a5df0f9a-a782-4c62-b213-01b3cf0175ee"},"vehicle_type_id":"4","last_reported":1730732986,"current_range_meters":28400,"station_id":"ce4bha92rcd13ifvqeg0","pricing_plan_id":"cebpf4jnsgd1na2vs0mg"},{"bike_id":"bbc4afbc-13e4-40b2-8eeb-b8c01dbe8875","system_id":"levelo_inurba_marseille","lat":43.3014,"lon":5.37422,"is_reserved":false,"is_disabled":false,"rental_uris":{"android":"levelo://app?vid=bbc4afbc-13e4-40b2-8eeb-b8c01dbe8875","ios":"levelo://app?vid=bbc4afbc-13e4-40b2-8eeb-b8c01dbe8875"},"vehicle_type_id":"4","last_reported":1730732986,"current_range_meters":38800,"station_id":"ce4bgs92rcd13ifvqcc0","pricing_plan_id":"cebpf4jnsgd1na2vs0mg"},{"bike_id":"ed3cc475-9352-4500-9e2a-f8144dc4b6f1","system_id":"levelo_inurba_marseille","lat":43.3302,"lon":5.39043,"is_reserved":false,"is_disabled":false,"rental_uris":{"android":"levelo://app?vid=ed3cc475-9352-4500-9e2a-f8144dc4b6f1","ios":"levelo://app?vid=ed3cc475-9352-4500-9e2a-f8144dc4b6f1"},"vehicle_type_id":"4","last_reported":1730732986,"current_range_meters":32000,"station_id":"ce4bhr92rcd13ifvqhrg","pricing_plan_id":"cebpf4jnsgd1na2vs0mg"},{"bike_id":"20ba62ee-2151-4dc9-8a72-2d3c7b78e768","system_id":"levelo_inurba_marseille","lat":43.2594,"lon":5.40902,"is_reserved":false,"is_disabled":false,"rental_uris":{"android":"levelo://app?vid=20ba62ee-2151-4dc9-8a72-2d3c7b78e768","ios":"levelo://app?vid=20ba62ee-2151-4dc9-8a72-2d3c7b78e768"},"vehicle_type_id":"4","last_reported":1730732986,"current_range_meters":33200,"station_id":"ce4bhm92rcd13ifvqglg","pricing_plan_id":"cebpf4jnsgd1na2vs0mg"},{"bike_id":"fe144177-327f-48aa-98bf-b0d3318680db","system_id":"levelo_inurba_marseille","lat":43.24081,"lon":5.37751,"is_reserved":false,"is_disabled":false,"rental_uris":{"android":"levelo://app?vid=fe144177-327f-48aa-98bf-b0d3318680db","ios":"levelo://app?vid=fe144177-327f-48aa-98bf-b0d3318680db"},"vehicle_type_id":"4","last_reported":1730732986,"current_range_meters":10000,"station_id":"ce4bhnp2rcd13ifvqgvg","pricing_plan_id":"cebpf4jnsgd1na2vs0mg"},{"bike_id":"3044ab8e-3335-40b2-9308-f3d6604164a9","system_id":"levelo_inurba_marseille","lat":43.30547,"lon":5.3654,"is_reserved":false,"is_disabled":false,"rental_uris":{"android":"levelo://app?vid=3044ab8e-3335-40b2-9308-f3d6604164a9","ios":"levelo://app?vid=3044ab8e-3335-40b2-9308-f3d6604164a9"},"vehicle_type_id":"4","last_reported":1730732986,"current_range_meters":38800,"station_id":"ce4bgs12rcd13ifvqcag","pricing_plan_id":"cebpf4jnsgd1na2vs0mg"},{"bike_id":"7e1ee2f9-dc8e-4d45-a825-28addf6dfb4f","system_id":"levelo_inurba_marseille","lat":43.26777,"lon":5.39418,"is_reserved":false,"is_disabled":false,"rental_uris":{"android":"levelo://app?vid=7e1ee2f9-dc8e-4d45-a825-28addf6dfb4f","ios":"levelo://app?vid=7e1ee2f9-dc8e-4d45-a825-28addf6dfb4f"},"vehicle_type_id":"4","last_reported":1730732986,"current_range_meters":26000,"station_id":"ce4bhh12rcd13ifvqfg0","pricing_plan_id":"cebpf4jnsgd1na2vs0mg"},{"bike_id":"7a58136c-3165-4313-8fac-2c364b399752","system_id":"levelo_inurba_marseille","lat":43.33725,"lon":5.39182,"is_reserved":false,"is_disabled":false,"rental_uris":{"android":"levelo://app?vid=7a58136c-3165-4313-8fac-2c364b399752","ios":"levelo://app?vid=7a58136c-3165-4313-8fac-2c364b399752"},"vehicle_type_id":"4","last_reported":1730732986,"current_range_meters":28000,"station_id":"ce4bhr92rcd13ifvqhsg","pricing_plan_id":"cebpf4jnsgd1na2vs0mg"},{"bike_id":"cf31692d-1fdf-4a85-b4b7-9a031edac417","system_id":"levelo_inurba_marseille","lat":43.23965,"lon":5.36635,"is_reserved":false,"is_disabled":false,"rental_uris":{"android":"levelo://app?vid=cf31692d-1fdf-4a85-b4b7-9a031edac417","ios":"levelo://app?vid=cf31692d-1fdf-4a85-b4b7-9a031edac417"},"vehicle_type_id":"4","last_reported":1730732986,"current_range_meters":18800,"station_id":"ce4bhi12rcd13ifvqfp0","pricing_plan_id":"cebpf4jnsgd1na2vs0mg"},{"bike_id":"36259d5c-4ce3-49e0-b930-c3e861962fce","system_id":"levelo_inurba_marseille","lat":43.30639,"lon":5.40081,"is_reserved":false,"is_disabled":false,"rental_uris":{"android":"levelo://app?vid=36259d5c-4ce3-49e0-b930-c3e861962fce","ios":"levelo://app?vid=36259d5c-4ce3-49e0-b930-c3e861962fce"},"vehicle_type_id":"4","last_reported":1730732986,"current_range_meters":19600,"station_id":"ce4bh112rcd13ifvqda0","pricing_plan_id":"cebpf4jnsgd1na2vs0mg"},{"bike_id":"a3ae4c1b-8ed3-43f0-95b2-9f60ca274476","system_id":"levelo_inurba_marseille","lat":43.32478,"lon":5.36576,"is_reserved":false,"is_disabled":false,"rental_uris":{"android":"levelo://app?vid=a3ae4c1b-8ed3-43f0-95b2-9f60ca274476","ios":"levelo://app?vid=a3ae4c1b-8ed3-43f0-95b2-9f60ca274476"},"vehicle_type_id":"4","last_reported":1730732986,"current_range_meters":38800,"station_id":"ce4bhs12rcd13ifvqhvg","pricing_plan_id":"cebpf4jnsgd1na2vs0mg"},{"bike_id":"8a46c949-ee43-49c1-b2c9-e24858ba0e3c","system_id":"levelo_inurba_marseille","lat":43.30801,"lon":5.38164,"is_reserved":false,"is_disabled":false,"rental_uris":{"android":"levelo://app?vid=8a46c949-ee43-49c1-b2c9-e24858ba0e3c","ios":"levelo://app?vid=8a46c949-ee43-49c1-b2c9-e24858ba0e3c"},"vehicle_type_id":"4","last_reported":1730732986,"current_range_meters":14400,"station_id":"ce4bgt12rcd13ifvqce0","pricing_plan_id":"cebpf4jnsgd1na2vs0mg"},{"bike_id":"ae07168f-7292-4251-bd5d-8c0db70825a7","system_id":"levelo_inurba_marseille","lat":43.29161,"lon":5.37159,"is_reserved":false,"is_disabled":false,"rental_uris":{"android":"levelo://app?vid=ae07168f-7292-4251-bd5d-8c0db70825a7","ios":"levelo://app?vid=ae07168f-7292-4251-bd5d-8c0db70825a7"},"vehicle_type_id":"4","last_reported":1730732986,"current_range_meters":25200,"station_id":"ce4bha92rcd13ifvqeh0","pricing_plan_id":"cebpf4jnsgd1na2vs0mg"},{"bike_id":"34a23a4a-08df-4347-9ded-96d2e9692733","system_id":"levelo_inurba_marseille","lat":43.31114,"lon":5.37777,"is_reserved":false,"is_disabled":false,"rental_uris":{"android":"levelo://app?vid=34a23a4a-08df-4347-9ded-96d2e9692733","ios":"levelo://app?vid=34a23a4a-08df-4347-9ded-96d2e9692733"},"vehicle_type_id":"4","last_reported":1730732986,"current_range_meters":28400,"station_id":"ce4bgt92rcd13ifvqcg0","pricing_plan_id":"cebpf4jnsgd1na2vs0mg"},{"bike_id":"287d660f-98b6-46fc-807a-3d0421b9fc22","system_id":"levelo_inurba_marseille","lat":43.26788,"lon":5.39419,"is_reserved":false,"is_disabled":false,"rental_uris":{"android":"levelo://app?vid=287d660f-98b6-46fc-807a-3d0421b9fc22","ios":"levelo://app?vid=287d660f-98b6-46fc-807a-3d0421b9fc22"},"vehicle_type_id":"4","last_reported":1730732986,"current_range_meters":38800,"station_id":"ce4bhh12rcd13ifvqfg0","pricing_plan_id":"cebpf4jnsgd1na2vs0mg"},{"bike_id":"5fc7697d-503e-4786-89d0-c5a0408a66b0","system_id":"levelo_inurba_marseille","lat":43.32107,"lon":5.36771,"is_reserved":false,"is_disabled":false,"rental_uris":{"android":"levelo://app?vid=5fc7697d-503e-4786-89d0-c5a0408a66b0","ios":"levelo://app?vid=5fc7697d-503e-4786-89d0-c5a0408a66b0"},"vehicle_type_id":"4","last_reported":1730732986,"current_range_meters":4800,"station_id":"ce4bhrh2rcd13ifvqhug","pricing_plan_id":"cebpf4jnsgd1na2vs0mg"},{"bike_id":"11631e5a-25f5-4552-899d-dc0c452dab65","system_id":"levelo_inurba_marseille","lat":43.32366,"lon":5.38898,"is_reserved":false,"is_disabled":false,"rental_uris":{"android":"levelo://app?vid=11631e5a-25f5-4552-899d-dc0c452dab65","ios":"levelo://app?vid=11631e5a-25f5-4552-899d-dc0c452dab65"},"vehicle_type_id":"4","last_reported":1730732986,"current_range_meters":38800,"station_id":"ce4bhqp2rcd13ifvqhog","pricing_plan_id":"cebpf4jnsgd1na2vs0mg"},{"bike_id":"ad6b9979-2833-497c-ae59-5afeb88a87ce","system_id":"levelo_inurba_marseille","lat":43.32363,"lon":5.36767,"is_reserved":false,"is_disabled":false,"rental_uris":{"android":"levelo://app?vid=ad6b9979-2833-497c-ae59-5afeb88a87ce","ios":"levelo://app?vid=ad6b9979-2833-497c-ae59-5afeb88a87ce"},"vehicle_type_id":"4","last_reported":1730732986,"current_range_meters":36400,"station_id":"ce4bhsh2rcd13ifvqi2g","pricing_plan_id":"cebpf4jnsgd1na2vs0mg"},{"bike_id":"21047ea7-1217-4889-9524-4350d2e53afa","system_id":"levelo_inurba_marseille","lat":43.29915,"lon":5.37478,"is_reserved":false,"is_disabled":false,"rental_uris":{"android":"levelo://app?vid=21047ea7-1217-4889-9524-4350d2e53afa","ios":"levelo://app?vid=21047ea7-1217-4889-9524-4350d2e53afa"},"vehicle_type_id":"4","last_reported":1730732986,"current_range_meters":38800,"station_id":"ce4bgjh2rcd13ifvqbg0","pricing_plan_id":"cebpf4jnsgd1na2vs0mg"},{"bike_id":"d4986669-7915-4670-b6a2-ebbac77a12b0","system_id":"levelo_inurba_marseille","lat":43.30296,"lon":5.39205,"is_reserved":false,"is_disabled":false,"rental_uris":{"android":"levelo://app?vid=d4986669-7915-4670-b6a2-ebbac77a12b0","ios":"levelo://app?vid=d4986669-7915-4670-b6a2-ebbac77a12b0"},"vehicle_type_id":"4","last_reported":1730732986,"current_range_meters":25600,"station_id":"ce4bgkh2rcd13ifvqbk0","pricing_plan_id":"cebpf4jnsgd1na2vs0mg"},{"bike_id":"e6283396-20ac-48e9-9f84-4f08fc403c1c","system_id":"levelo_inurba_marseille","lat":43.2989,"lon":5.389,"is_reserved":false,"is_disabled":false,"rental_uris":{"android":"levelo://app?vid=e6283396-20ac-48e9-9f84-4f08fc403c1c","ios":"levelo://app?vid=e6283396-20ac-48e9-9f84-4f08fc403c1c"},"vehicle_type_id":"4","last_reported":1730732986,"current_range_meters":20400,"station_id":"ce4bh392rcd13ifvqdl0","pricing_plan_id":"cebpf4jnsgd1na2vs0mg"},{"bike_id":"d9e44b36-1873-43d5-8e67-c2ca998db9e0","system_id":"levelo_inurba_marseille","lat":43.24808,"lon":5.3746,"is_reserved":false,"is_disabled":false,"rental_uris":{"android":"levelo://app?vid=d9e44b36-1873-43d5-8e67-c2ca998db9e0","ios":"levelo://app?vid=d9e44b36-1873-43d5-8e67-c2ca998db9e0"},"vehicle_type_id":"4","last_reported":1730732986,"current_range_meters":32400,"station_id":"ce4bhgh2rcd13ifvqfb0","pricing_plan_id":"cebpf4jnsgd1na2vs0mg"},{"bike_id":"29bc6180-a326-437a-a82e-133190ee6ec6","system_id":"levelo_inurba_marseille","lat":43.26788,"lon":5.3942,"is_reserved":false,"is_disabled":false,"rental_uris":{"android":"levelo://app?vid=29bc6180-a326-437a-a82e-133190ee6ec6","ios":"levelo://app?vid=29bc6180-a326-437a-a82e-133190ee6ec6"},"vehicle_type_id":"4","last_reported":1730732986,"current_range_meters":38800,"station_id":"ce4bhh12rcd13ifvqfg0","pricing_plan_id":"cebpf4jnsgd1na2vs0mg"},{"bike_id":"dcfc3314-3fae-4653-8172-afb46edd1ad2","system_id":"levelo_inurba_marseille","lat":43.30544,"lon":5.36542,"is_reserved":false,"is_disabled":false,"rental_uris":{"android":"levelo://app?vid=dcfc3314-3fae-4653-8172-afb46edd1ad2","ios":"levelo://app?vid=dcfc3314-3fae-4653-8172-afb46edd1ad2"},"vehicle_type_id":"4","last_reported":1730732986,"current_range_meters":29600,"station_id":"ce4bgs12rcd13ifvqcag","pricing_plan_id":"cebpf4jnsgd1na2vs0mg"},{"bike_id":"d60d3d74-2f71-4c97-95bf-041a595a8c09","system_id":"levelo_inurba_marseille","lat":43.29053,"lon":5.3591,"is_reserved":false,"is_disabled":false,"rental_uris":{"android":"levelo://app?vid=d60d3d74-2f71-4c97-95bf-041a595a8c09","ios":"levelo://app?vid=d60d3d74-2f71-4c97-95bf-041a595a8c09"},"vehicle_type_id":"4","last_reported":1730732986,"current_range_meters":30800,"station_id":"ce4bha92rcd13ifvqeg0","pricing_plan_id":"cebpf4jnsgd1na2vs0mg"},{"bike_id":"d1d75a46-49e0-4f3b-acbe-49b92e64d384","system_id":"levelo_inurba_marseille","lat":43.29599,"lon":5.38101,"is_reserved":false,"is_disabled":false,"rental_uris":{"android":"levelo://app?vid=d1d75a46-49e0-4f3b-acbe-49b92e64d384","ios":"levelo://app?vid=d1d75a46-49e0-4f3b-acbe-49b92e64d384"},"vehicle_type_id":"4","last_reported":1730732986,"current_range_meters":37600,"station_id":"ce4bgl12rcd13ifvqbo0","pricing_plan_id":"cebpf4jnsgd1na2vs0mg"},{"bike_id":"3838bf13-f503-42b3-b3c5-002531244d86","system_id":"levelo_inurba_marseille","lat":43.28909,"lon":5.35432,"is_reserved":false,"is_disabled":false,"rental_uris":{"android":"levelo://app?vid=3838bf13-f503-42b3-b3c5-002531244d86","ios":"levelo://app?vid=3838bf13-f503-42b3-b3c5-002531244d86"},"vehicle_type_id":"4","last_reported":1730732986,"current_range_meters":6000,"station_id":"ce4bhbp2rcd13ifvqerg","pricing_plan_id":"cebpf4jnsgd1na2vs0mg"},{"bike_id":"5a1f6623-1ee7-47ed-b333-eda22bb3b163","system_id":"levelo_inurba_marseille","lat":43.29936,"lon":5.3655,"is_reserved":false,"is_disabled":false,"rental_uris":{"android":"levelo://app?vid=5a1f6623-1ee7-47ed-b333-eda22bb3b163","ios":"levelo://app?vid=5a1f6623-1ee7-47ed-b333-eda22bb3b163"},"vehicle_type_id":"4","last_reported":1730732986,"current_range_meters":10000,"station_id":"ce4bgm92rcd13ifvqbr0","pricing_plan_id":"cebpf4jnsgd1na2vs0mg"},{"bike_id":"61aa1e52-cd2b-4b0b-8dba-07f4e7ceba7a","system_id":"levelo_inurba_marseille","lat":43.308,"lon":5.38153,"is_reserved":false,"is_disabled":false,"rental_uris":{"android":"levelo://app?vid=61aa1e52-cd2b-4b0b-8dba-07f4e7ceba7a","ios":"levelo://app?vid=61aa1e52-cd2b-4b0b-8dba-07f4e7ceba7a"},"vehicle_type_id":"4","last_reported":1730732986,"current_range_meters":39200,"station_id":"ce4bgt12rcd13ifvqce0","pricing_plan_id":"cebpf4jnsgd1na2vs0mg"},{"bike_id":"f18d76b3-aff3-44f0-97ce-80dd35e5f78d","system_id":"levelo_inurba_marseille","lat":43.3137,"lon":5.36704,"is_reserved":false,"is_disabled":false,"rental_uris":{"android":"levelo://app?vid=f18d76b3-aff3-44f0-97ce-80dd35e5f78d","ios":"levelo://app?vid=f18d76b3-aff3-44f0-97ce-80dd35e5f78d"},"vehicle_type_id":"4","last_reported":1730732986,"current_range_meters":28800,"station_id":"ce4bgr92rcd13ifvqc6g","pricing_plan_id":"cebpf4jnsgd1na2vs0mg"},{"bike_id":"7ff0acce-06b8-4c84-9632-ef83fcc6939b","system_id":"levelo_inurba_marseille","lat":43.2738,"lon":5.36263,"is_reserved":false,"is_disabled":false,"rental_uris":{"android":"levelo://app?vid=7ff0acce-06b8-4c84-9632-ef83fcc6939b","ios":"levelo://app?vid=7ff0acce-06b8-4c84-9632-ef83fcc6939b"},"vehicle_type_id":"4","last_reported":1730732986,"current_range_meters":29600,"station_id":"ce4bhbh2rcd13ifvqeo0","pricing_plan_id":"cebpf4jnsgd1na2vs0mg"},{"bike_id":"69187bb1-60a3-4d66-8aea-ce997b8e1106","system_id":"levelo_inurba_marseille","lat":43.32364,"lon":5.38883,"is_reserved":false,"is_disabled":false,"rental_uris":{"android":"levelo://app?vid=69187bb1-60a3-4d66-8aea-ce997b8e1106","ios":"levelo://app?vid=69187bb1-60a3-4d66-8aea-ce997b8e1106"},"vehicle_type_id":"4","last_reported":1730732986,"current_range_meters":38000,"station_id":"ce4bhqp2rcd13ifvqhog","pricing_plan_id":"cebpf4jnsgd1na2vs0mg"},{"bike_id":"baef9837-9362-4b9e-8378-e964f8208509","system_id":"levelo_inurba_marseille","lat":43.25498,"lon":5.3765,"is_reserved":false,"is_disabled":false,"rental_uris":{"android":"levelo://app?vid=baef9837-9362-4b9e-8378-e964f8208509","ios":"levelo://app?vid=baef9837-9362-4b9e-8378-e964f8208509"},"vehicle_type_id":"4","last_reported":1730732986,"current_range_meters":25200,"station_id":"ce4bhh12rcd13ifvqff0","pricing_plan_id":"cebpf4jnsgd1na2vs0mg"},{"bike_id":"d448b494-8d02-4d55-bcfa-5d758a3c4e7e","system_id":"levelo_inurba_marseille","lat":43.30147,"lon":5.38068,"is_reserved":false,"is_disabled":false,"rental_uris":{"android":"levelo://app?vid=d448b494-8d02-4d55-bcfa-5d758a3c4e7e","ios":"levelo://app?vid=d448b494-8d02-4d55-bcfa-5d758a3c4e7e"},"vehicle_type_id":"4","last_reported":1730732986,"current_range_meters":31200,"station_id":"ce4bgjp2rcd13ifvqbh0","pricing_plan_id":"cebpf4jnsgd1na2vs0mg"},{"bike_id":"4e72ee59-bdfc-4fc6-9bd8-4ee90be7da9c","system_id":"levelo_inurba_marseille","lat":43.25108,"lon":5.4033,"is_reserved":false,"is_disabled":false,"rental_uris":{"android":"levelo://app?vid=4e72ee59-bdfc-4fc6-9bd8-4ee90be7da9c","ios":"levelo://app?vid=4e72ee59-bdfc-4fc6-9bd8-4ee90be7da9c"},"vehicle_type_id":"4","last_reported":1730732986,"current_range_meters":17600,"station_id":"ce4bhlh2rcd13ifvqgig","pricing_plan_id":"cebpf4jnsgd1na2vs0mg"},{"bike_id":"3bf2def7-4cbf-4aad-98dc-e99bf1be49f0","system_id":"levelo_inurba_marseille","lat":43.29603,"lon":5.38089,"is_reserved":false,"is_disabled":false,"rental_uris":{"android":"levelo://app?vid=3bf2def7-4cbf-4aad-98dc-e99bf1be49f0","ios":"levelo://app?vid=3bf2def7-4cbf-4aad-98dc-e99bf1be49f0"},"vehicle_type_id":"4","last_reported":1730732986,"current_range_meters":8000,"station_id":"ce4bgl12rcd13ifvqbo0","pricing_plan_id":"cebpf4jnsgd1na2vs0mg"},{"bike_id":"f8dbc652-ac84-4474-91c2-e460adda3d35","system_id":"levelo_inurba_marseille","lat":43.28271,"lon":5.35063,"is_reserved":false,"is_disabled":false,"rental_uris":{"android":"levelo://app?vid=f8dbc652-ac84-4474-91c2-e460adda3d35","ios":"levelo://app?vid=f8dbc652-ac84-4474-91c2-e460adda3d35"},"vehicle_type_id":"4","last_reported":1730732986,"current_range_meters":28800,"station_id":"ce4bhbp2rcd13ifvqerg","pricing_plan_id":"cebpf4jnsgd1na2vs0mg"},{"bike_id":"cb81e8a1-f5c2-4c95-bfcd-076f7f535ffd","system_id":"levelo_inurba_marseille","lat":43.29727,"lon":5.37162,"is_reserved":false,"is_disabled":false,"rental_uris":{"android":"levelo://app?vid=cb81e8a1-f5c2-4c95-bfcd-076f7f535ffd","ios":"levelo://app?vid=cb81e8a1-f5c2-4c95-bfcd-076f7f535ffd"},"vehicle_type_id":"4","last_reported":1730732986,"current_range_meters":18800,"station_id":"","pricing_plan_id":"cebpf4jnsgd1na2vs0mg"},{"bike_id":"5a5ca637-4a18-4597-b859-7ab9a6b224f3","system_id":"levelo_inurba_marseille","lat":43.2315,"lon":5.43727,"is_reserved":false,"is_disabled":false,"rental_uris":{"android":"levelo://app?vid=5a5ca637-4a18-4597-b859-7ab9a6b224f3","ios":"levelo://app?vid=5a5ca637-4a18-4597-b859-7ab9a6b224f3"},"vehicle_type_id":"4","last_reported":1730732986,"current_range_meters":8400,"station_id":"ce4bhmp2rcd13ifvqgog","pricing_plan_id":"cebpf4jnsgd1na2vs0mg"},{"bike_id":"3ebd69e1-4536-4fb7-9a65-ac352147a962","system_id":"levelo_inurba_marseille","lat":43.29729,"lon":5.3768,"is_reserved":false,"is_disabled":false,"rental_uris":{"android":"levelo://app?vid=3ebd69e1-4536-4fb7-9a65-ac352147a962","ios":"levelo://app?vid=3ebd69e1-4536-4fb7-9a65-ac352147a962"},"vehicle_type_id":"4","last_reported":1730732986,"current_range_meters":12400,"station_id":"ce4bgkh2rcd13ifvqbl0","pricing_plan_id":"cebpf4jnsgd1na2vs0mg"},{"bike_id":"b702005a-a075-4b19-920d-35f33b2ab811","system_id":"levelo_inurba_marseille","lat":43.29585,"lon":5.37507,"is_reserved":false,"is_disabled":false,"rental_uris":{"android":"levelo://app?vid=b702005a-a075-4b19-920d-35f33b2ab811","ios":"levelo://app?vid=b702005a-a075-4b19-920d-35f33b2ab811"},"vehicle_type_id":"4","last_reported":1730732986,"current_range_meters":30400,"station_id":"ce4bgh92rcd13ifvqb50","pricing_plan_id":"cebpf4jnsgd1na2vs0mg"},{"bike_id":"9cf37a04-7516-40f7-a24d-2934a3e75eb3","system_id":"levelo_inurba_marseille","lat":43.30088,"lon":5.38551,"is_reserved":false,"is_disabled":false,"rental_uris":{"android":"levelo://app?vid=9cf37a04-7516-40f7-a24d-2934a3e75eb3","ios":"levelo://app?vid=9cf37a04-7516-40f7-a24d-2934a3e75eb3"},"vehicle_type_id":"4","last_reported":1730732986,"current_range_meters":28400,"station_id":"ce4bgj92rcd13ifvqbd0","pricing_plan_id":"cebpf4jnsgd1na2vs0mg"},{"bike_id":"c2e5ff9a-9dd4-479a-9dd6-52948c6f960c","system_id":"levelo_inurba_marseille","lat":43.33754,"lon":5.37492,"is_reserved":false,"is_disabled":false,"rental_uris":{"android":"levelo://app?vid=c2e5ff9a-9dd4-479a-9dd6-52948c6f960c","ios":"levelo://app?vid=c2e5ff9a-9dd4-479a-9dd6-52948c6f960c"},"vehicle_type_id":"4","last_reported":1730732986,"current_range_meters":28400,"station_id":"","pricing_plan_id":"cebpf4jnsgd1na2vs0mg"},{"bike_id":"e517e444-219d-4b66-9484-eb2ced9a385a","system_id":"levelo_inurba_marseille","lat":43.29791,"lon":5.38098,"is_reserved":false,"is_disabled":false,"rental_uris":{"android":"levelo://app?vid=e517e444-219d-4b66-9484-eb2ced9a385a","ios":"levelo://app?vid=e517e444-219d-4b66-9484-eb2ced9a385a"},"vehicle_type_id":"4","last_reported":1730732986,"current_range_meters":30400,"station_id":"ce4bgip2rcd13ifvqbb0","pricing_plan_id":"cebpf4jnsgd1na2vs0mg"},{"bike_id":"b1078aa1-07c9-43e0-baad-b05bfd4fd1d1","system_id":"levelo_inurba_marseille","lat":43.30544,"lon":5.36552,"is_reserved":false,"is_disabled":false,"rental_uris":{"android":"levelo://app?vid=b1078aa1-07c9-43e0-baad-b05bfd4fd1d1","ios":"levelo://app?vid=b1078aa1-07c9-43e0-baad-b05bfd4fd1d1"},"vehicle_type_id":"4","last_reported":1730732986,"current_range_meters":18000,"station_id":"ce4bgs12rcd13ifvqcag","pricing_plan_id":"cebpf4jnsgd1na2vs0mg"},{"bike_id":"a7ce3e07-385e-4247-9f14-8d58313f5c7d","system_id":"levelo_inurba_marseille","lat":43.30952,"lon":5.36914,"is_reserved":false,"is_disabled":false,"rental_uris":{"android":"levelo://app?vid=a7ce3e07-385e-4247-9f14-8d58313f5c7d","ios":"levelo://app?vid=a7ce3e07-385e-4247-9f14-8d58313f5c7d"},"vehicle_type_id":"4","last_reported":1730732986,"current_range_meters":6000,"station_id":"","pricing_plan_id":"cebpf4jnsgd1na2vs0mg"},{"bike_id":"ee6dc93d-e844-4ea2-bb35-b8c149fe16f1","system_id":"levelo_inurba_marseille","lat":43.27316,"lon":5.39086,"is_reserved":false,"is_disabled":false,"rental_uris":{"android":"levelo://app?vid=ee6dc93d-e844-4ea2-bb35-b8c149fe16f1","ios":"levelo://app?vid=ee6dc93d-e844-4ea2-bb35-b8c149fe16f1"},"vehicle_type_id":"4","last_reported":1730732986,"current_range_meters":37600,"station_id":"ce4bhgp2rcd13ifvqfe0","pricing_plan_id":"cebpf4jnsgd1na2vs0mg"},{"bike_id":"b660520d-7bca-4b11-8965-e79652640606","system_id":"levelo_inurba_marseille","lat":43.32369,"lon":5.36775,"is_reserved":false,"is_disabled":false,"rental_uris":{"android":"levelo://app?vid=b660520d-7bca-4b11-8965-e79652640606","ios":"levelo://app?vid=b660520d-7bca-4b11-8965-e79652640606"},"vehicle_type_id":"4","last_reported":1730732986,"current_range_meters":7200,"station_id":"ce4bhsh2rcd13ifvqi2g","pricing_plan_id":"cebpf4jnsgd1na2vs0mg"},{"bike_id":"0f8631b3-44c5-4e4a-94f6-c3d76695632e","system_id":"levelo_inurba_marseille","lat":43.30311,"lon":5.39209,"is_reserved":false,"is_disabled":false,"rental_uris":{"android":"levelo://app?vid=0f8631b3-44c5-4e4a-94f6-c3d76695632e","ios":"levelo://app?vid=0f8631b3-44c5-4e4a-94f6-c3d76695632e"},"vehicle_type_id":"4","last_reported":1730732986,"current_range_meters":25600,"station_id":"ce4bgkh2rcd13ifvqbk0","pricing_plan_id":"cebpf4jnsgd1na2vs0mg"},{"bike_id":"7b2daa43-2d7a-4e1a-b26e-724f64bf4f37","system_id":"levelo_inurba_marseille","lat":43.28419,"lon":5.34993,"is_reserved":false,"is_disabled":false,"rental_uris":{"android":"levelo://app?vid=7b2daa43-2d7a-4e1a-b26e-724f64bf4f37","ios":"levelo://app?vid=7b2daa43-2d7a-4e1a-b26e-724f64bf4f37"},"vehicle_type_id":"4","last_reported":1730732986,"current_range_meters":38000,"station_id":"ce4bhbh2rcd13ifvqepg","pricing_plan_id":"cebpf4jnsgd1na2vs0mg"},{"bike_id":"b47feee7-ca7b-44b8-983a-5ad0ad2fb4fe","system_id":"levelo_inurba_marseille","lat":43.27206,"lon":5.39195,"is_reserved":false,"is_disabled":false,"rental_uris":{"android":"levelo://app?vid=b47feee7-ca7b-44b8-983a-5ad0ad2fb4fe","ios":"levelo://app?vid=b47feee7-ca7b-44b8-983a-5ad0ad2fb4fe"},"vehicle_type_id":"4","last_reported":1730732986,"current_range_meters":12000,"station_id":"ce4bhhp2rcd13ifvqfm0","pricing_plan_id":"cebpf4jnsgd1na2vs0mg"},{"bike_id":"9a4ea406-b8e0-4d3b-8c0c-5dba91c1f0a5","system_id":"levelo_inurba_marseille","lat":43.26552,"lon":5.37289,"is_reserved":false,"is_disabled":false,"rental_uris":{"android":"levelo://app?vid=9a4ea406-b8e0-4d3b-8c0c-5dba91c1f0a5","ios":"levelo://app?vid=9a4ea406-b8e0-4d3b-8c0c-5dba91c1f0a5"},"vehicle_type_id":"4","last_reported":1730732986,"current_range_meters":38400,"station_id":"ce4bhg12rcd13ifvqf70","pricing_plan_id":"cebpf4jnsgd1na2vs0mg"},{"bike_id":"2926062e-5f14-4237-b5dc-d3f172c05bfd","system_id":"levelo_inurba_marseille","lat":43.29567,"lon":5.37546,"is_reserved":false,"is_disabled":false,"rental_uris":{"android":"levelo://app?vid=2926062e-5f14-4237-b5dc-d3f172c05bfd","ios":"levelo://app?vid=2926062e-5f14-4237-b5dc-d3f172c05bfd"},"vehicle_type_id":"4","last_reported":1730732986,"current_range_meters":16400,"station_id":"ce4bgh92rcd13ifvqb50","pricing_plan_id":"cebpf4jnsgd1na2vs0mg"},{"bike_id":"8ac6def7-ea62-4f1e-b26c-73b953ec155e","system_id":"levelo_inurba_marseille","lat":43.31365,"lon":5.36718,"is_reserved":false,"is_disabled":false,"rental_uris":{"android":"levelo://app?vid=8ac6def7-ea62-4f1e-b26c-73b953ec155e","ios":"levelo://app?vid=8ac6def7-ea62-4f1e-b26c-73b953ec155e"},"vehicle_type_id":"4","last_reported":1730732986,"current_range_meters":36800,"station_id":"ce4bgr92rcd13ifvqc6g","pricing_plan_id":"cebpf4jnsgd1na2vs0mg"},{"bike_id":"20b7314e-debb-4933-bfda-4d615c84f941","system_id":"levelo_inurba_marseille","lat":43.28464,"lon":5.35904,"is_reserved":false,"is_disabled":false,"rental_uris":{"android":"levelo://app?vid=20b7314e-debb-4933-bfda-4d615c84f941","ios":"levelo://app?vid=20b7314e-debb-4933-bfda-4d615c84f941"},"vehicle_type_id":"4","last_reported":1730732986,"current_range_meters":32800,"station_id":"ce4bhah2rcd13ifvqej0","pricing_plan_id":"cebpf4jnsgd1na2vs0mg"},{"bike_id":"0e37ae4c-69ae-496a-a176-5f7c3911d75d","system_id":"levelo_inurba_marseille","lat":43.29619,"lon":5.37724,"is_reserved":false,"is_disabled":false,"rental_uris":{"android":"levelo://app?vid=0e37ae4c-69ae-496a-a176-5f7c3911d75d","ios":"levelo://app?vid=0e37ae4c-69ae-496a-a176-5f7c3911d75d"},"vehicle_type_id":"4","last_reported":1730732986,"current_range_meters":38800,"station_id":"ce4bgi92rcd13ifvqb90","pricing_plan_id":"cebpf4jnsgd1na2vs0mg"},{"bike_id":"fa1fd2e1-2704-45a7-af39-a93b100b9cd2","system_id":"levelo_inurba_marseille","lat":43.297985,"lon":5.381013,"is_reserved":false,"is_disabled":false,"rental_uris":{"android":"levelo://app?vid=fa1fd2e1-2704-45a7-af39-a93b100b9cd2","ios":"levelo://app?vid=fa1fd2e1-2704-45a7-af39-a93b100b9cd2"},"vehicle_type_id":"4","last_reported":1730732986,"current_range_meters":38800,"station_id":"ce4bgip2rcd13ifvqbb0","pricing_plan_id":"cebpf4jnsgd1na2vs0mg"},{"bike_id":"fdf85f82-06fb-4005-a9f1-179228b5b879","system_id":"levelo_inurba_marseille","lat":43.292,"lon":5.35817,"is_reserved":false,"is_disabled":false,"rental_uris":{"android":"levelo://app?vid=fdf85f82-06fb-4005-a9f1-179228b5b879","ios":"levelo://app?vid=fdf85f82-06fb-4005-a9f1-179228b5b879"},"vehicle_type_id":"4","last_reported":1730732986,"current_range_meters":38000,"station_id":"ce4bhb12rcd13ifvqel0","pricing_plan_id":"cebpf4jnsgd1na2vs0mg"},{"bike_id":"a8728af4-1433-4719-9f1a-af851156fb3b","system_id":"levelo_inurba_marseille","lat":43.29799,"lon":5.38096,"is_reserved":false,"is_disabled":false,"rental_uris":{"android":"levelo://app?vid=a8728af4-1433-4719-9f1a-af851156fb3b","ios":"levelo://app?vid=a8728af4-1433-4719-9f1a-af851156fb3b"},"vehicle_type_id":"4","last_reported":1730732986,"current_range_meters":39200,"station_id":"ce4bgip2rcd13ifvqbb0","pricing_plan_id":"cebpf4jnsgd1na2vs0mg"},{"bike_id":"87953497-0718-4edf-9fd9-38a5a46cc7f3","system_id":"levelo_inurba_marseille","lat":43.24077,"lon":5.37748,"is_reserved":false,"is_disabled":false,"rental_uris":{"android":"levelo://app?vid=87953497-0718-4edf-9fd9-38a5a46cc7f3","ios":"levelo://app?vid=87953497-0718-4edf-9fd9-38a5a46cc7f3"},"vehicle_type_id":"4","last_reported":1730732986,"current_range_meters":38800,"station_id":"ce4bhnp2rcd13ifvqgvg","pricing_plan_id":"cebpf4jnsgd1na2vs0mg"},{"bike_id":"328af48d-3db0-406d-8b9d-90b41d97e90b","system_id":"levelo_inurba_marseille","lat":43.31353,"lon":5.36723,"is_reserved":false,"is_disabled":false,"rental_uris":{"android":"levelo://app?vid=328af48d-3db0-406d-8b9d-90b41d97e90b","ios":"levelo://app?vid=328af48d-3db0-406d-8b9d-90b41d97e90b"},"vehicle_type_id":"4","last_reported":1730732986,"current_range_meters":30400,"station_id":"ce4bgr92rcd13ifvqc6g","pricing_plan_id":"cebpf4jnsgd1na2vs0mg"},{"bike_id":"2a61b11c-78ef-46a2-9170-9cbf37d0816a","system_id":"levelo_inurba_marseille","lat":43.26567,"lon":5.39012,"is_reserved":false,"is_disabled":false,"rental_uris":{"android":"levelo://app?vid=2a61b11c-78ef-46a2-9170-9cbf37d0816a","ios":"levelo://app?vid=2a61b11c-78ef-46a2-9170-9cbf37d0816a"},"vehicle_type_id":"4","last_reported":1730732986,"current_range_meters":3600,"station_id":"ce4bhe12rcd13ifvqf30","pricing_plan_id":"cebpf4jnsgd1na2vs0mg"},{"bike_id":"e0da1455-c69c-4b35-bb2f-f97ca282332d","system_id":"levelo_inurba_marseille","lat":43.29304,"lon":5.37171,"is_reserved":false,"is_disabled":false,"rental_uris":{"android":"levelo://app?vid=e0da1455-c69c-4b35-bb2f-f97ca282332d","ios":"levelo://app?vid=e0da1455-c69c-4b35-bb2f-f97ca282332d"},"vehicle_type_id":"4","last_reported":1730732986,"current_range_meters":26800,"station_id":"ce4bgh92rcd13ifvqb40","pricing_plan_id":"cebpf4jnsgd1na2vs0mg"},{"bike_id":"ffae7a5c-51e7-46f5-bce7-80f7a54a4745","system_id":"levelo_inurba_marseille","lat":43.23193,"lon":5.35551,"is_reserved":false,"is_disabled":false,"rental_uris":{"android":"levelo://app?vid=ffae7a5c-51e7-46f5-bce7-80f7a54a4745","ios":"levelo://app?vid=ffae7a5c-51e7-46f5-bce7-80f7a54a4745"},"vehicle_type_id":"4","last_reported":1730732986,"current_range_meters":4800,"station_id":"ce4bhu92rcd13ifvqi70","pricing_plan_id":"cebpf4jnsgd1na2vs0mg"},{"bike_id":"4c8e72b5-aba7-4439-8dcc-1e2370b4bb8a","system_id":"levelo_inurba_marseille","lat":43.308,"lon":5.43524,"is_reserved":false,"is_disabled":false,"rental_uris":{"android":"levelo://app?vid=4c8e72b5-aba7-4439-8dcc-1e2370b4bb8a","ios":"levelo://app?vid=4c8e72b5-aba7-4439-8dcc-1e2370b4bb8a"},"vehicle_type_id":"4","last_reported":1730732986,"current_range_meters":38400,"station_id":"ce4bhph2rcd13ifvqheg","pricing_plan_id":"cebpf4jnsgd1na2vs0mg"},{"bike_id":"cc46b8f6-eec4-4966-9882-e190770b2842","system_id":"levelo_inurba_marseille","lat":43.286957,"lon":5.387769,"is_reserved":false,"is_disabled":false,"rental_uris":{"android":"levelo://app?vid=cc46b8f6-eec4-4966-9882-e190770b2842","ios":"levelo://app?vid=cc46b8f6-eec4-4966-9882-e190770b2842"},"vehicle_type_id":"4","last_reported":1730732986,"current_range_meters":20800,"station_id":"","pricing_plan_id":"cebpf4jnsgd1na2vs0mg"},{"bike_id":"a0e5dfa9-9c30-44ce-8d73-1315dd6b49a1","system_id":"levelo_inurba_marseille","lat":43.23962,"lon":5.36638,"is_reserved":false,"is_disabled":false,"rental_uris":{"android":"levelo://app?vid=a0e5dfa9-9c30-44ce-8d73-1315dd6b49a1","ios":"levelo://app?vid=a0e5dfa9-9c30-44ce-8d73-1315dd6b49a1"},"vehicle_type_id":"4","last_reported":1730732986,"current_range_meters":33600,"station_id":"ce4bhi12rcd13ifvqfp0","pricing_plan_id":"cebpf4jnsgd1na2vs0mg"},{"bike_id":"4ad7c7c2-8ff3-4ca5-9524-58a7633dd278","system_id":"levelo_inurba_marseille","lat":43.324826,"lon":5.365626,"is_reserved":false,"is_disabled":false,"rental_uris":{"android":"levelo://app?vid=4ad7c7c2-8ff3-4ca5-9524-58a7633dd278","ios":"levelo://app?vid=4ad7c7c2-8ff3-4ca5-9524-58a7633dd278"},"vehicle_type_id":"4","last_reported":1730732986,"current_range_meters":38800,"station_id":"ce4bhs12rcd13ifvqhvg","pricing_plan_id":"cebpf4jnsgd1na2vs0mg"},{"bike_id":"413e5e1a-b3d7-4f76-bc5e-04e07a834afd","system_id":"levelo_inurba_marseille","lat":43.25584,"lon":5.38234,"is_reserved":false,"is_disabled":false,"rental_uris":{"android":"levelo://app?vid=413e5e1a-b3d7-4f76-bc5e-04e07a834afd","ios":"levelo://app?vid=413e5e1a-b3d7-4f76-bc5e-04e07a834afd"},"vehicle_type_id":"4","last_reported":1730732986,"current_range_meters":28800,"station_id":"ce4bhih2rcd13ifvqfs0","pricing_plan_id":"cebpf4jnsgd1na2vs0mg"},{"bike_id":"8a0c7c48-32b8-4262-87fc-fddb59c37ecb","system_id":"levelo_inurba_marseille","lat":43.25581,"lon":5.38228,"is_reserved":false,"is_disabled":false,"rental_uris":{"android":"levelo://app?vid=8a0c7c48-32b8-4262-87fc-fddb59c37ecb","ios":"levelo://app?vid=8a0c7c48-32b8-4262-87fc-fddb59c37ecb"},"vehicle_type_id":"4","last_reported":1730732986,"current_range_meters":30400,"station_id":"ce4bhih2rcd13ifvqfs0","pricing_plan_id":"cebpf4jnsgd1na2vs0mg"},{"bike_id":"7cdfbbb9-46de-4f0a-b260-57fa7733b204","system_id":"levelo_inurba_marseille","lat":43.31316,"lon":5.39717,"is_reserved":false,"is_disabled":false,"rental_uris":{"android":"levelo://app?vid=7cdfbbb9-46de-4f0a-b260-57fa7733b204","ios":"levelo://app?vid=7cdfbbb9-46de-4f0a-b260-57fa7733b204"},"vehicle_type_id":"4","last_reported":1730732986,"current_range_meters":22400,"station_id":"ce4bgvp2rcd13ifvqcu0","pricing_plan_id":"cebpf4jnsgd1na2vs0mg"},{"bike_id":"aab60914-f141-404b-93a5-70ccb7d1930c","system_id":"levelo_inurba_marseille","lat":43.24178,"lon":5.39734,"is_reserved":false,"is_disabled":false,"rental_uris":{"android":"levelo://app?vid=aab60914-f141-404b-93a5-70ccb7d1930c","ios":"levelo://app?vid=aab60914-f141-404b-93a5-70ccb7d1930c"},"vehicle_type_id":"4","last_reported":1730732986,"current_range_meters":32400,"station_id":"ce4bhn12rcd13ifvqgpg","pricing_plan_id":"cebpf4jnsgd1na2vs0mg"},{"bike_id":"20a411bf-9423-41fb-974f-f73157d2a98a","system_id":"levelo_inurba_marseille","lat":43.30529,"lon":5.36558,"is_reserved":false,"is_disabled":false,"rental_uris":{"android":"levelo://app?vid=20a411bf-9423-41fb-974f-f73157d2a98a","ios":"levelo://app?vid=20a411bf-9423-41fb-974f-f73157d2a98a"},"vehicle_type_id":"4","last_reported":1730732986,"current_range_meters":38800,"station_id":"ce4bgs12rcd13ifvqcag","pricing_plan_id":"cebpf4jnsgd1na2vs0mg"},{"bike_id":"312997c3-889c-4c52-9bf2-e2e764308b2b","system_id":"levelo_inurba_marseille","lat":43.2968,"lon":5.37296,"is_reserved":false,"is_disabled":false,"rental_uris":{"android":"levelo://app?vid=312997c3-889c-4c52-9bf2-e2e764308b2b","ios":"levelo://app?vid=312997c3-889c-4c52-9bf2-e2e764308b2b"},"vehicle_type_id":"4","last_reported":1730732986,"current_range_meters":17200,"station_id":"ce4bgk12rcd13ifvqbj0","pricing_plan_id":"cebpf4jnsgd1na2vs0mg"},{"bike_id":"5fba918b-2f20-4820-a890-d0cd89fccb1d","system_id":"levelo_inurba_marseille","lat":43.31364,"lon":5.3849,"is_reserved":false,"is_disabled":false,"rental_uris":{"android":"levelo://app?vid=5fba918b-2f20-4820-a890-d0cd89fccb1d","ios":"levelo://app?vid=5fba918b-2f20-4820-a890-d0cd89fccb1d"},"vehicle_type_id":"4","last_reported":1730732986,"current_range_meters":37600,"station_id":"ce4bgt92rcd13ifvqcf0","pricing_plan_id":"cebpf4jnsgd1na2vs0mg"},{"bike_id":"71bcb08e-e7af-4ed1-907c-5d1bb83b0408","system_id":"levelo_inurba_marseille","lat":43.32476,"lon":5.36569,"is_reserved":false,"is_disabled":false,"rental_uris":{"android":"levelo://app?vid=71bcb08e-e7af-4ed1-907c-5d1bb83b0408","ios":"levelo://app?vid=71bcb08e-e7af-4ed1-907c-5d1bb83b0408"},"vehicle_type_id":"4","last_reported":1730732986,"current_range_meters":38800,"station_id":"ce4bhs12rcd13ifvqhvg","pricing_plan_id":"cebpf4jnsgd1na2vs0mg"},{"bike_id":"bbefb788-6bf1-4b90-bb4b-ea34d0f15846","system_id":"levelo_inurba_marseille","lat":43.23186,"lon":5.39987,"is_reserved":false,"is_disabled":false,"rental_uris":{"android":"levelo://app?vid=bbefb788-6bf1-4b90-bb4b-ea34d0f15846","ios":"levelo://app?vid=bbefb788-6bf1-4b90-bb4b-ea34d0f15846"},"vehicle_type_id":"4","last_reported":1730732986,"current_range_meters":2800,"station_id":"ce4bhn12rcd13ifvqgqg","pricing_plan_id":"cebpf4jnsgd1na2vs0mg"},