{"last_updated":1771397356,"ttl":60,"version":"2.2","data":{"bikes":[{"bike_id":"9bbedd08-62ac-41d8-8e10-c301057154b9","system_id":"levelo_inurba_marseille","lat":43.29783,"lon":5.3936,"is_reserved":false,"is_disabled":false,"rental_uris":{"android":"levelo://app?vid=9bbedd08-62ac-41d8-8e10-c301057154b9","ios":"levelo://app?vid=9bbedd08-62ac-41d8-8e10-c301057154b9"},"vehicle_type_id":"4","last_reported":1771397357,"current_range_meters":2800,"station_id":"chh1huq6cuj3fo74tm60","pricing_plan_id":"cebpf4jnsgd1na2vs0mg"},{"bike_id":"0d8f60b5-7d2d-4641-b40a-9554efa1a326","system_id":"levelo_inurba_marseille","lat":43.24994,"lon":5.40528,"is_reserved":false,"is_disabled":false,"rental_uris":{"android":"levelo://app?vid=0d8f60b5-7d2d-4641-b40a-9554efa1a326","ios":"levelo://app?vid=0d8f60b5-7d2d-4641-b40a-9554efa1a326"},"vehicle_type_id":"4","last_reported":1771397357,"current_range_meters":28000,"station_id":"st_d2ngiaodas8pm72gd1h0","pricing_plan_id":"cebpf4jnsgd1na2vs0mg"},{"bike_id":"ac2d6f68-e3d5-4e25-a04e-7dbc807cca84","system_id":"levelo_inurba_marseille","lat":43.30508,"lon":5.37883,"is_reserved":false,"is_disabled":false,"rental_uris":{"android":"levelo://app?vid=ac2d6f68-e3d5-4e25-a04e-7dbc807cca84","ios":"levelo://app?vid=ac2d6f68-e3d5-4e25-a04e-7dbc807cca84"},"vehicle_type_id":"4","last_reported":1771397357,"current_range_meters":36400,"station_id":"ce4bgup2rcd13ifvqcn0","pricing_plan_id":"cebpf4jnsgd1na2vs0mg"},{"bike_id":"12c8ec99-313e-4c76-a056-8ffa7746b6fb","system_id":"levelo_inurba_marseille","lat":43.3015,"lon":5.38091,"is_reserved":false,"is_disabled":false,"rental_uris":{"android":"levelo://app?vid=12c8ec99-313e-4c76-a056-8ffa7746b6fb","ios":"levelo://app?vid=12c8ec99-313e-4c76-a056-8ffa7746b6fb"},"vehicle_type_id":"4","last_reported":1771397357,"current_range_meters":25600,"station_id":"ce4bgjp2rcd13ifvqbh0","pricing_plan_id":"cebpf4jnsgd1na2vs0mg"},{"bike_id":"f56469d6-156e-4dc9-9c3e-3416ed76c4ba","system_id":"levelo_inurba_marseille","lat":43.3316,"lon":5.37675,"is_reserved":false,"is_disabled":false,"rental_uris":{"android":"levelo://app?vid=f56469d6-156e-4dc9-9c3e-3416ed76c4ba","ios":"levelo://app?vid=f56469d6-156e-4dc9-9c3e-3416ed76c4ba"},"vehicle_type_id":"4","last_reported":1771397357,"current_range_meters":26000,"station_id":"st_d46cu089ee8s73dldbu0","pricing_plan_id":"cebpf4jnsgd1na2vs0mg"},{"bike_id":"6fdf3c0c-e2fd-48ef-ba20-cd96942d8a55","system_id":"levelo_inurba_marseille","lat":43.26229,"lon":5.40453,"is_reserved":false,"is_disabled":false,"rental_uris":{"android":"levelo://app?vid=6fdf3c0c-e2fd-48ef-ba20-cd96942d8a55","ios":"levelo://app?vid=6fdf3c0c-e2fd-48ef-ba20-cd96942d8a55"},"vehicle_type_id":"4","last_reported":1771397357,"current_range_meters":18000,"station_id":"ce4bhmh2rcd13ifvqgmg","pricing_plan_id":"cebpf4jnsgd1na2vs0mg"},{"bike_id":"4dde0613-72ca-43d0-8e9f-e539be527f6b","system_id":"levelo_inurba_marseille","lat":43.29291,"lon":5.37462,"is_reserved":false,"is_disabled":false,"rental_uris":{"android":"levelo://app?vid=4dde0613-72ca-43d0-8e9f-e539be527f6b","ios":"levelo://app?vid=4dde0613-72ca-43d0-8e9f-e539be527f6b"},"vehicle_type_id":"4","last_reported":1771397357,"current_range_meters":22800,"station_id":"ce4bgi12rcd13ifvqb70","pricing_plan_id":"cebpf4jnsgd1na2vs0mg"},{"bike_id":"db2fa9a0-de2e-4c1f-b709-42804478283d","system_id":"levelo_inurba_marseille","lat":43.245515,"lon":5.395251,"is_reserved":false,"is_disabled":false,"rental_uris":{"android":"levelo://app?vid=db2fa9a0-de2e-4c1f-b709-42804478283d","ios":"levelo://app?vid=db2fa9a0-de2e-4c1f-b709-42804478283d"},"vehicle_type_id":"4","last_reported":1771397357,"current_range_meters":29600,"station_id":"ce4bhlp2rcd13ifvqgjg","pricing_plan_id":"cebpf4jnsgd1na2vs0mg"},{"bike_id":"9f4a73af-cbba-4b98-906a-d98ba0517574","system_id":"levelo_inurba_marseille","lat":43.26545,"lon":5.37287,"is_reserved":false,"is_disabled":true,"rental_uris":{"android":"levelo://app?vid=9f4a73af-cbba-4b98-906a-d98ba0517574","ios":"levelo://app?vid=9f4a73af-cbba-4b98-906a-d98ba0517574"},"vehicle_type_id":"4","last_reported":1771397357,"current_range_meters":36000,"station_id":"ce4bhg12rcd13ifvqf70","pricing_plan_id":"cebpf4jnsgd1na2vs0mg"},{"bike_id":"8edd566c-9374-439c-ba80-1121ac81978b","system_id":"levelo_inurba_marseille","lat":43.27942,"lon":5.41042,"is_reserved":false,"is_disabled":false,"rental_uris":{"android":"levelo://app?vid=8edd566c-9374-439c-ba80-1121ac81978b","ios":"levelo://app?vid=8edd566c-9374-439c-ba80-1121ac81978b"},"vehicle_type_id":"4","last_reported":1771397357,"current_range_meters":7200,"station_id":"ce4bhnp2rcd13ifvqh0g","pricing_plan_id":"cebpf4jnsgd1na2vs0mg"},{"bike_id":"df2b51b8-6266-41bb-a3ab-a4dcd1fc3155","system_id":"levelo_inurba_marseille","lat":43.304207,"lon":5.412811,"is_reserved":false,"is_disabled":false,"rental_uris":{"android":"levelo://app?vid=df2b51b8-6266-41bb-a3ab-a4dcd1fc3155","ios":"levelo://app?vid=df2b51b8-6266-41bb-a3ab-a4dcd1fc3155"},"vehicle_type_id":"4","last_reported":1771397357,"current_range_meters":4800,"station_id":"ce4bhop2rcd13ifvqh8g","pricing_plan_id":"cebpf4jnsgd1na2vs0mg"},{"bike_id":"ce8ad000-aa88-4d1b-bb61-90131b54d720","system_id":"levelo_inurba_marseille","lat":43.28838,"lon":5.35844,"is_reserved":false,"is_disabled":false,"rental_uris":{"android":"levelo://app?vid=ce8ad000-aa88-4d1b-bb61-90131b54d720","ios":"levelo://app?vid=ce8ad000-aa88-4d1b-bb61-90131b54d720"},"vehicle_type_id":"4","last_reported":1771397357,"current_range_meters":30800,"station_id":"ce4bhb12rcd13ifvqem0","pricing_plan_id":"cebpf4jnsgd1na2vs0mg"},{"bike_id":"d2bb17c7-6558-4b9c-ae8a-0d2292552853","system_id":"levelo_inurba_marseille","lat":43.28499,"lon":5.48424,"is_reserved":false,"is_disabled":false,"rental_uris":{"android":"levelo://app?vid=d2bb17c7-6558-4b9c-ae8a-0d2292552853","ios":"levelo://app?vid=d2bb17c7-6558-4b9c-ae8a-0d2292552853"},"vehicle_type_id":"4","last_reported":1771397357,"current_range_meters":38400,"station_id":"","pricing_plan_id":"cebpf4jnsgd1na2vs0mg"},{"bike_id":"064c09f6-884f-48a4-81d0-0eea94355082","system_id":"levelo_inurba_marseille","lat":43.30133,"lon":5.38783,"is_reserved":false,"is_disabled":false,"rental_uris":{"android":"levelo://app?vid=064c09f6-884f-48a4-81d0-0eea94355082","ios":"levelo://app?vid=064c09f6-884f-48a4-81d0-0eea94355082"},"vehicle_type_id":"4","last_reported":1771397357,"current_range_meters":5600,"station_id":"ce4bghh2rcd13ifvqb60","pricing_plan_id":"cebpf4jnsgd1na2vs0mg"},{"bike_id":"da4093a5-6673-43a8-b7ee-b4859a45cac4","system_id":"levelo_inurba_marseille","lat":43.24401,"lon":5.3707,"is_reserved":false,"is_disabled":false,"rental_uris":{"android":"levelo://app?vid=da4093a5-6673-43a8-b7ee-b4859a45cac4","ios":"levelo://app?vid=da4093a5-6673-43a8-b7ee-b4859a45cac4"},"vehicle_type_id":"4","last_reported":1771397357,"current_range_meters":9200,"station_id":"ce4bhhh2rcd13ifvqfk0","pricing_plan_id":"cebpf4jnsgd1na2vs0mg"},{"bike_id":"c68ee61e-e73b-4a40-9338-bbc32d0135df","system_id":"levelo_inurba_marseille","lat":43.30475,"lon":5.37915,"is_reserved":false,"is_disabled":false,"rental_uris":{"android":"levelo://app?vid=c68ee61e-e73b-4a40-9338-bbc32d0135df","ios":"levelo://app?vid=c68ee61e-e73b-4a40-9338-bbc32d0135df"},"vehicle_type_id":"4","last_reported":1771397357,"current_range_meters":26800,"station_id":"ce4bgup2rcd13ifvqcn0","pricing_plan_id":"cebpf4jnsgd1na2vs0mg"},{"bike_id":"a094f86a-c2eb-4e4b-b6f5-884166418613","system_id":"levelo_inurba_marseille","lat":43.29528,"lon":5.39034,"is_reserved":false,"is_disabled":false,"rental_uris":{"android":"levelo://app?vid=a094f86a-c2eb-4e4b-b6f5-884166418613","ios":"levelo://app?vid=a094f86a-c2eb-4e4b-b6f5-884166418613"},"vehicle_type_id":"4","last_reported":1771397357,"current_range_meters":6400,"station_id":"ce4bh3p2rcd13ifvqdp0","pricing_plan_id":"cebpf4jnsgd1na2vs0mg"},{"bike_id":"ac64c99d-9c3f-47f4-aa0b-060593732cb7","system_id":"levelo_inurba_marseille","lat":43.27835,"lon":5.39208,"is_reserved":false,"is_disabled":false,"rental_uris":{"android":"levelo://app?vid=ac64c99d-9c3f-47f4-aa0b-060593732cb7","ios":"levelo://app?vid=ac64c99d-9c3f-47f4-aa0b-060593732cb7"},"vehicle_type_id":"4","last_reported":1771397357,"current_range_meters":37600,"station_id":"ce4bhjp2rcd13ifvqga0","pricing_plan_id":"cebpf4jnsgd1na2vs0mg"},{"bike_id":"f404fada-28ae-4ea0-9af2-0b3eef2713b9","system_id":"levelo_inurba_marseille","lat":43.28927,"lon":5.36378,"is_reserved":false,"is_disabled":false,"rental_uris":{"android":"levelo://app?vid=f404fada-28ae-4ea0-9af2-0b3eef2713b9","ios":"levelo://app?vid=f404fada-28ae-4ea0-9af2-0b3eef2713b9"},"vehicle_type_id":"4","last_reported":1771397357,"current_range_meters":38400,"station_id":"ce4bhc92rcd13ifvqetg","pricing_plan_id":"cebpf4jnsgd1na2vs0mg"},{"bike_id":"0b4d7eb1-a672-4428-9bc0-a1a00803cf1c","system_id":"levelo_inurba_marseille","lat":43.297054,"lon":5.366037,"is_reserved":false,"is_disabled":false,"rental_uris":{"android":"levelo://app?vid=0b4d7eb1-a672-4428-9bc0-a1a00803cf1c","ios":"levelo://app?vid=0b4d7eb1-a672-4428-9bc0-a1a00803cf1c"},"vehicle_type_id":"4","last_reported":1771397357,"current_range_meters":18800,"station_id":"ce4bgn12rcd13ifvqbt0","pricing_plan_id":"cebpf4jnsgd1na2vs0mg"},{"bike_id":"73c9ca54-2e5f-440d-942f-a705372e90cc","system_id":"levelo_inurba_marseille","lat":43.29807,"lon":5.40389,"is_reserved":false,"is_disabled":false,"rental_uris":{"android":"levelo://app?vid=73c9ca54-2e5f-440d-942f-a705372e90cc","ios":"levelo://app?vid=73c9ca54-2e5f-440d-942f-a705372e90cc"},"vehicle_type_id":"4","last_reported":1771397357,"current_range_meters":39200,"station_id":"ce4bh112rcd13ifvqd90","pricing_plan_id":"cebpf4jnsgd1na2vs0mg"},{"bike_id":"a651bb5a-b30a-4c36-a4ef-9b8a6dd1d47a","system_id":"levelo_inurba_marseille","lat":43.28335,"lon":5.38096,"is_reserved":false,"is_disabled":false,"rental_uris":{"android":"levelo://app?vid=a651bb5a-b30a-4c36-a4ef-9b8a6dd1d47a","ios":"levelo://app?vid=a651bb5a-b30a-4c36-a4ef-9b8a6dd1d47a"},"vehicle_type_id":"4","last_reported":1771397357,"current_range_meters":39200,"station_id":"ce4bh412rcd13ifvqdr0","pricing_plan_id":"cebpf4jnsgd1na2vs0mg"},{"bike_id":"204d8e6b-c627-4c2c-9884-cfc98b96ca67","system_id":"levelo_inurba_marseille","lat":43.31883,"lon":5.40756,"is_reserved":false,"is_disabled":false,"rental_uris":{"android":"levelo://app?vid=204d8e6b-c627-4c2c-9884-cfc98b96ca67","ios":"levelo://app?vid=204d8e6b-c627-4c2c-9884-cfc98b96ca67"},"vehicle_type_id":"4","last_reported":1771397357,"current_range_meters":27200,"station_id":"ce4bhq12rcd13ifvqhig","pricing_plan_id":"cebpf4jnsgd1na2vs0mg"},{"bike_id":"faecdf78-8109-4d36-933f-5c27a14446f1","system_id":"levelo_inurba_marseille","lat":43.29037,"lon":5.39961,"is_reserved":false,"is_disabled":false,"rental_uris":{"android":"levelo://app?vid=faecdf78-8109-4d36-933f-5c27a14446f1","ios":"levelo://app?vid=faecdf78-8109-4d36-933f-5c27a14446f1"},"vehicle_type_id":"4","last_reported":1771397357,"current_range_meters":22000,"station_id":"ce4bh392rcd13ifvqdm0","pricing_plan_id":"cebpf4jnsgd1na2vs0mg"},{"bike_id":"a099946a-07cb-4d24-8179-71b9a268daee","system_id":"levelo_inurba_marseille","lat":43.28943,"lon":5.36619,"is_reserved":false,"is_disabled":false,"rental_uris":{"android":"levelo://app?vid=a099946a-07cb-4d24-8179-71b9a268daee","ios":"levelo://app?vid=a099946a-07cb-4d24-8179-71b9a268daee"},"vehicle_type_id":"4","last_reported":1771397357,"current_range_meters":39200,"station_id":"ce4bhap2rcd13ifvqek0","pricing_plan_id":"cebpf4jnsgd1na2vs0mg"},{"bike_id":"d497dbc2-b9f0-474e-88b3-17571c1e67cf","system_id":"levelo_inurba_marseille","lat":43.27837,"lon":5.40711,"is_reserved":false,"is_disabled":false,"rental_uris":{"android":"levelo://app?vid=d497dbc2-b9f0-474e-88b3-17571c1e67cf","ios":"levelo://app?vid=d497dbc2-b9f0-474e-88b3-17571c1e67cf"},"vehicle_type_id":"4","last_reported":1771397357,"current_range_meters":28000,"station_id":"ce4bhnh2rcd13ifvqgtg","pricing_plan_id":"cebpf4jnsgd1na2vs0mg"},{"bike_id":"5606d05b-9758-45e4-9d49-4d8abc1ee760","system_id":"levelo_inurba_marseille","lat":43.29962,"lon":5.3853,"is_reserved":false,"is_disabled":false,"rental_uris":{"android":"levelo://app?vid=5606d05b-9758-45e4-9d49-4d8abc1ee760","ios":"levelo://app?vid=5606d05b-9758-45e4-9d49-4d8abc1ee760"},"vehicle_type_id":"4","last_reported":1771397357,"current_range_meters":30400,"station_id":"ce4bgj92rcd13ifvqbd0","pricing_plan_id":"cebpf4jnsgd1na2vs0mg"},{"bike_id":"6cc765ee-1bde-437c-aa66-985a1f695edc","system_id":"levelo_inurba_marseille","lat":43.29518,"lon":5.39032,"is_reserved":false,"is_disabled":false,"rental_uris":{"android":"levelo://app?vid=6cc765ee-1bde-437c-aa66-985a1f695edc","ios":"levelo://app?vid=6cc765ee-1bde-437c-aa66-985a1f695edc"},"vehicle_type_id":"4","last_reported":1771397357,"current_range_meters":24800,"station_id":"ce4bh3p2rcd13ifvqdp0","pricing_plan_id":"cebpf4jnsgd1na2vs0mg"},{"bike_id":"f071ba47-21d9-41c9-a8ad-f813b5e1e11d","system_id":"levelo_inurba_marseille","lat":43.272112,"lon":5.39123,"is_reserved":false,"is_disabled":false,"rental_uris":{"android":"levelo://app?vid=f071ba47-21d9-41c9-a8ad-f813b5e1e11d","ios":"levelo://app?vid=f071ba47-21d9-41c9-a8ad-f813b5e1e11d"},"vehicle_type_id":"4","last_reported":1771397357,"current_range_meters":32800,"station_id":"ce4bhdp2rcd13ifvqf20","pricing_plan_id":"cebpf4jnsgd1na2vs0mg"},{"bike_id":"8417912d-f484-42c6-82ef-ebd169a015e1","system_id":"levelo_inurba_marseille","lat":43.29983,"lon":5.38485,"is_reserved":false,"is_disabled":false,"rental_uris":{"android":"levelo://app?vid=8417912d-f484-42c6-82ef-ebd169a015e1","ios":"levelo://app?vid=8417912d-f484-42c6-82ef-ebd169a015e1"},"vehicle_type_id":"4","last_reported":1771397357,"current_range_meters":21600,"station_id":"ce4bgj92rcd13ifvqbd0","pricing_plan_id":"cebpf4jnsgd1na2vs0mg"},{"bike_id":"748e0f94-1d84-4e99-a2d8-3ed4f6188416","system_id":"levelo_inurba_marseille","lat":43.25117,"lon":5.40301,"is_reserved":false,"is_disabled":false,"rental_uris":{"android":"levelo://app?vid=748e0f94-1d84-4e99-a2d8-3ed4f6188416","ios":"levelo://app?vid=748e0f94-1d84-4e99-a2d8-3ed4f6188416"},"vehicle_type_id":"4","last_reported":1771397357,"current_range_meters":37600,"station_id":"ce4bhlh2rcd13ifvqgig","pricing_plan_id":"cebpf4jnsgd1na2vs0mg"},{"bike_id":"1e55a976-77fc-43fc-8437-164a536d6b4b","system_id":"levelo_inurba_marseille","lat":43.28627,"lon":5.39859,"is_reserved":false,"is_disabled":false,"rental_uris":{"android":"levelo://app?vid=1e55a976-77fc-43fc-8437-164a536d6b4b","ios":"levelo://app?vid=1e55a976-77fc-43fc-8437-164a536d6b4b"},"vehicle_type_id":"4","last_reported":1771397357,"current_range_meters":19200,"station_id":"st_d4a7ka997mjs738ck50g","pricing_plan_id":"cebpf4jnsgd1na2vs0mg"},{"bike_id":"dea12119-0d2f-4d5b-b2b8-4fba663d926e","system_id":"levelo_inurba_marseille","lat":43.29293,"lon":5.40172,"is_reserved":false,"is_disabled":false,"rental_uris":{"android":"levelo://app?vid=dea12119-0d2f-4d5b-b2b8-4fba663d926e","ios":"levelo://app?vid=dea12119-0d2f-4d5b-b2b8-4fba663d926e"},"vehicle_type_id":"4","last_reported":1771397357,"current_range_meters":16800,"station_id":"","pricing_plan_id":"cebpf4jnsgd1na2vs0mg"},{"bike_id":"1a671a32-dfaf-4ebe-9605-b10aace07c78","system_id":"levelo_inurba_marseille","lat":43.30253,"lon":5.4007,"is_reserved":false,"is_disabled":false,"rental_uris":{"android":"levelo://app?vid=1a671a32-dfaf-4ebe-9605-b10aace07c78","ios":"levelo://app?vid=1a671a32-dfaf-4ebe-9605-b10aace07c78"},"vehicle_type_id":"4","last_reported":1771397357,"current_range_meters":39200,"station_id":"ce4bgvh2rcd13ifvqcs0","pricing_plan_id":"cebpf4jnsgd1na2vs0mg"},{"bike_id":"d627de23-3635-4871-9aeb-de1777615514","system_id":"levelo_inurba_marseille","lat":43.31125,"lon":5.42438,"is_reserved":false,"is_disabled":false,"rental_uris":{"android":"levelo://app?vid=d627de23-3635-4871-9aeb-de1777615514","ios":"levelo://app?vid=d627de23-3635-4871-9aeb-de1777615514"},"vehicle_type_id":"4","last_reported":1771397357,"current_range_meters":27200,"station_id":"","pricing_plan_id":"cebpf4jnsgd1na2vs0mg"},{"bike_id":"e071cb6b-00dd-46cc-bbae-0c336769674f","system_id":"levelo_inurba_marseille","lat":43.26522,"lon":5.39529,"is_reserved":false,"is_disabled":false,"rental_uris":{"android":"levelo://app?vid=e071cb6b-00dd-46cc-bbae-0c336769674f","ios":"levelo://app?vid=e071cb6b-00dd-46cc-bbae-0c336769674f"},"vehicle_type_id":"4","last_reported":1771397357,"current_range_meters":34000,"station_id":"ce4bhi12rcd13ifvqfq0","pricing_plan_id":"cebpf4jnsgd1na2vs0mg"},{"bike_id":"94a753ba-86ec-4e2f-a460-c27b4f20170b","system_id":"levelo_inurba_marseille","lat":43.285662,"lon":5.394943,"is_reserved":false,"is_disabled":true,"rental_uris":{"android":"levelo://app?vid=94a753ba-86ec-4e2f-a460-c27b4f20170b","ios":"levelo://app?vid=94a753ba-86ec-4e2f-a460-c27b4f20170b"},"vehicle_type_id":"4","last_reported":1771397357,"current_range_meters":18800,"station_id":"ce4bh292rcd13ifvqdg0","pricing_plan_id":"cebpf4jnsgd1na2vs0mg"},{"bike_id":"bd750488-0a42-4846-a96c-1ffb9cee5c62","system_id":"levelo_inurba_marseille","lat":43.30876,"lon":5.37198,"is_reserved":false,"is_disabled":false,"rental_uris":{"android":"levelo://app?vid=bd750488-0a42-4846-a96c-1ffb9cee5c62","ios":"levelo://app?vid=bd750488-0a42-4846-a96c-1ffb9cee5c62"},"vehicle_type_id":"4","last_reported":1771397357,"current_range_meters":36000,"station_id":"ce4bguh2rcd13ifvqckg","pricing_plan_id":"cebpf4jnsgd1na2vs0mg"},{"bike_id":"e9c8c195-4938-4494-9005-66aa872cbce1","system_id":"levelo_inurba_marseille","lat":43.31218,"lon":5.36877,"is_reserved":false,"is_disabled":false,"rental_uris":{"android":"levelo://app?vid=e9c8c195-4938-4494-9005-66aa872cbce1","ios":"levelo://app?vid=e9c8c195-4938-4494-9005-66aa872cbce1"},"vehicle_type_id":"4","last_reported":1771397357,"current_range_meters":18000,"station_id":"ce4bgl92rcd13ifvqbq0","pricing_plan_id":"cebpf4jnsgd1na2vs0mg"},{"bike_id":"51489469-2f59-46bf-9d4d-2e8de44a2ac2","system_id":"levelo_inurba_marseille","lat":43.29365,"lon":5.37826,"is_reserved":false,"is_disabled":false,"rental_uris":{"android":"levelo://app?vid=51489469-2f59-46bf-9d4d-2e8de44a2ac2","ios":"levelo://app?vid=51489469-2f59-46bf-9d4d-2e8de44a2ac2"},"vehicle_type_id":"4","last_reported":1771397357,"current_range_meters":38800,"station_id":"ce4bgjh2rcd13ifvqbf0","pricing_plan_id":"cebpf4jnsgd1na2vs0mg"},{"bike_id":"a2aac6db-ff2a-410f-9224-52b6b4391027","system_id":"levelo_inurba_marseille","lat":43.25105,"lon":5.40324,"is_reserved":false,"is_disabled":false,"rental_uris":{"android":"levelo://app?vid=a2aac6db-ff2a-410f-9224-52b6b4391027","ios":"levelo://app?vid=a2aac6db-ff2a-410f-9224-52b6b4391027"},"vehicle_type_id":"4","last_reported":1771397357,"current_range_meters":28400,"station_id":"ce4bhlh2rcd13ifvqgig","pricing_plan_id":"cebpf4jnsgd1na2vs0mg"},{"bike_id":"926897a4-8741-4d6d-b33c-0b6162331ef7","system_id":"levelo_inurba_marseille","lat":43.30312,"lon":5.36889,"is_reserved":false,"is_disabled":false,"rental_uris":{"android":"levelo://app?vid=926897a4-8741-4d6d-b33c-0b6162331ef7","ios":"levelo://app?vid=926897a4-8741-4d6d-b33c-0b6162331ef7"},"vehicle_type_id":"4","last_reported":1771397357,"current_range_meters":39200,"station_id":"ce4bgqh2rcd13ifvqc5g","pricing_plan_id":"cebpf4jnsgd1na2vs0mg"},{"bike_id":"4a8cd272-628d-4ba5-ae9a-98dead38959e","system_id":"levelo_inurba_marseille","lat":43.25575,"lon":5.38227,"is_reserved":false,"is_disabled":false,"rental_uris":{"android":"levelo://app?vid=4a8cd272-628d-4ba5-ae9a-98dead38959e","ios":"levelo://app?vid=4a8cd272-628d-4ba5-ae9a-98dead38959e"},"vehicle_type_id":"4","last_reported":1771397357,"current_range_meters":16000,"station_id":"ce4bhih2rcd13ifvqfs0","pricing_plan_id":"cebpf4jnsgd1na2vs0mg"},{"bike_id":"6bc9e9ab-dc85-411f-a931-be29fe06c8f1","system_id":"levelo_inurba_marseille","lat":43.2649,"lon":5.39554,"is_reserved":false,"is_disabled":false,"rental_uris":{"android":"levelo://app?vid=6bc9e9ab-dc85-411f-a931-be29fe06c8f1","ios":"levelo://app?vid=6bc9e9ab-dc85-411f-a931-be29fe06c8f1"},"vehicle_type_id":"4","last_reported":1771397357,"current_range_meters":33200,"station_id":"ce4bhi12rcd13ifvqfq0","pricing_plan_id":"cebpf4jnsgd1na2vs0mg"},{"bike_id":"0b03371f-d614-4a77-84aa-be5c89a9402b","system_id":"levelo_inurba_marseille","lat":43.26062,"lon":5.39382,"is_reserved":false,"is_disabled":true,"rental_uris":{"android":"levelo://app?vid=0b03371f-d614-4a77-84aa-be5c89a9402b","ios":"levelo://app?vid=0b03371f-d614-4a77-84aa-be5c89a9402b"},"vehicle_type_id":"4","last_reported":1771397357,"current_range_meters":6800,"station_id":"ce4bhh92rcd13ifvqfj0","pricing_plan_id":"cebpf4jnsgd1na2vs0mg"},{"bike_id":"3ade1350-6a71-4ea6-a656-ac085bf3ceb0","system_id":"levelo_inurba_marseille","lat":43.29984,"lon":5.38518,"is_reserved":false,"is_disabled":false,"rental_uris":{"android":"levelo://app?vid=3ade1350-6a71-4ea6-a656-ac085bf3ceb0","ios":"levelo://app?vid=3ade1350-6a71-4ea6-a656-ac085bf3ceb0"},"vehicle_type_id":"4","last_reported":1771397357,"current_range_meters":32400,"station_id":"ce4bgj92rcd13ifvqbd0","pricing_plan_id":"cebpf4jnsgd1na2vs0mg"},{"bike_id":"659923c1-de2a-425b-b089-253fcf51c04f","system_id":"levelo_inurba_marseille","lat":43.24162,"lon":5.3639,"is_reserved":false,"is_disabled":false,"rental_uris":{"android":"levelo://app?vid=659923c1-de2a-425b-b089-253fcf51c04f","ios":"levelo://app?vid=659923c1-de2a-425b-b089-253fcf51c04f"},"vehicle_type_id":"4","last_reported":1771397357,"current_range_meters":29600,"station_id":"cpo36qri1sfpv3e86is0","pricing_plan_id":"cebpf4jnsgd1na2vs0mg"},{"bike_id":"33b7c3ed-b0e2-4576-ba17-43cea0a6aad6","system_id":"levelo_inurba_marseille","lat":43.2952,"lon":5.39406,"is_reserved":false,"is_disabled":false,"rental_uris":{"android":"levelo://app?vid=33b7c3ed-b0e2-4576-ba17-43cea0a6aad6","ios":"levelo://app?vid=33b7c3ed-b0e2-4576-ba17-43cea0a6aad6"},"vehicle_type_id":"4","last_reported":1771397357,"current_range_meters":33600,"station_id":"ce4bh292rcd13ifvqdf0","pricing_plan_id":"cebpf4jnsgd1na2vs0mg"},{"bike_id":"290649bd-a460-4d95-8c0d-616519ef9e83","system_id":"levelo_inurba_marseille","lat":43.30378,"lon":5.42478,"is_reserved":false,"is_disabled":false,"rental_uris":{"android":"levelo://app?vid=290649bd-a460-4d95-8c0d-616519ef9e83","ios":"levelo://app?vid=290649bd-a460-4d95-8c0d-616519ef9e83"},"vehicle_type_id":"4","last_reported":1771397357,"current_range_meters":25600,"station_id":"ce4bhoh2rcd13ifvqh6g","pricing_plan_id":"cebpf4jnsgd1na2vs0mg"},{"bike_id":"a8ac64ba-4309-4021-98a9-d1607f0b1c3c","system_id":"levelo_inurba_marseille","lat":43.29226,"lon":5.36074,"is_reserved":false,"is_disabled":false,"rental_uris":{"android":"levelo://app?vid=a8ac64ba-4309-4021-98a9-d1607f0b1c3c","ios":"levelo://app?vid=a8ac64ba-4309-4021-98a9-d1607f0b1c3c"},"vehicle_type_id":"4","last_reported":1771397357,"current_range_meters":24800,"station_id":"ce4bhbh2rcd13ifvqeqg","pricing_plan_id":"cebpf4jnsgd1na2vs0mg"},{"bike_id":"2fc00dba-1db9-4ca7-8d08-76aa4f74a074","system_id":"levelo_inurba_marseille","lat":43.28087,"lon":5.37859,"is_reserved":false,"is_disabled":false,"rental_uris":{"android":"levelo://app?vid=2fc00dba-1db9-4ca7-8d08-76aa4f74a074","ios":"levelo://app?vid=2fc00dba-1db9-4ca7-8d08-76aa4f74a074"},"vehicle_type_id":"4","last_reported":1771397357,"current_range_meters":39200,"station_id":"ce4bha12rcd13ifvqee0","pricing_plan_id":"cebpf4jnsgd1na2vs0mg"},{"bike_id":"5c0952e3-3469-48d1-b0ac-88596b084e30","system_id":"levelo_inurba_marseille","lat":43.33752,"lon":5.37499,"is_reserved":false,"is_disabled":false,"rental_uris":{"android":"levelo://app?vid=5c0952e3-3469-48d1-b0ac-88596b084e30","ios":"levelo://app?vid=5c0952e3-3469-48d1-b0ac-88596b084e30"},"vehicle_type_id":"4","last_reported":1771397357,"current_range_meters":38400,"station_id":"","pricing_plan_id":"cebpf4jnsgd1na2vs0mg"},{"bike_id":"33ac4722-7b7a-44e2-a33c-96954dd7e86e","system_id":"levelo_inurba_marseille","lat":43.30878,"lon":5.39648,"is_reserved":false,"is_disabled":false,"rental_uris":{"android":"levelo://app?vid=33ac4722-7b7a-44e2-a33c-96954dd7e86e","ios":"levelo://app?vid=33ac4722-7b7a-44e2-a33c-96954dd7e86e"},"vehicle_type_id":"4","last_reported":1771397357,"current_range_meters":14000,"station_id":"ce4bh012rcd13ifvqcv0","pricing_plan_id":"cebpf4jnsgd1na2vs0mg"},{"bike_id":"d28cf4f3-a1bf-4c25-bcf5-f88d380e48cc","system_id":"levelo_inurba_marseille","lat":43.28485,"lon":5.3842,"is_reserved":false,"is_disabled":false,"rental_uris":{"android":"levelo://app?vid=d28cf4f3-a1bf-4c25-bcf5-f88d380e48cc","ios":"levelo://app?vid=d28cf4f3-a1bf-4c25-bcf5-f88d380e48cc"},"vehicle_type_id":"4","last_reported":1771397357,"current_range_meters":9600,"station_id":"ce4bh512rcd13ifvqe3g","pricing_plan_id":"cebpf4jnsgd1na2vs0mg"},{"bike_id":"b0b8f89b-7dc1-4d1f-9d90-186fc67a9d1d","system_id":"levelo_inurba_marseille","lat":43.29509,"lon":5.39411,"is_reserved":false,"is_disabled":false,"rental_uris":{"android":"levelo://app?vid=b0b8f89b-7dc1-4d1f-9d90-186fc67a9d1d","ios":"levelo://app?vid=b0b8f89b-7dc1-4d1f-9d90-186fc67a9d1d"},"vehicle_type_id":"4","last_reported":1771397357,"current_range_meters":4400,"station_id":"ce4bh292rcd13ifvqdf0","pricing_plan_id":"cebpf4jnsgd1na2vs0mg"},{"bike_id":"19265f09-3855-4fc8-bac2-fc52480a2da4","system_id":"levelo_inurba_marseille","lat":43.28938,"lon":5.36397,"is_reserved":false,"is_disabled":false,"rental_uris":{"android":"levelo://app?vid=19265f09-3855-4fc8-bac2-fc52480a2da4","ios":"levelo://app?vid=19265f09-3855-4fc8-bac2-fc52480a2da4"},"vehicle_type_id":"4","last_reported":1771397357,"current_range_meters":34800,"station_id":"ce4bhc92rcd13ifvqetg","pricing_plan_id":"cebpf4jnsgd1na2vs0mg"},{"bike_id":"d11215e4-09de-48a1-8e26-cf34a99f9354","system_id":"levelo_inurba_marseille","lat":43.31076,"lon":5.42428,"is_reserved":false,"is_disabled":false,"rental_uris":{"android":"levelo://app?vid=d11215e4-09de-48a1-8e26-cf34a99f9354","ios":"levelo://app?vid=d11215e4-09de-48a1-8e26-cf34a99f9354"},"vehicle_type_id":"4","last_reported":1771397357,"current_range_meters":38400,"station_id":"ce4bhp92rcd13ifvqhag","pricing_plan_id":"cebpf4jnsgd1na2vs0mg"},{"bike_id":"2cbbc2f5-92a3-4c38-a0e2-181ee10ae410","system_id":"levelo_inurba_marseille","lat":43.27497,"lon":5.42475,"is_reserved":false,"is_disabled":false,"rental_uris":{"android":"levelo://app?vid=2cbbc2f5-92a3-4c38-a0e2-181ee10ae410","ios":"levelo://app?vid=2cbbc2f5-92a3-4c38-a0e2-181ee10ae410"},"vehicle_type_id":"4","last_reported":1771397357,"current_range_meters":38800,"station_id":"ce4bhn92rcd13ifvqgrg","pricing_plan_id":"cebpf4jnsgd1na2vs0mg"},{"bike_id":"5cfd6842-03da-48f1-95d1-e7bef04f5929","system_id":"levelo_inurba_marseille","lat":43.28862,"lon":5.39303,"is_reserved":false,"is_disabled":false,"rental_uris":{"android":"levelo://app?vid=5cfd6842-03da-48f1-95d1-e7bef04f5929","ios":"levelo://app?vid=5cfd6842-03da-48f1-95d1-e7bef04f5929"},"vehicle_type_id":"4","last_reported":1771397357,"current_range_meters":39200,"station_id":"ce4bh2p2rcd13ifvqdi0","pricing_plan_id":"cebpf4jnsgd1na2vs0mg"},{"bike_id":"ad2477be-7724-4710-8a1f-27fc9f03e3e0","system_id":"levelo_inurba_marseille","lat":43.26217,"lon":5.4045,"is_reserved":false,"is_disabled":false,"rental_uris":{"android":"levelo://app?vid=ad2477be-7724-4710-8a1f-27fc9f03e3e0","ios":"levelo://app?vid=ad2477be-7724-4710-8a1f-27fc9f03e3e0"},"vehicle_type_id":"4","last_reported":1771397357,"current_range_meters":28400,"station_id":"ce4bhmh2rcd13ifvqgmg","pricing_plan_id":"cebpf4jnsgd1na2vs0mg"},{"bike_id":"2479a531-6d9d-4bb6-8c57-955fbd8fe7f3","system_id":"levelo_inurba_marseille","lat":43.32497,"lon":5.38295,"is_reserved":false,"is_disabled":false,"rental_uris":{"android":"levelo://app?vid=2479a531-6d9d-4bb6-8c57-955fbd8fe7f3","ios":"levelo://app?vid=2479a531-6d9d-4bb6-8c57-955fbd8fe7f3"},"vehicle_type_id":"4","last_reported":1771397357,"current_range_meters":30400,"station_id":"st_d4asgbiv49dc73anf9m0","pricing_plan_id":"cebpf4jnsgd1na2vs0mg"},{"bike_id":"6f9ecf2e-5389-4ba1-b606-54b5a69c8f65","system_id":"levelo_inurba_marseille","lat":43.28152,"lon":5.42654,"is_reserved":false,"is_disabled":false,"rental_uris":{"android":"levelo://app?vid=6f9ecf2e-5389-4ba1-b606-54b5a69c8f65","ios":"levelo://app?vid=6f9ecf2e-5389-4ba1-b606-54b5a69c8f65"},"vehicle_type_id":"4","last_reported":1771397357,"current_range_meters":37600,"station_id":"ce4bhnh2rcd13ifvqgug","pricing_plan_id":"cebpf4jnsgd1na2vs0mg"},{"bike_id":"fc1aa6b8-6e5e-467f-92e9-aae02099ae9d","system_id":"levelo_inurba_marseille","lat":43.24642,"lon":5.43173,"is_reserved":false,"is_disabled":false,"rental_uris":{"android":"levelo://app?vid=fc1aa6b8-6e5e-467f-92e9-aae02099ae9d","ios":"levelo://app?vid=fc1aa6b8-6e5e-467f-92e9-aae02099ae9d"},"vehicle_type_id":"4","last_reported":1771397357,"current_range_meters":10000,"station_id":"st_d2m6c4gdas8pm72e190g","pricing_plan_id":"cebpf4jnsgd1na2vs0mg"},{"bike_id":"8f275b0d-88f7-42d9-b94a-236cbb0bb5d5","system_id":"levelo_inurba_marseille","lat":43.30957,"lon":5.38357,"is_reserved":false,"is_disabled":false,"rental_uris":{"android":"levelo://app?vid=8f275b0d-88f7-42d9-b94a-236cbb0bb5d5","ios":"levelo://app?vid=8f275b0d-88f7-42d9-b94a-236cbb0bb5d5"},"vehicle_type_id":"4","last_reported":1771397357,"current_range_meters":4000,"station_id":"","pricing_plan_id":"cebpf4jnsgd1na2vs0mg"},{"bike_id":"67285332-5652-4c2b-b8be-d99c6194277d","system_id":"levelo_inurba_marseille","lat":43.260602,"lon":5.393916,"is_reserved":false,"is_disabled":false,"rental_uris":{"android":"levelo://app?vid=67285332-5652-4c2b-b8be-d99c6194277d","ios":"levelo://app?vid=67285332-5652-4c2b-b8be-d99c6194277d"},"vehicle_type_id":"4","last_reported":1771397357,"current_range_meters":27600,"station_id":"ce4bhh92rcd13ifvqfj0","pricing_plan_id":"cebpf4jnsgd1na2vs0mg"},{"bike_id":"bc08d338-970c-4939-b5cf-2cda36932ee4","system_id":"levelo_inurba_marseille","lat":43.29624,"lon":5.40603,"is_reserved":false,"is_disabled":false,"rental_uris":{"android":"levelo://app?vid=bc08d338-970c-4939-b5cf-2cda36932ee4","ios":"levelo://app?vid=bc08d338-970c-4939-b5cf-2cda36932ee4"},"vehicle_type_id":"4","last_reported":1771397357,"current_range_meters":39200,"station_id":"ce4bh0h2rcd13ifvqd60","pricing_plan_id":"cebpf4jnsgd1na2vs0mg"},{"bike_id":"5fc87f02-49cf-4fb8-8aa2-265a6d0fd354","system_id":"levelo_inurba_marseille","lat":43.23038,"lon":5.40286,"is_reserved":false,"is_disabled":false,"rental_uris":{"android":"levelo://app?vid=5fc87f02-49cf-4fb8-8aa2-265a6d0fd354","ios":"levelo://app?vid=5fc87f02-49cf-4fb8-8aa2-265a6d0fd354"},"vehicle_type_id":"4","last_reported":1771397357,"current_range_meters":30800,"station_id":"","pricing_plan_id":"cebpf4jnsgd1na2vs0mg"},{"bike_id":"5cf91276-8af4-497d-8fdb-ab990881c914","system_id":"levelo_inurba_marseille","lat":43.29013,"lon":5.38144,"is_reserved":false,"is_disabled":false,"rental_uris":{"android":"levelo://app?vid=5cf91276-8af4-497d-8fdb-ab990881c914","ios":"levelo://app?vid=5cf91276-8af4-497d-8fdb-ab990881c914"},"vehicle_type_id":"4","last_reported":1771397357,"current_range_meters":36800,"station_id":"ce4bh4p2rcd13ifvqe1g","pricing_plan_id":"cebpf4jnsgd1na2vs0mg"},{"bike_id":"2756ae93-b644-4374-a1b9-a1050972e463","system_id":"levelo_inurba_marseille","lat":43.30122,"lon":5.39892,"is_reserved":false,"is_disabled":true,"rental_uris":{"android":"levelo://app?vid=2756ae93-b644-4374-a1b9-a1050972e463","ios":"levelo://app?vid=2756ae93-b644-4374-a1b9-a1050972e463"},"vehicle_type_id":"4","last_reported":1771397357,"current_range_meters":800,"station_id":"ce4bh0h2rcd13ifvqd40","pricing_plan_id":"cebpf4jnsgd1na2vs0mg"},{"bike_id":"c1b26ae8-8837-4bd2-b0e2-b890b8516fff","system_id":"levelo_inurba_marseille","lat":43.31333,"lon":5.36786,"is_reserved":false,"is_disabled":false,"rental_uris":{"android":"levelo://app?vid=c1b26ae8-8837-4bd2-b0e2-b890b8516fff","ios":"levelo://app?vid=c1b26ae8-8837-4bd2-b0e2-b890b8516fff"},"vehicle_type_id":"4","last_reported":1771397357,"current_range_meters":39200,"station_id":"ce4bgl92rcd13ifvqbq0","pricing_plan_id":"cebpf4jnsgd1na2vs0mg"},{"bike_id":"3cf9a213-82f8-4af5-954b-9210b699cd7b","system_id":"levelo_inurba_marseille","lat":43.33146,"lon":5.37706,"is_reserved":false,"is_disabled":false,"rental_uris":{"android":"levelo://app?vid=3cf9a213-82f8-4af5-954b-9210b699cd7b","ios":"levelo://app?vid=3cf9a213-82f8-4af5-954b-9210b699cd7b"},"vehicle_type_id":"4","last_reported":1771397357,"current_range_meters":35200,"station_id":"st_d46cu089ee8s73dldbu0","pricing_plan_id":"cebpf4jnsgd1na2vs0mg"},{"bike_id":"f4b72c32-b078-47bf-bd6e-2a4cf9260d45","system_id":"levelo_inurba_marseille","lat":43.28697,"lon":5.3552,"is_reserved":false,"is_disabled":true,"rental_uris":{"android":"levelo://app?vid=f4b72c32-b078-47bf-bd6e-2a4cf9260d45","ios":"levelo://app?vid=f4b72c32-b078-47bf-bd6e-2a4cf9260d45"},"vehicle_type_id":"4","last_reported":1771397357,"current_range_meters":36400,"station_id":"","pricing_plan_id":"cebpf4jnsgd1na2vs0mg"},{"bike_id":"4a95efd7-f13c-458c-88d7-c07781c7212a","system_id":"levelo_inurba_marseille","lat":43.28605,"lon":5.398834,"is_reserved":false,"is_disabled":false,"rental_uris":{"android":"levelo://app?vid=4a95efd7-f13c-458c-88d7-c07781c7212a","ios":"levelo://app?vid=4a95efd7-f13c-458c-88d7-c07781c7212a"},"vehicle_type_id":"4","last_reported":1771397357,"current_range_meters":30400,"station_id":"st_d4a7ka997mjs738ck50g","pricing_plan_id":"cebpf4jnsgd1na2vs0mg"},{"bike_id":"81353033-f0ee-4a16-8bfd-e39e96a1232d","system_id":"levelo_inurba_marseille","lat":43.2956,"lon":5.37508,"is_reserved":false,"is_disabled":false,"rental_uris":{"android":"levelo://app?vid=81353033-f0ee-4a16-8bfd-e39e96a1232d","ios":"levelo://app?vid=81353033-f0ee-4a16-8bfd-e39e96a1232d"},"vehicle_type_id":"4","last_reported":1771397357,"current_range_meters":8000,"station_id":"ce4bgh92rcd13ifvqb50","pricing_plan_id":"cebpf4jnsgd1na2vs0mg"},{"bike_id":"f5d22547-d06e-4fad-85c6-2cbbdcd29ad4","system_id":"levelo_inurba_marseille","lat":43.29165,"lon":5.37176,"is_reserved":false,"is_disabled":false,"rental_uris":{"android":"levelo://app?vid=f5d22547-d06e-4fad-85c6-2cbbdcd29ad4","ios":"levelo://app?vid=f5d22547-d06e-4fad-85c6-2cbbdcd29ad4"},"vehicle_type_id":"4","last_reported":1771397357,"current_range_meters":32400,"station_id":"ce4bha92rcd13ifvqeh0","pricing_plan_id":"cebpf4jnsgd1na2vs0mg"},{"bike_id":"129a8aa9-45a0-44b6-a529-a251cbb2fb68","system_id":"levelo_inurba_marseille","lat":43.286115,"lon":5.351161,"is_reserved":false,"is_disabled":false,"rental_uris":{"android":"levelo://app?vid=129a8aa9-45a0-44b6-a529-a251cbb2fb68","ios":"levelo://app?vid=129a8aa9-45a0-44b6-a529-a251cbb2fb68"},"vehicle_type_id":"4","last_reported":1771397357,"current_range_meters":18000,"station_id":"ce4bhch2rcd13ifvqeug","pricing_plan_id":"cebpf4jnsgd1na2vs0mg"},{"bike_id":"ae5d88a9-282f-4d97-bc7a-de0291fdda30","system_id":"levelo_inurba_marseille","lat":43.27456,"lon":5.42431,"is_reserved":false,"is_disabled":false,"rental_uris":{"android":"levelo://app?vid=ae5d88a9-282f-4d97-bc7a-de0291fdda30","ios":"levelo://app?vid=ae5d88a9-282f-4d97-bc7a-de0291fdda30"},"vehicle_type_id":"4","last_reported":1771397357,"current_range_meters":8800,"station_id":"","pricing_plan_id":"cebpf4jnsgd1na2vs0mg"},{"bike_id":"72bb5128-4459-451a-9051-dc0830580fd7","system_id":"levelo_inurba_marseille","lat":43.30202,"lon":5.39486,"is_reserved":false,"is_disabled":false,"rental_uris":{"android":"levelo://app?vid=72bb5128-4459-451a-9051-dc0830580fd7","ios":"levelo://app?vid=72bb5128-4459-451a-9051-dc0830580fd7"},"vehicle_type_id":"4","last_reported":1771397357,"current_range_meters":22400,"station_id":"ce4bh0p2rcd13ifvqd70","pricing_plan_id":"cebpf4jnsgd1na2vs0mg"},{"bike_id":"9f368442-e263-4d94-a6be-0fed84ce5a17","system_id":"levelo_inurba_marseille","lat":43.30128,"lon":5.3877,"is_reserved":false,"is_disabled":false,"rental_uris":{"android":"levelo://app?vid=9f368442-e263-4d94-a6be-0fed84ce5a17","ios":"levelo://app?vid=9f368442-e263-4d94-a6be-0fed84ce5a17"},"vehicle_type_id":"4","last_reported":1771397357,"current_range_meters":38400,"station_id":"ce4bghh2rcd13ifvqb60","pricing_plan_id":"cebpf4jnsgd1na2vs0mg"},{"bike_id":"fe2a799e-94bd-4779-addf-7f33fa38b212","system_id":"levelo_inurba_marseille","lat":43.286566,"lon":5.363469,"is_reserved":false,"is_disabled":false,"rental_uris":{"android":"levelo://app?vid=fe2a799e-94bd-4779-addf-7f33fa38b212","ios":"levelo://app?vid=fe2a799e-94bd-4779-addf-7f33fa38b212"},"vehicle_type_id":"4","last_reported":1771397357,"current_range_meters":36400,"station_id":"ce4bhah2rcd13ifvqej0","pricing_plan_id":"cebpf4jnsgd1na2vs0mg"},{"bike_id":"3d2c12f1-defb-4522-b608-822fdca70d5a","system_id":"levelo_inurba_marseille","lat":43.3033,"lon":5.40273,"is_reserved":false,"is_disabled":false,"rental_uris":{"android":"levelo://app?vid=3d2c12f1-defb-4522-b608-822fdca70d5a","ios":"levelo://app?vid=3d2c12f1-defb-4522-b608-822fdca70d5a"},"vehicle_type_id":"4","last_reported":1771397357,"current_range_meters":9200,"station_id":"","pricing_plan_id":"cebpf4jnsgd1na2vs0mg"},{"bike_id":"cdcd8c42-d26a-4e42-9873-59170e37aa87","system_id":"levelo_inurba_marseille","lat":43.2307,"lon":5.3549,"is_reserved":false,"is_disabled":false,"rental_uris":{"android":"levelo://app?vid=cdcd8c42-d26a-4e42-9873-59170e37aa87","ios":"levelo://app?vid=cdcd8c42-d26a-4e42-9873-59170e37aa87"},"vehicle_type_id":"4","last_reported":1771397357,"current_range_meters":38800,"station_id":"cpo3342slgdg3j2ifvpg","pricing_plan_id":"cebpf4jnsgd1na2vs0mg"},{"bike_id":"344b23da-0958-4730-a1a0-6cdf3a6849f8","system_id":"levelo_inurba_marseille","lat":43.29595,"lon":5.38093,"is_reserved":false,"is_disabled":false,"rental_uris":{"android":"levelo://app?vid=344b23da-0958-4730-a1a0-6cdf3a6849f8","ios":"levelo://app?vid=344b23da-0958-4730-a1a0-6cdf3a6849f8"},"vehicle_type_id":"4","last_reported":1771397357,"current_range_meters":37600,"station_id":"ce4bgl12rcd13ifvqbo0","pricing_plan_id":"cebpf4jnsgd1na2vs0mg"},{"bike_id":"e7def23d-4cb3-4f70-ad84-7e80f75f4887","system_id":"levelo_inurba_marseille","lat":43.24788,"lon":5.37462,"is_reserved":false,"is_disabled":false,"rental_uris":{"android":"levelo://app?vid=e7def23d-4cb3-4f70-ad84-7e80f75f4887","ios":"levelo://app?vid=e7def23d-4cb3-4f70-ad84-7e80f75f4887"},"vehicle_type_id":"4","last_reported":1771397357,"current_range_meters":38400,"station_id":"ce4bhgh2rcd13ifvqfb0","pricing_plan_id":"cebpf4jnsgd1na2vs0mg"},{"bike_id":"dd8100c3-3169-4922-bf7d-5a153f40b247","system_id":"levelo_inurba_marseille","lat":43.27796,"lon":5.40718,"is_reserved":false,"is_disabled":false,"rental_uris":{"android":"levelo://app?vid=dd8100c3-3169-4922-bf7d-5a153f40b247","ios":"levelo://app?vid=dd8100c3-3169-4922-bf7d-5a153f40b247"},"vehicle_type_id":"4","last_reported":1771397357,"current_range_meters":17600,"station_id":"ce4bhnh2rcd13ifvqgtg","pricing_plan_id":"cebpf4jnsgd1na2vs0mg"},{"bike_id":"91f95071-cb44-4294-8d05-12a1be58ba9d","system_id":"levelo_inurba_marseille","lat":43.25122,"lon":5.40318,"is_reserved":false,"is_disabled":false,"rental_uris":{"android":"levelo://app?vid=91f95071-cb44-4294-8d05-12a1be58ba9d","ios":"levelo://app?vid=91f95071-cb44-4294-8d05-12a1be58ba9d"},"vehicle_type_id":"4","last_reported":1771397357,"current_range_meters":38000,"station_id":"ce4bhlh2rcd13ifvqgig","pricing_plan_id":"cebpf4jnsgd1na2vs0mg"},{"bike_id":"8820dd5b-3b8f-478d-a4f0-fd0a7f87075f","system_id":"levelo_inurba_marseille","lat":43.29798,"lon":5.380802,"is_reserved":false,"is_disabled":false,"rental_uris":{"android":"levelo://app?vid=8820dd5b-3b8f-478d-a4f0-fd0a7f87075f","ios":"levelo://app?vid=8820dd5b-3b8f-478d-a4f0-fd0a7f87075f"},"vehicle_type_id":"4","last_reported":1771397357,"current_range_meters":24800,"station_id":"ce4bgip2rcd13ifvqbb0","pricing_plan_id":"cebpf4jnsgd1na2vs0mg"},{"bike_id":"f855f696-c685-4602-9971-e745bddf53bc","system_id":"levelo_inurba_marseille","lat":43.28427,"lon":5.35006,"is_reserved":false,"is_disabled":false,"rental_uris":{"android":"levelo://app?vid=f855f696-c685-4602-9971-e745bddf53bc","ios":"levelo://app?vid=f855f696-c685-4602-9971-e745bddf53bc"},"vehicle_type_id":"4","last_reported":1771397357,"current_range_meters":19600,"station_id":"ce4bhbh2rcd13ifvqepg","pricing_plan_id":"cebpf4jnsgd1na2vs0mg"},{"bike_id":"a051e224-3ae4-4cad-afae-0fc8af5edf92","system_id":"levelo_inurba_marseille","lat":43.31897,"lon":5.40848,"is_reserved":false,"is_disabled":false,"rental_uris":{"android":"levelo://app?vid=a051e224-3ae4-4cad-afae-0fc8af5edf92","ios":"levelo://app?vid=a051e224-3ae4-4cad-afae-0fc8af5edf92"},"vehicle_type_id":"4","last_reported":1771397357,"current_range_meters":39200,"station_id":"ce4bhq12rcd13ifvqhig","pricing_plan_id":"cebpf4jnsgd1na2vs0mg"},{"bike_id":"808e17f3-e8fb-4322-91e5-e0d3af4ac05c","system_id":"levelo_inurba_marseille","lat":43.23193,"lon":5.39972,"is_reserved":false,"is_disabled":false,"rental_uris":{"android":"levelo://app?vid=808e17f3-e8fb-4322-91e5-e0d3af4ac05c","ios":"levelo://app?vid=808e17f3-e8fb-4322-91e5-e0d3af4ac05c"},"vehicle_type_id":"4","last_reported":1771397357,"current_range_meters":7200,"station_id":"ce4bhn12rcd13ifvqgqg","pricing_plan_id":"cebpf4jnsgd1na2vs0mg"},{"bike_id":"0cd885fc-f607-4775-bbd9-be3deac4a95d","system_id":"levelo_inurba_marseille","lat":43.297046,"lon":5.366203,"is_reserved":false,"is_disabled":false,"rental_uris":{"android":"levelo://app?vid=0cd885fc-f607-4775-bbd9-be3deac4a95d","ios":"levelo://app?vid=0cd885fc-f607-4775-bbd9-be3deac4a95d"},"vehicle_type_id":"4","last_reported":1771397357,"current_range_meters":14400,"station_id":"ce4bgn12rcd13ifvqbt0","pricing_plan_id":"cebpf4jnsgd1na2vs0mg"},{"bike_id":"01945eda-1b53-46f9-9f80-92ad5a88ae99","system_id":"levelo_inurba_marseille","lat":43.29947,"lon":5.37244,"is_reserved":false,"is_disabled":false,"rental_uris":{"android":"levelo://app?vid=01945eda-1b53-46f9-9f80-92ad5a88ae99","ios":"levelo://app?vid=01945eda-1b53-46f9-9f80-92ad5a88ae99"},"vehicle_type_id":"4","last_reported":1771397357,"current_range_meters":39200,"station_id":"ce4bgr92rcd13ifvqc7g","pricing_plan_id":"cebpf4jnsgd1na2vs0mg"},{"bike_id":"ed801aba-6299-4abc-846c-98c2ac128308","system_id":"levelo_inurba_marseille","lat":43.2439,"lon":5.37074,"is_reserved":false,"is_disabled":false,"rental_uris":{"android":"levelo://app?vid=ed801aba-6299-4abc-846c-98c2ac128308","ios":"levelo://app?vid=ed801aba-6299-4abc-846c-98c2ac128308"},"vehicle_type_id":"4","last_reported":1771397357,"current_range_meters":24000,"station_id":"ce4bhhh2rcd13ifvqfk0","pricing_plan_id":"cebpf4jnsgd1na2vs0mg"},{"bike_id":"7073527e-a9ce-4e55-aa22-a8c5d17b756c","system_id":"levelo_inurba_marseille","lat":43.30603,"lon":5.37234,"is_reserved":false,"is_disabled":false,"rental_uris":{"android":"levelo://app?vid=7073527e-a9ce-4e55-aa22-a8c5d17b756c","ios":"levelo://app?vid=7073527e-a9ce-4e55-aa22-a8c5d17b756c"},"vehicle_type_id":"4","last_reported":1771397357,"current_range_meters":12800,"station_id":"ce4bgqh2rcd13ifvqc4g","pricing_plan_id":"cebpf4jnsgd1na2vs0mg"},{"bike_id":"0d1233e3-1195-40cd-8c66-3b11e1089ff0","system_id":"levelo_inurba_marseille","lat":43.2799,"lon":5.40028,"is_reserved":false,"is_disabled":false,"rental_uris":{"android":"levelo://app?vid=0d1233e3-1195-40cd-8c66-3b11e1089ff0","ios":"levelo://app?vid=0d1233e3-1195-40cd-8c66-3b11e1089ff0"},"vehicle_type_id":"4","last_reported":1771397357,"current_range_meters":37600,"station_id":"ce4bho92rcd13ifvqh4g","pricing_plan_id":"cebpf4jnsgd1na2vs0mg"},{"bike_id":"1b4c8f4f-9a12-4948-93fb-3c3dd57799f8","system_id":"levelo_inurba_marseille","lat":43.25569,"lon":5.38259,"is_reserved":false,"is_disabled":false,"rental_uris":{"android":"levelo://app?vid=1b4c8f4f-9a12-4948-93fb-3c3dd57799f8","ios":"levelo://app?vid=1b4c8f4f-9a12-4948-93fb-3c3dd57799f8"},"vehicle_type_id":"4","last_reported":1771397357,"current_range_meters":39200,"station_id":"ce4bhih2rcd13ifvqfs0","pricing_plan_id":"cebpf4jnsgd1na2vs0mg"},{"bike_id":"e59f665b-ca8e-40ab-a2ed-9455369e7fbf","system_id":"levelo_inurba_marseille","lat":43.28473,"lon":5.48403,"is_reserved":false,"is_disabled":false,"rental_uris":{"android":"levelo://app?vid=e59f665b-ca8e-40ab-a2ed-9455369e7fbf","ios":"levelo://app?vid=e59f665b-ca8e-40ab-a2ed-9455369e7fbf"},"vehicle_type_id":"4","last_reported":1771397357,"current_range_meters":28800,"station_id":"","pricing_plan_id":"cebpf4jnsgd1na2vs0mg"},{"bike_id":"95633e65-b602-48e1-a431-ae106c2dc067","system_id":"levelo_inurba_marseille","lat":43.24804,"lon":5.37464,"is_reserved":false,"is_disabled":false,"rental_uris":{"android":"levelo://app?vid=95633e65-b602-48e1-a431-ae106c2dc067","ios":"levelo://app?vid=95633e65-b602-48e1-a431-ae106c2dc067"},"vehicle_type_id":"4","last_reported":1771397357,"current_range_meters":38800,"station_id":"ce4bhgh2rcd13ifvqfb0","pricing_plan_id":"cebpf4jnsgd1na2vs0mg"},{"bike_id":"166d7348-1640-4661-96ec-9b4ea83ee6ee","system_id":"levelo_inurba_marseille","lat":43.2963,"lon":5.40606,"is_reserved":false,"is_disabled":false,"rental_uris":{"android":"levelo://app?vid=166d7348-1640-4661-96ec-9b4ea83ee6ee","ios":"levelo://app?vid=166d7348-1640-4661-96ec-9b4ea83ee6ee"},"vehicle_type_id":"4","last_reported":1771397357,"current_range_meters":8000,"station_id":"ce4bh0h2rcd13ifvqd60","pricing_plan_id":"cebpf4jnsgd1na2vs0mg"},{"bike_id":"8c21ace2-0801-4586-8cea-064ccad16c99","system_id":"levelo_inurba_marseille","lat":43.22553,"lon":5.41631,"is_reserved":false,"is_disabled":false,"rental_uris":{"android":"levelo://app?vid=8c21ace2-0801-4586-8cea-064ccad16c99","ios":"levelo://app?vid=8c21ace2-0801-4586-8cea-064ccad16c99"},"vehicle_type_id":"4","last_reported":1771397357,"current_range_meters":3200,"station_id":"st_d2o4gvlbi1j2169b742g","pricing_plan_id":"cebpf4jnsgd1na2vs0mg"},{"bike_id":"308510bb-b8ac-49d2-9b53-cfe59d6c8925","system_id":"levelo_inurba_marseille","lat":43.27315,"lon":5.39055,"is_reserved":false,"is_disabled":true,"rental_uris":{"android":"levelo://app?vid=308510bb-b8ac-49d2-9b53-cfe59d6c8925","ios":"levelo://app?vid=308510bb-b8ac-49d2-9b53-cfe59d6c8925"},"vehicle_type_id":"4","last_reported":1771397357,"current_range_meters":30800,"station_id":"ce4bhgp2rcd13ifvqfe0","pricing_plan_id":"cebpf4jnsgd1na2vs0mg"},{"bike_id":"0e05e070-4bde-49c4-addd-7b85f3d51760","system_id":"levelo_inurba_marseille","lat":43.26494,"lon":5.39579,"is_reserved":false,"is_disabled":false,"rental_uris":{"android":"levelo://app?vid=0e05e070-4bde-49c4-addd-7b85f3d51760","ios":"levelo://app?vid=0e05e070-4bde-49c4-addd-7b85f3d51760"},"vehicle_type_id":"4","last_reported":1771397357,"current_range_meters":30400,"station_id":"ce4bhi12rcd13ifvqfq0","pricing_plan_id":"cebpf4jnsgd1na2vs0mg"},{"bike_id":"bf9fd963-c917-4987-b8fc-44045f07c08b","system_id":"levelo_inurba_marseille","lat":43.31077,"lon":5.42421,"is_reserved":false,"is_disabled":false,"rental_uris":{"android":"levelo://app?vid=bf9fd963-c917-4987-b8fc-44045f07c08b","ios":"levelo://app?vid=bf9fd963-c917-4987-b8fc-44045f07c08b"},"vehicle_type_id":"4","last_reported":1771397357,"current_range_meters":22400,"station_id":"ce4bhp92rcd13ifvqhag","pricing_plan_id":"cebpf4jnsgd1na2vs0mg"},{"bike_id":"3d23ec2b-bc0f-4203-9b41-f53196129366","system_id":"levelo_inurba_marseille","lat":43.31112,"lon":5.3778,"is_reserved":false,"is_disabled":false,"rental_uris":{"android":"levelo://app?vid=3d23ec2b-bc0f-4203-9b41-f53196129366","ios":"levelo://app?vid=3d23ec2b-bc0f-4203-9b41-f53196129366"},"vehicle_type_id":"4","last_reported":1771397357,"current_range_meters":26800,"station_id":"ce4bgt92rcd13ifvqcg0","pricing_plan_id":"cebpf4jnsgd1na2vs0mg"},{"bike_id":"27586e15-78a0-41b9-981d-e5de2751a5b3","system_id":"levelo_inurba_marseille","lat":43.30306,"lon":5.36886,"is_reserved":false,"is_disabled":false,"rental_uris":{"android":"levelo://app?vid=27586e15-78a0-41b9-981d-e5de2751a5b3","ios":"levelo://app?vid=27586e15-78a0-41b9-981d-e5de2751a5b3"},"vehicle_type_id":"4","last_reported":1771397357,"current_range_meters":20400,"station_id":"ce4bgqh2rcd13ifvqc5g","pricing_plan_id":"cebpf4jnsgd1na2vs0mg"},{"bike_id":"c1d31fc2-028f-486d-bc46-9fe5c736e3a7","system_id":"levelo_inurba_marseille","lat":43.29186,"lon":5.35853,"is_reserved":false,"is_disabled":false,"rental_uris":{"android":"levelo://app?vid=c1d31fc2-028f-486d-bc46-9fe5c736e3a7","ios":"levelo://app?vid=c1d31fc2-028f-486d-bc46-9fe5c736e3a7"},"vehicle_type_id":"4","last_reported":1771397357,"current_range_meters":36000,"station_id":"","pricing_plan_id":"cebpf4jnsgd1na2vs0mg"},{"bike_id":"d3f778af-559d-4a52-8daa-42df030a0c20","system_id":"levelo_inurba_marseille","lat":43.29571,"lon":5.37531,"is_reserved":false,"is_disabled":false,"rental_uris":{"android":"levelo://app?vid=d3f778af-559d-4a52-8daa-42df030a0c20","ios":"levelo://app?vid=d3f778af-559d-4a52-8daa-42df030a0c20"},"vehicle_type_id":"4","last_reported":1771397357,"current_range_meters":36800,"station_id":"ce4bgh92rcd13ifvqb50","pricing_plan_id":"cebpf4jnsgd1na2vs0mg"},{"bike_id":"cdedfe68-8f81-48b1-a1d4-83bdd88645c6","system_id":"levelo_inurba_marseille","lat":43.22931,"lon":5.35377,"is_reserved":false,"is_disabled":false,"rental_uris":{"android":"levelo://app?vid=cdedfe68-8f81-48b1-a1d4-83bdd88645c6","ios":"levelo://app?vid=cdedfe68-8f81-48b1-a1d4-83bdd88645c6"},"vehicle_type_id":"4","last_reported":1771397357,"current_range_meters":33600,"station_id":"cpo3532slgdg3j2ikp40","pricing_plan_id":"cebpf4jnsgd1na2vs0mg"},{"bike_id":"e115df23-e43f-4ccb-8317-226a8cedd683","system_id":"levelo_inurba_marseille","lat":43.29598,"lon":5.36739,"is_reserved":false,"is_disabled":false,"rental_uris":{"android":"levelo://app?vid=e115df23-e43f-4ccb-8317-226a8cedd683","ios":"levelo://app?vid=e115df23-e43f-4ccb-8317-226a8cedd683"},"vehicle_type_id":"4","last_reported":1771397357,"current_range_meters":3200,"station_id":"ce4bgph2rcd13ifvqc2g","pricing_plan_id":"cebpf4jnsgd1na2vs0mg"},{"bike_id":"8d251374-08ed-443a-8f48-1872f76a3767","system_id":"levelo_inurba_marseille","lat":43.245505,"lon":5.395283,"is_reserved":false,"is_disabled":false,"rental_uris":{"android":"levelo://app?vid=8d251374-08ed-443a-8f48-1872f76a3767","ios":"levelo://app?vid=8d251374-08ed-443a-8f48-1872f76a3767"},"vehicle_type_id":"4","last_reported":1771397357,"current_range_meters":38800,"station_id":"ce4bhlp2rcd13ifvqgjg","pricing_plan_id":"cebpf4jnsgd1na2vs0mg"},{"bike_id":"b1a320b6-01b6-48eb-a1fe-07f3178b8e05","system_id":"levelo_inurba_marseille","lat":43.2572,"lon":5.41114,"is_reserved":false,"is_disabled":false,"rental_uris":{"android":"levelo://app?vid=b1a320b6-01b6-48eb-a1fe-07f3178b8e05","ios":"levelo://app?vid=b1a320b6-01b6-48eb-a1fe-07f3178b8e05"},"vehicle_type_id":"4","last_reported":1771397357,"current_range_meters":35600,"station_id":"ce4bhkp2rcd13ifvqgd0","pricing_plan_id":"cebpf4jnsgd1na2vs0mg"},{"bike_id":"12673977-5b25-450a-8cdc-00ac951258dd","system_id":"levelo_inurba_marseille","lat":43.3106,"lon":5.3717,"is_reserved":false,"is_disabled":true,"rental_uris":{"android":"levelo://app?vid=12673977-5b25-450a-8cdc-00ac951258dd","ios":"levelo://app?vid=12673977-5b25-450a-8cdc-00ac951258dd"},"vehicle_type_id":"4","last_reported":1771397357,"current_range_meters":37600,"station_id":"st_d4kl2rp97mjs73e7tdfg","pricing_plan_id":"cebpf4jnsgd1na2vs0mg"},{"bike_id":"099fe592-2fa3-4f57-bfab-42a8e4b3770c","system_id":"levelo_inurba_marseille","lat":43.23187,"lon":5.39987,"is_reserved":false,"is_disabled":false,"rental_uris":{"android":"levelo://app?vid=099fe592-2fa3-4f57-bfab-42a8e4b3770c","ios":"levelo://app?vid=099fe592-2fa3-4f57-bfab-42a8e4b3770c"},"vehicle_type_id":"4","last_reported":1771397357,"current_range_meters":22000,"station_id":"ce4bhn12rcd13ifvqgqg","pricing_plan_id":"cebpf4jnsgd1na2vs0mg"},{"bike_id":"1f735b1b-e1ae-4050-81fc-a6c436a8808b","system_id":"levelo_inurba_marseille","lat":43.30782,"lon":5.3765,"is_reserved":false,"is_disabled":false,"rental_uris":{"android":"levelo://app?vid=1f735b1b-e1ae-4050-81fc-a6c436a8808b","ios":"levelo://app?vid=1f735b1b-e1ae-4050-81fc-a6c436a8808b"},"vehicle_type_id":"4","last_reported":1771397357,"current_range_meters":14000,"station_id":"ce4bgv92rcd13ifvqcq0","pricing_plan_id":"cebpf4jnsgd1na2vs0mg"},{"bike_id":"dbee3b04-5ad0-4739-9be1-4a344053621f","system_id":"levelo_inurba_marseille","lat":43.299708,"lon":5.41323,"is_reserved":false,"is_disabled":false,"rental_uris":{"android":"levelo://app?vid=dbee3b04-5ad0-4739-9be1-4a344053621f","ios":"levelo://app?vid=dbee3b04-5ad0-4739-9be1-4a344053621f"},"vehicle_type_id":"4","last_reported":1771397357,"current_range_meters":28400,"station_id":"ce4bhp12rcd13ifvqh9g","pricing_plan_id":"cebpf4jnsgd1na2vs0mg"},{"bike_id":"1a084a67-df6a-419d-8bcc-b438626834eb","system_id":"levelo_inurba_marseille","lat":43.30264,"lon":5.40046,"is_reserved":false,"is_disabled":false,"rental_uris":{"android":"levelo://app?vid=1a084a67-df6a-419d-8bcc-b438626834eb","ios":"levelo://app?vid=1a084a67-df6a-419d-8bcc-b438626834eb"},"vehicle_type_id":"4","last_reported":1771397357,"current_range_meters":8400,"station_id":"ce4bgvh2rcd13ifvqcs0","pricing_plan_id":"cebpf4jnsgd1na2vs0mg"},{"bike_id":"201ca36c-c632-433f-8e63-028103426023","system_id":"levelo_inurba_marseille","lat":43.28472,"lon":5.484057,"is_reserved":false,"is_disabled":false,"rental_uris":{"android":"levelo://app?vid=201ca36c-c632-433f-8e63-028103426023","ios":"levelo://app?vid=201ca36c-c632-433f-8e63-028103426023"},"vehicle_type_id":"4","last_reported":1771397357,"current_range_meters":16000,"station_id":"","pricing_plan_id":"cebpf4jnsgd1na2vs0mg"},{"bike_id":"ef70ce12-fd44-42a0-88ed-3b2ca489b7fa","system_id":"levelo_inurba_marseille","lat":43.28844,"lon":5.42535,"is_reserved":false,"is_disabled":false,"rental_uris":{"android":"levelo://app?vid=ef70ce12-fd44-42a0-88ed-3b2ca489b7fa","ios":"levelo://app?vid=ef70ce12-fd44-42a0-88ed-3b2ca489b7fa"},"vehicle_type_id":"4","last_reported":1771397357,"current_range_meters":38800,"station_id":"st_d3b462108ojc7389ooeg","pricing_plan_id":"cebpf4jnsgd1na2vs0mg"},{"bike_id":"7767be00-b176-480e-a0ba-3f8b77bcff34","system_id":"levelo_inurba_marseille","lat":43.28364,"lon":5.38626,"is_reserved":false,"is_disabled":false,"rental_uris":{"android":"levelo://app?vid=7767be00-b176-480e-a0ba-3f8b77bcff34","ios":"levelo://app?vid=7767be00-b176-480e-a0ba-3f8b77bcff34"},"vehicle_type_id":"4","last_reported":1771397357,"current_range_meters":26000,"station_id":"ce4bh492rcd13ifvqdvg","pricing_plan_id":"cebpf4jnsgd1na2vs0mg"},{"bike_id":"caa5ea2a-af5e-4ffa-9170-2afae278b38b","system_id":"levelo_inurba_marseille","lat":43.31121,"lon":5.37773,"is_reserved":false,"is_disabled":false,"rental_uris":{"android":"levelo://app?vid=caa5ea2a-af5e-4ffa-9170-2afae278b38b","ios":"levelo://app?vid=caa5ea2a-af5e-4ffa-9170-2afae278b38b"},"vehicle_type_id":"4","last_reported":1771397357,"current_range_meters":10800,"station_id":"ce4bgt92rcd13ifvqcg0","pricing_plan_id":"cebpf4jnsgd1na2vs0mg"},{"bike_id":"6fec69ba-0d14-4aa9-ac7c-84360db34806","system_id":"levelo_inurba_marseille","lat":43.24462,"lon":5.42559,"is_reserved":false,"is_disabled":false,"rental_uris":{"android":"levelo://app?vid=6fec69ba-0d14-4aa9-ac7c-84360db34806","ios":"levelo://app?vid=6fec69ba-0d14-4aa9-ac7c-84360db34806"},"vehicle_type_id":"4","last_reported":1771397357,"current_range_meters":21600,"station_id":"st_d4a3vfp97mjs738cd8kg","pricing_plan_id":"cebpf4jnsgd1na2vs0mg"},{"bike_id":"cb509310-17ae-4825-96ca-f1bb2a26486b","system_id":"levelo_inurba_marseille","lat":43.29563,"lon":5.39974,"is_reserved":false,"is_disabled":false,"rental_uris":{"android":"levelo://app?vid=cb509310-17ae-4825-96ca-f1bb2a26486b","ios":"levelo://app?vid=cb509310-17ae-4825-96ca-f1bb2a26486b"},"vehicle_type_id":"4","last_reported":1771397357,"current_range_meters":37600,"station_id":"ce4bh312rcd13ifvqdj0","pricing_plan_id":"cebpf4jnsgd1na2vs0mg"},{"bike_id":"8bf2d0df-8b7d-4eb2-94b6-d4452162fe0e","system_id":"levelo_inurba_marseille","lat":43.26577,"lon":5.39005,"is_reserved":false,"is_disabled":false,"rental_uris":{"android":"levelo://app?vid=8bf2d0df-8b7d-4eb2-94b6-d4452162fe0e","ios":"levelo://app?vid=8bf2d0df-8b7d-4eb2-94b6-d4452162fe0e"},"vehicle_type_id":"4","last_reported":1771397357,"current_range_meters":14000,"station_id":"ce4bhe12rcd13ifvqf30","pricing_plan_id":"cebpf4jnsgd1na2vs0mg"},{"bike_id":"9d972ba6-6aef-4d7c-802a-9b5d16159dec","system_id":"levelo_inurba_marseille","lat":43.31601,"lon":5.3879,"is_reserved":false,"is_disabled":false,"rental_uris":{"android":"levelo://app?vid=9d972ba6-6aef-4d7c-802a-9b5d16159dec","ios":"levelo://app?vid=9d972ba6-6aef-4d7c-802a-9b5d16159dec"},"vehicle_type_id":"4","last_reported":1771397357,"current_range_meters":4000,"station_id":"","pricing_plan_id":"cebpf4jnsgd1na2vs0mg"},{"bike_id":"5b012de4-7e8b-4538-86be-6640a0946719","system_id":"levelo_inurba_marseille","lat":43.241721,"lon":5.363977,"is_reserved":false,"is_disabled":true,"rental_uris":{"android":"levelo://app?vid=5b012de4-7e8b-4538-86be-6640a0946719","ios":"levelo://app?vid=5b012de4-7e8b-4538-86be-6640a0946719"},"vehicle_type_id":"4","last_reported":1771397357,"current_range_meters":18800,"station_id":"cpo36qri1sfpv3e86is0","pricing_plan_id":"cebpf4jnsgd1na2vs0mg"},{"bike_id":"830558c5-d95f-4b78-8552-1919bea3a4d5","system_id":"levelo_inurba_marseille","lat":43.29561,"lon":5.40002,"is_reserved":false,"is_disabled":false,"rental_uris":{"android":"levelo://app?vid=830558c5-d95f-4b78-8552-1919bea3a4d5","ios":"levelo://app?vid=830558c5-d95f-4b78-8552-1919bea3a4d5"},"vehicle_type_id":"4","last_reported":1771397357,"current_range_meters":11200,"station_id":"ce4bh312rcd13ifvqdj0","pricing_plan_id":"cebpf4jnsgd1na2vs0mg"},{"bike_id":"82ca3551-43ce-4e9e-ac95-106f6e9c3b24","system_id":"levelo_inurba_marseille","lat":43.30322,"lon":5.40444,"is_reserved":false,"is_disabled":false,"rental_uris":{"android":"levelo://app?vid=82ca3551-43ce-4e9e-ac95-106f6e9c3b24","ios":"levelo://app?vid=82ca3551-43ce-4e9e-ac95-106f6e9c3b24"},"vehicle_type_id":"4","last_reported":1771397357,"current_range_meters":6800,"station_id":"ce4bh012rcd13ifvqd10","pricing_plan_id":"cebpf4jnsgd1na2vs0mg"},{"bike_id":"4176571c-754f-4582-8e5a-2f156b2feddd","system_id":"levelo_inurba_marseille","lat":43.25568,"lon":5.38219,"is_reserved":false,"is_disabled":false,"rental_uris":{"android":"levelo://app?vid=4176571c-754f-4582-8e5a-2f156b2feddd","ios":"levelo://app?vid=4176571c-754f-4582-8e5a-2f156b2feddd"},"vehicle_type_id":"4","last_reported":1771397357,"current_range_meters":27600,"station_id":"ce4bhih2rcd13ifvqfs0","pricing_plan_id":"cebpf4jnsgd1na2vs0mg"},{"bike_id":"e764085e-f4e1-42a6-baab-ba6d13c85e46","system_id":"levelo_inurba_marseille","lat":43.27367,"lon":5.36267,"is_reserved":false,"is_disabled":false,"rental_uris":{"android":"levelo://app?vid=e764085e-f4e1-42a6-baab-ba6d13c85e46","ios":"levelo://app?vid=e764085e-f4e1-42a6-baab-ba6d13c85e46"},"vehicle_type_id":"4","last_reported":1771397357,"current_range_meters":15200,"station_id":"ce4bhbh2rcd13ifvqeo0","pricing_plan_id":"cebpf4jnsgd1na2vs0mg"},{"bike_id":"96438059-8ec7-4cad-b18f-887d9f3a4374","system_id":"levelo_inurba_marseille","lat":43.31499,"lon":5.3732,"is_reserved":false,"is_disabled":false,"rental_uris":{"android":"levelo://app?vid=96438059-8ec7-4cad-b18f-887d9f3a4374","ios":"levelo://app?vid=96438059-8ec7-4cad-b18f-887d9f3a4374"},"vehicle_type_id":"4","last_reported":1771397357,"current_range_meters":38000,"station_id":"ce4bgt12rcd13ifvqcd0","pricing_plan_id":"cebpf4jnsgd1na2vs0mg"},{"bike_id":"d1443d61-dcd2-47be-98af-542c0d116e2b","system_id":"levelo_inurba_marseille","lat":43.30593,"lon":5.37205,"is_reserved":false,"is_disabled":false,"rental_uris":{"android":"levelo://app?vid=d1443d61-dcd2-47be-98af-542c0d116e2b","ios":"levelo://app?vid=d1443d61-dcd2-47be-98af-542c0d116e2b"},"vehicle_type_id":"4","last_reported":1771397357,"current_range_meters":28400,"station_id":"ce4bgqh2rcd13ifvqc4g","pricing_plan_id":"cebpf4jnsgd1na2vs0mg"},{"bike_id":"d2da1ea4-6575-49d3-9539-e05d30b7cc3d","system_id":"levelo_inurba_marseille","lat":43.26059,"lon":5.39402,"is_reserved":false,"is_disabled":false,"rental_uris":{"android":"levelo://app?vid=d2da1ea4-6575-49d3-9539-e05d30b7cc3d","ios":"levelo://app?vid=d2da1ea4-6575-49d3-9539-e05d30b7cc3d"},"vehicle_type_id":"4","last_reported":1771397357,"current_range_meters":39200,"station_id":"ce4bhh92rcd13ifvqfj0","pricing_plan_id":"cebpf4jnsgd1na2vs0mg"},{"bike_id":"e42abfc3-adea-4233-9d83-5b753bc84b95","system_id":"levelo_inurba_marseille","lat":43.25079,"lon":5.39519,"is_reserved":false,"is_disabled":false,"rental_uris":{"android":"levelo://app?vid=e42abfc3-adea-4233-9d83-5b753bc84b95","ios":"levelo://app?vid=e42abfc3-adea-4233-9d83-5b753bc84b95"},"vehicle_type_id":"4","last_reported":1771397357,"current_range_meters":38400,"station_id":"ce4bhm12rcd13ifvqgkg","pricing_plan_id":"cebpf4jnsgd1na2vs0mg"},{"bike_id":"3cdfc664-9aa0-4197-963c-e24c4c695787","system_id":"levelo_inurba_marseille","lat":43.27034,"lon":5.42307,"is_reserved":false,"is_disabled":false,"rental_uris":{"android":"levelo://app?vid=3cdfc664-9aa0-4197-963c-e24c4c695787","ios":"levelo://app?vid=3cdfc664-9aa0-4197-963c-e24c4c695787"},"vehicle_type_id":"4","last_reported":1771397357,"current_range_meters":39200,"station_id":"ce4bhk92rcd13ifvqgb0","pricing_plan_id":"cebpf4jnsgd1na2vs0mg"},{"bike_id":"9c7f6069-ad07-4506-a19b-00813fe867d7","system_id":"levelo_inurba_marseille","lat":43.30921,"lon":5.36853,"is_reserved":false,"is_disabled":false,"rental_uris":{"android":"levelo://app?vid=9c7f6069-ad07-4506-a19b-00813fe867d7","ios":"levelo://app?vid=9c7f6069-ad07-4506-a19b-00813fe867d7"},"vehicle_type_id":"4","last_reported":1771397357,"current_range_meters":35200,"station_id":"ce4bgn92rcd13ifvqbvg","pricing_plan_id":"cebpf4jnsgd1na2vs0mg"},{"bike_id":"e60127d0-f0ba-4f17-b894-973d5e959e51","system_id":"levelo_inurba_marseille","lat":43.31708,"lon":5.37747,"is_reserved":false,"is_disabled":false,"rental_uris":{"android":"levelo://app?vid=e60127d0-f0ba-4f17-b894-973d5e959e51","ios":"levelo://app?vid=e60127d0-f0ba-4f17-b894-973d5e959e51"},"vehicle_type_id":"4","last_reported":1771397357,"current_range_meters":23200,"station_id":"ce4bgth2rcd13ifvqch0","pricing_plan_id":"cebpf4jnsgd1na2vs0mg"},{"bike_id":"200f07f2-6ab6-46ed-9f22-639cf1d5ab95","system_id":"levelo_inurba_marseille","lat":43.27117,"lon":5.42331,"is_reserved":false,"is_disabled":false,"rental_uris":{"android":"levelo://app?vid=200f07f2-6ab6-46ed-9f22-639cf1d5ab95","ios":"levelo://app?vid=200f07f2-6ab6-46ed-9f22-639cf1d5ab95"},"vehicle_type_id":"4","last_reported":1771397357,"current_range_meters":34000,"station_id":"","pricing_plan_id":"cebpf4jnsgd1na2vs0mg"},{"bike_id":"3f7fa1ea-8472-4513-84b5-2b71e16459d2","system_id":"levelo_inurba_marseille","lat":43.31318,"lon":5.39707,"is_reserved":false,"is_disabled":false,"rental_uris":{"android":"levelo://app?vid=3f7fa1ea-8472-4513-84b5-2b71e16459d2","ios":"levelo://app?vid=3f7fa1ea-8472-4513-84b5-2b71e16459d2"},"vehicle_type_id":"4","last_reported":1771397357,"current_range_meters":17600,"station_id":"ce4bgvp2rcd13ifvqcu0","pricing_plan_id":"cebpf4jnsgd1na2vs0mg"},{"bike_id":"c66e1801-416f-4e02-9696-85b47326aa6f","system_id":"levelo_inurba_marseille","lat":43.28848,"lon":5.39348,"is_reserved":false,"is_disabled":false,"rental_uris":{"android":"levelo://app?vid=c66e1801-416f-4e02-9696-85b47326aa6f","ios":"levelo://app?vid=c66e1801-416f-4e02-9696-85b47326aa6f"},"vehicle_type_id":"4","last_reported":1771397357,"current_range_meters":39200,"station_id":"ce4bh2p2rcd13ifvqdi0","pricing_plan_id":"cebpf4jnsgd1na2vs0mg"},{"bike_id":"b1048a2f-4d8d-48be-b11f-0004985f0961","system_id":"levelo_inurba_marseille","lat":43.29891,"lon":5.38934,"is_reserved":false,"is_disabled":false,"rental_uris":{"android":"levelo://app?vid=b1048a2f-4d8d-48be-b11f-0004985f0961","ios":"levelo://app?vid=b1048a2f-4d8d-48be-b11f-0004985f0961"},"vehicle_type_id":"4","last_reported":1771397357,"current_range_meters":38000,"station_id":"ce4bh392rcd13ifvqdl0","pricing_plan_id":"cebpf4jnsgd1na2vs0mg"},{"bike_id":"a7384975-bc4a-4fd4-a2fe-4675e2f918a3","system_id":"levelo_inurba_marseille","lat":43.28851,"lon":5.35898,"is_reserved":false,"is_disabled":false,"rental_uris":{"android":"levelo://app?vid=a7384975-bc4a-4fd4-a2fe-4675e2f918a3","ios":"levelo://app?vid=a7384975-bc4a-4fd4-a2fe-4675e2f918a3"},"vehicle_type_id":"4","last_reported":1771397357,"current_range_meters":36000,"station_id":"ce4bhb12rcd13ifvqem0","pricing_plan_id":"cebpf4jnsgd1na2vs0mg"},{"bike_id":"bbdb71e5-6253-488d-a260-b802112b3efc","system_id":"levelo_inurba_marseille","lat":43.28017,"lon":5.36943,"is_reserved":false,"is_disabled":false,"rental_uris":{"android":"levelo://app?vid=bbdb71e5-6253-488d-a260-b802112b3efc","ios":"levelo://app?vid=bbdb71e5-6253-488d-a260-b802112b3efc"},"vehicle_type_id":"4","last_reported":1771397357,"current_range_meters":39200,"station_id":"ce4bha12rcd13ifvqef0","pricing_plan_id":"cebpf4jnsgd1na2vs0mg"},{"bike_id":"f6041667-a189-4c35-8328-024fab0e230c","system_id":"levelo_inurba_marseille","lat":43.26487,"lon":5.39542,"is_reserved":false,"is_disabled":false,"rental_uris":{"android":"levelo://app?vid=f6041667-a189-4c35-8328-024fab0e230c","ios":"levelo://app?vid=f6041667-a189-4c35-8328-024fab0e230c"},"vehicle_type_id":"4","last_reported":1771397357,"current_range_meters":15200,"station_id":"ce4bhi12rcd13ifvqfq0","pricing_plan_id":"cebpf4jnsgd1na2vs0mg"},{"bike_id":"9da307a9-6eeb-417a-bd1a-5a2bc5ec4b21","system_id":"levelo_inurba_marseille","lat":43.297003,"lon":5.376916,"is_reserved":false,"is_disabled":false,"rental_uris":{"android":"levelo://app?vid=9da307a9-6eeb-417a-bd1a-5a2bc5ec4b21","ios":"levelo://app?vid=9da307a9-6eeb-417a-bd1a-5a2bc5ec4b21"},"vehicle_type_id":"4","last_reported":1771397357,"current_range_meters":31200,"station_id":"ce4bh4p2rcd13ifvqe1g","pricing_plan_id":"cebpf4jnsgd1na2vs0mg"},{"bike_id":"c7d2b54a-d383-408d-9a81-b600a9105a37","system_id":"levelo_inurba_marseille","lat":43.335532,"lon":5.374504,"is_reserved":false,"is_disabled":false,"rental_uris":{"android":"levelo://app?vid=c7d2b54a-d383-408d-9a81-b600a9105a37","ios":"levelo://app?vid=c7d2b54a-d383-408d-9a81-b600a9105a37"},"vehicle_type_id":"4","last_reported":1771397357,"current_range_meters":25600,"station_id":"st_d46tts09ee8s73dlu43g","pricing_plan_id":"cebpf4jnsgd1na2vs0mg"},{"bike_id":"63ae0a89-84dd-4610-956c-5ca0f2704326","system_id":"levelo_inurba_marseille","lat":43.28568,"lon":5.39494,"is_reserved":false,"is_disabled":false,"rental_uris":{"android":"levelo://app?vid=63ae0a89-84dd-4610-956c-5ca0f2704326","ios":"levelo://app?vid=63ae0a89-84dd-4610-956c-5ca0f2704326"},"vehicle_type_id":"4","last_reported":1771397357,"current_range_meters":38000,"station_id":"ce4bh292rcd13ifvqdg0","pricing_plan_id":"cebpf4jnsgd1na2vs0mg"},{"bike_id":"03ae242d-7c3f-4e64-b4ea-0fd10be2035b","system_id":"levelo_inurba_marseille","lat":43.29756,"lon":5.42787,"is_reserved":false,"is_disabled":false,"rental_uris":{"android":"levelo://app?vid=03ae242d-7c3f-4e64-b4ea-0fd10be2035b","ios":"levelo://app?vid=03ae242d-7c3f-4e64-b4ea-0fd10be2035b"},"vehicle_type_id":"4","last_reported":1771397357,"current_range_meters":31200,"station_id":"st_d3md5207bmas73dh9klg","pricing_plan_id":"cebpf4jnsgd1na2vs0mg"},{"bike_id":"a5972606-28e9-4727-9509-e8ad00c9f8f8","system_id":"levelo_inurba_marseille","lat":43.25479,"lon":5.3765,"is_reserved":false,"is_disabled":false,"rental_uris":{"android":"levelo://app?vid=a5972606-28e9-4727-9509-e8ad00c9f8f8","ios":"levelo://app?vid=a5972606-28e9-4727-9509-e8ad00c9f8f8"},"vehicle_type_id":"4","last_reported":1771397357,"current_range_meters":20800,"station_id":"ce4bhh12rcd13ifvqff0","pricing_plan_id":"cebpf4jnsgd1na2vs0mg"},{"bike_id":"f2d6ea2d-0a79-41c9-8a1a-cadf5d6f6d16","system_id":"levelo_inurba_marseille","lat":43.30291,"lon":5.39215,"is_reserved":false,"is_disabled":false,"rental_uris":{"android":"levelo://app?vid=f2d6ea2d-0a79-41c9-8a1a-cadf5d6f6d16","ios":"levelo://app?vid=f2d6ea2d-0a79-41c9-8a1a-cadf5d6f6d16"},"vehicle_type_id":"4","last_reported":1771397357,"current_range_meters":38400,"station_id":"ce4bgkh2rcd13ifvqbk0","pricing_plan_id":"cebpf4jnsgd1na2vs0mg"},{"bike_id":"bc33fc08-f85a-4f32-84fb-8b24d5daa10d","system_id":"levelo_inurba_marseille","lat":43.28017,"lon":5.41655,"is_reserved":false,"is_disabled":false,"rental_uris":{"android":"levelo://app?vid=bc33fc08-f85a-4f32-84fb-8b24d5daa10d","ios":"levelo://app?vid=bc33fc08-f85a-4f32-84fb-8b24d5daa10d"},"vehicle_type_id":"4","last_reported":1771397357,"current_range_meters":36400,"station_id":"ce4bho12rcd13ifvqh1g","pricing_plan_id":"cebpf4jnsgd1na2vs0mg"},{"bike_id":"092117a9-4db6-42cb-9df2-c9f3a42c8f5a","system_id":"levelo_inurba_marseille","lat":43.248165,"lon":5.374593,"is_reserved":false,"is_disabled":false,"rental_uris":{"android":"levelo://app?vid=092117a9-4db6-42cb-9df2-c9f3a42c8f5a","ios":"levelo://app?vid=092117a9-4db6-42cb-9df2-c9f3a42c8f5a"},"vehicle_type_id":"4","last_reported":1771397357,"current_range_meters":39200,"station_id":"ce4bhgh2rcd13ifvqfb0","pricing_plan_id":"cebpf4jnsgd1na2vs0mg"},{"bike_id":"b56380f9-a759-4bad-ae97-ee9b0c34fdbe","system_id":"levelo_inurba_marseille","lat":43.33535,"lon":5.37475,"is_reserved":false,"is_disabled":false,"rental_uris":{"android":"levelo://app?vid=b56380f9-a759-4bad-ae97-ee9b0c34fdbe","ios":"levelo://app?vid=b56380f9-a759-4bad-ae97-ee9b0c34fdbe"},"vehicle_type_id":"4","last_reported":1771397357,"current_range_meters":25600,"station_id":"st_d46tts09ee8s73dlu43g","pricing_plan_id":"cebpf4jnsgd1na2vs0mg"},{"bike_id":"e0f2aa0c-fa50-47c9-91f1-caaa0f958d23","system_id":"levelo_inurba_marseille","lat":43.29967,"lon":5.38499,"is_reserved":false,"is_disabled":false,"rental_uris":{"android":"levelo://app?vid=e0f2aa0c-fa50-47c9-91f1-caaa0f958d23","ios":"levelo://app?vid=e0f2aa0c-fa50-47c9-91f1-caaa0f958d23"},"vehicle_type_id":"4","last_reported":1771397357,"current_range_meters":16400,"station_id":"ce4bgj92rcd13ifvqbd0","pricing_plan_id":"cebpf4jnsgd1na2vs0mg"},{"bike_id":"0c16e972-d768-410e-b841-98cd328de408","system_id":"levelo_inurba_marseille","lat":43.28665,"lon":5.36356,"is_reserved":false,"is_disabled":false,"rental_uris":{"android":"levelo://app?vid=0c16e972-d768-410e-b841-98cd328de408","ios":"levelo://app?vid=0c16e972-d768-410e-b841-98cd328de408"},"vehicle_type_id":"4","last_reported":1771397357,"current_range_meters":39200,"station_id":"ce4bhah2rcd13ifvqej0","pricing_plan_id":"cebpf4jnsgd1na2vs0mg"},{"bike_id":"e5c37de4-5b20-40fe-851e-2d0c03d75c93","system_id":"levelo_inurba_marseille","lat":43.33125,"lon":5.39271,"is_reserved":false,"is_disabled":false,"rental_uris":{"android":"levelo://app?vid=e5c37de4-5b20-40fe-851e-2d0c03d75c93","ios":"levelo://app?vid=e5c37de4-5b20-40fe-851e-2d0c03d75c93"},"vehicle_type_id":"4","last_reported":1771397357,"current_range_meters":17200,"station_id":"","pricing_plan_id":"cebpf4jnsgd1na2vs0mg"},{"bike_id":"07b0f432-5e82-4f8c-81ee-67d93dfdf4d8","system_id":"levelo_inurba_marseille","lat":43.28603,"lon":5.3511,"is_reserved":false,"is_disabled":false,"rental_uris":{"android":"levelo://app?vid=07b0f432-5e82-4f8c-81ee-67d93dfdf4d8","ios":"levelo://app?vid=07b0f432-5e82-4f8c-81ee-67d93dfdf4d8"},"vehicle_type_id":"4","last_reported":1771397357,"current_range_meters":9600,"station_id":"ce4bhch2rcd13ifvqeug","pricing_plan_id":"cebpf4jnsgd1na2vs0mg"},{"bike_id":"127677c5-4cab-4685-9cfe-a1e546a48838","system_id":"levelo_inurba_marseille","lat":43.32106,"lon":5.36832,"is_reserved":false,"is_disabled":false,"rental_uris":{"android":"levelo://app?vid=127677c5-4cab-4685-9cfe-a1e546a48838","ios":"levelo://app?vid=127677c5-4cab-4685-9cfe-a1e546a48838"},"vehicle_type_id":"4","last_reported":1771397357,"current_range_meters":20000,"station_id":"","pricing_plan_id":"cebpf4jnsgd1na2vs0mg"},{"bike_id":"dcd0cf55-ffb3-4ae8-85bc-3fda68997124","system_id":"levelo_inurba_marseille","lat":43.26975,"lon":5.38647,"is_reserved":false,"is_disabled":false,"rental_uris":{"android":"levelo://app?vid=dcd0cf55-ffb3-4ae8-85bc-3fda68997124","ios":"levelo://app?vid=dcd0cf55-ffb3-4ae8-85bc-3fda68997124"},"vehicle_type_id":"4","last_reported":1771397357,"current_range_meters":16000,"station_id":"ce4bhh92rcd13ifvqfh0","pricing_plan_id":"cebpf4jnsgd1na2vs0mg"},{"bike_id":"f90b2d33-cc11-4294-a92d-62c3870282df","system_id":"levelo_inurba_marseille","lat":43.2466,"lon":5.38174,"is_reserved":false,"is_disabled":false,"rental_uris":{"android":"levelo://app?vid=f90b2d33-cc11-4294-a92d-62c3870282df","ios":"levelo://app?vid=f90b2d33-cc11-4294-a92d-62c3870282df"},"vehicle_type_id":"4","last_reported":1771397357,"current_range_meters":10800,"station_id":"ce4bhih2rcd13ifvqfr0","pricing_plan_id":"cebpf4jnsgd1na2vs0mg"},{"bike_id":"ad0ae30e-5c7c-4f06-9da3-238a8444897d","system_id":"levelo_inurba_marseille","lat":43.28609,"lon":5.35117,"is_reserved":false,"is_disabled":false,"rental_uris":{"android":"levelo://app?vid=ad0ae30e-5c7c-4f06-9da3-238a8444897d","ios":"levelo://app?vid=ad0ae30e-5c7c-4f06-9da3-238a8444897d"},"vehicle_type_id":"4","last_reported":1771397357,"current_range_meters":35200,"station_id":"ce4bhch2rcd13ifvqeug","pricing_plan_id":"cebpf4jnsgd1na2vs0mg"},{"bike_id":"fa23ee29-e460-4d04-841e-1b4c90ee20c1","system_id":"levelo_inurba_marseille","lat":43.30159,"lon":5.38084,"is_reserved":false,"is_disabled":true,"rental_uris":{"android":"levelo://app?vid=fa23ee29-e460-4d04-841e-1b4c90ee20c1","ios":"levelo://app?vid=fa23ee29-e460-4d04-841e-1b4c90ee20c1"},"vehicle_type_id":"4","last_reported":1771397357,"current_range_meters":0,"station_id":"ce4bgjp2rcd13ifvqbh0","pricing_plan_id":"cebpf4jnsgd1na2vs0mg"},{"bike_id":"1dfc9df6-efc3-44e1-bfa7-eabdccc695a9","system_id":"levelo_inurba_marseille","lat":43.33552,"lon":5.37466,"is_reserved":false,"is_disabled":false,"rental_uris":{"android":"levelo://app?vid=1dfc9df6-efc3-44e1-bfa7-eabdccc695a9","ios":"levelo://app?vid=1dfc9df6-efc3-44e1-bfa7-eabdccc695a9"},"vehicle_type_id":"4","last_reported":1771397357,"current_range_meters":15200,"station_id":"st_d46tts09ee8s73dlu43g","pricing_plan_id":"cebpf4jnsgd1na2vs0mg"},{"bike_id":"feddf533-e694-4295-8a00-2ac5034dd517","system_id":"levelo_inurba_marseille","lat":43.23961,"lon":5.36635,"is_reserved":false,"is_disabled":false,"rental_uris":{"android":"levelo://app?vid=feddf533-e694-4295-8a00-2ac5034dd517","ios":"levelo://app?vid=feddf533-e694-4295-8a00-2ac5034dd517"},"vehicle_type_id":"4","last_reported":1771397357,"current_range_meters":9600,"station_id":"ce4bhi12rcd13ifvqfp0","pricing_plan_id":"cebpf4jnsgd1na2vs0mg"},{"bike_id":"14867868-6aed-41c1-9296-5792e4f862f8","system_id":"levelo_inurba_marseille","lat":43.25328,"lon":5.42148,"is_reserved":false,"is_disabled":false,"rental_uris":{"android":"levelo://app?vid=14867868-6aed-41c1-9296-5792e4f862f8","ios":"levelo://app?vid=14867868-6aed-41c1-9296-5792e4f862f8"},"vehicle_type_id":"4","last_reported":1771397357,"current_range_meters":28400,"station_id":"st_d2m65c5bi1j21697t3ng","pricing_plan_id":"cebpf4jnsgd1na2vs0mg"},{"bike_id":"2f84c6f6-1af1-4f12-9943-f4b364371f34","system_id":"levelo_inurba_marseille","lat":43.305502,"lon":5.365259,"is_reserved":false,"is_disabled":false,"rental_uris":{"android":"levelo://app?vid=2f84c6f6-1af1-4f12-9943-f4b364371f34","ios":"levelo://app?vid=2f84c6f6-1af1-4f12-9943-f4b364371f34"},"vehicle_type_id":"4","last_reported":1771397357,"current_range_meters":10800,"station_id":"ce4bgs12rcd13ifvqcag","pricing_plan_id":"cebpf4jnsgd1na2vs0mg"},{"bike_id":"dd69c8ef-07be-45ad-91de-2e98fabbe046","system_id":"levelo_inurba_marseille","lat":43.2321,"lon":5.35605,"is_reserved":false,"is_disabled":false,"rental_uris":{"android":"levelo://app?vid=dd69c8ef-07be-45ad-91de-2e98fabbe046","ios":"levelo://app?vid=dd69c8ef-07be-45ad-91de-2e98fabbe046"},"vehicle_type_id":"4","last_reported":1771397357,"current_range_meters":6800,"station_id":"ce4bhu92rcd13ifvqi70","pricing_plan_id":"cebpf4jnsgd1na2vs0mg"},{"bike_id":"e5ddf298-59a6-48a6-9f22-1ea1820e4aeb","system_id":"levelo_inurba_marseille","lat":43.28079,"lon":5.39694,"is_reserved":false,"is_disabled":false,"rental_uris":{"android":"levelo://app?vid=e5ddf298-59a6-48a6-9f22-1ea1820e4aeb","ios":"levelo://app?vid=e5ddf298-59a6-48a6-9f22-1ea1820e4aeb"},"vehicle_type_id":"4","last_reported":1771397357,"current_range_meters":38800,"station_id":"ce4bho12rcd13ifvqh2g","pricing_plan_id":"cebpf4jnsgd1na2vs0mg"},{"bike_id":"400a55e3-1f67-48f3-b2a0-4ffd9094c8ef","system_id":"levelo_inurba_marseille","lat":43.25738,"lon":5.41106,"is_reserved":false,"is_disabled":false,"rental_uris":{"android":"levelo://app?vid=400a55e3-1f67-48f3-b2a0-4ffd9094c8ef","ios":"levelo://app?vid=400a55e3-1f67-48f3-b2a0-4ffd9094c8ef"},"vehicle_type_id":"4","last_reported":1771397357,"current_range_meters":28400,"station_id":"ce4bhkp2rcd13ifvqgd0","pricing_plan_id":"cebpf4jnsgd1na2vs0mg"},{"bike_id":"81344eeb-0d9f-4bfa-960f-ef059aa48412","system_id":"levelo_inurba_marseille","lat":43.30956,"lon":5.40132,"is_reserved":false,"is_disabled":false,"rental_uris":{"android":"levelo://app?vid=81344eeb-0d9f-4bfa-960f-ef059aa48412","ios":"levelo://app?vid=81344eeb-0d9f-4bfa-960f-ef059aa48412"},"vehicle_type_id":"4","last_reported":1771397357,"current_range_meters":26000,"station_id":"ce4bgvp2rcd13ifvqct0","pricing_plan_id":"cebpf4jnsgd1na2vs0mg"},{"bike_id":"3a250188-b9fa-4b64-a291-359ab2782e87","system_id":"levelo_inurba_marseille","lat":43.31241,"lon":5.40188,"is_reserved":false,"is_disabled":false,"rental_uris":{"android":"levelo://app?vid=3a250188-b9fa-4b64-a291-359ab2782e87","ios":"levelo://app?vid=3a250188-b9fa-4b64-a291-359ab2782e87"},"vehicle_type_id":"4","last_reported":1771397357,"current_range_meters":4000,"station_id":"ce4bh092rcd13ifvqd30","pricing_plan_id":"cebpf4jnsgd1na2vs0mg"},{"bike_id":"319254b7-6ddf-4175-ab42-06a111dc7f62","system_id":"levelo_inurba_marseille","lat":43.249467,"lon":5.405024,"is_reserved":false,"is_disabled":false,"rental_uris":{"android":"levelo://app?vid=319254b7-6ddf-4175-ab42-06a111dc7f62","ios":"levelo://app?vid=319254b7-6ddf-4175-ab42-06a111dc7f62"},"vehicle_type_id":"4","last_reported":1771397357,"current_range_meters":26800,"station_id":"st_d2ngiaodas8pm72gd1h0","pricing_plan_id":"cebpf4jnsgd1na2vs0mg"},{"bike_id":"822a37e9-cc86-4db6-b810-29ef8016af0b","system_id":"levelo_inurba_marseille","lat":43.29771,"lon":5.44038,"is_reserved":false,"is_disabled":false,"rental_uris":{"android":"levelo://app?vid=822a37e9-cc86-4db6-b810-29ef8016af0b","ios":"levelo://app?vid=822a37e9-cc86-4db6-b810-29ef8016af0b"},"vehicle_type_id":"4","last_reported":1771397357,"current_range_meters":25200,"station_id":"st_d3jp68qikq2c7381ktn0","pricing_plan_id":"cebpf4jnsgd1na2vs0mg"},{"bike_id":"987e7efd-0a48-4308-ad01-128b347c901f","system_id":"levelo_inurba_marseille","lat":43.29634,"lon":5.40649,"is_reserved":false,"is_disabled":false,"rental_uris":{"android":"levelo://app?vid=987e7efd-0a48-4308-ad01-128b347c901f","ios":"levelo://app?vid=987e7efd-0a48-4308-ad01-128b347c901f"},"vehicle_type_id":"4","last_reported":1771397357,"current_range_meters":39200,"station_id":"ce4bh0h2rcd13ifvqd60","pricing_plan_id":"cebpf4jnsgd1na2vs0mg"},{"bike_id":"a80a5edf-9c06-430b-a090-097190f72f17","system_id":"levelo_inurba_marseille","lat":43.270546,"lon":5.402581,"is_reserved":false,"is_disabled":true,"rental_uris":{"android":"levelo://app?vid=a80a5edf-9c06-430b-a090-097190f72f17","ios":"levelo://app?vid=a80a5edf-9c06-430b-a090-097190f72f17"},"vehicle_type_id":"4","last_reported":1771397357,"current_range_meters":30800,"station_id":"ce4bhk92rcd13ifvqgc0","pricing_plan_id":"cebpf4jnsgd1na2vs0mg"},{"bike_id":"59aabee3-6211-4f8a-9630-29cde1e1b3d7","system_id":"levelo_inurba_marseille","lat":43.29541,"lon":5.37488,"is_reserved":false,"is_disabled":false,"rental_uris":{"android":"levelo://app?vid=59aabee3-6211-4f8a-9630-29cde1e1b3d7","ios":"levelo://app?vid=59aabee3-6211-4f8a-9630-29cde1e1b3d7"},"vehicle_type_id":"4","last_reported":1771397357,"current_range_meters":22000,"station_id":"ce4bgkp2rcd13ifvqbmg","pricing_plan_id":"cebpf4jnsgd1na2vs0mg"},{"bike_id":"ea41e3e8-0216-4e4f-9f14-b667c792f4b5","system_id":"levelo_inurba_marseille","lat":43.2863,"lon":5.36498,"is_reserved":false,"is_disabled":false,"rental_uris":{"android":"levelo://app?vid=ea41e3e8-0216-4e4f-9f14-b667c792f4b5","ios":"levelo://app?vid=ea41e3e8-0216-4e4f-9f14-b667c792f4b5"},"vehicle_type_id":"4","last_reported":1771397357,"current_range_meters":39200,"station_id":"ce4bhah2rcd13ifvqej0","pricing_plan_id":"cebpf4jnsgd1na2vs0mg"},{"bike_id":"012436c7-b0d2-44f6-9f1e-20d7a40c23a6","system_id":"levelo_inurba_marseille","lat":43.26219,"lon":5.40444,"is_reserved":false,"is_disabled":false,"rental_uris":{"android":"levelo://app?vid=012436c7-b0d2-44f6-9f1e-20d7a40c23a6","ios":"levelo://app?vid=012436c7-b0d2-44f6-9f1e-20d7a40c23a6"},"vehicle_type_id":"4","last_reported":1771397357,"current_range_meters":37600,"station_id":"ce4bhmh2rcd13ifvqgmg","pricing_plan_id":"cebpf4jnsgd1na2vs0mg"},{"bike_id":"ddb35e99-7580-4184-b1a3-39dee08fd05d","system_id":"levelo_inurba_marseille","lat":43.29578,"lon":5.43928,"is_reserved":false,"is_disabled":false,"rental_uris":{"android":"levelo://app?vid=ddb35e99-7580-4184-b1a3-39dee08fd05d","ios":"levelo://app?vid=ddb35e99-7580-4184-b1a3-39dee08fd05d"},"vehicle_type_id":"4","last_reported":1771397357,"current_range_meters":18000,"station_id":"","pricing_plan_id":"cebpf4jnsgd1na2vs0mg"},{"bike_id":"4d976bf5-f813-4b36-99cd-ae82b3487f1d","system_id":"levelo_inurba_marseille","lat":43.27993,"lon":5.41665,"is_reserved":false,"is_disabled":false,"rental_uris":{"android":"levelo://app?vid=4d976bf5-f813-4b36-99cd-ae82b3487f1d","ios":"levelo://app?vid=4d976bf5-f813-4b36-99cd-ae82b3487f1d"},"vehicle_type_id":"4","last_reported":1771397357,"current_range_meters":9600,"station_id":"ce4bho12rcd13ifvqh1g","pricing_plan_id":"cebpf4jnsgd1na2vs0mg"},{"bike_id":"635c9c39-632a-46e9-bf95-a85388f579d0","system_id":"levelo_inurba_marseille","lat":43.30455,"lon":5.37912,"is_reserved":false,"is_disabled":false,"rental_uris":{"android":"levelo://app?vid=635c9c39-632a-46e9-bf95-a85388f579d0","ios":"levelo://app?vid=635c9c39-632a-46e9-bf95-a85388f579d0"},"vehicle_type_id":"4","last_reported":1771397357,"current_range_meters":19600,"station_id":"ce4bgup2rcd13ifvqcn0","pricing_plan_id":"cebpf4jnsgd1na2vs0mg"},{"bike_id":"6ceab81b-89d1-4001-b550-d5245646f91e","system_id":"levelo_inurba_marseille","lat":43.30171,"lon":5.36631,"is_reserved":false,"is_disabled":false,"rental_uris":{"android":"levelo://app?vid=6ceab81b-89d1-4001-b550-d5245646f91e","ios":"levelo://app?vid=6ceab81b-89d1-4001-b550-d5245646f91e"},"vehicle_type_id":"4","last_reported":1771397357,"current_range_meters":40000,"station_id":"ce4bgrh2rcd13ifvqc8g","pricing_plan_id":"cebpf4jnsgd1na2vs0mg"},{"bike_id":"c4cd2fb5-4770-4824-ab07-f6c1cd3d489f","system_id":"levelo_inurba_marseille","lat":43.27949,"lon":5.38709,"is_reserved":false,"is_disabled":false,"rental_uris":{"android":"levelo://app?vid=c4cd2fb5-4770-4824-ab07-f6c1cd3d489f","ios":"levelo://app?vid=c4cd2fb5-4770-4824-ab07-f6c1cd3d489f"},"vehicle_type_id":"4","last_reported":1771397357,"current_range_meters":9600,"station_id":"ce4bhg12rcd13ifvqf80","pricing_plan_id":"cebpf4jnsgd1na2vs0mg"},{"bike_id":"e20c4760-3d10-4402-8539-0046b00120e2","system_id":"levelo_inurba_marseille","lat":43.25731,"lon":5.41105,"is_reserved":false,"is_disabled":false,"rental_uris":{"android":"levelo://app?vid=e20c4760-3d10-4402-8539-0046b00120e2","ios":"levelo://app?vid=e20c4760-3d10-4402-8539-0046b00120e2"},"vehicle_type_id":"4","last_reported":1771397357,"current_range_meters":39200,"station_id":"ce4bhkp2rcd13ifvqgd0","pricing_plan_id":"cebpf4jnsgd1na2vs0mg"},{"bike_id":"c14b1b3b-8cd8-4dff-b16d-1c455449bb5b","system_id":"levelo_inurba_marseille","lat":43.27941,"lon":5.41033,"is_reserved":false,"is_disabled":false,"rental_uris":{"android":"levelo://app?vid=c14b1b3b-8cd8-4dff-b16d-1c455449bb5b","ios":"levelo://app?vid=c14b1b3b-8cd8-4dff-b16d-1c455449bb5b"},"vehicle_type_id":"4","last_reported":1771397357,"current_range_meters":38400,"station_id":"ce4bhnp2rcd13ifvqh0g","pricing_plan_id":"cebpf4jnsgd1na2vs0mg"},{"bike_id":"b4319b99-4332-4fe7-9a5c-946ae220de6f","system_id":"levelo_inurba_marseille","lat":43.27953,"lon":5.38685,"is_reserved":false,"is_disabled":true,"rental_uris":{"android":"levelo://app?vid=b4319b99-4332-4fe7-9a5c-946ae220de6f","ios":"levelo://app?vid=b4319b99-4332-4fe7-9a5c-946ae220de6f"},"vehicle_type_id":"4","last_reported":1771397357,"current_range_meters":16400,"station_id":"","pricing_plan_id":"cebpf4jnsgd1na2vs0mg"},{"bike_id":"75ff77ab-0718-4ffe-9971-8ff6433968eb","system_id":"levelo_inurba_marseille","lat":43.24647,"lon":5.38893,"is_reserved":false,"is_disabled":false,"rental_uris":{"android":"levelo://app?vid=75ff77ab-0718-4ffe-9971-8ff6433968eb","ios":"levelo://app?vid=75ff77ab-0718-4ffe-9971-8ff6433968eb"},"vehicle_type_id":"4","last_reported":1771397357,"current_range_meters":16800,"station_id":"ce4bhg12rcd13ifvqf60","pricing_plan_id":"cebpf4jnsgd1na2vs0mg"},{"bike_id":"65204c01-0272-4a68-b2b9-5c61c1b8f598","system_id":"levelo_inurba_marseille","lat":43.29521,"lon":5.3785,"is_reserved":false,"is_disabled":false,"rental_uris":{"android":"levelo://app?vid=65204c01-0272-4a68-b2b9-5c61c1b8f598","ios":"levelo://app?vid=65204c01-0272-4a68-b2b9-5c61c1b8f598"},"vehicle_type_id":"4","last_reported":1771397357,"current_range_meters":32800,"station_id":"","pricing_plan_id":"cebpf4jnsgd1na2vs0mg"},{"bike_id":"0c285a3b-0a97-45f4-bbcf-2e8735c1e540","system_id":"levelo_inurba_marseille","lat":43.2534,"lon":5.42166,"is_reserved":false,"is_disabled":false,"rental_uris":{"android":"levelo://app?vid=0c285a3b-0a97-45f4-bbcf-2e8735c1e540","ios":"levelo://app?vid=0c285a3b-0a97-45f4-bbcf-2e8735c1e540"},"vehicle_type_id":"4","last_reported":1771397357,"current_range_meters":7200,"station_id":"st_d2m65c5bi1j21697t3ng","pricing_plan_id":"cebpf4jnsgd1na2vs0mg"},{"bike_id":"14e69617-c0e3-4770-a656-4f879aba476a","system_id":"levelo_inurba_marseille","lat":43.298828,"lon":5.397323,"is_reserved":false,"is_disabled":false,"rental_uris":{"android":"levelo://app?vid=14e69617-c0e3-4770-a656-4f879aba476a","ios":"levelo://app?vid=14e69617-c0e3-4770-a656-4f879aba476a"},"vehicle_type_id":"4","last_reported":1771397357,"current_range_meters":8800,"station_id":"ce4bh0h2rcd13ifvqd50","pricing_plan_id":"cebpf4jnsgd1na2vs0mg"},{"bike_id":"759f0a09-9669-46dc-9822-7ecc825b93de","system_id":"levelo_inurba_marseille","lat":43.30547,"lon":5.36556,"is_reserved":false,"is_disabled":false,"rental_uris":{"android":"levelo://app?vid=759f0a09-9669-46dc-9822-7ecc825b93de","ios":"levelo://app?vid=759f0a09-9669-46dc-9822-7ecc825b93de"},"vehicle_type_id":"4","last_reported":1771397357,"current_range_meters":7200,"station_id":"ce4bgs12rcd13ifvqcag","pricing_plan_id":"cebpf4jnsgd1na2vs0mg"},{"bike_id":"e383e633-27a1-4fd4-9366-8380206952e4","system_id":"levelo_inurba_marseille","lat":43.28729,"lon":5.3608,"is_reserved":false,"is_disabled":false,"rental_uris":{"android":"levelo://app?vid=e383e633-27a1-4fd4-9366-8380206952e4","ios":"levelo://app?vid=e383e633-27a1-4fd4-9366-8380206952e4"},"vehicle_type_id":"4","last_reported":1771397357,"current_range_meters":16400,"station_id":"cki0cbj6b192h4jlfktg","pricing_plan_id":"cebpf4jnsgd1na2vs0mg"},{"bike_id":"b8dcc597-4759-4122-9592-969487759374","system_id":"levelo_inurba_marseille","lat":43.2621,"lon":5.40428,"is_reserved":false,"is_disabled":false,"rental_uris":{"android":"levelo://app?vid=b8dcc597-4759-4122-9592-969487759374","ios":"levelo://app?vid=b8dcc597-4759-4122-9592-969487759374"},"vehicle_type_id":"4","last_reported":1771397357,"current_range_meters":22800,"station_id":"ce4bhmh2rcd13ifvqgmg","pricing_plan_id":"cebpf4jnsgd1na2vs0mg"},{"bike_id":"246ba6fb-3e65-471d-aa0a-71df11ea6fa4","system_id":"levelo_inurba_marseille","lat":43.29518,"lon":5.37517,"is_reserved":false,"is_disabled":false,"rental_uris":{"android":"levelo://app?vid=246ba6fb-3e65-471d-aa0a-71df11ea6fa4","ios":"levelo://app?vid=246ba6fb-3e65-471d-aa0a-71df11ea6fa4"},"vehicle_type_id":"4","last_reported":1771397357,"current_range_meters":38400,"station_id":"ce4bgkp2rcd13ifvqbmg","pricing_plan_id":"cebpf4jnsgd1na2vs0mg"},{"bike_id":"1f736713-40bb-4417-989e-c059341c3cc8","system_id":"levelo_inurba_marseille","lat":43.29807,"lon":5.44068,"is_reserved":false,"is_disabled":false,"rental_uris":{"android":"levelo://app?vid=1f736713-40bb-4417-989e-c059341c3cc8","ios":"levelo://app?vid=1f736713-40bb-4417-989e-c059341c3cc8"},"vehicle_type_id":"4","last_reported":1771397357,"current_range_meters":6000,"station_id":"st_d3jp68qikq2c7381ktn0","pricing_plan_id":"cebpf4jnsgd1na2vs0mg"},{"bike_id":"c2c2130e-3619-441c-98ea-236501eb01ac","system_id":"levelo_inurba_marseille","lat":43.3015,"lon":5.38084,"is_reserved":false,"is_disabled":false,"rental_uris":{"android":"levelo://app?vid=c2c2130e-3619-441c-98ea-236501eb01ac","ios":"levelo://app?vid=c2c2130e-3619-441c-98ea-236501eb01ac"},"vehicle_type_id":"4","last_reported":1771397357,"current_range_meters":33600,"station_id":"ce4bgjp2rcd13ifvqbh0","pricing_plan_id":"cebpf4jnsgd1na2vs0mg"},{"bike_id":"17f7ca05-9ff1-4847-81f4-6f637ce906bc","system_id":"levelo_inurba_marseille","lat":43.25337,"lon":5.42172,"is_reserved":false,"is_disabled":false,"rental_uris":{"android":"levelo://app?vid=17f7ca05-9ff1-4847-81f4-6f637ce906bc","ios":"levelo://app?vid=17f7ca05-9ff1-4847-81f4-6f637ce906bc"},"vehicle_type_id":"4","last_reported":1771397357,"current_range_meters":4000,"station_id":"st_d2m65c5bi1j21697t3ng","pricing_plan_id":"cebpf4jnsgd1na2vs0mg"},{"bike_id":"4452f42b-b8ed-44bd-9d47-dff6f1173951","system_id":"levelo_inurba_marseille","lat":43.23192,"lon":5.35551,"is_reserved":false,"is_disabled":false,"rental_uris":{"android":"levelo://app?vid=4452f42b-b8ed-44bd-9d47-dff6f1173951","ios":"levelo://app?vid=4452f42b-b8ed-44bd-9d47-dff6f1173951"},"vehicle_type_id":"4","last_reported":1771397357,"current_range_meters":20000,"station_id":"ce4bhu92rcd13ifvqi70","pricing_plan_id":"cebpf4jnsgd1na2vs0mg"},{"bike_id":"95ac3875-f146-4303-af46-f73fc1aee76b","system_id":"levelo_inurba_marseille","lat":43.2848,"lon":5.48394,"is_reserved":false,"is_disabled":false,"rental_uris":{"android":"levelo://app?vid=95ac3875-f146-4303-af46-f73fc1aee76b","ios":"levelo://app?vid=95ac3875-f146-4303-af46-f73fc1aee76b"},"vehicle_type_id":"4","last_reported":1771397357,"current_range_meters":6800,"station_id":"st_d3svhcjqgbts73a3dn0g","pricing_plan_id":"cebpf4jnsgd1na2vs0mg"},{"bike_id":"5a7441dd-4a33-48a2-b3bf-8431fc7d51d9","system_id":"levelo_inurba_marseille","lat":43.24398,"lon":5.37053,"is_reserved":false,"is_disabled":false,"rental_uris":{"android":"levelo://app?vid=5a7441dd-4a33-48a2-b3bf-8431fc7d51d9","ios":"levelo://app?vid=5a7441dd-4a33-48a2-b3bf-8431fc7d51d9"},"vehicle_type_id":"4","last_reported":1771397357,"current_range_meters":30000,"station_id":"ce4bhhh2rcd13ifvqfk0","pricing_plan_id":"cebpf4jnsgd1na2vs0mg"},{"bike_id":"53e5edc9-c7ea-4838-9734-674f94ba359f","system_id":"levelo_inurba_marseille","lat":43.304717,"lon":5.379193,"is_reserved":false,"is_disabled":false,"rental_uris":{"android":"levelo://app?vid=53e5edc9-c7ea-4838-9734-674f94ba359f","ios":"levelo://app?vid=53e5edc9-c7ea-4838-9734-674f94ba359f"},"vehicle_type_id":"4","last_reported":1771397357,"current_range_meters":8400,"station_id":"ce4bgup2rcd13ifvqcn0","pricing_plan_id":"cebpf4jnsgd1na2vs0mg"},{"bike_id":"e7c7548e-e7b3-4abf-bdf6-6a87f196a6e3","system_id":"levelo_inurba_marseille","lat":43.28556,"lon":5.395,"is_reserved":false,"is_disabled":false,"rental_uris":{"android":"levelo://app?vid=e7c7548e-e7b3-4abf-bdf6-6a87f196a6e3","ios":"levelo://app?vid=e7c7548e-e7b3-4abf-bdf6-6a87f196a6e3"},"vehicle_type_id":"4","last_reported":1771397357,"current_range_meters":38800,"station_id":"ce4bh292rcd13ifvqdg0","pricing_plan_id":"cebpf4jnsgd1na2vs0mg"},{"bike_id":"12bf9e74-0306-4380-9851-5bc0cb9b5de1","system_id":"levelo_inurba_marseille","lat":43.2671,"lon":5.38285,"is_reserved":false,"is_disabled":false,"rental_uris":{"android":"levelo://app?vid=12bf9e74-0306-4380-9851-5bc0cb9b5de1","ios":"levelo://app?vid=12bf9e74-0306-4380-9851-5bc0cb9b5de1"},"vehicle_type_id":"4","last_reported":1771397357,"current_range_meters":6000,"station_id":"ce4bhg92rcd13ifvqf90","pricing_plan_id":"cebpf4jnsgd1na2vs0mg"},{"bike_id":"aa60fccf-958f-477e-87de-c38c44ce2662","system_id":"levelo_inurba_marseille","lat":43.33764,"lon":5.3744,"is_reserved":false,"is_disabled":false,"rental_uris":{"android":"levelo://app?vid=aa60fccf-958f-477e-87de-c38c44ce2662","ios":"levelo://app?vid=aa60fccf-958f-477e-87de-c38c44ce2662"},"vehicle_type_id":"4","last_reported":1771397357,"current_range_meters":21600,"station_id":"","pricing_plan_id":"cebpf4jnsgd1na2vs0mg"},{"bike_id":"05db840f-3351-473a-9516-6e915f9cc108","system_id":"levelo_inurba_marseille","lat":43.29889,"lon":5.39745,"is_reserved":false,"is_disabled":false,"rental_uris":{"android":"levelo://app?vid=05db840f-3351-473a-9516-6e915f9cc108","ios":"levelo://app?vid=05db840f-3351-473a-9516-6e915f9cc108"},"vehicle_type_id":"4","last_reported":1771397357,"current_range_meters":38800,"station_id":"ce4bh0h2rcd13ifvqd50","pricing_plan_id":"cebpf4jnsgd1na2vs0mg"},{"bike_id":"d3d75c56-7154-426f-a990-51e29722596b","system_id":"levelo_inurba_marseille","lat":43.231554,"lon":5.437078,"is_reserved":false,"is_disabled":true,"rental_uris":{"android":"levelo://app?vid=d3d75c56-7154-426f-a990-51e29722596b","ios":"levelo://app?vid=d3d75c56-7154-426f-a990-51e29722596b"},"vehicle_type_id":"4","last_reported":1771397357,"current_range_meters":38400,"station_id":"ce4bhmp2rcd13ifvqgog","pricing_plan_id":"cebpf4jnsgd1na2vs0mg"},{"bike_id":"ce9e9485-2f02-49c5-81ab-b31dbb5f770f","system_id":"levelo_inurba_marseille","lat":43.24081,"lon":5.37741,"is_reserved":false,"is_disabled":false,"rental_uris":{"android":"levelo://app?vid=ce9e9485-2f02-49c5-81ab-b31dbb5f770f","ios":"levelo://app?vid=ce9e9485-2f02-49c5-81ab-b31dbb5f770f"},"vehicle_type_id":"4","last_reported":1771397357,"current_range_meters":38400,"station_id":"ce4bhnp2rcd13ifvqgvg","pricing_plan_id":"cebpf4jnsgd1na2vs0mg"},{"bike_id":"28414366-76f9-433a-b299-3da4e3d6a5fb","system_id":"levelo_inurba_marseille","lat":43.28847,"lon":5.35848,"is_reserved":false,"is_disabled":false,"rental_uris":{"android":"levelo://app?vid=28414366-76f9-433a-b299-3da4e3d6a5fb","ios":"levelo://app?vid=28414366-76f9-433a-b299-3da4e3d6a5fb"},"vehicle_type_id":"4","last_reported":1771397357,"current_range_meters":19200,"station_id":"ce4bhb12rcd13ifvqem0","pricing_plan_id":"cebpf4jnsgd1na2vs0mg"},{"bike_id":"e7fc058d-46c4-4e78-9c0c-567e00ed1d02","system_id":"levelo_inurba_marseille","lat":43.301361,"lon":5.398648,"is_reserved":false,"is_disabled":false,"rental_uris":{"android":"levelo://app?vid=e7fc058d-46c4-4e78-9c0c-567e00ed1d02","ios":"levelo://app?vid=e7fc058d-46c4-4e78-9c0c-567e00ed1d02"},"vehicle_type_id":"4","last_reported":1771397357,"current_range_meters":26800,"station_id":"ce4bh0h2rcd13ifvqd40","pricing_plan_id":"cebpf4jnsgd1na2vs0mg"},{"bike_id":"8645d1b2-c780-4a56-a8e9-105969f75794","system_id":"levelo_inurba_marseille","lat":43.29018,"lon":5.38649,"is_reserved":false,"is_disabled":false,"rental_uris":{"android":"levelo://app?vid=8645d1b2-c780-4a56-a8e9-105969f75794","ios":"levelo://app?vid=8645d1b2-c780-4a56-a8e9-105969f75794"},"vehicle_type_id":"4","last_reported":1771397357,"current_range_meters":38800,"station_id":"ce4bh4p2rcd13ifvqe0g","pricing_plan_id":"cebpf4jnsgd1na2vs0mg"},{"bike_id":"73dbc20f-98b6-4732-adae-58a3fee0d37e","system_id":"levelo_inurba_marseille","lat":43.28032,"lon":5.36948,"is_reserved":false,"is_disabled":false,"rental_uris":{"android":"levelo://app?vid=73dbc20f-98b6-4732-adae-58a3fee0d37e","ios":"levelo://app?vid=73dbc20f-98b6-4732-adae-58a3fee0d37e"},"vehicle_type_id":"4","last_reported":1771397357,"current_range_meters":11600,"station_id":"ce4bha12rcd13ifvqef0","pricing_plan_id":"cebpf4jnsgd1na2vs0mg"},{"bike_id":"f5a83828-f353-4692-b521-be18cc9b6b45","system_id":"levelo_inurba_marseille","lat":43.28994,"lon":5.3561,"is_reserved":false,"is_disabled":false,"rental_uris":{"android":"levelo://app?vid=f5a83828-f353-4692-b521-be18cc9b6b45","ios":"levelo://app?vid=f5a83828-f353-4692-b521-be18cc9b6b45"},"vehicle_type_id":"4","last_reported":1771397357,"current_range_meters":25600,"station_id":"ce4bhb92rcd13ifvqen0","pricing_plan_id":"cebpf4jnsgd1na2vs0mg"},{"bike_id":"e5a53d9a-99d1-43d7-ae95-edc0215af7c2","system_id":"levelo_inurba_marseille","lat":43.30282,"lon":5.37707,"is_reserved":false,"is_disabled":false,"rental_uris":{"android":"levelo://app?vid=e5a53d9a-99d1-43d7-ae95-edc0215af7c2","ios":"levelo://app?vid=e5a53d9a-99d1-43d7-ae95-edc0215af7c2"},"vehicle_type_id":"4","last_reported":1771397357,"current_range_meters":39200,"station_id":"ce4bguh2rcd13ifvqcj0","pricing_plan_id":"cebpf4jnsgd1na2vs0mg"},{"bike_id":"a6da0772-ae2c-40ce-ba72-090618a70f1d","system_id":"levelo_inurba_marseille","lat":43.28482,"lon":5.38449,"is_reserved":false,"is_disabled":false,"rental_uris":{"android":"levelo://app?vid=a6da0772-ae2c-40ce-ba72-090618a70f1d","ios":"levelo://app?vid=a6da0772-ae2c-40ce-ba72-090618a70f1d"},"vehicle_type_id":"4","last_reported":1771397357,"current_range_meters":9200,"station_id":"ce4bh512rcd13ifvqe3g","pricing_plan_id":"cebpf4jnsgd1na2vs0mg"},{"bike_id":"b99b4796-4e85-4608-b2e8-0bb86f73e0dc","system_id":"levelo_inurba_marseille","lat":43.31714,"lon":5.43711,"is_reserved":false,"is_disabled":false,"rental_uris":{"android":"levelo://app?vid=b99b4796-4e85-4608-b2e8-0bb86f73e0dc","ios":"levelo://app?vid=b99b4796-4e85-4608-b2e8-0bb86f73e0dc"},"vehicle_type_id":"4","last_reported":1771397357,"current_range_meters":24400,"station_id":"ce4bhp92rcd13ifvqhcg","pricing_plan_id":"cebpf4jnsgd1na2vs0mg"},{"bike_id":"aa2207b7-265c-4ad3-bf19-8d2f813f1c3e","system_id":"levelo_inurba_marseille","lat":43.24547,"lon":5.39526,"is_reserved":false,"is_disabled":false,"rental_uris":{"android":"levelo://app?vid=aa2207b7-265c-4ad3-bf19-8d2f813f1c3e","ios":"levelo://app?vid=aa2207b7-265c-4ad3-bf19-8d2f813f1c3e"},"vehicle_type_id":"4","last_reported":1771397357,"current_range_meters":31200,"station_id":"ce4bhlp2rcd13ifvqgjg","pricing_plan_id":"cebpf4jnsgd1na2vs0mg"},{"bike_id":"0f474833-9328-41b2-9adf-82c865340458","system_id":"levelo_inurba_marseille","lat":43.29869,"lon":5.39726,"is_reserved":false,"is_disabled":false,"rental_uris":{"android":"levelo://app?vid=0f474833-9328-41b2-9adf-82c865340458","ios":"levelo://app?vid=0f474833-9328-41b2-9adf-82c865340458"},"vehicle_type_id":"4","last_reported":1771397357,"current_range_meters":35200,"station_id":"ce4bh0h2rcd13ifvqd50","pricing_plan_id":"cebpf4jnsgd1na2vs0mg"},{"bike_id":"2348469c-45b7-4332-b9e2-b2adf4281a44","system_id":"levelo_inurba_marseille","lat":43.2861,"lon":5.35135,"is_reserved":false,"is_disabled":false,"rental_uris":{"android":"levelo://app?vid=2348469c-45b7-4332-b9e2-b2adf4281a44","ios":"levelo://app?vid=2348469c-45b7-4332-b9e2-b2adf4281a44"},"vehicle_type_id":"4","last_reported":1771397357,"current_range_meters":18800,"station_id":"ce4bhch2rcd13ifvqeug","pricing_plan_id":"cebpf4jnsgd1na2vs0mg"},{"bike_id":"203389d2-db71-424b-bc25-f4ac96ab8010","system_id":"levelo_inurba_marseille","lat":43.27989,"lon":5.41667,"is_reserved":false,"is_disabled":false,"rental_uris":{"android":"levelo://app?vid=203389d2-db71-424b-bc25-f4ac96ab8010","ios":"levelo://app?vid=203389d2-db71-424b-bc25-f4ac96ab8010"},"vehicle_type_id":"4","last_reported":1771397357,"current_range_meters":37600,"station_id":"ce4bho12rcd13ifvqh1g","pricing_plan_id":"cebpf4jnsgd1na2vs0mg"},{"bike_id":"65311b5c-c243-43f1-9bbc-45fe9ed5caab","system_id":"levelo_inurba_marseille","lat":43.30608,"lon":5.37262,"is_reserved":false,"is_disabled":false,"rental_uris":{"android":"levelo://app?vid=65311b5c-c243-43f1-9bbc-45fe9ed5caab","ios":"levelo://app?vid=65311b5c-c243-43f1-9bbc-45fe9ed5caab"},"vehicle_type_id":"4","last_reported":1771397357,"current_range_meters":30400,"station_id":"ce4bgqh2rcd13ifvqc4g","pricing_plan_id":"cebpf4jnsgd1na2vs0mg"},