{"last_updated":1738779150,"ttl":60,"version":"2.2","data":{"bikes":[{"bike_id":"82d5170c-9699-418d-ad8c-5f7fb8976221","system_id":"levelo_inurba_marseille","lat":43.29265,"lon":5.36835,"is_reserved":false,"is_disabled":false,"rental_uris":{"android":"levelo://app?vid=82d5170c-9699-418d-ad8c-5f7fb8976221","ios":"levelo://app?vid=82d5170c-9699-418d-ad8c-5f7fb8976221"},"vehicle_type_id":"4","last_reported":1738779150,"current_range_meters":35600,"station_id":"ce4bhbp2rcd13ifvqesg","pricing_plan_id":"cebpf4jnsgd1na2vs0mg"},{"bike_id":"3e7d0280-408b-494f-a63c-02566b1196a4","system_id":"levelo_inurba_marseille","lat":43.28854,"lon":5.39292,"is_reserved":false,"is_disabled":false,"rental_uris":{"android":"levelo://app?vid=3e7d0280-408b-494f-a63c-02566b1196a4","ios":"levelo://app?vid=3e7d0280-408b-494f-a63c-02566b1196a4"},"vehicle_type_id":"4","last_reported":1738779150,"current_range_meters":19600,"station_id":"ce4bh2p2rcd13ifvqdi0","pricing_plan_id":"cebpf4jnsgd1na2vs0mg"},{"bike_id":"217bac1d-ad03-43c8-a23f-94d9c9f28273","system_id":"levelo_inurba_marseille","lat":43.29597,"lon":5.38105,"is_reserved":false,"is_disabled":false,"rental_uris":{"android":"levelo://app?vid=217bac1d-ad03-43c8-a23f-94d9c9f28273","ios":"levelo://app?vid=217bac1d-ad03-43c8-a23f-94d9c9f28273"},"vehicle_type_id":"4","last_reported":1738779150,"current_range_meters":30400,"station_id":"ce4bgl12rcd13ifvqbo0","pricing_plan_id":"cebpf4jnsgd1na2vs0mg"},{"bike_id":"395468c3-e950-49d0-891a-1f8bb60b4335","system_id":"levelo_inurba_marseille","lat":43.29021,"lon":5.38643,"is_reserved":false,"is_disabled":false,"rental_uris":{"android":"levelo://app?vid=395468c3-e950-49d0-891a-1f8bb60b4335","ios":"levelo://app?vid=395468c3-e950-49d0-891a-1f8bb60b4335"},"vehicle_type_id":"4","last_reported":1738779150,"current_range_meters":36800,"station_id":"ce4bh4p2rcd13ifvqe0g","pricing_plan_id":"cebpf4jnsgd1na2vs0mg"},{"bike_id":"b8ae4f51-aa80-4f40-b273-4be2b14700b3","system_id":"levelo_inurba_marseille","lat":43.31166,"lon":5.38718,"is_reserved":false,"is_disabled":false,"rental_uris":{"android":"levelo://app?vid=b8ae4f51-aa80-4f40-b273-4be2b14700b3","ios":"levelo://app?vid=b8ae4f51-aa80-4f40-b273-4be2b14700b3"},"vehicle_type_id":"4","last_reported":1738779150,"current_range_meters":25200,"station_id":"ce4bgv12rcd13ifvqcp0","pricing_plan_id":"cebpf4jnsgd1na2vs0mg"},{"bike_id":"083fcc09-f963-46ec-a4ea-9d563d3af997","system_id":"levelo_inurba_marseille","lat":43.26198,"lon":5.37922,"is_reserved":false,"is_disabled":false,"rental_uris":{"android":"levelo://app?vid=083fcc09-f963-46ec-a4ea-9d563d3af997","ios":"levelo://app?vid=083fcc09-f963-46ec-a4ea-9d563d3af997"},"vehicle_type_id":"4","last_reported":1738779150,"current_range_meters":17200,"station_id":"ce4bhjp2rcd13ifvqg90","pricing_plan_id":"cebpf4jnsgd1na2vs0mg"},{"bike_id":"9562af2d-cd07-4335-b473-b0e9fcb99436","system_id":"levelo_inurba_marseille","lat":43.30129,"lon":5.39865,"is_reserved":false,"is_disabled":false,"rental_uris":{"android":"levelo://app?vid=9562af2d-cd07-4335-b473-b0e9fcb99436","ios":"levelo://app?vid=9562af2d-cd07-4335-b473-b0e9fcb99436"},"vehicle_type_id":"4","last_reported":1738779150,"current_range_meters":22800,"station_id":"ce4bh0h2rcd13ifvqd40","pricing_plan_id":"cebpf4jnsgd1na2vs0mg"},{"bike_id":"6037844b-f029-47e3-adcc-538d11a7a878","system_id":"levelo_inurba_marseille","lat":43.28415,"lon":5.3498,"is_reserved":false,"is_disabled":false,"rental_uris":{"android":"levelo://app?vid=6037844b-f029-47e3-adcc-538d11a7a878","ios":"levelo://app?vid=6037844b-f029-47e3-adcc-538d11a7a878"},"vehicle_type_id":"4","last_reported":1738779150,"current_range_meters":30000,"station_id":"ce4bhbh2rcd13ifvqepg","pricing_plan_id":"cebpf4jnsgd1na2vs0mg"},{"bike_id":"695c8903-2a1f-4f36-ae79-da101aaac2a2","system_id":"levelo_inurba_marseille","lat":43.23195,"lon":5.39982,"is_reserved":false,"is_disabled":false,"rental_uris":{"android":"levelo://app?vid=695c8903-2a1f-4f36-ae79-da101aaac2a2","ios":"levelo://app?vid=695c8903-2a1f-4f36-ae79-da101aaac2a2"},"vehicle_type_id":"4","last_reported":1738779150,"current_range_meters":20400,"station_id":"ce4bhn12rcd13ifvqgqg","pricing_plan_id":"cebpf4jnsgd1na2vs0mg"},{"bike_id":"60efba71-1f79-4331-8e03-d1cbb62a05fd","system_id":"levelo_inurba_marseille","lat":43.23178,"lon":5.39989,"is_reserved":false,"is_disabled":false,"rental_uris":{"android":"levelo://app?vid=60efba71-1f79-4331-8e03-d1cbb62a05fd","ios":"levelo://app?vid=60efba71-1f79-4331-8e03-d1cbb62a05fd"},"vehicle_type_id":"4","last_reported":1738779150,"current_range_meters":21600,"station_id":"ce4bhn12rcd13ifvqgqg","pricing_plan_id":"cebpf4jnsgd1na2vs0mg"},{"bike_id":"f9db6bb8-58be-4711-a3b0-a876313fa22b","system_id":"levelo_inurba_marseille","lat":43.281,"lon":5.37838,"is_reserved":false,"is_disabled":false,"rental_uris":{"android":"levelo://app?vid=f9db6bb8-58be-4711-a3b0-a876313fa22b","ios":"levelo://app?vid=f9db6bb8-58be-4711-a3b0-a876313fa22b"},"vehicle_type_id":"4","last_reported":1738779150,"current_range_meters":23200,"station_id":"ce4bha12rcd13ifvqee0","pricing_plan_id":"cebpf4jnsgd1na2vs0mg"},{"bike_id":"3b3750dc-9cdb-41a8-a721-f3277ba575c5","system_id":"levelo_inurba_marseille","lat":43.29695,"lon":5.373,"is_reserved":false,"is_disabled":false,"rental_uris":{"android":"levelo://app?vid=3b3750dc-9cdb-41a8-a721-f3277ba575c5","ios":"levelo://app?vid=3b3750dc-9cdb-41a8-a721-f3277ba575c5"},"vehicle_type_id":"4","last_reported":1738779150,"current_range_meters":39200,"station_id":"ce4bgk12rcd13ifvqbj0","pricing_plan_id":"cebpf4jnsgd1na2vs0mg"},{"bike_id":"054d3ecc-08be-4ecd-8a68-d83daa90df86","system_id":"levelo_inurba_marseille","lat":43.27993,"lon":5.40015,"is_reserved":false,"is_disabled":false,"rental_uris":{"android":"levelo://app?vid=054d3ecc-08be-4ecd-8a68-d83daa90df86","ios":"levelo://app?vid=054d3ecc-08be-4ecd-8a68-d83daa90df86"},"vehicle_type_id":"4","last_reported":1738779150,"current_range_meters":32800,"station_id":"ce4bho92rcd13ifvqh4g","pricing_plan_id":"cebpf4jnsgd1na2vs0mg"},{"bike_id":"96559f85-f0b0-4a89-9803-99a731c200eb","system_id":"levelo_inurba_marseille","lat":43.31361,"lon":5.38259,"is_reserved":false,"is_disabled":false,"rental_uris":{"android":"levelo://app?vid=96559f85-f0b0-4a89-9803-99a731c200eb","ios":"levelo://app?vid=96559f85-f0b0-4a89-9803-99a731c200eb"},"vehicle_type_id":"4","last_reported":1738779150,"current_range_meters":36800,"station_id":"","pricing_plan_id":"cebpf4jnsgd1na2vs0mg"},{"bike_id":"c47151b7-6300-4d10-af3b-e7f427fdce45","system_id":"levelo_inurba_marseille","lat":43.2969,"lon":5.37708,"is_reserved":false,"is_disabled":true,"rental_uris":{"android":"levelo://app?vid=c47151b7-6300-4d10-af3b-e7f427fdce45","ios":"levelo://app?vid=c47151b7-6300-4d10-af3b-e7f427fdce45"},"vehicle_type_id":"4","last_reported":1738779150,"current_range_meters":24800,"station_id":"ce4bgkh2rcd13ifvqbl0","pricing_plan_id":"cebpf4jnsgd1na2vs0mg"},{"bike_id":"fe4eda7a-df34-4c44-bd35-a4db53885b6b","system_id":"levelo_inurba_marseille","lat":43.29446,"lon":5.38588,"is_reserved":false,"is_disabled":true,"rental_uris":{"android":"levelo://app?vid=fe4eda7a-df34-4c44-bd35-a4db53885b6b","ios":"levelo://app?vid=fe4eda7a-df34-4c44-bd35-a4db53885b6b"},"vehicle_type_id":"4","last_reported":1738779150,"current_range_meters":0,"station_id":"ce4bh192rcd13ifvqdb0","pricing_plan_id":"cebpf4jnsgd1na2vs0mg"},{"bike_id":"af7d62a3-9dd4-4a14-8ce3-460ca17c81d5","system_id":"levelo_inurba_marseille","lat":43.33031,"lon":5.39039,"is_reserved":false,"is_disabled":false,"rental_uris":{"android":"levelo://app?vid=af7d62a3-9dd4-4a14-8ce3-460ca17c81d5","ios":"levelo://app?vid=af7d62a3-9dd4-4a14-8ce3-460ca17c81d5"},"vehicle_type_id":"4","last_reported":1738779150,"current_range_meters":28800,"station_id":"ce4bhr92rcd13ifvqhrg","pricing_plan_id":"cebpf4jnsgd1na2vs0mg"},{"bike_id":"7eaacd34-10f9-4246-8aa1-4a22e07a7c06","system_id":"levelo_inurba_marseille","lat":43.31625,"lon":5.37392,"is_reserved":false,"is_disabled":false,"rental_uris":{"android":"levelo://app?vid=7eaacd34-10f9-4246-8aa1-4a22e07a7c06","ios":"levelo://app?vid=7eaacd34-10f9-4246-8aa1-4a22e07a7c06"},"vehicle_type_id":"4","last_reported":1738779150,"current_range_meters":25600,"station_id":"","pricing_plan_id":"cebpf4jnsgd1na2vs0mg"},{"bike_id":"b85d0f36-4ceb-47ae-b932-72d8372ef081","system_id":"levelo_inurba_marseille","lat":43.23203,"lon":5.39968,"is_reserved":false,"is_disabled":false,"rental_uris":{"android":"levelo://app?vid=b85d0f36-4ceb-47ae-b932-72d8372ef081","ios":"levelo://app?vid=b85d0f36-4ceb-47ae-b932-72d8372ef081"},"vehicle_type_id":"4","last_reported":1738779150,"current_range_meters":38800,"station_id":"ce4bhn12rcd13ifvqgqg","pricing_plan_id":"cebpf4jnsgd1na2vs0mg"},{"bike_id":"695c8159-ac4a-408d-a3d5-26e203af1693","system_id":"levelo_inurba_marseille","lat":43.33031,"lon":5.39019,"is_reserved":false,"is_disabled":false,"rental_uris":{"android":"levelo://app?vid=695c8159-ac4a-408d-a3d5-26e203af1693","ios":"levelo://app?vid=695c8159-ac4a-408d-a3d5-26e203af1693"},"vehicle_type_id":"4","last_reported":1738779150,"current_range_meters":36800,"station_id":"ce4bhr92rcd13ifvqhrg","pricing_plan_id":"cebpf4jnsgd1na2vs0mg"},{"bike_id":"17aaa819-cb23-4d7a-8507-d33ee1b5ed36","system_id":"levelo_inurba_marseille","lat":43.30811,"lon":5.38151,"is_reserved":false,"is_disabled":false,"rental_uris":{"android":"levelo://app?vid=17aaa819-cb23-4d7a-8507-d33ee1b5ed36","ios":"levelo://app?vid=17aaa819-cb23-4d7a-8507-d33ee1b5ed36"},"vehicle_type_id":"4","last_reported":1738779150,"current_range_meters":38800,"station_id":"ce4bgt12rcd13ifvqce0","pricing_plan_id":"cebpf4jnsgd1na2vs0mg"},{"bike_id":"11c556d6-c6b7-4156-aeb0-e99ce30fdcd7","system_id":"levelo_inurba_marseille","lat":43.24808,"lon":5.37452,"is_reserved":false,"is_disabled":false,"rental_uris":{"android":"levelo://app?vid=11c556d6-c6b7-4156-aeb0-e99ce30fdcd7","ios":"levelo://app?vid=11c556d6-c6b7-4156-aeb0-e99ce30fdcd7"},"vehicle_type_id":"4","last_reported":1738779150,"current_range_meters":22800,"station_id":"ce4bhgh2rcd13ifvqfb0","pricing_plan_id":"cebpf4jnsgd1na2vs0mg"},{"bike_id":"bd42563d-6ded-4a27-8446-f13fff32889d","system_id":"levelo_inurba_marseille","lat":43.31765,"lon":5.39004,"is_reserved":false,"is_disabled":false,"rental_uris":{"android":"levelo://app?vid=bd42563d-6ded-4a27-8446-f13fff32889d","ios":"levelo://app?vid=bd42563d-6ded-4a27-8446-f13fff32889d"},"vehicle_type_id":"4","last_reported":1738779150,"current_range_meters":39200,"station_id":"ce4bhqp2rcd13ifvqhng","pricing_plan_id":"cebpf4jnsgd1na2vs0mg"},{"bike_id":"85506d97-0f87-4df9-ad07-8dd2dedad0b3","system_id":"levelo_inurba_marseille","lat":43.272,"lon":5.39183,"is_reserved":false,"is_disabled":true,"rental_uris":{"android":"levelo://app?vid=85506d97-0f87-4df9-ad07-8dd2dedad0b3","ios":"levelo://app?vid=85506d97-0f87-4df9-ad07-8dd2dedad0b3"},"vehicle_type_id":"4","last_reported":1738779150,"current_range_meters":36800,"station_id":"ce4bhhp2rcd13ifvqfm0","pricing_plan_id":"cebpf4jnsgd1na2vs0mg"},{"bike_id":"a1a7079b-68b5-45ca-9af8-b6bc9f7cd559","system_id":"levelo_inurba_marseille","lat":43.22931,"lon":5.35381,"is_reserved":false,"is_disabled":false,"rental_uris":{"android":"levelo://app?vid=a1a7079b-68b5-45ca-9af8-b6bc9f7cd559","ios":"levelo://app?vid=a1a7079b-68b5-45ca-9af8-b6bc9f7cd559"},"vehicle_type_id":"4","last_reported":1738779150,"current_range_meters":39200,"station_id":"cpo3532slgdg3j2ikp40","pricing_plan_id":"cebpf4jnsgd1na2vs0mg"},{"bike_id":"e76be20c-9015-465c-9eee-e0b85ab2de66","system_id":"levelo_inurba_marseille","lat":43.3031,"lon":5.39206,"is_reserved":false,"is_disabled":false,"rental_uris":{"android":"levelo://app?vid=e76be20c-9015-465c-9eee-e0b85ab2de66","ios":"levelo://app?vid=e76be20c-9015-465c-9eee-e0b85ab2de66"},"vehicle_type_id":"4","last_reported":1738779150,"current_range_meters":39200,"station_id":"ce4bgkh2rcd13ifvqbk0","pricing_plan_id":"cebpf4jnsgd1na2vs0mg"},{"bike_id":"b2660fa8-4e11-4fe9-a0db-a5dbdd15312e","system_id":"levelo_inurba_marseille","lat":43.24386,"lon":5.37057,"is_reserved":false,"is_disabled":false,"rental_uris":{"android":"levelo://app?vid=b2660fa8-4e11-4fe9-a0db-a5dbdd15312e","ios":"levelo://app?vid=b2660fa8-4e11-4fe9-a0db-a5dbdd15312e"},"vehicle_type_id":"4","last_reported":1738779150,"current_range_meters":8400,"station_id":"ce4bhhh2rcd13ifvqfk0","pricing_plan_id":"cebpf4jnsgd1na2vs0mg"},{"bike_id":"29805978-3f90-4e1f-a2f8-4f8391d994c3","system_id":"levelo_inurba_marseille","lat":43.24171,"lon":5.39731,"is_reserved":false,"is_disabled":false,"rental_uris":{"android":"levelo://app?vid=29805978-3f90-4e1f-a2f8-4f8391d994c3","ios":"levelo://app?vid=29805978-3f90-4e1f-a2f8-4f8391d994c3"},"vehicle_type_id":"4","last_reported":1738779150,"current_range_meters":16800,"station_id":"ce4bhn12rcd13ifvqgpg","pricing_plan_id":"cebpf4jnsgd1na2vs0mg"},{"bike_id":"9bed730f-1adf-4444-a5ac-fa2d282ef048","system_id":"levelo_inurba_marseille","lat":43.3078,"lon":5.43529,"is_reserved":false,"is_disabled":false,"rental_uris":{"android":"levelo://app?vid=9bed730f-1adf-4444-a5ac-fa2d282ef048","ios":"levelo://app?vid=9bed730f-1adf-4444-a5ac-fa2d282ef048"},"vehicle_type_id":"4","last_reported":1738779150,"current_range_meters":7200,"station_id":"ce4bhph2rcd13ifvqheg","pricing_plan_id":"cebpf4jnsgd1na2vs0mg"},{"bike_id":"218e4d41-2b21-4644-be04-d8016782fd90","system_id":"levelo_inurba_marseille","lat":43.29292,"lon":5.37452,"is_reserved":false,"is_disabled":false,"rental_uris":{"android":"levelo://app?vid=218e4d41-2b21-4644-be04-d8016782fd90","ios":"levelo://app?vid=218e4d41-2b21-4644-be04-d8016782fd90"},"vehicle_type_id":"4","last_reported":1738779150,"current_range_meters":36000,"station_id":"ce4bgi12rcd13ifvqb70","pricing_plan_id":"cebpf4jnsgd1na2vs0mg"},{"bike_id":"383de43b-4c66-412e-810d-bc866330a375","system_id":"levelo_inurba_marseille","lat":43.2668,"lon":5.38269,"is_reserved":false,"is_disabled":false,"rental_uris":{"android":"levelo://app?vid=383de43b-4c66-412e-810d-bc866330a375","ios":"levelo://app?vid=383de43b-4c66-412e-810d-bc866330a375"},"vehicle_type_id":"4","last_reported":1738779150,"current_range_meters":39200,"station_id":"ce4bhg92rcd13ifvqf90","pricing_plan_id":"cebpf4jnsgd1na2vs0mg"},{"bike_id":"f423adf0-93aa-4c47-9d8a-b1e2e7e85005","system_id":"levelo_inurba_marseille","lat":43.2842,"lon":5.34981,"is_reserved":false,"is_disabled":true,"rental_uris":{"android":"levelo://app?vid=f423adf0-93aa-4c47-9d8a-b1e2e7e85005","ios":"levelo://app?vid=f423adf0-93aa-4c47-9d8a-b1e2e7e85005"},"vehicle_type_id":"4","last_reported":1738779150,"current_range_meters":10000,"station_id":"ce4bhbh2rcd13ifvqepg","pricing_plan_id":"cebpf4jnsgd1na2vs0mg"},{"bike_id":"93c7fd45-4b95-4050-82d1-35b48465a4aa","system_id":"levelo_inurba_marseille","lat":43.29053,"lon":5.35588,"is_reserved":false,"is_disabled":false,"rental_uris":{"android":"levelo://app?vid=93c7fd45-4b95-4050-82d1-35b48465a4aa","ios":"levelo://app?vid=93c7fd45-4b95-4050-82d1-35b48465a4aa"},"vehicle_type_id":"4","last_reported":1738779150,"current_range_meters":3600,"station_id":"","pricing_plan_id":"cebpf4jnsgd1na2vs0mg"},{"bike_id":"7aa9bd45-dfae-481b-ac26-6a6c523ef39d","system_id":"levelo_inurba_marseille","lat":43.29717,"lon":5.36605,"is_reserved":false,"is_disabled":false,"rental_uris":{"android":"levelo://app?vid=7aa9bd45-dfae-481b-ac26-6a6c523ef39d","ios":"levelo://app?vid=7aa9bd45-dfae-481b-ac26-6a6c523ef39d"},"vehicle_type_id":"4","last_reported":1738779150,"current_range_meters":23200,"station_id":"ce4bgn12rcd13ifvqbt0","pricing_plan_id":"cebpf4jnsgd1na2vs0mg"},{"bike_id":"4aeaa6fb-d793-4c87-a5e2-544407fb747c","system_id":"levelo_inurba_marseille","lat":43.28675,"lon":5.3867,"is_reserved":false,"is_disabled":false,"rental_uris":{"android":"levelo://app?vid=4aeaa6fb-d793-4c87-a5e2-544407fb747c","ios":"levelo://app?vid=4aeaa6fb-d793-4c87-a5e2-544407fb747c"},"vehicle_type_id":"4","last_reported":1738779150,"current_range_meters":3600,"station_id":"ce4bh492rcd13ifvqdug","pricing_plan_id":"cebpf4jnsgd1na2vs0mg"},{"bike_id":"92cb1359-6ba2-4a7e-87ab-429c4cdcfede","system_id":"levelo_inurba_marseille","lat":43.29516,"lon":5.39029,"is_reserved":false,"is_disabled":false,"rental_uris":{"android":"levelo://app?vid=92cb1359-6ba2-4a7e-87ab-429c4cdcfede","ios":"levelo://app?vid=92cb1359-6ba2-4a7e-87ab-429c4cdcfede"},"vehicle_type_id":"4","last_reported":1738779150,"current_range_meters":35600,"station_id":"ce4bh3p2rcd13ifvqdp0","pricing_plan_id":"cebpf4jnsgd1na2vs0mg"},{"bike_id":"aeb683f6-20cc-458f-9d9f-1aa1073b176a","system_id":"levelo_inurba_marseille","lat":43.2953,"lon":5.38556,"is_reserved":false,"is_disabled":false,"rental_uris":{"android":"levelo://app?vid=aeb683f6-20cc-458f-9d9f-1aa1073b176a","ios":"levelo://app?vid=aeb683f6-20cc-458f-9d9f-1aa1073b176a"},"vehicle_type_id":"4","last_reported":1738779150,"current_range_meters":10800,"station_id":"ce4bgih2rcd13ifvqba0","pricing_plan_id":"cebpf4jnsgd1na2vs0mg"},{"bike_id":"fc5e7914-d569-4a06-83ba-595cdcc60603","system_id":"levelo_inurba_marseille","lat":43.30167,"lon":5.39046,"is_reserved":false,"is_disabled":false,"rental_uris":{"android":"levelo://app?vid=fc5e7914-d569-4a06-83ba-595cdcc60603","ios":"levelo://app?vid=fc5e7914-d569-4a06-83ba-595cdcc60603"},"vehicle_type_id":"4","last_reported":1738779150,"current_range_meters":30800,"station_id":"ce4bgkh2rcd13ifvqbk0","pricing_plan_id":"cebpf4jnsgd1na2vs0mg"},{"bike_id":"22d7d5c8-23b1-4a29-9d97-2595194d451f","system_id":"levelo_inurba_marseille","lat":43.28107,"lon":5.37837,"is_reserved":false,"is_disabled":false,"rental_uris":{"android":"levelo://app?vid=22d7d5c8-23b1-4a29-9d97-2595194d451f","ios":"levelo://app?vid=22d7d5c8-23b1-4a29-9d97-2595194d451f"},"vehicle_type_id":"4","last_reported":1738779150,"current_range_meters":34000,"station_id":"ce4bha12rcd13ifvqee0","pricing_plan_id":"cebpf4jnsgd1na2vs0mg"},{"bike_id":"6bba36c7-75a6-4b1b-96cb-c03d219a6faa","system_id":"levelo_inurba_marseille","lat":43.33023,"lon":5.39033,"is_reserved":false,"is_disabled":false,"rental_uris":{"android":"levelo://app?vid=6bba36c7-75a6-4b1b-96cb-c03d219a6faa","ios":"levelo://app?vid=6bba36c7-75a6-4b1b-96cb-c03d219a6faa"},"vehicle_type_id":"4","last_reported":1738779150,"current_range_meters":36800,"station_id":"ce4bhr92rcd13ifvqhrg","pricing_plan_id":"cebpf4jnsgd1na2vs0mg"},{"bike_id":"5010ca19-df83-42ac-9a06-ec42d2768688","system_id":"levelo_inurba_marseille","lat":43.26052,"lon":5.39412,"is_reserved":false,"is_disabled":false,"rental_uris":{"android":"levelo://app?vid=5010ca19-df83-42ac-9a06-ec42d2768688","ios":"levelo://app?vid=5010ca19-df83-42ac-9a06-ec42d2768688"},"vehicle_type_id":"4","last_reported":1738779150,"current_range_meters":4000,"station_id":"ce4bhh92rcd13ifvqfj0","pricing_plan_id":"cebpf4jnsgd1na2vs0mg"},{"bike_id":"b28afe56-6d3b-4e1b-9f3e-89b06dc82c8f","system_id":"levelo_inurba_marseille","lat":43.29297,"lon":5.37469,"is_reserved":false,"is_disabled":false,"rental_uris":{"android":"levelo://app?vid=b28afe56-6d3b-4e1b-9f3e-89b06dc82c8f","ios":"levelo://app?vid=b28afe56-6d3b-4e1b-9f3e-89b06dc82c8f"},"vehicle_type_id":"4","last_reported":1738779150,"current_range_meters":30800,"station_id":"ce4bgi12rcd13ifvqb70","pricing_plan_id":"cebpf4jnsgd1na2vs0mg"},{"bike_id":"418f75fc-25ef-43cf-9653-4bc2a1e00542","system_id":"levelo_inurba_marseille","lat":43.30446,"lon":5.3889,"is_reserved":false,"is_disabled":false,"rental_uris":{"android":"levelo://app?vid=418f75fc-25ef-43cf-9653-4bc2a1e00542","ios":"levelo://app?vid=418f75fc-25ef-43cf-9653-4bc2a1e00542"},"vehicle_type_id":"4","last_reported":1738779150,"current_range_meters":38800,"station_id":"ce4bgk12rcd13ifvqbi0","pricing_plan_id":"cebpf4jnsgd1na2vs0mg"},{"bike_id":"c90bee22-93e6-4769-a402-7c2dd626c38f","system_id":"levelo_inurba_marseille","lat":43.27614,"lon":5.36103,"is_reserved":false,"is_disabled":false,"rental_uris":{"android":"levelo://app?vid=c90bee22-93e6-4769-a402-7c2dd626c38f","ios":"levelo://app?vid=c90bee22-93e6-4769-a402-7c2dd626c38f"},"vehicle_type_id":"4","last_reported":1738779150,"current_range_meters":36800,"station_id":"ce4bgj92rcd13ifvqbe0","pricing_plan_id":"cebpf4jnsgd1na2vs0mg"},{"bike_id":"865da38e-7662-4cd0-8259-ddab14436918","system_id":"levelo_inurba_marseille","lat":43.28441,"lon":5.39187,"is_reserved":false,"is_disabled":false,"rental_uris":{"android":"levelo://app?vid=865da38e-7662-4cd0-8259-ddab14436918","ios":"levelo://app?vid=865da38e-7662-4cd0-8259-ddab14436918"},"vehicle_type_id":"4","last_reported":1738779150,"current_range_meters":38800,"station_id":"ce4bhoh2rcd13ifvqh5g","pricing_plan_id":"cebpf4jnsgd1na2vs0mg"},{"bike_id":"18bc79d4-0556-47cc-b012-c6f134b81373","system_id":"levelo_inurba_marseille","lat":43.31366,"lon":5.38486,"is_reserved":false,"is_disabled":false,"rental_uris":{"android":"levelo://app?vid=18bc79d4-0556-47cc-b012-c6f134b81373","ios":"levelo://app?vid=18bc79d4-0556-47cc-b012-c6f134b81373"},"vehicle_type_id":"4","last_reported":1738779150,"current_range_meters":38800,"station_id":"ce4bgt92rcd13ifvqcf0","pricing_plan_id":"cebpf4jnsgd1na2vs0mg"},{"bike_id":"934d774b-675f-4d9b-9eed-3a29b86466f7","system_id":"levelo_inurba_marseille","lat":43.28937,"lon":5.36642,"is_reserved":false,"is_disabled":false,"rental_uris":{"android":"levelo://app?vid=934d774b-675f-4d9b-9eed-3a29b86466f7","ios":"levelo://app?vid=934d774b-675f-4d9b-9eed-3a29b86466f7"},"vehicle_type_id":"4","last_reported":1738779150,"current_range_meters":35200,"station_id":"ce4bhap2rcd13ifvqek0","pricing_plan_id":"cebpf4jnsgd1na2vs0mg"},{"bike_id":"585829b3-6401-45a0-8835-1ef0bbd3a57c","system_id":"levelo_inurba_marseille","lat":43.28147,"lon":5.42647,"is_reserved":false,"is_disabled":false,"rental_uris":{"android":"levelo://app?vid=585829b3-6401-45a0-8835-1ef0bbd3a57c","ios":"levelo://app?vid=585829b3-6401-45a0-8835-1ef0bbd3a57c"},"vehicle_type_id":"4","last_reported":1738779150,"current_range_meters":28000,"station_id":"ce4bhnh2rcd13ifvqgug","pricing_plan_id":"cebpf4jnsgd1na2vs0mg"},{"bike_id":"0ea6a0d0-09b8-49c4-bbc2-f7b070a4a57e","system_id":"levelo_inurba_marseille","lat":43.29575,"lon":5.39967,"is_reserved":false,"is_disabled":false,"rental_uris":{"android":"levelo://app?vid=0ea6a0d0-09b8-49c4-bbc2-f7b070a4a57e","ios":"levelo://app?vid=0ea6a0d0-09b8-49c4-bbc2-f7b070a4a57e"},"vehicle_type_id":"4","last_reported":1738779150,"current_range_meters":38000,"station_id":"ce4bh312rcd13ifvqdj0","pricing_plan_id":"cebpf4jnsgd1na2vs0mg"},{"bike_id":"4a71a176-eb41-4410-abfa-fed6dcd64cff","system_id":"levelo_inurba_marseille","lat":43.31171,"lon":5.38729,"is_reserved":false,"is_disabled":false,"rental_uris":{"android":"levelo://app?vid=4a71a176-eb41-4410-abfa-fed6dcd64cff","ios":"levelo://app?vid=4a71a176-eb41-4410-abfa-fed6dcd64cff"},"vehicle_type_id":"4","last_reported":1738779150,"current_range_meters":18800,"station_id":"ce4bgv12rcd13ifvqcp0","pricing_plan_id":"cebpf4jnsgd1na2vs0mg"},{"bike_id":"2cd60774-c2f8-4e8f-9236-a6b0c03a1062","system_id":"levelo_inurba_marseille","lat":43.28086,"lon":5.3965,"is_reserved":false,"is_disabled":false,"rental_uris":{"android":"levelo://app?vid=2cd60774-c2f8-4e8f-9236-a6b0c03a1062","ios":"levelo://app?vid=2cd60774-c2f8-4e8f-9236-a6b0c03a1062"},"vehicle_type_id":"4","last_reported":1738779150,"current_range_meters":12400,"station_id":"ce4bho12rcd13ifvqh2g","pricing_plan_id":"cebpf4jnsgd1na2vs0mg"},{"bike_id":"26224e4b-c230-413d-a160-7493a0237940","system_id":"levelo_inurba_marseille","lat":43.29418,"lon":5.38624,"is_reserved":false,"is_disabled":false,"rental_uris":{"android":"levelo://app?vid=26224e4b-c230-413d-a160-7493a0237940","ios":"levelo://app?vid=26224e4b-c230-413d-a160-7493a0237940"},"vehicle_type_id":"4","last_reported":1738779150,"current_range_meters":17200,"station_id":"ce4bh2h2rcd13ifvqdh0","pricing_plan_id":"cebpf4jnsgd1na2vs0mg"},{"bike_id":"58ab78f5-67e4-4251-b69d-a8899c0ee627","system_id":"levelo_inurba_marseille","lat":43.2794,"lon":5.41045,"is_reserved":false,"is_disabled":false,"rental_uris":{"android":"levelo://app?vid=58ab78f5-67e4-4251-b69d-a8899c0ee627","ios":"levelo://app?vid=58ab78f5-67e4-4251-b69d-a8899c0ee627"},"vehicle_type_id":"4","last_reported":1738779150,"current_range_meters":24400,"station_id":"ce4bhnp2rcd13ifvqh0g","pricing_plan_id":"cebpf4jnsgd1na2vs0mg"},{"bike_id":"e040da88-b421-4173-9ede-61ba1a6ca5b4","system_id":"levelo_inurba_marseille","lat":43.24195,"lon":5.39715,"is_reserved":false,"is_disabled":false,"rental_uris":{"android":"levelo://app?vid=e040da88-b421-4173-9ede-61ba1a6ca5b4","ios":"levelo://app?vid=e040da88-b421-4173-9ede-61ba1a6ca5b4"},"vehicle_type_id":"4","last_reported":1738779150,"current_range_meters":16800,"station_id":"ce4bhn12rcd13ifvqgpg","pricing_plan_id":"cebpf4jnsgd1na2vs0mg"},{"bike_id":"6712f04b-f35d-4e3a-a70d-c89aec85d9b2","system_id":"levelo_inurba_marseille","lat":43.22944,"lon":5.35352,"is_reserved":false,"is_disabled":false,"rental_uris":{"android":"levelo://app?vid=6712f04b-f35d-4e3a-a70d-c89aec85d9b2","ios":"levelo://app?vid=6712f04b-f35d-4e3a-a70d-c89aec85d9b2"},"vehicle_type_id":"4","last_reported":1738779150,"current_range_meters":38800,"station_id":"cpo3532slgdg3j2ikp40","pricing_plan_id":"cebpf4jnsgd1na2vs0mg"},{"bike_id":"9470dd73-7393-47ca-8f05-fd76cdac2879","system_id":"levelo_inurba_marseille","lat":43.24067,"lon":5.37763,"is_reserved":false,"is_disabled":false,"rental_uris":{"android":"levelo://app?vid=9470dd73-7393-47ca-8f05-fd76cdac2879","ios":"levelo://app?vid=9470dd73-7393-47ca-8f05-fd76cdac2879"},"vehicle_type_id":"4","last_reported":1738779150,"current_range_meters":35200,"station_id":"ce4bhnp2rcd13ifvqgvg","pricing_plan_id":"cebpf4jnsgd1na2vs0mg"},{"bike_id":"f9b08241-a18e-4c26-b835-004663f83d21","system_id":"levelo_inurba_marseille","lat":43.27564,"lon":5.3842,"is_reserved":false,"is_disabled":false,"rental_uris":{"android":"levelo://app?vid=f9b08241-a18e-4c26-b835-004663f83d21","ios":"levelo://app?vid=f9b08241-a18e-4c26-b835-004663f83d21"},"vehicle_type_id":"4","last_reported":1738779150,"current_range_meters":39200,"station_id":"ce4bhh92rcd13ifvqfi0","pricing_plan_id":"cebpf4jnsgd1na2vs0mg"},{"bike_id":"cb2e142b-8956-4e08-816f-7dc7ab66ecae","system_id":"levelo_inurba_marseille","lat":43.317156,"lon":5.377467,"is_reserved":false,"is_disabled":false,"rental_uris":{"android":"levelo://app?vid=cb2e142b-8956-4e08-816f-7dc7ab66ecae","ios":"levelo://app?vid=cb2e142b-8956-4e08-816f-7dc7ab66ecae"},"vehicle_type_id":"4","last_reported":1738779150,"current_range_meters":39200,"station_id":"ce4bgth2rcd13ifvqch0","pricing_plan_id":"cebpf4jnsgd1na2vs0mg"},{"bike_id":"557561e0-8b52-474d-b522-015aa5f48afe","system_id":"levelo_inurba_marseille","lat":43.2917,"lon":5.37147,"is_reserved":false,"is_disabled":false,"rental_uris":{"android":"levelo://app?vid=557561e0-8b52-474d-b522-015aa5f48afe","ios":"levelo://app?vid=557561e0-8b52-474d-b522-015aa5f48afe"},"vehicle_type_id":"4","last_reported":1738779150,"current_range_meters":39200,"station_id":"ce4bha92rcd13ifvqeh0","pricing_plan_id":"cebpf4jnsgd1na2vs0mg"},{"bike_id":"73fce39a-9295-4170-b814-54a116608c46","system_id":"levelo_inurba_marseille","lat":43.31893,"lon":5.40733,"is_reserved":false,"is_disabled":false,"rental_uris":{"android":"levelo://app?vid=73fce39a-9295-4170-b814-54a116608c46","ios":"levelo://app?vid=73fce39a-9295-4170-b814-54a116608c46"},"vehicle_type_id":"4","last_reported":1738779150,"current_range_meters":29600,"station_id":"ce4bhq12rcd13ifvqhig","pricing_plan_id":"cebpf4jnsgd1na2vs0mg"},{"bike_id":"0a340a50-c9b3-4c87-88da-a62208ff40c7","system_id":"levelo_inurba_marseille","lat":43.30545,"lon":5.36693,"is_reserved":false,"is_disabled":false,"rental_uris":{"android":"levelo://app?vid=0a340a50-c9b3-4c87-88da-a62208ff40c7","ios":"levelo://app?vid=0a340a50-c9b3-4c87-88da-a62208ff40c7"},"vehicle_type_id":"4","last_reported":1738779150,"current_range_meters":37600,"station_id":"ce4bgrp2rcd13ifvqc9g","pricing_plan_id":"cebpf4jnsgd1na2vs0mg"},{"bike_id":"0fdaa609-2cd3-4266-a177-d64db1c61a66","system_id":"levelo_inurba_marseille","lat":43.30326,"lon":5.40431,"is_reserved":false,"is_disabled":false,"rental_uris":{"android":"levelo://app?vid=0fdaa609-2cd3-4266-a177-d64db1c61a66","ios":"levelo://app?vid=0fdaa609-2cd3-4266-a177-d64db1c61a66"},"vehicle_type_id":"4","last_reported":1738779150,"current_range_meters":30400,"station_id":"ce4bh012rcd13ifvqd10","pricing_plan_id":"cebpf4jnsgd1na2vs0mg"},{"bike_id":"1d58bc16-2474-4f4a-a2dc-c0fb280d26a1","system_id":"levelo_inurba_marseille","lat":43.29199,"lon":5.39321,"is_reserved":false,"is_disabled":false,"rental_uris":{"android":"levelo://app?vid=1d58bc16-2474-4f4a-a2dc-c0fb280d26a1","ios":"levelo://app?vid=1d58bc16-2474-4f4a-a2dc-c0fb280d26a1"},"vehicle_type_id":"4","last_reported":1738779150,"current_range_meters":36800,"station_id":"ce4bh192rcd13ifvqdd0","pricing_plan_id":"cebpf4jnsgd1na2vs0mg"},{"bike_id":"62d7afd3-76ab-4b80-b18e-ee18941b0818","system_id":"levelo_inurba_marseille","lat":43.28937,"lon":5.36639,"is_reserved":false,"is_disabled":false,"rental_uris":{"android":"levelo://app?vid=62d7afd3-76ab-4b80-b18e-ee18941b0818","ios":"levelo://app?vid=62d7afd3-76ab-4b80-b18e-ee18941b0818"},"vehicle_type_id":"4","last_reported":1738779150,"current_range_meters":6800,"station_id":"ce4bhap2rcd13ifvqek0","pricing_plan_id":"cebpf4jnsgd1na2vs0mg"},{"bike_id":"091d41d7-c1d3-4cdf-9b5c-052439e6b669","system_id":"levelo_inurba_marseille","lat":43.30488,"lon":5.36672,"is_reserved":false,"is_disabled":true,"rental_uris":{"android":"levelo://app?vid=091d41d7-c1d3-4cdf-9b5c-052439e6b669","ios":"levelo://app?vid=091d41d7-c1d3-4cdf-9b5c-052439e6b669"},"vehicle_type_id":"4","last_reported":1738779150,"current_range_meters":26000,"station_id":"","pricing_plan_id":"cebpf4jnsgd1na2vs0mg"},{"bike_id":"838de87c-ab5c-4e12-a96f-17e896589e14","system_id":"levelo_inurba_marseille","lat":43.30217,"lon":5.40441,"is_reserved":false,"is_disabled":false,"rental_uris":{"android":"levelo://app?vid=838de87c-ab5c-4e12-a96f-17e896589e14","ios":"levelo://app?vid=838de87c-ab5c-4e12-a96f-17e896589e14"},"vehicle_type_id":"4","last_reported":1738779150,"current_range_meters":16400,"station_id":"ce4bh012rcd13ifvqd10","pricing_plan_id":"cebpf4jnsgd1na2vs0mg"},{"bike_id":"44dde5cf-c2f0-4ca3-a927-e2c7152ee089","system_id":"levelo_inurba_marseille","lat":43.27809,"lon":5.40711,"is_reserved":false,"is_disabled":false,"rental_uris":{"android":"levelo://app?vid=44dde5cf-c2f0-4ca3-a927-e2c7152ee089","ios":"levelo://app?vid=44dde5cf-c2f0-4ca3-a927-e2c7152ee089"},"vehicle_type_id":"4","last_reported":1738779150,"current_range_meters":3600,"station_id":"ce4bhnh2rcd13ifvqgtg","pricing_plan_id":"cebpf4jnsgd1na2vs0mg"},{"bike_id":"a6b2428a-7d23-4892-a3bf-86cc25978b7a","system_id":"levelo_inurba_marseille","lat":43.25501,"lon":5.37652,"is_reserved":false,"is_disabled":true,"rental_uris":{"android":"levelo://app?vid=a6b2428a-7d23-4892-a3bf-86cc25978b7a","ios":"levelo://app?vid=a6b2428a-7d23-4892-a3bf-86cc25978b7a"},"vehicle_type_id":"4","last_reported":1738779150,"current_range_meters":25600,"station_id":"ce4bhh12rcd13ifvqff0","pricing_plan_id":"cebpf4jnsgd1na2vs0mg"},{"bike_id":"8f55a9a2-e3bf-4734-b1cd-752d8460ce0f","system_id":"levelo_inurba_marseille","lat":43.29526,"lon":5.39402,"is_reserved":false,"is_disabled":false,"rental_uris":{"android":"levelo://app?vid=8f55a9a2-e3bf-4734-b1cd-752d8460ce0f","ios":"levelo://app?vid=8f55a9a2-e3bf-4734-b1cd-752d8460ce0f"},"vehicle_type_id":"4","last_reported":1738779150,"current_range_meters":38800,"station_id":"ce4bh292rcd13ifvqdf0","pricing_plan_id":"cebpf4jnsgd1na2vs0mg"},{"bike_id":"530bacbb-408f-42b5-9a6c-21a69946639f","system_id":"levelo_inurba_marseille","lat":43.30253,"lon":5.40079,"is_reserved":false,"is_disabled":false,"rental_uris":{"android":"levelo://app?vid=530bacbb-408f-42b5-9a6c-21a69946639f","ios":"levelo://app?vid=530bacbb-408f-42b5-9a6c-21a69946639f"},"vehicle_type_id":"4","last_reported":1738779150,"current_range_meters":16800,"station_id":"ce4bgvh2rcd13ifvqcs0","pricing_plan_id":"cebpf4jnsgd1na2vs0mg"},{"bike_id":"9a449e8f-6f61-46f1-8791-42754d534c2c","system_id":"levelo_inurba_marseille","lat":43.26942,"lon":5.40238,"is_reserved":false,"is_disabled":false,"rental_uris":{"android":"levelo://app?vid=9a449e8f-6f61-46f1-8791-42754d534c2c","ios":"levelo://app?vid=9a449e8f-6f61-46f1-8791-42754d534c2c"},"vehicle_type_id":"4","last_reported":1738779150,"current_range_meters":22000,"station_id":"cjm6bp8fraef2m0cb0m0","pricing_plan_id":"cebpf4jnsgd1na2vs0mg"},{"bike_id":"c85a26e1-f53e-4ec1-b1ea-8b32d23f1f4d","system_id":"levelo_inurba_marseille","lat":43.23066,"lon":5.35492,"is_reserved":false,"is_disabled":false,"rental_uris":{"android":"levelo://app?vid=c85a26e1-f53e-4ec1-b1ea-8b32d23f1f4d","ios":"levelo://app?vid=c85a26e1-f53e-4ec1-b1ea-8b32d23f1f4d"},"vehicle_type_id":"4","last_reported":1738779150,"current_range_meters":21600,"station_id":"cpo3342slgdg3j2ifvpg","pricing_plan_id":"cebpf4jnsgd1na2vs0mg"},{"bike_id":"60032011-dd30-4187-bcb1-a940f667f5f2","system_id":"levelo_inurba_marseille","lat":43.25939,"lon":5.40899,"is_reserved":false,"is_disabled":false,"rental_uris":{"android":"levelo://app?vid=60032011-dd30-4187-bcb1-a940f667f5f2","ios":"levelo://app?vid=60032011-dd30-4187-bcb1-a940f667f5f2"},"vehicle_type_id":"4","last_reported":1738779150,"current_range_meters":34800,"station_id":"ce4bhm92rcd13ifvqglg","pricing_plan_id":"cebpf4jnsgd1na2vs0mg"},{"bike_id":"18346df9-43f2-4a93-8925-96a12828428d","system_id":"levelo_inurba_marseille","lat":43.29516,"lon":5.39403,"is_reserved":false,"is_disabled":false,"rental_uris":{"android":"levelo://app?vid=18346df9-43f2-4a93-8925-96a12828428d","ios":"levelo://app?vid=18346df9-43f2-4a93-8925-96a12828428d"},"vehicle_type_id":"4","last_reported":1738779150,"current_range_meters":22000,"station_id":"ce4bh292rcd13ifvqdf0","pricing_plan_id":"cebpf4jnsgd1na2vs0mg"},{"bike_id":"d514230b-01d1-4e6e-b07b-dd83ae518c95","system_id":"levelo_inurba_marseille","lat":43.25084,"lon":5.39525,"is_reserved":false,"is_disabled":false,"rental_uris":{"android":"levelo://app?vid=d514230b-01d1-4e6e-b07b-dd83ae518c95","ios":"levelo://app?vid=d514230b-01d1-4e6e-b07b-dd83ae518c95"},"vehicle_type_id":"4","last_reported":1738779150,"current_range_meters":34000,"station_id":"ce4bhm12rcd13ifvqgkg","pricing_plan_id":"cebpf4jnsgd1na2vs0mg"},{"bike_id":"9c207c45-ddb2-4217-8d34-079a5658cd14","system_id":"levelo_inurba_marseille","lat":43.32294,"lon":5.38263,"is_reserved":false,"is_disabled":false,"rental_uris":{"android":"levelo://app?vid=9c207c45-ddb2-4217-8d34-079a5658cd14","ios":"levelo://app?vid=9c207c45-ddb2-4217-8d34-079a5658cd14"},"vehicle_type_id":"4","last_reported":1738779150,"current_range_meters":38000,"station_id":"ce4bhr12rcd13ifvqhqg","pricing_plan_id":"cebpf4jnsgd1na2vs0mg"},{"bike_id":"ce32e641-6bf4-4f5a-bec6-bc9c7fe39286","system_id":"levelo_inurba_marseille","lat":43.31354,"lon":5.38496,"is_reserved":false,"is_disabled":false,"rental_uris":{"android":"levelo://app?vid=ce32e641-6bf4-4f5a-bec6-bc9c7fe39286","ios":"levelo://app?vid=ce32e641-6bf4-4f5a-bec6-bc9c7fe39286"},"vehicle_type_id":"4","last_reported":1738779150,"current_range_meters":39200,"station_id":"ce4bgt92rcd13ifvqcf0","pricing_plan_id":"cebpf4jnsgd1na2vs0mg"},{"bike_id":"b4550370-2ab6-46d0-8d1d-404d616cb433","system_id":"levelo_inurba_marseille","lat":43.28008,"lon":5.39968,"is_reserved":false,"is_disabled":false,"rental_uris":{"android":"levelo://app?vid=b4550370-2ab6-46d0-8d1d-404d616cb433","ios":"levelo://app?vid=b4550370-2ab6-46d0-8d1d-404d616cb433"},"vehicle_type_id":"4","last_reported":1738779150,"current_range_meters":5600,"station_id":"ce4bho92rcd13ifvqh4g","pricing_plan_id":"cebpf4jnsgd1na2vs0mg"},{"bike_id":"f991a001-6776-4873-8ce3-4bf62d60e285","system_id":"levelo_inurba_marseille","lat":43.30141,"lon":5.39859,"is_reserved":false,"is_disabled":false,"rental_uris":{"android":"levelo://app?vid=f991a001-6776-4873-8ce3-4bf62d60e285","ios":"levelo://app?vid=f991a001-6776-4873-8ce3-4bf62d60e285"},"vehicle_type_id":"4","last_reported":1738779150,"current_range_meters":5600,"station_id":"ce4bh0h2rcd13ifvqd40","pricing_plan_id":"cebpf4jnsgd1na2vs0mg"},{"bike_id":"d7d54da1-3dec-42c8-991b-c16bccc0ac6f","system_id":"levelo_inurba_marseille","lat":43.29279,"lon":5.36844,"is_reserved":false,"is_disabled":false,"rental_uris":{"android":"levelo://app?vid=d7d54da1-3dec-42c8-991b-c16bccc0ac6f","ios":"levelo://app?vid=d7d54da1-3dec-42c8-991b-c16bccc0ac6f"},"vehicle_type_id":"4","last_reported":1738779150,"current_range_meters":28000,"station_id":"ce4bhbp2rcd13ifvqesg","pricing_plan_id":"cebpf4jnsgd1na2vs0mg"},{"bike_id":"c27d8cef-128f-467e-8ca2-b33835376bb2","system_id":"levelo_inurba_marseille","lat":43.30661,"lon":5.40098,"is_reserved":false,"is_disabled":false,"rental_uris":{"android":"levelo://app?vid=c27d8cef-128f-467e-8ca2-b33835376bb2","ios":"levelo://app?vid=c27d8cef-128f-467e-8ca2-b33835376bb2"},"vehicle_type_id":"4","last_reported":1738779150,"current_range_meters":36800,"station_id":"ce4bh112rcd13ifvqda0","pricing_plan_id":"cebpf4jnsgd1na2vs0mg"},{"bike_id":"5eb45cce-6cfc-42e4-a64e-1d65efa9c178","system_id":"levelo_inurba_marseille","lat":43.31377,"lon":5.38499,"is_reserved":false,"is_disabled":false,"rental_uris":{"android":"levelo://app?vid=5eb45cce-6cfc-42e4-a64e-1d65efa9c178","ios":"levelo://app?vid=5eb45cce-6cfc-42e4-a64e-1d65efa9c178"},"vehicle_type_id":"4","last_reported":1738779150,"current_range_meters":39200,"station_id":"ce4bgt92rcd13ifvqcf0","pricing_plan_id":"cebpf4jnsgd1na2vs0mg"},{"bike_id":"1f60af65-67e4-4506-92ce-b099d71368bc","system_id":"levelo_inurba_marseille","lat":43.27372,"lon":5.36258,"is_reserved":false,"is_disabled":true,"rental_uris":{"android":"levelo://app?vid=1f60af65-67e4-4506-92ce-b099d71368bc","ios":"levelo://app?vid=1f60af65-67e4-4506-92ce-b099d71368bc"},"vehicle_type_id":"4","last_reported":1738779150,"current_range_meters":400,"station_id":"ce4bhbh2rcd13ifvqeo0","pricing_plan_id":"cebpf4jnsgd1na2vs0mg"},{"bike_id":"01972018-8b57-4ad1-b2da-73d2aaec9058","system_id":"levelo_inurba_marseille","lat":43.29166,"lon":5.37178,"is_reserved":false,"is_disabled":false,"rental_uris":{"android":"levelo://app?vid=01972018-8b57-4ad1-b2da-73d2aaec9058","ios":"levelo://app?vid=01972018-8b57-4ad1-b2da-73d2aaec9058"},"vehicle_type_id":"4","last_reported":1738779150,"current_range_meters":30800,"station_id":"ce4bha92rcd13ifvqeh0","pricing_plan_id":"cebpf4jnsgd1na2vs0mg"},{"bike_id":"24014241-5b95-4a31-94b3-518cf14b5577","system_id":"levelo_inurba_marseille","lat":43.30777,"lon":5.37647,"is_reserved":false,"is_disabled":true,"rental_uris":{"android":"levelo://app?vid=24014241-5b95-4a31-94b3-518cf14b5577","ios":"levelo://app?vid=24014241-5b95-4a31-94b3-518cf14b5577"},"vehicle_type_id":"4","last_reported":1738779150,"current_range_meters":8800,"station_id":"ce4bgv92rcd13ifvqcq0","pricing_plan_id":"cebpf4jnsgd1na2vs0mg"},{"bike_id":"a9d2cdd8-e8cc-40c9-87d7-d5a1d12197b1","system_id":"levelo_inurba_marseille","lat":43.27494,"lon":5.42445,"is_reserved":false,"is_disabled":true,"rental_uris":{"android":"levelo://app?vid=a9d2cdd8-e8cc-40c9-87d7-d5a1d12197b1","ios":"levelo://app?vid=a9d2cdd8-e8cc-40c9-87d7-d5a1d12197b1"},"vehicle_type_id":"4","last_reported":1738779150,"current_range_meters":0,"station_id":"ce4bhn92rcd13ifvqgrg","pricing_plan_id":"cebpf4jnsgd1na2vs0mg"},{"bike_id":"83224ed5-dc8e-4961-a1df-7c90aa6f6315","system_id":"levelo_inurba_marseille","lat":43.29034,"lon":5.37603,"is_reserved":false,"is_disabled":false,"rental_uris":{"android":"levelo://app?vid=83224ed5-dc8e-4961-a1df-7c90aa6f6315","ios":"levelo://app?vid=83224ed5-dc8e-4961-a1df-7c90aa6f6315"},"vehicle_type_id":"4","last_reported":1738779150,"current_range_meters":32400,"station_id":"ce4bh692rcd13ifvqe90","pricing_plan_id":"cebpf4jnsgd1na2vs0mg"},{"bike_id":"35b0fbe6-22db-46fb-a54a-76af362a8729","system_id":"levelo_inurba_marseille","lat":43.29982,"lon":5.4133,"is_reserved":false,"is_disabled":false,"rental_uris":{"android":"levelo://app?vid=35b0fbe6-22db-46fb-a54a-76af362a8729","ios":"levelo://app?vid=35b0fbe6-22db-46fb-a54a-76af362a8729"},"vehicle_type_id":"4","last_reported":1738779150,"current_range_meters":36800,"station_id":"ce4bhp12rcd13ifvqh9g","pricing_plan_id":"cebpf4jnsgd1na2vs0mg"},{"bike_id":"88ce7e1b-d6f8-4620-beef-be982f304f3e","system_id":"levelo_inurba_marseille","lat":43.32105,"lon":5.36779,"is_reserved":false,"is_disabled":false,"rental_uris":{"android":"levelo://app?vid=88ce7e1b-d6f8-4620-beef-be982f304f3e","ios":"levelo://app?vid=88ce7e1b-d6f8-4620-beef-be982f304f3e"},"vehicle_type_id":"4","last_reported":1738779150,"current_range_meters":7200,"station_id":"ce4bhrh2rcd13ifvqhug","pricing_plan_id":"cebpf4jnsgd1na2vs0mg"},{"bike_id":"0aacd370-1800-4c6f-8304-22bc96636a15","system_id":"levelo_inurba_marseille","lat":43.24802,"lon":5.37457,"is_reserved":false,"is_disabled":false,"rental_uris":{"android":"levelo://app?vid=0aacd370-1800-4c6f-8304-22bc96636a15","ios":"levelo://app?vid=0aacd370-1800-4c6f-8304-22bc96636a15"},"vehicle_type_id":"4","last_reported":1738779150,"current_range_meters":38800,"station_id":"ce4bhgh2rcd13ifvqfb0","pricing_plan_id":"cebpf4jnsgd1na2vs0mg"},{"bike_id":"d5717ab6-9aa6-4334-bf53-16f5e15baad6","system_id":"levelo_inurba_marseille","lat":43.27979,"lon":5.38746,"is_reserved":false,"is_disabled":false,"rental_uris":{"android":"levelo://app?vid=d5717ab6-9aa6-4334-bf53-16f5e15baad6","ios":"levelo://app?vid=d5717ab6-9aa6-4334-bf53-16f5e15baad6"},"vehicle_type_id":"4","last_reported":1738779150,"current_range_meters":38400,"station_id":"ce4bhg12rcd13ifvqf80","pricing_plan_id":"cebpf4jnsgd1na2vs0mg"},{"bike_id":"b94d2167-9b73-4a5c-a826-186a805afe3d","system_id":"levelo_inurba_marseille","lat":43.25504,"lon":5.37647,"is_reserved":false,"is_disabled":false,"rental_uris":{"android":"levelo://app?vid=b94d2167-9b73-4a5c-a826-186a805afe3d","ios":"levelo://app?vid=b94d2167-9b73-4a5c-a826-186a805afe3d"},"vehicle_type_id":"4","last_reported":1738779150,"current_range_meters":33200,"station_id":"ce4bhh12rcd13ifvqff0","pricing_plan_id":"cebpf4jnsgd1na2vs0mg"},{"bike_id":"2f9a6647-bfb0-4c5f-b2d5-6b23d0794b76","system_id":"levelo_inurba_marseille","lat":43.25576,"lon":5.38223,"is_reserved":false,"is_disabled":true,"rental_uris":{"android":"levelo://app?vid=2f9a6647-bfb0-4c5f-b2d5-6b23d0794b76","ios":"levelo://app?vid=2f9a6647-bfb0-4c5f-b2d5-6b23d0794b76"},"vehicle_type_id":"4","last_reported":1738779150,"current_range_meters":37600,"station_id":"ce4bhih2rcd13ifvqfs0","pricing_plan_id":"cebpf4jnsgd1na2vs0mg"},{"bike_id":"ae94961f-e878-4223-b128-b7317dee459e","system_id":"levelo_inurba_marseille","lat":43.29705,"lon":5.36604,"is_reserved":false,"is_disabled":false,"rental_uris":{"android":"levelo://app?vid=ae94961f-e878-4223-b128-b7317dee459e","ios":"levelo://app?vid=ae94961f-e878-4223-b128-b7317dee459e"},"vehicle_type_id":"4","last_reported":1738779150,"current_range_meters":25600,"station_id":"ce4bgn12rcd13ifvqbt0","pricing_plan_id":"cebpf4jnsgd1na2vs0mg"},{"bike_id":"a6726a6a-bb29-4da0-a7d8-4af8b604af4e","system_id":"levelo_inurba_marseille","lat":43.2694,"lon":5.40256,"is_reserved":false,"is_disabled":false,"rental_uris":{"android":"levelo://app?vid=a6726a6a-bb29-4da0-a7d8-4af8b604af4e","ios":"levelo://app?vid=a6726a6a-bb29-4da0-a7d8-4af8b604af4e"},"vehicle_type_id":"4","last_reported":1738779150,"current_range_meters":14000,"station_id":"cjm6bp8fraef2m0cb0m0","pricing_plan_id":"cebpf4jnsgd1na2vs0mg"},{"bike_id":"786af5a6-7181-4746-8e7c-5055a97f6274","system_id":"levelo_inurba_marseille","lat":43.28161,"lon":5.42645,"is_reserved":false,"is_disabled":true,"rental_uris":{"android":"levelo://app?vid=786af5a6-7181-4746-8e7c-5055a97f6274","ios":"levelo://app?vid=786af5a6-7181-4746-8e7c-5055a97f6274"},"vehicle_type_id":"4","last_reported":1738779150,"current_range_meters":31200,"station_id":"ce4bhnh2rcd13ifvqgug","pricing_plan_id":"cebpf4jnsgd1na2vs0mg"},{"bike_id":"93fbdf65-f816-41db-aa80-fd0a58c14346","system_id":"levelo_inurba_marseille","lat":43.27415,"lon":5.39394,"is_reserved":false,"is_disabled":true,"rental_uris":{"android":"levelo://app?vid=93fbdf65-f816-41db-aa80-fd0a58c14346","ios":"levelo://app?vid=93fbdf65-f816-41db-aa80-fd0a58c14346"},"vehicle_type_id":"4","last_reported":1738779150,"current_range_meters":0,"station_id":"ce4bhdp2rcd13ifvqf20","pricing_plan_id":"cebpf4jnsgd1na2vs0mg"},{"bike_id":"3c62e9d2-2854-4f4c-a608-cbf9e537bde7","system_id":"levelo_inurba_marseille","lat":43.2987,"lon":5.39732,"is_reserved":false,"is_disabled":false,"rental_uris":{"android":"levelo://app?vid=3c62e9d2-2854-4f4c-a608-cbf9e537bde7","ios":"levelo://app?vid=3c62e9d2-2854-4f4c-a608-cbf9e537bde7"},"vehicle_type_id":"4","last_reported":1738779150,"current_range_meters":38400,"station_id":"ce4bh0h2rcd13ifvqd50","pricing_plan_id":"cebpf4jnsgd1na2vs0mg"},{"bike_id":"50b15991-9296-4df6-b1a6-725aba7e366c","system_id":"levelo_inurba_marseille","lat":43.25863,"lon":5.39898,"is_reserved":false,"is_disabled":true,"rental_uris":{"android":"levelo://app?vid=50b15991-9296-4df6-b1a6-725aba7e366c","ios":"levelo://app?vid=50b15991-9296-4df6-b1a6-725aba7e366c"},"vehicle_type_id":"4","last_reported":1738779150,"current_range_meters":1200,"station_id":"ce4bhl92rcd13ifvqghg","pricing_plan_id":"cebpf4jnsgd1na2vs0mg"},{"bike_id":"05ef3b5a-0b29-498a-a266-9c36afccd5db","system_id":"levelo_inurba_marseille","lat":43.27996,"lon":5.40009,"is_reserved":false,"is_disabled":false,"rental_uris":{"android":"levelo://app?vid=05ef3b5a-0b29-498a-a266-9c36afccd5db","ios":"levelo://app?vid=05ef3b5a-0b29-498a-a266-9c36afccd5db"},"vehicle_type_id":"4","last_reported":1738779150,"current_range_meters":7200,"station_id":"ce4bho92rcd13ifvqh4g","pricing_plan_id":"cebpf4jnsgd1na2vs0mg"},{"bike_id":"43dbcacd-347c-4beb-a600-5c3d96b4b244","system_id":"levelo_inurba_marseille","lat":43.23191,"lon":5.39984,"is_reserved":false,"is_disabled":false,"rental_uris":{"android":"levelo://app?vid=43dbcacd-347c-4beb-a600-5c3d96b4b244","ios":"levelo://app?vid=43dbcacd-347c-4beb-a600-5c3d96b4b244"},"vehicle_type_id":"4","last_reported":1738779150,"current_range_meters":39200,"station_id":"ce4bhn12rcd13ifvqgqg","pricing_plan_id":"cebpf4jnsgd1na2vs0mg"},{"bike_id":"122b31ba-aa3f-4b79-b635-5e6c666389d2","system_id":"levelo_inurba_marseille","lat":43.29034,"lon":5.3863,"is_reserved":false,"is_disabled":false,"rental_uris":{"android":"levelo://app?vid=122b31ba-aa3f-4b79-b635-5e6c666389d2","ios":"levelo://app?vid=122b31ba-aa3f-4b79-b635-5e6c666389d2"},"vehicle_type_id":"4","last_reported":1738779150,"current_range_meters":33200,"station_id":"ce4bh4p2rcd13ifvqe0g","pricing_plan_id":"cebpf4jnsgd1na2vs0mg"},{"bike_id":"9b7355dc-7165-40f0-8cd2-81f22484ab5d","system_id":"levelo_inurba_marseille","lat":43.23962,"lon":5.36625,"is_reserved":false,"is_disabled":false,"rental_uris":{"android":"levelo://app?vid=9b7355dc-7165-40f0-8cd2-81f22484ab5d","ios":"levelo://app?vid=9b7355dc-7165-40f0-8cd2-81f22484ab5d"},"vehicle_type_id":"4","last_reported":1738779150,"current_range_meters":36000,"station_id":"ce4bhi12rcd13ifvqfp0","pricing_plan_id":"cebpf4jnsgd1na2vs0mg"},{"bike_id":"54c388f1-da5e-41c0-a224-46f29db2acb3","system_id":"levelo_inurba_marseille","lat":43.28941,"lon":5.36388,"is_reserved":false,"is_disabled":true,"rental_uris":{"android":"levelo://app?vid=54c388f1-da5e-41c0-a224-46f29db2acb3","ios":"levelo://app?vid=54c388f1-da5e-41c0-a224-46f29db2acb3"},"vehicle_type_id":"4","last_reported":1738779150,"current_range_meters":1200,"station_id":"ce4bhc92rcd13ifvqetg","pricing_plan_id":"cebpf4jnsgd1na2vs0mg"},{"bike_id":"0c38adea-91b5-4504-8799-0a87a98254f4","system_id":"levelo_inurba_marseille","lat":43.31713,"lon":5.43706,"is_reserved":false,"is_disabled":false,"rental_uris":{"android":"levelo://app?vid=0c38adea-91b5-4504-8799-0a87a98254f4","ios":"levelo://app?vid=0c38adea-91b5-4504-8799-0a87a98254f4"},"vehicle_type_id":"4","last_reported":1738779150,"current_range_meters":25200,"station_id":"ce4bhp92rcd13ifvqhcg","pricing_plan_id":"cebpf4jnsgd1na2vs0mg"},{"bike_id":"4a574193-04fe-47ad-8100-b1eb971244f1","system_id":"levelo_inurba_marseille","lat":43.29711,"lon":5.37674,"is_reserved":false,"is_disabled":true,"rental_uris":{"android":"levelo://app?vid=4a574193-04fe-47ad-8100-b1eb971244f1","ios":"levelo://app?vid=4a574193-04fe-47ad-8100-b1eb971244f1"},"vehicle_type_id":"4","last_reported":1738779150,"current_range_meters":0,"station_id":"ce4bgkh2rcd13ifvqbl0","pricing_plan_id":"cebpf4jnsgd1na2vs0mg"},{"bike_id":"931c3b97-cce1-4ebe-a291-6c50a6f2810e","system_id":"levelo_inurba_marseille","lat":43.318028,"lon":5.374204,"is_reserved":false,"is_disabled":false,"rental_uris":{"android":"levelo://app?vid=931c3b97-cce1-4ebe-a291-6c50a6f2810e","ios":"levelo://app?vid=931c3b97-cce1-4ebe-a291-6c50a6f2810e"},"vehicle_type_id":"4","last_reported":1738779150,"current_range_meters":6000,"station_id":"","pricing_plan_id":"cebpf4jnsgd1na2vs0mg"},{"bike_id":"b9452b32-8f5d-4c98-bc11-fee58cf523e3","system_id":"levelo_inurba_marseille","lat":43.29904,"lon":5.43673,"is_reserved":false,"is_disabled":false,"rental_uris":{"android":"levelo://app?vid=b9452b32-8f5d-4c98-bc11-fee58cf523e3","ios":"levelo://app?vid=b9452b32-8f5d-4c98-bc11-fee58cf523e3"},"vehicle_type_id":"4","last_reported":1738779150,"current_range_meters":22000,"station_id":"ce4bhpp2rcd13ifvqhfg","pricing_plan_id":"cebpf4jnsgd1na2vs0mg"},{"bike_id":"d1d51ec2-e1ab-4b92-9a4b-f935b04ef436","system_id":"levelo_inurba_marseille","lat":43.25002,"lon":5.38922,"is_reserved":false,"is_disabled":false,"rental_uris":{"android":"levelo://app?vid=d1d51ec2-e1ab-4b92-9a4b-f935b04ef436","ios":"levelo://app?vid=d1d51ec2-e1ab-4b92-9a4b-f935b04ef436"},"vehicle_type_id":"4","last_reported":1738779150,"current_range_meters":24800,"station_id":"ce4bhgp2rcd13ifvqfd0","pricing_plan_id":"cebpf4jnsgd1na2vs0mg"},{"bike_id":"13b3b6a1-f920-47ec-ad77-f4e3fb2eb0d2","system_id":"levelo_inurba_marseille","lat":43.25825,"lon":5.3944,"is_reserved":false,"is_disabled":false,"rental_uris":{"android":"levelo://app?vid=13b3b6a1-f920-47ec-ad77-f4e3fb2eb0d2","ios":"levelo://app?vid=13b3b6a1-f920-47ec-ad77-f4e3fb2eb0d2"},"vehicle_type_id":"4","last_reported":1738779150,"current_range_meters":32400,"station_id":"ce4bhip2rcd13ifvqft0","pricing_plan_id":"cebpf4jnsgd1na2vs0mg"},{"bike_id":"b35814ac-8763-4dad-b68a-b4b0081f1c29","system_id":"levelo_inurba_marseille","lat":43.26241,"lon":5.40457,"is_reserved":false,"is_disabled":false,"rental_uris":{"android":"levelo://app?vid=b35814ac-8763-4dad-b68a-b4b0081f1c29","ios":"levelo://app?vid=b35814ac-8763-4dad-b68a-b4b0081f1c29"},"vehicle_type_id":"4","last_reported":1738779150,"current_range_meters":37600,"station_id":"ce4bhmh2rcd13ifvqgmg","pricing_plan_id":"cebpf4jnsgd1na2vs0mg"},{"bike_id":"1971ebb5-a4e4-4e57-91c3-7c6fccb3c18c","system_id":"levelo_inurba_marseille","lat":43.28078,"lon":5.39654,"is_reserved":false,"is_disabled":false,"rental_uris":{"android":"levelo://app?vid=1971ebb5-a4e4-4e57-91c3-7c6fccb3c18c","ios":"levelo://app?vid=1971ebb5-a4e4-4e57-91c3-7c6fccb3c18c"},"vehicle_type_id":"4","last_reported":1738779150,"current_range_meters":5600,"station_id":"ce4bho12rcd13ifvqh2g","pricing_plan_id":"cebpf4jnsgd1na2vs0mg"},{"bike_id":"6100990f-c4b7-4419-ab12-3d9c2a9f7c81","system_id":"levelo_inurba_marseille","lat":43.28266,"lon":5.35046,"is_reserved":false,"is_disabled":false,"rental_uris":{"android":"levelo://app?vid=6100990f-c4b7-4419-ab12-3d9c2a9f7c81","ios":"levelo://app?vid=6100990f-c4b7-4419-ab12-3d9c2a9f7c81"},"vehicle_type_id":"4","last_reported":1738779150,"current_range_meters":37600,"station_id":"ce4bhbp2rcd13ifvqerg","pricing_plan_id":"cebpf4jnsgd1na2vs0mg"},{"bike_id":"7511f9ed-d962-4672-a58d-1361ee830b06","system_id":"levelo_inurba_marseille","lat":43.28712,"lon":5.40001,"is_reserved":false,"is_disabled":false,"rental_uris":{"android":"levelo://app?vid=7511f9ed-d962-4672-a58d-1361ee830b06","ios":"levelo://app?vid=7511f9ed-d962-4672-a58d-1361ee830b06"},"vehicle_type_id":"4","last_reported":1738779150,"current_range_meters":38800,"station_id":"ce4bho92rcd13ifvqh3g","pricing_plan_id":"cebpf4jnsgd1na2vs0mg"},{"bike_id":"a7f10258-635e-4e41-8519-ef95a5d2330c","system_id":"levelo_inurba_marseille","lat":43.28146,"lon":5.42635,"is_reserved":false,"is_disabled":false,"rental_uris":{"android":"levelo://app?vid=a7f10258-635e-4e41-8519-ef95a5d2330c","ios":"levelo://app?vid=a7f10258-635e-4e41-8519-ef95a5d2330c"},"vehicle_type_id":"4","last_reported":1738779150,"current_range_meters":20400,"station_id":"ce4bhnh2rcd13ifvqgug","pricing_plan_id":"cebpf4jnsgd1na2vs0mg"},{"bike_id":"2b81159b-9997-4b68-bd02-00893c72da6c","system_id":"levelo_inurba_marseille","lat":43.295238,"lon":5.390393,"is_reserved":false,"is_disabled":false,"rental_uris":{"android":"levelo://app?vid=2b81159b-9997-4b68-bd02-00893c72da6c","ios":"levelo://app?vid=2b81159b-9997-4b68-bd02-00893c72da6c"},"vehicle_type_id":"4","last_reported":1738779150,"current_range_meters":38400,"station_id":"ce4bh3p2rcd13ifvqdp0","pricing_plan_id":"cebpf4jnsgd1na2vs0mg"},{"bike_id":"9e7ed56e-6161-417b-903e-3c3d0dd4efa8","system_id":"levelo_inurba_marseille","lat":43.27899,"lon":5.38008,"is_reserved":false,"is_disabled":false,"rental_uris":{"android":"levelo://app?vid=9e7ed56e-6161-417b-903e-3c3d0dd4efa8","ios":"levelo://app?vid=9e7ed56e-6161-417b-903e-3c3d0dd4efa8"},"vehicle_type_id":"4","last_reported":1738779150,"current_range_meters":32000,"station_id":"ce4bhf92rcd13ifvqf50","pricing_plan_id":"cebpf4jnsgd1na2vs0mg"},{"bike_id":"7409b75d-c894-4948-9b86-45477902094a","system_id":"levelo_inurba_marseille","lat":43.24169,"lon":5.39729,"is_reserved":false,"is_disabled":true,"rental_uris":{"android":"levelo://app?vid=7409b75d-c894-4948-9b86-45477902094a","ios":"levelo://app?vid=7409b75d-c894-4948-9b86-45477902094a"},"vehicle_type_id":"4","last_reported":1738779150,"current_range_meters":0,"station_id":"ce4bhn12rcd13ifvqgpg","pricing_plan_id":"cebpf4jnsgd1na2vs0mg"},{"bike_id":"c52e7386-cdcf-49c2-b64b-88d3cfde33ce","system_id":"levelo_inurba_marseille","lat":43.309343,"lon":5.401383,"is_reserved":false,"is_disabled":true,"rental_uris":{"android":"levelo://app?vid=c52e7386-cdcf-49c2-b64b-88d3cfde33ce","ios":"levelo://app?vid=c52e7386-cdcf-49c2-b64b-88d3cfde33ce"},"vehicle_type_id":"4","last_reported":1738779150,"current_range_meters":1200,"station_id":"ce4bgvp2rcd13ifvqct0","pricing_plan_id":"cebpf4jnsgd1na2vs0mg"},{"bike_id":"c47be65a-4b88-4026-999e-47e052dcf1a8","system_id":"levelo_inurba_marseille","lat":43.30542,"lon":5.36532,"is_reserved":false,"is_disabled":false,"rental_uris":{"android":"levelo://app?vid=c47be65a-4b88-4026-999e-47e052dcf1a8","ios":"levelo://app?vid=c47be65a-4b88-4026-999e-47e052dcf1a8"},"vehicle_type_id":"4","last_reported":1738779150,"current_range_meters":14000,"station_id":"ce4bgs12rcd13ifvqcag","pricing_plan_id":"cebpf4jnsgd1na2vs0mg"},{"bike_id":"2f03f2b2-bcf8-45e0-92b2-5de89191910c","system_id":"levelo_inurba_marseille","lat":43.25112,"lon":5.40317,"is_reserved":false,"is_disabled":false,"rental_uris":{"android":"levelo://app?vid=2f03f2b2-bcf8-45e0-92b2-5de89191910c","ios":"levelo://app?vid=2f03f2b2-bcf8-45e0-92b2-5de89191910c"},"vehicle_type_id":"4","last_reported":1738779150,"current_range_meters":28400,"station_id":"ce4bhlh2rcd13ifvqgig","pricing_plan_id":"cebpf4jnsgd1na2vs0mg"},{"bike_id":"1f279b9e-aeb2-438f-b888-04592e62e557","system_id":"levelo_inurba_marseille","lat":43.3054,"lon":5.36551,"is_reserved":false,"is_disabled":true,"rental_uris":{"android":"levelo://app?vid=1f279b9e-aeb2-438f-b888-04592e62e557","ios":"levelo://app?vid=1f279b9e-aeb2-438f-b888-04592e62e557"},"vehicle_type_id":"4","last_reported":1738779150,"current_range_meters":0,"station_id":"ce4bgs12rcd13ifvqcag","pricing_plan_id":"cebpf4jnsgd1na2vs0mg"},{"bike_id":"bc4186b3-1073-492b-ab95-0326a7b12d0e","system_id":"levelo_inurba_marseille","lat":43.28429,"lon":5.34996,"is_reserved":false,"is_disabled":false,"rental_uris":{"android":"levelo://app?vid=bc4186b3-1073-492b-ab95-0326a7b12d0e","ios":"levelo://app?vid=bc4186b3-1073-492b-ab95-0326a7b12d0e"},"vehicle_type_id":"4","last_reported":1738779150,"current_range_meters":35600,"station_id":"ce4bhbh2rcd13ifvqepg","pricing_plan_id":"cebpf4jnsgd1na2vs0mg"},{"bike_id":"70fbe035-321d-404d-abb5-90c57c24fee3","system_id":"levelo_inurba_marseille","lat":43.29912,"lon":5.381414,"is_reserved":false,"is_disabled":true,"rental_uris":{"android":"levelo://app?vid=70fbe035-321d-404d-abb5-90c57c24fee3","ios":"levelo://app?vid=70fbe035-321d-404d-abb5-90c57c24fee3"},"vehicle_type_id":"4","last_reported":1738779150,"current_range_meters":3200,"station_id":"ce4bgj12rcd13ifvqbc0","pricing_plan_id":"cebpf4jnsgd1na2vs0mg"},{"bike_id":"b7142345-a8b5-44f5-838c-9643a433eccb","system_id":"levelo_inurba_marseille","lat":43.26939,"lon":5.40249,"is_reserved":false,"is_disabled":false,"rental_uris":{"android":"levelo://app?vid=b7142345-a8b5-44f5-838c-9643a433eccb","ios":"levelo://app?vid=b7142345-a8b5-44f5-838c-9643a433eccb"},"vehicle_type_id":"4","last_reported":1738779150,"current_range_meters":18800,"station_id":"cjm6bp8fraef2m0cb0m0","pricing_plan_id":"cebpf4jnsgd1na2vs0mg"},{"bike_id":"ca548841-038a-498c-a964-8af9b79f0f47","system_id":"levelo_inurba_marseille","lat":43.28035,"lon":5.36939,"is_reserved":false,"is_disabled":false,"rental_uris":{"android":"levelo://app?vid=ca548841-038a-498c-a964-8af9b79f0f47","ios":"levelo://app?vid=ca548841-038a-498c-a964-8af9b79f0f47"},"vehicle_type_id":"4","last_reported":1738779150,"current_range_meters":38800,"station_id":"ce4bha12rcd13ifvqef0","pricing_plan_id":"cebpf4jnsgd1na2vs0mg"},{"bike_id":"642fbc71-8f15-4271-ad65-bac61a93d5bc","system_id":"levelo_inurba_marseille","lat":43.28447,"lon":5.39208,"is_reserved":false,"is_disabled":false,"rental_uris":{"android":"levelo://app?vid=642fbc71-8f15-4271-ad65-bac61a93d5bc","ios":"levelo://app?vid=642fbc71-8f15-4271-ad65-bac61a93d5bc"},"vehicle_type_id":"4","last_reported":1738779150,"current_range_meters":33200,"station_id":"ce4bhoh2rcd13ifvqh5g","pricing_plan_id":"cebpf4jnsgd1na2vs0mg"},{"bike_id":"2b52254f-933d-4903-ac07-21eb27a1e798","system_id":"levelo_inurba_marseille","lat":43.2718,"lon":5.41001,"is_reserved":false,"is_disabled":false,"rental_uris":{"android":"levelo://app?vid=2b52254f-933d-4903-ac07-21eb27a1e798","ios":"levelo://app?vid=2b52254f-933d-4903-ac07-21eb27a1e798"},"vehicle_type_id":"4","last_reported":1738779150,"current_range_meters":38800,"station_id":"ce4bhl12rcd13ifvqgf0","pricing_plan_id":"cebpf4jnsgd1na2vs0mg"},{"bike_id":"4fe67431-c1d0-4ddc-9828-cd820db1cbb7","system_id":"levelo_inurba_marseille","lat":43.29528,"lon":5.39046,"is_reserved":false,"is_disabled":false,"rental_uris":{"android":"levelo://app?vid=4fe67431-c1d0-4ddc-9828-cd820db1cbb7","ios":"levelo://app?vid=4fe67431-c1d0-4ddc-9828-cd820db1cbb7"},"vehicle_type_id":"4","last_reported":1738779150,"current_range_meters":35200,"station_id":"ce4bh3p2rcd13ifvqdp0","pricing_plan_id":"cebpf4jnsgd1na2vs0mg"},{"bike_id":"4b9b22fc-fc9d-4312-9be7-222f83db6b66","system_id":"levelo_inurba_marseille","lat":43.2897,"lon":5.37836,"is_reserved":false,"is_disabled":false,"rental_uris":{"android":"levelo://app?vid=4b9b22fc-fc9d-4312-9be7-222f83db6b66","ios":"levelo://app?vid=4b9b22fc-fc9d-4312-9be7-222f83db6b66"},"vehicle_type_id":"4","last_reported":1738779150,"current_range_meters":36000,"station_id":"ce4bh9p2rcd13ifvqed0","pricing_plan_id":"cebpf4jnsgd1na2vs0mg"},{"bike_id":"d9c9c7a1-08d0-4528-8bf3-54e33152b52c","system_id":"levelo_inurba_marseille","lat":43.32113,"lon":5.36759,"is_reserved":false,"is_disabled":false,"rental_uris":{"android":"levelo://app?vid=d9c9c7a1-08d0-4528-8bf3-54e33152b52c","ios":"levelo://app?vid=d9c9c7a1-08d0-4528-8bf3-54e33152b52c"},"vehicle_type_id":"4","last_reported":1738779150,"current_range_meters":20800,"station_id":"ce4bhrh2rcd13ifvqhug","pricing_plan_id":"cebpf4jnsgd1na2vs0mg"},{"bike_id":"52990ad3-a46b-4f6e-b6b0-37c9c50197a1","system_id":"levelo_inurba_marseille","lat":43.31755,"lon":5.39017,"is_reserved":false,"is_disabled":false,"rental_uris":{"android":"levelo://app?vid=52990ad3-a46b-4f6e-b6b0-37c9c50197a1","ios":"levelo://app?vid=52990ad3-a46b-4f6e-b6b0-37c9c50197a1"},"vehicle_type_id":"4","last_reported":1738779150,"current_range_meters":38800,"station_id":"ce4bhqp2rcd13ifvqhng","pricing_plan_id":"cebpf4jnsgd1na2vs0mg"},{"bike_id":"61c83f02-b8b4-497c-a822-a07e72cb75d7","system_id":"levelo_inurba_marseille","lat":43.2317,"lon":5.43702,"is_reserved":false,"is_disabled":true,"rental_uris":{"android":"levelo://app?vid=61c83f02-b8b4-497c-a822-a07e72cb75d7","ios":"levelo://app?vid=61c83f02-b8b4-497c-a822-a07e72cb75d7"},"vehicle_type_id":"4","last_reported":1738779150,"current_range_meters":0,"station_id":"ce4bhmp2rcd13ifvqgog","pricing_plan_id":"cebpf4jnsgd1na2vs0mg"},{"bike_id":"b0835b4d-5d4e-4b83-8d65-c34141a6bbbb","system_id":"levelo_inurba_marseille","lat":43.29036,"lon":5.35931,"is_reserved":false,"is_disabled":false,"rental_uris":{"android":"levelo://app?vid=b0835b4d-5d4e-4b83-8d65-c34141a6bbbb","ios":"levelo://app?vid=b0835b4d-5d4e-4b83-8d65-c34141a6bbbb"},"vehicle_type_id":"4","last_reported":1738779150,"current_range_meters":35200,"station_id":"ce4bha92rcd13ifvqeg0","pricing_plan_id":"cebpf4jnsgd1na2vs0mg"},{"bike_id":"ab37694f-5270-47c3-a70e-95203bef707a","system_id":"levelo_inurba_marseille","lat":43.29025,"lon":5.38132,"is_reserved":false,"is_disabled":false,"rental_uris":{"android":"levelo://app?vid=ab37694f-5270-47c3-a70e-95203bef707a","ios":"levelo://app?vid=ab37694f-5270-47c3-a70e-95203bef707a"},"vehicle_type_id":"4","last_reported":1738779150,"current_range_meters":38800,"station_id":"ce4bh4p2rcd13ifvqe1g","pricing_plan_id":"cebpf4jnsgd1na2vs0mg"},{"bike_id":"403724e3-d720-4605-b60a-eb50d0ff6cdc","system_id":"levelo_inurba_marseille","lat":43.30408,"lon":5.4129,"is_reserved":false,"is_disabled":false,"rental_uris":{"android":"levelo://app?vid=403724e3-d720-4605-b60a-eb50d0ff6cdc","ios":"levelo://app?vid=403724e3-d720-4605-b60a-eb50d0ff6cdc"},"vehicle_type_id":"4","last_reported":1738779150,"current_range_meters":25200,"station_id":"ce4bhop2rcd13ifvqh8g","pricing_plan_id":"cebpf4jnsgd1na2vs0mg"},{"bike_id":"0c0fe4c3-575b-428f-9478-9a0bb85404b0","system_id":"levelo_inurba_marseille","lat":43.28845,"lon":5.39315,"is_reserved":false,"is_disabled":false,"rental_uris":{"android":"levelo://app?vid=0c0fe4c3-575b-428f-9478-9a0bb85404b0","ios":"levelo://app?vid=0c0fe4c3-575b-428f-9478-9a0bb85404b0"},"vehicle_type_id":"4","last_reported":1738779150,"current_range_meters":38000,"station_id":"ce4bh2p2rcd13ifvqdi0","pricing_plan_id":"cebpf4jnsgd1na2vs0mg"},{"bike_id":"50af85b5-3dbb-4721-9caa-51ba702f3b25","system_id":"levelo_inurba_marseille","lat":43.292267,"lon":5.36066,"is_reserved":false,"is_disabled":false,"rental_uris":{"android":"levelo://app?vid=50af85b5-3dbb-4721-9caa-51ba702f3b25","ios":"levelo://app?vid=50af85b5-3dbb-4721-9caa-51ba702f3b25"},"vehicle_type_id":"4","last_reported":1738779150,"current_range_meters":38800,"station_id":"ce4bgip2rcd13ifvqbb0","pricing_plan_id":"cebpf4jnsgd1na2vs0mg"},{"bike_id":"3ca3d7a9-0dcf-43d8-bc25-2541c6b159ad","system_id":"levelo_inurba_marseille","lat":43.26551,"lon":5.37285,"is_reserved":false,"is_disabled":true,"rental_uris":{"android":"levelo://app?vid=3ca3d7a9-0dcf-43d8-bc25-2541c6b159ad","ios":"levelo://app?vid=3ca3d7a9-0dcf-43d8-bc25-2541c6b159ad"},"vehicle_type_id":"4","last_reported":1738779150,"current_range_meters":400,"station_id":"ce4bhg12rcd13ifvqf70","pricing_plan_id":"cebpf4jnsgd1na2vs0mg"},{"bike_id":"ce16ff47-f85c-4880-8e17-42b91107a683","system_id":"levelo_inurba_marseille","lat":43.29166,"lon":5.37158,"is_reserved":false,"is_disabled":false,"rental_uris":{"android":"levelo://app?vid=ce16ff47-f85c-4880-8e17-42b91107a683","ios":"levelo://app?vid=ce16ff47-f85c-4880-8e17-42b91107a683"},"vehicle_type_id":"4","last_reported":1738779150,"current_range_meters":5600,"station_id":"ce4bha92rcd13ifvqeh0","pricing_plan_id":"cebpf4jnsgd1na2vs0mg"},{"bike_id":"a15da6d2-e039-4948-91b6-790cc48d6ad7","system_id":"levelo_inurba_marseille","lat":43.29526,"lon":5.37508,"is_reserved":false,"is_disabled":false,"rental_uris":{"android":"levelo://app?vid=a15da6d2-e039-4948-91b6-790cc48d6ad7","ios":"levelo://app?vid=a15da6d2-e039-4948-91b6-790cc48d6ad7"},"vehicle_type_id":"4","last_reported":1738779150,"current_range_meters":31200,"station_id":"ce4bgkp2rcd13ifvqbmg","pricing_plan_id":"cebpf4jnsgd1na2vs0mg"},{"bike_id":"8dcb5648-f815-40ee-a1ef-63cb7b60c563","system_id":"levelo_inurba_marseille","lat":43.31985,"lon":5.38136,"is_reserved":false,"is_disabled":false,"rental_uris":{"android":"levelo://app?vid=8dcb5648-f815-40ee-a1ef-63cb7b60c563","ios":"levelo://app?vid=8dcb5648-f815-40ee-a1ef-63cb7b60c563"},"vehicle_type_id":"4","last_reported":1738779150,"current_range_meters":32000,"station_id":"ce4bhr12rcd13ifvqhpg","pricing_plan_id":"cebpf4jnsgd1na2vs0mg"},{"bike_id":"0328e496-ea90-4f97-ab30-dbdc897b0796","system_id":"levelo_inurba_marseille","lat":43.28462,"lon":5.35879,"is_reserved":false,"is_disabled":false,"rental_uris":{"android":"levelo://app?vid=0328e496-ea90-4f97-ab30-dbdc897b0796","ios":"levelo://app?vid=0328e496-ea90-4f97-ab30-dbdc897b0796"},"vehicle_type_id":"4","last_reported":1738779150,"current_range_meters":8800,"station_id":"ce4bhah2rcd13ifvqei0","pricing_plan_id":"cebpf4jnsgd1na2vs0mg"},{"bike_id":"e46d1480-05cf-4952-868b-18d6131b8ae4","system_id":"levelo_inurba_marseille","lat":43.31067,"lon":5.38347,"is_reserved":false,"is_disabled":false,"rental_uris":{"android":"levelo://app?vid=e46d1480-05cf-4952-868b-18d6131b8ae4","ios":"levelo://app?vid=e46d1480-05cf-4952-868b-18d6131b8ae4"},"vehicle_type_id":"4","last_reported":1738779150,"current_range_meters":9600,"station_id":"ce4bgv92rcd13ifvqcr0","pricing_plan_id":"cebpf4jnsgd1na2vs0mg"},{"bike_id":"a9ee38d0-21e8-4d99-8e3f-cc643e32473e","system_id":"levelo_inurba_marseille","lat":43.278239,"lon":5.407274,"is_reserved":false,"is_disabled":false,"rental_uris":{"android":"levelo://app?vid=a9ee38d0-21e8-4d99-8e3f-cc643e32473e","ios":"levelo://app?vid=a9ee38d0-21e8-4d99-8e3f-cc643e32473e"},"vehicle_type_id":"4","last_reported":1738779150,"current_range_meters":37600,"station_id":"ce4bhnh2rcd13ifvqgtg","pricing_plan_id":"cebpf4jnsgd1na2vs0mg"},{"bike_id":"2feb1925-8367-45d2-aa8e-2a37a8f7b6e4","system_id":"levelo_inurba_marseille","lat":43.30804,"lon":5.38169,"is_reserved":false,"is_disabled":false,"rental_uris":{"android":"levelo://app?vid=2feb1925-8367-45d2-aa8e-2a37a8f7b6e4","ios":"levelo://app?vid=2feb1925-8367-45d2-aa8e-2a37a8f7b6e4"},"vehicle_type_id":"4","last_reported":1738779150,"current_range_meters":31200,"station_id":"ce4bgt12rcd13ifvqce0","pricing_plan_id":"cebpf4jnsgd1na2vs0mg"},{"bike_id":"9c81c1b8-1b89-413e-855b-6a07871bc1e0","system_id":"levelo_inurba_marseille","lat":43.23963,"lon":5.36653,"is_reserved":false,"is_disabled":false,"rental_uris":{"android":"levelo://app?vid=9c81c1b8-1b89-413e-855b-6a07871bc1e0","ios":"levelo://app?vid=9c81c1b8-1b89-413e-855b-6a07871bc1e0"},"vehicle_type_id":"4","last_reported":1738779150,"current_range_meters":24800,"station_id":"ce4bhi12rcd13ifvqfp0","pricing_plan_id":"cebpf4jnsgd1na2vs0mg"},{"bike_id":"81dfdec4-f289-41f1-a4d8-0cbc0b2b5f40","system_id":"levelo_inurba_marseille","lat":43.28702,"lon":5.37393,"is_reserved":false,"is_disabled":false,"rental_uris":{"android":"levelo://app?vid=81dfdec4-f289-41f1-a4d8-0cbc0b2b5f40","ios":"levelo://app?vid=81dfdec4-f289-41f1-a4d8-0cbc0b2b5f40"},"vehicle_type_id":"4","last_reported":1738779150,"current_range_meters":18000,"station_id":"ce4bh3p2rcd13ifvqdq0","pricing_plan_id":"cebpf4jnsgd1na2vs0mg"},{"bike_id":"66c91f0e-d404-4399-99c9-77276ceb134d","system_id":"levelo_inurba_marseille","lat":43.30547,"lon":5.3654,"is_reserved":false,"is_disabled":true,"rental_uris":{"android":"levelo://app?vid=66c91f0e-d404-4399-99c9-77276ceb134d","ios":"levelo://app?vid=66c91f0e-d404-4399-99c9-77276ceb134d"},"vehicle_type_id":"4","last_reported":1738779150,"current_range_meters":38000,"station_id":"ce4bgs12rcd13ifvqcag","pricing_plan_id":"cebpf4jnsgd1na2vs0mg"},{"bike_id":"3d1d38d7-e37e-41a9-9885-0f5e96cdb53e","system_id":"levelo_inurba_marseille","lat":43.28469,"lon":5.35868,"is_reserved":false,"is_disabled":false,"rental_uris":{"android":"levelo://app?vid=3d1d38d7-e37e-41a9-9885-0f5e96cdb53e","ios":"levelo://app?vid=3d1d38d7-e37e-41a9-9885-0f5e96cdb53e"},"vehicle_type_id":"4","last_reported":1738779150,"current_range_meters":16800,"station_id":"ce4bhah2rcd13ifvqei0","pricing_plan_id":"cebpf4jnsgd1na2vs0mg"},{"bike_id":"bab07d03-5352-4a1b-80e4-e1f9df8edacd","system_id":"levelo_inurba_marseille","lat":43.23195,"lon":5.35558,"is_reserved":false,"is_disabled":false,"rental_uris":{"android":"levelo://app?vid=bab07d03-5352-4a1b-80e4-e1f9df8edacd","ios":"levelo://app?vid=bab07d03-5352-4a1b-80e4-e1f9df8edacd"},"vehicle_type_id":"4","last_reported":1738779150,"current_range_meters":36800,"station_id":"ce4bhu92rcd13ifvqi70","pricing_plan_id":"cebpf4jnsgd1na2vs0mg"},{"bike_id":"c4689dd3-d60d-4dc9-a61d-236b6da9c255","system_id":"levelo_inurba_marseille","lat":43.31116,"lon":5.37772,"is_reserved":false,"is_disabled":false,"rental_uris":{"android":"levelo://app?vid=c4689dd3-d60d-4dc9-a61d-236b6da9c255","ios":"levelo://app?vid=c4689dd3-d60d-4dc9-a61d-236b6da9c255"},"vehicle_type_id":"4","last_reported":1738779150,"current_range_meters":38800,"station_id":"ce4bgt92rcd13ifvqcg0","pricing_plan_id":"cebpf4jnsgd1na2vs0mg"},{"bike_id":"568b8612-9017-4880-b7d7-921a6af61f24","system_id":"levelo_inurba_marseille","lat":43.26495,"lon":5.39537,"is_reserved":false,"is_disabled":false,"rental_uris":{"android":"levelo://app?vid=568b8612-9017-4880-b7d7-921a6af61f24","ios":"levelo://app?vid=568b8612-9017-4880-b7d7-921a6af61f24"},"vehicle_type_id":"4","last_reported":1738779150,"current_range_meters":32400,"station_id":"ce4bhi12rcd13ifvqfq0","pricing_plan_id":"cebpf4jnsgd1na2vs0mg"},{"bike_id":"f0f1bdbe-836b-40c4-81e1-95d9c846a826","system_id":"levelo_inurba_marseille","lat":43.33025,"lon":5.39044,"is_reserved":false,"is_disabled":false,"rental_uris":{"android":"levelo://app?vid=f0f1bdbe-836b-40c4-81e1-95d9c846a826","ios":"levelo://app?vid=f0f1bdbe-836b-40c4-81e1-95d9c846a826"},"vehicle_type_id":"4","last_reported":1738779150,"current_range_meters":35200,"station_id":"ce4bhr92rcd13ifvqhrg","pricing_plan_id":"cebpf4jnsgd1na2vs0mg"},{"bike_id":"ddb48a2e-0e7a-4db9-bb08-d15c6b7ecf4a","system_id":"levelo_inurba_marseille","lat":43.27618,"lon":5.36105,"is_reserved":false,"is_disabled":true,"rental_uris":{"android":"levelo://app?vid=ddb48a2e-0e7a-4db9-bb08-d15c6b7ecf4a","ios":"levelo://app?vid=ddb48a2e-0e7a-4db9-bb08-d15c6b7ecf4a"},"vehicle_type_id":"4","last_reported":1738779150,"current_range_meters":0,"station_id":"ce4bgj92rcd13ifvqbe0","pricing_plan_id":"cebpf4jnsgd1na2vs0mg"},{"bike_id":"a2767f7e-ee00-4dfb-ad97-97f290d77020","system_id":"levelo_inurba_marseille","lat":43.27371,"lon":5.36245,"is_reserved":false,"is_disabled":false,"rental_uris":{"android":"levelo://app?vid=a2767f7e-ee00-4dfb-ad97-97f290d77020","ios":"levelo://app?vid=a2767f7e-ee00-4dfb-ad97-97f290d77020"},"vehicle_type_id":"4","last_reported":1738779150,"current_range_meters":38400,"station_id":"ce4bhbh2rcd13ifvqeo0","pricing_plan_id":"cebpf4jnsgd1na2vs0mg"},{"bike_id":"e7d31327-323a-443c-bb67-39186722e63f","system_id":"levelo_inurba_marseille","lat":43.33752,"lon":5.3743,"is_reserved":false,"is_disabled":false,"rental_uris":{"android":"levelo://app?vid=e7d31327-323a-443c-bb67-39186722e63f","ios":"levelo://app?vid=e7d31327-323a-443c-bb67-39186722e63f"},"vehicle_type_id":"4","last_reported":1738779150,"current_range_meters":14800,"station_id":"","pricing_plan_id":"cebpf4jnsgd1na2vs0mg"},{"bike_id":"c842f8d4-19ba-4cd9-ac26-ef3c81f0698f","system_id":"levelo_inurba_marseille","lat":43.2999,"lon":5.38495,"is_reserved":false,"is_disabled":false,"rental_uris":{"android":"levelo://app?vid=c842f8d4-19ba-4cd9-ac26-ef3c81f0698f","ios":"levelo://app?vid=c842f8d4-19ba-4cd9-ac26-ef3c81f0698f"},"vehicle_type_id":"4","last_reported":1738779150,"current_range_meters":39200,"station_id":"ce4bgj92rcd13ifvqbd0","pricing_plan_id":"cebpf4jnsgd1na2vs0mg"},{"bike_id":"c5d1bec8-bd7a-4bae-b0a0-bcd1903b9117","system_id":"levelo_inurba_marseille","lat":43.29618,"lon":5.37172,"is_reserved":false,"is_disabled":false,"rental_uris":{"android":"levelo://app?vid=c5d1bec8-bd7a-4bae-b0a0-bcd1903b9117","ios":"levelo://app?vid=c5d1bec8-bd7a-4bae-b0a0-bcd1903b9117"},"vehicle_type_id":"4","last_reported":1738779150,"current_range_meters":34000,"station_id":"ce4bgnh2rcd13ifvqc0g","pricing_plan_id":"cebpf4jnsgd1na2vs0mg"},{"bike_id":"2e21612e-e9a1-43ae-abc8-0fb79c8dad6a","system_id":"levelo_inurba_marseille","lat":43.28272,"lon":5.35056,"is_reserved":false,"is_disabled":false,"rental_uris":{"android":"levelo://app?vid=2e21612e-e9a1-43ae-abc8-0fb79c8dad6a","ios":"levelo://app?vid=2e21612e-e9a1-43ae-abc8-0fb79c8dad6a"},"vehicle_type_id":"4","last_reported":1738779150,"current_range_meters":34000,"station_id":"ce4bhbp2rcd13ifvqerg","pricing_plan_id":"cebpf4jnsgd1na2vs0mg"},{"bike_id":"5ba77205-505a-4c6d-b187-3c2dc96dcafa","system_id":"levelo_inurba_marseille","lat":43.30958,"lon":5.39018,"is_reserved":false,"is_disabled":false,"rental_uris":{"android":"levelo://app?vid=5ba77205-505a-4c6d-b187-3c2dc96dcafa","ios":"levelo://app?vid=5ba77205-505a-4c6d-b187-3c2dc96dcafa"},"vehicle_type_id":"4","last_reported":1738779150,"current_range_meters":5600,"station_id":"ce4bgv12rcd13ifvqcp0","pricing_plan_id":"cebpf4jnsgd1na2vs0mg"},{"bike_id":"93cab8cc-c77b-4201-82ee-38a96f1e3bc5","system_id":"levelo_inurba_marseille","lat":43.27942,"lon":5.41045,"is_reserved":false,"is_disabled":false,"rental_uris":{"android":"levelo://app?vid=93cab8cc-c77b-4201-82ee-38a96f1e3bc5","ios":"levelo://app?vid=93cab8cc-c77b-4201-82ee-38a96f1e3bc5"},"vehicle_type_id":"4","last_reported":1738779150,"current_range_meters":8000,"station_id":"ce4bhnp2rcd13ifvqh0g","pricing_plan_id":"cebpf4jnsgd1na2vs0mg"},{"bike_id":"aee3719b-ff75-435e-aa1c-24b4bddf333e","system_id":"levelo_inurba_marseille","lat":43.24065,"lon":5.37739,"is_reserved":false,"is_disabled":false,"rental_uris":{"android":"levelo://app?vid=aee3719b-ff75-435e-aa1c-24b4bddf333e","ios":"levelo://app?vid=aee3719b-ff75-435e-aa1c-24b4bddf333e"},"vehicle_type_id":"4","last_reported":1738779150,"current_range_meters":24000,"station_id":"ce4bhnp2rcd13ifvqgvg","pricing_plan_id":"cebpf4jnsgd1na2vs0mg"},{"bike_id":"62a82b8d-b432-411b-b780-ba2d1932228f","system_id":"levelo_inurba_marseille","lat":43.30129,"lon":5.39867,"is_reserved":false,"is_disabled":false,"rental_uris":{"android":"levelo://app?vid=62a82b8d-b432-411b-b780-ba2d1932228f","ios":"levelo://app?vid=62a82b8d-b432-411b-b780-ba2d1932228f"},"vehicle_type_id":"4","last_reported":1738779150,"current_range_meters":36800,"station_id":"ce4bh0h2rcd13ifvqd40","pricing_plan_id":"cebpf4jnsgd1na2vs0mg"},{"bike_id":"a143f20b-1816-4499-90fb-743dde03b3eb","system_id":"levelo_inurba_marseille","lat":43.29278,"lon":5.36845,"is_reserved":false,"is_disabled":false,"rental_uris":{"android":"levelo://app?vid=a143f20b-1816-4499-90fb-743dde03b3eb","ios":"levelo://app?vid=a143f20b-1816-4499-90fb-743dde03b3eb"},"vehicle_type_id":"4","last_reported":1738779150,"current_range_meters":12400,"station_id":"ce4bhbp2rcd13ifvqesg","pricing_plan_id":"cebpf4jnsgd1na2vs0mg"},{"bike_id":"61857cc0-1da3-4716-a1df-4b82d2ea552c","system_id":"levelo_inurba_marseille","lat":43.2511,"lon":5.40323,"is_reserved":false,"is_disabled":false,"rental_uris":{"android":"levelo://app?vid=61857cc0-1da3-4716-a1df-4b82d2ea552c","ios":"levelo://app?vid=61857cc0-1da3-4716-a1df-4b82d2ea552c"},"vehicle_type_id":"4","last_reported":1738779150,"current_range_meters":3600,"station_id":"ce4bhlh2rcd13ifvqgig","pricing_plan_id":"cebpf4jnsgd1na2vs0mg"},{"bike_id":"cd07e062-2af1-406e-bcb9-5f1ec4730937","system_id":"levelo_inurba_marseille","lat":43.23066,"lon":5.35497,"is_reserved":false,"is_disabled":false,"rental_uris":{"android":"levelo://app?vid=cd07e062-2af1-406e-bcb9-5f1ec4730937","ios":"levelo://app?vid=cd07e062-2af1-406e-bcb9-5f1ec4730937"},"vehicle_type_id":"4","last_reported":1738779150,"current_range_meters":38000,"station_id":"cpo3342slgdg3j2ifvpg","pricing_plan_id":"cebpf4jnsgd1na2vs0mg"},{"bike_id":"c3644d12-8427-4602-9945-9ef42c46feca","system_id":"levelo_inurba_marseille","lat":43.24169,"lon":5.36395,"is_reserved":false,"is_disabled":false,"rental_uris":{"android":"levelo://app?vid=c3644d12-8427-4602-9945-9ef42c46feca","ios":"levelo://app?vid=c3644d12-8427-4602-9945-9ef42c46feca"},"vehicle_type_id":"4","last_reported":1738779150,"current_range_meters":38000,"station_id":"cpo36qri1sfpv3e86is0","pricing_plan_id":"cebpf4jnsgd1na2vs0mg"},{"bike_id":"6b38d43d-337c-4149-9167-ccfdd61c33a4","system_id":"levelo_inurba_marseille","lat":43.29218,"lon":5.36075,"is_reserved":false,"is_disabled":false,"rental_uris":{"android":"levelo://app?vid=6b38d43d-337c-4149-9167-ccfdd61c33a4","ios":"levelo://app?vid=6b38d43d-337c-4149-9167-ccfdd61c33a4"},"vehicle_type_id":"4","last_reported":1738779150,"current_range_meters":35600,"station_id":"ce4bhbh2rcd13ifvqeqg","pricing_plan_id":"cebpf4jnsgd1na2vs0mg"},{"bike_id":"1e7bde43-ab8f-4755-b59a-acd0a53ae759","system_id":"levelo_inurba_marseille","lat":43.31718,"lon":5.42396,"is_reserved":false,"is_disabled":true,"rental_uris":{"android":"levelo://app?vid=1e7bde43-ab8f-4755-b59a-acd0a53ae759","ios":"levelo://app?vid=1e7bde43-ab8f-4755-b59a-acd0a53ae759"},"vehicle_type_id":"4","last_reported":1738779150,"current_range_meters":0,"station_id":"ce4bhp92rcd13ifvqhbg","pricing_plan_id":"cebpf4jnsgd1na2vs0mg"},{"bike_id":"7e8a210f-046d-47e3-97a4-d2c4010a7eb4","system_id":"levelo_inurba_marseille","lat":43.32044,"lon":5.41529,"is_reserved":false,"is_disabled":false,"rental_uris":{"android":"levelo://app?vid=7e8a210f-046d-47e3-97a4-d2c4010a7eb4","ios":"levelo://app?vid=7e8a210f-046d-47e3-97a4-d2c4010a7eb4"},"vehicle_type_id":"4","last_reported":1738779150,"current_range_meters":26000,"station_id":"ce4bhq92rcd13ifvqhkg","pricing_plan_id":"cebpf4jnsgd1na2vs0mg"},{"bike_id":"51d0991b-a36d-4070-ab20-02bb6d1d0ac7","system_id":"levelo_inurba_marseille","lat":43.31378,"lon":5.38487,"is_reserved":false,"is_disabled":false,"rental_uris":{"android":"levelo://app?vid=51d0991b-a36d-4070-ab20-02bb6d1d0ac7","ios":"levelo://app?vid=51d0991b-a36d-4070-ab20-02bb6d1d0ac7"},"vehicle_type_id":"4","last_reported":1738779150,"current_range_meters":36800,"station_id":"ce4bgt92rcd13ifvqcf0","pricing_plan_id":"cebpf4jnsgd1na2vs0mg"},{"bike_id":"bd944b22-bdc4-45a8-9a31-0c38734abd7e","system_id":"levelo_inurba_marseille","lat":43.28941,"lon":5.36398,"is_reserved":false,"is_disabled":false,"rental_uris":{"android":"levelo://app?vid=bd944b22-bdc4-45a8-9a31-0c38734abd7e","ios":"levelo://app?vid=bd944b22-bdc4-45a8-9a31-0c38734abd7e"},"vehicle_type_id":"4","last_reported":1738779150,"current_range_meters":4800,"station_id":"ce4bhc92rcd13ifvqetg","pricing_plan_id":"cebpf4jnsgd1na2vs0mg"},{"bike_id":"693aada9-e6ba-426f-9e3c-422116f71ca4","system_id":"levelo_inurba_marseille","lat":43.28845,"lon":5.358496,"is_reserved":false,"is_disabled":false,"rental_uris":{"android":"levelo://app?vid=693aada9-e6ba-426f-9e3c-422116f71ca4","ios":"levelo://app?vid=693aada9-e6ba-426f-9e3c-422116f71ca4"},"vehicle_type_id":"4","last_reported":1738779150,"current_range_meters":20800,"station_id":"ce4bhb12rcd13ifvqem0","pricing_plan_id":"cebpf4jnsgd1na2vs0mg"},{"bike_id":"78a4c83f-4d73-437d-9527-15d2cb2bd443","system_id":"levelo_inurba_marseille","lat":43.281503,"lon":5.426357,"is_reserved":false,"is_disabled":false,"rental_uris":{"android":"levelo://app?vid=78a4c83f-4d73-437d-9527-15d2cb2bd443","ios":"levelo://app?vid=78a4c83f-4d73-437d-9527-15d2cb2bd443"},"vehicle_type_id":"4","last_reported":1738779150,"current_range_meters":20800,"station_id":"ce4bhnh2rcd13ifvqgug","pricing_plan_id":"cebpf4jnsgd1na2vs0mg"},{"bike_id":"45a7daa2-2a2e-4454-90c3-1009aaecc5bd","system_id":"levelo_inurba_marseille","lat":43.23204,"lon":5.35558,"is_reserved":false,"is_disabled":false,"rental_uris":{"android":"levelo://app?vid=45a7daa2-2a2e-4454-90c3-1009aaecc5bd","ios":"levelo://app?vid=45a7daa2-2a2e-4454-90c3-1009aaecc5bd"},"vehicle_type_id":"4","last_reported":1738779150,"current_range_meters":38800,"station_id":"ce4bhu92rcd13ifvqi70","pricing_plan_id":"cebpf4jnsgd1na2vs0mg"},{"bike_id":"ee005bae-497c-4312-9b03-99403b18d5fb","system_id":"levelo_inurba_marseille","lat":43.26032,"lon":5.37543,"is_reserved":false,"is_disabled":false,"rental_uris":{"android":"levelo://app?vid=ee005bae-497c-4312-9b03-99403b18d5fb","ios":"levelo://app?vid=ee005bae-497c-4312-9b03-99403b18d5fb"},"vehicle_type_id":"4","last_reported":1738779150,"current_range_meters":15200,"station_id":"ce4bhgh2rcd13ifvqfa0","pricing_plan_id":"cebpf4jnsgd1na2vs0mg"},{"bike_id":"aece1634-918f-4f68-8bc7-9a7b7abafc1f","system_id":"levelo_inurba_marseille","lat":43.28157,"lon":5.42631,"is_reserved":false,"is_disabled":true,"rental_uris":{"android":"levelo://app?vid=aece1634-918f-4f68-8bc7-9a7b7abafc1f","ios":"levelo://app?vid=aece1634-918f-4f68-8bc7-9a7b7abafc1f"},"vehicle_type_id":"4","last_reported":1738779150,"current_range_meters":28800,"station_id":"ce4bhnh2rcd13ifvqgug","pricing_plan_id":"cebpf4jnsgd1na2vs0mg"},{"bike_id":"72e458a9-2a04-4d7d-a6ed-4033588f5b60","system_id":"levelo_inurba_marseille","lat":43.32343,"lon":5.38952,"is_reserved":false,"is_disabled":false,"rental_uris":{"android":"levelo://app?vid=72e458a9-2a04-4d7d-a6ed-4033588f5b60","ios":"levelo://app?vid=72e458a9-2a04-4d7d-a6ed-4033588f5b60"},"vehicle_type_id":"4","last_reported":1738779150,"current_range_meters":24400,"station_id":"ce4bhqp2rcd13ifvqhog","pricing_plan_id":"cebpf4jnsgd1na2vs0mg"},{"bike_id":"e4fbacd2-2c44-4b78-b9fc-d346dc2a77d1","system_id":"levelo_inurba_marseille","lat":43.32365,"lon":5.38883,"is_reserved":false,"is_disabled":false,"rental_uris":{"android":"levelo://app?vid=e4fbacd2-2c44-4b78-b9fc-d346dc2a77d1","ios":"levelo://app?vid=e4fbacd2-2c44-4b78-b9fc-d346dc2a77d1"},"vehicle_type_id":"4","last_reported":1738779150,"current_range_meters":37600,"station_id":"ce4bhqp2rcd13ifvqhog","pricing_plan_id":"cebpf4jnsgd1na2vs0mg"},{"bike_id":"3b1d5f28-8e2f-4cd2-84ee-32e60c8bc1d4","system_id":"levelo_inurba_marseille","lat":43.27942,"lon":5.3872,"is_reserved":false,"is_disabled":true,"rental_uris":{"android":"levelo://app?vid=3b1d5f28-8e2f-4cd2-84ee-32e60c8bc1d4","ios":"levelo://app?vid=3b1d5f28-8e2f-4cd2-84ee-32e60c8bc1d4"},"vehicle_type_id":"4","last_reported":1738779150,"current_range_meters":0,"station_id":"ce4bhg12rcd13ifvqf80","pricing_plan_id":"cebpf4jnsgd1na2vs0mg"},{"bike_id":"a3ed45c0-701d-4cbe-b249-37e7c0d79896","system_id":"levelo_inurba_marseille","lat":43.28153,"lon":5.42646,"is_reserved":false,"is_disabled":true,"rental_uris":{"android":"levelo://app?vid=a3ed45c0-701d-4cbe-b249-37e7c0d79896","ios":"levelo://app?vid=a3ed45c0-701d-4cbe-b249-37e7c0d79896"},"vehicle_type_id":"4","last_reported":1738779150,"current_range_meters":0,"station_id":"ce4bhnh2rcd13ifvqgug","pricing_plan_id":"cebpf4jnsgd1na2vs0mg"},{"bike_id":"a17b902b-bafc-49d0-9389-2ce74253b3a1","system_id":"levelo_inurba_marseille","lat":43.27184,"lon":5.40993,"is_reserved":false,"is_disabled":true,"rental_uris":{"android":"levelo://app?vid=a17b902b-bafc-49d0-9389-2ce74253b3a1","ios":"levelo://app?vid=a17b902b-bafc-49d0-9389-2ce74253b3a1"},"vehicle_type_id":"4","last_reported":1738779150,"current_range_meters":27200,"station_id":"ce4bhl12rcd13ifvqgf0","pricing_plan_id":"cebpf4jnsgd1na2vs0mg"},{"bike_id":"82928581-7cae-4db3-9a68-a5b9ec34a9ee","system_id":"levelo_inurba_marseille","lat":43.31889,"lon":5.43372,"is_reserved":false,"is_disabled":true,"rental_uris":{"android":"levelo://app?vid=82928581-7cae-4db3-9a68-a5b9ec34a9ee","ios":"levelo://app?vid=82928581-7cae-4db3-9a68-a5b9ec34a9ee"},"vehicle_type_id":"4","last_reported":1738779150,"current_range_meters":400,"station_id":"","pricing_plan_id":"cebpf4jnsgd1na2vs0mg"},{"bike_id":"9d71d304-2002-4ef9-bd23-de48bc17ac77","system_id":"levelo_inurba_marseille","lat":43.24068,"lon":5.37739,"is_reserved":false,"is_disabled":false,"rental_uris":{"android":"levelo://app?vid=9d71d304-2002-4ef9-bd23-de48bc17ac77","ios":"levelo://app?vid=9d71d304-2002-4ef9-bd23-de48bc17ac77"},"vehicle_type_id":"4","last_reported":1738779150,"current_range_meters":38800,"station_id":"ce4bhnp2rcd13ifvqgvg","pricing_plan_id":"cebpf4jnsgd1na2vs0mg"},{"bike_id":"09bfd0b5-ea9d-40d2-b9e3-c178be46bfd6","system_id":"levelo_inurba_marseille","lat":43.27208,"lon":5.39175,"is_reserved":false,"is_disabled":true,"rental_uris":{"android":"levelo://app?vid=09bfd0b5-ea9d-40d2-b9e3-c178be46bfd6","ios":"levelo://app?vid=09bfd0b5-ea9d-40d2-b9e3-c178be46bfd6"},"vehicle_type_id":"4","last_reported":1738779150,"current_range_meters":1200,"station_id":"ce4bhhp2rcd13ifvqfm0","pricing_plan_id":"cebpf4jnsgd1na2vs0mg"},{"bike_id":"4a0f6893-fde6-49c6-a1ca-e86134e00597","system_id":"levelo_inurba_marseille","lat":43.28942,"lon":5.36626,"is_reserved":false,"is_disabled":true,"rental_uris":{"android":"levelo://app?vid=4a0f6893-fde6-49c6-a1ca-e86134e00597","ios":"levelo://app?vid=4a0f6893-fde6-49c6-a1ca-e86134e00597"},"vehicle_type_id":"4","last_reported":1738779150,"current_range_meters":1600,"station_id":"ce4bhap2rcd13ifvqek0","pricing_plan_id":"cebpf4jnsgd1na2vs0mg"},{"bike_id":"39e48cdd-1e81-47f1-8caa-7197be9aaab1","system_id":"levelo_inurba_marseille","lat":43.31758,"lon":5.3901,"is_reserved":false,"is_disabled":false,"rental_uris":{"android":"levelo://app?vid=39e48cdd-1e81-47f1-8caa-7197be9aaab1","ios":"levelo://app?vid=39e48cdd-1e81-47f1-8caa-7197be9aaab1"},"vehicle_type_id":"4","last_reported":1738779150,"current_range_meters":14000,"station_id":"ce4bhqp2rcd13ifvqhng","pricing_plan_id":"cebpf4jnsgd1na2vs0mg"},{"bike_id":"7c3ef36b-1b5b-4ad0-8f95-8ff8d7cb047c","system_id":"levelo_inurba_marseille","lat":43.30936,"lon":5.40146,"is_reserved":false,"is_disabled":false,"rental_uris":{"android":"levelo://app?vid=7c3ef36b-1b5b-4ad0-8f95-8ff8d7cb047c","ios":"levelo://app?vid=7c3ef36b-1b5b-4ad0-8f95-8ff8d7cb047c"},"vehicle_type_id":"4","last_reported":1738779150,"current_range_meters":6800,"station_id":"ce4bgvp2rcd13ifvqct0","pricing_plan_id":"cebpf4jnsgd1na2vs0mg"},{"bike_id":"cf1a4cdf-53d8-4571-a8ff-eccd76bc3fd7","system_id":"levelo_inurba_marseille","lat":43.28421,"lon":5.35008,"is_reserved":false,"is_disabled":false,"rental_uris":{"android":"levelo://app?vid=cf1a4cdf-53d8-4571-a8ff-eccd76bc3fd7","ios":"levelo://app?vid=cf1a4cdf-53d8-4571-a8ff-eccd76bc3fd7"},"vehicle_type_id":"4","last_reported":1738779150,"current_range_meters":18800,"station_id":"ce4bhbh2rcd13ifvqepg","pricing_plan_id":"cebpf4jnsgd1na2vs0mg"},{"bike_id":"853c5528-321f-4078-9263-1a387120e184","system_id":"levelo_inurba_marseille","lat":43.28612,"lon":5.37066,"is_reserved":false,"is_disabled":false,"rental_uris":{"android":"levelo://app?vid=853c5528-321f-4078-9263-1a387120e184","ios":"levelo://app?vid=853c5528-321f-4078-9263-1a387120e184"},"vehicle_type_id":"4","last_reported":1738779150,"current_range_meters":38800,"station_id":"ce4bht12rcd13ifvqi60","pricing_plan_id":"cebpf4jnsgd1na2vs0mg"},{"bike_id":"554e5e02-8015-4d2a-aeb7-01f85173ce07","system_id":"levelo_inurba_marseille","lat":43.29041,"lon":5.35912,"is_reserved":false,"is_disabled":false,"rental_uris":{"android":"levelo://app?vid=554e5e02-8015-4d2a-aeb7-01f85173ce07","ios":"levelo://app?vid=554e5e02-8015-4d2a-aeb7-01f85173ce07"},"vehicle_type_id":"4","last_reported":1738779150,"current_range_meters":28000,"station_id":"ce4bha92rcd13ifvqeg0","pricing_plan_id":"cebpf4jnsgd1na2vs0mg"},{"bike_id":"2118c82d-0143-415d-aaf1-22408e5c55b9","system_id":"levelo_inurba_marseille","lat":43.28435,"lon":5.39187,"is_reserved":false,"is_disabled":false,"rental_uris":{"android":"levelo://app?vid=2118c82d-0143-415d-aaf1-22408e5c55b9","ios":"levelo://app?vid=2118c82d-0143-415d-aaf1-22408e5c55b9"},"vehicle_type_id":"4","last_reported":1738779150,"current_range_meters":37600,"station_id":"ce4bhoh2rcd13ifvqh5g","pricing_plan_id":"cebpf4jnsgd1na2vs0mg"},{"bike_id":"0a1d80a5-8567-473e-862c-e2d2e710157a","system_id":"levelo_inurba_marseille","lat":43.28419,"lon":5.34976,"is_reserved":false,"is_disabled":false,"rental_uris":{"android":"levelo://app?vid=0a1d80a5-8567-473e-862c-e2d2e710157a","ios":"levelo://app?vid=0a1d80a5-8567-473e-862c-e2d2e710157a"},"vehicle_type_id":"4","last_reported":1738779150,"current_range_meters":33200,"station_id":"ce4bhbh2rcd13ifvqepg","pricing_plan_id":"cebpf4jnsgd1na2vs0mg"},{"bike_id":"bf8e29cf-1064-47f5-8740-9905ac2b6e94","system_id":"levelo_inurba_marseille","lat":43.3136,"lon":5.38489,"is_reserved":false,"is_disabled":false,"rental_uris":{"android":"levelo://app?vid=bf8e29cf-1064-47f5-8740-9905ac2b6e94","ios":"levelo://app?vid=bf8e29cf-1064-47f5-8740-9905ac2b6e94"},"vehicle_type_id":"4","last_reported":1738779150,"current_range_meters":26000,"station_id":"ce4bgt92rcd13ifvqcf0","pricing_plan_id":"cebpf4jnsgd1na2vs0mg"},{"bike_id":"f8a4576c-8966-495c-b624-858315fd786c","system_id":"levelo_inurba_marseille","lat":43.29082,"lon":5.38109,"is_reserved":false,"is_disabled":false,"rental_uris":{"android":"levelo://app?vid=f8a4576c-8966-495c-b624-858315fd786c","ios":"levelo://app?vid=f8a4576c-8966-495c-b624-858315fd786c"},"vehicle_type_id":"4","last_reported":1738779150,"current_range_meters":14000,"station_id":"ce4bh512rcd13ifvqe2g","pricing_plan_id":"cebpf4jnsgd1na2vs0mg"},{"bike_id":"efc75f68-c0e7-4c38-a126-0f2ae1afe39d","system_id":"levelo_inurba_marseille","lat":43.2718,"lon":5.40988,"is_reserved":false,"is_disabled":false,"rental_uris":{"android":"levelo://app?vid=efc75f68-c0e7-4c38-a126-0f2ae1afe39d","ios":"levelo://app?vid=efc75f68-c0e7-4c38-a126-0f2ae1afe39d"},"vehicle_type_id":"4","last_reported":1738779150,"current_range_meters":31200,"station_id":"ce4bhl12rcd13ifvqgf0","pricing_plan_id":"cebpf4jnsgd1na2vs0mg"},{"bike_id":"c8867084-73b3-4ef6-939b-90719c3af5d4","system_id":"levelo_inurba_marseille","lat":43.24164,"lon":5.36411,"is_reserved":false,"is_disabled":true,"rental_uris":{"android":"levelo://app?vid=c8867084-73b3-4ef6-939b-90719c3af5d4","ios":"levelo://app?vid=c8867084-73b3-4ef6-939b-90719c3af5d4"},"vehicle_type_id":"4","last_reported":1738779150,"current_range_meters":4800,"station_id":"cpo36qri1sfpv3e86is0","pricing_plan_id":"cebpf4jnsgd1na2vs0mg"},{"bike_id":"e21322ee-7c0b-442b-ac63-9c9a846f3cc5","system_id":"levelo_inurba_marseille","lat":43.273723,"lon":5.362663,"is_reserved":false,"is_disabled":true,"rental_uris":{"android":"levelo://app?vid=e21322ee-7c0b-442b-ac63-9c9a846f3cc5","ios":"levelo://app?vid=e21322ee-7c0b-442b-ac63-9c9a846f3cc5"},"vehicle_type_id":"4","last_reported":1738779150,"current_range_meters":0,"station_id":"ce4bhbh2rcd13ifvqeo0","pricing_plan_id":"cebpf4jnsgd1na2vs0mg"},{"bike_id":"3ce9be42-ab76-43a9-bf8b-31b97f0d14a1","system_id":"levelo_inurba_marseille","lat":43.28463,"lon":5.35883,"is_reserved":false,"is_disabled":false,"rental_uris":{"android":"levelo://app?vid=3ce9be42-ab76-43a9-bf8b-31b97f0d14a1","ios":"levelo://app?vid=3ce9be42-ab76-43a9-bf8b-31b97f0d14a1"},"vehicle_type_id":"4","last_reported":1738779150,"current_range_meters":29600,"station_id":"ce4bhah2rcd13ifvqei0","pricing_plan_id":"cebpf4jnsgd1na2vs0mg"},{"bike_id":"25d556ce-3f32-408f-bbd6-29b976ef448a","system_id":"levelo_inurba_marseille","lat":43.23196,"lon":5.39992,"is_reserved":false,"is_disabled":false,"rental_uris":{"android":"levelo://app?vid=25d556ce-3f32-408f-bbd6-29b976ef448a","ios":"levelo://app?vid=25d556ce-3f32-408f-bbd6-29b976ef448a"},"vehicle_type_id":"4","last_reported":1738779150,"current_range_meters":11600,"station_id":"ce4bhn12rcd13ifvqgqg","pricing_plan_id":"cebpf4jnsgd1na2vs0mg"},{"bike_id":"61448cdc-71a0-4a68-8574-d29e3ec30fef","system_id":"levelo_inurba_marseille","lat":43.31167,"lon":5.38713,"is_reserved":false,"is_disabled":false,"rental_uris":{"android":"levelo://app?vid=61448cdc-71a0-4a68-8574-d29e3ec30fef","ios":"levelo://app?vid=61448cdc-71a0-4a68-8574-d29e3ec30fef"},"vehicle_type_id":"4","last_reported":1738779150,"current_range_meters":30400,"station_id":"ce4bgv12rcd13ifvqcp0","pricing_plan_id":"cebpf4jnsgd1na2vs0mg"},{"bike_id":"edba70a9-b1f8-4bb5-bd02-f5669cf894f4","system_id":"levelo_inurba_marseille","lat":43.29021,"lon":5.38633,"is_reserved":false,"is_disabled":false,"rental_uris":{"android":"levelo://app?vid=edba70a9-b1f8-4bb5-bd02-f5669cf894f4","ios":"levelo://app?vid=edba70a9-b1f8-4bb5-bd02-f5669cf894f4"},"vehicle_type_id":"4","last_reported":1738779150,"current_range_meters":38800,"station_id":"ce4bh4p2rcd13ifvqe0g","pricing_plan_id":"cebpf4jnsgd1na2vs0mg"},{"bike_id":"97e3f16d-c680-499c-b7df-c4ab9d43861c","system_id":"levelo_inurba_marseille","lat":43.232,"lon":5.39971,"is_reserved":false,"is_disabled":false,"rental_uris":{"android":"levelo://app?vid=97e3f16d-c680-499c-b7df-c4ab9d43861c","ios":"levelo://app?vid=97e3f16d-c680-499c-b7df-c4ab9d43861c"},"vehicle_type_id":"4","last_reported":1738779150,"current_range_meters":22800,"station_id":"ce4bhn12rcd13ifvqgqg","pricing_plan_id":"cebpf4jnsgd1na2vs0mg"},{"bike_id":"4d0c55d3-7ba5-4e2a-ba01-898e6e9d72e3","system_id":"levelo_inurba_marseille","lat":43.27947,"lon":5.41055,"is_reserved":false,"is_disabled":false,"rental_uris":{"android":"levelo://app?vid=4d0c55d3-7ba5-4e2a-ba01-898e6e9d72e3","ios":"levelo://app?vid=4d0c55d3-7ba5-4e2a-ba01-898e6e9d72e3"},"vehicle_type_id":"4","last_reported":1738779150,"current_range_meters":38400,"station_id":"ce4bhnp2rcd13ifvqh0g","pricing_plan_id":"cebpf4jnsgd1na2vs0mg"},{"bike_id":"f6af68bf-9b41-4c44-b343-9ccc746c69ca","system_id":"levelo_inurba_marseille","lat":43.241737,"lon":5.397167,"is_reserved":false,"is_disabled":false,"rental_uris":{"android":"levelo://app?vid=f6af68bf-9b41-4c44-b343-9ccc746c69ca","ios":"levelo://app?vid=f6af68bf-9b41-4c44-b343-9ccc746c69ca"},"vehicle_type_id":"4","last_reported":1738779150,"current_range_meters":8000,"station_id":"ce4bhn12rcd13ifvqgpg","pricing_plan_id":"cebpf4jnsgd1na2vs0mg"},{"bike_id":"023f65ff-462a-4a08-ba76-5409dc2ce057","system_id":"levelo_inurba_marseille","lat":43.24067,"lon":5.37766,"is_reserved":false,"is_disabled":false,"rental_uris":{"android":"levelo://app?vid=023f65ff-462a-4a08-ba76-5409dc2ce057","ios":"levelo://app?vid=023f65ff-462a-4a08-ba76-5409dc2ce057"},"vehicle_type_id":"4","last_reported":1738779150,"current_range_meters":19600,"station_id":"ce4bhnp2rcd13ifvqgvg","pricing_plan_id":"cebpf4jnsgd1na2vs0mg"},{"bike_id":"d63f0501-1e90-4a2f-b10b-a698490feee5","system_id":"levelo_inurba_marseille","lat":43.30604,"lon":5.37228,"is_reserved":false,"is_disabled":false,"rental_uris":{"android":"levelo://app?vid=d63f0501-1e90-4a2f-b10b-a698490feee5","ios":"levelo://app?vid=d63f0501-1e90-4a2f-b10b-a698490feee5"},"vehicle_type_id":"4","last_reported":1738779150,"current_range_meters":24800,"station_id":"ce4bgqh2rcd13ifvqc4g","pricing_plan_id":"cebpf4jnsgd1na2vs0mg"},{"bike_id":"6cdf22e8-4d98-4f8a-a5ae-6f835259610b","system_id":"levelo_inurba_marseille","lat":43.26195,"lon":5.37936,"is_reserved":false,"is_disabled":false,"rental_uris":{"android":"levelo://app?vid=6cdf22e8-4d98-4f8a-a5ae-6f835259610b","ios":"levelo://app?vid=6cdf22e8-4d98-4f8a-a5ae-6f835259610b"},"vehicle_type_id":"4","last_reported":1738779150,"current_range_meters":28000,"station_id":"ce4bhjp2rcd13ifvqg90","pricing_plan_id":"cebpf4jnsgd1na2vs0mg"},{"bike_id":"25ca2462-b268-4a34-84c6-6fb50e375245","system_id":"levelo_inurba_marseille","lat":43.30002,"lon":5.3663,"is_reserved":false,"is_disabled":false,"rental_uris":{"android":"levelo://app?vid=25ca2462-b268-4a34-84c6-6fb50e375245","ios":"levelo://app?vid=25ca2462-b268-4a34-84c6-6fb50e375245"},"vehicle_type_id":"4","last_reported":1738779150,"current_range_meters":5600,"station_id":"","pricing_plan_id":"cebpf4jnsgd1na2vs0mg"},{"bike_id":"61ceb31b-03f6-4213-9b34-0374ee45b479","system_id":"levelo_inurba_marseille","lat":43.321149,"lon":5.36784,"is_reserved":false,"is_disabled":false,"rental_uris":{"android":"levelo://app?vid=61ceb31b-03f6-4213-9b34-0374ee45b479","ios":"levelo://app?vid=61ceb31b-03f6-4213-9b34-0374ee45b479"},"vehicle_type_id":"4","last_reported":1738779150,"current_range_meters":20000,"station_id":"ce4bhrh2rcd13ifvqhug","pricing_plan_id":"cebpf4jnsgd1na2vs0mg"},{"bike_id":"1489c8c8-a04b-479f-95b4-a81e60a2c685","system_id":"levelo_inurba_marseille","lat":43.31179,"lon":5.38713,"is_reserved":false,"is_disabled":false,"rental_uris":{"android":"levelo://app?vid=1489c8c8-a04b-479f-95b4-a81e60a2c685","ios":"levelo://app?vid=1489c8c8-a04b-479f-95b4-a81e60a2c685"},"vehicle_type_id":"4","last_reported":1738779150,"current_range_meters":36800,"station_id":"ce4bgv12rcd13ifvqcp0","pricing_plan_id":"cebpf4jnsgd1na2vs0mg"},{"bike_id":"5bcce1d3-b97f-43a2-9f8d-3cbe970191fe","system_id":"levelo_inurba_marseille","lat":43.29192,"lon":5.35791,"is_reserved":false,"is_disabled":false,"rental_uris":{"android":"levelo://app?vid=5bcce1d3-b97f-43a2-9f8d-3cbe970191fe","ios":"levelo://app?vid=5bcce1d3-b97f-43a2-9f8d-3cbe970191fe"},"vehicle_type_id":"4","last_reported":1738779150,"current_range_meters":27200,"station_id":"ce4bhb12rcd13ifvqel0","pricing_plan_id":"cebpf4jnsgd1na2vs0mg"},{"bike_id":"fc5f1fd1-c2a8-4691-94fe-d477702a6958","system_id":"levelo_inurba_marseille","lat":43.3314,"lon":5.38022,"is_reserved":false,"is_disabled":false,"rental_uris":{"android":"levelo://app?vid=fc5f1fd1-c2a8-4691-94fe-d477702a6958","ios":"levelo://app?vid=fc5f1fd1-c2a8-4691-94fe-d477702a6958"},"vehicle_type_id":"4","last_reported":1738779150,"current_range_meters":28000,"station_id":"","pricing_plan_id":"cebpf4jnsgd1na2vs0mg"},{"bike_id":"0cfb7601-ab78-4c7d-855e-190516b31e50","system_id":"levelo_inurba_marseille","lat":43.32347,"lon":5.4062,"is_reserved":false,"is_disabled":false,"rental_uris":{"android":"levelo://app?vid=0cfb7601-ab78-4c7d-855e-190516b31e50","ios":"levelo://app?vid=0cfb7601-ab78-4c7d-855e-190516b31e50"},"vehicle_type_id":"4","last_reported":1738779150,"current_range_meters":8400,"station_id":"ce4bhq92rcd13ifvqhjg","pricing_plan_id":"cebpf4jnsgd1na2vs0mg"},{"bike_id":"72536087-633c-4145-820d-22c860248cd7","system_id":"levelo_inurba_marseille","lat":43.28675,"lon":5.3635,"is_reserved":false,"is_disabled":false,"rental_uris":{"android":"levelo://app?vid=72536087-633c-4145-820d-22c860248cd7","ios":"levelo://app?vid=72536087-633c-4145-820d-22c860248cd7"},"vehicle_type_id":"4","last_reported":1738779150,"current_range_meters":19200,"station_id":"ce4bhah2rcd13ifvqej0","pricing_plan_id":"cebpf4jnsgd1na2vs0mg"},{"bike_id":"cd603e46-cb29-4f84-93f3-9fe98a5e8786","system_id":"levelo_inurba_marseille","lat":43.24654,"lon":5.38897,"is_reserved":false,"is_disabled":false,"rental_uris":{"android":"levelo://app?vid=cd603e46-cb29-4f84-93f3-9fe98a5e8786","ios":"levelo://app?vid=cd603e46-cb29-4f84-93f3-9fe98a5e8786"},"vehicle_type_id":"4","last_reported":1738779150,"current_range_meters":36400,"station_id":"ce4bhg12rcd13ifvqf60","pricing_plan_id":"cebpf4jnsgd1na2vs0mg"},{"bike_id":"81f91ad2-2fd9-4824-9295-c0d858f37daf","system_id":"levelo_inurba_marseille","lat":43.31168,"lon":5.38713,"is_reserved":false,"is_disabled":false,"rental_uris":{"android":"levelo://app?vid=81f91ad2-2fd9-4824-9295-c0d858f37daf","ios":"levelo://app?vid=81f91ad2-2fd9-4824-9295-c0d858f37daf"},"vehicle_type_id":"4","last_reported":1738779150,"current_range_meters":29600,"station_id":"ce4bgv12rcd13ifvqcp0","pricing_plan_id":"cebpf4jnsgd1na2vs0mg"},{"bike_id":"c8cfecb0-34df-4093-86de-ce1fa85a76db","system_id":"levelo_inurba_marseille","lat":43.30135,"lon":5.3878,"is_reserved":false,"is_disabled":false,"rental_uris":{"android":"levelo://app?vid=c8cfecb0-34df-4093-86de-ce1fa85a76db","ios":"levelo://app?vid=c8cfecb0-34df-4093-86de-ce1fa85a76db"},"vehicle_type_id":"4","last_reported":1738779150,"current_range_meters":4400,"station_id":"ce4bghh2rcd13ifvqb60","pricing_plan_id":"cebpf4jnsgd1na2vs0mg"},