{"last_updated":1746209641,"ttl":60,"version":"2.2","data":{"bikes":[{"bike_id":"587033e8-9114-4237-990e-deafe4f5ad79","system_id":"levelo_inurba_marseille","lat":43.24261,"lon":5.37051,"is_reserved":false,"is_disabled":true,"rental_uris":{"android":"levelo://app?vid=587033e8-9114-4237-990e-deafe4f5ad79","ios":"levelo://app?vid=587033e8-9114-4237-990e-deafe4f5ad79"},"vehicle_type_id":"4","last_reported":1746209641,"current_range_meters":0,"station_id":"","pricing_plan_id":"cebpf4jnsgd1na2vs0mg"},{"bike_id":"76c1809e-b03a-4489-8d04-2161a1946c9d","system_id":"levelo_inurba_marseille","lat":43.27954,"lon":5.37186,"is_reserved":false,"is_disabled":true,"rental_uris":{"android":"levelo://app?vid=76c1809e-b03a-4489-8d04-2161a1946c9d","ios":"levelo://app?vid=76c1809e-b03a-4489-8d04-2161a1946c9d"},"vehicle_type_id":"4","last_reported":1746209641,"current_range_meters":0,"station_id":"","pricing_plan_id":"cebpf4jnsgd1na2vs0mg"},{"bike_id":"60e4cd3d-7356-402f-aa73-81c9e4c703a2","system_id":"levelo_inurba_marseille","lat":43.3249,"lon":5.3894,"is_reserved":false,"is_disabled":true,"rental_uris":{"android":"levelo://app?vid=60e4cd3d-7356-402f-aa73-81c9e4c703a2","ios":"levelo://app?vid=60e4cd3d-7356-402f-aa73-81c9e4c703a2"},"vehicle_type_id":"4","last_reported":1746209641,"current_range_meters":0,"station_id":"","pricing_plan_id":"cebpf4jnsgd1na2vs0mg"},{"bike_id":"98e592b3-5fa3-4a83-b8d7-4600d55d353f","system_id":"levelo_inurba_marseille","lat":43.24642,"lon":5.43647,"is_reserved":false,"is_disabled":true,"rental_uris":{"android":"levelo://app?vid=98e592b3-5fa3-4a83-b8d7-4600d55d353f","ios":"levelo://app?vid=98e592b3-5fa3-4a83-b8d7-4600d55d353f"},"vehicle_type_id":"4","last_reported":1746209641,"current_range_meters":0,"station_id":"","pricing_plan_id":"cebpf4jnsgd1na2vs0mg"},{"bike_id":"f35a4c3e-288c-46e6-a156-ce98b822e31c","system_id":"levelo_inurba_marseille","lat":43.26037,"lon":5.37526,"is_reserved":false,"is_disabled":true,"rental_uris":{"android":"levelo://app?vid=f35a4c3e-288c-46e6-a156-ce98b822e31c","ios":"levelo://app?vid=f35a4c3e-288c-46e6-a156-ce98b822e31c"},"vehicle_type_id":"4","last_reported":1746209641,"current_range_meters":0,"station_id":"","pricing_plan_id":"cebpf4jnsgd1na2vs0mg"},{"bike_id":"27c926f4-2e8c-4fe5-8d0a-ce234b43b164","system_id":"levelo_inurba_marseille","lat":43.27876,"lon":5.38808,"is_reserved":false,"is_disabled":true,"rental_uris":{"android":"levelo://app?vid=27c926f4-2e8c-4fe5-8d0a-ce234b43b164","ios":"levelo://app?vid=27c926f4-2e8c-4fe5-8d0a-ce234b43b164"},"vehicle_type_id":"4","last_reported":1746209641,"current_range_meters":0,"station_id":"","pricing_plan_id":"cebpf4jnsgd1na2vs0mg"},{"bike_id":"dcf471e5-50d7-4c6d-8c76-01b9d58b8521","system_id":"levelo_inurba_marseille","lat":43.21757,"lon":5.34606,"is_reserved":false,"is_disabled":true,"rental_uris":{"android":"levelo://app?vid=dcf471e5-50d7-4c6d-8c76-01b9d58b8521","ios":"levelo://app?vid=dcf471e5-50d7-4c6d-8c76-01b9d58b8521"},"vehicle_type_id":"4","last_reported":1746209641,"current_range_meters":0,"station_id":"","pricing_plan_id":"cebpf4jnsgd1na2vs0mg"},{"bike_id":"eefa78c8-4f9d-4d38-a7d3-c880870c89cc","system_id":"levelo_inurba_marseille","lat":43.281014,"lon":5.398648,"is_reserved":false,"is_disabled":true,"rental_uris":{"android":"levelo://app?vid=eefa78c8-4f9d-4d38-a7d3-c880870c89cc","ios":"levelo://app?vid=eefa78c8-4f9d-4d38-a7d3-c880870c89cc"},"vehicle_type_id":"4","last_reported":1746209641,"current_range_meters":0,"station_id":"","pricing_plan_id":"cebpf4jnsgd1na2vs0mg"},{"bike_id":"f1838310-e644-4cc5-b131-598db146ee41","system_id":"levelo_inurba_marseille","lat":43.33762,"lon":5.37466,"is_reserved":false,"is_disabled":true,"rental_uris":{"android":"levelo://app?vid=f1838310-e644-4cc5-b131-598db146ee41","ios":"levelo://app?vid=f1838310-e644-4cc5-b131-598db146ee41"},"vehicle_type_id":"4","last_reported":1746209641,"current_range_meters":0,"station_id":"","pricing_plan_id":"cebpf4jnsgd1na2vs0mg"},{"bike_id":"e93b949e-1738-47f2-ad13-8f512df2ffaf","system_id":"levelo_inurba_marseille","lat":43.281448,"lon":5.44354,"is_reserved":false,"is_disabled":true,"rental_uris":{"android":"levelo://app?vid=e93b949e-1738-47f2-ad13-8f512df2ffaf","ios":"levelo://app?vid=e93b949e-1738-47f2-ad13-8f512df2ffaf"},"vehicle_type_id":"4","last_reported":1746209641,"current_range_meters":0,"station_id":"","pricing_plan_id":"cebpf4jnsgd1na2vs0mg"},{"bike_id":"6dae802c-30b8-42be-a2a7-f05db6f3f9fe","system_id":"levelo_inurba_marseille","lat":43.29813,"lon":5.38101,"is_reserved":false,"is_disabled":true,"rental_uris":{"android":"levelo://app?vid=6dae802c-30b8-42be-a2a7-f05db6f3f9fe","ios":"levelo://app?vid=6dae802c-30b8-42be-a2a7-f05db6f3f9fe"},"vehicle_type_id":"4","last_reported":1746209641,"current_range_meters":0,"station_id":"ce4bgip2rcd13ifvqbb0","pricing_plan_id":"cebpf4jnsgd1na2vs0mg"},{"bike_id":"e3b3e9eb-bdaf-4e55-83c6-644680a06100","system_id":"levelo_inurba_marseille","lat":43.29964,"lon":5.3852,"is_reserved":false,"is_disabled":true,"rental_uris":{"android":"levelo://app?vid=e3b3e9eb-bdaf-4e55-83c6-644680a06100","ios":"levelo://app?vid=e3b3e9eb-bdaf-4e55-83c6-644680a06100"},"vehicle_type_id":"4","last_reported":1746209641,"current_range_meters":0,"station_id":"ce4bgj92rcd13ifvqbd0","pricing_plan_id":"cebpf4jnsgd1na2vs0mg"},{"bike_id":"98230a92-51cd-4252-9884-5c4551b53620","system_id":"levelo_inurba_marseille","lat":43.30928,"lon":5.40148,"is_reserved":false,"is_disabled":true,"rental_uris":{"android":"levelo://app?vid=98230a92-51cd-4252-9884-5c4551b53620","ios":"levelo://app?vid=98230a92-51cd-4252-9884-5c4551b53620"},"vehicle_type_id":"4","last_reported":1746209641,"current_range_meters":0,"station_id":"ce4bgvp2rcd13ifvqct0","pricing_plan_id":"cebpf4jnsgd1na2vs0mg"},{"bike_id":"0737a129-6c46-40fe-a1e4-9120dc7ff87a","system_id":"levelo_inurba_marseille","lat":43.27948,"lon":5.38719,"is_reserved":false,"is_disabled":true,"rental_uris":{"android":"levelo://app?vid=0737a129-6c46-40fe-a1e4-9120dc7ff87a","ios":"levelo://app?vid=0737a129-6c46-40fe-a1e4-9120dc7ff87a"},"vehicle_type_id":"4","last_reported":1746209641,"current_range_meters":0,"station_id":"ce4bhg12rcd13ifvqf80","pricing_plan_id":"cebpf4jnsgd1na2vs0mg"},{"bike_id":"ae1348b0-19ff-421d-9f1c-272109e6e7e6","system_id":"levelo_inurba_marseille","lat":43.26931,"lon":5.38917,"is_reserved":false,"is_disabled":true,"rental_uris":{"android":"levelo://app?vid=ae1348b0-19ff-421d-9f1c-272109e6e7e6","ios":"levelo://app?vid=ae1348b0-19ff-421d-9f1c-272109e6e7e6"},"vehicle_type_id":"4","last_reported":1746209641,"current_range_meters":0,"station_id":"ce4bhhh2rcd13ifvqfl0","pricing_plan_id":"cebpf4jnsgd1na2vs0mg"},{"bike_id":"eedc7933-7f07-4f7a-91d9-2c8e9c2d9047","system_id":"levelo_inurba_marseille","lat":43.270494,"lon":5.40251,"is_reserved":false,"is_disabled":true,"rental_uris":{"android":"levelo://app?vid=eedc7933-7f07-4f7a-91d9-2c8e9c2d9047","ios":"levelo://app?vid=eedc7933-7f07-4f7a-91d9-2c8e9c2d9047"},"vehicle_type_id":"4","last_reported":1746209641,"current_range_meters":0,"station_id":"ce4bhk92rcd13ifvqgc0","pricing_plan_id":"cebpf4jnsgd1na2vs0mg"},{"bike_id":"055b5ebf-ad6b-4357-ac60-44d1ff77d865","system_id":"levelo_inurba_marseille","lat":43.25729,"lon":5.41109,"is_reserved":false,"is_disabled":true,"rental_uris":{"android":"levelo://app?vid=055b5ebf-ad6b-4357-ac60-44d1ff77d865","ios":"levelo://app?vid=055b5ebf-ad6b-4357-ac60-44d1ff77d865"},"vehicle_type_id":"4","last_reported":1746209641,"current_range_meters":0,"station_id":"ce4bhkp2rcd13ifvqgd0","pricing_plan_id":"cebpf4jnsgd1na2vs0mg"},{"bike_id":"a7da839c-8cd7-4858-8d63-a5c3fb97170a","system_id":"levelo_inurba_marseille","lat":43.25669,"lon":5.41116,"is_reserved":false,"is_disabled":true,"rental_uris":{"android":"levelo://app?vid=a7da839c-8cd7-4858-8d63-a5c3fb97170a","ios":"levelo://app?vid=a7da839c-8cd7-4858-8d63-a5c3fb97170a"},"vehicle_type_id":"4","last_reported":1746209641,"current_range_meters":0,"station_id":"ce4bhkp2rcd13ifvqgd0","pricing_plan_id":"cebpf4jnsgd1na2vs0mg"},{"bike_id":"88dc695d-bd37-40ae-8afa-c213d90c7150","system_id":"levelo_inurba_marseille","lat":43.25125,"lon":5.40318,"is_reserved":false,"is_disabled":true,"rental_uris":{"android":"levelo://app?vid=88dc695d-bd37-40ae-8afa-c213d90c7150","ios":"levelo://app?vid=88dc695d-bd37-40ae-8afa-c213d90c7150"},"vehicle_type_id":"4","last_reported":1746209641,"current_range_meters":0,"station_id":"ce4bhlh2rcd13ifvqgig","pricing_plan_id":"cebpf4jnsgd1na2vs0mg"},{"bike_id":"848ed649-836b-4f42-af8d-5b11b102dc56","system_id":"levelo_inurba_marseille","lat":43.24182,"lon":5.39729,"is_reserved":false,"is_disabled":true,"rental_uris":{"android":"levelo://app?vid=848ed649-836b-4f42-af8d-5b11b102dc56","ios":"levelo://app?vid=848ed649-836b-4f42-af8d-5b11b102dc56"},"vehicle_type_id":"4","last_reported":1746209641,"current_range_meters":0,"station_id":"ce4bhn12rcd13ifvqgpg","pricing_plan_id":"cebpf4jnsgd1na2vs0mg"},{"bike_id":"e336b0c2-a2be-4eca-b6c2-a513a8ae7843","system_id":"levelo_inurba_marseille","lat":43.21759,"lon":5.34598,"is_reserved":false,"is_disabled":true,"rental_uris":{"android":"levelo://app?vid=e336b0c2-a2be-4eca-b6c2-a513a8ae7843","ios":"levelo://app?vid=e336b0c2-a2be-4eca-b6c2-a513a8ae7843"},"vehicle_type_id":"4","last_reported":1746209641,"current_range_meters":0,"station_id":"st_cvj6r9ubvosntc0bgbag","pricing_plan_id":"cebpf4jnsgd1na2vs0mg"},{"bike_id":"3ecf66e2-44b6-472c-af09-0855bf590a80","system_id":"levelo_inurba_marseille","lat":43.2173,"lon":5.34634,"is_reserved":false,"is_disabled":true,"rental_uris":{"android":"levelo://app?vid=3ecf66e2-44b6-472c-af09-0855bf590a80","ios":"levelo://app?vid=3ecf66e2-44b6-472c-af09-0855bf590a80"},"vehicle_type_id":"4","last_reported":1746209641,"current_range_meters":0,"station_id":"st_cvj6r9ubvosntc0bgbag","pricing_plan_id":"cebpf4jnsgd1na2vs0mg"},{"bike_id":"02ef3096-14c5-4060-a88c-c36fcdf56e5a","system_id":"levelo_inurba_marseille","lat":43.217638,"lon":5.345986,"is_reserved":false,"is_disabled":true,"rental_uris":{"android":"levelo://app?vid=02ef3096-14c5-4060-a88c-c36fcdf56e5a","ios":"levelo://app?vid=02ef3096-14c5-4060-a88c-c36fcdf56e5a"},"vehicle_type_id":"4","last_reported":1746209641,"current_range_meters":0,"station_id":"st_cvj6r9ubvosntc0bgbag","pricing_plan_id":"cebpf4jnsgd1na2vs0mg"},{"bike_id":"a9271c4c-cb08-419c-89df-c865809695a8","system_id":"levelo_inurba_marseille","lat":43.217385,"lon":5.346204,"is_reserved":false,"is_disabled":true,"rental_uris":{"android":"levelo://app?vid=a9271c4c-cb08-419c-89df-c865809695a8","ios":"levelo://app?vid=a9271c4c-cb08-419c-89df-c865809695a8"},"vehicle_type_id":"4","last_reported":1746209641,"current_range_meters":0,"station_id":"st_cvj6r9ubvosntc0bgbag","pricing_plan_id":"cebpf4jnsgd1na2vs0mg"},{"bike_id":"0eb7f3a2-418e-43f5-b16b-0c8c23acd505","system_id":"levelo_inurba_marseille","lat":43.284912,"lon":5.384076,"is_reserved":false,"is_disabled":true,"rental_uris":{"android":"levelo://app?vid=0eb7f3a2-418e-43f5-b16b-0c8c23acd505","ios":"levelo://app?vid=0eb7f3a2-418e-43f5-b16b-0c8c23acd505"},"vehicle_type_id":"4","last_reported":1746209641,"current_range_meters":400,"station_id":"","pricing_plan_id":"cebpf4jnsgd1na2vs0mg"},{"bike_id":"002bc463-d6b4-40f2-877d-75d37268a6dd","system_id":"levelo_inurba_marseille","lat":43.29609,"lon":5.38086,"is_reserved":false,"is_disabled":true,"rental_uris":{"android":"levelo://app?vid=002bc463-d6b4-40f2-877d-75d37268a6dd","ios":"levelo://app?vid=002bc463-d6b4-40f2-877d-75d37268a6dd"},"vehicle_type_id":"4","last_reported":1746209641,"current_range_meters":400,"station_id":"ce4bgl12rcd13ifvqbo0","pricing_plan_id":"cebpf4jnsgd1na2vs0mg"},{"bike_id":"1e2b29e0-328e-4c75-879e-85ac40c2c78f","system_id":"levelo_inurba_marseille","lat":43.279653,"lon":5.38719,"is_reserved":false,"is_disabled":true,"rental_uris":{"android":"levelo://app?vid=1e2b29e0-328e-4c75-879e-85ac40c2c78f","ios":"levelo://app?vid=1e2b29e0-328e-4c75-879e-85ac40c2c78f"},"vehicle_type_id":"4","last_reported":1746209641,"current_range_meters":400,"station_id":"ce4bhg12rcd13ifvqf80","pricing_plan_id":"cebpf4jnsgd1na2vs0mg"},{"bike_id":"b1df04ab-06bd-4724-b4bb-23cb9a36c2af","system_id":"levelo_inurba_marseille","lat":43.2468,"lon":5.38159,"is_reserved":false,"is_disabled":true,"rental_uris":{"android":"levelo://app?vid=b1df04ab-06bd-4724-b4bb-23cb9a36c2af","ios":"levelo://app?vid=b1df04ab-06bd-4724-b4bb-23cb9a36c2af"},"vehicle_type_id":"4","last_reported":1746209641,"current_range_meters":400,"station_id":"ce4bhih2rcd13ifvqfr0","pricing_plan_id":"cebpf4jnsgd1na2vs0mg"},{"bike_id":"8df93bf1-561a-45c5-b26f-5e42c0424c19","system_id":"levelo_inurba_marseille","lat":43.25118,"lon":5.40317,"is_reserved":false,"is_disabled":true,"rental_uris":{"android":"levelo://app?vid=8df93bf1-561a-45c5-b26f-5e42c0424c19","ios":"levelo://app?vid=8df93bf1-561a-45c5-b26f-5e42c0424c19"},"vehicle_type_id":"4","last_reported":1746209641,"current_range_meters":400,"station_id":"ce4bhlh2rcd13ifvqgig","pricing_plan_id":"cebpf4jnsgd1na2vs0mg"},{"bike_id":"d9c78b3c-2371-4735-be2b-2cca942180f1","system_id":"levelo_inurba_marseille","lat":43.3361,"lon":5.41033,"is_reserved":false,"is_disabled":true,"rental_uris":{"android":"levelo://app?vid=d9c78b3c-2371-4735-be2b-2cca942180f1","ios":"levelo://app?vid=d9c78b3c-2371-4735-be2b-2cca942180f1"},"vehicle_type_id":"4","last_reported":1746209641,"current_range_meters":400,"station_id":"ce4bhqh2rcd13ifvqhmg","pricing_plan_id":"cebpf4jnsgd1na2vs0mg"},{"bike_id":"b0423cf6-3f0a-4c42-a623-2062bd9868c9","system_id":"levelo_inurba_marseille","lat":43.33023,"lon":5.39041,"is_reserved":false,"is_disabled":true,"rental_uris":{"android":"levelo://app?vid=b0423cf6-3f0a-4c42-a623-2062bd9868c9","ios":"levelo://app?vid=b0423cf6-3f0a-4c42-a623-2062bd9868c9"},"vehicle_type_id":"4","last_reported":1746209641,"current_range_meters":400,"station_id":"ce4bhr92rcd13ifvqhrg","pricing_plan_id":"cebpf4jnsgd1na2vs0mg"},{"bike_id":"0004a03d-315f-4af5-ad06-c3b4f5ee7186","system_id":"levelo_inurba_marseille","lat":43.29962,"lon":5.38496,"is_reserved":false,"is_disabled":true,"rental_uris":{"android":"levelo://app?vid=0004a03d-315f-4af5-ad06-c3b4f5ee7186","ios":"levelo://app?vid=0004a03d-315f-4af5-ad06-c3b4f5ee7186"},"vehicle_type_id":"4","last_reported":1746209641,"current_range_meters":800,"station_id":"ce4bgj92rcd13ifvqbd0","pricing_plan_id":"cebpf4jnsgd1na2vs0mg"},{"bike_id":"5c848985-8272-4fe8-885f-857a86a6ff15","system_id":"levelo_inurba_marseille","lat":43.31536,"lon":5.37268,"is_reserved":false,"is_disabled":true,"rental_uris":{"android":"levelo://app?vid=5c848985-8272-4fe8-885f-857a86a6ff15","ios":"levelo://app?vid=5c848985-8272-4fe8-885f-857a86a6ff15"},"vehicle_type_id":"4","last_reported":1746209641,"current_range_meters":800,"station_id":"ce4bgt12rcd13ifvqcd0","pricing_plan_id":"cebpf4jnsgd1na2vs0mg"},{"bike_id":"ee23970e-36e0-4226-883f-d4225f5cf1aa","system_id":"levelo_inurba_marseille","lat":43.30945,"lon":5.39033,"is_reserved":false,"is_disabled":true,"rental_uris":{"android":"levelo://app?vid=ee23970e-36e0-4226-883f-d4225f5cf1aa","ios":"levelo://app?vid=ee23970e-36e0-4226-883f-d4225f5cf1aa"},"vehicle_type_id":"4","last_reported":1746209641,"current_range_meters":800,"station_id":"ce4bgup2rcd13ifvqco0","pricing_plan_id":"cebpf4jnsgd1na2vs0mg"},{"bike_id":"335db16e-48a9-4725-8f4e-4cf660802508","system_id":"levelo_inurba_marseille","lat":43.28703,"lon":5.39981,"is_reserved":false,"is_disabled":true,"rental_uris":{"android":"levelo://app?vid=335db16e-48a9-4725-8f4e-4cf660802508","ios":"levelo://app?vid=335db16e-48a9-4725-8f4e-4cf660802508"},"vehicle_type_id":"4","last_reported":1746209641,"current_range_meters":800,"station_id":"ce4bho92rcd13ifvqh3g","pricing_plan_id":"cebpf4jnsgd1na2vs0mg"},{"bike_id":"7f770ba9-2e48-47c9-8bb4-942855273bad","system_id":"levelo_inurba_marseille","lat":43.25341,"lon":5.424153,"is_reserved":false,"is_disabled":true,"rental_uris":{"android":"levelo://app?vid=7f770ba9-2e48-47c9-8bb4-942855273bad","ios":"levelo://app?vid=7f770ba9-2e48-47c9-8bb4-942855273bad"},"vehicle_type_id":"4","last_reported":1746209641,"current_range_meters":1200,"station_id":"","pricing_plan_id":"cebpf4jnsgd1na2vs0mg"},{"bike_id":"267ec178-3d99-4d2b-ab0f-a43ce71c4ba5","system_id":"levelo_inurba_marseille","lat":43.30894,"lon":5.37186,"is_reserved":false,"is_disabled":true,"rental_uris":{"android":"levelo://app?vid=267ec178-3d99-4d2b-ab0f-a43ce71c4ba5","ios":"levelo://app?vid=267ec178-3d99-4d2b-ab0f-a43ce71c4ba5"},"vehicle_type_id":"4","last_reported":1746209641,"current_range_meters":1200,"station_id":"ce4bguh2rcd13ifvqckg","pricing_plan_id":"cebpf4jnsgd1na2vs0mg"},{"bike_id":"abd8d3bd-5802-4224-85f9-b56151f274a2","system_id":"levelo_inurba_marseille","lat":43.30949,"lon":5.39025,"is_reserved":false,"is_disabled":true,"rental_uris":{"android":"levelo://app?vid=abd8d3bd-5802-4224-85f9-b56151f274a2","ios":"levelo://app?vid=abd8d3bd-5802-4224-85f9-b56151f274a2"},"vehicle_type_id":"4","last_reported":1746209641,"current_range_meters":1200,"station_id":"ce4bgup2rcd13ifvqco0","pricing_plan_id":"cebpf4jnsgd1na2vs0mg"},{"bike_id":"7d1020a9-14b5-4e62-a8ed-e87a44ce472b","system_id":"levelo_inurba_marseille","lat":43.284593,"lon":5.358763,"is_reserved":false,"is_disabled":true,"rental_uris":{"android":"levelo://app?vid=7d1020a9-14b5-4e62-a8ed-e87a44ce472b","ios":"levelo://app?vid=7d1020a9-14b5-4e62-a8ed-e87a44ce472b"},"vehicle_type_id":"4","last_reported":1746209641,"current_range_meters":1200,"station_id":"ce4bhah2rcd13ifvqei0","pricing_plan_id":"cebpf4jnsgd1na2vs0mg"},{"bike_id":"db00c2d1-180b-4f33-b04e-308a5556de26","system_id":"levelo_inurba_marseille","lat":43.27885,"lon":5.38029,"is_reserved":false,"is_disabled":true,"rental_uris":{"android":"levelo://app?vid=db00c2d1-180b-4f33-b04e-308a5556de26","ios":"levelo://app?vid=db00c2d1-180b-4f33-b04e-308a5556de26"},"vehicle_type_id":"4","last_reported":1746209641,"current_range_meters":1200,"station_id":"ce4bhf92rcd13ifvqf50","pricing_plan_id":"cebpf4jnsgd1na2vs0mg"},{"bike_id":"f73daf93-45c7-48c0-a61a-2d28ac89db8d","system_id":"levelo_inurba_marseille","lat":43.33964,"lon":5.42012,"is_reserved":false,"is_disabled":true,"rental_uris":{"android":"levelo://app?vid=f73daf93-45c7-48c0-a61a-2d28ac89db8d","ios":"levelo://app?vid=f73daf93-45c7-48c0-a61a-2d28ac89db8d"},"vehicle_type_id":"4","last_reported":1746209641,"current_range_meters":1600,"station_id":"","pricing_plan_id":"cebpf4jnsgd1na2vs0mg"},{"bike_id":"0798ff88-5948-4da8-bcff-4d82136199b8","system_id":"levelo_inurba_marseille","lat":43.31268,"lon":5.40172,"is_reserved":false,"is_disabled":true,"rental_uris":{"android":"levelo://app?vid=0798ff88-5948-4da8-bcff-4d82136199b8","ios":"levelo://app?vid=0798ff88-5948-4da8-bcff-4d82136199b8"},"vehicle_type_id":"4","last_reported":1746209641,"current_range_meters":1600,"station_id":"ce4bh092rcd13ifvqd30","pricing_plan_id":"cebpf4jnsgd1na2vs0mg"},{"bike_id":"173a7752-dcfa-4e8e-bf51-7364f7084213","system_id":"levelo_inurba_marseille","lat":43.29418,"lon":5.38621,"is_reserved":false,"is_disabled":true,"rental_uris":{"android":"levelo://app?vid=173a7752-dcfa-4e8e-bf51-7364f7084213","ios":"levelo://app?vid=173a7752-dcfa-4e8e-bf51-7364f7084213"},"vehicle_type_id":"4","last_reported":1746209641,"current_range_meters":1600,"station_id":"ce4bh2h2rcd13ifvqdh0","pricing_plan_id":"cebpf4jnsgd1na2vs0mg"},{"bike_id":"d99ffa50-a988-47b3-a096-d1c04f53f2a6","system_id":"levelo_inurba_marseille","lat":43.29522,"lon":5.39031,"is_reserved":false,"is_disabled":true,"rental_uris":{"android":"levelo://app?vid=d99ffa50-a988-47b3-a096-d1c04f53f2a6","ios":"levelo://app?vid=d99ffa50-a988-47b3-a096-d1c04f53f2a6"},"vehicle_type_id":"4","last_reported":1746209641,"current_range_meters":1600,"station_id":"ce4bh3p2rcd13ifvqdp0","pricing_plan_id":"cebpf4jnsgd1na2vs0mg"},{"bike_id":"71fda134-396c-45fd-9594-9e9268cc8349","system_id":"levelo_inurba_marseille","lat":43.25869,"lon":5.39902,"is_reserved":false,"is_disabled":true,"rental_uris":{"android":"levelo://app?vid=71fda134-396c-45fd-9594-9e9268cc8349","ios":"levelo://app?vid=71fda134-396c-45fd-9594-9e9268cc8349"},"vehicle_type_id":"4","last_reported":1746209641,"current_range_meters":1600,"station_id":"ce4bhl92rcd13ifvqghg","pricing_plan_id":"cebpf4jnsgd1na2vs0mg"},{"bike_id":"96072273-c752-444b-9609-98025cb83cde","system_id":"levelo_inurba_marseille","lat":43.29778,"lon":5.37101,"is_reserved":false,"is_disabled":true,"rental_uris":{"android":"levelo://app?vid=96072273-c752-444b-9609-98025cb83cde","ios":"levelo://app?vid=96072273-c752-444b-9609-98025cb83cde"},"vehicle_type_id":"4","last_reported":1746209641,"current_range_meters":2000,"station_id":"ce4bgop2rcd13ifvqc1g","pricing_plan_id":"cebpf4jnsgd1na2vs0mg"},{"bike_id":"eed34e21-034a-4a48-8699-b733a6130b1c","system_id":"levelo_inurba_marseille","lat":43.29961,"lon":5.37174,"is_reserved":false,"is_disabled":true,"rental_uris":{"android":"levelo://app?vid=eed34e21-034a-4a48-8699-b733a6130b1c","ios":"levelo://app?vid=eed34e21-034a-4a48-8699-b733a6130b1c"},"vehicle_type_id":"4","last_reported":1746209641,"current_range_meters":2000,"station_id":"ce4bgr92rcd13ifvqc7g","pricing_plan_id":"cebpf4jnsgd1na2vs0mg"},{"bike_id":"f4f6a2bc-7bcc-450b-8683-9e5acafb158e","system_id":"levelo_inurba_marseille","lat":43.30592,"lon":5.3937,"is_reserved":false,"is_disabled":true,"rental_uris":{"android":"levelo://app?vid=f4f6a2bc-7bcc-450b-8683-9e5acafb158e","ios":"levelo://app?vid=f4f6a2bc-7bcc-450b-8683-9e5acafb158e"},"vehicle_type_id":"4","last_reported":1746209641,"current_range_meters":2000,"station_id":"ce4bh0p2rcd13ifvqd80","pricing_plan_id":"cebpf4jnsgd1na2vs0mg"},{"bike_id":"e017116c-1e04-44ce-96f5-539048e6cc69","system_id":"levelo_inurba_marseille","lat":43.29566,"lon":5.3999,"is_reserved":false,"is_disabled":true,"rental_uris":{"android":"levelo://app?vid=e017116c-1e04-44ce-96f5-539048e6cc69","ios":"levelo://app?vid=e017116c-1e04-44ce-96f5-539048e6cc69"},"vehicle_type_id":"4","last_reported":1746209641,"current_range_meters":2000,"station_id":"ce4bh312rcd13ifvqdj0","pricing_plan_id":"cebpf4jnsgd1na2vs0mg"},{"bike_id":"005eaddf-f79f-44ee-b4e8-d688bb715784","system_id":"levelo_inurba_marseille","lat":43.27916,"lon":5.39577,"is_reserved":false,"is_disabled":true,"rental_uris":{"android":"levelo://app?vid=005eaddf-f79f-44ee-b4e8-d688bb715784","ios":"levelo://app?vid=005eaddf-f79f-44ee-b4e8-d688bb715784"},"vehicle_type_id":"4","last_reported":1746209641,"current_range_meters":2000,"station_id":"ce4bhf92rcd13ifvqf40","pricing_plan_id":"cebpf4jnsgd1na2vs0mg"},{"bike_id":"2575a826-3e21-4da6-9273-d9a4fb1afd62","system_id":"levelo_inurba_marseille","lat":43.27558,"lon":5.38412,"is_reserved":false,"is_disabled":true,"rental_uris":{"android":"levelo://app?vid=2575a826-3e21-4da6-9273-d9a4fb1afd62","ios":"levelo://app?vid=2575a826-3e21-4da6-9273-d9a4fb1afd62"},"vehicle_type_id":"4","last_reported":1746209641,"current_range_meters":2000,"station_id":"ce4bhh92rcd13ifvqfi0","pricing_plan_id":"cebpf4jnsgd1na2vs0mg"},{"bike_id":"b0f52966-187d-4f48-8306-0dffe2649c74","system_id":"levelo_inurba_marseille","lat":43.24396,"lon":5.37053,"is_reserved":false,"is_disabled":true,"rental_uris":{"android":"levelo://app?vid=b0f52966-187d-4f48-8306-0dffe2649c74","ios":"levelo://app?vid=b0f52966-187d-4f48-8306-0dffe2649c74"},"vehicle_type_id":"4","last_reported":1746209641,"current_range_meters":2000,"station_id":"ce4bhhh2rcd13ifvqfk0","pricing_plan_id":"cebpf4jnsgd1na2vs0mg"},{"bike_id":"57feff72-88ab-4326-8b3b-1491a262d53a","system_id":"levelo_inurba_marseille","lat":43.25571,"lon":5.38238,"is_reserved":false,"is_disabled":true,"rental_uris":{"android":"levelo://app?vid=57feff72-88ab-4326-8b3b-1491a262d53a","ios":"levelo://app?vid=57feff72-88ab-4326-8b3b-1491a262d53a"},"vehicle_type_id":"4","last_reported":1746209641,"current_range_meters":2000,"station_id":"ce4bhih2rcd13ifvqfs0","pricing_plan_id":"cebpf4jnsgd1na2vs0mg"},{"bike_id":"f4535027-7c5b-445f-8dbc-49c08bfd408a","system_id":"levelo_inurba_marseille","lat":43.27797,"lon":5.40712,"is_reserved":false,"is_disabled":true,"rental_uris":{"android":"levelo://app?vid=f4535027-7c5b-445f-8dbc-49c08bfd408a","ios":"levelo://app?vid=f4535027-7c5b-445f-8dbc-49c08bfd408a"},"vehicle_type_id":"4","last_reported":1746209641,"current_range_meters":2000,"station_id":"ce4bhnh2rcd13ifvqgtg","pricing_plan_id":"cebpf4jnsgd1na2vs0mg"},{"bike_id":"a55fd52f-b9fe-4820-804e-96116d09ab21","system_id":"levelo_inurba_marseille","lat":43.28442,"lon":5.39199,"is_reserved":false,"is_disabled":true,"rental_uris":{"android":"levelo://app?vid=a55fd52f-b9fe-4820-804e-96116d09ab21","ios":"levelo://app?vid=a55fd52f-b9fe-4820-804e-96116d09ab21"},"vehicle_type_id":"4","last_reported":1746209641,"current_range_meters":2000,"station_id":"ce4bhoh2rcd13ifvqh5g","pricing_plan_id":"cebpf4jnsgd1na2vs0mg"},{"bike_id":"41649255-c38b-42cb-ae7f-67f2787c354c","system_id":"levelo_inurba_marseille","lat":43.237891,"lon":5.435883,"is_reserved":false,"is_disabled":false,"rental_uris":{"android":"levelo://app?vid=41649255-c38b-42cb-ae7f-67f2787c354c","ios":"levelo://app?vid=41649255-c38b-42cb-ae7f-67f2787c354c"},"vehicle_type_id":"4","last_reported":1746209641,"current_range_meters":2800,"station_id":"","pricing_plan_id":"cebpf4jnsgd1na2vs0mg"},{"bike_id":"a7ae5738-dfc3-41c2-bb59-dd5a7a1e84a3","system_id":"levelo_inurba_marseille","lat":43.29259,"lon":5.37628,"is_reserved":false,"is_disabled":false,"rental_uris":{"android":"levelo://app?vid=a7ae5738-dfc3-41c2-bb59-dd5a7a1e84a3","ios":"levelo://app?vid=a7ae5738-dfc3-41c2-bb59-dd5a7a1e84a3"},"vehicle_type_id":"4","last_reported":1746209641,"current_range_meters":2800,"station_id":"ce4bgi12rcd13ifvqb80","pricing_plan_id":"cebpf4jnsgd1na2vs0mg"},{"bike_id":"6979fd52-3241-45a3-939f-9b6bd68d7507","system_id":"levelo_inurba_marseille","lat":43.28152,"lon":5.4264,"is_reserved":false,"is_disabled":false,"rental_uris":{"android":"levelo://app?vid=6979fd52-3241-45a3-939f-9b6bd68d7507","ios":"levelo://app?vid=6979fd52-3241-45a3-939f-9b6bd68d7507"},"vehicle_type_id":"4","last_reported":1746209641,"current_range_meters":2800,"station_id":"ce4bhnh2rcd13ifvqgug","pricing_plan_id":"cebpf4jnsgd1na2vs0mg"},{"bike_id":"f9c09b50-c03f-4806-8dc9-f671cf3d7397","system_id":"levelo_inurba_marseille","lat":43.29573,"lon":5.37521,"is_reserved":false,"is_disabled":false,"rental_uris":{"android":"levelo://app?vid=f9c09b50-c03f-4806-8dc9-f671cf3d7397","ios":"levelo://app?vid=f9c09b50-c03f-4806-8dc9-f671cf3d7397"},"vehicle_type_id":"4","last_reported":1746209641,"current_range_meters":3200,"station_id":"ce4bgh92rcd13ifvqb50","pricing_plan_id":"cebpf4jnsgd1na2vs0mg"},{"bike_id":"45c4ef28-b139-49c0-8e20-f728fdd58d93","system_id":"levelo_inurba_marseille","lat":43.31066,"lon":5.38344,"is_reserved":false,"is_disabled":false,"rental_uris":{"android":"levelo://app?vid=45c4ef28-b139-49c0-8e20-f728fdd58d93","ios":"levelo://app?vid=45c4ef28-b139-49c0-8e20-f728fdd58d93"},"vehicle_type_id":"4","last_reported":1746209641,"current_range_meters":3200,"station_id":"ce4bgv92rcd13ifvqcr0","pricing_plan_id":"cebpf4jnsgd1na2vs0mg"},{"bike_id":"ba8563b7-67e7-46e4-a399-9a7319022cdb","system_id":"levelo_inurba_marseille","lat":43.24176,"lon":5.39725,"is_reserved":false,"is_disabled":false,"rental_uris":{"android":"levelo://app?vid=ba8563b7-67e7-46e4-a399-9a7319022cdb","ios":"levelo://app?vid=ba8563b7-67e7-46e4-a399-9a7319022cdb"},"vehicle_type_id":"4","last_reported":1746209641,"current_range_meters":3200,"station_id":"ce4bhn12rcd13ifvqgpg","pricing_plan_id":"cebpf4jnsgd1na2vs0mg"},{"bike_id":"87c52ac1-4398-4e79-b1ac-dde9cb3e5cee","system_id":"levelo_inurba_marseille","lat":43.32339,"lon":5.4062,"is_reserved":false,"is_disabled":false,"rental_uris":{"android":"levelo://app?vid=87c52ac1-4398-4e79-b1ac-dde9cb3e5cee","ios":"levelo://app?vid=87c52ac1-4398-4e79-b1ac-dde9cb3e5cee"},"vehicle_type_id":"4","last_reported":1746209641,"current_range_meters":3200,"station_id":"ce4bhq92rcd13ifvqhjg","pricing_plan_id":"cebpf4jnsgd1na2vs0mg"},{"bike_id":"8234082d-4498-45da-9a5f-8e938f42803d","system_id":"levelo_inurba_marseille","lat":43.23195,"lon":5.35555,"is_reserved":false,"is_disabled":false,"rental_uris":{"android":"levelo://app?vid=8234082d-4498-45da-9a5f-8e938f42803d","ios":"levelo://app?vid=8234082d-4498-45da-9a5f-8e938f42803d"},"vehicle_type_id":"4","last_reported":1746209641,"current_range_meters":3200,"station_id":"ce4bhu92rcd13ifvqi70","pricing_plan_id":"cebpf4jnsgd1na2vs0mg"},{"bike_id":"8348ec1d-438b-4c2c-a5e0-1d35ae71937f","system_id":"levelo_inurba_marseille","lat":43.29441,"lon":5.39749,"is_reserved":false,"is_disabled":false,"rental_uris":{"android":"levelo://app?vid=8348ec1d-438b-4c2c-a5e0-1d35ae71937f","ios":"levelo://app?vid=8348ec1d-438b-4c2c-a5e0-1d35ae71937f"},"vehicle_type_id":"4","last_reported":1746209641,"current_range_meters":3600,"station_id":"ce4bh3h2rcd13ifvqdo0","pricing_plan_id":"cebpf4jnsgd1na2vs0mg"},{"bike_id":"d4f3474b-e7b9-49d5-b840-f209ceaf9f76","system_id":"levelo_inurba_marseille","lat":43.26935,"lon":5.38932,"is_reserved":false,"is_disabled":false,"rental_uris":{"android":"levelo://app?vid=d4f3474b-e7b9-49d5-b840-f209ceaf9f76","ios":"levelo://app?vid=d4f3474b-e7b9-49d5-b840-f209ceaf9f76"},"vehicle_type_id":"4","last_reported":1746209641,"current_range_meters":3600,"station_id":"ce4bhhh2rcd13ifvqfl0","pricing_plan_id":"cebpf4jnsgd1na2vs0mg"},{"bike_id":"98baddb9-51ab-4930-9bff-bee6db4c2bc0","system_id":"levelo_inurba_marseille","lat":43.297843,"lon":5.393398,"is_reserved":false,"is_disabled":false,"rental_uris":{"android":"levelo://app?vid=98baddb9-51ab-4930-9bff-bee6db4c2bc0","ios":"levelo://app?vid=98baddb9-51ab-4930-9bff-bee6db4c2bc0"},"vehicle_type_id":"4","last_reported":1746209641,"current_range_meters":3600,"station_id":"chh1huq6cuj3fo74tm60","pricing_plan_id":"cebpf4jnsgd1na2vs0mg"},{"bike_id":"b76f82f8-23d3-441c-a752-b7f4e04ba870","system_id":"levelo_inurba_marseille","lat":43.27916,"lon":5.39571,"is_reserved":false,"is_disabled":false,"rental_uris":{"android":"levelo://app?vid=b76f82f8-23d3-441c-a752-b7f4e04ba870","ios":"levelo://app?vid=b76f82f8-23d3-441c-a752-b7f4e04ba870"},"vehicle_type_id":"4","last_reported":1746209641,"current_range_meters":4000,"station_id":"ce4bhf92rcd13ifvqf40","pricing_plan_id":"cebpf4jnsgd1na2vs0mg"},{"bike_id":"6e04917b-145a-4a0a-8f23-9524c7dc068c","system_id":"levelo_inurba_marseille","lat":43.31752,"lon":5.390232,"is_reserved":false,"is_disabled":false,"rental_uris":{"android":"levelo://app?vid=6e04917b-145a-4a0a-8f23-9524c7dc068c","ios":"levelo://app?vid=6e04917b-145a-4a0a-8f23-9524c7dc068c"},"vehicle_type_id":"4","last_reported":1746209641,"current_range_meters":4000,"station_id":"ce4bhqp2rcd13ifvqhng","pricing_plan_id":"cebpf4jnsgd1na2vs0mg"},{"bike_id":"1c6378e0-8f73-4f41-bbbf-234f67496240","system_id":"levelo_inurba_marseille","lat":43.299201,"lon":5.385771,"is_reserved":false,"is_disabled":false,"rental_uris":{"android":"levelo://app?vid=1c6378e0-8f73-4f41-bbbf-234f67496240","ios":"levelo://app?vid=1c6378e0-8f73-4f41-bbbf-234f67496240"},"vehicle_type_id":"4","last_reported":1746209641,"current_range_meters":4400,"station_id":"ce4bgih2rcd13ifvqba0","pricing_plan_id":"cebpf4jnsgd1na2vs0mg"},{"bike_id":"71687589-58bd-470c-adeb-89d135d8071f","system_id":"levelo_inurba_marseille","lat":43.29256,"lon":5.40897,"is_reserved":false,"is_disabled":false,"rental_uris":{"android":"levelo://app?vid=71687589-58bd-470c-adeb-89d135d8071f","ios":"levelo://app?vid=71687589-58bd-470c-adeb-89d135d8071f"},"vehicle_type_id":"4","last_reported":1746209641,"current_range_meters":4400,"station_id":"ce4bh192rcd13ifvqdc0","pricing_plan_id":"cebpf4jnsgd1na2vs0mg"},{"bike_id":"2be6c5ac-db75-4c9d-95c6-9c66882f14b8","system_id":"levelo_inurba_marseille","lat":43.27898,"lon":5.36298,"is_reserved":false,"is_disabled":false,"rental_uris":{"android":"levelo://app?vid=2be6c5ac-db75-4c9d-95c6-9c66882f14b8","ios":"levelo://app?vid=2be6c5ac-db75-4c9d-95c6-9c66882f14b8"},"vehicle_type_id":"4","last_reported":1746209641,"current_range_meters":4800,"station_id":"","pricing_plan_id":"cebpf4jnsgd1na2vs0mg"},{"bike_id":"5a30d974-fc3c-41fd-bf48-64fa82f56e95","system_id":"levelo_inurba_marseille","lat":43.303996,"lon":5.367103,"is_reserved":false,"is_disabled":false,"rental_uris":{"android":"levelo://app?vid=5a30d974-fc3c-41fd-bf48-64fa82f56e95","ios":"levelo://app?vid=5a30d974-fc3c-41fd-bf48-64fa82f56e95"},"vehicle_type_id":"4","last_reported":1746209641,"current_range_meters":4800,"station_id":"","pricing_plan_id":"cebpf4jnsgd1na2vs0mg"},{"bike_id":"6deb3e48-b255-444f-95a3-c191a87edb2d","system_id":"levelo_inurba_marseille","lat":43.29966,"lon":5.3849,"is_reserved":false,"is_disabled":false,"rental_uris":{"android":"levelo://app?vid=6deb3e48-b255-444f-95a3-c191a87edb2d","ios":"levelo://app?vid=6deb3e48-b255-444f-95a3-c191a87edb2d"},"vehicle_type_id":"4","last_reported":1746209641,"current_range_meters":4800,"station_id":"ce4bgj92rcd13ifvqbd0","pricing_plan_id":"cebpf4jnsgd1na2vs0mg"},{"bike_id":"e38512ff-5b81-4a7f-9389-e4daaa40cc99","system_id":"levelo_inurba_marseille","lat":43.252104,"lon":5.402718,"is_reserved":false,"is_disabled":false,"rental_uris":{"android":"levelo://app?vid=e38512ff-5b81-4a7f-9389-e4daaa40cc99","ios":"levelo://app?vid=e38512ff-5b81-4a7f-9389-e4daaa40cc99"},"vehicle_type_id":"4","last_reported":1746209641,"current_range_meters":4800,"station_id":"ce4bhi12rcd13ifvqfq0","pricing_plan_id":"cebpf4jnsgd1na2vs0mg"},{"bike_id":"3601b31c-ffa5-45bc-afb6-a1aaa1a1683a","system_id":"levelo_inurba_marseille","lat":43.25119,"lon":5.40311,"is_reserved":false,"is_disabled":false,"rental_uris":{"android":"levelo://app?vid=3601b31c-ffa5-45bc-afb6-a1aaa1a1683a","ios":"levelo://app?vid=3601b31c-ffa5-45bc-afb6-a1aaa1a1683a"},"vehicle_type_id":"4","last_reported":1746209641,"current_range_meters":4800,"station_id":"ce4bhlh2rcd13ifvqgig","pricing_plan_id":"cebpf4jnsgd1na2vs0mg"},{"bike_id":"e0c4142d-ff6f-42f2-9bd6-5cd5278aa3a6","system_id":"levelo_inurba_marseille","lat":43.25962,"lon":5.40899,"is_reserved":false,"is_disabled":false,"rental_uris":{"android":"levelo://app?vid=e0c4142d-ff6f-42f2-9bd6-5cd5278aa3a6","ios":"levelo://app?vid=e0c4142d-ff6f-42f2-9bd6-5cd5278aa3a6"},"vehicle_type_id":"4","last_reported":1746209641,"current_range_meters":4800,"station_id":"ce4bhm92rcd13ifvqglg","pricing_plan_id":"cebpf4jnsgd1na2vs0mg"},{"bike_id":"19f46f60-d581-481f-82a9-3af180fdf593","system_id":"levelo_inurba_marseille","lat":43.30933,"lon":5.40147,"is_reserved":false,"is_disabled":false,"rental_uris":{"android":"levelo://app?vid=19f46f60-d581-481f-82a9-3af180fdf593","ios":"levelo://app?vid=19f46f60-d581-481f-82a9-3af180fdf593"},"vehicle_type_id":"4","last_reported":1746209641,"current_range_meters":5600,"station_id":"ce4bgvp2rcd13ifvqct0","pricing_plan_id":"cebpf4jnsgd1na2vs0mg"},{"bike_id":"79d9768a-39f3-4d9f-ad0d-bc8c44dbbdad","system_id":"levelo_inurba_marseille","lat":43.28354,"lon":5.3811,"is_reserved":false,"is_disabled":false,"rental_uris":{"android":"levelo://app?vid=79d9768a-39f3-4d9f-ad0d-bc8c44dbbdad","ios":"levelo://app?vid=79d9768a-39f3-4d9f-ad0d-bc8c44dbbdad"},"vehicle_type_id":"4","last_reported":1746209641,"current_range_meters":5600,"station_id":"ce4bh412rcd13ifvqdr0","pricing_plan_id":"cebpf4jnsgd1na2vs0mg"},{"bike_id":"1e9fbd19-5bb1-41cc-8bea-06f609fdc6cc","system_id":"levelo_inurba_marseille","lat":43.28266,"lon":5.35062,"is_reserved":false,"is_disabled":false,"rental_uris":{"android":"levelo://app?vid=1e9fbd19-5bb1-41cc-8bea-06f609fdc6cc","ios":"levelo://app?vid=1e9fbd19-5bb1-41cc-8bea-06f609fdc6cc"},"vehicle_type_id":"4","last_reported":1746209641,"current_range_meters":5600,"station_id":"ce4bhbp2rcd13ifvqerg","pricing_plan_id":"cebpf4jnsgd1na2vs0mg"},{"bike_id":"51ef9827-05d4-4f72-abc3-c6fec8c5a095","system_id":"levelo_inurba_marseille","lat":43.23152,"lon":5.437155,"is_reserved":false,"is_disabled":false,"rental_uris":{"android":"levelo://app?vid=51ef9827-05d4-4f72-abc3-c6fec8c5a095","ios":"levelo://app?vid=51ef9827-05d4-4f72-abc3-c6fec8c5a095"},"vehicle_type_id":"4","last_reported":1746209641,"current_range_meters":5600,"station_id":"ce4bhmp2rcd13ifvqgog","pricing_plan_id":"cebpf4jnsgd1na2vs0mg"},{"bike_id":"a543c561-d533-4888-8062-640697e16cf5","system_id":"levelo_inurba_marseille","lat":43.24076,"lon":5.37758,"is_reserved":false,"is_disabled":false,"rental_uris":{"android":"levelo://app?vid=a543c561-d533-4888-8062-640697e16cf5","ios":"levelo://app?vid=a543c561-d533-4888-8062-640697e16cf5"},"vehicle_type_id":"4","last_reported":1746209641,"current_range_meters":5600,"station_id":"ce4bhnp2rcd13ifvqgvg","pricing_plan_id":"cebpf4jnsgd1na2vs0mg"},{"bike_id":"cc61cd82-4452-4a2e-a448-738635932180","system_id":"levelo_inurba_marseille","lat":43.26942,"lon":5.40249,"is_reserved":false,"is_disabled":false,"rental_uris":{"android":"levelo://app?vid=cc61cd82-4452-4a2e-a448-738635932180","ios":"levelo://app?vid=cc61cd82-4452-4a2e-a448-738635932180"},"vehicle_type_id":"4","last_reported":1746209641,"current_range_meters":5600,"station_id":"cjm6bp8fraef2m0cb0m0","pricing_plan_id":"cebpf4jnsgd1na2vs0mg"},{"bike_id":"546b47a9-36fb-4d2b-990c-950f98d916c5","system_id":"levelo_inurba_marseille","lat":43.26587,"lon":5.39056,"is_reserved":false,"is_disabled":false,"rental_uris":{"android":"levelo://app?vid=546b47a9-36fb-4d2b-990c-950f98d916c5","ios":"levelo://app?vid=546b47a9-36fb-4d2b-990c-950f98d916c5"},"vehicle_type_id":"4","last_reported":1746209641,"current_range_meters":6000,"station_id":"","pricing_plan_id":"cebpf4jnsgd1na2vs0mg"},{"bike_id":"a297ed3c-9036-43f9-9f8e-f14d3dbd6de4","system_id":"levelo_inurba_marseille","lat":43.30429,"lon":5.38885,"is_reserved":false,"is_disabled":false,"rental_uris":{"android":"levelo://app?vid=a297ed3c-9036-43f9-9f8e-f14d3dbd6de4","ios":"levelo://app?vid=a297ed3c-9036-43f9-9f8e-f14d3dbd6de4"},"vehicle_type_id":"4","last_reported":1746209641,"current_range_meters":6000,"station_id":"ce4bgk12rcd13ifvqbi0","pricing_plan_id":"cebpf4jnsgd1na2vs0mg"},{"bike_id":"2c431eba-b798-49c2-946c-166bb912b489","system_id":"levelo_inurba_marseille","lat":43.25115,"lon":5.4032,"is_reserved":false,"is_disabled":false,"rental_uris":{"android":"levelo://app?vid=2c431eba-b798-49c2-946c-166bb912b489","ios":"levelo://app?vid=2c431eba-b798-49c2-946c-166bb912b489"},"vehicle_type_id":"4","last_reported":1746209641,"current_range_meters":6000,"station_id":"ce4bhlh2rcd13ifvqgig","pricing_plan_id":"cebpf4jnsgd1na2vs0mg"},{"bike_id":"8fb04209-e3a1-47f5-82f4-48d16f99b32a","system_id":"levelo_inurba_marseille","lat":43.32287,"lon":5.38282,"is_reserved":false,"is_disabled":false,"rental_uris":{"android":"levelo://app?vid=8fb04209-e3a1-47f5-82f4-48d16f99b32a","ios":"levelo://app?vid=8fb04209-e3a1-47f5-82f4-48d16f99b32a"},"vehicle_type_id":"4","last_reported":1746209641,"current_range_meters":6000,"station_id":"ce4bhr12rcd13ifvqhqg","pricing_plan_id":"cebpf4jnsgd1na2vs0mg"},{"bike_id":"7bea5553-a71d-44d6-9ae8-e599e1d25625","system_id":"levelo_inurba_marseille","lat":43.32474,"lon":5.36566,"is_reserved":false,"is_disabled":false,"rental_uris":{"android":"levelo://app?vid=7bea5553-a71d-44d6-9ae8-e599e1d25625","ios":"levelo://app?vid=7bea5553-a71d-44d6-9ae8-e599e1d25625"},"vehicle_type_id":"4","last_reported":1746209641,"current_range_meters":6000,"station_id":"ce4bhs12rcd13ifvqhvg","pricing_plan_id":"cebpf4jnsgd1na2vs0mg"},{"bike_id":"9a561534-d67f-48b0-99e9-df234ee2704a","system_id":"levelo_inurba_marseille","lat":43.2942,"lon":5.38622,"is_reserved":false,"is_disabled":false,"rental_uris":{"android":"levelo://app?vid=9a561534-d67f-48b0-99e9-df234ee2704a","ios":"levelo://app?vid=9a561534-d67f-48b0-99e9-df234ee2704a"},"vehicle_type_id":"4","last_reported":1746209641,"current_range_meters":6400,"station_id":"ce4bh2h2rcd13ifvqdh0","pricing_plan_id":"cebpf4jnsgd1na2vs0mg"},{"bike_id":"2ae78602-11b4-4cc9-a7e4-69db5983a0d3","system_id":"levelo_inurba_marseille","lat":43.27319,"lon":5.3907,"is_reserved":false,"is_disabled":false,"rental_uris":{"android":"levelo://app?vid=2ae78602-11b4-4cc9-a7e4-69db5983a0d3","ios":"levelo://app?vid=2ae78602-11b4-4cc9-a7e4-69db5983a0d3"},"vehicle_type_id":"4","last_reported":1746209641,"current_range_meters":6400,"station_id":"ce4bhgp2rcd13ifvqfe0","pricing_plan_id":"cebpf4jnsgd1na2vs0mg"},{"bike_id":"b0709932-f578-4760-a412-c761537988f2","system_id":"levelo_inurba_marseille","lat":43.30175,"lon":5.36629,"is_reserved":false,"is_disabled":false,"rental_uris":{"android":"levelo://app?vid=b0709932-f578-4760-a412-c761537988f2","ios":"levelo://app?vid=b0709932-f578-4760-a412-c761537988f2"},"vehicle_type_id":"4","last_reported":1746209641,"current_range_meters":6800,"station_id":"ce4bgrh2rcd13ifvqc8g","pricing_plan_id":"cebpf4jnsgd1na2vs0mg"},{"bike_id":"ca9c598a-e26b-49a7-b3e1-02cd87e2baf1","system_id":"levelo_inurba_marseille","lat":43.25128,"lon":5.40305,"is_reserved":false,"is_disabled":false,"rental_uris":{"android":"levelo://app?vid=ca9c598a-e26b-49a7-b3e1-02cd87e2baf1","ios":"levelo://app?vid=ca9c598a-e26b-49a7-b3e1-02cd87e2baf1"},"vehicle_type_id":"4","last_reported":1746209641,"current_range_meters":6800,"station_id":"ce4bhlh2rcd13ifvqgig","pricing_plan_id":"cebpf4jnsgd1na2vs0mg"},{"bike_id":"172449a4-0525-496b-b8dd-792d50a6315a","system_id":"levelo_inurba_marseille","lat":43.28376,"lon":5.38647,"is_reserved":false,"is_disabled":false,"rental_uris":{"android":"levelo://app?vid=172449a4-0525-496b-b8dd-792d50a6315a","ios":"levelo://app?vid=172449a4-0525-496b-b8dd-792d50a6315a"},"vehicle_type_id":"4","last_reported":1746209641,"current_range_meters":7200,"station_id":"ce4bh492rcd13ifvqdvg","pricing_plan_id":"cebpf4jnsgd1na2vs0mg"},{"bike_id":"c772c20a-83b2-43c4-80e5-225872d79cfd","system_id":"levelo_inurba_marseille","lat":43.29244,"lon":5.38456,"is_reserved":false,"is_disabled":false,"rental_uris":{"android":"levelo://app?vid=c772c20a-83b2-43c4-80e5-225872d79cfd","ios":"levelo://app?vid=c772c20a-83b2-43c4-80e5-225872d79cfd"},"vehicle_type_id":"4","last_reported":1746209641,"current_range_meters":7200,"station_id":"ce4bh692rcd13ifvqea0","pricing_plan_id":"cebpf4jnsgd1na2vs0mg"},{"bike_id":"4db7b023-408b-4fe5-8c39-f7236ef31f41","system_id":"levelo_inurba_marseille","lat":43.29092,"lon":5.38146,"is_reserved":false,"is_disabled":false,"rental_uris":{"android":"levelo://app?vid=4db7b023-408b-4fe5-8c39-f7236ef31f41","ios":"levelo://app?vid=4db7b023-408b-4fe5-8c39-f7236ef31f41"},"vehicle_type_id":"4","last_reported":1746209641,"current_range_meters":7200,"station_id":"ce4bha92rcd13ifvqeg0","pricing_plan_id":"cebpf4jnsgd1na2vs0mg"},{"bike_id":"da8161d0-570c-46ef-8934-2845d5c6bc00","system_id":"levelo_inurba_marseille","lat":43.29228,"lon":5.36075,"is_reserved":false,"is_disabled":false,"rental_uris":{"android":"levelo://app?vid=da8161d0-570c-46ef-8934-2845d5c6bc00","ios":"levelo://app?vid=da8161d0-570c-46ef-8934-2845d5c6bc00"},"vehicle_type_id":"4","last_reported":1746209641,"current_range_meters":7200,"station_id":"ce4bhbh2rcd13ifvqeqg","pricing_plan_id":"cebpf4jnsgd1na2vs0mg"},{"bike_id":"67ba2343-0071-470b-9a61-2454e0c758bd","system_id":"levelo_inurba_marseille","lat":43.2582,"lon":5.39433,"is_reserved":false,"is_disabled":false,"rental_uris":{"android":"levelo://app?vid=67ba2343-0071-470b-9a61-2454e0c758bd","ios":"levelo://app?vid=67ba2343-0071-470b-9a61-2454e0c758bd"},"vehicle_type_id":"4","last_reported":1746209641,"current_range_meters":7200,"station_id":"ce4bhip2rcd13ifvqft0","pricing_plan_id":"cebpf4jnsgd1na2vs0mg"},{"bike_id":"4c9b4490-27b0-475a-872d-719c9a96f72e","system_id":"levelo_inurba_marseille","lat":43.26805,"lon":5.4027,"is_reserved":false,"is_disabled":false,"rental_uris":{"android":"levelo://app?vid=4c9b4490-27b0-475a-872d-719c9a96f72e","ios":"levelo://app?vid=4c9b4490-27b0-475a-872d-719c9a96f72e"},"vehicle_type_id":"4","last_reported":1746209641,"current_range_meters":7200,"station_id":"ce501612rcd8frsf0b60","pricing_plan_id":"cebpf4jnsgd1na2vs0mg"},{"bike_id":"ba1291bf-568d-477b-8e17-c284858000b8","system_id":"levelo_inurba_marseille","lat":43.33801,"lon":5.37454,"is_reserved":false,"is_disabled":false,"rental_uris":{"android":"levelo://app?vid=ba1291bf-568d-477b-8e17-c284858000b8","ios":"levelo://app?vid=ba1291bf-568d-477b-8e17-c284858000b8"},"vehicle_type_id":"4","last_reported":1746209641,"current_range_meters":8000,"station_id":"","pricing_plan_id":"cebpf4jnsgd1na2vs0mg"},{"bike_id":"7971fe93-5f1d-4a59-8508-b415e64fcb18","system_id":"levelo_inurba_marseille","lat":43.309697,"lon":5.373584,"is_reserved":false,"is_disabled":false,"rental_uris":{"android":"levelo://app?vid=7971fe93-5f1d-4a59-8508-b415e64fcb18","ios":"levelo://app?vid=7971fe93-5f1d-4a59-8508-b415e64fcb18"},"vehicle_type_id":"4","last_reported":1746209641,"current_range_meters":8000,"station_id":"","pricing_plan_id":"cebpf4jnsgd1na2vs0mg"},{"bike_id":"97bbad8e-ed2d-4c1d-b990-87c836259f35","system_id":"levelo_inurba_marseille","lat":43.30269,"lon":5.37699,"is_reserved":false,"is_disabled":false,"rental_uris":{"android":"levelo://app?vid=97bbad8e-ed2d-4c1d-b990-87c836259f35","ios":"levelo://app?vid=97bbad8e-ed2d-4c1d-b990-87c836259f35"},"vehicle_type_id":"4","last_reported":1746209641,"current_range_meters":8000,"station_id":"ce4bguh2rcd13ifvqcj0","pricing_plan_id":"cebpf4jnsgd1na2vs0mg"},{"bike_id":"2b4f1370-8473-4a9d-876a-f3567b395782","system_id":"levelo_inurba_marseille","lat":43.30889,"lon":5.37186,"is_reserved":false,"is_disabled":false,"rental_uris":{"android":"levelo://app?vid=2b4f1370-8473-4a9d-876a-f3567b395782","ios":"levelo://app?vid=2b4f1370-8473-4a9d-876a-f3567b395782"},"vehicle_type_id":"4","last_reported":1746209641,"current_range_meters":8000,"station_id":"ce4bguh2rcd13ifvqckg","pricing_plan_id":"cebpf4jnsgd1na2vs0mg"},{"bike_id":"a9ea11fa-cb63-4daf-a224-a3d8eb66c115","system_id":"levelo_inurba_marseille","lat":43.29555,"lon":5.42286,"is_reserved":false,"is_disabled":false,"rental_uris":{"android":"levelo://app?vid=a9ea11fa-cb63-4daf-a224-a3d8eb66c115","ios":"levelo://app?vid=a9ea11fa-cb63-4daf-a224-a3d8eb66c115"},"vehicle_type_id":"4","last_reported":1746209641,"current_range_meters":8000,"station_id":"ce4bhph2rcd13ifvqhdg","pricing_plan_id":"cebpf4jnsgd1na2vs0mg"},{"bike_id":"02d0bc8c-e756-4ce9-903c-d6c6e41b006c","system_id":"levelo_inurba_marseille","lat":43.3079,"lon":5.43521,"is_reserved":false,"is_disabled":false,"rental_uris":{"android":"levelo://app?vid=02d0bc8c-e756-4ce9-903c-d6c6e41b006c","ios":"levelo://app?vid=02d0bc8c-e756-4ce9-903c-d6c6e41b006c"},"vehicle_type_id":"4","last_reported":1746209641,"current_range_meters":8000,"station_id":"ce4bhph2rcd13ifvqheg","pricing_plan_id":"cebpf4jnsgd1na2vs0mg"},{"bike_id":"4a6851f9-34fb-48f6-8387-4b9c13325bed","system_id":"levelo_inurba_marseille","lat":43.3211,"lon":5.36787,"is_reserved":false,"is_disabled":false,"rental_uris":{"android":"levelo://app?vid=4a6851f9-34fb-48f6-8387-4b9c13325bed","ios":"levelo://app?vid=4a6851f9-34fb-48f6-8387-4b9c13325bed"},"vehicle_type_id":"4","last_reported":1746209641,"current_range_meters":8000,"station_id":"ce4bhrh2rcd13ifvqhug","pricing_plan_id":"cebpf4jnsgd1na2vs0mg"},{"bike_id":"0b2ef19c-899d-45d1-9dba-8c9a1e171105","system_id":"levelo_inurba_marseille","lat":43.26938,"lon":5.4025,"is_reserved":false,"is_disabled":false,"rental_uris":{"android":"levelo://app?vid=0b2ef19c-899d-45d1-9dba-8c9a1e171105","ios":"levelo://app?vid=0b2ef19c-899d-45d1-9dba-8c9a1e171105"},"vehicle_type_id":"4","last_reported":1746209641,"current_range_meters":8000,"station_id":"cjm6bp8fraef2m0cb0m0","pricing_plan_id":"cebpf4jnsgd1na2vs0mg"},{"bike_id":"0d6c5100-7db5-44d0-b9d6-cf2b96014798","system_id":"levelo_inurba_marseille","lat":43.31009,"lon":5.374893,"is_reserved":false,"is_disabled":false,"rental_uris":{"android":"levelo://app?vid=0d6c5100-7db5-44d0-b9d6-cf2b96014798","ios":"levelo://app?vid=0d6c5100-7db5-44d0-b9d6-cf2b96014798"},"vehicle_type_id":"4","last_reported":1746209641,"current_range_meters":8400,"station_id":"","pricing_plan_id":"cebpf4jnsgd1na2vs0mg"},{"bike_id":"a68f2dde-2184-4ea1-a4e3-d539bf941ca1","system_id":"levelo_inurba_marseille","lat":43.29963,"lon":5.38518,"is_reserved":false,"is_disabled":false,"rental_uris":{"android":"levelo://app?vid=a68f2dde-2184-4ea1-a4e3-d539bf941ca1","ios":"levelo://app?vid=a68f2dde-2184-4ea1-a4e3-d539bf941ca1"},"vehicle_type_id":"4","last_reported":1746209641,"current_range_meters":8400,"station_id":"ce4bgj92rcd13ifvqbd0","pricing_plan_id":"cebpf4jnsgd1na2vs0mg"},{"bike_id":"f742e6ea-0b2d-4518-a093-0137b4027d1b","system_id":"levelo_inurba_marseille","lat":43.31157,"lon":5.3873,"is_reserved":false,"is_disabled":false,"rental_uris":{"android":"levelo://app?vid=f742e6ea-0b2d-4518-a093-0137b4027d1b","ios":"levelo://app?vid=f742e6ea-0b2d-4518-a093-0137b4027d1b"},"vehicle_type_id":"4","last_reported":1746209641,"current_range_meters":8400,"station_id":"ce4bgv12rcd13ifvqcp0","pricing_plan_id":"cebpf4jnsgd1na2vs0mg"},{"bike_id":"1d885b38-7fd0-496f-9f80-114ce0e4e8d7","system_id":"levelo_inurba_marseille","lat":43.27668,"lon":5.38866,"is_reserved":false,"is_disabled":false,"rental_uris":{"android":"levelo://app?vid=1d885b38-7fd0-496f-9f80-114ce0e4e8d7","ios":"levelo://app?vid=1d885b38-7fd0-496f-9f80-114ce0e4e8d7"},"vehicle_type_id":"4","last_reported":1746209641,"current_range_meters":8400,"station_id":"ce4bhi12rcd13ifvqfo0","pricing_plan_id":"cebpf4jnsgd1na2vs0mg"},{"bike_id":"03b4c1dc-de10-43ca-86d4-756895e2cccf","system_id":"levelo_inurba_marseille","lat":43.26493,"lon":5.39553,"is_reserved":false,"is_disabled":false,"rental_uris":{"android":"levelo://app?vid=03b4c1dc-de10-43ca-86d4-756895e2cccf","ios":"levelo://app?vid=03b4c1dc-de10-43ca-86d4-756895e2cccf"},"vehicle_type_id":"4","last_reported":1746209641,"current_range_meters":8400,"station_id":"ce4bhi12rcd13ifvqfq0","pricing_plan_id":"cebpf4jnsgd1na2vs0mg"},{"bike_id":"2cbe9895-b61a-4e10-84d6-1db3b08d20aa","system_id":"levelo_inurba_marseille","lat":43.31763,"lon":5.39001,"is_reserved":false,"is_disabled":false,"rental_uris":{"android":"levelo://app?vid=2cbe9895-b61a-4e10-84d6-1db3b08d20aa","ios":"levelo://app?vid=2cbe9895-b61a-4e10-84d6-1db3b08d20aa"},"vehicle_type_id":"4","last_reported":1746209641,"current_range_meters":8400,"station_id":"ce4bhqp2rcd13ifvqhng","pricing_plan_id":"cebpf4jnsgd1na2vs0mg"},{"bike_id":"25c62e8a-6f18-49ec-84e3-c2d88fba5ea7","system_id":"levelo_inurba_marseille","lat":43.29531,"lon":5.38551,"is_reserved":false,"is_disabled":false,"rental_uris":{"android":"levelo://app?vid=25c62e8a-6f18-49ec-84e3-c2d88fba5ea7","ios":"levelo://app?vid=25c62e8a-6f18-49ec-84e3-c2d88fba5ea7"},"vehicle_type_id":"4","last_reported":1746209641,"current_range_meters":8800,"station_id":"ce4bgih2rcd13ifvqba0","pricing_plan_id":"cebpf4jnsgd1na2vs0mg"},{"bike_id":"473647dc-7a0f-436e-aac5-1ff69a5eb362","system_id":"levelo_inurba_marseille","lat":43.30889,"lon":5.37185,"is_reserved":false,"is_disabled":false,"rental_uris":{"android":"levelo://app?vid=473647dc-7a0f-436e-aac5-1ff69a5eb362","ios":"levelo://app?vid=473647dc-7a0f-436e-aac5-1ff69a5eb362"},"vehicle_type_id":"4","last_reported":1746209641,"current_range_meters":8800,"station_id":"ce4bguh2rcd13ifvqckg","pricing_plan_id":"cebpf4jnsgd1na2vs0mg"},{"bike_id":"2f544b44-5946-4163-b816-2d30107d1603","system_id":"levelo_inurba_marseille","lat":43.305855,"lon":5.39316,"is_reserved":false,"is_disabled":false,"rental_uris":{"android":"levelo://app?vid=2f544b44-5946-4163-b816-2d30107d1603","ios":"levelo://app?vid=2f544b44-5946-4163-b816-2d30107d1603"},"vehicle_type_id":"4","last_reported":1746209641,"current_range_meters":8800,"station_id":"ce4bh012rcd13ifvqcv0","pricing_plan_id":"cebpf4jnsgd1na2vs0mg"},{"bike_id":"c4c17bdb-3194-4fe2-8535-157bb412f6c0","system_id":"levelo_inurba_marseille","lat":43.26683,"lon":5.38273,"is_reserved":false,"is_disabled":false,"rental_uris":{"android":"levelo://app?vid=c4c17bdb-3194-4fe2-8535-157bb412f6c0","ios":"levelo://app?vid=c4c17bdb-3194-4fe2-8535-157bb412f6c0"},"vehicle_type_id":"4","last_reported":1746209641,"current_range_meters":8800,"station_id":"ce4bhg92rcd13ifvqf90","pricing_plan_id":"cebpf4jnsgd1na2vs0mg"},{"bike_id":"ac734194-8b3b-4480-83b9-05fa96134e95","system_id":"levelo_inurba_marseille","lat":43.27206,"lon":5.3918,"is_reserved":false,"is_disabled":false,"rental_uris":{"android":"levelo://app?vid=ac734194-8b3b-4480-83b9-05fa96134e95","ios":"levelo://app?vid=ac734194-8b3b-4480-83b9-05fa96134e95"},"vehicle_type_id":"4","last_reported":1746209641,"current_range_meters":8800,"station_id":"ce4bhhp2rcd13ifvqfm0","pricing_plan_id":"cebpf4jnsgd1na2vs0mg"},{"bike_id":"e32ae166-5a56-461e-9939-402a5d4f2318","system_id":"levelo_inurba_marseille","lat":43.30355,"lon":5.41873,"is_reserved":false,"is_disabled":false,"rental_uris":{"android":"levelo://app?vid=e32ae166-5a56-461e-9939-402a5d4f2318","ios":"levelo://app?vid=e32ae166-5a56-461e-9939-402a5d4f2318"},"vehicle_type_id":"4","last_reported":1746209641,"current_range_meters":8800,"station_id":"ce4bhop2rcd13ifvqh7g","pricing_plan_id":"cebpf4jnsgd1na2vs0mg"},{"bike_id":"29a83445-0753-40f4-8ed7-c02207f310e3","system_id":"levelo_inurba_marseille","lat":43.283205,"lon":5.384973,"is_reserved":false,"is_disabled":false,"rental_uris":{"android":"levelo://app?vid=29a83445-0753-40f4-8ed7-c02207f310e3","ios":"levelo://app?vid=29a83445-0753-40f4-8ed7-c02207f310e3"},"vehicle_type_id":"4","last_reported":1746209641,"current_range_meters":9200,"station_id":"","pricing_plan_id":"cebpf4jnsgd1na2vs0mg"},{"bike_id":"045b2767-67d3-41b7-8618-6d27646a5585","system_id":"levelo_inurba_marseille","lat":43.3171,"lon":5.38645,"is_reserved":false,"is_disabled":false,"rental_uris":{"android":"levelo://app?vid=045b2767-67d3-41b7-8618-6d27646a5585","ios":"levelo://app?vid=045b2767-67d3-41b7-8618-6d27646a5585"},"vehicle_type_id":"4","last_reported":1746209641,"current_range_meters":9200,"station_id":"","pricing_plan_id":"cebpf4jnsgd1na2vs0mg"},{"bike_id":"9d6d86fe-71cc-4da4-abc6-f668389cbf78","system_id":"levelo_inurba_marseille","lat":43.24545,"lon":5.39528,"is_reserved":false,"is_disabled":false,"rental_uris":{"android":"levelo://app?vid=9d6d86fe-71cc-4da4-abc6-f668389cbf78","ios":"levelo://app?vid=9d6d86fe-71cc-4da4-abc6-f668389cbf78"},"vehicle_type_id":"4","last_reported":1746209641,"current_range_meters":9200,"station_id":"ce4bhlp2rcd13ifvqgjg","pricing_plan_id":"cebpf4jnsgd1na2vs0mg"},{"bike_id":"e77ff11b-c9a9-437b-8c79-201aa241c7d6","system_id":"levelo_inurba_marseille","lat":43.26229,"lon":5.40417,"is_reserved":false,"is_disabled":false,"rental_uris":{"android":"levelo://app?vid=e77ff11b-c9a9-437b-8c79-201aa241c7d6","ios":"levelo://app?vid=e77ff11b-c9a9-437b-8c79-201aa241c7d6"},"vehicle_type_id":"4","last_reported":1746209641,"current_range_meters":9200,"station_id":"ce4bhmh2rcd13ifvqgmg","pricing_plan_id":"cebpf4jnsgd1na2vs0mg"},{"bike_id":"bbebdf63-66d4-4c01-abd2-e3b49b6b0b31","system_id":"levelo_inurba_marseille","lat":43.32359,"lon":5.38878,"is_reserved":false,"is_disabled":false,"rental_uris":{"android":"levelo://app?vid=bbebdf63-66d4-4c01-abd2-e3b49b6b0b31","ios":"levelo://app?vid=bbebdf63-66d4-4c01-abd2-e3b49b6b0b31"},"vehicle_type_id":"4","last_reported":1746209641,"current_range_meters":9200,"station_id":"ce4bhqp2rcd13ifvqhog","pricing_plan_id":"cebpf4jnsgd1na2vs0mg"},{"bike_id":"1600c9da-b908-4757-bbb0-3f5bc73d8729","system_id":"levelo_inurba_marseille","lat":43.28614,"lon":5.37074,"is_reserved":false,"is_disabled":false,"rental_uris":{"android":"levelo://app?vid=1600c9da-b908-4757-bbb0-3f5bc73d8729","ios":"levelo://app?vid=1600c9da-b908-4757-bbb0-3f5bc73d8729"},"vehicle_type_id":"4","last_reported":1746209641,"current_range_meters":9200,"station_id":"ce4bht12rcd13ifvqi60","pricing_plan_id":"cebpf4jnsgd1na2vs0mg"},{"bike_id":"4a54ad5b-f587-4e8b-ab54-8ec108d9f61e","system_id":"levelo_inurba_marseille","lat":43.2694,"lon":5.40264,"is_reserved":false,"is_disabled":false,"rental_uris":{"android":"levelo://app?vid=4a54ad5b-f587-4e8b-ab54-8ec108d9f61e","ios":"levelo://app?vid=4a54ad5b-f587-4e8b-ab54-8ec108d9f61e"},"vehicle_type_id":"4","last_reported":1746209641,"current_range_meters":9200,"station_id":"cjm6bp8fraef2m0cb0m0","pricing_plan_id":"cebpf4jnsgd1na2vs0mg"},{"bike_id":"5909d7d8-3c45-48b4-a719-9cc435e0234a","system_id":"levelo_inurba_marseille","lat":43.24809,"lon":5.37443,"is_reserved":false,"is_disabled":false,"rental_uris":{"android":"levelo://app?vid=5909d7d8-3c45-48b4-a719-9cc435e0234a","ios":"levelo://app?vid=5909d7d8-3c45-48b4-a719-9cc435e0234a"},"vehicle_type_id":"4","last_reported":1746209641,"current_range_meters":9600,"station_id":"ce4bhgh2rcd13ifvqfb0","pricing_plan_id":"cebpf4jnsgd1na2vs0mg"},{"bike_id":"294d3ef3-4301-4b71-b09e-43b798b4b7cb","system_id":"levelo_inurba_marseille","lat":43.23202,"lon":5.39961,"is_reserved":false,"is_disabled":false,"rental_uris":{"android":"levelo://app?vid=294d3ef3-4301-4b71-b09e-43b798b4b7cb","ios":"levelo://app?vid=294d3ef3-4301-4b71-b09e-43b798b4b7cb"},"vehicle_type_id":"4","last_reported":1746209641,"current_range_meters":9600,"station_id":"ce4bhn12rcd13ifvqgqg","pricing_plan_id":"cebpf4jnsgd1na2vs0mg"},{"bike_id":"9f5d1477-1a0b-4ab7-bf49-958ce5caccd6","system_id":"levelo_inurba_marseille","lat":43.29555,"lon":5.4228,"is_reserved":false,"is_disabled":false,"rental_uris":{"android":"levelo://app?vid=9f5d1477-1a0b-4ab7-bf49-958ce5caccd6","ios":"levelo://app?vid=9f5d1477-1a0b-4ab7-bf49-958ce5caccd6"},"vehicle_type_id":"4","last_reported":1746209641,"current_range_meters":9600,"station_id":"ce4bhph2rcd13ifvqhdg","pricing_plan_id":"cebpf4jnsgd1na2vs0mg"},{"bike_id":"80cee7d3-d51f-46d3-9db2-cce9d197ca75","system_id":"levelo_inurba_marseille","lat":43.32852,"lon":5.39916,"is_reserved":false,"is_disabled":false,"rental_uris":{"android":"levelo://app?vid=80cee7d3-d51f-46d3-9db2-cce9d197ca75","ios":"levelo://app?vid=80cee7d3-d51f-46d3-9db2-cce9d197ca75"},"vehicle_type_id":"4","last_reported":1746209641,"current_range_meters":10000,"station_id":"","pricing_plan_id":"cebpf4jnsgd1na2vs0mg"},{"bike_id":"79eaa939-46cc-4df7-8380-4a0199ff597a","system_id":"levelo_inurba_marseille","lat":43.23181,"lon":5.39988,"is_reserved":false,"is_disabled":false,"rental_uris":{"android":"levelo://app?vid=79eaa939-46cc-4df7-8380-4a0199ff597a","ios":"levelo://app?vid=79eaa939-46cc-4df7-8380-4a0199ff597a"},"vehicle_type_id":"4","last_reported":1746209641,"current_range_meters":10000,"station_id":"ce4bhn12rcd13ifvqgqg","pricing_plan_id":"cebpf4jnsgd1na2vs0mg"},{"bike_id":"52653438-d935-4f61-a0a5-dc59b768eafc","system_id":"levelo_inurba_marseille","lat":43.32359,"lon":5.36772,"is_reserved":false,"is_disabled":false,"rental_uris":{"android":"levelo://app?vid=52653438-d935-4f61-a0a5-dc59b768eafc","ios":"levelo://app?vid=52653438-d935-4f61-a0a5-dc59b768eafc"},"vehicle_type_id":"4","last_reported":1746209641,"current_range_meters":10000,"station_id":"ce4bhsh2rcd13ifvqi2g","pricing_plan_id":"cebpf4jnsgd1na2vs0mg"},{"bike_id":"b5e90adb-6ca6-4080-b26b-2fafa36c2985","system_id":"levelo_inurba_marseille","lat":43.26945,"lon":5.40251,"is_reserved":false,"is_disabled":false,"rental_uris":{"android":"levelo://app?vid=b5e90adb-6ca6-4080-b26b-2fafa36c2985","ios":"levelo://app?vid=b5e90adb-6ca6-4080-b26b-2fafa36c2985"},"vehicle_type_id":"4","last_reported":1746209641,"current_range_meters":10000,"station_id":"cjm6bp8fraef2m0cb0m0","pricing_plan_id":"cebpf4jnsgd1na2vs0mg"},{"bike_id":"4ead40b4-06ab-4507-a2c1-863181911ae8","system_id":"levelo_inurba_marseille","lat":43.2953,"lon":5.37509,"is_reserved":false,"is_disabled":false,"rental_uris":{"android":"levelo://app?vid=4ead40b4-06ab-4507-a2c1-863181911ae8","ios":"levelo://app?vid=4ead40b4-06ab-4507-a2c1-863181911ae8"},"vehicle_type_id":"4","last_reported":1746209641,"current_range_meters":10800,"station_id":"ce4bgkp2rcd13ifvqbmg","pricing_plan_id":"cebpf4jnsgd1na2vs0mg"},{"bike_id":"be51d310-1ea8-4220-a330-efc8c4688d5f","system_id":"levelo_inurba_marseille","lat":43.2846,"lon":5.35889,"is_reserved":false,"is_disabled":false,"rental_uris":{"android":"levelo://app?vid=be51d310-1ea8-4220-a330-efc8c4688d5f","ios":"levelo://app?vid=be51d310-1ea8-4220-a330-efc8c4688d5f"},"vehicle_type_id":"4","last_reported":1746209641,"current_range_meters":10800,"station_id":"ce4bhah2rcd13ifvqei0","pricing_plan_id":"cebpf4jnsgd1na2vs0mg"},{"bike_id":"21084c0c-0c8a-44c5-9d7a-2a67524c7a0f","system_id":"levelo_inurba_marseille","lat":43.24394,"lon":5.37028,"is_reserved":false,"is_disabled":false,"rental_uris":{"android":"levelo://app?vid=21084c0c-0c8a-44c5-9d7a-2a67524c7a0f","ios":"levelo://app?vid=21084c0c-0c8a-44c5-9d7a-2a67524c7a0f"},"vehicle_type_id":"4","last_reported":1746209641,"current_range_meters":10800,"station_id":"ce4bhhh2rcd13ifvqfk0","pricing_plan_id":"cebpf4jnsgd1na2vs0mg"},{"bike_id":"71806e86-02c1-4144-9a17-f1101f8a5178","system_id":"levelo_inurba_marseille","lat":43.27808,"lon":5.40717,"is_reserved":false,"is_disabled":false,"rental_uris":{"android":"levelo://app?vid=71806e86-02c1-4144-9a17-f1101f8a5178","ios":"levelo://app?vid=71806e86-02c1-4144-9a17-f1101f8a5178"},"vehicle_type_id":"4","last_reported":1746209641,"current_range_meters":10800,"station_id":"ce4bhnh2rcd13ifvqgtg","pricing_plan_id":"cebpf4jnsgd1na2vs0mg"},{"bike_id":"00a090c2-ef5c-4f77-aa70-e468ee45a302","system_id":"levelo_inurba_marseille","lat":43.304158,"lon":5.41287,"is_reserved":false,"is_disabled":false,"rental_uris":{"android":"levelo://app?vid=00a090c2-ef5c-4f77-aa70-e468ee45a302","ios":"levelo://app?vid=00a090c2-ef5c-4f77-aa70-e468ee45a302"},"vehicle_type_id":"4","last_reported":1746209641,"current_range_meters":10800,"station_id":"ce4bhop2rcd13ifvqh8g","pricing_plan_id":"cebpf4jnsgd1na2vs0mg"},{"bike_id":"6d74a9f5-3f03-4e8e-aa3b-29a84082925f","system_id":"levelo_inurba_marseille","lat":43.229336,"lon":5.353749,"is_reserved":false,"is_disabled":false,"rental_uris":{"android":"levelo://app?vid=6d74a9f5-3f03-4e8e-aa3b-29a84082925f","ios":"levelo://app?vid=6d74a9f5-3f03-4e8e-aa3b-29a84082925f"},"vehicle_type_id":"4","last_reported":1746209641,"current_range_meters":10800,"station_id":"cpo3532slgdg3j2ikp40","pricing_plan_id":"cebpf4jnsgd1na2vs0mg"},{"bike_id":"ad066e59-a566-49db-8350-c9ab62e83f04","system_id":"levelo_inurba_marseille","lat":43.29196,"lon":5.39327,"is_reserved":false,"is_disabled":false,"rental_uris":{"android":"levelo://app?vid=ad066e59-a566-49db-8350-c9ab62e83f04","ios":"levelo://app?vid=ad066e59-a566-49db-8350-c9ab62e83f04"},"vehicle_type_id":"4","last_reported":1746209641,"current_range_meters":11200,"station_id":"ce4bh192rcd13ifvqdd0","pricing_plan_id":"cebpf4jnsgd1na2vs0mg"},{"bike_id":"c22d653a-8195-4248-bf02-9237c30a60b1","system_id":"levelo_inurba_marseille","lat":43.29419,"lon":5.38621,"is_reserved":false,"is_disabled":false,"rental_uris":{"android":"levelo://app?vid=c22d653a-8195-4248-bf02-9237c30a60b1","ios":"levelo://app?vid=c22d653a-8195-4248-bf02-9237c30a60b1"},"vehicle_type_id":"4","last_reported":1746209641,"current_range_meters":11200,"station_id":"ce4bh2h2rcd13ifvqdh0","pricing_plan_id":"cebpf4jnsgd1na2vs0mg"},{"bike_id":"0f2ef0ff-3fb2-4704-ac7c-04a7eed56211","system_id":"levelo_inurba_marseille","lat":43.28938,"lon":5.3664,"is_reserved":false,"is_disabled":false,"rental_uris":{"android":"levelo://app?vid=0f2ef0ff-3fb2-4704-ac7c-04a7eed56211","ios":"levelo://app?vid=0f2ef0ff-3fb2-4704-ac7c-04a7eed56211"},"vehicle_type_id":"4","last_reported":1746209641,"current_range_meters":11200,"station_id":"ce4bhap2rcd13ifvqek0","pricing_plan_id":"cebpf4jnsgd1na2vs0mg"},{"bike_id":"313f19ff-8c45-4a02-b367-c6a7c2d5e214","system_id":"levelo_inurba_marseille","lat":43.27494,"lon":5.42453,"is_reserved":false,"is_disabled":false,"rental_uris":{"android":"levelo://app?vid=313f19ff-8c45-4a02-b367-c6a7c2d5e214","ios":"levelo://app?vid=313f19ff-8c45-4a02-b367-c6a7c2d5e214"},"vehicle_type_id":"4","last_reported":1746209641,"current_range_meters":11200,"station_id":"ce4bhn92rcd13ifvqgrg","pricing_plan_id":"cebpf4jnsgd1na2vs0mg"},{"bike_id":"bd7597b7-eb6e-4f57-a7df-e0aef453e385","system_id":"levelo_inurba_marseille","lat":43.29572,"lon":5.42254,"is_reserved":false,"is_disabled":false,"rental_uris":{"android":"levelo://app?vid=bd7597b7-eb6e-4f57-a7df-e0aef453e385","ios":"levelo://app?vid=bd7597b7-eb6e-4f57-a7df-e0aef453e385"},"vehicle_type_id":"4","last_reported":1746209641,"current_range_meters":11200,"station_id":"ce4bhph2rcd13ifvqhdg","pricing_plan_id":"cebpf4jnsgd1na2vs0mg"},{"bike_id":"f48f6a8a-46ce-4c79-8fb0-19652a738d42","system_id":"levelo_inurba_marseille","lat":43.36165,"lon":5.44199,"is_reserved":false,"is_disabled":false,"rental_uris":{"android":"levelo://app?vid=f48f6a8a-46ce-4c79-8fb0-19652a738d42","ios":"levelo://app?vid=f48f6a8a-46ce-4c79-8fb0-19652a738d42"},"vehicle_type_id":"4","last_reported":1746209641,"current_range_meters":11600,"station_id":"","pricing_plan_id":"cebpf4jnsgd1na2vs0mg"},{"bike_id":"a1ca96bf-c618-4846-a5a4-db3c92745600","system_id":"levelo_inurba_marseille","lat":43.2942,"lon":5.386236,"is_reserved":false,"is_disabled":false,"rental_uris":{"android":"levelo://app?vid=a1ca96bf-c618-4846-a5a4-db3c92745600","ios":"levelo://app?vid=a1ca96bf-c618-4846-a5a4-db3c92745600"},"vehicle_type_id":"4","last_reported":1746209641,"current_range_meters":11600,"station_id":"ce4bh2h2rcd13ifvqdh0","pricing_plan_id":"cebpf4jnsgd1na2vs0mg"},{"bike_id":"d5e583d3-e93c-44d2-be32-61436dcd8959","system_id":"levelo_inurba_marseille","lat":43.295339,"lon":5.422835,"is_reserved":false,"is_disabled":false,"rental_uris":{"android":"levelo://app?vid=d5e583d3-e93c-44d2-be32-61436dcd8959","ios":"levelo://app?vid=d5e583d3-e93c-44d2-be32-61436dcd8959"},"vehicle_type_id":"4","last_reported":1746209641,"current_range_meters":11600,"station_id":"ce4bhph2rcd13ifvqhdg","pricing_plan_id":"cebpf4jnsgd1na2vs0mg"},{"bike_id":"5b094917-c175-4b9b-abeb-88fd43cf31ed","system_id":"levelo_inurba_marseille","lat":43.29577,"lon":5.42293,"is_reserved":false,"is_disabled":false,"rental_uris":{"android":"levelo://app?vid=5b094917-c175-4b9b-abeb-88fd43cf31ed","ios":"levelo://app?vid=5b094917-c175-4b9b-abeb-88fd43cf31ed"},"vehicle_type_id":"4","last_reported":1746209641,"current_range_meters":11600,"station_id":"ce4bhph2rcd13ifvqhdg","pricing_plan_id":"cebpf4jnsgd1na2vs0mg"},{"bike_id":"bc72a6b6-69b2-496e-8d79-0cd2137532a7","system_id":"levelo_inurba_marseille","lat":43.3266,"lon":5.40996,"is_reserved":false,"is_disabled":false,"rental_uris":{"android":"levelo://app?vid=bc72a6b6-69b2-496e-8d79-0cd2137532a7","ios":"levelo://app?vid=bc72a6b6-69b2-496e-8d79-0cd2137532a7"},"vehicle_type_id":"4","last_reported":1746209641,"current_range_meters":11600,"station_id":"ce4bhpp2rcd13ifvqhgg","pricing_plan_id":"cebpf4jnsgd1na2vs0mg"},{"bike_id":"715d4ccd-4d07-4967-8be3-b199930f65b6","system_id":"levelo_inurba_marseille","lat":43.31059,"lon":5.40093,"is_reserved":false,"is_disabled":false,"rental_uris":{"android":"levelo://app?vid=715d4ccd-4d07-4967-8be3-b199930f65b6","ios":"levelo://app?vid=715d4ccd-4d07-4967-8be3-b199930f65b6"},"vehicle_type_id":"4","last_reported":1746209641,"current_range_meters":12000,"station_id":"","pricing_plan_id":"cebpf4jnsgd1na2vs0mg"},{"bike_id":"e0e163c0-b70c-478b-a240-966060226969","system_id":"levelo_inurba_marseille","lat":43.29236,"lon":5.36196,"is_reserved":false,"is_disabled":false,"rental_uris":{"android":"levelo://app?vid=e0e163c0-b70c-478b-a240-966060226969","ios":"levelo://app?vid=e0e163c0-b70c-478b-a240-966060226969"},"vehicle_type_id":"4","last_reported":1746209641,"current_range_meters":12000,"station_id":"","pricing_plan_id":"cebpf4jnsgd1na2vs0mg"},{"bike_id":"6c097222-d13c-4928-b7f0-da1f1f954334","system_id":"levelo_inurba_marseille","lat":43.26203,"lon":5.37931,"is_reserved":false,"is_disabled":false,"rental_uris":{"android":"levelo://app?vid=6c097222-d13c-4928-b7f0-da1f1f954334","ios":"levelo://app?vid=6c097222-d13c-4928-b7f0-da1f1f954334"},"vehicle_type_id":"4","last_reported":1746209641,"current_range_meters":12000,"station_id":"ce4bhjp2rcd13ifvqg90","pricing_plan_id":"cebpf4jnsgd1na2vs0mg"},{"bike_id":"e01fd626-5a42-425b-b4b2-c4deada8f1e2","system_id":"levelo_inurba_marseille","lat":43.30884,"lon":5.37201,"is_reserved":false,"is_disabled":false,"rental_uris":{"android":"levelo://app?vid=e01fd626-5a42-425b-b4b2-c4deada8f1e2","ios":"levelo://app?vid=e01fd626-5a42-425b-b4b2-c4deada8f1e2"},"vehicle_type_id":"4","last_reported":1746209641,"current_range_meters":12400,"station_id":"ce4bguh2rcd13ifvqckg","pricing_plan_id":"cebpf4jnsgd1na2vs0mg"},{"bike_id":"d651ace8-99b4-4298-950a-fa8b7e20495c","system_id":"levelo_inurba_marseille","lat":43.29247,"lon":5.3845,"is_reserved":false,"is_disabled":false,"rental_uris":{"android":"levelo://app?vid=d651ace8-99b4-4298-950a-fa8b7e20495c","ios":"levelo://app?vid=d651ace8-99b4-4298-950a-fa8b7e20495c"},"vehicle_type_id":"4","last_reported":1746209641,"current_range_meters":12400,"station_id":"ce4bh692rcd13ifvqea0","pricing_plan_id":"cebpf4jnsgd1na2vs0mg"},{"bike_id":"1cbd2721-1e4d-432b-8d1a-7aaa4c670dc8","system_id":"levelo_inurba_marseille","lat":43.27214,"lon":5.3918,"is_reserved":false,"is_disabled":false,"rental_uris":{"android":"levelo://app?vid=1cbd2721-1e4d-432b-8d1a-7aaa4c670dc8","ios":"levelo://app?vid=1cbd2721-1e4d-432b-8d1a-7aaa4c670dc8"},"vehicle_type_id":"4","last_reported":1746209641,"current_range_meters":12400,"station_id":"ce4bhhp2rcd13ifvqfm0","pricing_plan_id":"cebpf4jnsgd1na2vs0mg"},{"bike_id":"2cce8745-f47d-491d-9776-93cf9f036027","system_id":"levelo_inurba_marseille","lat":43.30814,"lon":5.43523,"is_reserved":false,"is_disabled":false,"rental_uris":{"android":"levelo://app?vid=2cce8745-f47d-491d-9776-93cf9f036027","ios":"levelo://app?vid=2cce8745-f47d-491d-9776-93cf9f036027"},"vehicle_type_id":"4","last_reported":1746209641,"current_range_meters":12400,"station_id":"ce4bhph2rcd13ifvqheg","pricing_plan_id":"cebpf4jnsgd1na2vs0mg"},{"bike_id":"2fa6d941-7f1a-4e85-9b97-98141b282f87","system_id":"levelo_inurba_marseille","lat":43.26938,"lon":5.40257,"is_reserved":false,"is_disabled":false,"rental_uris":{"android":"levelo://app?vid=2fa6d941-7f1a-4e85-9b97-98141b282f87","ios":"levelo://app?vid=2fa6d941-7f1a-4e85-9b97-98141b282f87"},"vehicle_type_id":"4","last_reported":1746209641,"current_range_meters":12400,"station_id":"cjm6bp8fraef2m0cb0m0","pricing_plan_id":"cebpf4jnsgd1na2vs0mg"},{"bike_id":"72029b00-1767-427f-ae65-686cc405abf2","system_id":"levelo_inurba_marseille","lat":43.2841,"lon":5.37526,"is_reserved":false,"is_disabled":false,"rental_uris":{"android":"levelo://app?vid=72029b00-1767-427f-ae65-686cc405abf2","ios":"levelo://app?vid=72029b00-1767-427f-ae65-686cc405abf2"},"vehicle_type_id":"4","last_reported":1746209641,"current_range_meters":12800,"station_id":"ce4bh412rcd13ifvqds0","pricing_plan_id":"cebpf4jnsgd1na2vs0mg"},{"bike_id":"9c2eb1b5-08f4-4e63-b6c1-e1c9b35720da","system_id":"levelo_inurba_marseille","lat":43.291972,"lon":5.358045,"is_reserved":false,"is_disabled":false,"rental_uris":{"android":"levelo://app?vid=9c2eb1b5-08f4-4e63-b6c1-e1c9b35720da","ios":"levelo://app?vid=9c2eb1b5-08f4-4e63-b6c1-e1c9b35720da"},"vehicle_type_id":"4","last_reported":1746209641,"current_range_meters":12800,"station_id":"ce4bhb12rcd13ifvqel0","pricing_plan_id":"cebpf4jnsgd1na2vs0mg"},{"bike_id":"1d7b6ae0-2914-4718-9359-9dc1b5a0be52","system_id":"levelo_inurba_marseille","lat":43.29561,"lon":5.42286,"is_reserved":false,"is_disabled":false,"rental_uris":{"android":"levelo://app?vid=1d7b6ae0-2914-4718-9359-9dc1b5a0be52","ios":"levelo://app?vid=1d7b6ae0-2914-4718-9359-9dc1b5a0be52"},"vehicle_type_id":"4","last_reported":1746209641,"current_range_meters":12800,"station_id":"ce4bhph2rcd13ifvqhdg","pricing_plan_id":"cebpf4jnsgd1na2vs0mg"},{"bike_id":"c22c3dfd-2f07-45f9-8c76-4720b971b22c","system_id":"levelo_inurba_marseille","lat":43.23196,"lon":5.35556,"is_reserved":false,"is_disabled":false,"rental_uris":{"android":"levelo://app?vid=c22c3dfd-2f07-45f9-8c76-4720b971b22c","ios":"levelo://app?vid=c22c3dfd-2f07-45f9-8c76-4720b971b22c"},"vehicle_type_id":"4","last_reported":1746209641,"current_range_meters":12800,"station_id":"ce4bhu92rcd13ifvqi70","pricing_plan_id":"cebpf4jnsgd1na2vs0mg"},{"bike_id":"5986d05a-95d4-4683-8197-8b61fb59307d","system_id":"levelo_inurba_marseille","lat":43.30327,"lon":5.40423,"is_reserved":false,"is_disabled":false,"rental_uris":{"android":"levelo://app?vid=5986d05a-95d4-4683-8197-8b61fb59307d","ios":"levelo://app?vid=5986d05a-95d4-4683-8197-8b61fb59307d"},"vehicle_type_id":"4","last_reported":1746209641,"current_range_meters":13600,"station_id":"ce4bh012rcd13ifvqd10","pricing_plan_id":"cebpf4jnsgd1na2vs0mg"},{"bike_id":"f895bee1-8198-4959-adb7-c48e4fbdcbf6","system_id":"levelo_inurba_marseille","lat":43.23969,"lon":5.36631,"is_reserved":false,"is_disabled":false,"rental_uris":{"android":"levelo://app?vid=f895bee1-8198-4959-adb7-c48e4fbdcbf6","ios":"levelo://app?vid=f895bee1-8198-4959-adb7-c48e4fbdcbf6"},"vehicle_type_id":"4","last_reported":1746209641,"current_range_meters":13600,"station_id":"ce4bhi12rcd13ifvqfp0","pricing_plan_id":"cebpf4jnsgd1na2vs0mg"},{"bike_id":"6bcfafe9-e0dc-4830-a2ef-8fbcb15314a2","system_id":"levelo_inurba_marseille","lat":43.29559,"lon":5.4229,"is_reserved":false,"is_disabled":false,"rental_uris":{"android":"levelo://app?vid=6bcfafe9-e0dc-4830-a2ef-8fbcb15314a2","ios":"levelo://app?vid=6bcfafe9-e0dc-4830-a2ef-8fbcb15314a2"},"vehicle_type_id":"4","last_reported":1746209641,"current_range_meters":13600,"station_id":"ce4bhph2rcd13ifvqhdg","pricing_plan_id":"cebpf4jnsgd1na2vs0mg"},{"bike_id":"cfc5f69c-169a-4dba-b60a-03c696edbc40","system_id":"levelo_inurba_marseille","lat":43.33447,"lon":5.40048,"is_reserved":false,"is_disabled":false,"rental_uris":{"android":"levelo://app?vid=cfc5f69c-169a-4dba-b60a-03c696edbc40","ios":"levelo://app?vid=cfc5f69c-169a-4dba-b60a-03c696edbc40"},"vehicle_type_id":"4","last_reported":1746209641,"current_range_meters":14000,"station_id":"","pricing_plan_id":"cebpf4jnsgd1na2vs0mg"},{"bike_id":"e576a763-a096-4cea-ad63-380bc3bea14d","system_id":"levelo_inurba_marseille","lat":43.31078,"lon":5.38358,"is_reserved":false,"is_disabled":false,"rental_uris":{"android":"levelo://app?vid=e576a763-a096-4cea-ad63-380bc3bea14d","ios":"levelo://app?vid=e576a763-a096-4cea-ad63-380bc3bea14d"},"vehicle_type_id":"4","last_reported":1746209641,"current_range_meters":14000,"station_id":"ce4bgv92rcd13ifvqcr0","pricing_plan_id":"cebpf4jnsgd1na2vs0mg"},{"bike_id":"fd2c3c67-23a6-4380-b7ca-8f23c8f78921","system_id":"levelo_inurba_marseille","lat":43.323626,"lon":5.36765,"is_reserved":false,"is_disabled":false,"rental_uris":{"android":"levelo://app?vid=fd2c3c67-23a6-4380-b7ca-8f23c8f78921","ios":"levelo://app?vid=fd2c3c67-23a6-4380-b7ca-8f23c8f78921"},"vehicle_type_id":"4","last_reported":1746209641,"current_range_meters":14000,"station_id":"ce4bhsh2rcd13ifvqi2g","pricing_plan_id":"cebpf4jnsgd1na2vs0mg"},{"bike_id":"11082442-7b87-422d-89f9-3d6d709fa9c9","system_id":"levelo_inurba_marseille","lat":43.27207,"lon":5.39187,"is_reserved":false,"is_disabled":false,"rental_uris":{"android":"levelo://app?vid=11082442-7b87-422d-89f9-3d6d709fa9c9","ios":"levelo://app?vid=11082442-7b87-422d-89f9-3d6d709fa9c9"},"vehicle_type_id":"4","last_reported":1746209641,"current_range_meters":14400,"station_id":"ce4bhhp2rcd13ifvqfm0","pricing_plan_id":"cebpf4jnsgd1na2vs0mg"},{"bike_id":"4f78c781-2fed-47ae-8df2-efbd958cb8ed","system_id":"levelo_inurba_marseille","lat":43.2953,"lon":5.38547,"is_reserved":false,"is_disabled":false,"rental_uris":{"android":"levelo://app?vid=4f78c781-2fed-47ae-8df2-efbd958cb8ed","ios":"levelo://app?vid=4f78c781-2fed-47ae-8df2-efbd958cb8ed"},"vehicle_type_id":"4","last_reported":1746209641,"current_range_meters":14800,"station_id":"ce4bgih2rcd13ifvqba0","pricing_plan_id":"cebpf4jnsgd1na2vs0mg"},{"bike_id":"532799e8-f6e7-4271-924d-1b64d7b479f6","system_id":"levelo_inurba_marseille","lat":43.30437,"lon":5.398514,"is_reserved":false,"is_disabled":false,"rental_uris":{"android":"levelo://app?vid=532799e8-f6e7-4271-924d-1b64d7b479f6","ios":"levelo://app?vid=532799e8-f6e7-4271-924d-1b64d7b479f6"},"vehicle_type_id":"4","last_reported":1746209641,"current_range_meters":14800,"station_id":"ce4bh092rcd13ifvqd30","pricing_plan_id":"cebpf4jnsgd1na2vs0mg"},{"bike_id":"2fc7066a-3168-4b00-a4fc-ece640118f70","system_id":"levelo_inurba_marseille","lat":43.28397,"lon":5.37507,"is_reserved":false,"is_disabled":false,"rental_uris":{"android":"levelo://app?vid=2fc7066a-3168-4b00-a4fc-ece640118f70","ios":"levelo://app?vid=2fc7066a-3168-4b00-a4fc-ece640118f70"},"vehicle_type_id":"4","last_reported":1746209641,"current_range_meters":14800,"station_id":"ce4bh412rcd13ifvqds0","pricing_plan_id":"cebpf4jnsgd1na2vs0mg"},{"bike_id":"570b486c-50df-4f1f-97df-caa86c0d419e","system_id":"levelo_inurba_marseille","lat":43.32905,"lon":5.3551,"is_reserved":false,"is_disabled":false,"rental_uris":{"android":"levelo://app?vid=570b486c-50df-4f1f-97df-caa86c0d419e","ios":"levelo://app?vid=570b486c-50df-4f1f-97df-caa86c0d419e"},"vehicle_type_id":"4","last_reported":1746209641,"current_range_meters":15200,"station_id":"","pricing_plan_id":"cebpf4jnsgd1na2vs0mg"},{"bike_id":"ca5fabd5-2041-49f7-8efa-5b1e1a132dfc","system_id":"levelo_inurba_marseille","lat":43.32963,"lon":5.359125,"is_reserved":false,"is_disabled":false,"rental_uris":{"android":"levelo://app?vid=ca5fabd5-2041-49f7-8efa-5b1e1a132dfc","ios":"levelo://app?vid=ca5fabd5-2041-49f7-8efa-5b1e1a132dfc"},"vehicle_type_id":"4","last_reported":1746209641,"current_range_meters":15200,"station_id":"","pricing_plan_id":"cebpf4jnsgd1na2vs0mg"},{"bike_id":"78fcfd41-ff4a-4c7a-8ff7-bcad7ad8ebd7","system_id":"levelo_inurba_marseille","lat":43.29286,"lon":5.37457,"is_reserved":false,"is_disabled":false,"rental_uris":{"android":"levelo://app?vid=78fcfd41-ff4a-4c7a-8ff7-bcad7ad8ebd7","ios":"levelo://app?vid=78fcfd41-ff4a-4c7a-8ff7-bcad7ad8ebd7"},"vehicle_type_id":"4","last_reported":1746209641,"current_range_meters":15200,"station_id":"ce4bgi12rcd13ifvqb70","pricing_plan_id":"cebpf4jnsgd1na2vs0mg"},{"bike_id":"082410eb-037d-4276-8bf4-2dc17ca2ec29","system_id":"levelo_inurba_marseille","lat":43.29524,"lon":5.3854,"is_reserved":false,"is_disabled":false,"rental_uris":{"android":"levelo://app?vid=082410eb-037d-4276-8bf4-2dc17ca2ec29","ios":"levelo://app?vid=082410eb-037d-4276-8bf4-2dc17ca2ec29"},"vehicle_type_id":"4","last_reported":1746209641,"current_range_meters":15200,"station_id":"ce4bgih2rcd13ifvqba0","pricing_plan_id":"cebpf4jnsgd1na2vs0mg"},{"bike_id":"e2036e5d-1c2d-48ee-9bf2-ee97a5b96dbd","system_id":"levelo_inurba_marseille","lat":43.29801,"lon":5.40399,"is_reserved":false,"is_disabled":false,"rental_uris":{"android":"levelo://app?vid=e2036e5d-1c2d-48ee-9bf2-ee97a5b96dbd","ios":"levelo://app?vid=e2036e5d-1c2d-48ee-9bf2-ee97a5b96dbd"},"vehicle_type_id":"4","last_reported":1746209641,"current_range_meters":16000,"station_id":"ce4bh112rcd13ifvqd90","pricing_plan_id":"cebpf4jnsgd1na2vs0mg"},{"bike_id":"18ca2926-f57a-477d-a1f9-547126d07ce6","system_id":"levelo_inurba_marseille","lat":43.23181,"lon":5.3998,"is_reserved":false,"is_disabled":false,"rental_uris":{"android":"levelo://app?vid=18ca2926-f57a-477d-a1f9-547126d07ce6","ios":"levelo://app?vid=18ca2926-f57a-477d-a1f9-547126d07ce6"},"vehicle_type_id":"4","last_reported":1746209641,"current_range_meters":16000,"station_id":"ce4bhn12rcd13ifvqgqg","pricing_plan_id":"cebpf4jnsgd1na2vs0mg"},{"bike_id":"606118d3-fbc3-46d2-9186-85db9f0d665b","system_id":"levelo_inurba_marseille","lat":43.23065,"lon":5.35481,"is_reserved":false,"is_disabled":false,"rental_uris":{"android":"levelo://app?vid=606118d3-fbc3-46d2-9186-85db9f0d665b","ios":"levelo://app?vid=606118d3-fbc3-46d2-9186-85db9f0d665b"},"vehicle_type_id":"4","last_reported":1746209641,"current_range_meters":16000,"station_id":"cpo3342slgdg3j2ifvpg","pricing_plan_id":"cebpf4jnsgd1na2vs0mg"},{"bike_id":"fb80c1da-d845-467b-9c3b-2f591f4d56ae","system_id":"levelo_inurba_marseille","lat":43.31666,"lon":5.372412,"is_reserved":false,"is_disabled":false,"rental_uris":{"android":"levelo://app?vid=fb80c1da-d845-467b-9c3b-2f591f4d56ae","ios":"levelo://app?vid=fb80c1da-d845-467b-9c3b-2f591f4d56ae"},"vehicle_type_id":"4","last_reported":1746209641,"current_range_meters":16400,"station_id":"","pricing_plan_id":"cebpf4jnsgd1na2vs0mg"},{"bike_id":"e117c7ad-ea53-4e10-94fb-82d40567aeca","system_id":"levelo_inurba_marseille","lat":43.31332,"lon":5.3971,"is_reserved":false,"is_disabled":false,"rental_uris":{"android":"levelo://app?vid=e117c7ad-ea53-4e10-94fb-82d40567aeca","ios":"levelo://app?vid=e117c7ad-ea53-4e10-94fb-82d40567aeca"},"vehicle_type_id":"4","last_reported":1746209641,"current_range_meters":16400,"station_id":"ce4bgvp2rcd13ifvqcu0","pricing_plan_id":"cebpf4jnsgd1na2vs0mg"},{"bike_id":"acbb6641-2026-488f-9159-977ad264cf28","system_id":"levelo_inurba_marseille","lat":43.29419,"lon":5.38612,"is_reserved":false,"is_disabled":false,"rental_uris":{"android":"levelo://app?vid=acbb6641-2026-488f-9159-977ad264cf28","ios":"levelo://app?vid=acbb6641-2026-488f-9159-977ad264cf28"},"vehicle_type_id":"4","last_reported":1746209641,"current_range_meters":16400,"station_id":"ce4bh2h2rcd13ifvqdh0","pricing_plan_id":"cebpf4jnsgd1na2vs0mg"},{"bike_id":"f681f24b-adf8-4ce5-b1d3-5f124fd7ab09","system_id":"levelo_inurba_marseille","lat":43.287,"lon":5.37393,"is_reserved":false,"is_disabled":false,"rental_uris":{"android":"levelo://app?vid=f681f24b-adf8-4ce5-b1d3-5f124fd7ab09","ios":"levelo://app?vid=f681f24b-adf8-4ce5-b1d3-5f124fd7ab09"},"vehicle_type_id":"4","last_reported":1746209641,"current_range_meters":16400,"station_id":"ce4bh3p2rcd13ifvqdq0","pricing_plan_id":"cebpf4jnsgd1na2vs0mg"},{"bike_id":"250e1ed9-5339-4c84-ae72-56d68e6de59a","system_id":"levelo_inurba_marseille","lat":43.24549,"lon":5.39519,"is_reserved":false,"is_disabled":false,"rental_uris":{"android":"levelo://app?vid=250e1ed9-5339-4c84-ae72-56d68e6de59a","ios":"levelo://app?vid=250e1ed9-5339-4c84-ae72-56d68e6de59a"},"vehicle_type_id":"4","last_reported":1746209641,"current_range_meters":16400,"station_id":"ce4bhlp2rcd13ifvqgjg","pricing_plan_id":"cebpf4jnsgd1na2vs0mg"},{"bike_id":"b460f147-0f1d-4e55-9519-16392487807b","system_id":"levelo_inurba_marseille","lat":43.26793,"lon":5.40259,"is_reserved":false,"is_disabled":false,"rental_uris":{"android":"levelo://app?vid=b460f147-0f1d-4e55-9519-16392487807b","ios":"levelo://app?vid=b460f147-0f1d-4e55-9519-16392487807b"},"vehicle_type_id":"4","last_reported":1746209641,"current_range_meters":16400,"station_id":"ce501612rcd8frsf0b60","pricing_plan_id":"cebpf4jnsgd1na2vs0mg"},{"bike_id":"0ca7db30-24fc-4864-a02f-b3e1488b6d9d","system_id":"levelo_inurba_marseille","lat":43.311737,"lon":5.387187,"is_reserved":false,"is_disabled":false,"rental_uris":{"android":"levelo://app?vid=0ca7db30-24fc-4864-a02f-b3e1488b6d9d","ios":"levelo://app?vid=0ca7db30-24fc-4864-a02f-b3e1488b6d9d"},"vehicle_type_id":"4","last_reported":1746209641,"current_range_meters":16800,"station_id":"ce4bgv12rcd13ifvqcp0","pricing_plan_id":"cebpf4jnsgd1na2vs0mg"},{"bike_id":"34e824b1-8913-4de9-9a02-0d08d1ab4346","system_id":"levelo_inurba_marseille","lat":43.29262,"lon":5.38429,"is_reserved":false,"is_disabled":false,"rental_uris":{"android":"levelo://app?vid=34e824b1-8913-4de9-9a02-0d08d1ab4346","ios":"levelo://app?vid=34e824b1-8913-4de9-9a02-0d08d1ab4346"},"vehicle_type_id":"4","last_reported":1746209641,"current_range_meters":16800,"station_id":"ce4bh692rcd13ifvqea0","pricing_plan_id":"cebpf4jnsgd1na2vs0mg"},{"bike_id":"fcb3404e-af30-412b-abdd-52b867b173d5","system_id":"levelo_inurba_marseille","lat":43.2455,"lon":5.39524,"is_reserved":false,"is_disabled":false,"rental_uris":{"android":"levelo://app?vid=fcb3404e-af30-412b-abdd-52b867b173d5","ios":"levelo://app?vid=fcb3404e-af30-412b-abdd-52b867b173d5"},"vehicle_type_id":"4","last_reported":1746209641,"current_range_meters":16800,"station_id":"ce4bhlp2rcd13ifvqgjg","pricing_plan_id":"cebpf4jnsgd1na2vs0mg"},{"bike_id":"0c4a95c4-0fc1-4588-b2c7-0a6d0e95d090","system_id":"levelo_inurba_marseille","lat":43.30427,"lon":5.3889,"is_reserved":false,"is_disabled":false,"rental_uris":{"android":"levelo://app?vid=0c4a95c4-0fc1-4588-b2c7-0a6d0e95d090","ios":"levelo://app?vid=0c4a95c4-0fc1-4588-b2c7-0a6d0e95d090"},"vehicle_type_id":"4","last_reported":1746209641,"current_range_meters":17200,"station_id":"ce4bgk12rcd13ifvqbi0","pricing_plan_id":"cebpf4jnsgd1na2vs0mg"},{"bike_id":"2e6df190-3d4c-4ac7-94af-6b07fc0fd5ab","system_id":"levelo_inurba_marseille","lat":43.29686,"lon":5.37326,"is_reserved":false,"is_disabled":false,"rental_uris":{"android":"levelo://app?vid=2e6df190-3d4c-4ac7-94af-6b07fc0fd5ab","ios":"levelo://app?vid=2e6df190-3d4c-4ac7-94af-6b07fc0fd5ab"},"vehicle_type_id":"4","last_reported":1746209641,"current_range_meters":17200,"station_id":"ce4bgk12rcd13ifvqbj0","pricing_plan_id":"cebpf4jnsgd1na2vs0mg"},{"bike_id":"3276a28e-5a0f-4fdb-b59f-4c1e9b76a9a3","system_id":"levelo_inurba_marseille","lat":43.24387,"lon":5.37046,"is_reserved":false,"is_disabled":false,"rental_uris":{"android":"levelo://app?vid=3276a28e-5a0f-4fdb-b59f-4c1e9b76a9a3","ios":"levelo://app?vid=3276a28e-5a0f-4fdb-b59f-4c1e9b76a9a3"},"vehicle_type_id":"4","last_reported":1746209641,"current_range_meters":17200,"station_id":"ce4bhhh2rcd13ifvqfk0","pricing_plan_id":"cebpf4jnsgd1na2vs0mg"},{"bike_id":"6a78a0aa-3459-49d4-8158-e4107ed26c79","system_id":"levelo_inurba_marseille","lat":43.2705,"lon":5.40258,"is_reserved":false,"is_disabled":false,"rental_uris":{"android":"levelo://app?vid=6a78a0aa-3459-49d4-8158-e4107ed26c79","ios":"levelo://app?vid=6a78a0aa-3459-49d4-8158-e4107ed26c79"},"vehicle_type_id":"4","last_reported":1746209641,"current_range_meters":17200,"station_id":"ce4bhk92rcd13ifvqgc0","pricing_plan_id":"cebpf4jnsgd1na2vs0mg"},{"bike_id":"8358e3d0-6639-4ac2-ba04-8477e18cc50d","system_id":"levelo_inurba_marseille","lat":43.33228,"lon":5.3854,"is_reserved":false,"is_disabled":false,"rental_uris":{"android":"levelo://app?vid=8358e3d0-6639-4ac2-ba04-8477e18cc50d","ios":"levelo://app?vid=8358e3d0-6639-4ac2-ba04-8477e18cc50d"},"vehicle_type_id":"4","last_reported":1746209641,"current_range_meters":17600,"station_id":"","pricing_plan_id":"cebpf4jnsgd1na2vs0mg"},{"bike_id":"61caa87b-e0a6-49f1-8aba-9e7152504f5d","system_id":"levelo_inurba_marseille","lat":43.29606,"lon":5.37739,"is_reserved":false,"is_disabled":false,"rental_uris":{"android":"levelo://app?vid=61caa87b-e0a6-49f1-8aba-9e7152504f5d","ios":"levelo://app?vid=61caa87b-e0a6-49f1-8aba-9e7152504f5d"},"vehicle_type_id":"4","last_reported":1746209641,"current_range_meters":17600,"station_id":"ce4bgi92rcd13ifvqb90","pricing_plan_id":"cebpf4jnsgd1na2vs0mg"},{"bike_id":"3ba6049d-e5e4-4b4c-8989-c191bc27583c","system_id":"levelo_inurba_marseille","lat":43.3044,"lon":5.38872,"is_reserved":false,"is_disabled":false,"rental_uris":{"android":"levelo://app?vid=3ba6049d-e5e4-4b4c-8989-c191bc27583c","ios":"levelo://app?vid=3ba6049d-e5e4-4b4c-8989-c191bc27583c"},"vehicle_type_id":"4","last_reported":1746209641,"current_range_meters":17600,"station_id":"ce4bgk12rcd13ifvqbi0","pricing_plan_id":"cebpf4jnsgd1na2vs0mg"},{"bike_id":"baf49cf4-0620-4286-875e-38acbd6698ee","system_id":"levelo_inurba_marseille","lat":43.28157,"lon":5.42641,"is_reserved":false,"is_disabled":false,"rental_uris":{"android":"levelo://app?vid=baf49cf4-0620-4286-875e-38acbd6698ee","ios":"levelo://app?vid=baf49cf4-0620-4286-875e-38acbd6698ee"},"vehicle_type_id":"4","last_reported":1746209641,"current_range_meters":17600,"station_id":"ce4bhnh2rcd13ifvqgug","pricing_plan_id":"cebpf4jnsgd1na2vs0mg"},{"bike_id":"3fa05eab-bd38-4e51-9d14-fab3387355a7","system_id":"levelo_inurba_marseille","lat":43.32291,"lon":5.38292,"is_reserved":false,"is_disabled":false,"rental_uris":{"android":"levelo://app?vid=3fa05eab-bd38-4e51-9d14-fab3387355a7","ios":"levelo://app?vid=3fa05eab-bd38-4e51-9d14-fab3387355a7"},"vehicle_type_id":"4","last_reported":1746209641,"current_range_meters":17600,"station_id":"ce4bhr12rcd13ifvqhqg","pricing_plan_id":"cebpf4jnsgd1na2vs0mg"},{"bike_id":"9a59d77d-13ff-40c9-80cb-641515f30f15","system_id":"levelo_inurba_marseille","lat":43.28732,"lon":5.36088,"is_reserved":false,"is_disabled":false,"rental_uris":{"android":"levelo://app?vid=9a59d77d-13ff-40c9-80cb-641515f30f15","ios":"levelo://app?vid=9a59d77d-13ff-40c9-80cb-641515f30f15"},"vehicle_type_id":"4","last_reported":1746209641,"current_range_meters":17600,"station_id":"cki0cbj6b192h4jlfktg","pricing_plan_id":"cebpf4jnsgd1na2vs0mg"},{"bike_id":"b8d6bd6b-e69d-4869-8d67-2bbec570ca30","system_id":"levelo_inurba_marseille","lat":43.2842,"lon":5.375,"is_reserved":false,"is_disabled":false,"rental_uris":{"android":"levelo://app?vid=b8d6bd6b-e69d-4869-8d67-2bbec570ca30","ios":"levelo://app?vid=b8d6bd6b-e69d-4869-8d67-2bbec570ca30"},"vehicle_type_id":"4","last_reported":1746209641,"current_range_meters":18000,"station_id":"ce4bh412rcd13ifvqds0","pricing_plan_id":"cebpf4jnsgd1na2vs0mg"},{"bike_id":"df303cb6-de40-42f3-b329-d42270633108","system_id":"levelo_inurba_marseille","lat":43.25745,"lon":5.41082,"is_reserved":false,"is_disabled":false,"rental_uris":{"android":"levelo://app?vid=df303cb6-de40-42f3-b329-d42270633108","ios":"levelo://app?vid=df303cb6-de40-42f3-b329-d42270633108"},"vehicle_type_id":"4","last_reported":1746209641,"current_range_meters":18000,"station_id":"ce4bhkp2rcd13ifvqgd0","pricing_plan_id":"cebpf4jnsgd1na2vs0mg"},{"bike_id":"5f4e6cc3-91d2-48f9-8249-129d5d1c6879","system_id":"levelo_inurba_marseille","lat":43.32464,"lon":5.3657,"is_reserved":false,"is_disabled":false,"rental_uris":{"android":"levelo://app?vid=5f4e6cc3-91d2-48f9-8249-129d5d1c6879","ios":"levelo://app?vid=5f4e6cc3-91d2-48f9-8249-129d5d1c6879"},"vehicle_type_id":"4","last_reported":1746209641,"current_range_meters":18000,"station_id":"ce4bhs12rcd13ifvqhvg","pricing_plan_id":"cebpf4jnsgd1na2vs0mg"},{"bike_id":"fb38d50e-4f34-4d67-a20c-233e4e653a8d","system_id":"levelo_inurba_marseille","lat":43.29711,"lon":5.36616,"is_reserved":false,"is_disabled":false,"rental_uris":{"android":"levelo://app?vid=fb38d50e-4f34-4d67-a20c-233e4e653a8d","ios":"levelo://app?vid=fb38d50e-4f34-4d67-a20c-233e4e653a8d"},"vehicle_type_id":"4","last_reported":1746209641,"current_range_meters":18800,"station_id":"ce4bgn12rcd13ifvqbt0","pricing_plan_id":"cebpf4jnsgd1na2vs0mg"},{"bike_id":"e260e722-0671-4697-a352-6d2d5da9f450","system_id":"levelo_inurba_marseille","lat":43.29424,"lon":5.38616,"is_reserved":false,"is_disabled":false,"rental_uris":{"android":"levelo://app?vid=e260e722-0671-4697-a352-6d2d5da9f450","ios":"levelo://app?vid=e260e722-0671-4697-a352-6d2d5da9f450"},"vehicle_type_id":"4","last_reported":1746209641,"current_range_meters":18800,"station_id":"ce4bh2h2rcd13ifvqdh0","pricing_plan_id":"cebpf4jnsgd1na2vs0mg"},{"bike_id":"c61c0099-ec71-4f8d-bee6-9c673a29eefe","system_id":"levelo_inurba_marseille","lat":43.26938,"lon":5.40251,"is_reserved":false,"is_disabled":false,"rental_uris":{"android":"levelo://app?vid=c61c0099-ec71-4f8d-bee6-9c673a29eefe","ios":"levelo://app?vid=c61c0099-ec71-4f8d-bee6-9c673a29eefe"},"vehicle_type_id":"4","last_reported":1746209641,"current_range_meters":18800,"station_id":"cjm6bp8fraef2m0cb0m0","pricing_plan_id":"cebpf4jnsgd1na2vs0mg"},{"bike_id":"e0ceefc0-61c9-406f-91eb-ef69db9dbe42","system_id":"levelo_inurba_marseille","lat":43.26122,"lon":5.41458,"is_reserved":false,"is_disabled":false,"rental_uris":{"android":"levelo://app?vid=e0ceefc0-61c9-406f-91eb-ef69db9dbe42","ios":"levelo://app?vid=e0ceefc0-61c9-406f-91eb-ef69db9dbe42"},"vehicle_type_id":"4","last_reported":1746209641,"current_range_meters":19200,"station_id":"","pricing_plan_id":"cebpf4jnsgd1na2vs0mg"},{"bike_id":"a01002c8-ef37-40b5-a1c9-9b15c6070165","system_id":"levelo_inurba_marseille","lat":43.30334,"lon":5.40419,"is_reserved":false,"is_disabled":false,"rental_uris":{"android":"levelo://app?vid=a01002c8-ef37-40b5-a1c9-9b15c6070165","ios":"levelo://app?vid=a01002c8-ef37-40b5-a1c9-9b15c6070165"},"vehicle_type_id":"4","last_reported":1746209641,"current_range_meters":19200,"station_id":"ce4bh012rcd13ifvqd10","pricing_plan_id":"cebpf4jnsgd1na2vs0mg"},{"bike_id":"1ca2a8f1-2c78-4db9-a346-991aff45bba8","system_id":"levelo_inurba_marseille","lat":43.28443,"lon":5.35909,"is_reserved":false,"is_disabled":false,"rental_uris":{"android":"levelo://app?vid=1ca2a8f1-2c78-4db9-a346-991aff45bba8","ios":"levelo://app?vid=1ca2a8f1-2c78-4db9-a346-991aff45bba8"},"vehicle_type_id":"4","last_reported":1746209641,"current_range_meters":19200,"station_id":"ce4bhah2rcd13ifvqei0","pricing_plan_id":"cebpf4jnsgd1na2vs0mg"},{"bike_id":"2bb6a742-8392-44ba-a660-cb62073d888e","system_id":"levelo_inurba_marseille","lat":43.32112,"lon":5.36792,"is_reserved":false,"is_disabled":false,"rental_uris":{"android":"levelo://app?vid=2bb6a742-8392-44ba-a660-cb62073d888e","ios":"levelo://app?vid=2bb6a742-8392-44ba-a660-cb62073d888e"},"vehicle_type_id":"4","last_reported":1746209641,"current_range_meters":19200,"station_id":"ce4bhrh2rcd13ifvqhug","pricing_plan_id":"cebpf4jnsgd1na2vs0mg"},{"bike_id":"133835ca-5016-45b8-b651-31e2cfe662f1","system_id":"levelo_inurba_marseille","lat":43.32112,"lon":5.36767,"is_reserved":false,"is_disabled":false,"rental_uris":{"android":"levelo://app?vid=133835ca-5016-45b8-b651-31e2cfe662f1","ios":"levelo://app?vid=133835ca-5016-45b8-b651-31e2cfe662f1"},"vehicle_type_id":"4","last_reported":1746209641,"current_range_meters":19200,"station_id":"ce4bhrh2rcd13ifvqhug","pricing_plan_id":"cebpf4jnsgd1na2vs0mg"},{"bike_id":"8c21d765-cf6d-4eed-8291-931d0d5f5cee","system_id":"levelo_inurba_marseille","lat":43.292664,"lon":5.376223,"is_reserved":false,"is_disabled":false,"rental_uris":{"android":"levelo://app?vid=8c21d765-cf6d-4eed-8291-931d0d5f5cee","ios":"levelo://app?vid=8c21d765-cf6d-4eed-8291-931d0d5f5cee"},"vehicle_type_id":"4","last_reported":1746209641,"current_range_meters":19600,"station_id":"ce4bgi12rcd13ifvqb80","pricing_plan_id":"cebpf4jnsgd1na2vs0mg"},{"bike_id":"c30f6c46-5f89-4f5b-a6ad-0c075261dc94","system_id":"levelo_inurba_marseille","lat":43.30152,"lon":5.38092,"is_reserved":false,"is_disabled":false,"rental_uris":{"android":"levelo://app?vid=c30f6c46-5f89-4f5b-a6ad-0c075261dc94","ios":"levelo://app?vid=c30f6c46-5f89-4f5b-a6ad-0c075261dc94"},"vehicle_type_id":"4","last_reported":1746209641,"current_range_meters":19600,"station_id":"ce4bgjp2rcd13ifvqbh0","pricing_plan_id":"cebpf4jnsgd1na2vs0mg"},{"bike_id":"51e171f2-b5b7-4f79-8ae0-415f0e02dafb","system_id":"levelo_inurba_marseille","lat":43.31709,"lon":5.37733,"is_reserved":false,"is_disabled":false,"rental_uris":{"android":"levelo://app?vid=51e171f2-b5b7-4f79-8ae0-415f0e02dafb","ios":"levelo://app?vid=51e171f2-b5b7-4f79-8ae0-415f0e02dafb"},"vehicle_type_id":"4","last_reported":1746209641,"current_range_meters":19600,"station_id":"ce4bgth2rcd13ifvqch0","pricing_plan_id":"cebpf4jnsgd1na2vs0mg"},{"bike_id":"ab8de6d6-25ab-4eb2-905e-939b0c62c710","system_id":"levelo_inurba_marseille","lat":43.29255,"lon":5.40889,"is_reserved":false,"is_disabled":false,"rental_uris":{"android":"levelo://app?vid=ab8de6d6-25ab-4eb2-905e-939b0c62c710","ios":"levelo://app?vid=ab8de6d6-25ab-4eb2-905e-939b0c62c710"},"vehicle_type_id":"4","last_reported":1746209641,"current_range_meters":19600,"station_id":"ce4bh192rcd13ifvqdc0","pricing_plan_id":"cebpf4jnsgd1na2vs0mg"},{"bike_id":"f9e6ac8a-d3aa-4f57-bdb5-3ce66ce2a3d9","system_id":"levelo_inurba_marseille","lat":43.294311,"lon":5.386211,"is_reserved":false,"is_disabled":false,"rental_uris":{"android":"levelo://app?vid=f9e6ac8a-d3aa-4f57-bdb5-3ce66ce2a3d9","ios":"levelo://app?vid=f9e6ac8a-d3aa-4f57-bdb5-3ce66ce2a3d9"},"vehicle_type_id":"4","last_reported":1746209641,"current_range_meters":19600,"station_id":"ce4bh2h2rcd13ifvqdh0","pricing_plan_id":"cebpf4jnsgd1na2vs0mg"},{"bike_id":"0803bbdc-252e-4cf9-aa6f-1892d4dd8484","system_id":"levelo_inurba_marseille","lat":43.28966,"lon":5.37834,"is_reserved":false,"is_disabled":false,"rental_uris":{"android":"levelo://app?vid=0803bbdc-252e-4cf9-aa6f-1892d4dd8484","ios":"levelo://app?vid=0803bbdc-252e-4cf9-aa6f-1892d4dd8484"},"vehicle_type_id":"4","last_reported":1746209641,"current_range_meters":19600,"station_id":"ce4bh9p2rcd13ifvqed0","pricing_plan_id":"cebpf4jnsgd1na2vs0mg"},{"bike_id":"cdfd7ebf-d40f-442e-8508-ccaa5f6b29f7","system_id":"levelo_inurba_marseille","lat":43.25941,"lon":5.40909,"is_reserved":false,"is_disabled":false,"rental_uris":{"android":"levelo://app?vid=cdfd7ebf-d40f-442e-8508-ccaa5f6b29f7","ios":"levelo://app?vid=cdfd7ebf-d40f-442e-8508-ccaa5f6b29f7"},"vehicle_type_id":"4","last_reported":1746209641,"current_range_meters":19600,"station_id":"ce4bhm92rcd13ifvqglg","pricing_plan_id":"cebpf4jnsgd1na2vs0mg"},{"bike_id":"48fece27-19b4-40c0-a5a5-128630e207da","system_id":"levelo_inurba_marseille","lat":43.32095,"lon":5.36781,"is_reserved":false,"is_disabled":false,"rental_uris":{"android":"levelo://app?vid=48fece27-19b4-40c0-a5a5-128630e207da","ios":"levelo://app?vid=48fece27-19b4-40c0-a5a5-128630e207da"},"vehicle_type_id":"4","last_reported":1746209641,"current_range_meters":19600,"station_id":"ce4bhrh2rcd13ifvqhug","pricing_plan_id":"cebpf4jnsgd1na2vs0mg"},{"bike_id":"ce3ce2e7-adfc-44ca-af4a-7c0f1566aed2","system_id":"levelo_inurba_marseille","lat":43.22482,"lon":5.34792,"is_reserved":false,"is_disabled":false,"rental_uris":{"android":"levelo://app?vid=ce3ce2e7-adfc-44ca-af4a-7c0f1566aed2","ios":"levelo://app?vid=ce3ce2e7-adfc-44ca-af4a-7c0f1566aed2"},"vehicle_type_id":"4","last_reported":1746209641,"current_range_meters":19600,"station_id":"st_cvj5dfep6f1abm77gieg","pricing_plan_id":"cebpf4jnsgd1na2vs0mg"},{"bike_id":"764745f4-22f3-4d3f-9ccf-0bef40653811","system_id":"levelo_inurba_marseille","lat":43.30798,"lon":5.37283,"is_reserved":false,"is_disabled":false,"rental_uris":{"android":"levelo://app?vid=764745f4-22f3-4d3f-9ccf-0bef40653811","ios":"levelo://app?vid=764745f4-22f3-4d3f-9ccf-0bef40653811"},"vehicle_type_id":"4","last_reported":1746209641,"current_range_meters":20000,"station_id":"","pricing_plan_id":"cebpf4jnsgd1na2vs0mg"},{"bike_id":"eff93a86-4266-4c4a-98db-7a8b421bf4da","system_id":"levelo_inurba_marseille","lat":43.30532,"lon":5.36538,"is_reserved":false,"is_disabled":false,"rental_uris":{"android":"levelo://app?vid=eff93a86-4266-4c4a-98db-7a8b421bf4da","ios":"levelo://app?vid=eff93a86-4266-4c4a-98db-7a8b421bf4da"},"vehicle_type_id":"4","last_reported":1746209641,"current_range_meters":20000,"station_id":"ce4bgs12rcd13ifvqcag","pricing_plan_id":"cebpf4jnsgd1na2vs0mg"},{"bike_id":"44c3d719-a088-41cb-92e3-8fa7f7cc1285","system_id":"levelo_inurba_marseille","lat":43.24649,"lon":5.38896,"is_reserved":false,"is_disabled":false,"rental_uris":{"android":"levelo://app?vid=44c3d719-a088-41cb-92e3-8fa7f7cc1285","ios":"levelo://app?vid=44c3d719-a088-41cb-92e3-8fa7f7cc1285"},"vehicle_type_id":"4","last_reported":1746209641,"current_range_meters":20000,"station_id":"ce4bhg12rcd13ifvqf60","pricing_plan_id":"cebpf4jnsgd1na2vs0mg"},{"bike_id":"9166c46c-e58d-4a77-b850-16c657d9ea09","system_id":"levelo_inurba_marseille","lat":43.24808,"lon":5.37457,"is_reserved":false,"is_disabled":false,"rental_uris":{"android":"levelo://app?vid=9166c46c-e58d-4a77-b850-16c657d9ea09","ios":"levelo://app?vid=9166c46c-e58d-4a77-b850-16c657d9ea09"},"vehicle_type_id":"4","last_reported":1746209641,"current_range_meters":20400,"station_id":"ce4bhgh2rcd13ifvqfb0","pricing_plan_id":"cebpf4jnsgd1na2vs0mg"},{"bike_id":"adda2233-5f92-4e25-a871-03dfacc7e730","system_id":"levelo_inurba_marseille","lat":43.27173,"lon":5.40994,"is_reserved":false,"is_disabled":false,"rental_uris":{"android":"levelo://app?vid=adda2233-5f92-4e25-a871-03dfacc7e730","ios":"levelo://app?vid=adda2233-5f92-4e25-a871-03dfacc7e730"},"vehicle_type_id":"4","last_reported":1746209641,"current_range_meters":20400,"station_id":"ce4bhl12rcd13ifvqgf0","pricing_plan_id":"cebpf4jnsgd1na2vs0mg"},