{"last_updated":1713600514,"ttl":30,"version":"2.2","data":{"bikes":[{"bike_id":"22e76b86-3783-41c3-9ad0-4677d4833525","system_id":"levelo_inurba_marseille","lat":43.313391,"lon":5.36706,"is_reserved":false,"is_disabled":false,"rental_uris":{"android":"levelo://app?vid=22e76b86-3783-41c3-9ad0-4677d4833525","ios":"levelo://app?vid=22e76b86-3783-41c3-9ad0-4677d4833525"},"vehicle_type_id":"4","last_reported":1713600514,"current_range_meters":14800,"station_id":"ce4bgr92rcd13ifvqc6g","pricing_plan_id":"cebpf4jnsgd1na2vs0mg"},{"bike_id":"b589778e-cc30-408d-be33-787689320986","system_id":"levelo_inurba_marseille","lat":43.31341,"lon":5.367098,"is_reserved":false,"is_disabled":false,"rental_uris":{"android":"levelo://app?vid=b589778e-cc30-408d-be33-787689320986","ios":"levelo://app?vid=b589778e-cc30-408d-be33-787689320986"},"vehicle_type_id":"4","last_reported":1713600514,"current_range_meters":27200,"station_id":"ce4bgr92rcd13ifvqc6g","pricing_plan_id":"cebpf4jnsgd1na2vs0mg"},{"bike_id":"c68ac347-e9ce-48b0-a0b9-905549572415","system_id":"levelo_inurba_marseille","lat":43.313391,"lon":5.36706,"is_reserved":false,"is_disabled":false,"rental_uris":{"android":"levelo://app?vid=c68ac347-e9ce-48b0-a0b9-905549572415","ios":"levelo://app?vid=c68ac347-e9ce-48b0-a0b9-905549572415"},"vehicle_type_id":"4","last_reported":1713600514,"current_range_meters":22000,"station_id":"ce4bgr92rcd13ifvqc6g","pricing_plan_id":"cebpf4jnsgd1na2vs0mg"},{"bike_id":"a2695585-b422-4ccd-928b-45e34e26b5c4","system_id":"levelo_inurba_marseille","lat":43.31341,"lon":5.367098,"is_reserved":false,"is_disabled":false,"rental_uris":{"android":"levelo://app?vid=a2695585-b422-4ccd-928b-45e34e26b5c4","ios":"levelo://app?vid=a2695585-b422-4ccd-928b-45e34e26b5c4"},"vehicle_type_id":"4","last_reported":1713600514,"current_range_meters":30400,"station_id":"ce4bgr92rcd13ifvqc6g","pricing_plan_id":"cebpf4jnsgd1na2vs0mg"},{"bike_id":"4aa2146c-7dc2-43f7-be68-453ebc3aa0e7","system_id":"levelo_inurba_marseille","lat":43.313391,"lon":5.36706,"is_reserved":false,"is_disabled":false,"rental_uris":{"android":"levelo://app?vid=4aa2146c-7dc2-43f7-be68-453ebc3aa0e7","ios":"levelo://app?vid=4aa2146c-7dc2-43f7-be68-453ebc3aa0e7"},"vehicle_type_id":"4","last_reported":1713600514,"current_range_meters":31600,"station_id":"ce4bgr92rcd13ifvqc6g","pricing_plan_id":"cebpf4jnsgd1na2vs0mg"},{"bike_id":"063a1586-970a-4196-b219-f6b295a8ef0e","system_id":"levelo_inurba_marseille","lat":43.312239,"lon":5.368562,"is_reserved":false,"is_disabled":false,"rental_uris":{"android":"levelo://app?vid=063a1586-970a-4196-b219-f6b295a8ef0e","ios":"levelo://app?vid=063a1586-970a-4196-b219-f6b295a8ef0e"},"vehicle_type_id":"4","last_reported":1713600514,"current_range_meters":22800,"station_id":"ce4bgl92rcd13ifvqbq0","pricing_plan_id":"cebpf4jnsgd1na2vs0mg"},{"bike_id":"6e5b3d89-5bc0-4ded-b73c-8d3787fe141f","system_id":"levelo_inurba_marseille","lat":43.312239,"lon":5.368562,"is_reserved":false,"is_disabled":false,"rental_uris":{"android":"levelo://app?vid=6e5b3d89-5bc0-4ded-b73c-8d3787fe141f","ios":"levelo://app?vid=6e5b3d89-5bc0-4ded-b73c-8d3787fe141f"},"vehicle_type_id":"4","last_reported":1713600514,"current_range_meters":11200,"station_id":"ce4bgl92rcd13ifvqbq0","pricing_plan_id":"cebpf4jnsgd1na2vs0mg"},{"bike_id":"a65e7f23-3a28-4f9c-ada7-50684faa236f","system_id":"levelo_inurba_marseille","lat":43.312346,"lon":5.368841,"is_reserved":false,"is_disabled":false,"rental_uris":{"android":"levelo://app?vid=a65e7f23-3a28-4f9c-ada7-50684faa236f","ios":"levelo://app?vid=a65e7f23-3a28-4f9c-ada7-50684faa236f"},"vehicle_type_id":"4","last_reported":1713600514,"current_range_meters":31200,"station_id":"ce4bgl92rcd13ifvqbq0","pricing_plan_id":"cebpf4jnsgd1na2vs0mg"},{"bike_id":"3230474e-493b-4e48-af25-a98a1a8f9073","system_id":"levelo_inurba_marseille","lat":43.309076,"lon":5.368465,"is_reserved":false,"is_disabled":false,"rental_uris":{"android":"levelo://app?vid=3230474e-493b-4e48-af25-a98a1a8f9073","ios":"levelo://app?vid=3230474e-493b-4e48-af25-a98a1a8f9073"},"vehicle_type_id":"4","last_reported":1713600514,"current_range_meters":20000,"station_id":"ce4bgn92rcd13ifvqbvg","pricing_plan_id":"cebpf4jnsgd1na2vs0mg"},{"bike_id":"01834b10-7014-4aa2-bf9e-f9f6a1ebbcfe","system_id":"levelo_inurba_marseille","lat":43.314811,"lon":5.373103,"is_reserved":false,"is_disabled":false,"rental_uris":{"android":"levelo://app?vid=01834b10-7014-4aa2-bf9e-f9f6a1ebbcfe","ios":"levelo://app?vid=01834b10-7014-4aa2-bf9e-f9f6a1ebbcfe"},"vehicle_type_id":"4","last_reported":1713600514,"current_range_meters":5200,"station_id":"ce4bgt12rcd13ifvqcd0","pricing_plan_id":"cebpf4jnsgd1na2vs0mg"},{"bike_id":"36cc43d6-6241-4394-9ebf-b62fde7504f7","system_id":"levelo_inurba_marseille","lat":43.314811,"lon":5.373103,"is_reserved":false,"is_disabled":false,"rental_uris":{"android":"levelo://app?vid=36cc43d6-6241-4394-9ebf-b62fde7504f7","ios":"levelo://app?vid=36cc43d6-6241-4394-9ebf-b62fde7504f7"},"vehicle_type_id":"4","last_reported":1713600514,"current_range_meters":2400,"station_id":"ce4bgt12rcd13ifvqcd0","pricing_plan_id":"cebpf4jnsgd1na2vs0mg"},{"bike_id":"ab311b09-2dbf-43c8-929b-d636f4838a85","system_id":"levelo_inurba_marseille","lat":43.309034,"lon":5.371783,"is_reserved":false,"is_disabled":false,"rental_uris":{"android":"levelo://app?vid=ab311b09-2dbf-43c8-929b-d636f4838a85","ios":"levelo://app?vid=ab311b09-2dbf-43c8-929b-d636f4838a85"},"vehicle_type_id":"4","last_reported":1713600514,"current_range_meters":22800,"station_id":"ce4bguh2rcd13ifvqckg","pricing_plan_id":"cebpf4jnsgd1na2vs0mg"},{"bike_id":"1693182c-5d2f-4d47-ae87-c39e9c9b9fff","system_id":"levelo_inurba_marseille","lat":43.309034,"lon":5.371783,"is_reserved":false,"is_disabled":false,"rental_uris":{"android":"levelo://app?vid=1693182c-5d2f-4d47-ae87-c39e9c9b9fff","ios":"levelo://app?vid=1693182c-5d2f-4d47-ae87-c39e9c9b9fff"},"vehicle_type_id":"4","last_reported":1713600514,"current_range_meters":17200,"station_id":"ce4bguh2rcd13ifvqckg","pricing_plan_id":"cebpf4jnsgd1na2vs0mg"},{"bike_id":"b77eddaa-d6be-405c-b7d7-cd5d9fe398df","system_id":"levelo_inurba_marseille","lat":43.309034,"lon":5.371783,"is_reserved":false,"is_disabled":false,"rental_uris":{"android":"levelo://app?vid=b77eddaa-d6be-405c-b7d7-cd5d9fe398df","ios":"levelo://app?vid=b77eddaa-d6be-405c-b7d7-cd5d9fe398df"},"vehicle_type_id":"4","last_reported":1713600514,"current_range_meters":26000,"station_id":"ce4bguh2rcd13ifvqckg","pricing_plan_id":"cebpf4jnsgd1na2vs0mg"},{"bike_id":"23f447e7-4625-47bd-b53f-8f69d01da102","system_id":"levelo_inurba_marseille","lat":43.309034,"lon":5.371783,"is_reserved":false,"is_disabled":false,"rental_uris":{"android":"levelo://app?vid=23f447e7-4625-47bd-b53f-8f69d01da102","ios":"levelo://app?vid=23f447e7-4625-47bd-b53f-8f69d01da102"},"vehicle_type_id":"4","last_reported":1713600514,"current_range_meters":31200,"station_id":"ce4bguh2rcd13ifvqckg","pricing_plan_id":"cebpf4jnsgd1na2vs0mg"},{"bike_id":"efa518b2-9b18-4feb-9bd8-9ab6e439c67f","system_id":"levelo_inurba_marseille","lat":43.30537,"lon":5.367345,"is_reserved":false,"is_disabled":false,"rental_uris":{"android":"levelo://app?vid=efa518b2-9b18-4feb-9bd8-9ab6e439c67f","ios":"levelo://app?vid=efa518b2-9b18-4feb-9bd8-9ab6e439c67f"},"vehicle_type_id":"4","last_reported":1713600514,"current_range_meters":21200,"station_id":"ce4bgrp2rcd13ifvqc9g","pricing_plan_id":"cebpf4jnsgd1na2vs0mg"},{"bike_id":"6fd31a32-d8f5-43e0-ad0d-d19c42b31f0e","system_id":"levelo_inurba_marseille","lat":43.305712,"lon":5.365641,"is_reserved":false,"is_disabled":false,"rental_uris":{"android":"levelo://app?vid=6fd31a32-d8f5-43e0-ad0d-d19c42b31f0e","ios":"levelo://app?vid=6fd31a32-d8f5-43e0-ad0d-d19c42b31f0e"},"vehicle_type_id":"4","last_reported":1713600514,"current_range_meters":27600,"station_id":"ce4bgs12rcd13ifvqcag","pricing_plan_id":"cebpf4jnsgd1na2vs0mg"},{"bike_id":"2f8c08bf-1633-4158-b414-daaf74f43254","system_id":"levelo_inurba_marseille","lat":43.30537,"lon":5.367345,"is_reserved":false,"is_disabled":false,"rental_uris":{"android":"levelo://app?vid=2f8c08bf-1633-4158-b414-daaf74f43254","ios":"levelo://app?vid=2f8c08bf-1633-4158-b414-daaf74f43254"},"vehicle_type_id":"4","last_reported":1713600514,"current_range_meters":17600,"station_id":"ce4bgrp2rcd13ifvqc9g","pricing_plan_id":"cebpf4jnsgd1na2vs0mg"},{"bike_id":"52f22b5a-486d-4c62-a4ac-137bfb2f235e","system_id":"levelo_inurba_marseille","lat":43.30554,"lon":5.36534,"is_reserved":false,"is_disabled":false,"rental_uris":{"android":"levelo://app?vid=52f22b5a-486d-4c62-a4ac-137bfb2f235e","ios":"levelo://app?vid=52f22b5a-486d-4c62-a4ac-137bfb2f235e"},"vehicle_type_id":"4","last_reported":1713600514,"current_range_meters":22800,"station_id":"","pricing_plan_id":"cebpf4jnsgd1na2vs0mg"},{"bike_id":"3d9af47e-fea8-440a-8105-3fc98baa5223","system_id":"levelo_inurba_marseille","lat":43.305712,"lon":5.365641,"is_reserved":false,"is_disabled":false,"rental_uris":{"android":"levelo://app?vid=3d9af47e-fea8-440a-8105-3fc98baa5223","ios":"levelo://app?vid=3d9af47e-fea8-440a-8105-3fc98baa5223"},"vehicle_type_id":"4","last_reported":1713600514,"current_range_meters":29200,"station_id":"ce4bgs12rcd13ifvqcag","pricing_plan_id":"cebpf4jnsgd1na2vs0mg"},{"bike_id":"e97d080a-7aaf-4497-97ee-76913cd17a56","system_id":"levelo_inurba_marseille","lat":43.305714,"lon":5.365633,"is_reserved":false,"is_disabled":false,"rental_uris":{"android":"levelo://app?vid=e97d080a-7aaf-4497-97ee-76913cd17a56","ios":"levelo://app?vid=e97d080a-7aaf-4497-97ee-76913cd17a56"},"vehicle_type_id":"4","last_reported":1713600514,"current_range_meters":18400,"station_id":"ce4bgs12rcd13ifvqcag","pricing_plan_id":"cebpf4jnsgd1na2vs0mg"},{"bike_id":"49499cf0-5a73-48c6-b0a6-ab7a7fa8d717","system_id":"levelo_inurba_marseille","lat":43.30538,"lon":5.367395,"is_reserved":false,"is_disabled":false,"rental_uris":{"android":"levelo://app?vid=49499cf0-5a73-48c6-b0a6-ab7a7fa8d717","ios":"levelo://app?vid=49499cf0-5a73-48c6-b0a6-ab7a7fa8d717"},"vehicle_type_id":"4","last_reported":1713600514,"current_range_meters":12800,"station_id":"ce4bgrp2rcd13ifvqc9g","pricing_plan_id":"cebpf4jnsgd1na2vs0mg"},{"bike_id":"39803ac3-4844-4976-b762-6af7873375d2","system_id":"levelo_inurba_marseille","lat":43.305706,"lon":5.365654,"is_reserved":false,"is_disabled":false,"rental_uris":{"android":"levelo://app?vid=39803ac3-4844-4976-b762-6af7873375d2","ios":"levelo://app?vid=39803ac3-4844-4976-b762-6af7873375d2"},"vehicle_type_id":"4","last_reported":1713600514,"current_range_meters":22400,"station_id":"ce4bgs12rcd13ifvqcag","pricing_plan_id":"cebpf4jnsgd1na2vs0mg"},{"bike_id":"271076d5-2069-40dc-8252-b97d3af1bbdd","system_id":"levelo_inurba_marseille","lat":43.30537,"lon":5.367345,"is_reserved":false,"is_disabled":false,"rental_uris":{"android":"levelo://app?vid=271076d5-2069-40dc-8252-b97d3af1bbdd","ios":"levelo://app?vid=271076d5-2069-40dc-8252-b97d3af1bbdd"},"vehicle_type_id":"4","last_reported":1713600514,"current_range_meters":31600,"station_id":"ce4bgrp2rcd13ifvqc9g","pricing_plan_id":"cebpf4jnsgd1na2vs0mg"},{"bike_id":"2d7ee3f2-88c1-4f22-a68c-c78475165ace","system_id":"levelo_inurba_marseille","lat":43.305368,"lon":5.367343,"is_reserved":false,"is_disabled":false,"rental_uris":{"android":"levelo://app?vid=2d7ee3f2-88c1-4f22-a68c-c78475165ace","ios":"levelo://app?vid=2d7ee3f2-88c1-4f22-a68c-c78475165ace"},"vehicle_type_id":"4","last_reported":1713600514,"current_range_meters":27600,"station_id":"ce4bgrp2rcd13ifvqc9g","pricing_plan_id":"cebpf4jnsgd1na2vs0mg"},{"bike_id":"600d8aec-2fb9-465e-90eb-60640a8bb141","system_id":"levelo_inurba_marseille","lat":43.305714,"lon":5.365633,"is_reserved":false,"is_disabled":false,"rental_uris":{"android":"levelo://app?vid=600d8aec-2fb9-465e-90eb-60640a8bb141","ios":"levelo://app?vid=600d8aec-2fb9-465e-90eb-60640a8bb141"},"vehicle_type_id":"4","last_reported":1713600514,"current_range_meters":26800,"station_id":"ce4bgs12rcd13ifvqcag","pricing_plan_id":"cebpf4jnsgd1na2vs0mg"},{"bike_id":"2982bf0f-b8a8-4e17-bf6b-1b69df737a88","system_id":"levelo_inurba_marseille","lat":43.305706,"lon":5.365654,"is_reserved":false,"is_disabled":false,"rental_uris":{"android":"levelo://app?vid=2982bf0f-b8a8-4e17-bf6b-1b69df737a88","ios":"levelo://app?vid=2982bf0f-b8a8-4e17-bf6b-1b69df737a88"},"vehicle_type_id":"4","last_reported":1713600514,"current_range_meters":31600,"station_id":"ce4bgs12rcd13ifvqcag","pricing_plan_id":"cebpf4jnsgd1na2vs0mg"},{"bike_id":"1038c3dd-b914-4c1d-a736-9b7022700fa3","system_id":"levelo_inurba_marseille","lat":43.305706,"lon":5.365654,"is_reserved":false,"is_disabled":false,"rental_uris":{"android":"levelo://app?vid=1038c3dd-b914-4c1d-a736-9b7022700fa3","ios":"levelo://app?vid=1038c3dd-b914-4c1d-a736-9b7022700fa3"},"vehicle_type_id":"4","last_reported":1713600514,"current_range_meters":23600,"station_id":"ce4bgs12rcd13ifvqcag","pricing_plan_id":"cebpf4jnsgd1na2vs0mg"},{"bike_id":"ae51ffb5-defb-426c-bdaa-8a5374093587","system_id":"levelo_inurba_marseille","lat":43.305706,"lon":5.365654,"is_reserved":false,"is_disabled":false,"rental_uris":{"android":"levelo://app?vid=ae51ffb5-defb-426c-bdaa-8a5374093587","ios":"levelo://app?vid=ae51ffb5-defb-426c-bdaa-8a5374093587"},"vehicle_type_id":"4","last_reported":1713600514,"current_range_meters":25600,"station_id":"ce4bgs12rcd13ifvqcag","pricing_plan_id":"cebpf4jnsgd1na2vs0mg"},{"bike_id":"72fae870-3105-4ae9-a029-91432513a3c0","system_id":"levelo_inurba_marseille","lat":43.305368,"lon":5.367343,"is_reserved":false,"is_disabled":false,"rental_uris":{"android":"levelo://app?vid=72fae870-3105-4ae9-a029-91432513a3c0","ios":"levelo://app?vid=72fae870-3105-4ae9-a029-91432513a3c0"},"vehicle_type_id":"4","last_reported":1713600514,"current_range_meters":27200,"station_id":"ce4bgrp2rcd13ifvqc9g","pricing_plan_id":"cebpf4jnsgd1na2vs0mg"},{"bike_id":"8d6c5560-65cc-49ce-9289-5d200b938178","system_id":"levelo_inurba_marseille","lat":43.305706,"lon":5.365654,"is_reserved":false,"is_disabled":false,"rental_uris":{"android":"levelo://app?vid=8d6c5560-65cc-49ce-9289-5d200b938178","ios":"levelo://app?vid=8d6c5560-65cc-49ce-9289-5d200b938178"},"vehicle_type_id":"4","last_reported":1713600514,"current_range_meters":31200,"station_id":"ce4bgs12rcd13ifvqcag","pricing_plan_id":"cebpf4jnsgd1na2vs0mg"},{"bike_id":"915393f5-c689-44d1-ac75-5d9a59e3ee17","system_id":"levelo_inurba_marseille","lat":43.305706,"lon":5.365654,"is_reserved":false,"is_disabled":false,"rental_uris":{"android":"levelo://app?vid=915393f5-c689-44d1-ac75-5d9a59e3ee17","ios":"levelo://app?vid=915393f5-c689-44d1-ac75-5d9a59e3ee17"},"vehicle_type_id":"4","last_reported":1713600514,"current_range_meters":24400,"station_id":"ce4bgs12rcd13ifvqcag","pricing_plan_id":"cebpf4jnsgd1na2vs0mg"},{"bike_id":"b32a84e1-7cfc-49dc-b911-694bad4e6c2b","system_id":"levelo_inurba_marseille","lat":43.305368,"lon":5.367343,"is_reserved":false,"is_disabled":false,"rental_uris":{"android":"levelo://app?vid=b32a84e1-7cfc-49dc-b911-694bad4e6c2b","ios":"levelo://app?vid=b32a84e1-7cfc-49dc-b911-694bad4e6c2b"},"vehicle_type_id":"4","last_reported":1713600514,"current_range_meters":21200,"station_id":"ce4bgrp2rcd13ifvqc9g","pricing_plan_id":"cebpf4jnsgd1na2vs0mg"},{"bike_id":"884d0406-a0b8-4dd2-a963-a955d4c6ece2","system_id":"levelo_inurba_marseille","lat":43.305989,"lon":5.37225,"is_reserved":false,"is_disabled":false,"rental_uris":{"android":"levelo://app?vid=884d0406-a0b8-4dd2-a963-a955d4c6ece2","ios":"levelo://app?vid=884d0406-a0b8-4dd2-a963-a955d4c6ece2"},"vehicle_type_id":"4","last_reported":1713600514,"current_range_meters":31200,"station_id":"ce4bgqh2rcd13ifvqc4g","pricing_plan_id":"cebpf4jnsgd1na2vs0mg"},{"bike_id":"e7fb48f1-edce-4f4d-96ca-7921e371338c","system_id":"levelo_inurba_marseille","lat":43.311131,"lon":5.377651,"is_reserved":false,"is_disabled":false,"rental_uris":{"android":"levelo://app?vid=e7fb48f1-edce-4f4d-96ca-7921e371338c","ios":"levelo://app?vid=e7fb48f1-edce-4f4d-96ca-7921e371338c"},"vehicle_type_id":"4","last_reported":1713600514,"current_range_meters":3600,"station_id":"ce4bgt92rcd13ifvqcg0","pricing_plan_id":"cebpf4jnsgd1na2vs0mg"},{"bike_id":"d21e6340-d3b5-4a67-aabf-cd727f341805","system_id":"levelo_inurba_marseille","lat":43.311131,"lon":5.377651,"is_reserved":false,"is_disabled":false,"rental_uris":{"android":"levelo://app?vid=d21e6340-d3b5-4a67-aabf-cd727f341805","ios":"levelo://app?vid=d21e6340-d3b5-4a67-aabf-cd727f341805"},"vehicle_type_id":"4","last_reported":1713600514,"current_range_meters":0,"station_id":"ce4bgt92rcd13ifvqcg0","pricing_plan_id":"cebpf4jnsgd1na2vs0mg"},{"bike_id":"8ef93855-812b-46fa-a94a-0ea3ca763cc3","system_id":"levelo_inurba_marseille","lat":43.311131,"lon":5.377651,"is_reserved":false,"is_disabled":false,"rental_uris":{"android":"levelo://app?vid=8ef93855-812b-46fa-a94a-0ea3ca763cc3","ios":"levelo://app?vid=8ef93855-812b-46fa-a94a-0ea3ca763cc3"},"vehicle_type_id":"4","last_reported":1713600514,"current_range_meters":20400,"station_id":"ce4bgt92rcd13ifvqcg0","pricing_plan_id":"cebpf4jnsgd1na2vs0mg"},{"bike_id":"f7e7ea71-f61c-422e-8c09-f5dbbee2476e","system_id":"levelo_inurba_marseille","lat":43.311131,"lon":5.377651,"is_reserved":false,"is_disabled":false,"rental_uris":{"android":"levelo://app?vid=f7e7ea71-f61c-422e-8c09-f5dbbee2476e","ios":"levelo://app?vid=f7e7ea71-f61c-422e-8c09-f5dbbee2476e"},"vehicle_type_id":"4","last_reported":1713600514,"current_range_meters":17200,"station_id":"ce4bgt92rcd13ifvqcg0","pricing_plan_id":"cebpf4jnsgd1na2vs0mg"},{"bike_id":"11639093-4ee7-4bac-964f-be6a057b2d91","system_id":"levelo_inurba_marseille","lat":43.311125,"lon":5.377624,"is_reserved":false,"is_disabled":false,"rental_uris":{"android":"levelo://app?vid=11639093-4ee7-4bac-964f-be6a057b2d91","ios":"levelo://app?vid=11639093-4ee7-4bac-964f-be6a057b2d91"},"vehicle_type_id":"4","last_reported":1713600514,"current_range_meters":29600,"station_id":"ce4bgt92rcd13ifvqcg0","pricing_plan_id":"cebpf4jnsgd1na2vs0mg"},{"bike_id":"205d0158-0a4a-4016-b071-b836a17f1b23","system_id":"levelo_inurba_marseille","lat":43.307945,"lon":5.376487,"is_reserved":false,"is_disabled":false,"rental_uris":{"android":"levelo://app?vid=205d0158-0a4a-4016-b071-b836a17f1b23","ios":"levelo://app?vid=205d0158-0a4a-4016-b071-b836a17f1b23"},"vehicle_type_id":"4","last_reported":1713600514,"current_range_meters":10000,"station_id":"ce4bgv92rcd13ifvqcq0","pricing_plan_id":"cebpf4jnsgd1na2vs0mg"},{"bike_id":"15919ef5-1584-4503-b76e-1a07c5256877","system_id":"levelo_inurba_marseille","lat":43.307945,"lon":5.376487,"is_reserved":false,"is_disabled":false,"rental_uris":{"android":"levelo://app?vid=15919ef5-1584-4503-b76e-1a07c5256877","ios":"levelo://app?vid=15919ef5-1584-4503-b76e-1a07c5256877"},"vehicle_type_id":"4","last_reported":1713600514,"current_range_meters":32000,"station_id":"ce4bgv92rcd13ifvqcq0","pricing_plan_id":"cebpf4jnsgd1na2vs0mg"},{"bike_id":"0f7f29b6-05de-4c0d-a15f-b1d052fd7e89","system_id":"levelo_inurba_marseille","lat":43.307789,"lon":5.376516,"is_reserved":false,"is_disabled":false,"rental_uris":{"android":"levelo://app?vid=0f7f29b6-05de-4c0d-a15f-b1d052fd7e89","ios":"levelo://app?vid=0f7f29b6-05de-4c0d-a15f-b1d052fd7e89"},"vehicle_type_id":"4","last_reported":1713600514,"current_range_meters":29200,"station_id":"ce4bgt92rcd13ifvqcf0","pricing_plan_id":"cebpf4jnsgd1na2vs0mg"},{"bike_id":"6d72d064-09cd-45d9-ab6b-01955e89588d","system_id":"levelo_inurba_marseille","lat":43.307945,"lon":5.376487,"is_reserved":false,"is_disabled":false,"rental_uris":{"android":"levelo://app?vid=6d72d064-09cd-45d9-ab6b-01955e89588d","ios":"levelo://app?vid=6d72d064-09cd-45d9-ab6b-01955e89588d"},"vehicle_type_id":"4","last_reported":1713600514,"current_range_meters":31200,"station_id":"ce4bgv92rcd13ifvqcq0","pricing_plan_id":"cebpf4jnsgd1na2vs0mg"},{"bike_id":"373106aa-d3ba-4845-acda-1f472d13eb63","system_id":"levelo_inurba_marseille","lat":43.317075,"lon":5.377367,"is_reserved":false,"is_disabled":false,"rental_uris":{"android":"levelo://app?vid=373106aa-d3ba-4845-acda-1f472d13eb63","ios":"levelo://app?vid=373106aa-d3ba-4845-acda-1f472d13eb63"},"vehicle_type_id":"4","last_reported":1713600514,"current_range_meters":25200,"station_id":"ce4bgth2rcd13ifvqch0","pricing_plan_id":"cebpf4jnsgd1na2vs0mg"},{"bike_id":"eef323c2-b82e-41d6-9e5c-332a623f5c0c","system_id":"levelo_inurba_marseille","lat":43.30304,"lon":5.368987,"is_reserved":false,"is_disabled":false,"rental_uris":{"android":"levelo://app?vid=eef323c2-b82e-41d6-9e5c-332a623f5c0c","ios":"levelo://app?vid=eef323c2-b82e-41d6-9e5c-332a623f5c0c"},"vehicle_type_id":"4","last_reported":1713600514,"current_range_meters":28800,"station_id":"ce4bgqh2rcd13ifvqc5g","pricing_plan_id":"cebpf4jnsgd1na2vs0mg"},{"bike_id":"db0d0afa-fba4-42d2-bbfb-e25779eb86f9","system_id":"levelo_inurba_marseille","lat":43.30304,"lon":5.368987,"is_reserved":false,"is_disabled":false,"rental_uris":{"android":"levelo://app?vid=db0d0afa-fba4-42d2-bbfb-e25779eb86f9","ios":"levelo://app?vid=db0d0afa-fba4-42d2-bbfb-e25779eb86f9"},"vehicle_type_id":"4","last_reported":1713600514,"current_range_meters":29200,"station_id":"ce4bgqh2rcd13ifvqc5g","pricing_plan_id":"cebpf4jnsgd1na2vs0mg"},{"bike_id":"8e0b6d1b-6067-4203-81ab-e21e623c43f2","system_id":"levelo_inurba_marseille","lat":43.30304,"lon":5.368987,"is_reserved":false,"is_disabled":false,"rental_uris":{"android":"levelo://app?vid=8e0b6d1b-6067-4203-81ab-e21e623c43f2","ios":"levelo://app?vid=8e0b6d1b-6067-4203-81ab-e21e623c43f2"},"vehicle_type_id":"4","last_reported":1713600514,"current_range_meters":24800,"station_id":"ce4bgqh2rcd13ifvqc5g","pricing_plan_id":"cebpf4jnsgd1na2vs0mg"},{"bike_id":"d24a38fd-6031-4c80-a0bd-1a63c3be69fe","system_id":"levelo_inurba_marseille","lat":43.30304,"lon":5.368987,"is_reserved":false,"is_disabled":false,"rental_uris":{"android":"levelo://app?vid=d24a38fd-6031-4c80-a0bd-1a63c3be69fe","ios":"levelo://app?vid=d24a38fd-6031-4c80-a0bd-1a63c3be69fe"},"vehicle_type_id":"4","last_reported":1713600514,"current_range_meters":27200,"station_id":"ce4bgqh2rcd13ifvqc5g","pricing_plan_id":"cebpf4jnsgd1na2vs0mg"},{"bike_id":"7e449145-360b-45f9-b210-ea16681bc582","system_id":"levelo_inurba_marseille","lat":43.30304,"lon":5.368987,"is_reserved":false,"is_disabled":false,"rental_uris":{"android":"levelo://app?vid=7e449145-360b-45f9-b210-ea16681bc582","ios":"levelo://app?vid=7e449145-360b-45f9-b210-ea16681bc582"},"vehicle_type_id":"4","last_reported":1713600514,"current_range_meters":26000,"station_id":"ce4bgqh2rcd13ifvqc5g","pricing_plan_id":"cebpf4jnsgd1na2vs0mg"},{"bike_id":"5e2e1191-ef1d-4579-b24f-38dd0f45c330","system_id":"levelo_inurba_marseille","lat":43.315293,"lon":5.380349,"is_reserved":false,"is_disabled":false,"rental_uris":{"android":"levelo://app?vid=5e2e1191-ef1d-4579-b24f-38dd0f45c330","ios":"levelo://app?vid=5e2e1191-ef1d-4579-b24f-38dd0f45c330"},"vehicle_type_id":"4","last_reported":1713600514,"current_range_meters":10400,"station_id":"ce4bhsp2rcd13ifvqi50","pricing_plan_id":"cebpf4jnsgd1na2vs0mg"},{"bike_id":"76a0184f-5e0c-4831-a94b-4e51772783e7","system_id":"levelo_inurba_marseille","lat":43.31532,"lon":5.38038,"is_reserved":false,"is_disabled":false,"rental_uris":{"android":"levelo://app?vid=76a0184f-5e0c-4831-a94b-4e51772783e7","ios":"levelo://app?vid=76a0184f-5e0c-4831-a94b-4e51772783e7"},"vehicle_type_id":"4","last_reported":1713600514,"current_range_meters":5600,"station_id":"ce4bhsp2rcd13ifvqi50","pricing_plan_id":"cebpf4jnsgd1na2vs0mg"},{"bike_id":"a361c869-d73f-4ca7-84eb-f37bc480418d","system_id":"levelo_inurba_marseille","lat":43.315293,"lon":5.380349,"is_reserved":false,"is_disabled":false,"rental_uris":{"android":"levelo://app?vid=a361c869-d73f-4ca7-84eb-f37bc480418d","ios":"levelo://app?vid=a361c869-d73f-4ca7-84eb-f37bc480418d"},"vehicle_type_id":"4","last_reported":1713600514,"current_range_meters":18800,"station_id":"ce4bhsp2rcd13ifvqi50","pricing_plan_id":"cebpf4jnsgd1na2vs0mg"},{"bike_id":"efc67217-1ca4-482c-8d20-4c1b77d5d46e","system_id":"levelo_inurba_marseille","lat":43.31528,"lon":5.38044,"is_reserved":false,"is_disabled":false,"rental_uris":{"android":"levelo://app?vid=efc67217-1ca4-482c-8d20-4c1b77d5d46e","ios":"levelo://app?vid=efc67217-1ca4-482c-8d20-4c1b77d5d46e"},"vehicle_type_id":"4","last_reported":1713600514,"current_range_meters":16800,"station_id":"ce4bhsp2rcd13ifvqi50","pricing_plan_id":"cebpf4jnsgd1na2vs0mg"},{"bike_id":"784dab7a-9274-464c-a877-08d402eb388b","system_id":"levelo_inurba_marseille","lat":43.301939,"lon":5.366286,"is_reserved":false,"is_disabled":false,"rental_uris":{"android":"levelo://app?vid=784dab7a-9274-464c-a877-08d402eb388b","ios":"levelo://app?vid=784dab7a-9274-464c-a877-08d402eb388b"},"vehicle_type_id":"4","last_reported":1713600514,"current_range_meters":30000,"station_id":"ce4bgrh2rcd13ifvqc8g","pricing_plan_id":"cebpf4jnsgd1na2vs0mg"},{"bike_id":"3a5a02de-ddff-40b8-88db-4820c003492d","system_id":"levelo_inurba_marseille","lat":43.301939,"lon":5.366286,"is_reserved":false,"is_disabled":false,"rental_uris":{"android":"levelo://app?vid=3a5a02de-ddff-40b8-88db-4820c003492d","ios":"levelo://app?vid=3a5a02de-ddff-40b8-88db-4820c003492d"},"vehicle_type_id":"4","last_reported":1713600514,"current_range_meters":24000,"station_id":"ce4bgrh2rcd13ifvqc8g","pricing_plan_id":"cebpf4jnsgd1na2vs0mg"},{"bike_id":"74b667a0-9948-4a1a-a3d6-ee0695f4a525","system_id":"levelo_inurba_marseille","lat":43.304606,"lon":5.379026,"is_reserved":false,"is_disabled":false,"rental_uris":{"android":"levelo://app?vid=74b667a0-9948-4a1a-a3d6-ee0695f4a525","ios":"levelo://app?vid=74b667a0-9948-4a1a-a3d6-ee0695f4a525"},"vehicle_type_id":"4","last_reported":1713600514,"current_range_meters":16000,"station_id":"ce4bgup2rcd13ifvqcn0","pricing_plan_id":"cebpf4jnsgd1na2vs0mg"},{"bike_id":"49222fde-c63f-40bf-9b91-513bbb704e55","system_id":"levelo_inurba_marseille","lat":43.304606,"lon":5.379026,"is_reserved":false,"is_disabled":false,"rental_uris":{"android":"levelo://app?vid=49222fde-c63f-40bf-9b91-513bbb704e55","ios":"levelo://app?vid=49222fde-c63f-40bf-9b91-513bbb704e55"},"vehicle_type_id":"4","last_reported":1713600514,"current_range_meters":18000,"station_id":"ce4bgup2rcd13ifvqcn0","pricing_plan_id":"cebpf4jnsgd1na2vs0mg"},{"bike_id":"036a539c-85cc-4067-9399-8da26909f8b9","system_id":"levelo_inurba_marseille","lat":43.304606,"lon":5.379026,"is_reserved":false,"is_disabled":false,"rental_uris":{"android":"levelo://app?vid=036a539c-85cc-4067-9399-8da26909f8b9","ios":"levelo://app?vid=036a539c-85cc-4067-9399-8da26909f8b9"},"vehicle_type_id":"4","last_reported":1713600514,"current_range_meters":10000,"station_id":"ce4bgup2rcd13ifvqcn0","pricing_plan_id":"cebpf4jnsgd1na2vs0mg"},{"bike_id":"1593f680-4931-462f-9d36-663db441390a","system_id":"levelo_inurba_marseille","lat":43.304606,"lon":5.379026,"is_reserved":false,"is_disabled":false,"rental_uris":{"android":"levelo://app?vid=1593f680-4931-462f-9d36-663db441390a","ios":"levelo://app?vid=1593f680-4931-462f-9d36-663db441390a"},"vehicle_type_id":"4","last_reported":1713600514,"current_range_meters":31200,"station_id":"ce4bgup2rcd13ifvqcn0","pricing_plan_id":"cebpf4jnsgd1na2vs0mg"},{"bike_id":"685711a8-2775-4fa5-8928-0794fb11d70d","system_id":"levelo_inurba_marseille","lat":43.304606,"lon":5.379026,"is_reserved":false,"is_disabled":false,"rental_uris":{"android":"levelo://app?vid=685711a8-2775-4fa5-8928-0794fb11d70d","ios":"levelo://app?vid=685711a8-2775-4fa5-8928-0794fb11d70d"},"vehicle_type_id":"4","last_reported":1713600514,"current_range_meters":26000,"station_id":"ce4bgup2rcd13ifvqcn0","pricing_plan_id":"cebpf4jnsgd1na2vs0mg"},{"bike_id":"1b378cb0-7fd7-4f20-a596-76b96a7564bb","system_id":"levelo_inurba_marseille","lat":43.30464,"lon":5.37898,"is_reserved":false,"is_disabled":false,"rental_uris":{"android":"levelo://app?vid=1b378cb0-7fd7-4f20-a596-76b96a7564bb","ios":"levelo://app?vid=1b378cb0-7fd7-4f20-a596-76b96a7564bb"},"vehicle_type_id":"4","last_reported":1713600514,"current_range_meters":31200,"station_id":"ce4bgup2rcd13ifvqcn0","pricing_plan_id":"cebpf4jnsgd1na2vs0mg"},{"bike_id":"975f96d0-53ee-4129-9b2d-4535b1a80597","system_id":"levelo_inurba_marseille","lat":43.304606,"lon":5.379026,"is_reserved":false,"is_disabled":false,"rental_uris":{"android":"levelo://app?vid=975f96d0-53ee-4129-9b2d-4535b1a80597","ios":"levelo://app?vid=975f96d0-53ee-4129-9b2d-4535b1a80597"},"vehicle_type_id":"4","last_reported":1713600514,"current_range_meters":31600,"station_id":"ce4bgup2rcd13ifvqcn0","pricing_plan_id":"cebpf4jnsgd1na2vs0mg"},{"bike_id":"78fa7d28-a408-47a5-978f-ffb52e9449fe","system_id":"levelo_inurba_marseille","lat":43.304606,"lon":5.379026,"is_reserved":false,"is_disabled":false,"rental_uris":{"android":"levelo://app?vid=78fa7d28-a408-47a5-978f-ffb52e9449fe","ios":"levelo://app?vid=78fa7d28-a408-47a5-978f-ffb52e9449fe"},"vehicle_type_id":"4","last_reported":1713600514,"current_range_meters":21600,"station_id":"ce4bgup2rcd13ifvqcn0","pricing_plan_id":"cebpf4jnsgd1na2vs0mg"},{"bike_id":"c5b334db-3c8c-4b60-86cc-128b9bf5f194","system_id":"levelo_inurba_marseille","lat":43.304606,"lon":5.379026,"is_reserved":false,"is_disabled":false,"rental_uris":{"android":"levelo://app?vid=c5b334db-3c8c-4b60-86cc-128b9bf5f194","ios":"levelo://app?vid=c5b334db-3c8c-4b60-86cc-128b9bf5f194"},"vehicle_type_id":"4","last_reported":1713600514,"current_range_meters":24800,"station_id":"ce4bgup2rcd13ifvqcn0","pricing_plan_id":"cebpf4jnsgd1na2vs0mg"},{"bike_id":"f8afec0b-0a97-4234-9087-f9973084e006","system_id":"levelo_inurba_marseille","lat":43.304606,"lon":5.379026,"is_reserved":false,"is_disabled":false,"rental_uris":{"android":"levelo://app?vid=f8afec0b-0a97-4234-9087-f9973084e006","ios":"levelo://app?vid=f8afec0b-0a97-4234-9087-f9973084e006"},"vehicle_type_id":"4","last_reported":1713600514,"current_range_meters":29200,"station_id":"ce4bgup2rcd13ifvqcn0","pricing_plan_id":"cebpf4jnsgd1na2vs0mg"},{"bike_id":"54ec7a3c-6040-4cc7-9fcc-5e81f820f09e","system_id":"levelo_inurba_marseille","lat":43.30461,"lon":5.37898,"is_reserved":false,"is_disabled":false,"rental_uris":{"android":"levelo://app?vid=54ec7a3c-6040-4cc7-9fcc-5e81f820f09e","ios":"levelo://app?vid=54ec7a3c-6040-4cc7-9fcc-5e81f820f09e"},"vehicle_type_id":"4","last_reported":1713600514,"current_range_meters":30800,"station_id":"ce4bgup2rcd13ifvqcn0","pricing_plan_id":"cebpf4jnsgd1na2vs0mg"},{"bike_id":"96cd6f89-196e-4e6f-852a-83f2687a6e15","system_id":"levelo_inurba_marseille","lat":43.304616,"lon":5.379028,"is_reserved":false,"is_disabled":false,"rental_uris":{"android":"levelo://app?vid=96cd6f89-196e-4e6f-852a-83f2687a6e15","ios":"levelo://app?vid=96cd6f89-196e-4e6f-852a-83f2687a6e15"},"vehicle_type_id":"4","last_reported":1713600514,"current_range_meters":23600,"station_id":"ce4bgup2rcd13ifvqcn0","pricing_plan_id":"cebpf4jnsgd1na2vs0mg"},{"bike_id":"0cbb6d7b-f22b-4f6a-92a5-738a1ecfc510","system_id":"levelo_inurba_marseille","lat":43.30465,"lon":5.37908,"is_reserved":false,"is_disabled":false,"rental_uris":{"android":"levelo://app?vid=0cbb6d7b-f22b-4f6a-92a5-738a1ecfc510","ios":"levelo://app?vid=0cbb6d7b-f22b-4f6a-92a5-738a1ecfc510"},"vehicle_type_id":"4","last_reported":1713600514,"current_range_meters":25600,"station_id":"ce4bgup2rcd13ifvqcn0","pricing_plan_id":"cebpf4jnsgd1na2vs0mg"},{"bike_id":"79841a17-296f-4782-91c6-32faea4deb8f","system_id":"levelo_inurba_marseille","lat":43.304606,"lon":5.379026,"is_reserved":false,"is_disabled":false,"rental_uris":{"android":"levelo://app?vid=79841a17-296f-4782-91c6-32faea4deb8f","ios":"levelo://app?vid=79841a17-296f-4782-91c6-32faea4deb8f"},"vehicle_type_id":"4","last_reported":1713600514,"current_range_meters":11200,"station_id":"ce4bgup2rcd13ifvqcn0","pricing_plan_id":"cebpf4jnsgd1na2vs0mg"},{"bike_id":"212c32de-3e4c-4918-b697-4c52f4bf4619","system_id":"levelo_inurba_marseille","lat":43.304606,"lon":5.379026,"is_reserved":false,"is_disabled":false,"rental_uris":{"android":"levelo://app?vid=212c32de-3e4c-4918-b697-4c52f4bf4619","ios":"levelo://app?vid=212c32de-3e4c-4918-b697-4c52f4bf4619"},"vehicle_type_id":"4","last_reported":1713600514,"current_range_meters":28800,"station_id":"ce4bgup2rcd13ifvqcn0","pricing_plan_id":"cebpf4jnsgd1na2vs0mg"},{"bike_id":"ffe5af7a-cb88-4dab-aa61-32a7168fecc5","system_id":"levelo_inurba_marseille","lat":43.304606,"lon":5.379026,"is_reserved":false,"is_disabled":false,"rental_uris":{"android":"levelo://app?vid=ffe5af7a-cb88-4dab-aa61-32a7168fecc5","ios":"levelo://app?vid=ffe5af7a-cb88-4dab-aa61-32a7168fecc5"},"vehicle_type_id":"4","last_reported":1713600514,"current_range_meters":9200,"station_id":"ce4bgup2rcd13ifvqcn0","pricing_plan_id":"cebpf4jnsgd1na2vs0mg"},{"bike_id":"04634867-318b-477c-8acf-bcd449a63572","system_id":"levelo_inurba_marseille","lat":43.324771,"lon":5.36557,"is_reserved":false,"is_disabled":false,"rental_uris":{"android":"levelo://app?vid=04634867-318b-477c-8acf-bcd449a63572","ios":"levelo://app?vid=04634867-318b-477c-8acf-bcd449a63572"},"vehicle_type_id":"4","last_reported":1713600514,"current_range_meters":29600,"station_id":"ce4bhs12rcd13ifvqhvg","pricing_plan_id":"cebpf4jnsgd1na2vs0mg"},{"bike_id":"22527756-99f8-4ce6-a93f-66babede68f3","system_id":"levelo_inurba_marseille","lat":43.304583,"lon":5.37903,"is_reserved":false,"is_disabled":false,"rental_uris":{"android":"levelo://app?vid=22527756-99f8-4ce6-a93f-66babede68f3","ios":"levelo://app?vid=22527756-99f8-4ce6-a93f-66babede68f3"},"vehicle_type_id":"4","last_reported":1713600514,"current_range_meters":17200,"station_id":"ce4bgup2rcd13ifvqcn0","pricing_plan_id":"cebpf4jnsgd1na2vs0mg"},{"bike_id":"dbea35dd-6bd2-4a18-a83f-1de799cd09cc","system_id":"levelo_inurba_marseille","lat":43.30459,"lon":5.37904,"is_reserved":false,"is_disabled":false,"rental_uris":{"android":"levelo://app?vid=dbea35dd-6bd2-4a18-a83f-1de799cd09cc","ios":"levelo://app?vid=dbea35dd-6bd2-4a18-a83f-1de799cd09cc"},"vehicle_type_id":"4","last_reported":1713600514,"current_range_meters":27200,"station_id":"ce4bgup2rcd13ifvqcn0","pricing_plan_id":"cebpf4jnsgd1na2vs0mg"},{"bike_id":"95c51c53-43f4-4d4e-ab43-e5e8f0f0dde3","system_id":"levelo_inurba_marseille","lat":43.304606,"lon":5.379026,"is_reserved":false,"is_disabled":false,"rental_uris":{"android":"levelo://app?vid=95c51c53-43f4-4d4e-ab43-e5e8f0f0dde3","ios":"levelo://app?vid=95c51c53-43f4-4d4e-ab43-e5e8f0f0dde3"},"vehicle_type_id":"4","last_reported":1713600514,"current_range_meters":31600,"station_id":"ce4bgup2rcd13ifvqcn0","pricing_plan_id":"cebpf4jnsgd1na2vs0mg"},{"bike_id":"915d539d-13c2-459e-8242-8e279bd126fe","system_id":"levelo_inurba_marseille","lat":43.304611,"lon":5.379078,"is_reserved":false,"is_disabled":false,"rental_uris":{"android":"levelo://app?vid=915d539d-13c2-459e-8242-8e279bd126fe","ios":"levelo://app?vid=915d539d-13c2-459e-8242-8e279bd126fe"},"vehicle_type_id":"4","last_reported":1713600514,"current_range_meters":22400,"station_id":"ce4bgup2rcd13ifvqcn0","pricing_plan_id":"cebpf4jnsgd1na2vs0mg"},{"bike_id":"cd998e18-0141-4fd8-9e39-5f923ae7dc28","system_id":"levelo_inurba_marseille","lat":43.304606,"lon":5.379026,"is_reserved":false,"is_disabled":false,"rental_uris":{"android":"levelo://app?vid=cd998e18-0141-4fd8-9e39-5f923ae7dc28","ios":"levelo://app?vid=cd998e18-0141-4fd8-9e39-5f923ae7dc28"},"vehicle_type_id":"4","last_reported":1713600514,"current_range_meters":27600,"station_id":"ce4bgup2rcd13ifvqcn0","pricing_plan_id":"cebpf4jnsgd1na2vs0mg"},{"bike_id":"c4f42707-a3eb-407c-97de-178f32304662","system_id":"levelo_inurba_marseille","lat":43.304144,"lon":5.378472,"is_reserved":false,"is_disabled":false,"rental_uris":{"android":"levelo://app?vid=c4f42707-a3eb-407c-97de-178f32304662","ios":"levelo://app?vid=c4f42707-a3eb-407c-97de-178f32304662"},"vehicle_type_id":"4","last_reported":1713600514,"current_range_meters":24400,"station_id":"ce4bgkp2rcd13ifvqbmg","pricing_plan_id":"cebpf4jnsgd1na2vs0mg"},{"bike_id":"0db9293b-ae16-4cdb-b9a5-8ca0d446c6e0","system_id":"levelo_inurba_marseille","lat":43.304606,"lon":5.379026,"is_reserved":false,"is_disabled":false,"rental_uris":{"android":"levelo://app?vid=0db9293b-ae16-4cdb-b9a5-8ca0d446c6e0","ios":"levelo://app?vid=0db9293b-ae16-4cdb-b9a5-8ca0d446c6e0"},"vehicle_type_id":"4","last_reported":1713600514,"current_range_meters":28800,"station_id":"ce4bgup2rcd13ifvqcn0","pricing_plan_id":"cebpf4jnsgd1na2vs0mg"},{"bike_id":"7ecb29e4-a830-4ae2-ad3e-5517ed1cbabe","system_id":"levelo_inurba_marseille","lat":43.304643,"lon":5.37915,"is_reserved":false,"is_disabled":false,"rental_uris":{"android":"levelo://app?vid=7ecb29e4-a830-4ae2-ad3e-5517ed1cbabe","ios":"levelo://app?vid=7ecb29e4-a830-4ae2-ad3e-5517ed1cbabe"},"vehicle_type_id":"4","last_reported":1713600514,"current_range_meters":26400,"station_id":"ce4bgup2rcd13ifvqcn0","pricing_plan_id":"cebpf4jnsgd1na2vs0mg"},{"bike_id":"5688b601-18b0-4ed0-a239-69f1868feb44","system_id":"levelo_inurba_marseille","lat":43.30458,"lon":5.37908,"is_reserved":false,"is_disabled":false,"rental_uris":{"android":"levelo://app?vid=5688b601-18b0-4ed0-a239-69f1868feb44","ios":"levelo://app?vid=5688b601-18b0-4ed0-a239-69f1868feb44"},"vehicle_type_id":"4","last_reported":1713600514,"current_range_meters":26000,"station_id":"ce4bgup2rcd13ifvqcn0","pricing_plan_id":"cebpf4jnsgd1na2vs0mg"},{"bike_id":"c96794c7-9794-4554-89eb-87cbd43f8c75","system_id":"levelo_inurba_marseille","lat":43.304606,"lon":5.379026,"is_reserved":false,"is_disabled":false,"rental_uris":{"android":"levelo://app?vid=c96794c7-9794-4554-89eb-87cbd43f8c75","ios":"levelo://app?vid=c96794c7-9794-4554-89eb-87cbd43f8c75"},"vehicle_type_id":"4","last_reported":1713600514,"current_range_meters":25600,"station_id":"ce4bgup2rcd13ifvqcn0","pricing_plan_id":"cebpf4jnsgd1na2vs0mg"},{"bike_id":"87f9e4f2-9a1c-45e9-9d5f-df5c314d8ba1","system_id":"levelo_inurba_marseille","lat":43.324771,"lon":5.36557,"is_reserved":false,"is_disabled":false,"rental_uris":{"android":"levelo://app?vid=87f9e4f2-9a1c-45e9-9d5f-df5c314d8ba1","ios":"levelo://app?vid=87f9e4f2-9a1c-45e9-9d5f-df5c314d8ba1"},"vehicle_type_id":"4","last_reported":1713600514,"current_range_meters":9200,"station_id":"ce4bhs12rcd13ifvqhvg","pricing_plan_id":"cebpf4jnsgd1na2vs0mg"},{"bike_id":"b280b713-5fa0-4a2a-b937-a039e8f3cdaa","system_id":"levelo_inurba_marseille","lat":43.304606,"lon":5.379026,"is_reserved":false,"is_disabled":false,"rental_uris":{"android":"levelo://app?vid=b280b713-5fa0-4a2a-b937-a039e8f3cdaa","ios":"levelo://app?vid=b280b713-5fa0-4a2a-b937-a039e8f3cdaa"},"vehicle_type_id":"4","last_reported":1713600514,"current_range_meters":22800,"station_id":"ce4bgup2rcd13ifvqcn0","pricing_plan_id":"cebpf4jnsgd1na2vs0mg"},{"bike_id":"16a235df-59d1-4350-8a2b-481a4007cd41","system_id":"levelo_inurba_marseille","lat":43.324771,"lon":5.36557,"is_reserved":false,"is_disabled":false,"rental_uris":{"android":"levelo://app?vid=16a235df-59d1-4350-8a2b-481a4007cd41","ios":"levelo://app?vid=16a235df-59d1-4350-8a2b-481a4007cd41"},"vehicle_type_id":"4","last_reported":1713600514,"current_range_meters":18000,"station_id":"ce4bhs12rcd13ifvqhvg","pricing_plan_id":"cebpf4jnsgd1na2vs0mg"},{"bike_id":"dda43f02-390f-4abd-a7c4-f888e1adbe8a","system_id":"levelo_inurba_marseille","lat":43.304606,"lon":5.379026,"is_reserved":false,"is_disabled":false,"rental_uris":{"android":"levelo://app?vid=dda43f02-390f-4abd-a7c4-f888e1adbe8a","ios":"levelo://app?vid=dda43f02-390f-4abd-a7c4-f888e1adbe8a"},"vehicle_type_id":"4","last_reported":1713600514,"current_range_meters":29600,"station_id":"ce4bgup2rcd13ifvqcn0","pricing_plan_id":"cebpf4jnsgd1na2vs0mg"},{"bike_id":"1b6aed86-338f-4a51-9ed8-88ea689c4811","system_id":"levelo_inurba_marseille","lat":43.324771,"lon":5.36557,"is_reserved":false,"is_disabled":false,"rental_uris":{"android":"levelo://app?vid=1b6aed86-338f-4a51-9ed8-88ea689c4811","ios":"levelo://app?vid=1b6aed86-338f-4a51-9ed8-88ea689c4811"},"vehicle_type_id":"4","last_reported":1713600514,"current_range_meters":6400,"station_id":"ce4bhs12rcd13ifvqhvg","pricing_plan_id":"cebpf4jnsgd1na2vs0mg"},{"bike_id":"fa5bf5ed-e301-4c92-afb8-9f09cc0cc64a","system_id":"levelo_inurba_marseille","lat":43.324771,"lon":5.36557,"is_reserved":false,"is_disabled":false,"rental_uris":{"android":"levelo://app?vid=fa5bf5ed-e301-4c92-afb8-9f09cc0cc64a","ios":"levelo://app?vid=fa5bf5ed-e301-4c92-afb8-9f09cc0cc64a"},"vehicle_type_id":"4","last_reported":1713600514,"current_range_meters":18400,"station_id":"ce4bhs12rcd13ifvqhvg","pricing_plan_id":"cebpf4jnsgd1na2vs0mg"},{"bike_id":"80dacc88-f9a5-4b5f-80f4-57bd33108ecb","system_id":"levelo_inurba_marseille","lat":43.324771,"lon":5.36557,"is_reserved":false,"is_disabled":false,"rental_uris":{"android":"levelo://app?vid=80dacc88-f9a5-4b5f-80f4-57bd33108ecb","ios":"levelo://app?vid=80dacc88-f9a5-4b5f-80f4-57bd33108ecb"},"vehicle_type_id":"4","last_reported":1713600514,"current_range_meters":29200,"station_id":"ce4bhs12rcd13ifvqhvg","pricing_plan_id":"cebpf4jnsgd1na2vs0mg"},{"bike_id":"c17751bf-4b1e-4ed5-8ec6-1aa8f0f5ee16","system_id":"levelo_inurba_marseille","lat":43.324771,"lon":5.36557,"is_reserved":false,"is_disabled":false,"rental_uris":{"android":"levelo://app?vid=c17751bf-4b1e-4ed5-8ec6-1aa8f0f5ee16","ios":"levelo://app?vid=c17751bf-4b1e-4ed5-8ec6-1aa8f0f5ee16"},"vehicle_type_id":"4","last_reported":1713600514,"current_range_meters":6800,"station_id":"ce4bhs12rcd13ifvqhvg","pricing_plan_id":"cebpf4jnsgd1na2vs0mg"},{"bike_id":"52b0779b-4586-454b-af21-ab9f0f53d53c","system_id":"levelo_inurba_marseille","lat":43.324771,"lon":5.36557,"is_reserved":false,"is_disabled":false,"rental_uris":{"android":"levelo://app?vid=52b0779b-4586-454b-af21-ab9f0f53d53c","ios":"levelo://app?vid=52b0779b-4586-454b-af21-ab9f0f53d53c"},"vehicle_type_id":"4","last_reported":1713600514,"current_range_meters":14000,"station_id":"ce4bhs12rcd13ifvqhvg","pricing_plan_id":"cebpf4jnsgd1na2vs0mg"},{"bike_id":"ad02f44c-b1c4-4d45-98f5-14d93bd0c9b3","system_id":"levelo_inurba_marseille","lat":43.324771,"lon":5.36557,"is_reserved":false,"is_disabled":false,"rental_uris":{"android":"levelo://app?vid=ad02f44c-b1c4-4d45-98f5-14d93bd0c9b3","ios":"levelo://app?vid=ad02f44c-b1c4-4d45-98f5-14d93bd0c9b3"},"vehicle_type_id":"4","last_reported":1713600514,"current_range_meters":22400,"station_id":"ce4bhs12rcd13ifvqhvg","pricing_plan_id":"cebpf4jnsgd1na2vs0mg"},{"bike_id":"52cb1c9e-7ae5-4367-bd2f-92a2c31d52fa","system_id":"levelo_inurba_marseille","lat":43.30452,"lon":5.37913,"is_reserved":false,"is_disabled":false,"rental_uris":{"android":"levelo://app?vid=52cb1c9e-7ae5-4367-bd2f-92a2c31d52fa","ios":"levelo://app?vid=52cb1c9e-7ae5-4367-bd2f-92a2c31d52fa"},"vehicle_type_id":"4","last_reported":1713600514,"current_range_meters":11600,"station_id":"ce4bgup2rcd13ifvqcn0","pricing_plan_id":"cebpf4jnsgd1na2vs0mg"},{"bike_id":"30993a85-5578-4aa2-8518-bb101417392d","system_id":"levelo_inurba_marseille","lat":43.324771,"lon":5.36557,"is_reserved":false,"is_disabled":false,"rental_uris":{"android":"levelo://app?vid=30993a85-5578-4aa2-8518-bb101417392d","ios":"levelo://app?vid=30993a85-5578-4aa2-8518-bb101417392d"},"vehicle_type_id":"4","last_reported":1713600514,"current_range_meters":6800,"station_id":"ce4bhs12rcd13ifvqhvg","pricing_plan_id":"cebpf4jnsgd1na2vs0mg"},{"bike_id":"e8d2f83a-3284-4fa3-834e-a6932e5ce29a","system_id":"levelo_inurba_marseille","lat":43.324771,"lon":5.36557,"is_reserved":false,"is_disabled":false,"rental_uris":{"android":"levelo://app?vid=e8d2f83a-3284-4fa3-834e-a6932e5ce29a","ios":"levelo://app?vid=e8d2f83a-3284-4fa3-834e-a6932e5ce29a"},"vehicle_type_id":"4","last_reported":1713600514,"current_range_meters":19200,"station_id":"ce4bhs12rcd13ifvqhvg","pricing_plan_id":"cebpf4jnsgd1na2vs0mg"},{"bike_id":"1c8d6126-d657-4871-95d9-7392dd2ee764","system_id":"levelo_inurba_marseille","lat":43.324771,"lon":5.36557,"is_reserved":false,"is_disabled":false,"rental_uris":{"android":"levelo://app?vid=1c8d6126-d657-4871-95d9-7392dd2ee764","ios":"levelo://app?vid=1c8d6126-d657-4871-95d9-7392dd2ee764"},"vehicle_type_id":"4","last_reported":1713600514,"current_range_meters":23600,"station_id":"ce4bhs12rcd13ifvqhvg","pricing_plan_id":"cebpf4jnsgd1na2vs0mg"},{"bike_id":"67447d3f-cad9-4c36-b6ae-c1da06fd72cc","system_id":"levelo_inurba_marseille","lat":43.324771,"lon":5.36557,"is_reserved":false,"is_disabled":false,"rental_uris":{"android":"levelo://app?vid=67447d3f-cad9-4c36-b6ae-c1da06fd72cc","ios":"levelo://app?vid=67447d3f-cad9-4c36-b6ae-c1da06fd72cc"},"vehicle_type_id":"4","last_reported":1713600514,"current_range_meters":30800,"station_id":"ce4bhs12rcd13ifvqhvg","pricing_plan_id":"cebpf4jnsgd1na2vs0mg"},{"bike_id":"4218fa17-ef8e-4b52-86f4-dbce013fe589","system_id":"levelo_inurba_marseille","lat":43.304606,"lon":5.379026,"is_reserved":false,"is_disabled":false,"rental_uris":{"android":"levelo://app?vid=4218fa17-ef8e-4b52-86f4-dbce013fe589","ios":"levelo://app?vid=4218fa17-ef8e-4b52-86f4-dbce013fe589"},"vehicle_type_id":"4","last_reported":1713600514,"current_range_meters":26800,"station_id":"ce4bgup2rcd13ifvqcn0","pricing_plan_id":"cebpf4jnsgd1na2vs0mg"},{"bike_id":"e0952852-867e-496d-a34e-ae34b77c7a73","system_id":"levelo_inurba_marseille","lat":43.30438,"lon":5.3791,"is_reserved":false,"is_disabled":false,"rental_uris":{"android":"levelo://app?vid=e0952852-867e-496d-a34e-ae34b77c7a73","ios":"levelo://app?vid=e0952852-867e-496d-a34e-ae34b77c7a73"},"vehicle_type_id":"4","last_reported":1713600514,"current_range_meters":2800,"station_id":"ce4bgup2rcd13ifvqcn0","pricing_plan_id":"cebpf4jnsgd1na2vs0mg"},{"bike_id":"64bb2503-629a-4f30-8f33-4e93c7cb20fc","system_id":"levelo_inurba_marseille","lat":43.304606,"lon":5.379026,"is_reserved":false,"is_disabled":false,"rental_uris":{"android":"levelo://app?vid=64bb2503-629a-4f30-8f33-4e93c7cb20fc","ios":"levelo://app?vid=64bb2503-629a-4f30-8f33-4e93c7cb20fc"},"vehicle_type_id":"4","last_reported":1713600514,"current_range_meters":18000,"station_id":"ce4bgup2rcd13ifvqcn0","pricing_plan_id":"cebpf4jnsgd1na2vs0mg"},{"bike_id":"72464416-59fa-43f4-8215-38427965cce3","system_id":"levelo_inurba_marseille","lat":43.310804,"lon":5.38359,"is_reserved":false,"is_disabled":false,"rental_uris":{"android":"levelo://app?vid=72464416-59fa-43f4-8215-38427965cce3","ios":"levelo://app?vid=72464416-59fa-43f4-8215-38427965cce3"},"vehicle_type_id":"4","last_reported":1713600514,"current_range_meters":22000,"station_id":"ce4bgv92rcd13ifvqcr0","pricing_plan_id":"cebpf4jnsgd1na2vs0mg"},{"bike_id":"dfab20f5-03c2-4fa2-9a40-805a764524b3","system_id":"levelo_inurba_marseille","lat":43.302784,"lon":5.377158,"is_reserved":false,"is_disabled":false,"rental_uris":{"android":"levelo://app?vid=dfab20f5-03c2-4fa2-9a40-805a764524b3","ios":"levelo://app?vid=dfab20f5-03c2-4fa2-9a40-805a764524b3"},"vehicle_type_id":"4","last_reported":1713600514,"current_range_meters":31600,"station_id":"ce4bguh2rcd13ifvqcj0","pricing_plan_id":"cebpf4jnsgd1na2vs0mg"},{"bike_id":"7273811f-49c5-4969-b314-798d8efa5321","system_id":"levelo_inurba_marseille","lat":43.302784,"lon":5.377158,"is_reserved":false,"is_disabled":false,"rental_uris":{"android":"levelo://app?vid=7273811f-49c5-4969-b314-798d8efa5321","ios":"levelo://app?vid=7273811f-49c5-4969-b314-798d8efa5321"},"vehicle_type_id":"4","last_reported":1713600514,"current_range_meters":21200,"station_id":"ce4bguh2rcd13ifvqcj0","pricing_plan_id":"cebpf4jnsgd1na2vs0mg"},{"bike_id":"f43dd888-05c4-43ab-8952-4cd2526395fe","system_id":"levelo_inurba_marseille","lat":43.301429,"lon":5.37413,"is_reserved":false,"is_disabled":false,"rental_uris":{"android":"levelo://app?vid=f43dd888-05c4-43ab-8952-4cd2526395fe","ios":"levelo://app?vid=f43dd888-05c4-43ab-8952-4cd2526395fe"},"vehicle_type_id":"4","last_reported":1713600514,"current_range_meters":10400,"station_id":"ce4bgs92rcd13ifvqcc0","pricing_plan_id":"cebpf4jnsgd1na2vs0mg"},{"bike_id":"808647e7-b28e-489e-b108-42496749f55e","system_id":"levelo_inurba_marseille","lat":43.302784,"lon":5.377158,"is_reserved":false,"is_disabled":false,"rental_uris":{"android":"levelo://app?vid=808647e7-b28e-489e-b108-42496749f55e","ios":"levelo://app?vid=808647e7-b28e-489e-b108-42496749f55e"},"vehicle_type_id":"4","last_reported":1713600514,"current_range_meters":30400,"station_id":"ce4bguh2rcd13ifvqcj0","pricing_plan_id":"cebpf4jnsgd1na2vs0mg"},{"bike_id":"70bdbd93-18a1-40e7-a06f-ddaefe86d298","system_id":"levelo_inurba_marseille","lat":43.301429,"lon":5.37413,"is_reserved":false,"is_disabled":false,"rental_uris":{"android":"levelo://app?vid=70bdbd93-18a1-40e7-a06f-ddaefe86d298","ios":"levelo://app?vid=70bdbd93-18a1-40e7-a06f-ddaefe86d298"},"vehicle_type_id":"4","last_reported":1713600514,"current_range_meters":8000,"station_id":"ce4bgs92rcd13ifvqcc0","pricing_plan_id":"cebpf4jnsgd1na2vs0mg"},{"bike_id":"4e362a7a-37d3-41a5-8ba6-a1c0165ea8ef","system_id":"levelo_inurba_marseille","lat":43.301429,"lon":5.37413,"is_reserved":false,"is_disabled":false,"rental_uris":{"android":"levelo://app?vid=4e362a7a-37d3-41a5-8ba6-a1c0165ea8ef","ios":"levelo://app?vid=4e362a7a-37d3-41a5-8ba6-a1c0165ea8ef"},"vehicle_type_id":"4","last_reported":1713600514,"current_range_meters":23600,"station_id":"ce4bgs92rcd13ifvqcc0","pricing_plan_id":"cebpf4jnsgd1na2vs0mg"},{"bike_id":"3075f3a8-2212-4787-a504-966b0766ece0","system_id":"levelo_inurba_marseille","lat":43.302784,"lon":5.377158,"is_reserved":false,"is_disabled":false,"rental_uris":{"android":"levelo://app?vid=3075f3a8-2212-4787-a504-966b0766ece0","ios":"levelo://app?vid=3075f3a8-2212-4787-a504-966b0766ece0"},"vehicle_type_id":"4","last_reported":1713600514,"current_range_meters":1200,"station_id":"ce4bguh2rcd13ifvqcj0","pricing_plan_id":"cebpf4jnsgd1na2vs0mg"},{"bike_id":"b2beaead-4b8f-473e-9f7c-d2c661332c7e","system_id":"levelo_inurba_marseille","lat":43.30143,"lon":5.37413,"is_reserved":false,"is_disabled":false,"rental_uris":{"android":"levelo://app?vid=b2beaead-4b8f-473e-9f7c-d2c661332c7e","ios":"levelo://app?vid=b2beaead-4b8f-473e-9f7c-d2c661332c7e"},"vehicle_type_id":"4","last_reported":1713600514,"current_range_meters":17600,"station_id":"ce4bgs92rcd13ifvqcc0","pricing_plan_id":"cebpf4jnsgd1na2vs0mg"},{"bike_id":"7bbc045c-de08-461b-af45-5e4bfa704f6a","system_id":"levelo_inurba_marseille","lat":43.301429,"lon":5.37413,"is_reserved":false,"is_disabled":false,"rental_uris":{"android":"levelo://app?vid=7bbc045c-de08-461b-af45-5e4bfa704f6a","ios":"levelo://app?vid=7bbc045c-de08-461b-af45-5e4bfa704f6a"},"vehicle_type_id":"4","last_reported":1713600514,"current_range_meters":27600,"station_id":"ce4bgs92rcd13ifvqcc0","pricing_plan_id":"cebpf4jnsgd1na2vs0mg"},{"bike_id":"767d584a-c00e-4934-8bf0-4b0534c16263","system_id":"levelo_inurba_marseille","lat":43.30143,"lon":5.37413,"is_reserved":false,"is_disabled":false,"rental_uris":{"android":"levelo://app?vid=767d584a-c00e-4934-8bf0-4b0534c16263","ios":"levelo://app?vid=767d584a-c00e-4934-8bf0-4b0534c16263"},"vehicle_type_id":"4","last_reported":1713600514,"current_range_meters":23200,"station_id":"ce4bgs92rcd13ifvqcc0","pricing_plan_id":"cebpf4jnsgd1na2vs0mg"},{"bike_id":"1eba29e6-c739-4733-b72e-d82898924c25","system_id":"levelo_inurba_marseille","lat":43.302784,"lon":5.377158,"is_reserved":false,"is_disabled":false,"rental_uris":{"android":"levelo://app?vid=1eba29e6-c739-4733-b72e-d82898924c25","ios":"levelo://app?vid=1eba29e6-c739-4733-b72e-d82898924c25"},"vehicle_type_id":"4","last_reported":1713600514,"current_range_meters":30000,"station_id":"ce4bguh2rcd13ifvqcj0","pricing_plan_id":"cebpf4jnsgd1na2vs0mg"},{"bike_id":"71cf26d6-2800-48dd-ae6e-8eda1eae26de","system_id":"levelo_inurba_marseille","lat":43.305395,"lon":5.380968,"is_reserved":false,"is_disabled":false,"rental_uris":{"android":"levelo://app?vid=71cf26d6-2800-48dd-ae6e-8eda1eae26de","ios":"levelo://app?vid=71cf26d6-2800-48dd-ae6e-8eda1eae26de"},"vehicle_type_id":"4","last_reported":1713600514,"current_range_meters":18000,"station_id":"","pricing_plan_id":"cebpf4jnsgd1na2vs0mg"},{"bike_id":"d56c7ff7-fb71-4f19-a7f0-9c1fb5410a84","system_id":"levelo_inurba_marseille","lat":43.302784,"lon":5.377158,"is_reserved":false,"is_disabled":false,"rental_uris":{"android":"levelo://app?vid=d56c7ff7-fb71-4f19-a7f0-9c1fb5410a84","ios":"levelo://app?vid=d56c7ff7-fb71-4f19-a7f0-9c1fb5410a84"},"vehicle_type_id":"4","last_reported":1713600514,"current_range_meters":25200,"station_id":"ce4bguh2rcd13ifvqcj0","pricing_plan_id":"cebpf4jnsgd1na2vs0mg"},{"bike_id":"40cfe1f1-067f-4c5e-92c4-1c94ef1b258f","system_id":"levelo_inurba_marseille","lat":43.319935,"lon":5.381699,"is_reserved":false,"is_disabled":false,"rental_uris":{"android":"levelo://app?vid=40cfe1f1-067f-4c5e-92c4-1c94ef1b258f","ios":"levelo://app?vid=40cfe1f1-067f-4c5e-92c4-1c94ef1b258f"},"vehicle_type_id":"4","last_reported":1713600514,"current_range_meters":800,"station_id":"ce4bhr12rcd13ifvqhpg","pricing_plan_id":"cebpf4jnsgd1na2vs0mg"},{"bike_id":"30d617ff-4f74-4992-b3e5-455e6c9e9129","system_id":"levelo_inurba_marseille","lat":43.319935,"lon":5.381699,"is_reserved":false,"is_disabled":false,"rental_uris":{"android":"levelo://app?vid=30d617ff-4f74-4992-b3e5-455e6c9e9129","ios":"levelo://app?vid=30d617ff-4f74-4992-b3e5-455e6c9e9129"},"vehicle_type_id":"4","last_reported":1713600514,"current_range_meters":22400,"station_id":"ce4bhr12rcd13ifvqhpg","pricing_plan_id":"cebpf4jnsgd1na2vs0mg"},{"bike_id":"b76bf36b-5a1e-4bef-9f76-791700d9abe6","system_id":"levelo_inurba_marseille","lat":43.319935,"lon":5.381699,"is_reserved":false,"is_disabled":false,"rental_uris":{"android":"levelo://app?vid=b76bf36b-5a1e-4bef-9f76-791700d9abe6","ios":"levelo://app?vid=b76bf36b-5a1e-4bef-9f76-791700d9abe6"},"vehicle_type_id":"4","last_reported":1713600514,"current_range_meters":5200,"station_id":"ce4bhr12rcd13ifvqhpg","pricing_plan_id":"cebpf4jnsgd1na2vs0mg"},{"bike_id":"ac8a896b-4c67-4f80-a4c4-51554c975d85","system_id":"levelo_inurba_marseille","lat":43.319935,"lon":5.381699,"is_reserved":false,"is_disabled":false,"rental_uris":{"android":"levelo://app?vid=ac8a896b-4c67-4f80-a4c4-51554c975d85","ios":"levelo://app?vid=ac8a896b-4c67-4f80-a4c4-51554c975d85"},"vehicle_type_id":"4","last_reported":1713600514,"current_range_meters":19600,"station_id":"ce4bhr12rcd13ifvqhpg","pricing_plan_id":"cebpf4jnsgd1na2vs0mg"},{"bike_id":"d212c281-3522-420a-b06f-b80966290c73","system_id":"levelo_inurba_marseille","lat":43.319935,"lon":5.381699,"is_reserved":false,"is_disabled":false,"rental_uris":{"android":"levelo://app?vid=d212c281-3522-420a-b06f-b80966290c73","ios":"levelo://app?vid=d212c281-3522-420a-b06f-b80966290c73"},"vehicle_type_id":"4","last_reported":1713600514,"current_range_meters":12400,"station_id":"ce4bhr12rcd13ifvqhpg","pricing_plan_id":"cebpf4jnsgd1na2vs0mg"},{"bike_id":"334e3407-4f9b-4b57-a5ef-39033f25d948","system_id":"levelo_inurba_marseille","lat":43.319935,"lon":5.381699,"is_reserved":false,"is_disabled":false,"rental_uris":{"android":"levelo://app?vid=334e3407-4f9b-4b57-a5ef-39033f25d948","ios":"levelo://app?vid=334e3407-4f9b-4b57-a5ef-39033f25d948"},"vehicle_type_id":"4","last_reported":1713600514,"current_range_meters":8400,"station_id":"ce4bhr12rcd13ifvqhpg","pricing_plan_id":"cebpf4jnsgd1na2vs0mg"},{"bike_id":"51199d86-cdb4-4a3e-8d71-d94ec8199b80","system_id":"levelo_inurba_marseille","lat":43.310965,"lon":5.384603,"is_reserved":false,"is_disabled":false,"rental_uris":{"android":"levelo://app?vid=51199d86-cdb4-4a3e-8d71-d94ec8199b80","ios":"levelo://app?vid=51199d86-cdb4-4a3e-8d71-d94ec8199b80"},"vehicle_type_id":"4","last_reported":1713600514,"current_range_meters":0,"station_id":"","pricing_plan_id":"cebpf4jnsgd1na2vs0mg"},{"bike_id":"dea46f93-b078-43f7-9cc2-80da49bb6285","system_id":"levelo_inurba_marseille","lat":43.313644,"lon":5.384896,"is_reserved":false,"is_disabled":false,"rental_uris":{"android":"levelo://app?vid=dea46f93-b078-43f7-9cc2-80da49bb6285","ios":"levelo://app?vid=dea46f93-b078-43f7-9cc2-80da49bb6285"},"vehicle_type_id":"4","last_reported":1713600514,"current_range_meters":25200,"station_id":"ce4bgt92rcd13ifvqcf0","pricing_plan_id":"cebpf4jnsgd1na2vs0mg"},{"bike_id":"8854c623-7909-414e-8f3b-34bc4ff6663c","system_id":"levelo_inurba_marseille","lat":43.313727,"lon":5.384939,"is_reserved":false,"is_disabled":false,"rental_uris":{"android":"levelo://app?vid=8854c623-7909-414e-8f3b-34bc4ff6663c","ios":"levelo://app?vid=8854c623-7909-414e-8f3b-34bc4ff6663c"},"vehicle_type_id":"4","last_reported":1713600514,"current_range_meters":20800,"station_id":"ce4bgt92rcd13ifvqcf0","pricing_plan_id":"cebpf4jnsgd1na2vs0mg"},{"bike_id":"db155f44-2acb-47d0-ba4e-95cbabe7a15b","system_id":"levelo_inurba_marseille","lat":43.313571,"lon":5.384829,"is_reserved":false,"is_disabled":false,"rental_uris":{"android":"levelo://app?vid=db155f44-2acb-47d0-ba4e-95cbabe7a15b","ios":"levelo://app?vid=db155f44-2acb-47d0-ba4e-95cbabe7a15b"},"vehicle_type_id":"4","last_reported":1713600514,"current_range_meters":30400,"station_id":"ce4bgt92rcd13ifvqcf0","pricing_plan_id":"cebpf4jnsgd1na2vs0mg"},{"bike_id":"6ea55af7-8f57-4737-8dd3-26b89123a2c9","system_id":"levelo_inurba_marseille","lat":43.31367,"lon":5.38497,"is_reserved":false,"is_disabled":false,"rental_uris":{"android":"levelo://app?vid=6ea55af7-8f57-4737-8dd3-26b89123a2c9","ios":"levelo://app?vid=6ea55af7-8f57-4737-8dd3-26b89123a2c9"},"vehicle_type_id":"4","last_reported":1713600514,"current_range_meters":26000,"station_id":"ce4bgt92rcd13ifvqcf0","pricing_plan_id":"cebpf4jnsgd1na2vs0mg"},{"bike_id":"9da525ac-cd69-412b-a910-ee7afbc520f4","system_id":"levelo_inurba_marseille","lat":43.31372,"lon":5.38497,"is_reserved":false,"is_disabled":false,"rental_uris":{"android":"levelo://app?vid=9da525ac-cd69-412b-a910-ee7afbc520f4","ios":"levelo://app?vid=9da525ac-cd69-412b-a910-ee7afbc520f4"},"vehicle_type_id":"4","last_reported":1713600514,"current_range_meters":24400,"station_id":"ce4bgt92rcd13ifvqcf0","pricing_plan_id":"cebpf4jnsgd1na2vs0mg"},{"bike_id":"67e01902-9907-41c8-a36b-5622a5dbad9b","system_id":"levelo_inurba_marseille","lat":43.313571,"lon":5.384829,"is_reserved":false,"is_disabled":false,"rental_uris":{"android":"levelo://app?vid=67e01902-9907-41c8-a36b-5622a5dbad9b","ios":"levelo://app?vid=67e01902-9907-41c8-a36b-5622a5dbad9b"},"vehicle_type_id":"4","last_reported":1713600514,"current_range_meters":31200,"station_id":"ce4bgt92rcd13ifvqcf0","pricing_plan_id":"cebpf4jnsgd1na2vs0mg"},{"bike_id":"2dde0f7f-e9c0-4ed3-82c5-742a6ee2402d","system_id":"levelo_inurba_marseille","lat":43.31365,"lon":5.38502,"is_reserved":false,"is_disabled":false,"rental_uris":{"android":"levelo://app?vid=2dde0f7f-e9c0-4ed3-82c5-742a6ee2402d","ios":"levelo://app?vid=2dde0f7f-e9c0-4ed3-82c5-742a6ee2402d"},"vehicle_type_id":"4","last_reported":1713600514,"current_range_meters":0,"station_id":"ce4bgt92rcd13ifvqcf0","pricing_plan_id":"cebpf4jnsgd1na2vs0mg"},{"bike_id":"8170105f-eae4-4be4-8ecf-2aa68744f948","system_id":"levelo_inurba_marseille","lat":43.29944,"lon":5.36531,"is_reserved":false,"is_disabled":false,"rental_uris":{"android":"levelo://app?vid=8170105f-eae4-4be4-8ecf-2aa68744f948","ios":"levelo://app?vid=8170105f-eae4-4be4-8ecf-2aa68744f948"},"vehicle_type_id":"4","last_reported":1713600514,"current_range_meters":24000,"station_id":"ce4bgm92rcd13ifvqbr0","pricing_plan_id":"cebpf4jnsgd1na2vs0mg"},{"bike_id":"262bbfe8-78e1-4ef6-94d5-0fbb59d5c922","system_id":"levelo_inurba_marseille","lat":43.299416,"lon":5.365351,"is_reserved":false,"is_disabled":false,"rental_uris":{"android":"levelo://app?vid=262bbfe8-78e1-4ef6-94d5-0fbb59d5c922","ios":"levelo://app?vid=262bbfe8-78e1-4ef6-94d5-0fbb59d5c922"},"vehicle_type_id":"4","last_reported":1713600514,"current_range_meters":30800,"station_id":"ce4bgm92rcd13ifvqbr0","pricing_plan_id":"cebpf4jnsgd1na2vs0mg"},{"bike_id":"fc0f9627-d5ea-4b43-9403-f227c7b72b1b","system_id":"levelo_inurba_marseille","lat":43.299397,"lon":5.365433,"is_reserved":false,"is_disabled":false,"rental_uris":{"android":"levelo://app?vid=fc0f9627-d5ea-4b43-9403-f227c7b72b1b","ios":"levelo://app?vid=fc0f9627-d5ea-4b43-9403-f227c7b72b1b"},"vehicle_type_id":"4","last_reported":1713600514,"current_range_meters":22000,"station_id":"ce4bgm92rcd13ifvqbr0","pricing_plan_id":"cebpf4jnsgd1na2vs0mg"},{"bike_id":"0d5a3063-453e-4915-9326-47252c3d3b0f","system_id":"levelo_inurba_marseille","lat":43.299724,"lon":5.371829,"is_reserved":false,"is_disabled":false,"rental_uris":{"android":"levelo://app?vid=0d5a3063-453e-4915-9326-47252c3d3b0f","ios":"levelo://app?vid=0d5a3063-453e-4915-9326-47252c3d3b0f"},"vehicle_type_id":"4","last_reported":1713600514,"current_range_meters":5200,"station_id":"ce4bgr92rcd13ifvqc7g","pricing_plan_id":"cebpf4jnsgd1na2vs0mg"},{"bike_id":"91b93641-a4bd-444d-87ca-e1a53e22c7ca","system_id":"levelo_inurba_marseille","lat":43.299222,"lon":5.365554,"is_reserved":false,"is_disabled":false,"rental_uris":{"android":"levelo://app?vid=91b93641-a4bd-444d-87ca-e1a53e22c7ca","ios":"levelo://app?vid=91b93641-a4bd-444d-87ca-e1a53e22c7ca"},"vehicle_type_id":"4","last_reported":1713600514,"current_range_meters":24800,"station_id":"ce4bgm92rcd13ifvqbr0","pricing_plan_id":"cebpf4jnsgd1na2vs0mg"},{"bike_id":"2fea0804-e02f-4f4f-b3d2-390e1d5698a0","system_id":"levelo_inurba_marseille","lat":43.29937,"lon":5.36549,"is_reserved":false,"is_disabled":false,"rental_uris":{"android":"levelo://app?vid=2fea0804-e02f-4f4f-b3d2-390e1d5698a0","ios":"levelo://app?vid=2fea0804-e02f-4f4f-b3d2-390e1d5698a0"},"vehicle_type_id":"4","last_reported":1713600514,"current_range_meters":24400,"station_id":"ce4bgm92rcd13ifvqbr0","pricing_plan_id":"cebpf4jnsgd1na2vs0mg"},{"bike_id":"df150805-7052-4b3c-b6ff-7941da97efe5","system_id":"levelo_inurba_marseille","lat":43.29933,"lon":5.36542,"is_reserved":false,"is_disabled":false,"rental_uris":{"android":"levelo://app?vid=df150805-7052-4b3c-b6ff-7941da97efe5","ios":"levelo://app?vid=df150805-7052-4b3c-b6ff-7941da97efe5"},"vehicle_type_id":"4","last_reported":1713600514,"current_range_meters":20400,"station_id":"ce4bgm92rcd13ifvqbr0","pricing_plan_id":"cebpf4jnsgd1na2vs0mg"},{"bike_id":"d48fe120-068b-4a3a-a6a6-7337ae7fa833","system_id":"levelo_inurba_marseille","lat":43.299222,"lon":5.365554,"is_reserved":false,"is_disabled":false,"rental_uris":{"android":"levelo://app?vid=d48fe120-068b-4a3a-a6a6-7337ae7fa833","ios":"levelo://app?vid=d48fe120-068b-4a3a-a6a6-7337ae7fa833"},"vehicle_type_id":"4","last_reported":1713600514,"current_range_meters":23600,"station_id":"ce4bgm92rcd13ifvqbr0","pricing_plan_id":"cebpf4jnsgd1na2vs0mg"},{"bike_id":"f01392da-af49-427e-b9fe-a06a29405fef","system_id":"levelo_inurba_marseille","lat":43.299222,"lon":5.365554,"is_reserved":false,"is_disabled":false,"rental_uris":{"android":"levelo://app?vid=f01392da-af49-427e-b9fe-a06a29405fef","ios":"levelo://app?vid=f01392da-af49-427e-b9fe-a06a29405fef"},"vehicle_type_id":"4","last_reported":1713600514,"current_range_meters":26400,"station_id":"ce4bgm92rcd13ifvqbr0","pricing_plan_id":"cebpf4jnsgd1na2vs0mg"},{"bike_id":"74c33947-6d0a-46a6-b286-ec1eff992f1b","system_id":"levelo_inurba_marseille","lat":43.298433,"lon":5.362774,"is_reserved":false,"is_disabled":false,"rental_uris":{"android":"levelo://app?vid=74c33947-6d0a-46a6-b286-ec1eff992f1b","ios":"levelo://app?vid=74c33947-6d0a-46a6-b286-ec1eff992f1b"},"vehicle_type_id":"4","last_reported":1713600514,"current_range_meters":14000,"station_id":"ce4bgpp2rcd13ifvqc3g","pricing_plan_id":"cebpf4jnsgd1na2vs0mg"},{"bike_id":"f8a590c4-bd78-45b2-a8a8-dcd5f455158a","system_id":"levelo_inurba_marseille","lat":43.298433,"lon":5.362774,"is_reserved":false,"is_disabled":false,"rental_uris":{"android":"levelo://app?vid=f8a590c4-bd78-45b2-a8a8-dcd5f455158a","ios":"levelo://app?vid=f8a590c4-bd78-45b2-a8a8-dcd5f455158a"},"vehicle_type_id":"4","last_reported":1713600514,"current_range_meters":28000,"station_id":"ce4bgpp2rcd13ifvqc3g","pricing_plan_id":"cebpf4jnsgd1na2vs0mg"},{"bike_id":"5b69a954-d0a8-46cc-88f1-1796b200d2c6","system_id":"levelo_inurba_marseille","lat":43.298433,"lon":5.362774,"is_reserved":false,"is_disabled":false,"rental_uris":{"android":"levelo://app?vid=5b69a954-d0a8-46cc-88f1-1796b200d2c6","ios":"levelo://app?vid=5b69a954-d0a8-46cc-88f1-1796b200d2c6"},"vehicle_type_id":"4","last_reported":1713600514,"current_range_meters":23200,"station_id":"ce4bgpp2rcd13ifvqc3g","pricing_plan_id":"cebpf4jnsgd1na2vs0mg"},{"bike_id":"0900e3c5-40da-4524-9560-ce276daeba9a","system_id":"levelo_inurba_marseille","lat":43.298433,"lon":5.362774,"is_reserved":false,"is_disabled":false,"rental_uris":{"android":"levelo://app?vid=0900e3c5-40da-4524-9560-ce276daeba9a","ios":"levelo://app?vid=0900e3c5-40da-4524-9560-ce276daeba9a"},"vehicle_type_id":"4","last_reported":1713600514,"current_range_meters":30800,"station_id":"ce4bgpp2rcd13ifvqc3g","pricing_plan_id":"cebpf4jnsgd1na2vs0mg"},{"bike_id":"bbb14609-c871-4091-887f-77e8dfb77e8c","system_id":"levelo_inurba_marseille","lat":43.298433,"lon":5.362774,"is_reserved":false,"is_disabled":false,"rental_uris":{"android":"levelo://app?vid=bbb14609-c871-4091-887f-77e8dfb77e8c","ios":"levelo://app?vid=bbb14609-c871-4091-887f-77e8dfb77e8c"},"vehicle_type_id":"4","last_reported":1713600514,"current_range_meters":23600,"station_id":"ce4bgpp2rcd13ifvqc3g","pricing_plan_id":"cebpf4jnsgd1na2vs0mg"},{"bike_id":"a696e945-de7f-46d8-93e9-c5e164faea77","system_id":"levelo_inurba_marseille","lat":43.311718,"lon":5.387103,"is_reserved":false,"is_disabled":false,"rental_uris":{"android":"levelo://app?vid=a696e945-de7f-46d8-93e9-c5e164faea77","ios":"levelo://app?vid=a696e945-de7f-46d8-93e9-c5e164faea77"},"vehicle_type_id":"4","last_reported":1713600514,"current_range_meters":30400,"station_id":"ce4bgv12rcd13ifvqcp0","pricing_plan_id":"cebpf4jnsgd1na2vs0mg"},{"bike_id":"421587c9-6459-4bcc-a964-f95c6240208c","system_id":"levelo_inurba_marseille","lat":43.31188,"lon":5.387127,"is_reserved":false,"is_disabled":false,"rental_uris":{"android":"levelo://app?vid=421587c9-6459-4bcc-a964-f95c6240208c","ios":"levelo://app?vid=421587c9-6459-4bcc-a964-f95c6240208c"},"vehicle_type_id":"4","last_reported":1713600514,"current_range_meters":21600,"station_id":"ce4bgv12rcd13ifvqcp0","pricing_plan_id":"cebpf4jnsgd1na2vs0mg"},{"bike_id":"3d98f136-6030-4614-90dc-f97aafc301b8","system_id":"levelo_inurba_marseille","lat":43.311707,"lon":5.387128,"is_reserved":false,"is_disabled":false,"rental_uris":{"android":"levelo://app?vid=3d98f136-6030-4614-90dc-f97aafc301b8","ios":"levelo://app?vid=3d98f136-6030-4614-90dc-f97aafc301b8"},"vehicle_type_id":"4","last_reported":1713600514,"current_range_meters":26400,"station_id":"ce4bgv12rcd13ifvqcp0","pricing_plan_id":"cebpf4jnsgd1na2vs0mg"},{"bike_id":"17a7d013-cc49-40fc-819e-67d33d9e0a21","system_id":"levelo_inurba_marseille","lat":43.311695,"lon":5.387178,"is_reserved":false,"is_disabled":false,"rental_uris":{"android":"levelo://app?vid=17a7d013-cc49-40fc-819e-67d33d9e0a21","ios":"levelo://app?vid=17a7d013-cc49-40fc-819e-67d33d9e0a21"},"vehicle_type_id":"4","last_reported":1713600514,"current_range_meters":21600,"station_id":"ce4bgv12rcd13ifvqcp0","pricing_plan_id":"cebpf4jnsgd1na2vs0mg"},{"bike_id":"4baadbfb-295a-44c9-b5ff-1fe0325a2ac7","system_id":"levelo_inurba_marseille","lat":43.311722,"lon":5.387247,"is_reserved":false,"is_disabled":false,"rental_uris":{"android":"levelo://app?vid=4baadbfb-295a-44c9-b5ff-1fe0325a2ac7","ios":"levelo://app?vid=4baadbfb-295a-44c9-b5ff-1fe0325a2ac7"},"vehicle_type_id":"4","last_reported":1713600514,"current_range_meters":21600,"station_id":"ce4bgv12rcd13ifvqcp0","pricing_plan_id":"cebpf4jnsgd1na2vs0mg"},{"bike_id":"0730aff3-dbd0-458f-948b-ef72a370d260","system_id":"levelo_inurba_marseille","lat":43.299243,"lon":5.374807,"is_reserved":false,"is_disabled":false,"rental_uris":{"android":"levelo://app?vid=0730aff3-dbd0-458f-948b-ef72a370d260","ios":"levelo://app?vid=0730aff3-dbd0-458f-948b-ef72a370d260"},"vehicle_type_id":"4","last_reported":1713600514,"current_range_meters":26400,"station_id":"ce4bgjh2rcd13ifvqbg0","pricing_plan_id":"cebpf4jnsgd1na2vs0mg"},{"bike_id":"6a9bcf40-c5f9-44a4-a58e-664576d7b299","system_id":"levelo_inurba_marseille","lat":43.322872,"lon":5.382756,"is_reserved":false,"is_disabled":false,"rental_uris":{"android":"levelo://app?vid=6a9bcf40-c5f9-44a4-a58e-664576d7b299","ios":"levelo://app?vid=6a9bcf40-c5f9-44a4-a58e-664576d7b299"},"vehicle_type_id":"4","last_reported":1713600514,"current_range_meters":18000,"station_id":"ce4bhr12rcd13ifvqhqg","pricing_plan_id":"cebpf4jnsgd1na2vs0mg"},{"bike_id":"f02710d2-1fee-4866-a021-12fd915ee40b","system_id":"levelo_inurba_marseille","lat":43.322872,"lon":5.382756,"is_reserved":false,"is_disabled":false,"rental_uris":{"android":"levelo://app?vid=f02710d2-1fee-4866-a021-12fd915ee40b","ios":"levelo://app?vid=f02710d2-1fee-4866-a021-12fd915ee40b"},"vehicle_type_id":"4","last_reported":1713600514,"current_range_meters":9600,"station_id":"ce4bhr12rcd13ifvqhqg","pricing_plan_id":"cebpf4jnsgd1na2vs0mg"},{"bike_id":"aa38acc2-91cb-407c-ac8c-05b08cc96e3e","system_id":"levelo_inurba_marseille","lat":43.322872,"lon":5.382756,"is_reserved":false,"is_disabled":false,"rental_uris":{"android":"levelo://app?vid=aa38acc2-91cb-407c-ac8c-05b08cc96e3e","ios":"levelo://app?vid=aa38acc2-91cb-407c-ac8c-05b08cc96e3e"},"vehicle_type_id":"4","last_reported":1713600514,"current_range_meters":31200,"station_id":"ce4bhr12rcd13ifvqhqg","pricing_plan_id":"cebpf4jnsgd1na2vs0mg"},{"bike_id":"98383111-a280-489e-a46c-bf5726139e9c","system_id":"levelo_inurba_marseille","lat":43.322872,"lon":5.382756,"is_reserved":false,"is_disabled":false,"rental_uris":{"android":"levelo://app?vid=98383111-a280-489e-a46c-bf5726139e9c","ios":"levelo://app?vid=98383111-a280-489e-a46c-bf5726139e9c"},"vehicle_type_id":"4","last_reported":1713600514,"current_range_meters":30400,"station_id":"ce4bhr12rcd13ifvqhqg","pricing_plan_id":"cebpf4jnsgd1na2vs0mg"},{"bike_id":"76931112-13b2-4ce1-aed6-6fa548f70599","system_id":"levelo_inurba_marseille","lat":43.322872,"lon":5.382756,"is_reserved":false,"is_disabled":false,"rental_uris":{"android":"levelo://app?vid=76931112-13b2-4ce1-aed6-6fa548f70599","ios":"levelo://app?vid=76931112-13b2-4ce1-aed6-6fa548f70599"},"vehicle_type_id":"4","last_reported":1713600514,"current_range_meters":30000,"station_id":"ce4bhr12rcd13ifvqhqg","pricing_plan_id":"cebpf4jnsgd1na2vs0mg"},{"bike_id":"d8a511e6-66b2-49bb-9592-aad537b5e461","system_id":"levelo_inurba_marseille","lat":43.32291,"lon":5.38269,"is_reserved":false,"is_disabled":false,"rental_uris":{"android":"levelo://app?vid=d8a511e6-66b2-49bb-9592-aad537b5e461","ios":"levelo://app?vid=d8a511e6-66b2-49bb-9592-aad537b5e461"},"vehicle_type_id":"4","last_reported":1713600514,"current_range_meters":18400,"station_id":"ce4bhr12rcd13ifvqhqg","pricing_plan_id":"cebpf4jnsgd1na2vs0mg"},{"bike_id":"32c6b3cf-1211-4df7-b114-0701973ccf5a","system_id":"levelo_inurba_marseille","lat":43.322897,"lon":5.382707,"is_reserved":false,"is_disabled":false,"rental_uris":{"android":"levelo://app?vid=32c6b3cf-1211-4df7-b114-0701973ccf5a","ios":"levelo://app?vid=32c6b3cf-1211-4df7-b114-0701973ccf5a"},"vehicle_type_id":"4","last_reported":1713600514,"current_range_meters":31600,"station_id":"ce4bhr12rcd13ifvqhqg","pricing_plan_id":"cebpf4jnsgd1na2vs0mg"},{"bike_id":"b1c9170a-6a31-47d1-8e62-5b624c342910","system_id":"levelo_inurba_marseille","lat":43.322872,"lon":5.382756,"is_reserved":false,"is_disabled":false,"rental_uris":{"android":"levelo://app?vid=b1c9170a-6a31-47d1-8e62-5b624c342910","ios":"levelo://app?vid=b1c9170a-6a31-47d1-8e62-5b624c342910"},"vehicle_type_id":"4","last_reported":1713600514,"current_range_meters":10800,"station_id":"ce4bhr12rcd13ifvqhqg","pricing_plan_id":"cebpf4jnsgd1na2vs0mg"},{"bike_id":"59c296c1-c1af-4a71-9e20-fa9c7f8757f9","system_id":"levelo_inurba_marseille","lat":43.322872,"lon":5.382756,"is_reserved":false,"is_disabled":false,"rental_uris":{"android":"levelo://app?vid=59c296c1-c1af-4a71-9e20-fa9c7f8757f9","ios":"levelo://app?vid=59c296c1-c1af-4a71-9e20-fa9c7f8757f9"},"vehicle_type_id":"4","last_reported":1713600514,"current_range_meters":31600,"station_id":"ce4bhr12rcd13ifvqhqg","pricing_plan_id":"cebpf4jnsgd1na2vs0mg"},{"bike_id":"e5df68f6-b1ff-4d0a-b7e9-c02ca9b8210e","system_id":"levelo_inurba_marseille","lat":43.32289,"lon":5.382826,"is_reserved":false,"is_disabled":false,"rental_uris":{"android":"levelo://app?vid=e5df68f6-b1ff-4d0a-b7e9-c02ca9b8210e","ios":"levelo://app?vid=e5df68f6-b1ff-4d0a-b7e9-c02ca9b8210e"},"vehicle_type_id":"4","last_reported":1713600514,"current_range_meters":30800,"station_id":"ce4bhr12rcd13ifvqhqg","pricing_plan_id":"cebpf4jnsgd1na2vs0mg"},{"bike_id":"c1c913df-b844-406e-83f7-dff5f43f7dc5","system_id":"levelo_inurba_marseille","lat":43.322909,"lon":5.382816,"is_reserved":false,"is_disabled":false,"rental_uris":{"android":"levelo://app?vid=c1c913df-b844-406e-83f7-dff5f43f7dc5","ios":"levelo://app?vid=c1c913df-b844-406e-83f7-dff5f43f7dc5"},"vehicle_type_id":"4","last_reported":1713600514,"current_range_meters":31200,"station_id":"ce4bhr12rcd13ifvqhqg","pricing_plan_id":"cebpf4jnsgd1na2vs0mg"},{"bike_id":"a4e08546-6278-4fec-a3f5-ea17e1bddef5","system_id":"levelo_inurba_marseille","lat":43.3229,"lon":5.38285,"is_reserved":false,"is_disabled":false,"rental_uris":{"android":"levelo://app?vid=a4e08546-6278-4fec-a3f5-ea17e1bddef5","ios":"levelo://app?vid=a4e08546-6278-4fec-a3f5-ea17e1bddef5"},"vehicle_type_id":"4","last_reported":1713600514,"current_range_meters":9600,"station_id":"ce4bhr12rcd13ifvqhqg","pricing_plan_id":"cebpf4jnsgd1na2vs0mg"},{"bike_id":"3a777aae-0d2a-4638-8c09-6f1de81534e0","system_id":"levelo_inurba_marseille","lat":43.322892,"lon":5.382865,"is_reserved":false,"is_disabled":false,"rental_uris":{"android":"levelo://app?vid=3a777aae-0d2a-4638-8c09-6f1de81534e0","ios":"levelo://app?vid=3a777aae-0d2a-4638-8c09-6f1de81534e0"},"vehicle_type_id":"4","last_reported":1713600514,"current_range_meters":26000,"station_id":"ce4bhr12rcd13ifvqhqg","pricing_plan_id":"cebpf4jnsgd1na2vs0mg"},{"bike_id":"db3d7cf6-b25d-4d8b-a76d-f5a8fa5b2384","system_id":"levelo_inurba_marseille","lat":43.297163,"lon":5.365866,"is_reserved":false,"is_disabled":false,"rental_uris":{"android":"levelo://app?vid=db3d7cf6-b25d-4d8b-a76d-f5a8fa5b2384","ios":"levelo://app?vid=db3d7cf6-b25d-4d8b-a76d-f5a8fa5b2384"},"vehicle_type_id":"4","last_reported":1713600514,"current_range_meters":16800,"station_id":"ce4bgn12rcd13ifvqbt0","pricing_plan_id":"cebpf4jnsgd1na2vs0mg"},{"bike_id":"b53cc90b-434e-4b5b-8bca-9d7d3aa072d1","system_id":"levelo_inurba_marseille","lat":43.297163,"lon":5.365866,"is_reserved":false,"is_disabled":false,"rental_uris":{"android":"levelo://app?vid=b53cc90b-434e-4b5b-8bca-9d7d3aa072d1","ios":"levelo://app?vid=b53cc90b-434e-4b5b-8bca-9d7d3aa072d1"},"vehicle_type_id":"4","last_reported":1713600514,"current_range_meters":31600,"station_id":"ce4bgn12rcd13ifvqbt0","pricing_plan_id":"cebpf4jnsgd1na2vs0mg"},{"bike_id":"5abbde35-0e9b-4574-8e21-d8df54382859","system_id":"levelo_inurba_marseille","lat":43.297163,"lon":5.365866,"is_reserved":false,"is_disabled":false,"rental_uris":{"android":"levelo://app?vid=5abbde35-0e9b-4574-8e21-d8df54382859","ios":"levelo://app?vid=5abbde35-0e9b-4574-8e21-d8df54382859"},"vehicle_type_id":"4","last_reported":1713600514,"current_range_meters":6800,"station_id":"ce4bgn12rcd13ifvqbt0","pricing_plan_id":"cebpf4jnsgd1na2vs0mg"},{"bike_id":"22c11f8f-f892-4988-a158-f008057deb8c","system_id":"levelo_inurba_marseille","lat":43.297163,"lon":5.365866,"is_reserved":false,"is_disabled":false,"rental_uris":{"android":"levelo://app?vid=22c11f8f-f892-4988-a158-f008057deb8c","ios":"levelo://app?vid=22c11f8f-f892-4988-a158-f008057deb8c"},"vehicle_type_id":"4","last_reported":1713600514,"current_range_meters":16800,"station_id":"ce4bgn12rcd13ifvqbt0","pricing_plan_id":"cebpf4jnsgd1na2vs0mg"},{"bike_id":"a34e55cc-5f07-4304-961d-f18336ce694b","system_id":"levelo_inurba_marseille","lat":43.297163,"lon":5.365866,"is_reserved":false,"is_disabled":false,"rental_uris":{"android":"levelo://app?vid=a34e55cc-5f07-4304-961d-f18336ce694b","ios":"levelo://app?vid=a34e55cc-5f07-4304-961d-f18336ce694b"},"vehicle_type_id":"4","last_reported":1713600514,"current_range_meters":27600,"station_id":"ce4bgn12rcd13ifvqbt0","pricing_plan_id":"cebpf4jnsgd1na2vs0mg"},{"bike_id":"00c23763-890a-4fca-841a-9a2becb45555","system_id":"levelo_inurba_marseille","lat":43.2968,"lon":5.37291,"is_reserved":false,"is_disabled":false,"rental_uris":{"android":"levelo://app?vid=00c23763-890a-4fca-841a-9a2becb45555","ios":"levelo://app?vid=00c23763-890a-4fca-841a-9a2becb45555"},"vehicle_type_id":"4","last_reported":1713600514,"current_range_meters":23600,"station_id":"ce4bgk12rcd13ifvqbj0","pricing_plan_id":"cebpf4jnsgd1na2vs0mg"},{"bike_id":"e733e2fd-7e16-499d-98b5-6b7a08f859f3","system_id":"levelo_inurba_marseille","lat":43.299028,"lon":5.381509,"is_reserved":false,"is_disabled":false,"rental_uris":{"android":"levelo://app?vid=e733e2fd-7e16-499d-98b5-6b7a08f859f3","ios":"levelo://app?vid=e733e2fd-7e16-499d-98b5-6b7a08f859f3"},"vehicle_type_id":"4","last_reported":1713600514,"current_range_meters":22400,"station_id":"ce4bgj12rcd13ifvqbc0","pricing_plan_id":"cebpf4jnsgd1na2vs0mg"},{"bike_id":"8d8b758b-4e33-45c4-8593-43f239965242","system_id":"levelo_inurba_marseille","lat":43.296131,"lon":5.370791,"is_reserved":false,"is_disabled":false,"rental_uris":{"android":"levelo://app?vid=8d8b758b-4e33-45c4-8593-43f239965242","ios":"levelo://app?vid=8d8b758b-4e33-45c4-8593-43f239965242"},"vehicle_type_id":"4","last_reported":1713600514,"current_range_meters":28000,"station_id":"ce4bgnh2rcd13ifvqc0g","pricing_plan_id":"cebpf4jnsgd1na2vs0mg"},{"bike_id":"3131820e-f018-4ed9-95a2-589bf9225c54","system_id":"levelo_inurba_marseille","lat":43.296131,"lon":5.370791,"is_reserved":false,"is_disabled":false,"rental_uris":{"android":"levelo://app?vid=3131820e-f018-4ed9-95a2-589bf9225c54","ios":"levelo://app?vid=3131820e-f018-4ed9-95a2-589bf9225c54"},"vehicle_type_id":"4","last_reported":1713600514,"current_range_meters":6000,"station_id":"ce4bgnh2rcd13ifvqc0g","pricing_plan_id":"cebpf4jnsgd1na2vs0mg"},{"bike_id":"ac62671f-7c75-439d-8607-2f54aebb8ff5","system_id":"levelo_inurba_marseille","lat":43.296921,"lon":5.376579,"is_reserved":false,"is_disabled":false,"rental_uris":{"android":"levelo://app?vid=ac62671f-7c75-439d-8607-2f54aebb8ff5","ios":"levelo://app?vid=ac62671f-7c75-439d-8607-2f54aebb8ff5"},"vehicle_type_id":"4","last_reported":1713600514,"current_range_meters":31200,"station_id":"ce4bgkh2rcd13ifvqbl0","pricing_plan_id":"cebpf4jnsgd1na2vs0mg"},{"bike_id":"e4c0c297-8c30-4e32-9cf2-6585b1fd9b6f","system_id":"levelo_inurba_marseille","lat":43.29573,"lon":5.367355,"is_reserved":false,"is_disabled":false,"rental_uris":{"android":"levelo://app?vid=e4c0c297-8c30-4e32-9cf2-6585b1fd9b6f","ios":"levelo://app?vid=e4c0c297-8c30-4e32-9cf2-6585b1fd9b6f"},"vehicle_type_id":"4","last_reported":1713600514,"current_range_meters":31200,"station_id":"ce4bgph2rcd13ifvqc2g","pricing_plan_id":"cebpf4jnsgd1na2vs0mg"},{"bike_id":"c61881f4-e55b-47f8-944e-6eb2c8ecb641","system_id":"levelo_inurba_marseille","lat":43.29573,"lon":5.367355,"is_reserved":false,"is_disabled":false,"rental_uris":{"android":"levelo://app?vid=c61881f4-e55b-47f8-944e-6eb2c8ecb641","ios":"levelo://app?vid=c61881f4-e55b-47f8-944e-6eb2c8ecb641"},"vehicle_type_id":"4","last_reported":1713600514,"current_range_meters":20800,"station_id":"ce4bgph2rcd13ifvqc2g","pricing_plan_id":"cebpf4jnsgd1na2vs0mg"},{"bike_id":"5acca365-7f8f-4ef3-8dae-8fea31e98eef","system_id":"levelo_inurba_marseille","lat":43.296935,"lon":5.376544,"is_reserved":false,"is_disabled":false,"rental_uris":{"android":"levelo://app?vid=5acca365-7f8f-4ef3-8dae-8fea31e98eef","ios":"levelo://app?vid=5acca365-7f8f-4ef3-8dae-8fea31e98eef"},"vehicle_type_id":"4","last_reported":1713600514,"current_range_meters":27200,"station_id":"ce4bgkh2rcd13ifvqbl0","pricing_plan_id":"cebpf4jnsgd1na2vs0mg"},{"bike_id":"133d4bd6-def5-4676-b183-2c4d4916f3fc","system_id":"levelo_inurba_marseille","lat":43.296935,"lon":5.376544,"is_reserved":false,"is_disabled":false,"rental_uris":{"android":"levelo://app?vid=133d4bd6-def5-4676-b183-2c4d4916f3fc","ios":"levelo://app?vid=133d4bd6-def5-4676-b183-2c4d4916f3fc"},"vehicle_type_id":"4","last_reported":1713600514,"current_range_meters":27600,"station_id":"ce4bgkh2rcd13ifvqbl0","pricing_plan_id":"cebpf4jnsgd1na2vs0mg"},{"bike_id":"aa403907-7416-4332-824f-1e5874fabda6","system_id":"levelo_inurba_marseille","lat":43.296935,"lon":5.376544,"is_reserved":false,"is_disabled":false,"rental_uris":{"android":"levelo://app?vid=aa403907-7416-4332-824f-1e5874fabda6","ios":"levelo://app?vid=aa403907-7416-4332-824f-1e5874fabda6"},"vehicle_type_id":"4","last_reported":1713600514,"current_range_meters":22800,"station_id":"ce4bgkh2rcd13ifvqbl0","pricing_plan_id":"cebpf4jnsgd1na2vs0mg"},{"bike_id":"205b738a-93db-4161-9880-126dc1db69ca","system_id":"levelo_inurba_marseille","lat":43.296921,"lon":5.376579,"is_reserved":false,"is_disabled":false,"rental_uris":{"android":"levelo://app?vid=205b738a-93db-4161-9880-126dc1db69ca","ios":"levelo://app?vid=205b738a-93db-4161-9880-126dc1db69ca"},"vehicle_type_id":"4","last_reported":1713600514,"current_range_meters":30400,"station_id":"ce4bgkh2rcd13ifvqbl0","pricing_plan_id":"cebpf4jnsgd1na2vs0mg"},{"bike_id":"bc537a2d-c948-4a0c-b70d-a43469b366ca","system_id":"levelo_inurba_marseille","lat":43.299028,"lon":5.381509,"is_reserved":false,"is_disabled":false,"rental_uris":{"android":"levelo://app?vid=bc537a2d-c948-4a0c-b70d-a43469b366ca","ios":"levelo://app?vid=bc537a2d-c948-4a0c-b70d-a43469b366ca"},"vehicle_type_id":"4","last_reported":1713600514,"current_range_meters":29600,"station_id":"ce4bgj12rcd13ifvqbc0","pricing_plan_id":"cebpf4jnsgd1na2vs0mg"},{"bike_id":"06c647a9-7c66-4e31-8517-1f4627153bfb","system_id":"levelo_inurba_marseille","lat":43.296921,"lon":5.376579,"is_reserved":false,"is_disabled":false,"rental_uris":{"android":"levelo://app?vid=06c647a9-7c66-4e31-8517-1f4627153bfb","ios":"levelo://app?vid=06c647a9-7c66-4e31-8517-1f4627153bfb"},"vehicle_type_id":"4","last_reported":1713600514,"current_range_meters":14000,"station_id":"ce4bgkh2rcd13ifvqbl0","pricing_plan_id":"cebpf4jnsgd1na2vs0mg"},{"bike_id":"9f1de30e-5aa8-45c1-8b77-7586d4062b8b","system_id":"levelo_inurba_marseille","lat":43.296921,"lon":5.376579,"is_reserved":false,"is_disabled":false,"rental_uris":{"android":"levelo://app?vid=9f1de30e-5aa8-45c1-8b77-7586d4062b8b","ios":"levelo://app?vid=9f1de30e-5aa8-45c1-8b77-7586d4062b8b"},"vehicle_type_id":"4","last_reported":1713600514,"current_range_meters":28800,"station_id":"ce4bgkh2rcd13ifvqbl0","pricing_plan_id":"cebpf4jnsgd1na2vs0mg"},{"bike_id":"a87944e2-f618-4262-8f0d-043ff6df77aa","system_id":"levelo_inurba_marseille","lat":43.296935,"lon":5.376544,"is_reserved":false,"is_disabled":false,"rental_uris":{"android":"levelo://app?vid=a87944e2-f618-4262-8f0d-043ff6df77aa","ios":"levelo://app?vid=a87944e2-f618-4262-8f0d-043ff6df77aa"},"vehicle_type_id":"4","last_reported":1713600514,"current_range_meters":31200,"station_id":"ce4bgkh2rcd13ifvqbl0","pricing_plan_id":"cebpf4jnsgd1na2vs0mg"},{"bike_id":"d717d02a-4364-4b49-b514-742636e62259","system_id":"levelo_inurba_marseille","lat":43.299028,"lon":5.381509,"is_reserved":false,"is_disabled":false,"rental_uris":{"android":"levelo://app?vid=d717d02a-4364-4b49-b514-742636e62259","ios":"levelo://app?vid=d717d02a-4364-4b49-b514-742636e62259"},"vehicle_type_id":"4","last_reported":1713600514,"current_range_meters":19200,"station_id":"ce4bgj12rcd13ifvqbc0","pricing_plan_id":"cebpf4jnsgd1na2vs0mg"},{"bike_id":"5c0ed694-3e4c-44e8-a083-09c77aa5f798","system_id":"levelo_inurba_marseille","lat":43.309589,"lon":5.390258,"is_reserved":false,"is_disabled":false,"rental_uris":{"android":"levelo://app?vid=5c0ed694-3e4c-44e8-a083-09c77aa5f798","ios":"levelo://app?vid=5c0ed694-3e4c-44e8-a083-09c77aa5f798"},"vehicle_type_id":"4","last_reported":1713600514,"current_range_meters":16000,"station_id":"ce4bgup2rcd13ifvqco0","pricing_plan_id":"cebpf4jnsgd1na2vs0mg"},{"bike_id":"fa7d4de0-24c6-4fca-b9ed-686910af5062","system_id":"levelo_inurba_marseille","lat":43.296921,"lon":5.376579,"is_reserved":false,"is_disabled":false,"rental_uris":{"android":"levelo://app?vid=fa7d4de0-24c6-4fca-b9ed-686910af5062","ios":"levelo://app?vid=fa7d4de0-24c6-4fca-b9ed-686910af5062"},"vehicle_type_id":"4","last_reported":1713600514,"current_range_meters":23200,"station_id":"ce4bgkh2rcd13ifvqbl0","pricing_plan_id":"cebpf4jnsgd1na2vs0mg"},{"bike_id":"edc5406f-1f6f-49a7-8d74-b1ee2aad666b","system_id":"levelo_inurba_marseille","lat":43.309589,"lon":5.390258,"is_reserved":false,"is_disabled":false,"rental_uris":{"android":"levelo://app?vid=edc5406f-1f6f-49a7-8d74-b1ee2aad666b","ios":"levelo://app?vid=edc5406f-1f6f-49a7-8d74-b1ee2aad666b"},"vehicle_type_id":"4","last_reported":1713600514,"current_range_meters":17600,"station_id":"ce4bgup2rcd13ifvqco0","pricing_plan_id":"cebpf4jnsgd1na2vs0mg"},{"bike_id":"74c2766b-ea4f-4d9d-b879-fcef17fe87c6","system_id":"levelo_inurba_marseille","lat":43.296935,"lon":5.376544,"is_reserved":false,"is_disabled":false,"rental_uris":{"android":"levelo://app?vid=74c2766b-ea4f-4d9d-b879-fcef17fe87c6","ios":"levelo://app?vid=74c2766b-ea4f-4d9d-b879-fcef17fe87c6"},"vehicle_type_id":"4","last_reported":1713600514,"current_range_meters":23600,"station_id":"ce4bgkh2rcd13ifvqbl0","pricing_plan_id":"cebpf4jnsgd1na2vs0mg"},{"bike_id":"4124d32b-f2d6-4a03-a71b-cb54ce4ce123","system_id":"levelo_inurba_marseille","lat":43.309589,"lon":5.390258,"is_reserved":false,"is_disabled":false,"rental_uris":{"android":"levelo://app?vid=4124d32b-f2d6-4a03-a71b-cb54ce4ce123","ios":"levelo://app?vid=4124d32b-f2d6-4a03-a71b-cb54ce4ce123"},"vehicle_type_id":"4","last_reported":1713600514,"current_range_meters":25200,"station_id":"ce4bgup2rcd13ifvqco0","pricing_plan_id":"cebpf4jnsgd1na2vs0mg"},{"bike_id":"99abb9f4-7235-413a-ad4a-4945fc6ad67c","system_id":"levelo_inurba_marseille","lat":43.309589,"lon":5.390258,"is_reserved":false,"is_disabled":false,"rental_uris":{"android":"levelo://app?vid=99abb9f4-7235-413a-ad4a-4945fc6ad67c","ios":"levelo://app?vid=99abb9f4-7235-413a-ad4a-4945fc6ad67c"},"vehicle_type_id":"4","last_reported":1713600514,"current_range_meters":30000,"station_id":"ce4bgup2rcd13ifvqco0","pricing_plan_id":"cebpf4jnsgd1na2vs0mg"},{"bike_id":"afbb3f55-d097-459f-bb92-33622e18b892","system_id":"levelo_inurba_marseille","lat":43.299087,"lon":5.381748,"is_reserved":false,"is_disabled":false,"rental_uris":{"android":"levelo://app?vid=afbb3f55-d097-459f-bb92-33622e18b892","ios":"levelo://app?vid=afbb3f55-d097-459f-bb92-33622e18b892"},"vehicle_type_id":"4","last_reported":1713600514,"current_range_meters":24000,"station_id":"ce4bgj12rcd13ifvqbc0","pricing_plan_id":"cebpf4jnsgd1na2vs0mg"},{"bike_id":"70115ef1-3173-4c07-bf74-2c869e0b9b28","system_id":"levelo_inurba_marseille","lat":43.296935,"lon":5.376544,"is_reserved":false,"is_disabled":false,"rental_uris":{"android":"levelo://app?vid=70115ef1-3173-4c07-bf74-2c869e0b9b28","ios":"levelo://app?vid=70115ef1-3173-4c07-bf74-2c869e0b9b28"},"vehicle_type_id":"4","last_reported":1713600514,"current_range_meters":31600,"station_id":"ce4bgkh2rcd13ifvqbl0","pricing_plan_id":"cebpf4jnsgd1na2vs0mg"},{"bike_id":"a31ceebe-807b-48f7-b0c6-1ea887dd6ce8","system_id":"levelo_inurba_marseille","lat":43.317557,"lon":5.390173,"is_reserved":false,"is_disabled":false,"rental_uris":{"android":"levelo://app?vid=a31ceebe-807b-48f7-b0c6-1ea887dd6ce8","ios":"levelo://app?vid=a31ceebe-807b-48f7-b0c6-1ea887dd6ce8"},"vehicle_type_id":"4","last_reported":1713600514,"current_range_meters":31600,"station_id":"ce4bhqp2rcd13ifvqhng","pricing_plan_id":"cebpf4jnsgd1na2vs0mg"},{"bike_id":"accff90c-c335-4f01-b8b2-a8d96efd8224","system_id":"levelo_inurba_marseille","lat":43.317557,"lon":5.390173,"is_reserved":false,"is_disabled":false,"rental_uris":{"android":"levelo://app?vid=accff90c-c335-4f01-b8b2-a8d96efd8224","ios":"levelo://app?vid=accff90c-c335-4f01-b8b2-a8d96efd8224"},"vehicle_type_id":"4","last_reported":1713600514,"current_range_meters":5600,"station_id":"ce4bhqp2rcd13ifvqhng","pricing_plan_id":"cebpf4jnsgd1na2vs0mg"},{"bike_id":"a6a9e2cb-d764-45b5-9ae8-928a021dfccb","system_id":"levelo_inurba_marseille","lat":43.317557,"lon":5.390173,"is_reserved":false,"is_disabled":false,"rental_uris":{"android":"levelo://app?vid=a6a9e2cb-d764-45b5-9ae8-928a021dfccb","ios":"levelo://app?vid=a6a9e2cb-d764-45b5-9ae8-928a021dfccb"},"vehicle_type_id":"4","last_reported":1713600514,"current_range_meters":31600,"station_id":"ce4bhqp2rcd13ifvqhng","pricing_plan_id":"cebpf4jnsgd1na2vs0mg"},{"bike_id":"c1737f14-581c-4dde-8fe3-87a16483ad77","system_id":"levelo_inurba_marseille","lat":43.317557,"lon":5.390173,"is_reserved":false,"is_disabled":false,"rental_uris":{"android":"levelo://app?vid=c1737f14-581c-4dde-8fe3-87a16483ad77","ios":"levelo://app?vid=c1737f14-581c-4dde-8fe3-87a16483ad77"},"vehicle_type_id":"4","last_reported":1713600514,"current_range_meters":16000,"station_id":"ce4bhqp2rcd13ifvqhng","pricing_plan_id":"cebpf4jnsgd1na2vs0mg"},{"bike_id":"7e2c24b3-2300-4592-8529-a46db9a1bbdd","system_id":"levelo_inurba_marseille","lat":43.317557,"lon":5.390173,"is_reserved":false,"is_disabled":false,"rental_uris":{"android":"levelo://app?vid=7e2c24b3-2300-4592-8529-a46db9a1bbdd","ios":"levelo://app?vid=7e2c24b3-2300-4592-8529-a46db9a1bbdd"},"vehicle_type_id":"4","last_reported":1713600514,"current_range_meters":31200,"station_id":"ce4bhqp2rcd13ifvqhng","pricing_plan_id":"cebpf4jnsgd1na2vs0mg"},{"bike_id":"2ab48669-e241-4b6d-9fb3-2db434ab2118","system_id":"levelo_inurba_marseille","lat":43.317557,"lon":5.390173,"is_reserved":false,"is_disabled":false,"rental_uris":{"android":"levelo://app?vid=2ab48669-e241-4b6d-9fb3-2db434ab2118","ios":"levelo://app?vid=2ab48669-e241-4b6d-9fb3-2db434ab2118"},"vehicle_type_id":"4","last_reported":1713600514,"current_range_meters":30800,"station_id":"ce4bhqp2rcd13ifvqhng","pricing_plan_id":"cebpf4jnsgd1na2vs0mg"},{"bike_id":"0c7aa32f-0217-40ec-8971-b91bb8bc79f9","system_id":"levelo_inurba_marseille","lat":43.317557,"lon":5.390173,"is_reserved":false,"is_disabled":false,"rental_uris":{"android":"levelo://app?vid=0c7aa32f-0217-40ec-8971-b91bb8bc79f9","ios":"levelo://app?vid=0c7aa32f-0217-40ec-8971-b91bb8bc79f9"},"vehicle_type_id":"4","last_reported":1713600514,"current_range_meters":31200,"station_id":"ce4bhqp2rcd13ifvqhng","pricing_plan_id":"cebpf4jnsgd1na2vs0mg"},{"bike_id":"7f172088-0ca5-4836-a129-6e07c0494d24","system_id":"levelo_inurba_marseille","lat":43.317557,"lon":5.390173,"is_reserved":false,"is_disabled":false,"rental_uris":{"android":"levelo://app?vid=7f172088-0ca5-4836-a129-6e07c0494d24","ios":"levelo://app?vid=7f172088-0ca5-4836-a129-6e07c0494d24"},"vehicle_type_id":"4","last_reported":1713600514,"current_range_meters":13600,"station_id":"ce4bhqp2rcd13ifvqhng","pricing_plan_id":"cebpf4jnsgd1na2vs0mg"},{"bike_id":"97ef0dc0-89fb-4283-95a5-f3dbec8bef79","system_id":"levelo_inurba_marseille","lat":43.295748,"lon":5.37522,"is_reserved":false,"is_disabled":false,"rental_uris":{"android":"levelo://app?vid=97ef0dc0-89fb-4283-95a5-f3dbec8bef79","ios":"levelo://app?vid=97ef0dc0-89fb-4283-95a5-f3dbec8bef79"},"vehicle_type_id":"4","last_reported":1713600514,"current_range_meters":30000,"station_id":"ce4bgh92rcd13ifvqb50","pricing_plan_id":"cebpf4jnsgd1na2vs0mg"},{"bike_id":"ad518ae7-73fd-4ba4-b74c-2296cb99ff3e","system_id":"levelo_inurba_marseille","lat":43.298037,"lon":5.381066,"is_reserved":false,"is_disabled":false,"rental_uris":{"android":"levelo://app?vid=ad518ae7-73fd-4ba4-b74c-2296cb99ff3e","ios":"levelo://app?vid=ad518ae7-73fd-4ba4-b74c-2296cb99ff3e"},"vehicle_type_id":"4","last_reported":1713600514,"current_range_meters":21200,"station_id":"ce4bgip2rcd13ifvqbb0","pricing_plan_id":"cebpf4jnsgd1na2vs0mg"},{"bike_id":"bf304299-f466-408f-81e1-2afe1e40f03b","system_id":"levelo_inurba_marseille","lat":43.295748,"lon":5.37522,"is_reserved":false,"is_disabled":false,"rental_uris":{"android":"levelo://app?vid=bf304299-f466-408f-81e1-2afe1e40f03b","ios":"levelo://app?vid=bf304299-f466-408f-81e1-2afe1e40f03b"},"vehicle_type_id":"4","last_reported":1713600514,"current_range_meters":22800,"station_id":"ce4bgh92rcd13ifvqb50","pricing_plan_id":"cebpf4jnsgd1na2vs0mg"},{"bike_id":"527482bf-858e-4588-af08-242b3dda904a","system_id":"levelo_inurba_marseille","lat":43.29808,"lon":5.38102,"is_reserved":false,"is_disabled":false,"rental_uris":{"android":"levelo://app?vid=527482bf-858e-4588-af08-242b3dda904a","ios":"levelo://app?vid=527482bf-858e-4588-af08-242b3dda904a"},"vehicle_type_id":"4","last_reported":1713600514,"current_range_meters":16800,"station_id":"ce4bgip2rcd13ifvqbb0","pricing_plan_id":"cebpf4jnsgd1na2vs0mg"},{"bike_id":"8fbd5ab3-dad8-47c3-b4b4-99d779ace5e1","system_id":"levelo_inurba_marseille","lat":43.298037,"lon":5.381066,"is_reserved":false,"is_disabled":false,"rental_uris":{"android":"levelo://app?vid=8fbd5ab3-dad8-47c3-b4b4-99d779ace5e1","ios":"levelo://app?vid=8fbd5ab3-dad8-47c3-b4b4-99d779ace5e1"},"vehicle_type_id":"4","last_reported":1713600514,"current_range_meters":16400,"station_id":"ce4bgip2rcd13ifvqbb0","pricing_plan_id":"cebpf4jnsgd1na2vs0mg"},{"bike_id":"1f373e2c-5a96-4219-b0dd-e413ac59e1bc","system_id":"levelo_inurba_marseille","lat":43.298037,"lon":5.381066,"is_reserved":false,"is_disabled":false,"rental_uris":{"android":"levelo://app?vid=1f373e2c-5a96-4219-b0dd-e413ac59e1bc","ios":"levelo://app?vid=1f373e2c-5a96-4219-b0dd-e413ac59e1bc"},"vehicle_type_id":"4","last_reported":1713600514,"current_range_meters":18800,"station_id":"ce4bgip2rcd13ifvqbb0","pricing_plan_id":"cebpf4jnsgd1na2vs0mg"},{"bike_id":"b2261bef-b9ef-4904-aba0-6abdb2b5c552","system_id":"levelo_inurba_marseille","lat":43.29793,"lon":5.38086,"is_reserved":false,"is_disabled":false,"rental_uris":{"android":"levelo://app?vid=b2261bef-b9ef-4904-aba0-6abdb2b5c552","ios":"levelo://app?vid=b2261bef-b9ef-4904-aba0-6abdb2b5c552"},"vehicle_type_id":"4","last_reported":1713600514,"current_range_meters":20800,"station_id":"ce4bgip2rcd13ifvqbb0","pricing_plan_id":"cebpf4jnsgd1na2vs0mg"},{"bike_id":"de4a8294-c509-4fa1-bf04-81d350863d85","system_id":"levelo_inurba_marseille","lat":43.29794,"lon":5.38089,"is_reserved":false,"is_disabled":false,"rental_uris":{"android":"levelo://app?vid=de4a8294-c509-4fa1-bf04-81d350863d85","ios":"levelo://app?vid=de4a8294-c509-4fa1-bf04-81d350863d85"},"vehicle_type_id":"4","last_reported":1713600514,"current_range_meters":14000,"station_id":"ce4bgip2rcd13ifvqbb0","pricing_plan_id":"cebpf4jnsgd1na2vs0mg"},{"bike_id":"2a5800e4-8a90-4871-a9dd-148808a956e5","system_id":"levelo_inurba_marseille","lat":43.29794,"lon":5.38092,"is_reserved":false,"is_disabled":false,"rental_uris":{"android":"levelo://app?vid=2a5800e4-8a90-4871-a9dd-148808a956e5","ios":"levelo://app?vid=2a5800e4-8a90-4871-a9dd-148808a956e5"},"vehicle_type_id":"4","last_reported":1713600514,"current_range_meters":3200,"station_id":"ce4bgip2rcd13ifvqbb0","pricing_plan_id":"cebpf4jnsgd1na2vs0mg"},{"bike_id":"c9deef66-26b4-42ea-8064-336dfdc939ba","system_id":"levelo_inurba_marseille","lat":43.295748,"lon":5.37522,"is_reserved":false,"is_disabled":false,"rental_uris":{"android":"levelo://app?vid=c9deef66-26b4-42ea-8064-336dfdc939ba","ios":"levelo://app?vid=c9deef66-26b4-42ea-8064-336dfdc939ba"},"vehicle_type_id":"4","last_reported":1713600514,"current_range_meters":26000,"station_id":"ce4bgh92rcd13ifvqb50","pricing_plan_id":"cebpf4jnsgd1na2vs0mg"},{"bike_id":"32dbf59a-7dfa-4b97-bba0-857b63c1c266","system_id":"levelo_inurba_marseille","lat":43.298037,"lon":5.381066,"is_reserved":false,"is_disabled":false,"rental_uris":{"android":"levelo://app?vid=32dbf59a-7dfa-4b97-bba0-857b63c1c266","ios":"levelo://app?vid=32dbf59a-7dfa-4b97-bba0-857b63c1c266"},"vehicle_type_id":"4","last_reported":1713600514,"current_range_meters":22000,"station_id":"ce4bgip2rcd13ifvqbb0","pricing_plan_id":"cebpf4jnsgd1na2vs0mg"},{"bike_id":"a4f76806-76b6-489e-ba64-b0990a1a8694","system_id":"levelo_inurba_marseille","lat":43.295688,"lon":5.375207,"is_reserved":false,"is_disabled":false,"rental_uris":{"android":"levelo://app?vid=a4f76806-76b6-489e-ba64-b0990a1a8694","ios":"levelo://app?vid=a4f76806-76b6-489e-ba64-b0990a1a8694"},"vehicle_type_id":"4","last_reported":1713600514,"current_range_meters":29600,"station_id":"","pricing_plan_id":"cebpf4jnsgd1na2vs0mg"},{"bike_id":"716554ce-34bd-4251-a500-17eba72b80b2","system_id":"levelo_inurba_marseille","lat":43.295748,"lon":5.37522,"is_reserved":false,"is_disabled":false,"rental_uris":{"android":"levelo://app?vid=716554ce-34bd-4251-a500-17eba72b80b2","ios":"levelo://app?vid=716554ce-34bd-4251-a500-17eba72b80b2"},"vehicle_type_id":"4","last_reported":1713600514,"current_range_meters":20000,"station_id":"ce4bgh92rcd13ifvqb50","pricing_plan_id":"cebpf4jnsgd1na2vs0mg"},{"bike_id":"ae884a1f-4a86-4d9a-b038-d9a6c57a2fa0","system_id":"levelo_inurba_marseille","lat":43.2957,"lon":5.3753,"is_reserved":false,"is_disabled":false,"rental_uris":{"android":"levelo://app?vid=ae884a1f-4a86-4d9a-b038-d9a6c57a2fa0","ios":"levelo://app?vid=ae884a1f-4a86-4d9a-b038-d9a6c57a2fa0"},"vehicle_type_id":"4","last_reported":1713600514,"current_range_meters":5200,"station_id":"ce4bgh92rcd13ifvqb50","pricing_plan_id":"cebpf4jnsgd1na2vs0mg"},{"bike_id":"2f5fabe4-f66f-4738-b8ca-b7c476a80635","system_id":"levelo_inurba_marseille","lat":43.295748,"lon":5.37522,"is_reserved":false,"is_disabled":false,"rental_uris":{"android":"levelo://app?vid=2f5fabe4-f66f-4738-b8ca-b7c476a80635","ios":"levelo://app?vid=2f5fabe4-f66f-4738-b8ca-b7c476a80635"},"vehicle_type_id":"4","last_reported":1713600514,"current_range_meters":12400,"station_id":"ce4bgh92rcd13ifvqb50","pricing_plan_id":"cebpf4jnsgd1na2vs0mg"},{"bike_id":"8e92bd2c-9b42-4da6-95f6-bda3ccf865f8","system_id":"levelo_inurba_marseille","lat":43.296263,"lon":5.377094,"is_reserved":false,"is_disabled":false,"rental_uris":{"android":"levelo://app?vid=8e92bd2c-9b42-4da6-95f6-bda3ccf865f8","ios":"levelo://app?vid=8e92bd2c-9b42-4da6-95f6-bda3ccf865f8"},"vehicle_type_id":"4","last_reported":1713600514,"current_range_meters":12400,"station_id":"ce4bgi92rcd13ifvqb90","pricing_plan_id":"cebpf4jnsgd1na2vs0mg"},{"bike_id":"b09b1754-e4d5-4cf2-8a6c-0b79d2a19648","system_id":"levelo_inurba_marseille","lat":43.29563,"lon":5.37512,"is_reserved":false,"is_disabled":false,"rental_uris":{"android":"levelo://app?vid=b09b1754-e4d5-4cf2-8a6c-0b79d2a19648","ios":"levelo://app?vid=b09b1754-e4d5-4cf2-8a6c-0b79d2a19648"},"vehicle_type_id":"4","last_reported":1713600514,"current_range_meters":31200,"station_id":"ce4bgh92rcd13ifvqb50","pricing_plan_id":"cebpf4jnsgd1na2vs0mg"},{"bike_id":"ff1d2e01-b949-4647-a05c-f9c592d9036e","system_id":"levelo_inurba_marseille","lat":43.30435,"lon":5.38904,"is_reserved":false,"is_disabled":false,"rental_uris":{"android":"levelo://app?vid=ff1d2e01-b949-4647-a05c-f9c592d9036e","ios":"levelo://app?vid=ff1d2e01-b949-4647-a05c-f9c592d9036e"},"vehicle_type_id":"4","last_reported":1713600514,"current_range_meters":8400,"station_id":"ce4bgk12rcd13ifvqbi0","pricing_plan_id":"cebpf4jnsgd1na2vs0mg"},{"bike_id":"1f4de96e-64b7-4049-8b00-d592f05e4eed","system_id":"levelo_inurba_marseille","lat":43.296277,"lon":5.377108,"is_reserved":false,"is_disabled":false,"rental_uris":{"android":"levelo://app?vid=1f4de96e-64b7-4049-8b00-d592f05e4eed","ios":"levelo://app?vid=1f4de96e-64b7-4049-8b00-d592f05e4eed"},"vehicle_type_id":"4","last_reported":1713600514,"current_range_meters":15200,"station_id":"ce4bgi92rcd13ifvqb90","pricing_plan_id":"cebpf4jnsgd1na2vs0mg"},{"bike_id":"8ed4c97b-d1d1-47dd-be1e-ce0cad6a6ff1","system_id":"levelo_inurba_marseille","lat":43.2956,"lon":5.37517,"is_reserved":false,"is_disabled":false,"rental_uris":{"android":"levelo://app?vid=8ed4c97b-d1d1-47dd-be1e-ce0cad6a6ff1","ios":"levelo://app?vid=8ed4c97b-d1d1-47dd-be1e-ce0cad6a6ff1"},"vehicle_type_id":"4","last_reported":1713600514,"current_range_meters":27200,"station_id":"ce4bgh92rcd13ifvqb50","pricing_plan_id":"cebpf4jnsgd1na2vs0mg"},