{"last_updated":1726143402,"ttl":30,"version":"2.2","data":{"bikes":[{"bike_id":"8eda120e-c86d-4990-9ecb-6e0cf4f9f6c4","system_id":"levelo_inurba_marseille","lat":43.28681,"lon":5.38665,"is_reserved":false,"is_disabled":false,"rental_uris":{"android":"levelo://app?vid=8eda120e-c86d-4990-9ecb-6e0cf4f9f6c4","ios":"levelo://app?vid=8eda120e-c86d-4990-9ecb-6e0cf4f9f6c4"},"vehicle_type_id":"4","last_reported":1726143403,"current_range_meters":14000,"station_id":"ce4bh492rcd13ifvqdug","pricing_plan_id":"cebpf4jnsgd1na2vs0mg"},{"bike_id":"8cb20de7-ab38-4452-b74b-8c2dc0ec0ab9","system_id":"levelo_inurba_marseille","lat":43.29603,"lon":5.38112,"is_reserved":false,"is_disabled":false,"rental_uris":{"android":"levelo://app?vid=8cb20de7-ab38-4452-b74b-8c2dc0ec0ab9","ios":"levelo://app?vid=8cb20de7-ab38-4452-b74b-8c2dc0ec0ab9"},"vehicle_type_id":"4","last_reported":1726143403,"current_range_meters":38400,"station_id":"ce4bgl12rcd13ifvqbo0","pricing_plan_id":"cebpf4jnsgd1na2vs0mg"},{"bike_id":"09dbc6e7-e81b-47eb-851c-718f3aa21352","system_id":"levelo_inurba_marseille","lat":43.29614,"lon":5.37738,"is_reserved":false,"is_disabled":false,"rental_uris":{"android":"levelo://app?vid=09dbc6e7-e81b-47eb-851c-718f3aa21352","ios":"levelo://app?vid=09dbc6e7-e81b-47eb-851c-718f3aa21352"},"vehicle_type_id":"4","last_reported":1726143403,"current_range_meters":12000,"station_id":"ce4bgi92rcd13ifvqb90","pricing_plan_id":"cebpf4jnsgd1na2vs0mg"},{"bike_id":"d3d0bf1e-8766-4413-be09-513aa812b8d5","system_id":"levelo_inurba_marseille","lat":43.24077,"lon":5.37764,"is_reserved":false,"is_disabled":false,"rental_uris":{"android":"levelo://app?vid=d3d0bf1e-8766-4413-be09-513aa812b8d5","ios":"levelo://app?vid=d3d0bf1e-8766-4413-be09-513aa812b8d5"},"vehicle_type_id":"4","last_reported":1726143403,"current_range_meters":34800,"station_id":"ce4bhnp2rcd13ifvqgvg","pricing_plan_id":"cebpf4jnsgd1na2vs0mg"},{"bike_id":"c5c3bd44-3118-4ce0-afbd-fd0c81275852","system_id":"levelo_inurba_marseille","lat":43.31085,"lon":5.42438,"is_reserved":false,"is_disabled":false,"rental_uris":{"android":"levelo://app?vid=c5c3bd44-3118-4ce0-afbd-fd0c81275852","ios":"levelo://app?vid=c5c3bd44-3118-4ce0-afbd-fd0c81275852"},"vehicle_type_id":"4","last_reported":1726143403,"current_range_meters":24800,"station_id":"ce4bhp92rcd13ifvqhag","pricing_plan_id":"cebpf4jnsgd1na2vs0mg"},{"bike_id":"456c5403-ebe0-4316-9960-1125ab4993e1","system_id":"levelo_inurba_marseille","lat":43.23064,"lon":5.35494,"is_reserved":false,"is_disabled":false,"rental_uris":{"android":"levelo://app?vid=456c5403-ebe0-4316-9960-1125ab4993e1","ios":"levelo://app?vid=456c5403-ebe0-4316-9960-1125ab4993e1"},"vehicle_type_id":"4","last_reported":1726143403,"current_range_meters":35200,"station_id":"cpo3342slgdg3j2ifvpg","pricing_plan_id":"cebpf4jnsgd1na2vs0mg"},{"bike_id":"032cca34-153b-4a2a-88a7-b47b5003aec0","system_id":"levelo_inurba_marseille","lat":43.30915,"lon":5.36859,"is_reserved":false,"is_disabled":false,"rental_uris":{"android":"levelo://app?vid=032cca34-153b-4a2a-88a7-b47b5003aec0","ios":"levelo://app?vid=032cca34-153b-4a2a-88a7-b47b5003aec0"},"vehicle_type_id":"4","last_reported":1726143403,"current_range_meters":39200,"station_id":"ce4bgn92rcd13ifvqbvg","pricing_plan_id":"cebpf4jnsgd1na2vs0mg"},{"bike_id":"cb9ae3dc-a189-4368-8a0e-10828856a3ca","system_id":"levelo_inurba_marseille","lat":43.299194,"lon":5.374744,"is_reserved":false,"is_disabled":false,"rental_uris":{"android":"levelo://app?vid=cb9ae3dc-a189-4368-8a0e-10828856a3ca","ios":"levelo://app?vid=cb9ae3dc-a189-4368-8a0e-10828856a3ca"},"vehicle_type_id":"4","last_reported":1726143403,"current_range_meters":9200,"station_id":"ce4bgjh2rcd13ifvqbg0","pricing_plan_id":"cebpf4jnsgd1na2vs0mg"},{"bike_id":"ea1f807b-d279-4c79-850d-1c4f3e2b832f","system_id":"levelo_inurba_marseille","lat":43.30914,"lon":5.36861,"is_reserved":false,"is_disabled":false,"rental_uris":{"android":"levelo://app?vid=ea1f807b-d279-4c79-850d-1c4f3e2b832f","ios":"levelo://app?vid=ea1f807b-d279-4c79-850d-1c4f3e2b832f"},"vehicle_type_id":"4","last_reported":1726143403,"current_range_meters":6800,"station_id":"ce4bgn92rcd13ifvqbvg","pricing_plan_id":"cebpf4jnsgd1na2vs0mg"},{"bike_id":"10d4c428-e318-42ae-8126-5211f249afd6","system_id":"levelo_inurba_marseille","lat":43.30562,"lon":5.36533,"is_reserved":false,"is_disabled":false,"rental_uris":{"android":"levelo://app?vid=10d4c428-e318-42ae-8126-5211f249afd6","ios":"levelo://app?vid=10d4c428-e318-42ae-8126-5211f249afd6"},"vehicle_type_id":"4","last_reported":1726143403,"current_range_meters":11600,"station_id":"ce4bgs12rcd13ifvqcag","pricing_plan_id":"cebpf4jnsgd1na2vs0mg"},{"bike_id":"00f0d3b9-2629-435e-a81c-25f5a18b617b","system_id":"levelo_inurba_marseille","lat":43.29042,"lon":5.37561,"is_reserved":false,"is_disabled":false,"rental_uris":{"android":"levelo://app?vid=00f0d3b9-2629-435e-a81c-25f5a18b617b","ios":"levelo://app?vid=00f0d3b9-2629-435e-a81c-25f5a18b617b"},"vehicle_type_id":"4","last_reported":1726143403,"current_range_meters":26000,"station_id":"ce4bh692rcd13ifvqe90","pricing_plan_id":"cebpf4jnsgd1na2vs0mg"},{"bike_id":"831ad933-e41a-4e0c-adcd-f8f4044446aa","system_id":"levelo_inurba_marseille","lat":43.23153,"lon":5.43718,"is_reserved":false,"is_disabled":false,"rental_uris":{"android":"levelo://app?vid=831ad933-e41a-4e0c-adcd-f8f4044446aa","ios":"levelo://app?vid=831ad933-e41a-4e0c-adcd-f8f4044446aa"},"vehicle_type_id":"4","last_reported":1726143403,"current_range_meters":20800,"station_id":"ce4bhmp2rcd13ifvqgog","pricing_plan_id":"cebpf4jnsgd1na2vs0mg"},{"bike_id":"17dcc978-7145-4932-b42f-9f575b25c042","system_id":"levelo_inurba_marseille","lat":43.337444,"lon":5.374475,"is_reserved":false,"is_disabled":false,"rental_uris":{"android":"levelo://app?vid=17dcc978-7145-4932-b42f-9f575b25c042","ios":"levelo://app?vid=17dcc978-7145-4932-b42f-9f575b25c042"},"vehicle_type_id":"4","last_reported":1726143403,"current_range_meters":21600,"station_id":"","pricing_plan_id":"cebpf4jnsgd1na2vs0mg"},{"bike_id":"acb7a154-2c4a-4a8c-8b78-d20c225e7a06","system_id":"levelo_inurba_marseille","lat":43.30547,"lon":5.367,"is_reserved":false,"is_disabled":false,"rental_uris":{"android":"levelo://app?vid=acb7a154-2c4a-4a8c-8b78-d20c225e7a06","ios":"levelo://app?vid=acb7a154-2c4a-4a8c-8b78-d20c225e7a06"},"vehicle_type_id":"4","last_reported":1726143403,"current_range_meters":36000,"station_id":"ce4bgrp2rcd13ifvqc9g","pricing_plan_id":"cebpf4jnsgd1na2vs0mg"},{"bike_id":"13ec4916-f0ea-4897-8afc-596425b42c42","system_id":"levelo_inurba_marseille","lat":43.23192,"lon":5.35544,"is_reserved":false,"is_disabled":false,"rental_uris":{"android":"levelo://app?vid=13ec4916-f0ea-4897-8afc-596425b42c42","ios":"levelo://app?vid=13ec4916-f0ea-4897-8afc-596425b42c42"},"vehicle_type_id":"4","last_reported":1726143403,"current_range_meters":35200,"station_id":"ce4bhu92rcd13ifvqi70","pricing_plan_id":"cebpf4jnsgd1na2vs0mg"},{"bike_id":"c77df168-2a61-4173-a806-d8baf9f1cd78","system_id":"levelo_inurba_marseille","lat":43.302124,"lon":5.39466,"is_reserved":false,"is_disabled":false,"rental_uris":{"android":"levelo://app?vid=c77df168-2a61-4173-a806-d8baf9f1cd78","ios":"levelo://app?vid=c77df168-2a61-4173-a806-d8baf9f1cd78"},"vehicle_type_id":"4","last_reported":1726143403,"current_range_meters":35200,"station_id":"ce4bh0p2rcd13ifvqd70","pricing_plan_id":"cebpf4jnsgd1na2vs0mg"},{"bike_id":"19506551-57d0-4695-a753-e57b22c9c8a6","system_id":"levelo_inurba_marseille","lat":43.27565,"lon":5.38432,"is_reserved":false,"is_disabled":false,"rental_uris":{"android":"levelo://app?vid=19506551-57d0-4695-a753-e57b22c9c8a6","ios":"levelo://app?vid=19506551-57d0-4695-a753-e57b22c9c8a6"},"vehicle_type_id":"4","last_reported":1726143403,"current_range_meters":19200,"station_id":"ce4bhh92rcd13ifvqfi0","pricing_plan_id":"cebpf4jnsgd1na2vs0mg"},{"bike_id":"a68df08b-f9fa-4991-9775-134d012f2510","system_id":"levelo_inurba_marseille","lat":43.23064,"lon":5.35487,"is_reserved":false,"is_disabled":false,"rental_uris":{"android":"levelo://app?vid=a68df08b-f9fa-4991-9775-134d012f2510","ios":"levelo://app?vid=a68df08b-f9fa-4991-9775-134d012f2510"},"vehicle_type_id":"4","last_reported":1726143403,"current_range_meters":16400,"station_id":"cpo3342slgdg3j2ifvpg","pricing_plan_id":"cebpf4jnsgd1na2vs0mg"},{"bike_id":"a053b8fb-e8ac-474f-8a4e-4da0d15250b1","system_id":"levelo_inurba_marseille","lat":43.30551,"lon":5.36537,"is_reserved":false,"is_disabled":false,"rental_uris":{"android":"levelo://app?vid=a053b8fb-e8ac-474f-8a4e-4da0d15250b1","ios":"levelo://app?vid=a053b8fb-e8ac-474f-8a4e-4da0d15250b1"},"vehicle_type_id":"4","last_reported":1726143403,"current_range_meters":38800,"station_id":"ce4bgs12rcd13ifvqcag","pricing_plan_id":"cebpf4jnsgd1na2vs0mg"},{"bike_id":"acd8a3d5-a9db-4ea3-b234-2a790cfd605a","system_id":"levelo_inurba_marseille","lat":43.23963,"lon":5.36624,"is_reserved":false,"is_disabled":false,"rental_uris":{"android":"levelo://app?vid=acd8a3d5-a9db-4ea3-b234-2a790cfd605a","ios":"levelo://app?vid=acd8a3d5-a9db-4ea3-b234-2a790cfd605a"},"vehicle_type_id":"4","last_reported":1726143403,"current_range_meters":20800,"station_id":"ce4bhi12rcd13ifvqfp0","pricing_plan_id":"cebpf4jnsgd1na2vs0mg"},{"bike_id":"176a48f0-910c-412f-b53a-35c1297b49c1","system_id":"levelo_inurba_marseille","lat":43.30287,"lon":5.37687,"is_reserved":false,"is_disabled":false,"rental_uris":{"android":"levelo://app?vid=176a48f0-910c-412f-b53a-35c1297b49c1","ios":"levelo://app?vid=176a48f0-910c-412f-b53a-35c1297b49c1"},"vehicle_type_id":"4","last_reported":1726143403,"current_range_meters":30000,"station_id":"ce4bguh2rcd13ifvqcj0","pricing_plan_id":"cebpf4jnsgd1na2vs0mg"},{"bike_id":"9f1f6f85-5695-424c-bd13-79fdf2baefa9","system_id":"levelo_inurba_marseille","lat":43.283325,"lon":5.352609,"is_reserved":false,"is_disabled":false,"rental_uris":{"android":"levelo://app?vid=9f1f6f85-5695-424c-bd13-79fdf2baefa9","ios":"levelo://app?vid=9f1f6f85-5695-424c-bd13-79fdf2baefa9"},"vehicle_type_id":"4","last_reported":1726143403,"current_range_meters":31200,"station_id":"ce4bhh12rcd13ifvqff0","pricing_plan_id":"cebpf4jnsgd1na2vs0mg"},{"bike_id":"2184e590-09ca-4fda-9994-c776f0328e08","system_id":"levelo_inurba_marseille","lat":43.31322,"lon":5.39702,"is_reserved":false,"is_disabled":false,"rental_uris":{"android":"levelo://app?vid=2184e590-09ca-4fda-9994-c776f0328e08","ios":"levelo://app?vid=2184e590-09ca-4fda-9994-c776f0328e08"},"vehicle_type_id":"4","last_reported":1726143403,"current_range_meters":28800,"station_id":"ce4bgvp2rcd13ifvqcu0","pricing_plan_id":"cebpf4jnsgd1na2vs0mg"},{"bike_id":"dec90c19-e143-4511-8606-32eae6afcdea","system_id":"levelo_inurba_marseille","lat":43.24073,"lon":5.37761,"is_reserved":false,"is_disabled":false,"rental_uris":{"android":"levelo://app?vid=dec90c19-e143-4511-8606-32eae6afcdea","ios":"levelo://app?vid=dec90c19-e143-4511-8606-32eae6afcdea"},"vehicle_type_id":"4","last_reported":1726143403,"current_range_meters":32000,"station_id":"ce4bhnp2rcd13ifvqgvg","pricing_plan_id":"cebpf4jnsgd1na2vs0mg"},{"bike_id":"74c67d55-8a5f-40c9-8066-d68354718f8c","system_id":"levelo_inurba_marseille","lat":43.23193,"lon":5.3555,"is_reserved":false,"is_disabled":false,"rental_uris":{"android":"levelo://app?vid=74c67d55-8a5f-40c9-8066-d68354718f8c","ios":"levelo://app?vid=74c67d55-8a5f-40c9-8066-d68354718f8c"},"vehicle_type_id":"4","last_reported":1726143403,"current_range_meters":32000,"station_id":"ce4bhu92rcd13ifvqi70","pricing_plan_id":"cebpf4jnsgd1na2vs0mg"},{"bike_id":"eff24b47-766a-47bf-ab3a-3a0ef0078d7c","system_id":"levelo_inurba_marseille","lat":43.30468,"lon":5.37915,"is_reserved":false,"is_disabled":false,"rental_uris":{"android":"levelo://app?vid=eff24b47-766a-47bf-ab3a-3a0ef0078d7c","ios":"levelo://app?vid=eff24b47-766a-47bf-ab3a-3a0ef0078d7c"},"vehicle_type_id":"4","last_reported":1726143403,"current_range_meters":26000,"station_id":"ce4bgup2rcd13ifvqcn0","pricing_plan_id":"cebpf4jnsgd1na2vs0mg"},{"bike_id":"f26c1504-1d02-4a96-9cce-a8d8d09650ab","system_id":"levelo_inurba_marseille","lat":43.31224,"lon":5.3686,"is_reserved":false,"is_disabled":false,"rental_uris":{"android":"levelo://app?vid=f26c1504-1d02-4a96-9cce-a8d8d09650ab","ios":"levelo://app?vid=f26c1504-1d02-4a96-9cce-a8d8d09650ab"},"vehicle_type_id":"4","last_reported":1726143403,"current_range_meters":40000,"station_id":"ce4bgl92rcd13ifvqbq0","pricing_plan_id":"cebpf4jnsgd1na2vs0mg"},{"bike_id":"eb685eeb-f508-4424-9ea7-a6e3d7e8091e","system_id":"levelo_inurba_marseille","lat":43.25933,"lon":5.40915,"is_reserved":false,"is_disabled":false,"rental_uris":{"android":"levelo://app?vid=eb685eeb-f508-4424-9ea7-a6e3d7e8091e","ios":"levelo://app?vid=eb685eeb-f508-4424-9ea7-a6e3d7e8091e"},"vehicle_type_id":"4","last_reported":1726143403,"current_range_meters":28800,"station_id":"ce4bhm92rcd13ifvqglg","pricing_plan_id":"cebpf4jnsgd1na2vs0mg"},{"bike_id":"6d094fd2-0ec4-4fb4-9cf8-16628054406a","system_id":"levelo_inurba_marseille","lat":43.23149,"lon":5.43727,"is_reserved":false,"is_disabled":false,"rental_uris":{"android":"levelo://app?vid=6d094fd2-0ec4-4fb4-9cf8-16628054406a","ios":"levelo://app?vid=6d094fd2-0ec4-4fb4-9cf8-16628054406a"},"vehicle_type_id":"4","last_reported":1726143403,"current_range_meters":25200,"station_id":"ce4bhmp2rcd13ifvqgog","pricing_plan_id":"cebpf4jnsgd1na2vs0mg"},{"bike_id":"d7094156-d58f-4d79-99bb-7b67a72b16f3","system_id":"levelo_inurba_marseille","lat":43.26952,"lon":5.38631,"is_reserved":false,"is_disabled":false,"rental_uris":{"android":"levelo://app?vid=d7094156-d58f-4d79-99bb-7b67a72b16f3","ios":"levelo://app?vid=d7094156-d58f-4d79-99bb-7b67a72b16f3"},"vehicle_type_id":"4","last_reported":1726143403,"current_range_meters":2000,"station_id":"ce4bhh92rcd13ifvqfh0","pricing_plan_id":"cebpf4jnsgd1na2vs0mg"},{"bike_id":"e93f839c-1265-4815-8a6f-68ec2af9520c","system_id":"levelo_inurba_marseille","lat":43.29806,"lon":5.38105,"is_reserved":false,"is_disabled":false,"rental_uris":{"android":"levelo://app?vid=e93f839c-1265-4815-8a6f-68ec2af9520c","ios":"levelo://app?vid=e93f839c-1265-4815-8a6f-68ec2af9520c"},"vehicle_type_id":"4","last_reported":1726143403,"current_range_meters":13600,"station_id":"ce4bgip2rcd13ifvqbb0","pricing_plan_id":"cebpf4jnsgd1na2vs0mg"},{"bike_id":"365ea972-e334-4eb3-af13-6f42d88375ba","system_id":"levelo_inurba_marseille","lat":43.30484,"lon":5.39845,"is_reserved":false,"is_disabled":false,"rental_uris":{"android":"levelo://app?vid=365ea972-e334-4eb3-af13-6f42d88375ba","ios":"levelo://app?vid=365ea972-e334-4eb3-af13-6f42d88375ba"},"vehicle_type_id":"4","last_reported":1726143403,"current_range_meters":28800,"station_id":"ce4bh092rcd13ifvqd20","pricing_plan_id":"cebpf4jnsgd1na2vs0mg"},{"bike_id":"8b3a98fe-a428-4311-a1cd-a7f11f45c1eb","system_id":"levelo_inurba_marseille","lat":43.23155,"lon":5.43709,"is_reserved":false,"is_disabled":false,"rental_uris":{"android":"levelo://app?vid=8b3a98fe-a428-4311-a1cd-a7f11f45c1eb","ios":"levelo://app?vid=8b3a98fe-a428-4311-a1cd-a7f11f45c1eb"},"vehicle_type_id":"4","last_reported":1726143403,"current_range_meters":38400,"station_id":"ce4bhmp2rcd13ifvqgog","pricing_plan_id":"cebpf4jnsgd1na2vs0mg"},{"bike_id":"25311a33-d000-4765-a5f7-650e317e24a2","system_id":"levelo_inurba_marseille","lat":43.31486,"lon":5.37306,"is_reserved":false,"is_disabled":false,"rental_uris":{"android":"levelo://app?vid=25311a33-d000-4765-a5f7-650e317e24a2","ios":"levelo://app?vid=25311a33-d000-4765-a5f7-650e317e24a2"},"vehicle_type_id":"4","last_reported":1726143403,"current_range_meters":36800,"station_id":"ce4bgt12rcd13ifvqcd0","pricing_plan_id":"cebpf4jnsgd1na2vs0mg"},{"bike_id":"11944b44-cc54-4fe0-896f-7b982db000ce","system_id":"levelo_inurba_marseille","lat":43.24086,"lon":5.37749,"is_reserved":false,"is_disabled":false,"rental_uris":{"android":"levelo://app?vid=11944b44-cc54-4fe0-896f-7b982db000ce","ios":"levelo://app?vid=11944b44-cc54-4fe0-896f-7b982db000ce"},"vehicle_type_id":"4","last_reported":1726143403,"current_range_meters":33600,"station_id":"ce4bhnp2rcd13ifvqgvg","pricing_plan_id":"cebpf4jnsgd1na2vs0mg"},{"bike_id":"010fdead-0e1d-490b-bf48-076e3148777a","system_id":"levelo_inurba_marseille","lat":43.31499,"lon":5.37309,"is_reserved":false,"is_disabled":false,"rental_uris":{"android":"levelo://app?vid=010fdead-0e1d-490b-bf48-076e3148777a","ios":"levelo://app?vid=010fdead-0e1d-490b-bf48-076e3148777a"},"vehicle_type_id":"4","last_reported":1726143403,"current_range_meters":31200,"station_id":"ce4bgt12rcd13ifvqcd0","pricing_plan_id":"cebpf4jnsgd1na2vs0mg"},{"bike_id":"4462c6ad-fdae-469e-a19a-21932e74022e","system_id":"levelo_inurba_marseille","lat":43.30587,"lon":5.39347,"is_reserved":false,"is_disabled":false,"rental_uris":{"android":"levelo://app?vid=4462c6ad-fdae-469e-a19a-21932e74022e","ios":"levelo://app?vid=4462c6ad-fdae-469e-a19a-21932e74022e"},"vehicle_type_id":"4","last_reported":1726143403,"current_range_meters":29600,"station_id":"ce4bh0p2rcd13ifvqd80","pricing_plan_id":"cebpf4jnsgd1na2vs0mg"},{"bike_id":"f6e9554f-a44c-4bd4-a469-234151457edc","system_id":"levelo_inurba_marseille","lat":43.31497,"lon":5.37307,"is_reserved":false,"is_disabled":false,"rental_uris":{"android":"levelo://app?vid=f6e9554f-a44c-4bd4-a469-234151457edc","ios":"levelo://app?vid=f6e9554f-a44c-4bd4-a469-234151457edc"},"vehicle_type_id":"4","last_reported":1726143403,"current_range_meters":12000,"station_id":"ce4bgt12rcd13ifvqcd0","pricing_plan_id":"cebpf4jnsgd1na2vs0mg"},{"bike_id":"f0dbcb79-f813-46bb-a082-491c47f04f44","system_id":"levelo_inurba_marseille","lat":43.30598,"lon":5.37261,"is_reserved":false,"is_disabled":false,"rental_uris":{"android":"levelo://app?vid=f0dbcb79-f813-46bb-a082-491c47f04f44","ios":"levelo://app?vid=f0dbcb79-f813-46bb-a082-491c47f04f44"},"vehicle_type_id":"4","last_reported":1726143403,"current_range_meters":30400,"station_id":"ce4bgqh2rcd13ifvqc4g","pricing_plan_id":"cebpf4jnsgd1na2vs0mg"},{"bike_id":"4d1f303f-f595-46e6-aa02-1ba5becdf2dd","system_id":"levelo_inurba_marseille","lat":43.29038,"lon":5.37569,"is_reserved":false,"is_disabled":false,"rental_uris":{"android":"levelo://app?vid=4d1f303f-f595-46e6-aa02-1ba5becdf2dd","ios":"levelo://app?vid=4d1f303f-f595-46e6-aa02-1ba5becdf2dd"},"vehicle_type_id":"4","last_reported":1726143403,"current_range_meters":14400,"station_id":"ce4bh692rcd13ifvqe90","pricing_plan_id":"cebpf4jnsgd1na2vs0mg"},{"bike_id":"e6c599c6-fdba-4a42-a4ec-b4646516aae2","system_id":"levelo_inurba_marseille","lat":43.290192,"lon":5.381317,"is_reserved":false,"is_disabled":false,"rental_uris":{"android":"levelo://app?vid=e6c599c6-fdba-4a42-a4ec-b4646516aae2","ios":"levelo://app?vid=e6c599c6-fdba-4a42-a4ec-b4646516aae2"},"vehicle_type_id":"4","last_reported":1726143403,"current_range_meters":11200,"station_id":"ce4bh4p2rcd13ifvqe1g","pricing_plan_id":"cebpf4jnsgd1na2vs0mg"},{"bike_id":"6b33e353-2979-4c54-b311-bc56387e0cea","system_id":"levelo_inurba_marseille","lat":43.25727,"lon":5.41116,"is_reserved":false,"is_disabled":false,"rental_uris":{"android":"levelo://app?vid=6b33e353-2979-4c54-b311-bc56387e0cea","ios":"levelo://app?vid=6b33e353-2979-4c54-b311-bc56387e0cea"},"vehicle_type_id":"4","last_reported":1726143403,"current_range_meters":16800,"station_id":"ce4bhkp2rcd13ifvqgd0","pricing_plan_id":"cebpf4jnsgd1na2vs0mg"},{"bike_id":"c3a84de0-e074-45d2-96a4-3ff17abba9fe","system_id":"levelo_inurba_marseille","lat":43.24089,"lon":5.3774,"is_reserved":false,"is_disabled":false,"rental_uris":{"android":"levelo://app?vid=c3a84de0-e074-45d2-96a4-3ff17abba9fe","ios":"levelo://app?vid=c3a84de0-e074-45d2-96a4-3ff17abba9fe"},"vehicle_type_id":"4","last_reported":1726143403,"current_range_meters":9600,"station_id":"ce4bhnp2rcd13ifvqgvg","pricing_plan_id":"cebpf4jnsgd1na2vs0mg"},{"bike_id":"8add014a-8c18-49d8-9d64-75979ca60819","system_id":"levelo_inurba_marseille","lat":43.24655,"lon":5.38894,"is_reserved":false,"is_disabled":false,"rental_uris":{"android":"levelo://app?vid=8add014a-8c18-49d8-9d64-75979ca60819","ios":"levelo://app?vid=8add014a-8c18-49d8-9d64-75979ca60819"},"vehicle_type_id":"4","last_reported":1726143403,"current_range_meters":9600,"station_id":"ce4bhg12rcd13ifvqf60","pricing_plan_id":"cebpf4jnsgd1na2vs0mg"},{"bike_id":"dae0ad7f-7d15-4b14-9489-110b7338924b","system_id":"levelo_inurba_marseille","lat":43.3061,"lon":5.37213,"is_reserved":false,"is_disabled":false,"rental_uris":{"android":"levelo://app?vid=dae0ad7f-7d15-4b14-9489-110b7338924b","ios":"levelo://app?vid=dae0ad7f-7d15-4b14-9489-110b7338924b"},"vehicle_type_id":"4","last_reported":1726143403,"current_range_meters":23200,"station_id":"ce4bgqh2rcd13ifvqc4g","pricing_plan_id":"cebpf4jnsgd1na2vs0mg"},{"bike_id":"d55bec3e-cd2b-4f49-91b2-7a9da15ee7fd","system_id":"levelo_inurba_marseille","lat":43.23152,"lon":5.43718,"is_reserved":false,"is_disabled":false,"rental_uris":{"android":"levelo://app?vid=d55bec3e-cd2b-4f49-91b2-7a9da15ee7fd","ios":"levelo://app?vid=d55bec3e-cd2b-4f49-91b2-7a9da15ee7fd"},"vehicle_type_id":"4","last_reported":1726143403,"current_range_meters":26800,"station_id":"ce4bhmp2rcd13ifvqgog","pricing_plan_id":"cebpf4jnsgd1na2vs0mg"},{"bike_id":"bf2d2172-be9c-4d8b-b2a9-e8472749e9f2","system_id":"levelo_inurba_marseille","lat":43.24547,"lon":5.39529,"is_reserved":false,"is_disabled":false,"rental_uris":{"android":"levelo://app?vid=bf2d2172-be9c-4d8b-b2a9-e8472749e9f2","ios":"levelo://app?vid=bf2d2172-be9c-4d8b-b2a9-e8472749e9f2"},"vehicle_type_id":"4","last_reported":1726143403,"current_range_meters":28000,"station_id":"ce4bhlp2rcd13ifvqgjg","pricing_plan_id":"cebpf4jnsgd1na2vs0mg"},{"bike_id":"0a1f63c4-8197-4edd-9c0f-886e05340093","system_id":"levelo_inurba_marseille","lat":43.26216,"lon":5.37439,"is_reserved":false,"is_disabled":false,"rental_uris":{"android":"levelo://app?vid=0a1f63c4-8197-4edd-9c0f-886e05340093","ios":"levelo://app?vid=0a1f63c4-8197-4edd-9c0f-886e05340093"},"vehicle_type_id":"4","last_reported":1726143403,"current_range_meters":37600,"station_id":"ce4bhgp2rcd13ifvqfc0","pricing_plan_id":"cebpf4jnsgd1na2vs0mg"},{"bike_id":"fe54d2c4-eff0-4540-9bb2-07f1b144e817","system_id":"levelo_inurba_marseille","lat":43.29855,"lon":5.36275,"is_reserved":false,"is_disabled":false,"rental_uris":{"android":"levelo://app?vid=fe54d2c4-eff0-4540-9bb2-07f1b144e817","ios":"levelo://app?vid=fe54d2c4-eff0-4540-9bb2-07f1b144e817"},"vehicle_type_id":"4","last_reported":1726143403,"current_range_meters":39200,"station_id":"ce4bgpp2rcd13ifvqc3g","pricing_plan_id":"cebpf4jnsgd1na2vs0mg"},{"bike_id":"5100c180-e62d-45cb-954e-eef932823b6b","system_id":"levelo_inurba_marseille","lat":43.30153,"lon":5.38076,"is_reserved":false,"is_disabled":false,"rental_uris":{"android":"levelo://app?vid=5100c180-e62d-45cb-954e-eef932823b6b","ios":"levelo://app?vid=5100c180-e62d-45cb-954e-eef932823b6b"},"vehicle_type_id":"4","last_reported":1726143403,"current_range_meters":38000,"station_id":"ce4bgjp2rcd13ifvqbh0","pricing_plan_id":"cebpf4jnsgd1na2vs0mg"},{"bike_id":"721fa92c-defe-4678-b6eb-96834f836f63","system_id":"levelo_inurba_marseille","lat":43.30543,"lon":5.36532,"is_reserved":false,"is_disabled":false,"rental_uris":{"android":"levelo://app?vid=721fa92c-defe-4678-b6eb-96834f836f63","ios":"levelo://app?vid=721fa92c-defe-4678-b6eb-96834f836f63"},"vehicle_type_id":"4","last_reported":1726143403,"current_range_meters":36800,"station_id":"ce4bgs12rcd13ifvqcag","pricing_plan_id":"cebpf4jnsgd1na2vs0mg"},{"bike_id":"86b6a2b1-86a4-46ee-8c7e-90cb86d3d820","system_id":"levelo_inurba_marseille","lat":43.3133,"lon":5.39691,"is_reserved":false,"is_disabled":false,"rental_uris":{"android":"levelo://app?vid=86b6a2b1-86a4-46ee-8c7e-90cb86d3d820","ios":"levelo://app?vid=86b6a2b1-86a4-46ee-8c7e-90cb86d3d820"},"vehicle_type_id":"4","last_reported":1726143403,"current_range_meters":32800,"station_id":"ce4bgvp2rcd13ifvqcu0","pricing_plan_id":"cebpf4jnsgd1na2vs0mg"},{"bike_id":"118db879-b7d0-4bf0-a219-c082b60e3cc3","system_id":"levelo_inurba_marseille","lat":43.296191,"lon":5.377354,"is_reserved":false,"is_disabled":false,"rental_uris":{"android":"levelo://app?vid=118db879-b7d0-4bf0-a219-c082b60e3cc3","ios":"levelo://app?vid=118db879-b7d0-4bf0-a219-c082b60e3cc3"},"vehicle_type_id":"4","last_reported":1726143403,"current_range_meters":30000,"station_id":"","pricing_plan_id":"cebpf4jnsgd1na2vs0mg"},{"bike_id":"a52ae3d9-58a5-4929-a1fa-7958ae557e7d","system_id":"levelo_inurba_marseille","lat":43.25939,"lon":5.40904,"is_reserved":false,"is_disabled":false,"rental_uris":{"android":"levelo://app?vid=a52ae3d9-58a5-4929-a1fa-7958ae557e7d","ios":"levelo://app?vid=a52ae3d9-58a5-4929-a1fa-7958ae557e7d"},"vehicle_type_id":"4","last_reported":1726143403,"current_range_meters":14000,"station_id":"ce4bhm92rcd13ifvqglg","pricing_plan_id":"cebpf4jnsgd1na2vs0mg"},{"bike_id":"554beb7c-19ba-440e-a211-532f35657004","system_id":"levelo_inurba_marseille","lat":43.29553,"lon":5.42285,"is_reserved":false,"is_disabled":false,"rental_uris":{"android":"levelo://app?vid=554beb7c-19ba-440e-a211-532f35657004","ios":"levelo://app?vid=554beb7c-19ba-440e-a211-532f35657004"},"vehicle_type_id":"4","last_reported":1726143403,"current_range_meters":21600,"station_id":"ce4bhph2rcd13ifvqhdg","pricing_plan_id":"cebpf4jnsgd1na2vs0mg"},{"bike_id":"4e969dbe-d0ae-4c38-960f-25adf6a40146","system_id":"levelo_inurba_marseille","lat":43.30284,"lon":5.37689,"is_reserved":false,"is_disabled":false,"rental_uris":{"android":"levelo://app?vid=4e969dbe-d0ae-4c38-960f-25adf6a40146","ios":"levelo://app?vid=4e969dbe-d0ae-4c38-960f-25adf6a40146"},"vehicle_type_id":"4","last_reported":1726143403,"current_range_meters":26800,"station_id":"ce4bguh2rcd13ifvqcj0","pricing_plan_id":"cebpf4jnsgd1na2vs0mg"},{"bike_id":"1654b7b3-ec53-4d5e-8993-e5f3179428df","system_id":"levelo_inurba_marseille","lat":43.30889,"lon":5.37195,"is_reserved":false,"is_disabled":false,"rental_uris":{"android":"levelo://app?vid=1654b7b3-ec53-4d5e-8993-e5f3179428df","ios":"levelo://app?vid=1654b7b3-ec53-4d5e-8993-e5f3179428df"},"vehicle_type_id":"4","last_reported":1726143403,"current_range_meters":39200,"station_id":"ce4bguh2rcd13ifvqckg","pricing_plan_id":"cebpf4jnsgd1na2vs0mg"},{"bike_id":"4067cf6c-6e3d-4ac9-99bf-c1b92b69f736","system_id":"levelo_inurba_marseille","lat":43.32473,"lon":5.36608,"is_reserved":false,"is_disabled":false,"rental_uris":{"android":"levelo://app?vid=4067cf6c-6e3d-4ac9-99bf-c1b92b69f736","ios":"levelo://app?vid=4067cf6c-6e3d-4ac9-99bf-c1b92b69f736"},"vehicle_type_id":"4","last_reported":1726143403,"current_range_meters":25600,"station_id":"ce4bhs12rcd13ifvqhvg","pricing_plan_id":"cebpf4jnsgd1na2vs0mg"},{"bike_id":"352085d8-a232-4bdb-94c4-7e4bc5d644a1","system_id":"levelo_inurba_marseille","lat":43.25929,"lon":5.40914,"is_reserved":false,"is_disabled":false,"rental_uris":{"android":"levelo://app?vid=352085d8-a232-4bdb-94c4-7e4bc5d644a1","ios":"levelo://app?vid=352085d8-a232-4bdb-94c4-7e4bc5d644a1"},"vehicle_type_id":"4","last_reported":1726143403,"current_range_meters":28800,"station_id":"ce4bhm92rcd13ifvqglg","pricing_plan_id":"cebpf4jnsgd1na2vs0mg"},{"bike_id":"99076584-ed77-4098-b163-e80b87a4a633","system_id":"levelo_inurba_marseille","lat":43.25591,"lon":5.38228,"is_reserved":false,"is_disabled":false,"rental_uris":{"android":"levelo://app?vid=99076584-ed77-4098-b163-e80b87a4a633","ios":"levelo://app?vid=99076584-ed77-4098-b163-e80b87a4a633"},"vehicle_type_id":"4","last_reported":1726143403,"current_range_meters":25600,"station_id":"ce4bhih2rcd13ifvqfs0","pricing_plan_id":"cebpf4jnsgd1na2vs0mg"},{"bike_id":"cf5a6d6a-12c1-45cd-b415-051d5156920d","system_id":"levelo_inurba_marseille","lat":43.33618,"lon":5.41034,"is_reserved":false,"is_disabled":false,"rental_uris":{"android":"levelo://app?vid=cf5a6d6a-12c1-45cd-b415-051d5156920d","ios":"levelo://app?vid=cf5a6d6a-12c1-45cd-b415-051d5156920d"},"vehicle_type_id":"4","last_reported":1726143403,"current_range_meters":30400,"station_id":"ce4bhqh2rcd13ifvqhmg","pricing_plan_id":"cebpf4jnsgd1na2vs0mg"},{"bike_id":"97fb1b7f-695d-4049-8729-097bf60ac993","system_id":"levelo_inurba_marseille","lat":43.33021,"lon":5.39045,"is_reserved":false,"is_disabled":false,"rental_uris":{"android":"levelo://app?vid=97fb1b7f-695d-4049-8729-097bf60ac993","ios":"levelo://app?vid=97fb1b7f-695d-4049-8729-097bf60ac993"},"vehicle_type_id":"4","last_reported":1726143403,"current_range_meters":31200,"station_id":"ce4bhr92rcd13ifvqhrg","pricing_plan_id":"cebpf4jnsgd1na2vs0mg"},{"bike_id":"ef423b08-7e28-4a7e-bdb8-5d2d125f7b5c","system_id":"levelo_inurba_marseille","lat":43.23969,"lon":5.36636,"is_reserved":false,"is_disabled":false,"rental_uris":{"android":"levelo://app?vid=ef423b08-7e28-4a7e-bdb8-5d2d125f7b5c","ios":"levelo://app?vid=ef423b08-7e28-4a7e-bdb8-5d2d125f7b5c"},"vehicle_type_id":"4","last_reported":1726143403,"current_range_meters":23200,"station_id":"ce4bhi12rcd13ifvqfp0","pricing_plan_id":"cebpf4jnsgd1na2vs0mg"},{"bike_id":"2eda994c-1824-4c84-b3c1-e3eb295a26df","system_id":"levelo_inurba_marseille","lat":43.29976,"lon":5.37174,"is_reserved":false,"is_disabled":false,"rental_uris":{"android":"levelo://app?vid=2eda994c-1824-4c84-b3c1-e3eb295a26df","ios":"levelo://app?vid=2eda994c-1824-4c84-b3c1-e3eb295a26df"},"vehicle_type_id":"4","last_reported":1726143403,"current_range_meters":25200,"station_id":"ce4bgr92rcd13ifvqc7g","pricing_plan_id":"cebpf4jnsgd1na2vs0mg"},{"bike_id":"18133a1b-df7b-42d0-89d1-ccdedf5f5524","system_id":"levelo_inurba_marseille","lat":43.30543,"lon":5.36538,"is_reserved":false,"is_disabled":false,"rental_uris":{"android":"levelo://app?vid=18133a1b-df7b-42d0-89d1-ccdedf5f5524","ios":"levelo://app?vid=18133a1b-df7b-42d0-89d1-ccdedf5f5524"},"vehicle_type_id":"4","last_reported":1726143403,"current_range_meters":39200,"station_id":"ce4bgs12rcd13ifvqcag","pricing_plan_id":"cebpf4jnsgd1na2vs0mg"},{"bike_id":"df4b2802-380e-4294-83b5-1679afb45ac3","system_id":"levelo_inurba_marseille","lat":43.30482,"lon":5.37912,"is_reserved":false,"is_disabled":false,"rental_uris":{"android":"levelo://app?vid=df4b2802-380e-4294-83b5-1679afb45ac3","ios":"levelo://app?vid=df4b2802-380e-4294-83b5-1679afb45ac3"},"vehicle_type_id":"4","last_reported":1726143403,"current_range_meters":40000,"station_id":"ce4bgup2rcd13ifvqcn0","pricing_plan_id":"cebpf4jnsgd1na2vs0mg"},{"bike_id":"d11f8f3f-76fd-43d7-8ef6-70189741bf3c","system_id":"levelo_inurba_marseille","lat":43.29182,"lon":5.37561,"is_reserved":false,"is_disabled":false,"rental_uris":{"android":"levelo://app?vid=d11f8f3f-76fd-43d7-8ef6-70189741bf3c","ios":"levelo://app?vid=d11f8f3f-76fd-43d7-8ef6-70189741bf3c"},"vehicle_type_id":"4","last_reported":1726143403,"current_range_meters":36400,"station_id":"","pricing_plan_id":"cebpf4jnsgd1na2vs0mg"},{"bike_id":"e3f1b77f-e9a3-478f-afca-21904b3bef50","system_id":"levelo_inurba_marseille","lat":43.30605,"lon":5.39354,"is_reserved":false,"is_disabled":false,"rental_uris":{"android":"levelo://app?vid=e3f1b77f-e9a3-478f-afca-21904b3bef50","ios":"levelo://app?vid=e3f1b77f-e9a3-478f-afca-21904b3bef50"},"vehicle_type_id":"4","last_reported":1726143403,"current_range_meters":20800,"station_id":"ce4bh012rcd13ifvqcv0","pricing_plan_id":"cebpf4jnsgd1na2vs0mg"},{"bike_id":"b413d41f-7993-42f5-a3cc-daaaeaf22886","system_id":"levelo_inurba_marseille","lat":43.32492,"lon":5.36565,"is_reserved":false,"is_disabled":false,"rental_uris":{"android":"levelo://app?vid=b413d41f-7993-42f5-a3cc-daaaeaf22886","ios":"levelo://app?vid=b413d41f-7993-42f5-a3cc-daaaeaf22886"},"vehicle_type_id":"4","last_reported":1726143403,"current_range_meters":28000,"station_id":"ce4bhs12rcd13ifvqhvg","pricing_plan_id":"cebpf4jnsgd1na2vs0mg"},{"bike_id":"5fa9de08-bacc-4bd9-8db6-1b911f284ddf","system_id":"levelo_inurba_marseille","lat":43.27176,"lon":5.40998,"is_reserved":false,"is_disabled":false,"rental_uris":{"android":"levelo://app?vid=5fa9de08-bacc-4bd9-8db6-1b911f284ddf","ios":"levelo://app?vid=5fa9de08-bacc-4bd9-8db6-1b911f284ddf"},"vehicle_type_id":"4","last_reported":1726143403,"current_range_meters":14800,"station_id":"ce4bhl12rcd13ifvqgf0","pricing_plan_id":"cebpf4jnsgd1na2vs0mg"},{"bike_id":"ce436c74-8382-49a0-9037-30b6397e19af","system_id":"levelo_inurba_marseille","lat":43.2409,"lon":5.37748,"is_reserved":false,"is_disabled":false,"rental_uris":{"android":"levelo://app?vid=ce436c74-8382-49a0-9037-30b6397e19af","ios":"levelo://app?vid=ce436c74-8382-49a0-9037-30b6397e19af"},"vehicle_type_id":"4","last_reported":1726143403,"current_range_meters":30400,"station_id":"ce4bhnp2rcd13ifvqgvg","pricing_plan_id":"cebpf4jnsgd1na2vs0mg"},{"bike_id":"65781729-01dc-4f24-b783-4b6b61390f90","system_id":"levelo_inurba_marseille","lat":43.25824,"lon":5.39421,"is_reserved":false,"is_disabled":false,"rental_uris":{"android":"levelo://app?vid=65781729-01dc-4f24-b783-4b6b61390f90","ios":"levelo://app?vid=65781729-01dc-4f24-b783-4b6b61390f90"},"vehicle_type_id":"4","last_reported":1726143403,"current_range_meters":28800,"station_id":"ce4bhip2rcd13ifvqft0","pricing_plan_id":"cebpf4jnsgd1na2vs0mg"},{"bike_id":"8489aaac-28a0-4266-ac84-47e2c2487898","system_id":"levelo_inurba_marseille","lat":43.28944,"lon":5.36627,"is_reserved":false,"is_disabled":false,"rental_uris":{"android":"levelo://app?vid=8489aaac-28a0-4266-ac84-47e2c2487898","ios":"levelo://app?vid=8489aaac-28a0-4266-ac84-47e2c2487898"},"vehicle_type_id":"4","last_reported":1726143403,"current_range_meters":2000,"station_id":"ce4bhap2rcd13ifvqek0","pricing_plan_id":"cebpf4jnsgd1na2vs0mg"},{"bike_id":"69595c3d-f936-477a-b820-005c71676c20","system_id":"levelo_inurba_marseille","lat":43.27566,"lon":5.38433,"is_reserved":false,"is_disabled":false,"rental_uris":{"android":"levelo://app?vid=69595c3d-f936-477a-b820-005c71676c20","ios":"levelo://app?vid=69595c3d-f936-477a-b820-005c71676c20"},"vehicle_type_id":"4","last_reported":1726143403,"current_range_meters":14000,"station_id":"ce4bhh92rcd13ifvqfi0","pricing_plan_id":"cebpf4jnsgd1na2vs0mg"},{"bike_id":"f397724e-693c-41fc-8549-c68109fb4bbd","system_id":"levelo_inurba_marseille","lat":43.27325,"lon":5.39105,"is_reserved":false,"is_disabled":false,"rental_uris":{"android":"levelo://app?vid=f397724e-693c-41fc-8549-c68109fb4bbd","ios":"levelo://app?vid=f397724e-693c-41fc-8549-c68109fb4bbd"},"vehicle_type_id":"4","last_reported":1726143403,"current_range_meters":34800,"station_id":"ce4bhgp2rcd13ifvqfe0","pricing_plan_id":"cebpf4jnsgd1na2vs0mg"},{"bike_id":"ae3ad6c7-b322-42bb-bf54-fd91ef0db7c7","system_id":"levelo_inurba_marseille","lat":43.24083,"lon":5.37742,"is_reserved":false,"is_disabled":false,"rental_uris":{"android":"levelo://app?vid=ae3ad6c7-b322-42bb-bf54-fd91ef0db7c7","ios":"levelo://app?vid=ae3ad6c7-b322-42bb-bf54-fd91ef0db7c7"},"vehicle_type_id":"4","last_reported":1726143403,"current_range_meters":35200,"station_id":"ce4bhnp2rcd13ifvqgvg","pricing_plan_id":"cebpf4jnsgd1na2vs0mg"},{"bike_id":"b30bfc6e-e268-4030-a53f-06746572ff63","system_id":"levelo_inurba_marseille","lat":43.32371,"lon":5.38879,"is_reserved":false,"is_disabled":false,"rental_uris":{"android":"levelo://app?vid=b30bfc6e-e268-4030-a53f-06746572ff63","ios":"levelo://app?vid=b30bfc6e-e268-4030-a53f-06746572ff63"},"vehicle_type_id":"4","last_reported":1726143403,"current_range_meters":37600,"station_id":"ce4bhqp2rcd13ifvqhog","pricing_plan_id":"cebpf4jnsgd1na2vs0mg"},{"bike_id":"b49854f4-cd7b-4d30-b82d-93a9e34c2e05","system_id":"levelo_inurba_marseille","lat":43.29801,"lon":5.38092,"is_reserved":false,"is_disabled":false,"rental_uris":{"android":"levelo://app?vid=b49854f4-cd7b-4d30-b82d-93a9e34c2e05","ios":"levelo://app?vid=b49854f4-cd7b-4d30-b82d-93a9e34c2e05"},"vehicle_type_id":"4","last_reported":1726143403,"current_range_meters":24400,"station_id":"ce4bgip2rcd13ifvqbb0","pricing_plan_id":"cebpf4jnsgd1na2vs0mg"},{"bike_id":"ca33d2bf-c9f2-4944-aec8-d1b6204ec37b","system_id":"levelo_inurba_marseille","lat":43.29557,"lon":5.42281,"is_reserved":false,"is_disabled":false,"rental_uris":{"android":"levelo://app?vid=ca33d2bf-c9f2-4944-aec8-d1b6204ec37b","ios":"levelo://app?vid=ca33d2bf-c9f2-4944-aec8-d1b6204ec37b"},"vehicle_type_id":"4","last_reported":1726143403,"current_range_meters":24800,"station_id":"ce4bhph2rcd13ifvqhdg","pricing_plan_id":"cebpf4jnsgd1na2vs0mg"},{"bike_id":"ea725dd4-8715-426e-9c29-6ff15e8219b1","system_id":"levelo_inurba_marseille","lat":43.24081,"lon":5.37756,"is_reserved":false,"is_disabled":false,"rental_uris":{"android":"levelo://app?vid=ea725dd4-8715-426e-9c29-6ff15e8219b1","ios":"levelo://app?vid=ea725dd4-8715-426e-9c29-6ff15e8219b1"},"vehicle_type_id":"4","last_reported":1726143403,"current_range_meters":27600,"station_id":"ce4bhnp2rcd13ifvqgvg","pricing_plan_id":"cebpf4jnsgd1na2vs0mg"},{"bike_id":"e4a5e406-b72a-4f07-9791-f4133102a158","system_id":"levelo_inurba_marseille","lat":43.32486,"lon":5.36565,"is_reserved":false,"is_disabled":false,"rental_uris":{"android":"levelo://app?vid=e4a5e406-b72a-4f07-9791-f4133102a158","ios":"levelo://app?vid=e4a5e406-b72a-4f07-9791-f4133102a158"},"vehicle_type_id":"4","last_reported":1726143403,"current_range_meters":13600,"station_id":"ce4bhs12rcd13ifvqhvg","pricing_plan_id":"cebpf4jnsgd1na2vs0mg"},{"bike_id":"a2f26943-dc2e-4561-b068-dbd68c8f968c","system_id":"levelo_inurba_marseille","lat":43.29005,"lon":5.35602,"is_reserved":false,"is_disabled":false,"rental_uris":{"android":"levelo://app?vid=a2f26943-dc2e-4561-b068-dbd68c8f968c","ios":"levelo://app?vid=a2f26943-dc2e-4561-b068-dbd68c8f968c"},"vehicle_type_id":"4","last_reported":1726143403,"current_range_meters":22800,"station_id":"ce4bhb92rcd13ifvqen0","pricing_plan_id":"cebpf4jnsgd1na2vs0mg"},{"bike_id":"59837249-2cbd-4c07-8a6c-d3192d173b09","system_id":"levelo_inurba_marseille","lat":43.29907,"lon":5.37474,"is_reserved":false,"is_disabled":false,"rental_uris":{"android":"levelo://app?vid=59837249-2cbd-4c07-8a6c-d3192d173b09","ios":"levelo://app?vid=59837249-2cbd-4c07-8a6c-d3192d173b09"},"vehicle_type_id":"4","last_reported":1726143403,"current_range_meters":18000,"station_id":"ce4bgjh2rcd13ifvqbg0","pricing_plan_id":"cebpf4jnsgd1na2vs0mg"},{"bike_id":"25d751f7-8dda-4903-bdc2-e23d4d494216","system_id":"levelo_inurba_marseille","lat":43.23156,"lon":5.43703,"is_reserved":false,"is_disabled":false,"rental_uris":{"android":"levelo://app?vid=25d751f7-8dda-4903-bdc2-e23d4d494216","ios":"levelo://app?vid=25d751f7-8dda-4903-bdc2-e23d4d494216"},"vehicle_type_id":"4","last_reported":1726143403,"current_range_meters":38800,"station_id":"ce4bhmp2rcd13ifvqgog","pricing_plan_id":"cebpf4jnsgd1na2vs0mg"},{"bike_id":"db2b1e41-7799-4d24-86a4-8b1ea58dca12","system_id":"levelo_inurba_marseille","lat":43.29562,"lon":5.42286,"is_reserved":false,"is_disabled":false,"rental_uris":{"android":"levelo://app?vid=db2b1e41-7799-4d24-86a4-8b1ea58dca12","ios":"levelo://app?vid=db2b1e41-7799-4d24-86a4-8b1ea58dca12"},"vehicle_type_id":"4","last_reported":1726143403,"current_range_meters":18800,"station_id":"ce4bhph2rcd13ifvqhdg","pricing_plan_id":"cebpf4jnsgd1na2vs0mg"},{"bike_id":"0e346e90-6296-4fab-8d76-a2efb73245b6","system_id":"levelo_inurba_marseille","lat":43.23147,"lon":5.43715,"is_reserved":false,"is_disabled":false,"rental_uris":{"android":"levelo://app?vid=0e346e90-6296-4fab-8d76-a2efb73245b6","ios":"levelo://app?vid=0e346e90-6296-4fab-8d76-a2efb73245b6"},"vehicle_type_id":"4","last_reported":1726143403,"current_range_meters":9600,"station_id":"ce4bhmp2rcd13ifvqgog","pricing_plan_id":"cebpf4jnsgd1na2vs0mg"},{"bike_id":"81f07673-dfe5-435a-a081-ff73a26a9256","system_id":"levelo_inurba_marseille","lat":43.24082,"lon":5.37756,"is_reserved":false,"is_disabled":false,"rental_uris":{"android":"levelo://app?vid=81f07673-dfe5-435a-a081-ff73a26a9256","ios":"levelo://app?vid=81f07673-dfe5-435a-a081-ff73a26a9256"},"vehicle_type_id":"4","last_reported":1726143403,"current_range_meters":10000,"station_id":"ce4bhnp2rcd13ifvqgvg","pricing_plan_id":"cebpf4jnsgd1na2vs0mg"},{"bike_id":"7ce587b3-eff6-4385-aed2-96acfc8e123a","system_id":"levelo_inurba_marseille","lat":43.30913,"lon":5.36852,"is_reserved":false,"is_disabled":false,"rental_uris":{"android":"levelo://app?vid=7ce587b3-eff6-4385-aed2-96acfc8e123a","ios":"levelo://app?vid=7ce587b3-eff6-4385-aed2-96acfc8e123a"},"vehicle_type_id":"4","last_reported":1726143403,"current_range_meters":35200,"station_id":"ce4bgn92rcd13ifvqbvg","pricing_plan_id":"cebpf4jnsgd1na2vs0mg"},{"bike_id":"d75380cf-78aa-42db-a28e-f5bbe886725a","system_id":"levelo_inurba_marseille","lat":43.28848,"lon":5.3586,"is_reserved":false,"is_disabled":false,"rental_uris":{"android":"levelo://app?vid=d75380cf-78aa-42db-a28e-f5bbe886725a","ios":"levelo://app?vid=d75380cf-78aa-42db-a28e-f5bbe886725a"},"vehicle_type_id":"4","last_reported":1726143403,"current_range_meters":39200,"station_id":"ce4bhb12rcd13ifvqem0","pricing_plan_id":"cebpf4jnsgd1na2vs0mg"},{"bike_id":"77b51825-8938-4f8a-b8aa-10bdd0d8d5dd","system_id":"levelo_inurba_marseille","lat":43.28934,"lon":5.36627,"is_reserved":false,"is_disabled":false,"rental_uris":{"android":"levelo://app?vid=77b51825-8938-4f8a-b8aa-10bdd0d8d5dd","ios":"levelo://app?vid=77b51825-8938-4f8a-b8aa-10bdd0d8d5dd"},"vehicle_type_id":"4","last_reported":1726143403,"current_range_meters":8800,"station_id":"ce4bhap2rcd13ifvqek0","pricing_plan_id":"cebpf4jnsgd1na2vs0mg"},{"bike_id":"02e875d2-df35-4fac-9838-7425c2c862dd","system_id":"levelo_inurba_marseille","lat":43.26573,"lon":5.38989,"is_reserved":false,"is_disabled":false,"rental_uris":{"android":"levelo://app?vid=02e875d2-df35-4fac-9838-7425c2c862dd","ios":"levelo://app?vid=02e875d2-df35-4fac-9838-7425c2c862dd"},"vehicle_type_id":"4","last_reported":1726143403,"current_range_meters":24800,"station_id":"ce4bhe12rcd13ifvqf30","pricing_plan_id":"cebpf4jnsgd1na2vs0mg"},{"bike_id":"b16bb329-10f2-4ed4-b05b-7be1eb93eef0","system_id":"levelo_inurba_marseille","lat":43.26939,"lon":5.38917,"is_reserved":false,"is_disabled":false,"rental_uris":{"android":"levelo://app?vid=b16bb329-10f2-4ed4-b05b-7be1eb93eef0","ios":"levelo://app?vid=b16bb329-10f2-4ed4-b05b-7be1eb93eef0"},"vehicle_type_id":"4","last_reported":1726143403,"current_range_meters":15200,"station_id":"ce4bhhh2rcd13ifvqfl0","pricing_plan_id":"cebpf4jnsgd1na2vs0mg"},{"bike_id":"e3f27d4b-58d1-4f75-aab7-d543ac4db0fb","system_id":"levelo_inurba_marseille","lat":43.24549,"lon":5.39523,"is_reserved":false,"is_disabled":false,"rental_uris":{"android":"levelo://app?vid=e3f27d4b-58d1-4f75-aab7-d543ac4db0fb","ios":"levelo://app?vid=e3f27d4b-58d1-4f75-aab7-d543ac4db0fb"},"vehicle_type_id":"4","last_reported":1726143403,"current_range_meters":21600,"station_id":"ce4bhlp2rcd13ifvqgjg","pricing_plan_id":"cebpf4jnsgd1na2vs0mg"},{"bike_id":"cfdd0e5d-34af-414f-999a-c01c6f568ccf","system_id":"levelo_inurba_marseille","lat":43.24546,"lon":5.39524,"is_reserved":false,"is_disabled":false,"rental_uris":{"android":"levelo://app?vid=cfdd0e5d-34af-414f-999a-c01c6f568ccf","ios":"levelo://app?vid=cfdd0e5d-34af-414f-999a-c01c6f568ccf"},"vehicle_type_id":"4","last_reported":1726143403,"current_range_meters":3600,"station_id":"ce4bhlp2rcd13ifvqgjg","pricing_plan_id":"cebpf4jnsgd1na2vs0mg"},{"bike_id":"2c4577b3-3689-495e-a3c3-a78eafd4dc43","system_id":"levelo_inurba_marseille","lat":43.26555,"lon":5.37286,"is_reserved":false,"is_disabled":false,"rental_uris":{"android":"levelo://app?vid=2c4577b3-3689-495e-a3c3-a78eafd4dc43","ios":"levelo://app?vid=2c4577b3-3689-495e-a3c3-a78eafd4dc43"},"vehicle_type_id":"4","last_reported":1726143403,"current_range_meters":27200,"station_id":"ce4bhg12rcd13ifvqf70","pricing_plan_id":"cebpf4jnsgd1na2vs0mg"},{"bike_id":"dc015658-d53f-47a4-b68d-0c6ca08211bb","system_id":"levelo_inurba_marseille","lat":43.23151,"lon":5.43718,"is_reserved":false,"is_disabled":false,"rental_uris":{"android":"levelo://app?vid=dc015658-d53f-47a4-b68d-0c6ca08211bb","ios":"levelo://app?vid=dc015658-d53f-47a4-b68d-0c6ca08211bb"},"vehicle_type_id":"4","last_reported":1726143403,"current_range_meters":5600,"station_id":"ce4bhmp2rcd13ifvqgog","pricing_plan_id":"cebpf4jnsgd1na2vs0mg"},{"bike_id":"edb2715b-bb9d-4410-bc16-7e3c38f4dbde","system_id":"levelo_inurba_marseille","lat":43.29796,"lon":5.38099,"is_reserved":false,"is_disabled":false,"rental_uris":{"android":"levelo://app?vid=edb2715b-bb9d-4410-bc16-7e3c38f4dbde","ios":"levelo://app?vid=edb2715b-bb9d-4410-bc16-7e3c38f4dbde"},"vehicle_type_id":"4","last_reported":1726143403,"current_range_meters":30800,"station_id":"ce4bgip2rcd13ifvqbb0","pricing_plan_id":"cebpf4jnsgd1na2vs0mg"},{"bike_id":"1de49c78-0af1-439a-b625-da2c38e06562","system_id":"levelo_inurba_marseille","lat":43.30884,"lon":5.37196,"is_reserved":false,"is_disabled":false,"rental_uris":{"android":"levelo://app?vid=1de49c78-0af1-439a-b625-da2c38e06562","ios":"levelo://app?vid=1de49c78-0af1-439a-b625-da2c38e06562"},"vehicle_type_id":"4","last_reported":1726143403,"current_range_meters":16000,"station_id":"ce4bguh2rcd13ifvqckg","pricing_plan_id":"cebpf4jnsgd1na2vs0mg"},{"bike_id":"60d5bda9-f640-405a-935d-62d1314e50fa","system_id":"levelo_inurba_marseille","lat":43.23971,"lon":5.36627,"is_reserved":false,"is_disabled":false,"rental_uris":{"android":"levelo://app?vid=60d5bda9-f640-405a-935d-62d1314e50fa","ios":"levelo://app?vid=60d5bda9-f640-405a-935d-62d1314e50fa"},"vehicle_type_id":"4","last_reported":1726143403,"current_range_meters":30000,"station_id":"ce4bhi12rcd13ifvqfp0","pricing_plan_id":"cebpf4jnsgd1na2vs0mg"},{"bike_id":"5e7c1b11-d2d1-4cbe-befb-c1608484cee9","system_id":"levelo_inurba_marseille","lat":43.29721,"lon":5.3769,"is_reserved":false,"is_disabled":false,"rental_uris":{"android":"levelo://app?vid=5e7c1b11-d2d1-4cbe-befb-c1608484cee9","ios":"levelo://app?vid=5e7c1b11-d2d1-4cbe-befb-c1608484cee9"},"vehicle_type_id":"4","last_reported":1726143403,"current_range_meters":16800,"station_id":"ce4bgkh2rcd13ifvqbl0","pricing_plan_id":"cebpf4jnsgd1na2vs0mg"},{"bike_id":"d970b38c-7387-43bd-989f-d6f74d17f57e","system_id":"levelo_inurba_marseille","lat":43.30543,"lon":5.36537,"is_reserved":false,"is_disabled":false,"rental_uris":{"android":"levelo://app?vid=d970b38c-7387-43bd-989f-d6f74d17f57e","ios":"levelo://app?vid=d970b38c-7387-43bd-989f-d6f74d17f57e"},"vehicle_type_id":"4","last_reported":1726143403,"current_range_meters":39200,"station_id":"ce4bgs12rcd13ifvqcag","pricing_plan_id":"cebpf4jnsgd1na2vs0mg"},{"bike_id":"8cef993a-b3ac-4cf2-88c1-a3a37ab9f81e","system_id":"levelo_inurba_marseille","lat":43.28358,"lon":5.38105,"is_reserved":false,"is_disabled":false,"rental_uris":{"android":"levelo://app?vid=8cef993a-b3ac-4cf2-88c1-a3a37ab9f81e","ios":"levelo://app?vid=8cef993a-b3ac-4cf2-88c1-a3a37ab9f81e"},"vehicle_type_id":"4","last_reported":1726143403,"current_range_meters":21600,"station_id":"ce4bh412rcd13ifvqdr0","pricing_plan_id":"cebpf4jnsgd1na2vs0mg"},{"bike_id":"54dc69b8-08f3-471e-a72d-3abf296db32b","system_id":"levelo_inurba_marseille","lat":43.27192,"lon":5.40993,"is_reserved":false,"is_disabled":false,"rental_uris":{"android":"levelo://app?vid=54dc69b8-08f3-471e-a72d-3abf296db32b","ios":"levelo://app?vid=54dc69b8-08f3-471e-a72d-3abf296db32b"},"vehicle_type_id":"4","last_reported":1726143403,"current_range_meters":4400,"station_id":"ce4bhl12rcd13ifvqgf0","pricing_plan_id":"cebpf4jnsgd1na2vs0mg"},{"bike_id":"b60bf662-55c3-432f-a9f4-02ed08e0a353","system_id":"levelo_inurba_marseille","lat":43.27663,"lon":5.38893,"is_reserved":false,"is_disabled":false,"rental_uris":{"android":"levelo://app?vid=b60bf662-55c3-432f-a9f4-02ed08e0a353","ios":"levelo://app?vid=b60bf662-55c3-432f-a9f4-02ed08e0a353"},"vehicle_type_id":"4","last_reported":1726143403,"current_range_meters":10800,"station_id":"ce4bhi12rcd13ifvqfo0","pricing_plan_id":"cebpf4jnsgd1na2vs0mg"},{"bike_id":"174e5a0f-7a47-4c2e-b03a-75848b5dd34a","system_id":"levelo_inurba_marseille","lat":43.295141,"lon":5.390468,"is_reserved":false,"is_disabled":false,"rental_uris":{"android":"levelo://app?vid=174e5a0f-7a47-4c2e-b03a-75848b5dd34a","ios":"levelo://app?vid=174e5a0f-7a47-4c2e-b03a-75848b5dd34a"},"vehicle_type_id":"4","last_reported":1726143403,"current_range_meters":28800,"station_id":"ce4bh3p2rcd13ifvqdp0","pricing_plan_id":"cebpf4jnsgd1na2vs0mg"},{"bike_id":"ac61b3d5-4a9a-4e8e-8909-e3b91f61a358","system_id":"levelo_inurba_marseille","lat":43.30282,"lon":5.37692,"is_reserved":false,"is_disabled":false,"rental_uris":{"android":"levelo://app?vid=ac61b3d5-4a9a-4e8e-8909-e3b91f61a358","ios":"levelo://app?vid=ac61b3d5-4a9a-4e8e-8909-e3b91f61a358"},"vehicle_type_id":"4","last_reported":1726143403,"current_range_meters":39200,"station_id":"ce4bguh2rcd13ifvqcj0","pricing_plan_id":"cebpf4jnsgd1na2vs0mg"},{"bike_id":"dd99ab3d-cb76-4b60-b553-275a65eef40e","system_id":"levelo_inurba_marseille","lat":43.25936,"lon":5.40908,"is_reserved":false,"is_disabled":false,"rental_uris":{"android":"levelo://app?vid=dd99ab3d-cb76-4b60-b553-275a65eef40e","ios":"levelo://app?vid=dd99ab3d-cb76-4b60-b553-275a65eef40e"},"vehicle_type_id":"4","last_reported":1726143403,"current_range_meters":33200,"station_id":"ce4bhm92rcd13ifvqglg","pricing_plan_id":"cebpf4jnsgd1na2vs0mg"},{"bike_id":"a794bbd9-e83e-4910-83a4-566ea7e762eb","system_id":"levelo_inurba_marseille","lat":43.24995,"lon":5.38935,"is_reserved":false,"is_disabled":false,"rental_uris":{"android":"levelo://app?vid=a794bbd9-e83e-4910-83a4-566ea7e762eb","ios":"levelo://app?vid=a794bbd9-e83e-4910-83a4-566ea7e762eb"},"vehicle_type_id":"4","last_reported":1726143403,"current_range_meters":6800,"station_id":"ce4bhgp2rcd13ifvqfd0","pricing_plan_id":"cebpf4jnsgd1na2vs0mg"},{"bike_id":"ac990218-e320-466b-b8bd-4a1f4844c212","system_id":"levelo_inurba_marseille","lat":43.27374,"lon":5.36247,"is_reserved":false,"is_disabled":false,"rental_uris":{"android":"levelo://app?vid=ac990218-e320-466b-b8bd-4a1f4844c212","ios":"levelo://app?vid=ac990218-e320-466b-b8bd-4a1f4844c212"},"vehicle_type_id":"4","last_reported":1726143403,"current_range_meters":9200,"station_id":"ce4bhbh2rcd13ifvqeo0","pricing_plan_id":"cebpf4jnsgd1na2vs0mg"},{"bike_id":"50307943-def8-44f2-a834-9bcb75a4bd41","system_id":"levelo_inurba_marseille","lat":43.30208,"lon":5.39466,"is_reserved":false,"is_disabled":false,"rental_uris":{"android":"levelo://app?vid=50307943-def8-44f2-a834-9bcb75a4bd41","ios":"levelo://app?vid=50307943-def8-44f2-a834-9bcb75a4bd41"},"vehicle_type_id":"4","last_reported":1726143403,"current_range_meters":15200,"station_id":"ce4bh0p2rcd13ifvqd70","pricing_plan_id":"cebpf4jnsgd1na2vs0mg"},{"bike_id":"17cf805d-1f6c-40c3-93db-94c2af171f3b","system_id":"levelo_inurba_marseille","lat":43.31688,"lon":5.40474,"is_reserved":false,"is_disabled":false,"rental_uris":{"android":"levelo://app?vid=17cf805d-1f6c-40c3-93db-94c2af171f3b","ios":"levelo://app?vid=17cf805d-1f6c-40c3-93db-94c2af171f3b"},"vehicle_type_id":"4","last_reported":1726143403,"current_range_meters":28400,"station_id":"ce4bh012rcd13ifvqd00","pricing_plan_id":"cebpf4jnsgd1na2vs0mg"},{"bike_id":"10e7e032-ccbd-46cd-b9a4-50be4d18ac8b","system_id":"levelo_inurba_marseille","lat":43.24666,"lon":5.38161,"is_reserved":false,"is_disabled":false,"rental_uris":{"android":"levelo://app?vid=10e7e032-ccbd-46cd-b9a4-50be4d18ac8b","ios":"levelo://app?vid=10e7e032-ccbd-46cd-b9a4-50be4d18ac8b"},"vehicle_type_id":"4","last_reported":1726143403,"current_range_meters":36800,"station_id":"ce4bhih2rcd13ifvqfr0","pricing_plan_id":"cebpf4jnsgd1na2vs0mg"},{"bike_id":"9f3066bd-94ad-4b6a-b0f8-8a46517297de","system_id":"levelo_inurba_marseille","lat":43.30598,"lon":5.37213,"is_reserved":false,"is_disabled":false,"rental_uris":{"android":"levelo://app?vid=9f3066bd-94ad-4b6a-b0f8-8a46517297de","ios":"levelo://app?vid=9f3066bd-94ad-4b6a-b0f8-8a46517297de"},"vehicle_type_id":"4","last_reported":1726143403,"current_range_meters":38800,"station_id":"ce4bgqh2rcd13ifvqc4g","pricing_plan_id":"cebpf4jnsgd1na2vs0mg"},{"bike_id":"2eac0f31-2c74-47b2-b432-9b295a6c364c","system_id":"levelo_inurba_marseille","lat":43.34143,"lon":5.40904,"is_reserved":false,"is_disabled":false,"rental_uris":{"android":"levelo://app?vid=2eac0f31-2c74-47b2-b432-9b295a6c364c","ios":"levelo://app?vid=2eac0f31-2c74-47b2-b432-9b295a6c364c"},"vehicle_type_id":"4","last_reported":1726143403,"current_range_meters":18800,"station_id":"ce4bhqh2rcd13ifvqhlg","pricing_plan_id":"cebpf4jnsgd1na2vs0mg"},{"bike_id":"e43aa60c-1314-4d9e-ab0a-d4cc3c0584a4","system_id":"levelo_inurba_marseille","lat":43.2408,"lon":5.37752,"is_reserved":false,"is_disabled":false,"rental_uris":{"android":"levelo://app?vid=e43aa60c-1314-4d9e-ab0a-d4cc3c0584a4","ios":"levelo://app?vid=e43aa60c-1314-4d9e-ab0a-d4cc3c0584a4"},"vehicle_type_id":"4","last_reported":1726143403,"current_range_meters":36800,"station_id":"ce4bhnp2rcd13ifvqgvg","pricing_plan_id":"cebpf4jnsgd1na2vs0mg"},{"bike_id":"42f4c576-b9c9-451e-bb09-e9ba24f78231","system_id":"levelo_inurba_marseille","lat":43.24076,"lon":5.37756,"is_reserved":false,"is_disabled":false,"rental_uris":{"android":"levelo://app?vid=42f4c576-b9c9-451e-bb09-e9ba24f78231","ios":"levelo://app?vid=42f4c576-b9c9-451e-bb09-e9ba24f78231"},"vehicle_type_id":"4","last_reported":1726143403,"current_range_meters":34000,"station_id":"ce4bhnp2rcd13ifvqgvg","pricing_plan_id":"cebpf4jnsgd1na2vs0mg"},{"bike_id":"dc673159-4558-442e-82c9-34dc9a337649","system_id":"levelo_inurba_marseille","lat":43.29928,"lon":5.37568,"is_reserved":false,"is_disabled":false,"rental_uris":{"android":"levelo://app?vid=dc673159-4558-442e-82c9-34dc9a337649","ios":"levelo://app?vid=dc673159-4558-442e-82c9-34dc9a337649"},"vehicle_type_id":"4","last_reported":1726143403,"current_range_meters":18000,"station_id":"","pricing_plan_id":"cebpf4jnsgd1na2vs0mg"},{"bike_id":"dfd604c4-221b-442d-8f0c-5524a0446526","system_id":"levelo_inurba_marseille","lat":43.30286,"lon":5.37698,"is_reserved":false,"is_disabled":false,"rental_uris":{"android":"levelo://app?vid=dfd604c4-221b-442d-8f0c-5524a0446526","ios":"levelo://app?vid=dfd604c4-221b-442d-8f0c-5524a0446526"},"vehicle_type_id":"4","last_reported":1726143403,"current_range_meters":39200,"station_id":"ce4bguh2rcd13ifvqcj0","pricing_plan_id":"cebpf4jnsgd1na2vs0mg"},{"bike_id":"8f84f5c6-098a-4159-9f7a-a6d91a60a0f3","system_id":"levelo_inurba_marseille","lat":43.28721,"lon":5.37933,"is_reserved":false,"is_disabled":false,"rental_uris":{"android":"levelo://app?vid=8f84f5c6-098a-4159-9f7a-a6d91a60a0f3","ios":"levelo://app?vid=8f84f5c6-098a-4159-9f7a-a6d91a60a0f3"},"vehicle_type_id":"4","last_reported":1726143403,"current_range_meters":18000,"station_id":"ce4bh9p2rcd13ifvqec0","pricing_plan_id":"cebpf4jnsgd1na2vs0mg"},{"bike_id":"7d348dd9-aba5-4535-bda9-b52ada6017ef","system_id":"levelo_inurba_marseille","lat":43.26191,"lon":5.37446,"is_reserved":false,"is_disabled":false,"rental_uris":{"android":"levelo://app?vid=7d348dd9-aba5-4535-bda9-b52ada6017ef","ios":"levelo://app?vid=7d348dd9-aba5-4535-bda9-b52ada6017ef"},"vehicle_type_id":"4","last_reported":1726143403,"current_range_meters":36400,"station_id":"ce4bhgp2rcd13ifvqfc0","pricing_plan_id":"cebpf4jnsgd1na2vs0mg"},{"bike_id":"9f7ee0be-e9c7-4974-9a33-f647d44b45df","system_id":"levelo_inurba_marseille","lat":43.31227,"lon":5.36869,"is_reserved":false,"is_disabled":false,"rental_uris":{"android":"levelo://app?vid=9f7ee0be-e9c7-4974-9a33-f647d44b45df","ios":"levelo://app?vid=9f7ee0be-e9c7-4974-9a33-f647d44b45df"},"vehicle_type_id":"4","last_reported":1726143403,"current_range_meters":31200,"station_id":"ce4bgl92rcd13ifvqbq0","pricing_plan_id":"cebpf4jnsgd1na2vs0mg"},{"bike_id":"7f6c41c3-b2a7-4559-8f9f-86191ac2c410","system_id":"levelo_inurba_marseille","lat":43.25583,"lon":5.38227,"is_reserved":false,"is_disabled":false,"rental_uris":{"android":"levelo://app?vid=7f6c41c3-b2a7-4559-8f9f-86191ac2c410","ios":"levelo://app?vid=7f6c41c3-b2a7-4559-8f9f-86191ac2c410"},"vehicle_type_id":"4","last_reported":1726143403,"current_range_meters":30800,"station_id":"ce4bhih2rcd13ifvqfs0","pricing_plan_id":"cebpf4jnsgd1na2vs0mg"},{"bike_id":"71fab203-d539-4323-955e-1ff13ccb37c0","system_id":"levelo_inurba_marseille","lat":43.29098,"lon":5.38134,"is_reserved":false,"is_disabled":false,"rental_uris":{"android":"levelo://app?vid=71fab203-d539-4323-955e-1ff13ccb37c0","ios":"levelo://app?vid=71fab203-d539-4323-955e-1ff13ccb37c0"},"vehicle_type_id":"4","last_reported":1726143403,"current_range_meters":7200,"station_id":"ce4bh512rcd13ifvqe2g","pricing_plan_id":"cebpf4jnsgd1na2vs0mg"},{"bike_id":"d4e8d54c-648a-4049-ad42-a2e098078850","system_id":"levelo_inurba_marseille","lat":43.24075,"lon":5.37754,"is_reserved":false,"is_disabled":false,"rental_uris":{"android":"levelo://app?vid=d4e8d54c-648a-4049-ad42-a2e098078850","ios":"levelo://app?vid=d4e8d54c-648a-4049-ad42-a2e098078850"},"vehicle_type_id":"4","last_reported":1726143403,"current_range_meters":12000,"station_id":"ce4bhnp2rcd13ifvqgvg","pricing_plan_id":"cebpf4jnsgd1na2vs0mg"},{"bike_id":"f572c43a-5117-4d27-b5ea-a7ae34d9e83b","system_id":"levelo_inurba_marseille","lat":43.292351,"lon":5.383488,"is_reserved":false,"is_disabled":false,"rental_uris":{"android":"levelo://app?vid=f572c43a-5117-4d27-b5ea-a7ae34d9e83b","ios":"levelo://app?vid=f572c43a-5117-4d27-b5ea-a7ae34d9e83b"},"vehicle_type_id":"4","last_reported":1726143403,"current_range_meters":5600,"station_id":"ce4bh692rcd13ifvqea0","pricing_plan_id":"cebpf4jnsgd1na2vs0mg"},{"bike_id":"02964caf-f190-471e-a530-d0fefedd8874","system_id":"levelo_inurba_marseille","lat":43.25932,"lon":5.409,"is_reserved":false,"is_disabled":false,"rental_uris":{"android":"levelo://app?vid=02964caf-f190-471e-a530-d0fefedd8874","ios":"levelo://app?vid=02964caf-f190-471e-a530-d0fefedd8874"},"vehicle_type_id":"4","last_reported":1726143403,"current_range_meters":26800,"station_id":"ce4bhm92rcd13ifvqglg","pricing_plan_id":"cebpf4jnsgd1na2vs0mg"},{"bike_id":"19510ac0-bff4-45d4-bdb2-93c175745534","system_id":"levelo_inurba_marseille","lat":43.29723,"lon":5.37685,"is_reserved":false,"is_disabled":false,"rental_uris":{"android":"levelo://app?vid=19510ac0-bff4-45d4-bdb2-93c175745534","ios":"levelo://app?vid=19510ac0-bff4-45d4-bdb2-93c175745534"},"vehicle_type_id":"4","last_reported":1726143403,"current_range_meters":33200,"station_id":"ce4bgkh2rcd13ifvqbl0","pricing_plan_id":"cebpf4jnsgd1na2vs0mg"},{"bike_id":"cd2104e9-fe8f-4a8d-a2d7-15eafb601787","system_id":"levelo_inurba_marseille","lat":43.31225,"lon":5.36867,"is_reserved":false,"is_disabled":false,"rental_uris":{"android":"levelo://app?vid=cd2104e9-fe8f-4a8d-a2d7-15eafb601787","ios":"levelo://app?vid=cd2104e9-fe8f-4a8d-a2d7-15eafb601787"},"vehicle_type_id":"4","last_reported":1726143403,"current_range_meters":38800,"station_id":"ce4bgl92rcd13ifvqbq0","pricing_plan_id":"cebpf4jnsgd1na2vs0mg"},{"bike_id":"96f554ea-66ec-4655-b00c-4f69969a77ee","system_id":"levelo_inurba_marseille","lat":43.28697,"lon":5.37402,"is_reserved":false,"is_disabled":false,"rental_uris":{"android":"levelo://app?vid=96f554ea-66ec-4655-b00c-4f69969a77ee","ios":"levelo://app?vid=96f554ea-66ec-4655-b00c-4f69969a77ee"},"vehicle_type_id":"4","last_reported":1726143403,"current_range_meters":21600,"station_id":"ce4bh3p2rcd13ifvqdq0","pricing_plan_id":"cebpf4jnsgd1na2vs0mg"},{"bike_id":"e966de64-1292-4704-b259-e51664eef95e","system_id":"levelo_inurba_marseille","lat":43.27616,"lon":5.36104,"is_reserved":false,"is_disabled":false,"rental_uris":{"android":"levelo://app?vid=e966de64-1292-4704-b259-e51664eef95e","ios":"levelo://app?vid=e966de64-1292-4704-b259-e51664eef95e"},"vehicle_type_id":"4","last_reported":1726143403,"current_range_meters":26800,"station_id":"ce4bgj92rcd13ifvqbe0","pricing_plan_id":"cebpf4jnsgd1na2vs0mg"},{"bike_id":"2e124a7a-275a-4db2-b3b6-68381ae43f6d","system_id":"levelo_inurba_marseille","lat":43.29008,"lon":5.3561,"is_reserved":false,"is_disabled":false,"rental_uris":{"android":"levelo://app?vid=2e124a7a-275a-4db2-b3b6-68381ae43f6d","ios":"levelo://app?vid=2e124a7a-275a-4db2-b3b6-68381ae43f6d"},"vehicle_type_id":"4","last_reported":1726143403,"current_range_meters":40000,"station_id":"ce4bhb92rcd13ifvqen0","pricing_plan_id":"cebpf4jnsgd1na2vs0mg"},{"bike_id":"6fd8660e-01ed-4760-957a-52e62ffb8142","system_id":"levelo_inurba_marseille","lat":43.29594,"lon":5.38106,"is_reserved":false,"is_disabled":false,"rental_uris":{"android":"levelo://app?vid=6fd8660e-01ed-4760-957a-52e62ffb8142","ios":"levelo://app?vid=6fd8660e-01ed-4760-957a-52e62ffb8142"},"vehicle_type_id":"4","last_reported":1726143403,"current_range_meters":22400,"station_id":"ce4bgl12rcd13ifvqbo0","pricing_plan_id":"cebpf4jnsgd1na2vs0mg"},{"bike_id":"dc5dca54-8ebf-43b2-acf8-9ae498c9992e","system_id":"levelo_inurba_marseille","lat":43.29542,"lon":5.38544,"is_reserved":false,"is_disabled":false,"rental_uris":{"android":"levelo://app?vid=dc5dca54-8ebf-43b2-acf8-9ae498c9992e","ios":"levelo://app?vid=dc5dca54-8ebf-43b2-acf8-9ae498c9992e"},"vehicle_type_id":"4","last_reported":1726143403,"current_range_meters":35600,"station_id":"ce4bgih2rcd13ifvqba0","pricing_plan_id":"cebpf4jnsgd1na2vs0mg"},{"bike_id":"deaeb920-23ab-4b51-a90a-3a4d369b9959","system_id":"levelo_inurba_marseille","lat":43.26554,"lon":5.37287,"is_reserved":false,"is_disabled":false,"rental_uris":{"android":"levelo://app?vid=deaeb920-23ab-4b51-a90a-3a4d369b9959","ios":"levelo://app?vid=deaeb920-23ab-4b51-a90a-3a4d369b9959"},"vehicle_type_id":"4","last_reported":1726143403,"current_range_meters":12400,"station_id":"ce4bhg12rcd13ifvqf70","pricing_plan_id":"cebpf4jnsgd1na2vs0mg"},{"bike_id":"2978c8ef-7735-4057-b33e-747fe355072e","system_id":"levelo_inurba_marseille","lat":43.26031,"lon":5.37546,"is_reserved":false,"is_disabled":false,"rental_uris":{"android":"levelo://app?vid=2978c8ef-7735-4057-b33e-747fe355072e","ios":"levelo://app?vid=2978c8ef-7735-4057-b33e-747fe355072e"},"vehicle_type_id":"4","last_reported":1726143403,"current_range_meters":4400,"station_id":"ce4bhgh2rcd13ifvqfa0","pricing_plan_id":"cebpf4jnsgd1na2vs0mg"},{"bike_id":"06397b71-60c6-478c-afbf-9d6b8e727f4e","system_id":"levelo_inurba_marseille","lat":43.30334,"lon":5.40431,"is_reserved":false,"is_disabled":false,"rental_uris":{"android":"levelo://app?vid=06397b71-60c6-478c-afbf-9d6b8e727f4e","ios":"levelo://app?vid=06397b71-60c6-478c-afbf-9d6b8e727f4e"},"vehicle_type_id":"4","last_reported":1726143403,"current_range_meters":22800,"station_id":"ce4bh012rcd13ifvqd10","pricing_plan_id":"cebpf4jnsgd1na2vs0mg"},{"bike_id":"a11471b8-3a07-4f2d-9bc3-d5de49e843f5","system_id":"levelo_inurba_marseille","lat":43.29513,"lon":5.39405,"is_reserved":false,"is_disabled":false,"rental_uris":{"android":"levelo://app?vid=a11471b8-3a07-4f2d-9bc3-d5de49e843f5","ios":"levelo://app?vid=a11471b8-3a07-4f2d-9bc3-d5de49e843f5"},"vehicle_type_id":"4","last_reported":1726143403,"current_range_meters":29600,"station_id":"ce4bh292rcd13ifvqdf0","pricing_plan_id":"cebpf4jnsgd1na2vs0mg"},{"bike_id":"e543e285-b4db-4ae8-882d-64ccda26c28b","system_id":"levelo_inurba_marseille","lat":43.337444,"lon":5.374475,"is_reserved":false,"is_disabled":false,"rental_uris":{"android":"levelo://app?vid=e543e285-b4db-4ae8-882d-64ccda26c28b","ios":"levelo://app?vid=e543e285-b4db-4ae8-882d-64ccda26c28b"},"vehicle_type_id":"4","last_reported":1726143403,"current_range_meters":25600,"station_id":"ce4bh3h2rcd13ifvqdo0","pricing_plan_id":"cebpf4jnsgd1na2vs0mg"},{"bike_id":"c1142c8d-e336-4538-9544-b15b7b40b9ec","system_id":"levelo_inurba_marseille","lat":43.30953,"lon":5.39052,"is_reserved":false,"is_disabled":false,"rental_uris":{"android":"levelo://app?vid=c1142c8d-e336-4538-9544-b15b7b40b9ec","ios":"levelo://app?vid=c1142c8d-e336-4538-9544-b15b7b40b9ec"},"vehicle_type_id":"4","last_reported":1726143403,"current_range_meters":6000,"station_id":"ce4bgup2rcd13ifvqco0","pricing_plan_id":"cebpf4jnsgd1na2vs0mg"},{"bike_id":"ba72e858-571b-4d91-a29b-a577f810152e","system_id":"levelo_inurba_marseille","lat":43.25727,"lon":5.41111,"is_reserved":false,"is_disabled":false,"rental_uris":{"android":"levelo://app?vid=ba72e858-571b-4d91-a29b-a577f810152e","ios":"levelo://app?vid=ba72e858-571b-4d91-a29b-a577f810152e"},"vehicle_type_id":"4","last_reported":1726143403,"current_range_meters":23200,"station_id":"ce4bhkp2rcd13ifvqgd0","pricing_plan_id":"cebpf4jnsgd1na2vs0mg"},{"bike_id":"d10bf002-9981-440b-b0ca-c6a6ab00445e","system_id":"levelo_inurba_marseille","lat":43.2465,"lon":5.38897,"is_reserved":false,"is_disabled":false,"rental_uris":{"android":"levelo://app?vid=d10bf002-9981-440b-b0ca-c6a6ab00445e","ios":"levelo://app?vid=d10bf002-9981-440b-b0ca-c6a6ab00445e"},"vehicle_type_id":"4","last_reported":1726143403,"current_range_meters":33600,"station_id":"ce4bhg12rcd13ifvqf60","pricing_plan_id":"cebpf4jnsgd1na2vs0mg"},{"bike_id":"5b447c57-133e-42cd-827f-e526e0bfeef2","system_id":"levelo_inurba_marseille","lat":43.31351,"lon":5.36731,"is_reserved":false,"is_disabled":false,"rental_uris":{"android":"levelo://app?vid=5b447c57-133e-42cd-827f-e526e0bfeef2","ios":"levelo://app?vid=5b447c57-133e-42cd-827f-e526e0bfeef2"},"vehicle_type_id":"4","last_reported":1726143403,"current_range_meters":39200,"station_id":"ce4bgr92rcd13ifvqc6g","pricing_plan_id":"cebpf4jnsgd1na2vs0mg"},{"bike_id":"b339ada7-e3c9-4078-8ab9-62d2173286d7","system_id":"levelo_inurba_marseille","lat":43.30533,"lon":5.36529,"is_reserved":false,"is_disabled":false,"rental_uris":{"android":"levelo://app?vid=b339ada7-e3c9-4078-8ab9-62d2173286d7","ios":"levelo://app?vid=b339ada7-e3c9-4078-8ab9-62d2173286d7"},"vehicle_type_id":"4","last_reported":1726143403,"current_range_meters":24400,"station_id":"ce4bgs12rcd13ifvqcag","pricing_plan_id":"cebpf4jnsgd1na2vs0mg"},{"bike_id":"3a402e5d-763c-46ac-b2c9-c8d83fbce851","system_id":"levelo_inurba_marseille","lat":43.28444,"lon":5.3918,"is_reserved":false,"is_disabled":false,"rental_uris":{"android":"levelo://app?vid=3a402e5d-763c-46ac-b2c9-c8d83fbce851","ios":"levelo://app?vid=3a402e5d-763c-46ac-b2c9-c8d83fbce851"},"vehicle_type_id":"4","last_reported":1726143403,"current_range_meters":6800,"station_id":"ce4bhoh2rcd13ifvqh5g","pricing_plan_id":"cebpf4jnsgd1na2vs0mg"},{"bike_id":"7a9db6cc-034f-4ca0-a824-db851afb7f24","system_id":"levelo_inurba_marseille","lat":43.31215,"lon":5.36873,"is_reserved":false,"is_disabled":false,"rental_uris":{"android":"levelo://app?vid=7a9db6cc-034f-4ca0-a824-db851afb7f24","ios":"levelo://app?vid=7a9db6cc-034f-4ca0-a824-db851afb7f24"},"vehicle_type_id":"4","last_reported":1726143403,"current_range_meters":27600,"station_id":"ce4bgl92rcd13ifvqbq0","pricing_plan_id":"cebpf4jnsgd1na2vs0mg"},{"bike_id":"a2265db0-d956-4f00-9f39-5fc5281e38ed","system_id":"levelo_inurba_marseille","lat":43.28722,"lon":5.37942,"is_reserved":false,"is_disabled":false,"rental_uris":{"android":"levelo://app?vid=a2265db0-d956-4f00-9f39-5fc5281e38ed","ios":"levelo://app?vid=a2265db0-d956-4f00-9f39-5fc5281e38ed"},"vehicle_type_id":"4","last_reported":1726143403,"current_range_meters":36000,"station_id":"ce4bh9p2rcd13ifvqec0","pricing_plan_id":"cebpf4jnsgd1na2vs0mg"},{"bike_id":"c73ba865-18e7-4e6c-b5cd-1391ac57c031","system_id":"levelo_inurba_marseille","lat":43.29624,"lon":5.37726,"is_reserved":false,"is_disabled":false,"rental_uris":{"android":"levelo://app?vid=c73ba865-18e7-4e6c-b5cd-1391ac57c031","ios":"levelo://app?vid=c73ba865-18e7-4e6c-b5cd-1391ac57c031"},"vehicle_type_id":"4","last_reported":1726143403,"current_range_meters":25200,"station_id":"ce4bgi92rcd13ifvqb90","pricing_plan_id":"cebpf4jnsgd1na2vs0mg"},{"bike_id":"a78102a0-bfeb-4bfd-a176-51b3099f4535","system_id":"levelo_inurba_marseille","lat":43.24083,"lon":5.37762,"is_reserved":false,"is_disabled":false,"rental_uris":{"android":"levelo://app?vid=a78102a0-bfeb-4bfd-a176-51b3099f4535","ios":"levelo://app?vid=a78102a0-bfeb-4bfd-a176-51b3099f4535"},"vehicle_type_id":"4","last_reported":1726143403,"current_range_meters":25200,"station_id":"ce4bhnp2rcd13ifvqgvg","pricing_plan_id":"cebpf4jnsgd1na2vs0mg"},{"bike_id":"3cafe719-17c5-4b6c-b3c8-c8ff56b747fe","system_id":"levelo_inurba_marseille","lat":43.29195,"lon":5.35817,"is_reserved":false,"is_disabled":false,"rental_uris":{"android":"levelo://app?vid=3cafe719-17c5-4b6c-b3c8-c8ff56b747fe","ios":"levelo://app?vid=3cafe719-17c5-4b6c-b3c8-c8ff56b747fe"},"vehicle_type_id":"4","last_reported":1726143403,"current_range_meters":4000,"station_id":"ce4bhb12rcd13ifvqel0","pricing_plan_id":"cebpf4jnsgd1na2vs0mg"},{"bike_id":"8fbc0af9-06af-4008-9113-da08b1db43f7","system_id":"levelo_inurba_marseille","lat":43.30533,"lon":5.39837,"is_reserved":false,"is_disabled":false,"rental_uris":{"android":"levelo://app?vid=8fbc0af9-06af-4008-9113-da08b1db43f7","ios":"levelo://app?vid=8fbc0af9-06af-4008-9113-da08b1db43f7"},"vehicle_type_id":"4","last_reported":1726143403,"current_range_meters":19200,"station_id":"ce4bh092rcd13ifvqd20","pricing_plan_id":"cebpf4jnsgd1na2vs0mg"},{"bike_id":"8a393b22-f265-43a8-a9c6-c872b11b089f","system_id":"levelo_inurba_marseille","lat":43.30469,"lon":5.37916,"is_reserved":false,"is_disabled":false,"rental_uris":{"android":"levelo://app?vid=8a393b22-f265-43a8-a9c6-c872b11b089f","ios":"levelo://app?vid=8a393b22-f265-43a8-a9c6-c872b11b089f"},"vehicle_type_id":"4","last_reported":1726143403,"current_range_meters":8400,"station_id":"ce4bgup2rcd13ifvqcn0","pricing_plan_id":"cebpf4jnsgd1na2vs0mg"},{"bike_id":"a6229f2e-2afa-41f3-aa4e-001e0fe81750","system_id":"levelo_inurba_marseille","lat":43.29538,"lon":5.38549,"is_reserved":false,"is_disabled":false,"rental_uris":{"android":"levelo://app?vid=a6229f2e-2afa-41f3-aa4e-001e0fe81750","ios":"levelo://app?vid=a6229f2e-2afa-41f3-aa4e-001e0fe81750"},"vehicle_type_id":"4","last_reported":1726143403,"current_range_meters":17200,"station_id":"ce4bgih2rcd13ifvqba0","pricing_plan_id":"cebpf4jnsgd1na2vs0mg"},{"bike_id":"6cfd623d-1306-4849-9979-b14448f1a752","system_id":"levelo_inurba_marseille","lat":43.31499,"lon":5.37315,"is_reserved":false,"is_disabled":false,"rental_uris":{"android":"levelo://app?vid=6cfd623d-1306-4849-9979-b14448f1a752","ios":"levelo://app?vid=6cfd623d-1306-4849-9979-b14448f1a752"},"vehicle_type_id":"4","last_reported":1726143403,"current_range_meters":36000,"station_id":"ce4bgt12rcd13ifvqcd0","pricing_plan_id":"cebpf4jnsgd1na2vs0mg"},{"bike_id":"007da717-3cd4-4c32-a81b-93fd6799a021","system_id":"levelo_inurba_marseille","lat":43.304612,"lon":5.379071,"is_reserved":false,"is_disabled":false,"rental_uris":{"android":"levelo://app?vid=007da717-3cd4-4c32-a81b-93fd6799a021","ios":"levelo://app?vid=007da717-3cd4-4c32-a81b-93fd6799a021"},"vehicle_type_id":"4","last_reported":1726143403,"current_range_meters":26000,"station_id":"ce4bgup2rcd13ifvqcn0","pricing_plan_id":"cebpf4jnsgd1na2vs0mg"},{"bike_id":"7467638d-e69b-486f-a102-30f19d08fa1f","system_id":"levelo_inurba_marseille","lat":43.29845,"lon":5.36273,"is_reserved":false,"is_disabled":false,"rental_uris":{"android":"levelo://app?vid=7467638d-e69b-486f-a102-30f19d08fa1f","ios":"levelo://app?vid=7467638d-e69b-486f-a102-30f19d08fa1f"},"vehicle_type_id":"4","last_reported":1726143403,"current_range_meters":24800,"station_id":"ce4bgpp2rcd13ifvqc3g","pricing_plan_id":"cebpf4jnsgd1na2vs0mg"},{"bike_id":"71db57b5-6582-42d9-83d4-5f514a356347","system_id":"levelo_inurba_marseille","lat":43.337444,"lon":5.374475,"is_reserved":false,"is_disabled":false,"rental_uris":{"android":"levelo://app?vid=71db57b5-6582-42d9-83d4-5f514a356347","ios":"levelo://app?vid=71db57b5-6582-42d9-83d4-5f514a356347"},"vehicle_type_id":"4","last_reported":1726143403,"current_range_meters":30800,"station_id":"ce4bh3h2rcd13ifvqdo0","pricing_plan_id":"cebpf4jnsgd1na2vs0mg"},{"bike_id":"9b8f0a3a-7dff-4fff-96a7-b5a6deeace85","system_id":"levelo_inurba_marseille","lat":43.23969,"lon":5.36633,"is_reserved":false,"is_disabled":false,"rental_uris":{"android":"levelo://app?vid=9b8f0a3a-7dff-4fff-96a7-b5a6deeace85","ios":"levelo://app?vid=9b8f0a3a-7dff-4fff-96a7-b5a6deeace85"},"vehicle_type_id":"4","last_reported":1726143403,"current_range_meters":8400,"station_id":"ce4bhi12rcd13ifvqfp0","pricing_plan_id":"cebpf4jnsgd1na2vs0mg"},{"bike_id":"849eb538-95cd-4aed-ba39-b18a7589f412","system_id":"levelo_inurba_marseille","lat":43.26956,"lon":5.38637,"is_reserved":false,"is_disabled":false,"rental_uris":{"android":"levelo://app?vid=849eb538-95cd-4aed-ba39-b18a7589f412","ios":"levelo://app?vid=849eb538-95cd-4aed-ba39-b18a7589f412"},"vehicle_type_id":"4","last_reported":1726143403,"current_range_meters":20000,"station_id":"ce4bhh92rcd13ifvqfh0","pricing_plan_id":"cebpf4jnsgd1na2vs0mg"},{"bike_id":"2991a6fa-0248-469e-a3fb-b9b75d12fb45","system_id":"levelo_inurba_marseille","lat":43.33606,"lon":5.4103,"is_reserved":false,"is_disabled":false,"rental_uris":{"android":"levelo://app?vid=2991a6fa-0248-469e-a3fb-b9b75d12fb45","ios":"levelo://app?vid=2991a6fa-0248-469e-a3fb-b9b75d12fb45"},"vehicle_type_id":"4","last_reported":1726143403,"current_range_meters":38000,"station_id":"ce4bhqh2rcd13ifvqhmg","pricing_plan_id":"cebpf4jnsgd1na2vs0mg"},{"bike_id":"8dff30ed-bea6-490f-9a43-12ef94fb32fc","system_id":"levelo_inurba_marseille","lat":43.29855,"lon":5.36275,"is_reserved":false,"is_disabled":false,"rental_uris":{"android":"levelo://app?vid=8dff30ed-bea6-490f-9a43-12ef94fb32fc","ios":"levelo://app?vid=8dff30ed-bea6-490f-9a43-12ef94fb32fc"},"vehicle_type_id":"4","last_reported":1726143403,"current_range_meters":22400,"station_id":"ce4bgpp2rcd13ifvqc3g","pricing_plan_id":"cebpf4jnsgd1na2vs0mg"},{"bike_id":"2efe19d8-d411-42cd-aac8-19d00c64dea2","system_id":"levelo_inurba_marseille","lat":43.26683,"lon":5.38272,"is_reserved":false,"is_disabled":false,"rental_uris":{"android":"levelo://app?vid=2efe19d8-d411-42cd-aac8-19d00c64dea2","ios":"levelo://app?vid=2efe19d8-d411-42cd-aac8-19d00c64dea2"},"vehicle_type_id":"4","last_reported":1726143403,"current_range_meters":33600,"station_id":"ce4bhg92rcd13ifvqf90","pricing_plan_id":"cebpf4jnsgd1na2vs0mg"},{"bike_id":"dd2d66a6-976d-43e6-83be-d6211ff78acc","system_id":"levelo_inurba_marseille","lat":43.33724,"lon":5.39178,"is_reserved":false,"is_disabled":false,"rental_uris":{"android":"levelo://app?vid=dd2d66a6-976d-43e6-83be-d6211ff78acc","ios":"levelo://app?vid=dd2d66a6-976d-43e6-83be-d6211ff78acc"},"vehicle_type_id":"4","last_reported":1726143403,"current_range_meters":11600,"station_id":"ce4bhr92rcd13ifvqhsg","pricing_plan_id":"cebpf4jnsgd1na2vs0mg"},{"bike_id":"5ef7b96a-1cb8-4f42-af16-3a0d049b19cc","system_id":"levelo_inurba_marseille","lat":43.29562,"lon":5.42292,"is_reserved":false,"is_disabled":false,"rental_uris":{"android":"levelo://app?vid=5ef7b96a-1cb8-4f42-af16-3a0d049b19cc","ios":"levelo://app?vid=5ef7b96a-1cb8-4f42-af16-3a0d049b19cc"},"vehicle_type_id":"4","last_reported":1726143403,"current_range_meters":13600,"station_id":"ce4bhph2rcd13ifvqhdg","pricing_plan_id":"cebpf4jnsgd1na2vs0mg"},{"bike_id":"2c3e8b8e-455a-4972-8551-07ccc30a7bb8","system_id":"levelo_inurba_marseille","lat":43.28377,"lon":5.38632,"is_reserved":false,"is_disabled":false,"rental_uris":{"android":"levelo://app?vid=2c3e8b8e-455a-4972-8551-07ccc30a7bb8","ios":"levelo://app?vid=2c3e8b8e-455a-4972-8551-07ccc30a7bb8"},"vehicle_type_id":"4","last_reported":1726143403,"current_range_meters":6400,"station_id":"ce4bh492rcd13ifvqdvg","pricing_plan_id":"cebpf4jnsgd1na2vs0mg"},{"bike_id":"a4f01b8b-d347-48b7-b3da-11ced5b95847","system_id":"levelo_inurba_marseille","lat":43.31224,"lon":5.36862,"is_reserved":false,"is_disabled":false,"rental_uris":{"android":"levelo://app?vid=a4f01b8b-d347-48b7-b3da-11ced5b95847","ios":"levelo://app?vid=a4f01b8b-d347-48b7-b3da-11ced5b95847"},"vehicle_type_id":"4","last_reported":1726143403,"current_range_meters":5600,"station_id":"ce4bgl92rcd13ifvqbq0","pricing_plan_id":"cebpf4jnsgd1na2vs0mg"},{"bike_id":"d77ab7fd-9bd3-427d-992f-fc0984b68be8","system_id":"levelo_inurba_marseille","lat":43.27069,"lon":5.4227,"is_reserved":false,"is_disabled":false,"rental_uris":{"android":"levelo://app?vid=d77ab7fd-9bd3-427d-992f-fc0984b68be8","ios":"levelo://app?vid=d77ab7fd-9bd3-427d-992f-fc0984b68be8"},"vehicle_type_id":"4","last_reported":1726143403,"current_range_meters":10000,"station_id":"ce4bhk92rcd13ifvqgb0","pricing_plan_id":"cebpf4jnsgd1na2vs0mg"},{"bike_id":"68cc0089-c61b-448b-bb15-05fc1417eeee","system_id":"levelo_inurba_marseille","lat":43.29223,"lon":5.36066,"is_reserved":false,"is_disabled":false,"rental_uris":{"android":"levelo://app?vid=68cc0089-c61b-448b-bb15-05fc1417eeee","ios":"levelo://app?vid=68cc0089-c61b-448b-bb15-05fc1417eeee"},"vehicle_type_id":"4","last_reported":1726143403,"current_range_meters":37600,"station_id":"ce4bhbh2rcd13ifvqeqg","pricing_plan_id":"cebpf4jnsgd1na2vs0mg"},{"bike_id":"7b16d790-f48c-4f07-a17e-934045f8b950","system_id":"levelo_inurba_marseille","lat":43.337444,"lon":5.374475,"is_reserved":false,"is_disabled":false,"rental_uris":{"android":"levelo://app?vid=7b16d790-f48c-4f07-a17e-934045f8b950","ios":"levelo://app?vid=7b16d790-f48c-4f07-a17e-934045f8b950"},"vehicle_type_id":"4","last_reported":1726143403,"current_range_meters":20400,"station_id":"","pricing_plan_id":"cebpf4jnsgd1na2vs0mg"},{"bike_id":"33b083fb-ff53-40c5-be9d-074bcef857d3","system_id":"levelo_inurba_marseille","lat":43.28021,"lon":5.400066,"is_reserved":false,"is_disabled":false,"rental_uris":{"android":"levelo://app?vid=33b083fb-ff53-40c5-be9d-074bcef857d3","ios":"levelo://app?vid=33b083fb-ff53-40c5-be9d-074bcef857d3"},"vehicle_type_id":"4","last_reported":1726143403,"current_range_meters":20400,"station_id":"ce4bho92rcd13ifvqh4g","pricing_plan_id":"cebpf4jnsgd1na2vs0mg"},{"bike_id":"d63b08fd-7716-422a-94e4-8f1dfff5bb11","system_id":"levelo_inurba_marseille","lat":43.28616,"lon":5.35102,"is_reserved":false,"is_disabled":false,"rental_uris":{"android":"levelo://app?vid=d63b08fd-7716-422a-94e4-8f1dfff5bb11","ios":"levelo://app?vid=d63b08fd-7716-422a-94e4-8f1dfff5bb11"},"vehicle_type_id":"4","last_reported":1726143403,"current_range_meters":18800,"station_id":"ce4bhch2rcd13ifvqeug","pricing_plan_id":"cebpf4jnsgd1na2vs0mg"},{"bike_id":"d32c8681-5c25-4caa-8515-f43cd3d9d0d7","system_id":"levelo_inurba_marseille","lat":43.24082,"lon":5.37744,"is_reserved":false,"is_disabled":false,"rental_uris":{"android":"levelo://app?vid=d32c8681-5c25-4caa-8515-f43cd3d9d0d7","ios":"levelo://app?vid=d32c8681-5c25-4caa-8515-f43cd3d9d0d7"},"vehicle_type_id":"4","last_reported":1726143403,"current_range_meters":26000,"station_id":"ce4bhnp2rcd13ifvqgvg","pricing_plan_id":"cebpf4jnsgd1na2vs0mg"},{"bike_id":"908558fc-af51-49be-a019-0e16afa07ae8","system_id":"levelo_inurba_marseille","lat":43.27493,"lon":5.42459,"is_reserved":false,"is_disabled":false,"rental_uris":{"android":"levelo://app?vid=908558fc-af51-49be-a019-0e16afa07ae8","ios":"levelo://app?vid=908558fc-af51-49be-a019-0e16afa07ae8"},"vehicle_type_id":"4","last_reported":1726143403,"current_range_meters":8800,"station_id":"ce4bhn92rcd13ifvqgrg","pricing_plan_id":"cebpf4jnsgd1na2vs0mg"},{"bike_id":"7ad9c4c2-8e82-4e19-bf1e-a8777466a1dc","system_id":"levelo_inurba_marseille","lat":43.28422,"lon":5.3499,"is_reserved":false,"is_disabled":false,"rental_uris":{"android":"levelo://app?vid=7ad9c4c2-8e82-4e19-bf1e-a8777466a1dc","ios":"levelo://app?vid=7ad9c4c2-8e82-4e19-bf1e-a8777466a1dc"},"vehicle_type_id":"4","last_reported":1726143403,"current_range_meters":38800,"station_id":"ce4bhbh2rcd13ifvqepg","pricing_plan_id":"cebpf4jnsgd1na2vs0mg"},{"bike_id":"ea089342-7e5a-4518-9e1c-0475d2f9e19e","system_id":"levelo_inurba_marseille","lat":43.30565,"lon":5.36529,"is_reserved":false,"is_disabled":false,"rental_uris":{"android":"levelo://app?vid=ea089342-7e5a-4518-9e1c-0475d2f9e19e","ios":"levelo://app?vid=ea089342-7e5a-4518-9e1c-0475d2f9e19e"},"vehicle_type_id":"4","last_reported":1726143403,"current_range_meters":24000,"station_id":"ce4bgs12rcd13ifvqcag","pricing_plan_id":"cebpf4jnsgd1na2vs0mg"},{"bike_id":"dccadc39-7e75-4ff6-801e-d97b0e1812f2","system_id":"levelo_inurba_marseille","lat":43.33023,"lon":5.39036,"is_reserved":false,"is_disabled":false,"rental_uris":{"android":"levelo://app?vid=dccadc39-7e75-4ff6-801e-d97b0e1812f2","ios":"levelo://app?vid=dccadc39-7e75-4ff6-801e-d97b0e1812f2"},"vehicle_type_id":"4","last_reported":1726143403,"current_range_meters":28800,"station_id":"ce4bhr92rcd13ifvqhrg","pricing_plan_id":"cebpf4jnsgd1na2vs0mg"},{"bike_id":"41e2e5fd-b260-448a-a951-bddcd9555fd0","system_id":"levelo_inurba_marseille","lat":43.25828,"lon":5.39432,"is_reserved":false,"is_disabled":false,"rental_uris":{"android":"levelo://app?vid=41e2e5fd-b260-448a-a951-bddcd9555fd0","ios":"levelo://app?vid=41e2e5fd-b260-448a-a951-bddcd9555fd0"},"vehicle_type_id":"4","last_reported":1726143403,"current_range_meters":32000,"station_id":"ce4bhip2rcd13ifvqft0","pricing_plan_id":"cebpf4jnsgd1na2vs0mg"},{"bike_id":"703c5b25-1435-45b2-8c89-d7647aa322b9","system_id":"levelo_inurba_marseille","lat":43.31346,"lon":5.36743,"is_reserved":false,"is_disabled":false,"rental_uris":{"android":"levelo://app?vid=703c5b25-1435-45b2-8c89-d7647aa322b9","ios":"levelo://app?vid=703c5b25-1435-45b2-8c89-d7647aa322b9"},"vehicle_type_id":"4","last_reported":1726143403,"current_range_meters":39200,"station_id":"ce4bgr92rcd13ifvqc6g","pricing_plan_id":"cebpf4jnsgd1na2vs0mg"},{"bike_id":"2ab898f9-4f45-4330-b58f-1198c37363bd","system_id":"levelo_inurba_marseille","lat":43.301519,"lon":5.374172,"is_reserved":false,"is_disabled":false,"rental_uris":{"android":"levelo://app?vid=2ab898f9-4f45-4330-b58f-1198c37363bd","ios":"levelo://app?vid=2ab898f9-4f45-4330-b58f-1198c37363bd"},"vehicle_type_id":"4","last_reported":1726143403,"current_range_meters":18800,"station_id":"ce4bgs92rcd13ifvqcc0","pricing_plan_id":"cebpf4jnsgd1na2vs0mg"},{"bike_id":"07c5ca23-898b-4c34-bd22-a2473ea55f5e","system_id":"levelo_inurba_marseille","lat":43.30537,"lon":5.36529,"is_reserved":false,"is_disabled":false,"rental_uris":{"android":"levelo://app?vid=07c5ca23-898b-4c34-bd22-a2473ea55f5e","ios":"levelo://app?vid=07c5ca23-898b-4c34-bd22-a2473ea55f5e"},"vehicle_type_id":"4","last_reported":1726143403,"current_range_meters":32800,"station_id":"ce4bgs12rcd13ifvqcag","pricing_plan_id":"cebpf4jnsgd1na2vs0mg"},{"bike_id":"dd3fecec-0a50-4eb9-8dfc-5c61faf672e9","system_id":"levelo_inurba_marseille","lat":43.23158,"lon":5.43713,"is_reserved":false,"is_disabled":false,"rental_uris":{"android":"levelo://app?vid=dd3fecec-0a50-4eb9-8dfc-5c61faf672e9","ios":"levelo://app?vid=dd3fecec-0a50-4eb9-8dfc-5c61faf672e9"},"vehicle_type_id":"4","last_reported":1726143403,"current_range_meters":40000,"station_id":"ce4bhmp2rcd13ifvqgog","pricing_plan_id":"cebpf4jnsgd1na2vs0mg"},{"bike_id":"5e27d901-9831-43e4-a96f-3bc4b1e2005b","system_id":"levelo_inurba_marseille","lat":43.291931,"lon":5.358004,"is_reserved":false,"is_disabled":false,"rental_uris":{"android":"levelo://app?vid=5e27d901-9831-43e4-a96f-3bc4b1e2005b","ios":"levelo://app?vid=5e27d901-9831-43e4-a96f-3bc4b1e2005b"},"vehicle_type_id":"4","last_reported":1726143403,"current_range_meters":25600,"station_id":"ce4bhb12rcd13ifvqel0","pricing_plan_id":"cebpf4jnsgd1na2vs0mg"},{"bike_id":"0ae4c82d-7bf7-4f75-9cfc-82f2792f9ace","system_id":"levelo_inurba_marseille","lat":43.30905,"lon":5.36857,"is_reserved":false,"is_disabled":false,"rental_uris":{"android":"levelo://app?vid=0ae4c82d-7bf7-4f75-9cfc-82f2792f9ace","ios":"levelo://app?vid=0ae4c82d-7bf7-4f75-9cfc-82f2792f9ace"},"vehicle_type_id":"4","last_reported":1726143403,"current_range_meters":16000,"station_id":"ce4bgn92rcd13ifvqbvg","pricing_plan_id":"cebpf4jnsgd1na2vs0mg"},{"bike_id":"7551d42d-8659-416d-896d-f767a7f37efa","system_id":"levelo_inurba_marseille","lat":43.24539,"lon":5.39526,"is_reserved":false,"is_disabled":false,"rental_uris":{"android":"levelo://app?vid=7551d42d-8659-416d-896d-f767a7f37efa","ios":"levelo://app?vid=7551d42d-8659-416d-896d-f767a7f37efa"},"vehicle_type_id":"4","last_reported":1726143403,"current_range_meters":37600,"station_id":"ce4bhlp2rcd13ifvqgjg","pricing_plan_id":"cebpf4jnsgd1na2vs0mg"},{"bike_id":"444b1a59-90e5-43e6-a4ec-19c22171c6f5","system_id":"levelo_inurba_marseille","lat":43.2871,"lon":5.37935,"is_reserved":false,"is_disabled":false,"rental_uris":{"android":"levelo://app?vid=444b1a59-90e5-43e6-a4ec-19c22171c6f5","ios":"levelo://app?vid=444b1a59-90e5-43e6-a4ec-19c22171c6f5"},"vehicle_type_id":"4","last_reported":1726143403,"current_range_meters":39200,"station_id":"ce4bh9p2rcd13ifvqec0","pricing_plan_id":"cebpf4jnsgd1na2vs0mg"},{"bike_id":"2a9275a5-5d7d-4a05-8399-ce4a4e40d403","system_id":"levelo_inurba_marseille","lat":43.31492,"lon":5.37305,"is_reserved":false,"is_disabled":false,"rental_uris":{"android":"levelo://app?vid=2a9275a5-5d7d-4a05-8399-ce4a4e40d403","ios":"levelo://app?vid=2a9275a5-5d7d-4a05-8399-ce4a4e40d403"},"vehicle_type_id":"4","last_reported":1726143403,"current_range_meters":3600,"station_id":"ce4bgt12rcd13ifvqcd0","pricing_plan_id":"cebpf4jnsgd1na2vs0mg"},{"bike_id":"935541dc-0a07-42cf-80dd-37fbb8c795eb","system_id":"levelo_inurba_marseille","lat":43.31234,"lon":5.36855,"is_reserved":false,"is_disabled":false,"rental_uris":{"android":"levelo://app?vid=935541dc-0a07-42cf-80dd-37fbb8c795eb","ios":"levelo://app?vid=935541dc-0a07-42cf-80dd-37fbb8c795eb"},"vehicle_type_id":"4","last_reported":1726143403,"current_range_meters":34000,"station_id":"ce4bgl92rcd13ifvqbq0","pricing_plan_id":"cebpf4jnsgd1na2vs0mg"},{"bike_id":"2aad66d2-6ab9-40c3-9e5d-9c8252cb81ef","system_id":"levelo_inurba_marseille","lat":43.30382,"lon":5.40756,"is_reserved":false,"is_disabled":false,"rental_uris":{"android":"levelo://app?vid=2aad66d2-6ab9-40c3-9e5d-9c8252cb81ef","ios":"levelo://app?vid=2aad66d2-6ab9-40c3-9e5d-9c8252cb81ef"},"vehicle_type_id":"4","last_reported":1726143403,"current_range_meters":6800,"station_id":"","pricing_plan_id":"cebpf4jnsgd1na2vs0mg"},{"bike_id":"dc257456-5d47-403e-8156-50715631cd07","system_id":"levelo_inurba_marseille","lat":43.25502,"lon":5.37649,"is_reserved":false,"is_disabled":false,"rental_uris":{"android":"levelo://app?vid=dc257456-5d47-403e-8156-50715631cd07","ios":"levelo://app?vid=dc257456-5d47-403e-8156-50715631cd07"},"vehicle_type_id":"4","last_reported":1726143403,"current_range_meters":4400,"station_id":"ce4bhh12rcd13ifvqff0","pricing_plan_id":"cebpf4jnsgd1na2vs0mg"},{"bike_id":"dbffc40a-ad29-4e86-8073-3c24ef7376f6","system_id":"levelo_inurba_marseille","lat":43.24074,"lon":5.3776,"is_reserved":false,"is_disabled":false,"rental_uris":{"android":"levelo://app?vid=dbffc40a-ad29-4e86-8073-3c24ef7376f6","ios":"levelo://app?vid=dbffc40a-ad29-4e86-8073-3c24ef7376f6"},"vehicle_type_id":"4","last_reported":1726143403,"current_range_meters":22000,"station_id":"ce4bhnp2rcd13ifvqgvg","pricing_plan_id":"cebpf4jnsgd1na2vs0mg"},{"bike_id":"c6910708-0b55-40ec-80d3-4675760528df","system_id":"levelo_inurba_marseille","lat":43.28158,"lon":5.42638,"is_reserved":false,"is_disabled":false,"rental_uris":{"android":"levelo://app?vid=c6910708-0b55-40ec-80d3-4675760528df","ios":"levelo://app?vid=c6910708-0b55-40ec-80d3-4675760528df"},"vehicle_type_id":"4","last_reported":1726143403,"current_range_meters":20000,"station_id":"ce4bhnh2rcd13ifvqgug","pricing_plan_id":"cebpf4jnsgd1na2vs0mg"},{"bike_id":"eeb14cea-c6d6-41b8-8a51-1282baf9dfca","system_id":"levelo_inurba_marseille","lat":43.29845,"lon":5.38318,"is_reserved":false,"is_disabled":false,"rental_uris":{"android":"levelo://app?vid=eeb14cea-c6d6-41b8-8a51-1282baf9dfca","ios":"levelo://app?vid=eeb14cea-c6d6-41b8-8a51-1282baf9dfca"},"vehicle_type_id":"4","last_reported":1726143403,"current_range_meters":28400,"station_id":"","pricing_plan_id":"cebpf4jnsgd1na2vs0mg"},{"bike_id":"2665568f-5c24-4523-9878-6df6164d3dbb","system_id":"levelo_inurba_marseille","lat":43.24081,"lon":5.37753,"is_reserved":false,"is_disabled":false,"rental_uris":{"android":"levelo://app?vid=2665568f-5c24-4523-9878-6df6164d3dbb","ios":"levelo://app?vid=2665568f-5c24-4523-9878-6df6164d3dbb"},"vehicle_type_id":"4","last_reported":1726143403,"current_range_meters":19200,"station_id":"ce4bhnp2rcd13ifvqgvg","pricing_plan_id":"cebpf4jnsgd1na2vs0mg"},{"bike_id":"aea3b9fc-8bc6-4e46-b052-6f51bc19832b","system_id":"levelo_inurba_marseille","lat":43.3028,"lon":5.37687,"is_reserved":false,"is_disabled":false,"rental_uris":{"android":"levelo://app?vid=aea3b9fc-8bc6-4e46-b052-6f51bc19832b","ios":"levelo://app?vid=aea3b9fc-8bc6-4e46-b052-6f51bc19832b"},"vehicle_type_id":"4","last_reported":1726143403,"current_range_meters":36400,"station_id":"ce4bguh2rcd13ifvqcj0","pricing_plan_id":"cebpf4jnsgd1na2vs0mg"},{"bike_id":"f1ead754-bc83-4090-9415-e728670744f4","system_id":"levelo_inurba_marseille","lat":43.31065,"lon":5.38352,"is_reserved":false,"is_disabled":false,"rental_uris":{"android":"levelo://app?vid=f1ead754-bc83-4090-9415-e728670744f4","ios":"levelo://app?vid=f1ead754-bc83-4090-9415-e728670744f4"},"vehicle_type_id":"4","last_reported":1726143403,"current_range_meters":18800,"station_id":"ce4bgv92rcd13ifvqcr0","pricing_plan_id":"cebpf4jnsgd1na2vs0mg"},{"bike_id":"35e327a1-1955-4d12-a070-7da01b3f8826","system_id":"levelo_inurba_marseille","lat":43.30909,"lon":5.36857,"is_reserved":false,"is_disabled":false,"rental_uris":{"android":"levelo://app?vid=35e327a1-1955-4d12-a070-7da01b3f8826","ios":"levelo://app?vid=35e327a1-1955-4d12-a070-7da01b3f8826"},"vehicle_type_id":"4","last_reported":1726143403,"current_range_meters":31200,"station_id":"ce4bgn92rcd13ifvqbvg","pricing_plan_id":"cebpf4jnsgd1na2vs0mg"},{"bike_id":"aa19fc99-f16a-4819-a418-d51a1a9bdec5","system_id":"levelo_inurba_marseille","lat":43.25504,"lon":5.37655,"is_reserved":false,"is_disabled":false,"rental_uris":{"android":"levelo://app?vid=aa19fc99-f16a-4819-a418-d51a1a9bdec5","ios":"levelo://app?vid=aa19fc99-f16a-4819-a418-d51a1a9bdec5"},"vehicle_type_id":"4","last_reported":1726143403,"current_range_meters":39200,"station_id":"ce4bhh12rcd13ifvqff0","pricing_plan_id":"cebpf4jnsgd1na2vs0mg"},{"bike_id":"e74371d2-992f-4eff-a867-24d8c9f79f52","system_id":"levelo_inurba_marseille","lat":43.33608,"lon":5.41037,"is_reserved":false,"is_disabled":false,"rental_uris":{"android":"levelo://app?vid=e74371d2-992f-4eff-a867-24d8c9f79f52","ios":"levelo://app?vid=e74371d2-992f-4eff-a867-24d8c9f79f52"},"vehicle_type_id":"4","last_reported":1726143403,"current_range_meters":38800,"station_id":"ce4bhqh2rcd13ifvqhmg","pricing_plan_id":"cebpf4jnsgd1na2vs0mg"},{"bike_id":"2fe2ce34-c6bd-4cf7-a7c0-b5365e16b956","system_id":"levelo_inurba_marseille","lat":43.30539,"lon":5.38417,"is_reserved":false,"is_disabled":false,"rental_uris":{"android":"levelo://app?vid=2fe2ce34-c6bd-4cf7-a7c0-b5365e16b956","ios":"levelo://app?vid=2fe2ce34-c6bd-4cf7-a7c0-b5365e16b956"},"vehicle_type_id":"4","last_reported":1726143403,"current_range_meters":8800,"station_id":"ce4bgg92rcd13ifvqb30","pricing_plan_id":"cebpf4jnsgd1na2vs0mg"},{"bike_id":"f0ab1e44-8ac5-4033-a7ac-b3e3da389903","system_id":"levelo_inurba_marseille","lat":43.27066,"lon":5.42273,"is_reserved":false,"is_disabled":false,"rental_uris":{"android":"levelo://app?vid=f0ab1e44-8ac5-4033-a7ac-b3e3da389903","ios":"levelo://app?vid=f0ab1e44-8ac5-4033-a7ac-b3e3da389903"},"vehicle_type_id":"4","last_reported":1726143403,"current_range_meters":39200,"station_id":"ce4bhk92rcd13ifvqgb0","pricing_plan_id":"cebpf4jnsgd1na2vs0mg"},{"bike_id":"07472c68-717a-4c3e-8fb3-7db33a0de292","system_id":"levelo_inurba_marseille","lat":43.28419,"lon":5.34994,"is_reserved":false,"is_disabled":false,"rental_uris":{"android":"levelo://app?vid=07472c68-717a-4c3e-8fb3-7db33a0de292","ios":"levelo://app?vid=07472c68-717a-4c3e-8fb3-7db33a0de292"},"vehicle_type_id":"4","last_reported":1726143403,"current_range_meters":36400,"station_id":"ce4bhbh2rcd13ifvqepg","pricing_plan_id":"cebpf4jnsgd1na2vs0mg"},{"bike_id":"1fbf46c4-c320-45cc-b884-eaa45a3d4791","system_id":"levelo_inurba_marseille","lat":43.30551,"lon":5.36543,"is_reserved":false,"is_disabled":false,"rental_uris":{"android":"levelo://app?vid=1fbf46c4-c320-45cc-b884-eaa45a3d4791","ios":"levelo://app?vid=1fbf46c4-c320-45cc-b884-eaa45a3d4791"},"vehicle_type_id":"4","last_reported":1726143403,"current_range_meters":11200,"station_id":"ce4bgs12rcd13ifvqcag","pricing_plan_id":"cebpf4jnsgd1na2vs0mg"},{"bike_id":"f436725f-afd9-41c1-99f1-be7189f34823","system_id":"levelo_inurba_marseille","lat":43.29717,"lon":5.37688,"is_reserved":false,"is_disabled":false,"rental_uris":{"android":"levelo://app?vid=f436725f-afd9-41c1-99f1-be7189f34823","ios":"levelo://app?vid=f436725f-afd9-41c1-99f1-be7189f34823"},"vehicle_type_id":"4","last_reported":1726143403,"current_range_meters":10000,"station_id":"ce4bgkh2rcd13ifvqbl0","pricing_plan_id":"cebpf4jnsgd1na2vs0mg"},{"bike_id":"db58cdfc-4c11-4d08-9795-51b78b37db20","system_id":"levelo_inurba_marseille","lat":43.337444,"lon":5.374475,"is_reserved":false,"is_disabled":false,"rental_uris":{"android":"levelo://app?vid=db58cdfc-4c11-4d08-9795-51b78b37db20","ios":"levelo://app?vid=db58cdfc-4c11-4d08-9795-51b78b37db20"},"vehicle_type_id":"4","last_reported":1726143403,"current_range_meters":33600,"station_id":"","pricing_plan_id":"cebpf4jnsgd1na2vs0mg"},{"bike_id":"0812723c-bd87-43d9-ba80-42e1368ee507","system_id":"levelo_inurba_marseille","lat":43.25937,"lon":5.409,"is_reserved":false,"is_disabled":false,"rental_uris":{"android":"levelo://app?vid=0812723c-bd87-43d9-ba80-42e1368ee507","ios":"levelo://app?vid=0812723c-bd87-43d9-ba80-42e1368ee507"},"vehicle_type_id":"4","last_reported":1726143403,"current_range_meters":25200,"station_id":"ce4bhm92rcd13ifvqglg","pricing_plan_id":"cebpf4jnsgd1na2vs0mg"},{"bike_id":"43f324fc-000b-4ca8-a7c3-f866285e436b","system_id":"levelo_inurba_marseille","lat":43.24073,"lon":5.37763,"is_reserved":false,"is_disabled":false,"rental_uris":{"android":"levelo://app?vid=43f324fc-000b-4ca8-a7c3-f866285e436b","ios":"levelo://app?vid=43f324fc-000b-4ca8-a7c3-f866285e436b"},"vehicle_type_id":"4","last_reported":1726143403,"current_range_meters":4800,"station_id":"ce4bhnp2rcd13ifvqgvg","pricing_plan_id":"cebpf4jnsgd1na2vs0mg"},{"bike_id":"64b528f7-596e-4842-8f7a-56bcf72d3cb9","system_id":"levelo_inurba_marseille","lat":43.28834,"lon":5.35854,"is_reserved":false,"is_disabled":false,"rental_uris":{"android":"levelo://app?vid=64b528f7-596e-4842-8f7a-56bcf72d3cb9","ios":"levelo://app?vid=64b528f7-596e-4842-8f7a-56bcf72d3cb9"},"vehicle_type_id":"4","last_reported":1726143403,"current_range_meters":38800,"station_id":"ce4bhb12rcd13ifvqem0","pricing_plan_id":"cebpf4jnsgd1na2vs0mg"},{"bike_id":"b9409a90-048f-4091-8629-1b0d60cbcf4e","system_id":"levelo_inurba_marseille","lat":43.30145,"lon":5.37418,"is_reserved":false,"is_disabled":false,"rental_uris":{"android":"levelo://app?vid=b9409a90-048f-4091-8629-1b0d60cbcf4e","ios":"levelo://app?vid=b9409a90-048f-4091-8629-1b0d60cbcf4e"},"vehicle_type_id":"4","last_reported":1726143403,"current_range_meters":20400,"station_id":"ce4bgs92rcd13ifvqcc0","pricing_plan_id":"cebpf4jnsgd1na2vs0mg"},{"bike_id":"cf537fb5-21f4-49dd-88c0-001baf6d9489","system_id":"levelo_inurba_marseille","lat":43.30551,"lon":5.36537,"is_reserved":false,"is_disabled":false,"rental_uris":{"android":"levelo://app?vid=cf537fb5-21f4-49dd-88c0-001baf6d9489","ios":"levelo://app?vid=cf537fb5-21f4-49dd-88c0-001baf6d9489"},"vehicle_type_id":"4","last_reported":1726143403,"current_range_meters":33200,"station_id":"ce4bgs12rcd13ifvqcag","pricing_plan_id":"cebpf4jnsgd1na2vs0mg"},{"bike_id":"9845fa31-ee3c-43f3-9176-dd1e7e798e11","system_id":"levelo_inurba_marseille","lat":43.33023,"lon":5.39033,"is_reserved":false,"is_disabled":false,"rental_uris":{"android":"levelo://app?vid=9845fa31-ee3c-43f3-9176-dd1e7e798e11","ios":"levelo://app?vid=9845fa31-ee3c-43f3-9176-dd1e7e798e11"},"vehicle_type_id":"4","last_reported":1726143403,"current_range_meters":8000,"station_id":"ce4bhr92rcd13ifvqhrg","pricing_plan_id":"cebpf4jnsgd1na2vs0mg"},{"bike_id":"764f0a08-e915-4b85-8d44-260b75b15df8","system_id":"levelo_inurba_marseille","lat":43.24074,"lon":5.37765,"is_reserved":false,"is_disabled":false,"rental_uris":{"android":"levelo://app?vid=764f0a08-e915-4b85-8d44-260b75b15df8","ios":"levelo://app?vid=764f0a08-e915-4b85-8d44-260b75b15df8"},"vehicle_type_id":"4","last_reported":1726143403,"current_range_meters":12800,"station_id":"ce4bhnp2rcd13ifvqgvg","pricing_plan_id":"cebpf4jnsgd1na2vs0mg"},{"bike_id":"8e476c8b-4a0c-474a-884e-d68e4b8e3eca","system_id":"levelo_inurba_marseille","lat":43.32428,"lon":5.367131,"is_reserved":false,"is_disabled":false,"rental_uris":{"android":"levelo://app?vid=8e476c8b-4a0c-474a-884e-d68e4b8e3eca","ios":"levelo://app?vid=8e476c8b-4a0c-474a-884e-d68e4b8e3eca"},"vehicle_type_id":"4","last_reported":1726143403,"current_range_meters":16000,"station_id":"","pricing_plan_id":"cebpf4jnsgd1na2vs0mg"},{"bike_id":"d2d6102a-8092-4166-98be-8f0747906347","system_id":"levelo_inurba_marseille","lat":43.31221,"lon":5.36859,"is_reserved":false,"is_disabled":false,"rental_uris":{"android":"levelo://app?vid=d2d6102a-8092-4166-98be-8f0747906347","ios":"levelo://app?vid=d2d6102a-8092-4166-98be-8f0747906347"},"vehicle_type_id":"4","last_reported":1726143403,"current_range_meters":15200,"station_id":"ce4bgl92rcd13ifvqbq0","pricing_plan_id":"cebpf4jnsgd1na2vs0mg"},{"bike_id":"f7383583-f6d9-4a1f-9651-744703bbb837","system_id":"levelo_inurba_marseille","lat":43.30801,"lon":5.43523,"is_reserved":false,"is_disabled":false,"rental_uris":{"android":"levelo://app?vid=f7383583-f6d9-4a1f-9651-744703bbb837","ios":"levelo://app?vid=f7383583-f6d9-4a1f-9651-744703bbb837"},"vehicle_type_id":"4","last_reported":1726143403,"current_range_meters":7200,"station_id":"ce4bhph2rcd13ifvqheg","pricing_plan_id":"cebpf4jnsgd1na2vs0mg"},{"bike_id":"eadd6469-1309-4c77-b811-34718ae1c75b","system_id":"levelo_inurba_marseille","lat":43.29905,"lon":5.38145,"is_reserved":false,"is_disabled":false,"rental_uris":{"android":"levelo://app?vid=eadd6469-1309-4c77-b811-34718ae1c75b","ios":"levelo://app?vid=eadd6469-1309-4c77-b811-34718ae1c75b"},"vehicle_type_id":"4","last_reported":1726143403,"current_range_meters":38800,"station_id":"ce4bgj12rcd13ifvqbc0","pricing_plan_id":"cebpf4jnsgd1na2vs0mg"},{"bike_id":"37c95c7a-f198-428d-ae5b-26db472543d0","system_id":"levelo_inurba_marseille","lat":43.24082,"lon":5.3776,"is_reserved":false,"is_disabled":false,"rental_uris":{"android":"levelo://app?vid=37c95c7a-f198-428d-ae5b-26db472543d0","ios":"levelo://app?vid=37c95c7a-f198-428d-ae5b-26db472543d0"},"vehicle_type_id":"4","last_reported":1726143403,"current_range_meters":22800,"station_id":"ce4bhnp2rcd13ifvqgvg","pricing_plan_id":"cebpf4jnsgd1na2vs0mg"},{"bike_id":"b522eb40-aae4-4af8-831c-fad27074f4dd","system_id":"levelo_inurba_marseille","lat":43.29985,"lon":5.37186,"is_reserved":false,"is_disabled":false,"rental_uris":{"android":"levelo://app?vid=b522eb40-aae4-4af8-831c-fad27074f4dd","ios":"levelo://app?vid=b522eb40-aae4-4af8-831c-fad27074f4dd"},"vehicle_type_id":"4","last_reported":1726143403,"current_range_meters":35600,"station_id":"ce4bgr92rcd13ifvqc7g","pricing_plan_id":"cebpf4jnsgd1na2vs0mg"},{"bike_id":"7e0218bf-7f11-4080-af6b-6a30cc5cda7a","system_id":"levelo_inurba_marseille","lat":43.28338,"lon":5.3812,"is_reserved":false,"is_disabled":false,"rental_uris":{"android":"levelo://app?vid=7e0218bf-7f11-4080-af6b-6a30cc5cda7a","ios":"levelo://app?vid=7e0218bf-7f11-4080-af6b-6a30cc5cda7a"},"vehicle_type_id":"4","last_reported":1726143403,"current_range_meters":38800,"station_id":"ce4bh412rcd13ifvqdr0","pricing_plan_id":"cebpf4jnsgd1na2vs0mg"},{"bike_id":"e30e0f6b-fdc4-4b28-940a-c63fc6745342","system_id":"levelo_inurba_marseille","lat":43.25119,"lon":5.40312,"is_reserved":false,"is_disabled":false,"rental_uris":{"android":"levelo://app?vid=e30e0f6b-fdc4-4b28-940a-c63fc6745342","ios":"levelo://app?vid=e30e0f6b-fdc4-4b28-940a-c63fc6745342"},"vehicle_type_id":"4","last_reported":1726143403,"current_range_meters":33600,"station_id":"ce4bhlh2rcd13ifvqgig","pricing_plan_id":"cebpf4jnsgd1na2vs0mg"},{"bike_id":"2f6ea2ec-5ad7-4afe-911a-28046ca0bc56","system_id":"levelo_inurba_marseille","lat":43.29975,"lon":5.38492,"is_reserved":false,"is_disabled":false,"rental_uris":{"android":"levelo://app?vid=2f6ea2ec-5ad7-4afe-911a-28046ca0bc56","ios":"levelo://app?vid=2f6ea2ec-5ad7-4afe-911a-28046ca0bc56"},"vehicle_type_id":"4","last_reported":1726143403,"current_range_meters":32000,"station_id":"ce4bgj92rcd13ifvqbd0","pricing_plan_id":"cebpf4jnsgd1na2vs0mg"},